[
  {
    "source_id": "ChIJdX-JTjXxLhURaJZbmcRACgI",
    "name": "Düziçi Teknik Tesisat",
    "category": "Düziçi Teknik Tesisat",
    "formatted_address": "5,0(4)",
    "phone_number": "+905412283020",
    "source_url": "https://www.google.com/maps/place/D%C3%BCzi%C3%A7i+Teknik+Tesisat/data=!4m7!3m6!1s0x152ef1354e897f75:0x20a40c4995b9668!8m2!3d37.241843!4d36.453963!16s%2Fg%2F11vb2js782!19sChIJdX-JTjXxLhURaJZbmcRACgI?authuser=0&hl=tr&rclk=1",
    "website_url": "",
    "rating_text": "5,0",
    "stars": null,
    "number_of_reviews": null,
    "price_level": "",
    "open_hours": "",
    "extraction_timestamp": "2025-06-08T03:24:46.386Z",
    "source_name": "google",
    "source_query": "Irrigation Equipment",
    "source_country": "TR",
    "country": "Turkey",
    "state": "Osmaniye",
    "city": "Düziçi"
  },
  {
    "source_id": "ChIJe4qeyvPxLhURvaNNZk5ojno",
    "name": "DÜZİCİ TEKNİK TARIMSAL YAYIM VE DANIŞMANLIK",
    "category": "DÜZİCİ TEKNİK TARIMSAL YAYIM VE DANIŞMANLIK",
    "formatted_address": "3,0(1)",
    "phone_number": "+905438715034",
    "source_url": "https://www.google.com/maps/place/D%C3%9CZ%C4%B0C%C4%B0+TEKN%C4%B0K+TARIMSAL+YAYIM+VE+DANI%C5%9EMANLIK/data=!4m7!3m6!1s0x152ef1f3ca9e8a7b:0x7a8e684e664da3bd!8m2!3d37.2402665!4d36.4493943!16s%2Fg%2F11gpndyz1f!19sChIJe4qeyvPxLhURvaNNZk5ojno?authuser=0&hl=tr&rclk=1",
    "website_url": "",
    "rating_text": "3,0",
    "stars": null,
    "number_of_reviews": null,
    "price_level": "",
    "open_hours": "",
    "extraction_timestamp": "2025-06-08T03:24:46.387Z",
    "source_name": "google",
    "source_query": "Irrigation Equipment",
    "source_country": "TR",
    "country": "Turkey",
    "state": "Osmaniye",
    "city": "Düziçi"
  },
  {
    "source_id": "ChIJCzgmPMDxLhURNqzhGJfJYY0",
    "name": "Gök-Su Aritma Cihazlari",
    "category": "Gök-Su Aritma Cihazlari",
    "formatted_address": "5,0(6)",
    "phone_number": "",
    "source_url": "https://www.google.com/maps/place/G%C3%B6k-Su+Aritma+Cihazlari/data=!4m7!3m6!1s0x152ef1c03c26380b:0x8d61c99718e1ac36!8m2!3d37.2434409!4d36.4565086!16s%2Fg%2F11c2p_n3yk!19sChIJCzgmPMDxLhURNqzhGJfJYY0?authuser=0&hl=tr&rclk=1",
    "website_url": "",
    "rating_text": "5,0",
    "stars": null,
    "number_of_reviews": null,
    "price_level": "",
    "open_hours": "",
    "extraction_timestamp": "2025-06-08T03:24:46.387Z",
    "source_name": "google",
    "source_query": "Irrigation Equipment",
    "source_country": "TR",
    "country": "Turkey",
    "state": "Osmaniye",
    "city": "Düziçi"
  },
  {
    "source_id": "ChIJZ4lQV_bxLhURFzheX8Fg_OA",
    "name": "ASİLLİ TİCARET MARGAZ TÜP BAYİİ & AYRAN SU SATIŞ NOKTASI",
    "category": "ASİLLİ TİCARET MARGAZ TÜP BAYİİ & AYRAN SU SATIŞ NOKTASI",
    "formatted_address": "",
    "phone_number": "+905419559880",
    "source_url": "https://www.google.com/maps/place/AS%C4%B0LL%C4%B0+T%C4%B0CARET+MARGAZ+T%C3%9CP+BAY%C4%B0%C4%B0+%26+AYRAN+SU+SATI%C5%9E+NOKTASI/data=!4m7!3m6!1s0x152ef1f657508967:0xe0fc60c15f5e3817!8m2!3d37.2403647!4d36.4521778!16s%2Fg%2F11x1sldzp0!19sChIJZ4lQV_bxLhURFzheX8Fg_OA?authuser=0&hl=tr&rclk=1",
    "website_url": "",
    "rating_text": "",
    "stars": null,
    "number_of_reviews": null,
    "price_level": "",
    "open_hours": "",
    "extraction_timestamp": "2025-06-08T03:24:46.387Z",
    "source_name": "google",
    "source_query": "Irrigation Equipment",
    "source_country": "TR",
    "country": "Turkey",
    "state": "Osmaniye",
    "city": "Düziçi"
  }
]
