[
  {
    "source_id": "ChIJ825YdnvPLhUR7hrNlkvNhm4",
    "name": "Güven Tarım Aletleri San. ve Tic.",
    "category": "Güven Tarım Aletleri San. ve Tic.",
    "formatted_address": "4,7(38)",
    "phone_number": "+903287185359",
    "source_url": "https://www.google.com/maps/place/G%C3%BCven+Tar%C4%B1m+Aletleri+San.+ve+Tic./data=!4m7!3m6!1s0x152ecf7b76586ef3:0x6e86cd4b96cd1aee!8m2!3d37.3648291!4d36.0831498!16s%2Fg%2F11h1k85hz!19sChIJ825YdnvPLhUR7hrNlkvNhm4?authuser=0&hl=tr&rclk=1",
    "website_url": "http://www.guventarim.org/",
    "rating_text": "4,7",
    "stars": null,
    "number_of_reviews": null,
    "price_level": "",
    "open_hours": "",
    "extraction_timestamp": "2025-06-08T03:24:30.421Z",
    "source_name": "google",
    "source_query": "Irrigation Equipment",
    "source_country": "TR",
    "country": "Turkey",
    "state": "Osmaniye",
    "city": "Kadirli"
  },
  {
    "source_id": "ChIJR_E29WLPLhUR5bMn5iV_r2I",
    "name": "Doğuş Tarım",
    "category": "Doğuş Tarım",
    "formatted_address": "4,8(48)",
    "phone_number": "",
    "source_url": "https://www.google.com/maps/place/Do%C4%9Fu%C5%9F+Tar%C4%B1m/data=!4m7!3m6!1s0x152ecf62f536f147:0x62af7f25e627b3e5!8m2!3d37.3676066!4d36.0876783!16s%2Fg%2F11bxdt9wr7!19sChIJR_E29WLPLhUR5bMn5iV_r2I?authuser=0&hl=tr&rclk=1",
    "website_url": "",
    "rating_text": "4,8",
    "stars": null,
    "number_of_reviews": null,
    "price_level": "",
    "open_hours": "",
    "extraction_timestamp": "2025-06-08T03:24:30.423Z",
    "source_name": "google",
    "source_query": "Irrigation Equipment",
    "source_country": "TR",
    "country": "Turkey",
    "state": "Osmaniye",
    "city": "Kadirli"
  },
  {
    "source_id": "ChIJS-j5yYvFLhURkHoc3lFzT84",
    "name": "ALPSEM MÜHENDİSLİK DOĞALGAZ",
    "category": "ALPSEM MÜHENDİSLİK DOĞALGAZ",
    "formatted_address": "5,0(5)",
    "phone_number": "+905387153795",
    "source_url": "https://www.google.com/maps/place/ALPSEM+M%C3%9CHEND%C4%B0SL%C4%B0K+DO%C4%9EALGAZ/data=!4m7!3m6!1s0x152ec58bc9f9e84b:0xce4f7351de1c7a90!8m2!3d37.3673658!4d36.0946031!16s%2Fg%2F11x2pmxqgk!19sChIJS-j5yYvFLhURkHoc3lFzT84?authuser=0&hl=tr&rclk=1",
    "website_url": "",
    "rating_text": "5,0",
    "stars": null,
    "number_of_reviews": null,
    "price_level": "",
    "open_hours": "",
    "extraction_timestamp": "2025-06-08T03:24:30.425Z",
    "source_name": "google",
    "source_query": "Irrigation Equipment",
    "source_country": "TR",
    "country": "Turkey",
    "state": "Osmaniye",
    "city": "Kadirli"
  },
  {
    "source_id": "ChIJAe_Byk0hLxURqoo0ifH_Dxg",
    "name": "OSMANİYE Şehir Hidrofor",
    "category": "OSMANİYE Şehir Hidrofor",
    "formatted_address": "5,0(8)",
    "phone_number": "+905350316145",
    "source_url": "https://www.google.com/maps/place/OSMAN%C4%B0YE+%C5%9Eehir+Hidrofor/data=!4m7!3m6!1s0x152f214dcac1ef01:0x180ffff189348aaa!8m2!3d37.0819518!4d36.2521762!16s%2Fg%2F11v6fg5zsn!19sChIJAe_Byk0hLxURqoo0ifH_Dxg?authuser=0&hl=tr&rclk=1",
    "website_url": "https://www.facebook.com/profile.php?id=100094610623874&mibextid=ZbWKwL",
    "rating_text": "5,0",
    "stars": null,
    "number_of_reviews": null,
    "price_level": "",
    "open_hours": "",
    "extraction_timestamp": "2025-06-08T03:24:30.427Z",
    "source_name": "google",
    "source_query": "Irrigation Equipment",
    "source_country": "TR",
    "country": "Turkey",
    "state": "Osmaniye",
    "city": "Kadirli"
  }
]
