[
  {
    "source_id": "ChIJT1vMDYLJKBUR_qzsT1sql8k",
    "name": "Aslantaş Yapı Tarim",
    "category": "Aslantaş Yapı Tarim",
    "formatted_address": "4,8(30)",
    "phone_number": "+905522679033",
    "source_url": "https://www.google.com/maps/place/Aslanta%C5%9F+Yap%C4%B1+Tarim/data=!4m7!3m6!1s0x1528c9820dcc5b4f:0xc9972a5b4fecacfe!8m2!3d37.0907577!4d36.2496244!16s%2Fg%2F11ny32v6gf!19sChIJT1vMDYLJKBUR_qzsT1sql8k?authuser=0&hl=tr&rclk=1",
    "website_url": "",
    "rating_text": "4,8",
    "stars": null,
    "number_of_reviews": null,
    "price_level": "",
    "open_hours": "",
    "extraction_timestamp": "2025-06-08T03:23:54.768Z",
    "source_name": "google",
    "source_query": "Irrigation Equipment",
    "source_country": "TR",
    "country": "Turkey",
    "state": "Osmaniye",
    "city": "Merkez"
  },
  {
    "source_id": "ChIJ1_uGgQMhLxURsc9pLT-x5bI",
    "name": "Akdeniz Hidrafor Sistemleri",
    "category": "Akdeniz Hidrafor Sistemleri",
    "formatted_address": "4,8(22)",
    "phone_number": "+905432701978",
    "source_url": "https://www.google.com/maps/place/Akdeniz+Hidrafor+Sistemleri/data=!4m7!3m6!1s0x152f21038186fbd7:0xb2e5b13f2d69cfb1!8m2!3d37.0699829!4d36.2472484!16s%2Fg%2F11rhqm34kh!19sChIJ1_uGgQMhLxURsc9pLT-x5bI?authuser=0&hl=tr&rclk=1",
    "website_url": "",
    "rating_text": "4,8",
    "stars": null,
    "number_of_reviews": null,
    "price_level": "",
    "open_hours": "",
    "extraction_timestamp": "2025-06-08T03:23:54.770Z",
    "source_name": "google",
    "source_query": "Irrigation Equipment",
    "source_country": "TR",
    "country": "Turkey",
    "state": "Osmaniye",
    "city": "Merkez"
  },
  {
    "source_id": "ChIJEauk4ikhLxUR9K3dAnrIpb4",
    "name": "MS HİDRAFOR SİSTEMLERİ ELEKTRİK SU",
    "category": "MS HİDRAFOR SİSTEMLERİ ELEKTRİK SU",
    "formatted_address": "5,0(4)",
    "phone_number": "+905466718182",
    "source_url": "https://www.google.com/maps/place/MS+H%C4%B0DRAFOR+S%C4%B0STEMLER%C4%B0+ELEKTR%C4%B0K+SU/data=!4m7!3m6!1s0x152f2129e2a4ab11:0xbea5c87a02ddadf4!8m2!3d37.0590968!4d36.2482775!16s%2Fg%2F11wpl3sn6f!19sChIJEauk4ikhLxUR9K3dAnrIpb4?authuser=0&hl=tr&rclk=1",
    "website_url": "",
    "rating_text": "5,0",
    "stars": null,
    "number_of_reviews": null,
    "price_level": "",
    "open_hours": "",
    "extraction_timestamp": "2025-06-08T03:23:54.772Z",
    "source_name": "google",
    "source_query": "Irrigation Equipment",
    "source_country": "TR",
    "country": "Turkey",
    "state": "Osmaniye",
    "city": "Merkez"
  },
  {
    "source_id": "ChIJAe_Byk0hLxURqoo0ifH_Dxg",
    "name": "OSMANİYE Şehir Hidrofor",
    "category": "OSMANİYE Şehir Hidrofor",
    "formatted_address": "5,0(8)",
    "phone_number": "+905350316145",
    "source_url": "https://www.google.com/maps/place/OSMAN%C4%B0YE+%C5%9Eehir+Hidrofor/data=!4m7!3m6!1s0x152f214dcac1ef01:0x180ffff189348aaa!8m2!3d37.0819518!4d36.2521762!16s%2Fg%2F11v6fg5zsn!19sChIJAe_Byk0hLxURqoo0ifH_Dxg?authuser=0&hl=tr&rclk=1",
    "website_url": "",
    "rating_text": "5,0",
    "stars": null,
    "number_of_reviews": null,
    "price_level": "",
    "open_hours": "",
    "extraction_timestamp": "2025-06-08T03:23:54.774Z",
    "source_name": "google",
    "source_query": "Irrigation Equipment",
    "source_country": "TR",
    "country": "Turkey",
    "state": "Osmaniye",
    "city": "Merkez"
  },
  {
    "source_id": "ChIJrQE-f9IhLxURbF8QtzIEuf4",
    "name": "ŞEKERLER SU TESİSAT",
    "category": "ŞEKERLER SU TESİSAT",
    "formatted_address": "4,7(42)",
    "phone_number": "+905442722658",
    "source_url": "https://www.google.com/maps/place/%C5%9EEKERLER+SU+TES%C4%B0SAT/data=!4m7!3m6!1s0x152f21d27f3e01ad:0xfeb90432b7105f6c!8m2!3d37.0747122!4d36.2531572!16s%2Fg%2F11p12w16_z!19sChIJrQE-f9IhLxURbF8QtzIEuf4?authuser=0&hl=tr&rclk=1",
    "website_url": "",
    "rating_text": "4,7",
    "stars": null,
    "number_of_reviews": null,
    "price_level": "",
    "open_hours": "",
    "extraction_timestamp": "2025-06-08T03:23:54.775Z",
    "source_name": "google",
    "source_query": "Irrigation Equipment",
    "source_country": "TR",
    "country": "Turkey",
    "state": "Osmaniye",
    "city": "Merkez"
  },
  {
    "source_id": "ChIJ5YgonKghLxURfevEbkGeHrE",
    "name": "Osmaniye Su Arıtma Dünyası (Akdeniz Su Arıtma)",
    "category": "Osmaniye Su Arıtma Dünyası (Akdeniz Su Arıtma)",
    "formatted_address": "5,0(25)",
    "phone_number": "+905425062340",
    "source_url": "https://www.google.com/maps/place/Osmaniye+Su+Ar%C4%B1tma+D%C3%BCnyas%C4%B1+%28Akdeniz+Su+Ar%C4%B1tma%29/data=!4m7!3m6!1s0x152f21a89c2888e5:0xb11e9e416ec4eb7d!8m2!3d37.0623714!4d36.2477027!16s%2Fg%2F11hzpjws4d!19sChIJ5YgonKghLxURfevEbkGeHrE?authuser=0&hl=tr&rclk=1",
    "website_url": "",
    "rating_text": "5,0",
    "stars": null,
    "number_of_reviews": null,
    "price_level": "",
    "open_hours": "",
    "extraction_timestamp": "2025-06-08T03:23:54.778Z",
    "source_name": "google",
    "source_query": "Irrigation Equipment",
    "source_country": "TR",
    "country": "Turkey",
    "state": "Osmaniye",
    "city": "Merkez"
  },
  {
    "source_id": "ChIJUaLqyLohLxURL8bd4v8XgsI",
    "name": "YILDIRIM SUTESİSAT",
    "category": "YILDIRIM SUTESİSAT",
    "formatted_address": "4,9(82)",
    "phone_number": "+905435184542",
    "source_url": "https://www.google.com/maps/place/YILDIRIM+SUTES%C4%B0SAT/data=!4m7!3m6!1s0x152f21bac8eaa251:0xc28217ffe2ddc62f!8m2!3d37.0731466!4d36.2361885!16s%2Fg%2F11s21p6n26!19sChIJUaLqyLohLxURL8bd4v8XgsI?authuser=0&hl=tr&rclk=1",
    "website_url": "",
    "rating_text": "4,9",
    "stars": null,
    "number_of_reviews": null,
    "price_level": "",
    "open_hours": "",
    "extraction_timestamp": "2025-06-08T03:23:54.780Z",
    "source_name": "google",
    "source_query": "Irrigation Equipment",
    "source_country": "TR",
    "country": "Turkey",
    "state": "Osmaniye",
    "city": "Merkez"
  },
  {
    "source_id": "ChIJxbC4W4shLxURELnGFou1RUo",
    "name": "Eren Makina Teknik Hırdavat ve Yapı Market",
    "category": "Eren Makina Teknik Hırdavat ve Yapı Market",
    "formatted_address": "4,5(26)",
    "phone_number": "+903288132287",
    "source_url": "https://www.google.com/maps/place/Eren+Makina+Teknik+H%C4%B1rdavat+ve+Yap%C4%B1+Market/data=!4m7!3m6!1s0x152f218b5bb8b0c5:0x4a45b58b16c6b910!8m2!3d37.0703459!4d36.2377097!16s%2Fg%2F11fhklp4hj!19sChIJxbC4W4shLxURELnGFou1RUo?authuser=0&hl=tr&rclk=1",
    "website_url": "",
    "rating_text": "4,5",
    "stars": null,
    "number_of_reviews": null,
    "price_level": "",
    "open_hours": "",
    "extraction_timestamp": "2025-06-08T03:23:54.816Z",
    "source_name": "google",
    "source_query": "Irrigation Equipment",
    "source_country": "TR",
    "country": "Turkey",
    "state": "Osmaniye",
    "city": "Merkez"
  },
  {
    "source_id": "ChIJPQvE2tMhLxURe7fl_ERmMJs",
    "name": "Yaban hayatı",
    "category": "Yaban hayatı",
    "formatted_address": "4,6(40)",
    "phone_number": "+905447711018",
    "source_url": "https://www.google.com/maps/place/Yaban+hayat%C4%B1/data=!4m7!3m6!1s0x152f21d3dac40b3d:0x9b306644fce5b77b!8m2!3d37.0688051!4d36.255856!16s%2Fg%2F11gwmhlt2c!19sChIJPQvE2tMhLxURe7fl_ERmMJs?authuser=0&hl=tr&rclk=1",
    "website_url": "",
    "rating_text": "4,6",
    "stars": null,
    "number_of_reviews": null,
    "price_level": "",
    "open_hours": "",
    "extraction_timestamp": "2025-06-08T03:23:54.819Z",
    "source_name": "google",
    "source_query": "Irrigation Equipment",
    "source_country": "TR",
    "country": "Turkey",
    "state": "Osmaniye",
    "city": "Merkez"
  },
  {
    "source_id": "ChIJa796l_8hLxURPWwzJXWGrcM",
    "name": "ELEKTRO MÜH. OSMANİYE SONDAJ HİDROFOR DALGIÇ POMPA KORUGE",
    "category": "ELEKTRO MÜH. OSMANİYE SONDAJ HİDROFOR DALGIÇ POMPA KORUGE",
    "formatted_address": "3,4(5)",
    "phone_number": "+905334725994",
    "source_url": "https://www.google.com/maps/place/ELEKTRO+M%C3%9CH.+OSMAN%C4%B0YE+SONDAJ+H%C4%B0DROFOR+DALGI%C3%87+POMPA+KORUGE/data=!4m7!3m6!1s0x152f21ff977abf6b:0xc3ad867525336c3d!8m2!3d37.0916501!4d36.237097!16s%2Fg%2F11g2xqvb_1!19sChIJa796l_8hLxURPWwzJXWGrcM?authuser=0&hl=tr&rclk=1",
    "website_url": "",
    "rating_text": "3,4",
    "stars": null,
    "number_of_reviews": null,
    "price_level": "",
    "open_hours": "",
    "extraction_timestamp": "2025-06-08T03:23:54.821Z",
    "source_name": "google",
    "source_query": "Irrigation Equipment",
    "source_country": "TR",
    "country": "Turkey",
    "state": "Osmaniye",
    "city": "Merkez"
  },
  {
    "source_id": "ChIJg-ggxZkhLxURb4w18m5ZUOo",
    "name": "Osmaniye Demir Ticaret Elektrik Su Boya Hırdavat Çeşitleri",
    "category": "Osmaniye Demir Ticaret Elektrik Su Boya Hırdavat Çeşitleri",
    "formatted_address": "4,9(37)",
    "phone_number": "+905423454171",
    "source_url": "https://www.google.com/maps/place/Osmaniye+Demir+Ticaret+Elektrik+Su+Boya+H%C4%B1rdavat+%C3%87e%C5%9Fitleri/data=!4m7!3m6!1s0x152f2199c520e883:0xea50596ef2358c6f!8m2!3d37.0652237!4d36.2618995!16s%2Fg%2F11mwgb_cfx!19sChIJg-ggxZkhLxURb4w18m5ZUOo?authuser=0&hl=tr&rclk=1",
    "website_url": "",
    "rating_text": "4,9",
    "stars": null,
    "number_of_reviews": null,
    "price_level": "",
    "open_hours": "",
    "extraction_timestamp": "2025-06-08T03:23:54.824Z",
    "source_name": "google",
    "source_query": "Irrigation Equipment",
    "source_country": "TR",
    "country": "Turkey",
    "state": "Osmaniye",
    "city": "Merkez"
  },
  {
    "source_id": "ChIJEWoVrjogLxUR_Ha9sWvRYFI",
    "name": "FİLLİ BOYA (+) - MUTLU YAPI - OSMANİYE/MERKEZ",
    "category": "FİLLİ BOYA (+) - MUTLU YAPI - OSMANİYE/MERKEZ",
    "formatted_address": "5,0(14)",
    "phone_number": "+905354460010",
    "source_url": "https://www.google.com/maps/place/F%C4%B0LL%C4%B0+BOYA+%28%2B%29+-+MUTLU+YAPI+-+OSMAN%C4%B0YE%2FMERKEZ/data=!4m7!3m6!1s0x152f203aae156a11:0x5260d16bb1bd76fc!8m2!3d37.0807354!4d36.2525937!16s%2Fg%2F1hc1j7qz5!19sChIJEWoVrjogLxUR_Ha9sWvRYFI?authuser=0&hl=tr&rclk=1",
    "website_url": "",
    "rating_text": "5,0",
    "stars": null,
    "number_of_reviews": null,
    "price_level": "",
    "open_hours": "",
    "extraction_timestamp": "2025-06-08T03:23:54.828Z",
    "source_name": "google",
    "source_query": "Irrigation Equipment",
    "source_country": "TR",
    "country": "Turkey",
    "state": "Osmaniye",
    "city": "Merkez"
  },
  {
    "source_id": "ChIJcwmZ_5QhLxUR2oO55Z8saYA",
    "name": "Usûl Mühendislik Doğalgaz",
    "category": "Usûl Mühendislik Doğalgaz",
    "formatted_address": "5,0(1)",
    "phone_number": "+905334504347",
    "source_url": "https://www.google.com/maps/place/Us%C3%BBl+M%C3%BChendislik+Do%C4%9Falgaz/data=!4m7!3m6!1s0x152f2194ff990973:0x80692c9fe5b983da!8m2!3d37.068696!4d36.2484409!16s%2Fg%2F12q4ylvtp!19sChIJcwmZ_5QhLxUR2oO55Z8saYA?authuser=0&hl=tr&rclk=1",
    "website_url": "",
    "rating_text": "5,0",
    "stars": null,
    "number_of_reviews": null,
    "price_level": "",
    "open_hours": "",
    "extraction_timestamp": "2025-06-08T03:23:54.831Z",
    "source_name": "google",
    "source_query": "Irrigation Equipment",
    "source_country": "TR",
    "country": "Turkey",
    "state": "Osmaniye",
    "city": "Merkez"
  },
  {
    "source_id": "ChIJl7HnhXIhLxURhr15-J8f8ho",
    "name": "Koçtaş Fix",
    "category": "Koçtaş Fix",
    "formatted_address": "3,9(54)",
    "phone_number": "+903288112300",
    "source_url": "https://www.google.com/maps/place/Ko%C3%A7ta%C5%9F+Fix/data=!4m7!3m6!1s0x152f217285e7b197:0x1af21f9ff879bd86!8m2!3d37.0717119!4d36.2435567!16s%2Fg%2F11rjlspxp7!19sChIJl7HnhXIhLxURhr15-J8f8ho?authuser=0&hl=tr&rclk=1",
    "website_url": "",
    "rating_text": "3,9",
    "stars": null,
    "number_of_reviews": null,
    "price_level": "",
    "open_hours": "",
    "extraction_timestamp": "2025-06-08T03:23:54.833Z",
    "source_name": "google",
    "source_query": "Irrigation Equipment",
    "source_country": "TR",
    "country": "Turkey",
    "state": "Osmaniye",
    "city": "Merkez"
  },
  {
    "source_id": "ChIJjZqPFLIhLxUR67odXLa_LYc",
    "name": "AdS SU ARITMA MÜHENDİSLİK",
    "category": "AdS SU ARITMA MÜHENDİSLİK",
    "formatted_address": "4,5(8)",
    "phone_number": "",
    "source_url": "https://www.google.com/maps/place/AdS+SU+ARITMA+M%C3%9CHEND%C4%B0SL%C4%B0K/data=!4m7!3m6!1s0x152f21b2148f9a8d:0x872dbfb65c1dbaeb!8m2!3d37.0690024!4d36.2441095!16s%2Fg%2F11fth0b6gl!19sChIJjZqPFLIhLxUR67odXLa_LYc?authuser=0&hl=tr&rclk=1",
    "website_url": "",
    "rating_text": "4,5",
    "stars": null,
    "number_of_reviews": null,
    "price_level": "",
    "open_hours": "",
    "extraction_timestamp": "2025-06-08T03:23:54.836Z",
    "source_name": "google",
    "source_query": "Irrigation Equipment",
    "source_country": "TR",
    "country": "Turkey",
    "state": "Osmaniye",
    "city": "Merkez"
  },
  {
    "source_id": "ChIJUyavshIhLxUR76XPsNC8wBI",
    "name": "Tercih Krom",
    "category": "Tercih Krom",
    "formatted_address": "5,0(2)",
    "phone_number": "+905415090099",
    "source_url": "https://www.google.com/maps/place/Tercih+Krom/data=!4m7!3m6!1s0x152f2112b2af2653:0x12c0bcd0b0cfa5ef!8m2!3d37.0588992!4d36.2349009!16s%2Fg%2F11p0z90qqm!19sChIJUyavshIhLxUR76XPsNC8wBI?authuser=0&hl=tr&rclk=1",
    "website_url": "",
    "rating_text": "5,0",
    "stars": null,
    "number_of_reviews": null,
    "price_level": "",
    "open_hours": "",
    "extraction_timestamp": "2025-06-08T03:23:54.838Z",
    "source_name": "google",
    "source_query": "Irrigation Equipment",
    "source_country": "TR",
    "country": "Turkey",
    "state": "Osmaniye",
    "city": "Merkez"
  },
  {
    "source_id": "ChIJ1RdNTL8hLxURLq1M97-T3H8",
    "name": "Onur Isı Osmaniye Güneş Enerji Sistemleri",
    "category": "Onur Isı Osmaniye Güneş Enerji Sistemleri",
    "formatted_address": "4,4(18)",
    "phone_number": "+903288148698",
    "source_url": "https://www.google.com/maps/place/Onur+Is%C4%B1+Osmaniye+G%C3%BCne%C5%9F+Enerji+Sistemleri/data=!4m7!3m6!1s0x152f21bf4c4d17d5:0x7fdc93bff74cad2e!8m2!3d37.0639887!4d36.2405642!16s%2Fg%2F11c4bpqm03!19sChIJ1RdNTL8hLxURLq1M97-T3H8?authuser=0&hl=tr&rclk=1",
    "website_url": "",
    "rating_text": "4,4",
    "stars": null,
    "number_of_reviews": null,
    "price_level": "",
    "open_hours": "",
    "extraction_timestamp": "2025-06-08T03:23:54.840Z",
    "source_name": "google",
    "source_query": "Irrigation Equipment",
    "source_country": "TR",
    "country": "Turkey",
    "state": "Osmaniye",
    "city": "Merkez"
  },
  {
    "source_id": "ChIJ6V1-W-4hLxURhnN-CZiyTo8",
    "name": "Özgün Su Arıtma",
    "category": "Özgün Su Arıtma",
    "formatted_address": "5,0(3)",
    "phone_number": "+905414307676",
    "source_url": "https://www.google.com/maps/place/%C3%96zg%C3%BCn+Su+Ar%C4%B1tma/data=!4m7!3m6!1s0x152f21ee5b7e5de9:0x8f4eb298097e7386!8m2!3d37.0752566!4d36.2510655!16s%2Fg%2F11hlctgzw2!19sChIJ6V1-W-4hLxURhnN-CZiyTo8?authuser=0&hl=tr&rclk=1",
    "website_url": "",
    "rating_text": "5,0",
    "stars": null,
    "number_of_reviews": null,
    "price_level": "",
    "open_hours": "",
    "extraction_timestamp": "2025-06-08T03:23:54.841Z",
    "source_name": "google",
    "source_query": "Irrigation Equipment",
    "source_country": "TR",
    "country": "Turkey",
    "state": "Osmaniye",
    "city": "Merkez"
  },
  {
    "source_id": "ChIJAfEow80hLxURP2_UmKimdCM",
    "name": "A-Arıtma Su Arıtma Cihazları Osmaniye",
    "category": "A-Arıtma Su Arıtma Cihazları Osmaniye",
    "formatted_address": "5,0(1)",
    "phone_number": "+903288129911",
    "source_url": "https://www.google.com/maps/place/A-Ar%C4%B1tma+Su+Ar%C4%B1tma+Cihazlar%C4%B1+Osmaniye/data=!4m7!3m6!1s0x152f21cdc328f101:0x2374a6a898d46f3f!8m2!3d37.0708182!4d36.2505992!16s%2Fg%2F11b6dg530h!19sChIJAfEow80hLxURP2_UmKimdCM?authuser=0&hl=tr&rclk=1",
    "website_url": "",
    "rating_text": "5,0",
    "stars": null,
    "number_of_reviews": null,
    "price_level": "",
    "open_hours": "",
    "extraction_timestamp": "2025-06-08T03:23:54.843Z",
    "source_name": "google",
    "source_query": "Irrigation Equipment",
    "source_country": "TR",
    "country": "Turkey",
    "state": "Osmaniye",
    "city": "Merkez"
  },
  {
    "source_id": "ChIJ1VDaf3ghLxURgVc6hFLVxXw",
    "name": "Osmaniye yangın Söndürme tüpü dolumu satışı",
    "category": "Osmaniye yangın Söndürme tüpü dolumu satışı",
    "formatted_address": "5,0(2)",
    "phone_number": "+905414641150",
    "source_url": "https://www.google.com/maps/place/Osmaniye+yang%C4%B1n+S%C3%B6nd%C3%BCrme+t%C3%BCp%C3%BC+dolumu+sat%C4%B1%C5%9F%C4%B1/data=!4m7!3m6!1s0x152f21787fda50d5:0x7cc5d552843a5781!8m2!3d37.0699124!4d36.2472742!16s%2Fg%2F11vc1bnpcz!19sChIJ1VDaf3ghLxURgVc6hFLVxXw?authuser=0&hl=tr&rclk=1",
    "website_url": "",
    "rating_text": "5,0",
    "stars": null,
    "number_of_reviews": null,
    "price_level": "",
    "open_hours": "",
    "extraction_timestamp": "2025-06-08T03:23:54.844Z",
    "source_name": "google",
    "source_query": "Irrigation Equipment",
    "source_country": "TR",
    "country": "Turkey",
    "state": "Osmaniye",
    "city": "Merkez"
  },
  {
    "source_id": "ChIJpThbBGYhLxURb3uc4fQeUAI",
    "name": "Meyna Gross Toptan Market",
    "category": "Meyna Gross Toptan Market",
    "formatted_address": "3,9(430)",
    "phone_number": "+903288141519",
    "source_url": "https://www.google.com/maps/place/Meyna+Gross+Toptan+Market/data=!4m7!3m6!1s0x152f2166045b38a5:0x2501ef4e19c7b6f!8m2!3d37.063112!4d36.202934!16s%2Fg%2F11f15cxd48!19sChIJpThbBGYhLxURb3uc4fQeUAI?authuser=0&hl=tr&rclk=1",
    "website_url": "",
    "rating_text": "3,9",
    "stars": null,
    "number_of_reviews": null,
    "price_level": "",
    "open_hours": "",
    "extraction_timestamp": "2025-06-08T03:23:54.845Z",
    "source_name": "google",
    "source_query": "Irrigation Equipment",
    "source_country": "TR",
    "country": "Turkey",
    "state": "Osmaniye",
    "city": "Merkez"
  },
  {
    "source_id": "ChIJEwhqvtEhLxURDu8RfWU1BE8",
    "name": "TeknoTeknik Büro Makinaları Tonerci",
    "category": "TeknoTeknik Büro Makinaları Tonerci",
    "formatted_address": "5,0(23)",
    "phone_number": "+905552924701",
    "source_url": "https://www.google.com/maps/place/TeknoTeknik+B%C3%BCro+Makinalar%C4%B1+Tonerci/data=!4m7!3m6!1s0x152f21d1be6a0813:0x4f0435657d11ef0e!8m2!3d37.0677238!4d36.2538049!16s%2Fg%2F11j8lzbkrd!19sChIJEwhqvtEhLxURDu8RfWU1BE8?authuser=0&hl=tr&rclk=1",
    "website_url": "",
    "rating_text": "5,0",
    "stars": null,
    "number_of_reviews": null,
    "price_level": "",
    "open_hours": "",
    "extraction_timestamp": "2025-06-08T03:23:54.847Z",
    "source_name": "google",
    "source_query": "Irrigation Equipment",
    "source_country": "TR",
    "country": "Turkey",
    "state": "Osmaniye",
    "city": "Merkez"
  },
  {
    "source_id": "ChIJmVV98NwhLxURHuNvZpn2cNs",
    "name": "Enver elektrik ve sıhhi tesisat",
    "category": "Enver elektrik ve sıhhi tesisat",
    "formatted_address": "5,0(2)",
    "phone_number": "+905058657393",
    "source_url": "https://www.google.com/maps/place/Enver+elektrik+ve+s%C4%B1hhi+tesisat/data=!4m7!3m6!1s0x152f21dcf07d5599:0xdb70f699666fe31e!8m2!3d37.0542671!4d36.2408877!16s%2Fg%2F11w1yn3f2t!19sChIJmVV98NwhLxURHuNvZpn2cNs?authuser=0&hl=tr&rclk=1",
    "website_url": "",
    "rating_text": "5,0",
    "stars": null,
    "number_of_reviews": null,
    "price_level": "",
    "open_hours": "",
    "extraction_timestamp": "2025-06-08T03:23:54.848Z",
    "source_name": "google",
    "source_query": "Irrigation Equipment",
    "source_country": "TR",
    "country": "Turkey",
    "state": "Osmaniye",
    "city": "Merkez"
  },
  {
    "source_id": "ChIJzXybXdQhLxURKnvYJiZAuB0",
    "name": "KALKAN GROS MARKET",
    "category": "KALKAN GROS MARKET",
    "formatted_address": "4,7(53)",
    "phone_number": "",
    "source_url": "https://www.google.com/maps/place/KALKAN+GROS+MARKET/data=!4m7!3m6!1s0x152f21d45d9b7ccd:0x1db8402626d87b2a!8m2!3d37.0888296!4d36.2618193!16s%2Fg%2F11q1vs2vmc!19sChIJzXybXdQhLxURKnvYJiZAuB0?authuser=0&hl=tr&rclk=1",
    "website_url": "",
    "rating_text": "4,7",
    "stars": null,
    "number_of_reviews": null,
    "price_level": "",
    "open_hours": "",
    "extraction_timestamp": "2025-06-08T03:23:54.850Z",
    "source_name": "google",
    "source_query": "Irrigation Equipment",
    "source_country": "TR",
    "country": "Turkey",
    "state": "Osmaniye",
    "city": "Merkez"
  },
  {
    "source_id": "ChIJP-5D380hLxURKriswyAdlRU",
    "name": "AY-SU Arıtma",
    "category": "AY-SU Arıtma",
    "formatted_address": "3,1(8)",
    "phone_number": "",
    "source_url": "https://www.google.com/maps/place/AY-SU+Ar%C4%B1tma/data=!4m7!3m6!1s0x152f21cddf43ee3f:0x15951d20c3acb82a!8m2!3d37.0701593!4d36.2504243!16s%2Fg%2F11d_tgkh6n!19sChIJP-5D380hLxURKriswyAdlRU?authuser=0&hl=tr&rclk=1",
    "website_url": "",
    "rating_text": "3,1",
    "stars": null,
    "number_of_reviews": null,
    "price_level": "",
    "open_hours": "",
    "extraction_timestamp": "2025-06-08T03:23:54.851Z",
    "source_name": "google",
    "source_query": "Irrigation Equipment",
    "source_country": "TR",
    "country": "Turkey",
    "state": "Osmaniye",
    "city": "Merkez"
  },
  {
    "source_id": "ChIJ4bfJCfghLxUR2bmwaisX1HQ",
    "name": "Demir mekanik elektrik",
    "category": "Demir mekanik elektrik",
    "formatted_address": "5,0(30)",
    "phone_number": "+905454043736",
    "source_url": "https://www.google.com/maps/place/Demir+mekanik+elektrik/data=!4m7!3m6!1s0x152f21f809c9b7e1:0x74d4172b6ab0b9d9!8m2!3d37.046096!4d36.2295215!16s%2Fg%2F11sn_4f6m_!19sChIJ4bfJCfghLxUR2bmwaisX1HQ?authuser=0&hl=tr&rclk=1",
    "website_url": "",
    "rating_text": "5,0",
    "stars": null,
    "number_of_reviews": null,
    "price_level": "",
    "open_hours": "",
    "extraction_timestamp": "2025-06-08T03:23:54.852Z",
    "source_name": "google",
    "source_query": "Irrigation Equipment",
    "source_country": "TR",
    "country": "Turkey",
    "state": "Osmaniye",
    "city": "Merkez"
  },
  {
    "source_id": "ChIJ3eesT6YhLxUROpVCh60D51g",
    "name": "Seç Market Yaverpaşa Şubesi",
    "category": "Seç Market Yaverpaşa Şubesi",
    "formatted_address": "4,5(49)",
    "phone_number": "",
    "source_url": "https://www.google.com/maps/place/Se%C3%A7+Market+Yaverpa%C5%9Fa+%C5%9Eubesi/data=!4m7!3m6!1s0x152f21a64face7dd:0x58e703ad8742953a!8m2!3d37.07353!4d36.2229129!16s%2Fg%2F11c57m9bfw!19sChIJ3eesT6YhLxUROpVCh60D51g?authuser=0&hl=tr&rclk=1",
    "website_url": "",
    "rating_text": "4,5",
    "stars": null,
    "number_of_reviews": null,
    "price_level": "",
    "open_hours": "",
    "extraction_timestamp": "2025-06-08T03:23:54.853Z",
    "source_name": "google",
    "source_query": "Irrigation Equipment",
    "source_country": "TR",
    "country": "Turkey",
    "state": "Osmaniye",
    "city": "Merkez"
  },
  {
    "source_id": "ChIJBWq21awhLxUR9z8gXLYdXmg",
    "name": "ulucan yapı market",
    "category": "ulucan yapı market",
    "formatted_address": "Tesisatçı · kazım karabekir caddesi, önal sitesi 37/a D:cKapalı ⋅ Açılış saati: 07:00 · 0553 227 20 53",
    "phone_number": "+905532272053",
    "source_url": "https://www.google.com/maps/place/ulucan+yap%C4%B1+market/data=!4m7!3m6!1s0x152f21acd5b66a05:0x685e1db65c203ff7!8m2!3d37.0696879!4d36.2552981!16s%2Fg%2F11trgc1wx3!19sChIJBWq21awhLxUR9z8gXLYdXmg?authuser=0&hl=tr&rclk=1",
    "website_url": "",
    "rating_text": "",
    "stars": null,
    "number_of_reviews": null,
    "price_level": "",
    "open_hours": "",
    "extraction_timestamp": "2025-06-08T03:23:54.854Z",
    "source_name": "google",
    "source_query": "Irrigation Equipment",
    "source_country": "TR",
    "country": "Turkey",
    "state": "Osmaniye",
    "city": "Merkez"
  }
]
