[
  {
    "source_id": "ChIJ683M55mTA0cRAGuS8-PZM1o",
    "name": "ARZ-TECH TECHNOLOGIA UZDATNIANIA WODY ANDRZEJ RZELEK",
    "category": "ARZ-TECH TECHNOLOGIA UZDATNIANIA WODY ANDRZEJ RZELEK",
    "formatted_address": "5,0(4)",
    "phone_number": "+48796477624",
    "source_url": "https://www.google.com/maps/place/ARZ-TECH+TECHNOLOGIA+UZDATNIANIA+WODY+ANDRZEJ+RZELEK/data=!4m7!3m6!1s0x47039399e7cccdeb:0x5a33d9e3f3926b00!8m2!3d53.0982804!4d17.117502!16s%2Fg%2F11w1dsby_2!19sChIJ683M55mTA0cRAGuS8-PZM1o?authuser=0&hl=tr&rclk=1",
    "website_url": "",
    "rating_text": "5,0",
    "stars": null,
    "number_of_reviews": null,
    "price_level": "",
    "open_hours": "",
    "extraction_timestamp": "2025-06-07T17:51:20.829Z",
    "source_name": "google",
    "source_query": "Irrigation Equipment",
    "source_country": "PL",
    "country": "Poland",
    "state": "Greater Poland Voivodeship",
    "city": "Białośliwie"
  },
  {
    "source_id": "ChIJ18k9U7WUA0cR6Uc9VqwNDjE",
    "name": "DRAB Technika Biurowa",
    "category": "DRAB Technika Biurowa",
    "formatted_address": "4,9(29)",
    "phone_number": "+48672876500",
    "source_url": "https://www.google.com/maps/place/DRAB+Technika+Biurowa/data=!4m7!3m6!1s0x470394b5533dc9d7:0x310e0dac563d47e9!8m2!3d53.1309791!4d17.1050947!16s%2Fg%2F1v96kh79!19sChIJ18k9U7WUA0cR6Uc9VqwNDjE?authuser=0&hl=tr&rclk=1",
    "website_url": "http://www.drab.com.pl/",
    "rating_text": "4,9",
    "stars": null,
    "number_of_reviews": null,
    "price_level": "",
    "open_hours": "",
    "extraction_timestamp": "2025-06-07T17:51:20.830Z",
    "source_name": "google",
    "source_query": "Irrigation Equipment",
    "source_country": "PL",
    "country": "Poland",
    "state": "Greater Poland Voivodeship",
    "city": "Białośliwie"
  },
  {
    "source_id": "ChIJBfHiaLSTA0cRnPaFR2UPjJQ",
    "name": "PSB Mrówka",
    "category": "PSB Mrówka",
    "formatted_address": "4,3(265)",
    "phone_number": "+48672875725",
    "source_url": "https://www.google.com/maps/place/PSB+Mr%C3%B3wka/data=!4m7!3m6!1s0x470393b468e2f105:0x948c0f654785f69c!8m2!3d53.0958988!4d17.1205017!16s%2Fg%2F11dfhws_k1!19sChIJBfHiaLSTA0cRnPaFR2UPjJQ?authuser=0&hl=tr&rclk=1",
    "website_url": "https://mrowka.com.pl/sklep-psb-mrowka/psb-mrowka-bialosliwie.html",
    "rating_text": "4,3",
    "stars": null,
    "number_of_reviews": null,
    "price_level": "",
    "open_hours": "",
    "extraction_timestamp": "2025-06-07T17:51:20.831Z",
    "source_name": "google",
    "source_query": "Irrigation Equipment",
    "source_country": "PL",
    "country": "Poland",
    "state": "Greater Poland Voivodeship",
    "city": "Białośliwie"
  },
  {
    "source_id": "ChIJUfn2Ig35A0cREW9fZ4029UM",
    "name": "IMTechnika sp. z o.o.",
    "category": "IMTechnika sp. z o.o.",
    "formatted_address": "4,4(17)",
    "phone_number": "+48883820388",
    "source_url": "https://www.google.com/maps/place/IMTechnika+sp.+z+o.o./data=!4m7!3m6!1s0x4703f90d22f6f951:0x43f5368d675f6f11!8m2!3d52.9756271!4d16.657836!16s%2Fg%2F11bw48_6mg!19sChIJUfn2Ig35A0cREW9fZ4029UM?authuser=0&hl=tr&rclk=1",
    "website_url": "http://imtechnika.pl/",
    "rating_text": "4,4",
    "stars": null,
    "number_of_reviews": null,
    "price_level": "",
    "open_hours": "",
    "extraction_timestamp": "2025-06-07T17:51:20.832Z",
    "source_name": "google",
    "source_query": "Irrigation Equipment",
    "source_country": "PL",
    "country": "Poland",
    "state": "Greater Poland Voivodeship",
    "city": "Białośliwie"
  },
  {
    "source_id": "ChIJB6y_v5J2HEcRlDfYx3xmc9M",
    "name": "Milex irrigation systems",
    "category": "Milex irrigation systems",
    "formatted_address": "4,6(37)",
    "phone_number": "+48242775222",
    "source_url": "https://www.google.com/maps/place/Milex+irrigation+systems/data=!4m7!3m6!1s0x471c7692bfbfac07:0xd373667cc7d83794!8m2!3d52.4690634!4d19.7520904!16s%2Fg%2F1w2yy67r!19sChIJB6y_v5J2HEcRlDfYx3xmc9M?authuser=0&hl=tr&rclk=1",
    "website_url": "https://www.milex.pl/",
    "rating_text": "4,6",
    "stars": null,
    "number_of_reviews": null,
    "price_level": "",
    "open_hours": "",
    "extraction_timestamp": "2025-06-07T17:51:20.834Z",
    "source_name": "google",
    "source_query": "Irrigation Equipment",
    "source_country": "PL",
    "country": "Poland",
    "state": "Greater Poland Voivodeship",
    "city": "Białośliwie"
  },
  {
    "source_id": "ChIJv85OoiuTA0cRfvQ4pXzDdZA",
    "name": "\"JULIA\" Artykuły Spożywcze i Przemysłowe. Elwira Janużyk.",
    "category": "\"JULIA\" Artykuły Spożywcze i Przemysłowe. Elwira Janużyk.",
    "formatted_address": "4,9(25)",
    "phone_number": "+48608471157",
    "source_url": "https://www.google.com/maps/place/%22JULIA%22+Artyku%C5%82y+Spo%C5%BCywcze+i+Przemys%C5%82owe.+Elwira+Janu%C5%BCyk./data=!4m7!3m6!1s0x4703932ba24ecebf:0x9075c37ca538f47e!8m2!3d53.1002983!4d17.1226342!16s%2Fg%2F11ql8md_k8!19sChIJv85OoiuTA0cRfvQ4pXzDdZA?authuser=0&hl=tr&rclk=1",
    "website_url": "https://www.facebook.com/profile.php?id=100066434779906",
    "rating_text": "4,9",
    "stars": null,
    "number_of_reviews": null,
    "price_level": "",
    "open_hours": "",
    "extraction_timestamp": "2025-06-07T17:51:20.835Z",
    "source_name": "google",
    "source_query": "Irrigation Equipment",
    "source_country": "PL",
    "country": "Poland",
    "state": "Greater Poland Voivodeship",
    "city": "Białośliwie"
  },
  {
    "source_id": "ChIJ1br5fsyTA0cRlcdDui_q2HI",
    "name": "Dar-Spaw Dariusz Kozłowski",
    "category": "Dar-Spaw Dariusz Kozłowski",
    "formatted_address": "5,0(1)",
    "phone_number": "+48726381505",
    "source_url": "https://www.google.com/maps/place/Dar-Spaw+Dariusz+Koz%C5%82owski/data=!4m7!3m6!1s0x470393cc7ef9bad5:0x72d8ea2fba43c795!8m2!3d53.0968162!4d17.1073377!16s%2Fg%2F11v5dmvm01!19sChIJ1br5fsyTA0cRlcdDui_q2HI?authuser=0&hl=tr&rclk=1",
    "website_url": "",
    "rating_text": "5,0",
    "stars": null,
    "number_of_reviews": null,
    "price_level": "",
    "open_hours": "",
    "extraction_timestamp": "2025-06-07T17:51:20.836Z",
    "source_name": "google",
    "source_query": "Irrigation Equipment",
    "source_country": "PL",
    "country": "Poland",
    "state": "Greater Poland Voivodeship",
    "city": "Białośliwie"
  },
  {
    "source_id": "ChIJhxkaLsKTA0cRqivwoS1yRwA",
    "name": "Nadnoteckie Sady Król",
    "category": "Nadnoteckie Sady Król",
    "formatted_address": "5,0(3)",
    "phone_number": "+48510192422",
    "source_url": "https://www.google.com/maps/place/Nadnoteckie+Sady+Kr%C3%B3l/data=!4m7!3m6!1s0x470393c22e1a1987:0x47722da1f02baa!8m2!3d53.1027094!4d17.1185358!16s%2Fg%2F11tnwv1n4l!19sChIJhxkaLsKTA0cRqivwoS1yRwA?authuser=0&hl=tr&rclk=1",
    "website_url": "http://nadnoteckiesadykrol.pl/",
    "rating_text": "5,0",
    "stars": null,
    "number_of_reviews": null,
    "price_level": "",
    "open_hours": "",
    "extraction_timestamp": "2025-06-07T17:51:20.837Z",
    "source_name": "google",
    "source_query": "Irrigation Equipment",
    "source_country": "PL",
    "country": "Poland",
    "state": "Greater Poland Voivodeship",
    "city": "Białośliwie"
  },
  {
    "source_id": "ChIJVTV3W_PzBEcR6gY0xwQi2_E",
    "name": "Deszczownie.com",
    "category": "Deszczownie.com",
    "formatted_address": "",
    "phone_number": "+48726000030",
    "source_url": "https://www.google.com/maps/place/Deszczownie.com/data=!4m7!3m6!1s0x4704f3f35b773555:0xf1db2204c73406ea!8m2!3d52.3623948!4d17.4021087!16s%2Fg%2F11y3pv4rxr!19sChIJVTV3W_PzBEcR6gY0xwQi2_E?authuser=0&hl=tr&rclk=1",
    "website_url": "https://www.deszczownie.com/",
    "rating_text": "",
    "stars": null,
    "number_of_reviews": null,
    "price_level": "",
    "open_hours": "",
    "extraction_timestamp": "2025-06-07T17:51:20.839Z",
    "source_name": "google",
    "source_query": "Irrigation Equipment",
    "source_country": "PL",
    "country": "Poland",
    "state": "Greater Poland Voivodeship",
    "city": "Białośliwie"
  },
  {
    "source_id": "ChIJM-ecNit-SUUR0JDIjLCfLXg",
    "name": "Hydro-Tech Studnie",
    "category": "Hydro-Tech Studnie",
    "formatted_address": "5,0(4)",
    "phone_number": "+48605172523",
    "source_url": "https://www.google.com/maps/place/Hydro-Tech+Studnie/data=!4m7!3m6!1s0x45497e2b369ce733:0x782d9fb08cc890d0!8m2!3d53.1443301!4d17.0444372!16s%2Fg%2F11x2vjjl2k!19sChIJM-ecNit-SUUR0JDIjLCfLXg?authuser=0&hl=tr&rclk=1",
    "website_url": "",
    "rating_text": "5,0",
    "stars": null,
    "number_of_reviews": null,
    "price_level": "",
    "open_hours": "",
    "extraction_timestamp": "2025-06-07T17:51:20.840Z",
    "source_name": "google",
    "source_query": "Irrigation Equipment",
    "source_country": "PL",
    "country": "Poland",
    "state": "Greater Poland Voivodeship",
    "city": "Białośliwie"
  },
  {
    "source_id": "ChIJ2dPyZT0zow8RTa39Tq1kkPU",
    "name": "Mobilne Spa - Kwiatek",
    "category": "Mobilne Spa - Kwiatek",
    "formatted_address": "5,0(54)",
    "phone_number": "+48785643442",
    "source_url": "https://www.google.com/maps/place/Mobilne+Spa+-+Kwiatek/data=!4m7!3m6!1s0xfa3333d65f2d3d9:0xf59064ad4efdad4d!8m2!3d52.8349264!4d17.557206!16s%2Fg%2F11v3g2wg91!19sChIJ2dPyZT0zow8RTa39Tq1kkPU?authuser=0&hl=tr&rclk=1",
    "website_url": "http://www.mobilnespakwiatek.pl/",
    "rating_text": "5,0",
    "stars": null,
    "number_of_reviews": null,
    "price_level": "",
    "open_hours": "",
    "extraction_timestamp": "2025-06-07T17:51:20.841Z",
    "source_name": "google",
    "source_query": "Irrigation Equipment",
    "source_country": "PL",
    "country": "Poland",
    "state": "Greater Poland Voivodeship",
    "city": "Białośliwie"
  },
  {
    "source_id": "ChIJn9KE0Z-UA0cRHSgdceg9i9A",
    "name": "Market Dino",
    "category": "Market Dino",
    "formatted_address": "4,1(356)",
    "phone_number": "",
    "source_url": "https://www.google.com/maps/place/Market+Dino/data=!4m7!3m6!1s0x4703949fd184d29f:0xd08b3de8711d281d!8m2!3d53.1079294!4d17.125624!16s%2Fg%2F11cn0n2794!19sChIJn9KE0Z-UA0cRHSgdceg9i9A?authuser=0&hl=tr&rclk=1",
    "website_url": "https://marketdino.pl/",
    "rating_text": "4,1",
    "stars": null,
    "number_of_reviews": null,
    "price_level": "",
    "open_hours": "",
    "extraction_timestamp": "2025-06-07T17:51:20.842Z",
    "source_name": "google",
    "source_query": "Irrigation Equipment",
    "source_country": "PL",
    "country": "Poland",
    "state": "Greater Poland Voivodeship",
    "city": "Białośliwie"
  },
  {
    "source_id": "ChIJH5wfxGGTA0cRdcXEcklCyV4",
    "name": "Rosa. Sklep spożywczy",
    "category": "Rosa. Sklep spożywczy",
    "formatted_address": "4,6(17)",
    "phone_number": "+48732831038",
    "source_url": "https://www.google.com/maps/place/Rosa.+Sklep+spo%C5%BCywczy/data=!4m7!3m6!1s0x47039361c41f9c1f:0x5ec9424972c4c575!8m2!3d53.0993933!4d17.1236889!16s%2Fg%2F1w2yy4k0!19sChIJH5wfxGGTA0cRdcXEcklCyV4?authuser=0&hl=tr&rclk=1",
    "website_url": "",
    "rating_text": "4,6",
    "stars": null,
    "number_of_reviews": null,
    "price_level": "",
    "open_hours": "",
    "extraction_timestamp": "2025-06-07T17:51:20.843Z",
    "source_name": "google",
    "source_query": "Irrigation Equipment",
    "source_country": "PL",
    "country": "Poland",
    "state": "Greater Poland Voivodeship",
    "city": "Białośliwie"
  },
  {
    "source_id": "ChIJG3BY94rNB0cRYr59_NTw5XI",
    "name": "Patek",
    "category": "Patek",
    "formatted_address": "4,9(19)",
    "phone_number": "+48508288250",
    "source_url": "https://www.google.com/maps/place/Patek/data=!4m7!3m6!1s0x4707cd8af758701b:0x72e5f0d4fc7dbe62!8m2!3d51.9470665!4d14.7588764!16s%2Fg%2F11b5qwvwgx!19sChIJG3BY94rNB0cRYr59_NTw5XI?authuser=0&hl=tr&rclk=1",
    "website_url": "http://www.patek.com.pl/",
    "rating_text": "4,9",
    "stars": null,
    "number_of_reviews": null,
    "price_level": "",
    "open_hours": "",
    "extraction_timestamp": "2025-06-07T17:51:20.844Z",
    "source_name": "google",
    "source_query": "Irrigation Equipment",
    "source_country": "PL",
    "country": "Poland",
    "state": "Greater Poland Voivodeship",
    "city": "Białośliwie"
  },
  {
    "source_id": "ChIJ3QFy0p-UA0cRTnTp_JlPUrg",
    "name": "Dobosz Sklep Spożywczo",
    "category": "Dobosz Sklep Spożywczo",
    "formatted_address": "5,0(2)",
    "phone_number": "+48694083995",
    "source_url": "https://www.google.com/maps/place/Dobosz+Sklep+Spo%C5%BCywczo/data=!4m7!3m6!1s0x4703949fd27201dd:0xb8524f99fce9744e!8m2!3d53.1080671!4d17.1256682!16s%2Fg%2F11j47_zyxh!19sChIJ3QFy0p-UA0cRTnTp_JlPUrg?authuser=0&hl=tr&rclk=1",
    "website_url": "",
    "rating_text": "5,0",
    "stars": null,
    "number_of_reviews": null,
    "price_level": "",
    "open_hours": "",
    "extraction_timestamp": "2025-06-07T17:51:20.844Z",
    "source_name": "google",
    "source_query": "Irrigation Equipment",
    "source_country": "PL",
    "country": "Poland",
    "state": "Greater Poland Voivodeship",
    "city": "Białośliwie"
  },
  {
    "source_id": "ChIJe2vp7WaTA0cRKM7agUi690E",
    "name": "Odido",
    "category": "Odido",
    "formatted_address": "5,0(2)",
    "phone_number": "",
    "source_url": "https://www.google.com/maps/place/Odido/data=!4m7!3m6!1s0x47039366ede96b7b:0x41f7ba4881dace28!8m2!3d53.1003078!4d17.1227118!16s%2Fg%2F11fqpbxf_l!19sChIJe2vp7WaTA0cRKM7agUi690E?authuser=0&hl=tr&rclk=1",
    "website_url": "",
    "rating_text": "5,0",
    "stars": null,
    "number_of_reviews": null,
    "price_level": "",
    "open_hours": "",
    "extraction_timestamp": "2025-06-07T17:51:20.845Z",
    "source_name": "google",
    "source_query": "Irrigation Equipment",
    "source_country": "PL",
    "country": "Poland",
    "state": "Greater Poland Voivodeship",
    "city": "Białośliwie"
  },
  {
    "source_id": "ChIJq6o7bXqTA0cREE-wew3bbqs",
    "name": "Sklep motoryzacyjny \"u Mańka\"",
    "category": "Sklep motoryzacyjny \"u Mańka\"",
    "formatted_address": "5,0(1)",
    "phone_number": "+48509809195",
    "source_url": "https://www.google.com/maps/place/Sklep+motoryzacyjny+%22u+Ma%C5%84ka%22/data=!4m7!3m6!1s0x4703937a6d3baaab:0xab6edb0d7bb04f10!8m2!3d53.0991348!4d17.1209513!16s%2Fg%2F11svv6vpsw!19sChIJq6o7bXqTA0cREE-wew3bbqs?authuser=0&hl=tr&rclk=1",
    "website_url": "",
    "rating_text": "5,0",
    "stars": null,
    "number_of_reviews": null,
    "price_level": "",
    "open_hours": "",
    "extraction_timestamp": "2025-06-07T17:51:20.845Z",
    "source_name": "google",
    "source_query": "Irrigation Equipment",
    "source_country": "PL",
    "country": "Poland",
    "state": "Greater Poland Voivodeship",
    "city": "Białośliwie"
  },
  {
    "source_id": "ChIJ76WAmPBgGUcRnx47bXjXTwU",
    "name": "Agrofim Poland Sp. z o.o.",
    "category": "Agrofim Poland Sp. z o.o.",
    "formatted_address": "3,8(6)",
    "phone_number": "+48468332266",
    "source_url": "https://www.google.com/maps/place/Agrofim+Poland+Sp.+z+o.o./data=!4m7!3m6!1s0x471960f09880a5ef:0x54fd7786d3b1e9f!8m2!3d51.9616303!4d20.1543898!16s%2Fg%2F1tdnjw7b!19sChIJ76WAmPBgGUcRnx47bXjXTwU?authuser=0&hl=tr&rclk=1",
    "website_url": "http://agrofim.pl/",
    "rating_text": "3,8",
    "stars": null,
    "number_of_reviews": null,
    "price_level": "",
    "open_hours": "",
    "extraction_timestamp": "2025-06-07T17:51:20.846Z",
    "source_name": "google",
    "source_query": "Irrigation Equipment",
    "source_country": "PL",
    "country": "Poland",
    "state": "Greater Poland Voivodeship",
    "city": "Białośliwie"
  }
]
