[
  {
    "source_id": "ChIJB6y_v5J2HEcRlDfYx3xmc9M",
    "name": "Milex irrigation systems",
    "category": "Milex irrigation systems",
    "formatted_address": "4,6(37)",
    "phone_number": "+48242775222",
    "source_url": "https://www.google.com/maps/place/Milex+irrigation+systems/data=!4m7!3m6!1s0x471c7692bfbfac07:0xd373667cc7d83794!8m2!3d52.4690634!4d19.7520904!16s%2Fg%2F1w2yy67r!19sChIJB6y_v5J2HEcRlDfYx3xmc9M?authuser=0&hl=tr&rclk=1",
    "website_url": "https://www.milex.pl/",
    "rating_text": "4,6",
    "stars": null,
    "number_of_reviews": null,
    "price_level": "",
    "open_hours": "",
    "extraction_timestamp": "2025-06-07T18:00:40.478Z",
    "source_name": "google",
    "source_query": "Irrigation Equipment",
    "source_country": "PL",
    "country": "Poland",
    "state": "Greater Poland Voivodeship",
    "city": "Blizanów"
  },
  {
    "source_id": "ChIJ4R8NQeXTGkcRlA8UxwIqHZk",
    "name": "Lewiatan",
    "category": "Lewiatan",
    "formatted_address": "4,5(13)",
    "phone_number": "",
    "source_url": "https://www.google.com/maps/place/Lewiatan/data=!4m7!3m6!1s0x471ad3e5410d1fe1:0x991d2a02c7140f94!8m2!3d51.9036921!4d18.0100984!16s%2Fg%2F11fr3xynw2!19sChIJ4R8NQeXTGkcRlA8UxwIqHZk?authuser=0&hl=tr&rclk=1",
    "website_url": "http://www.lewiatan.pl/",
    "rating_text": "4,5",
    "stars": null,
    "number_of_reviews": null,
    "price_level": "",
    "open_hours": "",
    "extraction_timestamp": "2025-06-07T18:00:40.480Z",
    "source_name": "google",
    "source_query": "Irrigation Equipment",
    "source_country": "PL",
    "country": "Poland",
    "state": "Greater Poland Voivodeship",
    "city": "Blizanów"
  },
  {
    "source_id": "ChIJgSiwRvPPGkcRxVilonj3QzA",
    "name": "HYDRO-TECH OLIWIER RUDOWICZ",
    "category": "HYDRO-TECH OLIWIER RUDOWICZ",
    "formatted_address": "",
    "phone_number": "+48664316447",
    "source_url": "https://www.google.com/maps/place/HYDRO-TECH+OLIWIER+RUDOWICZ/data=!4m7!3m6!1s0x471acff346b02881:0x3043f778a2a558c5!8m2!3d51.7873456!4d17.981836!16s%2Fg%2F11ybt65qd2!19sChIJgSiwRvPPGkcRxVilonj3QzA?authuser=0&hl=tr&rclk=1",
    "website_url": "",
    "rating_text": "",
    "stars": null,
    "number_of_reviews": null,
    "price_level": "",
    "open_hours": "",
    "extraction_timestamp": "2025-06-07T18:00:40.482Z",
    "source_name": "google",
    "source_query": "Irrigation Equipment",
    "source_country": "PL",
    "country": "Poland",
    "state": "Greater Poland Voivodeship",
    "city": "Blizanów"
  },
  {
    "source_id": "ChIJbxbuoO_TGkcRA_Y16Caleg0",
    "name": "Urząd Gminy Blizanów",
    "category": "Urząd Gminy Blizanów",
    "formatted_address": "4,3(6)",
    "phone_number": "+48627511010",
    "source_url": "https://www.google.com/maps/place/Urz%C4%85d+Gminy+Blizan%C3%B3w/data=!4m7!3m6!1s0x471ad3efa0ee166f:0xd7aa526e835f603!8m2!3d51.9037971!4d18.013265!16s%2Fg%2F1v6p30m9!19sChIJbxbuoO_TGkcRA_Y16Caleg0?authuser=0&hl=tr&rclk=1",
    "website_url": "http://www.blizanow.ug.gov.pl/",
    "rating_text": "4,3",
    "stars": null,
    "number_of_reviews": null,
    "price_level": "",
    "open_hours": "",
    "extraction_timestamp": "2025-06-07T18:00:40.491Z",
    "source_name": "google",
    "source_query": "Irrigation Equipment",
    "source_country": "PL",
    "country": "Poland",
    "state": "Greater Poland Voivodeship",
    "city": "Blizanów"
  },
  {
    "source_id": "ChIJv2OZP-OlD0cRxevhZwqbfLA",
    "name": "Polboto",
    "category": "Polboto",
    "formatted_address": "4,6(94)",
    "phone_number": "+48767560050",
    "source_url": "https://www.google.com/maps/place/Polboto/data=!4m7!3m6!1s0x470fa5e33f9963bf:0xb07c9b0a67e1ebc5!8m2!3d51.0377606!4d16.4465299!16s%2Fg%2F1vs5vffr!19sChIJv2OZP-OlD0cRxevhZwqbfLA?authuser=0&hl=tr&rclk=1",
    "website_url": "https://polboto.agrihandler.pl/",
    "rating_text": "4,6",
    "stars": null,
    "number_of_reviews": null,
    "price_level": "",
    "open_hours": "",
    "extraction_timestamp": "2025-06-07T18:00:40.492Z",
    "source_name": "google",
    "source_query": "Irrigation Equipment",
    "source_country": "PL",
    "country": "Poland",
    "state": "Greater Poland Voivodeship",
    "city": "Blizanów"
  },
  {
    "source_id": "ChIJpxaaxWNZGUcRjjHprTFlLV8",
    "name": "Hydro-System Waldemar Zimiński",
    "category": "Hydro-System Waldemar Zimiński",
    "formatted_address": "4,5(15)",
    "phone_number": "+48468568476",
    "source_url": "https://www.google.com/maps/place/Hydro-System+Waldemar+Zimi%C5%84ski/data=!4m7!3m6!1s0x47195963c59a16a7:0x5f2d6531ade9318e!8m2!3d52.1203185!4d20.3763374!16s%2Fg%2F1tf5jcy0!19sChIJpxaaxWNZGUcRjjHprTFlLV8?authuser=0&hl=tr&rclk=1",
    "website_url": "https://www.hydros.com.pl/",
    "rating_text": "4,5",
    "stars": null,
    "number_of_reviews": null,
    "price_level": "",
    "open_hours": "",
    "extraction_timestamp": "2025-06-07T18:00:40.492Z",
    "source_name": "google",
    "source_query": "Irrigation Equipment",
    "source_country": "PL",
    "country": "Poland",
    "state": "Greater Poland Voivodeship",
    "city": "Blizanów"
  },
  {
    "source_id": "ChIJVTV3W_PzBEcR6gY0xwQi2_E",
    "name": "Deszczownie.com",
    "category": "Deszczownie.com",
    "formatted_address": "",
    "phone_number": "+48726000030",
    "source_url": "https://www.google.com/maps/place/Deszczownie.com/data=!4m7!3m6!1s0x4704f3f35b773555:0xf1db2204c73406ea!8m2!3d52.3623948!4d17.4021087!16s%2Fg%2F11y3pv4rxr!19sChIJVTV3W_PzBEcR6gY0xwQi2_E?authuser=0&hl=tr&rclk=1",
    "website_url": "https://www.deszczownie.com/",
    "rating_text": "",
    "stars": null,
    "number_of_reviews": null,
    "price_level": "",
    "open_hours": "",
    "extraction_timestamp": "2025-06-07T18:00:40.493Z",
    "source_name": "google",
    "source_query": "Irrigation Equipment",
    "source_country": "PL",
    "country": "Poland",
    "state": "Greater Poland Voivodeship",
    "city": "Blizanów"
  },
  {
    "source_id": "ChIJ76WAmPBgGUcRnx47bXjXTwU",
    "name": "Agrofim Poland Sp. z o.o.",
    "category": "Agrofim Poland Sp. z o.o.",
    "formatted_address": "3,8(6)",
    "phone_number": "+48468332266",
    "source_url": "https://www.google.com/maps/place/Agrofim+Poland+Sp.+z+o.o./data=!4m7!3m6!1s0x471960f09880a5ef:0x54fd7786d3b1e9f!8m2!3d51.9616303!4d20.1543898!16s%2Fg%2F1tdnjw7b!19sChIJ76WAmPBgGUcRnx47bXjXTwU?authuser=0&hl=tr&rclk=1",
    "website_url": "http://agrofim.pl/",
    "rating_text": "3,8",
    "stars": null,
    "number_of_reviews": null,
    "price_level": "",
    "open_hours": "",
    "extraction_timestamp": "2025-06-07T18:00:40.493Z",
    "source_name": "google",
    "source_query": "Irrigation Equipment",
    "source_country": "PL",
    "country": "Poland",
    "state": "Greater Poland Voivodeship",
    "city": "Blizanów"
  }
]
