[
  {
    "source_id": "ChIJPcljuud3BUcRdwqoJ78Jpfw",
    "name": "Chłodnictwo przemysłowe AC PROREF Sp. z o.o",
    "category": "Chłodnictwo przemysłowe AC PROREF Sp. z o.o",
    "formatted_address": "4,6(7)",
    "phone_number": "+48655455309",
    "source_url": "https://www.google.com/maps/place/Ch%C5%82odnictwo+przemys%C5%82owe+AC+PROREF+Sp.+z+o.o/data=!4m7!3m6!1s0x470577e7ba63c93d:0xfca509bf27a80a77!8m2!3d51.7056501!4d16.7562851!16s%2Fg%2F11c3k4_2m_!19sChIJPcljuud3BUcRdwqoJ78Jpfw?authuser=0&hl=tr&rclk=1",
    "website_url": "",
    "rating_text": "4,6",
    "stars": null,
    "number_of_reviews": null,
    "price_level": "",
    "open_hours": "",
    "extraction_timestamp": "2025-06-07T17:32:54.590Z",
    "source_name": "google",
    "source_query": "Irrigation Equipment",
    "source_country": "PL",
    "country": "Poland",
    "state": "Greater Poland Voivodeship",
    "city": "Bojanowo"
  },
  {
    "source_id": "ChIJa3SBPwKYBUcRgktq_X9mctU",
    "name": "PHU MICHEL Michał Pokrywka",
    "category": "PHU MICHEL Michał Pokrywka",
    "formatted_address": "5,0(3)",
    "phone_number": "+48517273335",
    "source_url": "https://www.google.com/maps/place/PHU+MICHEL+Micha%C5%82+Pokrywka/data=!4m7!3m6!1s0x470598023f81746b:0xd572667ffd6a4b82!8m2!3d51.7029134!4d16.746325!16s%2Fg%2F1tdxc_06!19sChIJa3SBPwKYBUcRgktq_X9mctU?authuser=0&hl=tr&rclk=1",
    "website_url": "",
    "rating_text": "5,0",
    "stars": null,
    "number_of_reviews": null,
    "price_level": "",
    "open_hours": "",
    "extraction_timestamp": "2025-06-07T17:32:54.591Z",
    "source_name": "google",
    "source_query": "Irrigation Equipment",
    "source_country": "PL",
    "country": "Poland",
    "state": "Greater Poland Voivodeship",
    "city": "Bojanowo"
  },
  {
    "source_id": "ChIJT2dPzc93BUcRXHuy83Eu4fY",
    "name": "Ludwik. Sklep wielobranżowy",
    "category": "Ludwik. Sklep wielobranżowy",
    "formatted_address": "4,8(5)",
    "phone_number": "+48655457610",
    "source_url": "https://www.google.com/maps/place/Ludwik.+Sklep+wielobran%C5%BCowy/data=!4m7!3m6!1s0x470577cfcd4f674f:0xf6e12e71f3b27b5c!8m2!3d51.7077731!4d16.7476743!16s%2Fg%2F1w6r6zw3!19sChIJT2dPzc93BUcRXHuy83Eu4fY?authuser=0&hl=tr&rclk=1",
    "website_url": "",
    "rating_text": "4,8",
    "stars": null,
    "number_of_reviews": null,
    "price_level": "",
    "open_hours": "",
    "extraction_timestamp": "2025-06-07T17:32:54.591Z",
    "source_name": "google",
    "source_query": "Irrigation Equipment",
    "source_country": "PL",
    "country": "Poland",
    "state": "Greater Poland Voivodeship",
    "city": "Bojanowo"
  },
  {
    "source_id": "ChIJfxt8x893BUcREUNXV0-9Y4I",
    "name": "Przyroda - sklep wędkarski i zoologiczny",
    "category": "Przyroda - sklep wędkarski i zoologiczny",
    "formatted_address": "4,2(11)",
    "phone_number": "+48606229713",
    "source_url": "https://www.google.com/maps/place/Przyroda+-+sklep+w%C4%99dkarski+i+zoologiczny/data=!4m7!3m6!1s0x470577cfc77c1b7f:0x8263bd4f57574311!8m2!3d51.7062829!4d16.7478322!16s%2Fg%2F1tc_v90t!19sChIJfxt8x893BUcREUNXV0-9Y4I?authuser=0&hl=tr&rclk=1",
    "website_url": "",
    "rating_text": "4,2",
    "stars": null,
    "number_of_reviews": null,
    "price_level": "",
    "open_hours": "",
    "extraction_timestamp": "2025-06-07T17:32:54.592Z",
    "source_name": "google",
    "source_query": "Irrigation Equipment",
    "source_country": "PL",
    "country": "Poland",
    "state": "Greater Poland Voivodeship",
    "city": "Bojanowo"
  },
  {
    "source_id": "ChIJqVZLItF3BUcRZdW-_l5vr0c",
    "name": "Biedronka",
    "category": "Biedronka",
    "formatted_address": "4,2(585)",
    "phone_number": "+48800080010",
    "source_url": "https://www.google.com/maps/place/Biedronka/data=!4m7!3m6!1s0x470577d1224b56a9:0x47af6f5efebed565!8m2!3d51.7088008!4d16.7420438!16s%2Fg%2F11_spmb33!19sChIJqVZLItF3BUcRZdW-_l5vr0c?authuser=0&hl=tr&rclk=1",
    "website_url": "",
    "rating_text": "4,2",
    "stars": null,
    "number_of_reviews": null,
    "price_level": "",
    "open_hours": "",
    "extraction_timestamp": "2025-06-07T17:32:54.593Z",
    "source_name": "google",
    "source_query": "Irrigation Equipment",
    "source_country": "PL",
    "country": "Poland",
    "state": "Greater Poland Voivodeship",
    "city": "Bojanowo"
  },
  {
    "source_id": "ChIJfxt8x893BUcR8OTV2LSOoMc",
    "name": "Janowicz Leszek. Sklep spożywczy",
    "category": "Janowicz Leszek. Sklep spożywczy",
    "formatted_address": "4,8(5)",
    "phone_number": "+48655456214",
    "source_url": "https://www.google.com/maps/place/Janowicz+Leszek.+Sklep+spo%C5%BCywczy/data=!4m7!3m6!1s0x470577cfc77c1b7f:0xc7a08eb4d8d5e4f0!8m2!3d51.7065489!4d16.747994!16s%2Fg%2F1v2jbmgv!19sChIJfxt8x893BUcR8OTV2LSOoMc?authuser=0&hl=tr&rclk=1",
    "website_url": "",
    "rating_text": "4,8",
    "stars": null,
    "number_of_reviews": null,
    "price_level": "",
    "open_hours": "",
    "extraction_timestamp": "2025-06-07T17:32:54.594Z",
    "source_name": "google",
    "source_query": "Irrigation Equipment",
    "source_country": "PL",
    "country": "Poland",
    "state": "Greater Poland Voivodeship",
    "city": "Bojanowo"
  },
  {
    "source_id": "ChIJfxt8x893BUcR7itJTYYBT-U",
    "name": "Sklep rolno - spożywczy",
    "category": "Sklep rolno - spożywczy",
    "formatted_address": "5,0(1)",
    "phone_number": "+48655456315",
    "source_url": "https://www.google.com/maps/place/Sklep+rolno+-+spo%C5%BCywczy/data=!4m7!3m6!1s0x470577cfc77c1b7f:0xe54f01864d492bee!8m2!3d51.7072768!4d16.7499391!16s%2Fg%2F1tfv3v9r!19sChIJfxt8x893BUcR7itJTYYBT-U?authuser=0&hl=tr&rclk=1",
    "website_url": "",
    "rating_text": "5,0",
    "stars": null,
    "number_of_reviews": null,
    "price_level": "",
    "open_hours": "",
    "extraction_timestamp": "2025-06-07T17:32:54.595Z",
    "source_name": "google",
    "source_query": "Irrigation Equipment",
    "source_country": "PL",
    "country": "Poland",
    "state": "Greater Poland Voivodeship",
    "city": "Bojanowo"
  },
  {
    "source_id": "ChIJGTE0PM53BUcRIYshIIXilfM",
    "name": "Fiora. Sklep spożywczy. Kędziora E.",
    "category": "Fiora. Sklep spożywczy. Kędziora E.",
    "formatted_address": "3,9(8)",
    "phone_number": "+48655456237",
    "source_url": "https://www.google.com/maps/place/Fiora.+Sklep+spo%C5%BCywczy.+K%C4%99dziora+E./data=!4m7!3m6!1s0x470577ce3c343119:0xf395e28520218b21!8m2!3d51.7078236!4d16.7491199!16s%2Fg%2F1tcy7lks!19sChIJGTE0PM53BUcRIYshIIXilfM?authuser=0&hl=tr&rclk=1",
    "website_url": "",
    "rating_text": "3,9",
    "stars": null,
    "number_of_reviews": null,
    "price_level": "",
    "open_hours": "",
    "extraction_timestamp": "2025-06-07T17:32:54.595Z",
    "source_name": "google",
    "source_query": "Irrigation Equipment",
    "source_country": "PL",
    "country": "Poland",
    "state": "Greater Poland Voivodeship",
    "city": "Bojanowo"
  },
  {
    "source_id": "ChIJo9KBG9F3BUcRIr3lkL-UcKc",
    "name": "Dino",
    "category": "Dino",
    "formatted_address": "4,3(259)",
    "phone_number": "",
    "source_url": "https://www.google.com/maps/place/Dino/data=!4m7!3m6!1s0x470577d11b81d2a3:0xa77094bf90e5bd22!8m2!3d51.7086849!4d16.742564!16s%2Fg%2F11_pndcd3!19sChIJo9KBG9F3BUcRIr3lkL-UcKc?authuser=0&hl=tr&rclk=1",
    "website_url": "",
    "rating_text": "4,3",
    "stars": null,
    "number_of_reviews": null,
    "price_level": "",
    "open_hours": "",
    "extraction_timestamp": "2025-06-07T17:32:54.596Z",
    "source_name": "google",
    "source_query": "Irrigation Equipment",
    "source_country": "PL",
    "country": "Poland",
    "state": "Greater Poland Voivodeship",
    "city": "Bojanowo"
  },
  {
    "source_id": "ChIJKasctIS5BUcReGZjmggxnME",
    "name": "Firma Handlowa RYNMAR Tadeusz Cichoszewski",
    "category": "Firma Handlowa RYNMAR Tadeusz Cichoszewski",
    "formatted_address": "4,8(4)",
    "phone_number": "+48655180598",
    "source_url": "https://www.google.com/maps/place/Firma+Handlowa+RYNMAR+Tadeusz+Cichoszewski/data=!4m7!3m6!1s0x4705b984b41cab29:0xc19c31089a636678!8m2!3d52.0159304!4d16.5205747!16s%2Fg%2F1tlc6s5w!19sChIJKasctIS5BUcReGZjmggxnME?authuser=0&hl=tr&rclk=1",
    "website_url": "",
    "rating_text": "4,8",
    "stars": null,
    "number_of_reviews": null,
    "price_level": "",
    "open_hours": "",
    "extraction_timestamp": "2025-06-07T17:32:54.597Z",
    "source_name": "google",
    "source_query": "Irrigation Equipment",
    "source_country": "PL",
    "country": "Poland",
    "state": "Greater Poland Voivodeship",
    "city": "Bojanowo"
  },
  {
    "source_id": "ChIJv2OZP-OlD0cRxevhZwqbfLA",
    "name": "Polboto",
    "category": "Polboto",
    "formatted_address": "4,6(94)",
    "phone_number": "+48767560050",
    "source_url": "https://www.google.com/maps/place/Polboto/data=!4m7!3m6!1s0x470fa5e33f9963bf:0xb07c9b0a67e1ebc5!8m2!3d51.0377606!4d16.4465299!16s%2Fg%2F1vs5vffr!19sChIJv2OZP-OlD0cRxevhZwqbfLA?authuser=0&hl=tr&rclk=1",
    "website_url": "",
    "rating_text": "4,6",
    "stars": null,
    "number_of_reviews": null,
    "price_level": "",
    "open_hours": "",
    "extraction_timestamp": "2025-06-07T17:32:54.598Z",
    "source_name": "google",
    "source_query": "Irrigation Equipment",
    "source_country": "PL",
    "country": "Poland",
    "state": "Greater Poland Voivodeship",
    "city": "Bojanowo"
  },
  {
    "source_id": "ChIJB6y_v5J2HEcRlDfYx3xmc9M",
    "name": "Milex irrigation systems",
    "category": "Milex irrigation systems",
    "formatted_address": "4,6(37)",
    "phone_number": "+48242775222",
    "source_url": "https://www.google.com/maps/place/Milex+irrigation+systems/data=!4m7!3m6!1s0x471c7692bfbfac07:0xd373667cc7d83794!8m2!3d52.4690634!4d19.7520904!16s%2Fg%2F1w2yy67r!19sChIJB6y_v5J2HEcRlDfYx3xmc9M?authuser=0&hl=tr&rclk=1",
    "website_url": "",
    "rating_text": "4,6",
    "stars": null,
    "number_of_reviews": null,
    "price_level": "",
    "open_hours": "",
    "extraction_timestamp": "2025-06-07T17:32:54.598Z",
    "source_name": "google",
    "source_query": "Irrigation Equipment",
    "source_country": "PL",
    "country": "Poland",
    "state": "Greater Poland Voivodeship",
    "city": "Bojanowo"
  },
  {
    "source_id": "ChIJwULabch3BUcR9wP_2yLZl5Y",
    "name": "Henryk Błochowiak i Ireneusz Skotarek HESKO SC",
    "category": "Henryk Błochowiak i Ireneusz Skotarek HESKO SC",
    "formatted_address": "",
    "phone_number": "+48606982046",
    "source_url": "https://www.google.com/maps/place/Henryk+B%C5%82ochowiak+i+Ireneusz+Skotarek+HESKO+SC/data=!4m7!3m6!1s0x470577c86dda42c1:0x9697d922dbff03f7!8m2!3d51.704097!4d16.7586914!16s%2Fg%2F11fm16jnwr!19sChIJwULabch3BUcR9wP_2yLZl5Y?authuser=0&hl=tr&rclk=1",
    "website_url": "",
    "rating_text": "",
    "stars": null,
    "number_of_reviews": null,
    "price_level": "",
    "open_hours": "",
    "extraction_timestamp": "2025-06-07T17:32:54.600Z",
    "source_name": "google",
    "source_query": "Irrigation Equipment",
    "source_country": "PL",
    "country": "Poland",
    "state": "Greater Poland Voivodeship",
    "city": "Bojanowo"
  },
  {
    "source_id": "ChIJ72-42cV3BUcRkATBA_lbSg0",
    "name": "Sklep spożywczy",
    "category": "Sklep spożywczy",
    "formatted_address": "4,8(19)",
    "phone_number": "",
    "source_url": "https://www.google.com/maps/place/Sklep+spo%C5%BCywczy/data=!4m7!3m6!1s0x470577c5d9b86fef:0xd4a5bf903c10490!8m2!3d51.7022817!4d16.7517706!16s%2Fg%2F11gfkfbbz1!19sChIJ72-42cV3BUcRkATBA_lbSg0?authuser=0&hl=tr&rclk=1",
    "website_url": "",
    "rating_text": "4,8",
    "stars": null,
    "number_of_reviews": null,
    "price_level": "",
    "open_hours": "",
    "extraction_timestamp": "2025-06-07T17:32:54.600Z",
    "source_name": "google",
    "source_query": "Irrigation Equipment",
    "source_country": "PL",
    "country": "Poland",
    "state": "Greater Poland Voivodeship",
    "city": "Bojanowo"
  },
  {
    "source_id": "ChIJxVH-KKZ3BUcRBSsMn0iwrTY",
    "name": "Delikatesy Centrum",
    "category": "Delikatesy Centrum",
    "formatted_address": "3,9(128)",
    "phone_number": "+48655467520",
    "source_url": "https://www.google.com/maps/place/Delikatesy+Centrum/data=!4m7!3m6!1s0x470577a628fe51c5:0x36adb0489f0c2b05!8m2!3d51.7026482!4d16.7465046!16s%2Fg%2F1tj4xdlx!19sChIJxVH-KKZ3BUcRBSsMn0iwrTY?authuser=0&hl=tr&rclk=1",
    "website_url": "",
    "rating_text": "3,9",
    "stars": null,
    "number_of_reviews": null,
    "price_level": "",
    "open_hours": "",
    "extraction_timestamp": "2025-06-07T17:32:54.601Z",
    "source_name": "google",
    "source_query": "Irrigation Equipment",
    "source_country": "PL",
    "country": "Poland",
    "state": "Greater Poland Voivodeship",
    "city": "Bojanowo"
  },
  {
    "source_id": "ChIJMTW1m5Z3BUcR71jqk4NV4rM",
    "name": "Lewiatan",
    "category": "Lewiatan",
    "formatted_address": "4,3(38)",
    "phone_number": "",
    "source_url": "https://www.google.com/maps/place/Lewiatan/data=!4m7!3m6!1s0x470577969bb53531:0xb3e2558393ea58ef!8m2!3d51.7143137!4d16.7470972!16s%2Fg%2F11tmk6mq4f!19sChIJMTW1m5Z3BUcR71jqk4NV4rM?authuser=0&hl=tr&rclk=1",
    "website_url": "",
    "rating_text": "4,3",
    "stars": null,
    "number_of_reviews": null,
    "price_level": "",
    "open_hours": "",
    "extraction_timestamp": "2025-06-07T17:32:54.602Z",
    "source_name": "google",
    "source_query": "Irrigation Equipment",
    "source_country": "PL",
    "country": "Poland",
    "state": "Greater Poland Voivodeship",
    "city": "Bojanowo"
  },
  {
    "source_id": "ChIJdRnGeDBaBEcRpyx7M8s1JkQ",
    "name": "Wirtgen Polska Sp. z o.o.",
    "category": "Wirtgen Polska Sp. z o.o.",
    "formatted_address": "4,4(31)",
    "phone_number": "+48618982100",
    "source_url": "https://www.google.com/maps/place/Wirtgen+Polska+Sp.+z+o.o./data=!4m7!3m6!1s0x47045a3078c61975:0x442635cb337b2ca7!8m2!3d52.3665338!4d16.9940075!16s%2Fg%2F1pv043rwn!19sChIJdRnGeDBaBEcRpyx7M8s1JkQ?authuser=0&hl=tr&rclk=1",
    "website_url": "",
    "rating_text": "4,4",
    "stars": null,
    "number_of_reviews": null,
    "price_level": "",
    "open_hours": "",
    "extraction_timestamp": "2025-06-07T17:32:54.603Z",
    "source_name": "google",
    "source_query": "Irrigation Equipment",
    "source_country": "PL",
    "country": "Poland",
    "state": "Greater Poland Voivodeship",
    "city": "Bojanowo"
  },
  {
    "source_id": "ChIJi56vM2tbBEcRrYnmZzUWQ6s",
    "name": "Sklep Instalacyjny hydrauliczny Poznań – Doradca Energetyczny – pompy ciepła – kotły gazowe Poznań",
    "category": "Sklep Instalacyjny hydrauliczny Poznań – Doradca Energetyczny – pompy ciepła – kotły gazowe Poznań",
    "formatted_address": "5,0(25)",
    "phone_number": "+48509786200",
    "source_url": "https://www.google.com/maps/place/Sklep+Instalacyjny+hydrauliczny+Pozna%C5%84+%E2%80%93+Doradca+Energetyczny+%E2%80%93+pompy+ciep%C5%82a+%E2%80%93+kot%C5%82y+gazowe+Pozna%C5%84/data=!4m7!3m6!1s0x47045b6b33af9e8b:0xab43163567e689ad!8m2!3d52.3830683!4d16.9201901!16s%2Fg%2F11tdf74spl!19sChIJi56vM2tbBEcRrYnmZzUWQ6s?authuser=0&hl=tr&rclk=1",
    "website_url": "",
    "rating_text": "5,0",
    "stars": null,
    "number_of_reviews": null,
    "price_level": "",
    "open_hours": "",
    "extraction_timestamp": "2025-06-07T17:32:54.604Z",
    "source_name": "google",
    "source_query": "Irrigation Equipment",
    "source_country": "PL",
    "country": "Poland",
    "state": "Greater Poland Voivodeship",
    "city": "Bojanowo"
  },
  {
    "source_id": "ChIJJ0CrkjR3BUcRHqrtQ2U3C-s",
    "name": "Dino",
    "category": "Dino",
    "formatted_address": "4,5(111)",
    "phone_number": "",
    "source_url": "https://www.google.com/maps/place/Dino/data=!4m7!3m6!1s0x4705773492ab4027:0xeb0b376543edaa1e!8m2!3d51.7020724!4d16.7770765!16s%2Fg%2F11h92p4yc0!19sChIJJ0CrkjR3BUcRHqrtQ2U3C-s?authuser=0&hl=tr&rclk=1",
    "website_url": "",
    "rating_text": "4,5",
    "stars": null,
    "number_of_reviews": null,
    "price_level": "",
    "open_hours": "",
    "extraction_timestamp": "2025-06-07T17:32:54.605Z",
    "source_name": "google",
    "source_query": "Irrigation Equipment",
    "source_country": "PL",
    "country": "Poland",
    "state": "Greater Poland Voivodeship",
    "city": "Bojanowo"
  },
  {
    "source_id": "ChIJWRHDnAr7BEcRi-y-7iptxWI",
    "name": "HOMAG Polska",
    "category": "HOMAG Polska",
    "formatted_address": "4,2(129)",
    "phone_number": "+48616474500",
    "source_url": "https://www.google.com/maps/place/HOMAG+Polska/data=!4m7!3m6!1s0x4704fb0a9cc31159:0x62c56d2aeebeec8b!8m2!3d52.2310332!4d17.2558263!16s%2Fg%2F1tf7qv7c!19sChIJWRHDnAr7BEcRi-y-7iptxWI?authuser=0&hl=tr&rclk=1",
    "website_url": "",
    "rating_text": "4,2",
    "stars": null,
    "number_of_reviews": null,
    "price_level": "",
    "open_hours": "",
    "extraction_timestamp": "2025-06-07T17:32:54.606Z",
    "source_name": "google",
    "source_query": "Irrigation Equipment",
    "source_country": "PL",
    "country": "Poland",
    "state": "Greater Poland Voivodeship",
    "city": "Bojanowo"
  },
  {
    "source_id": "ChIJoRC9EQmYBUcR8F2Svb-Ue_E",
    "name": "Studnie głębinowe Leszno - Firma Usługowo-Produkcyjno-Handlowa Karol Płaczek",
    "category": "Studnie głębinowe Leszno - Firma Usługowo-Produkcyjno-Handlowa Karol Płaczek",
    "formatted_address": "4,8(11)",
    "phone_number": "+48692474443",
    "source_url": "https://www.google.com/maps/place/Studnie+g%C5%82%C4%99binowe+Leszno+-+Firma+Us%C5%82ugowo-Produkcyjno-Handlowa+Karol+P%C5%82aczek/data=!4m7!3m6!1s0x4705980911bd10a1:0xf17b94bfbd925df0!8m2!3d51.8649455!4d16.5933801!16s%2Fg%2F1tczj59h!19sChIJoRC9EQmYBUcR8F2Svb-Ue_E?authuser=0&hl=tr&rclk=1",
    "website_url": "",
    "rating_text": "4,8",
    "stars": null,
    "number_of_reviews": null,
    "price_level": "",
    "open_hours": "",
    "extraction_timestamp": "2025-06-07T17:32:54.606Z",
    "source_name": "google",
    "source_query": "Irrigation Equipment",
    "source_country": "PL",
    "country": "Poland",
    "state": "Greater Poland Voivodeship",
    "city": "Bojanowo"
  },
  {
    "source_id": "ChIJ5ezouQ0LBUcRKfWsqp6oPIo",
    "name": "K.G instal Krzysztof Gorwa",
    "category": "K.G instal Krzysztof Gorwa",
    "formatted_address": "4,9(13)",
    "phone_number": "+48663996171",
    "source_url": "https://www.google.com/maps/place/K.G+instal+Krzysztof+Gorwa/data=!4m7!3m6!1s0x47050b0db9e8ece5:0x8a3ca89eaaacf529!8m2!3d51.8783144!4d16.951145!16s%2Fg%2F11s4_gz2lc!19sChIJ5ezouQ0LBUcRKfWsqp6oPIo?authuser=0&hl=tr&rclk=1",
    "website_url": "",
    "rating_text": "4,9",
    "stars": null,
    "number_of_reviews": null,
    "price_level": "",
    "open_hours": "",
    "extraction_timestamp": "2025-06-07T17:32:54.607Z",
    "source_name": "google",
    "source_query": "Irrigation Equipment",
    "source_country": "PL",
    "country": "Poland",
    "state": "Greater Poland Voivodeship",
    "city": "Bojanowo"
  },
  {
    "source_id": "ChIJk1mEomZRBEcR2GRxJFTAmDE",
    "name": "Maćkowiak Baseny",
    "category": "Maćkowiak Baseny",
    "formatted_address": "5,0(2)",
    "phone_number": "+48508173455",
    "source_url": "https://www.google.com/maps/place/Ma%C4%87kowiak+Baseny/data=!4m7!3m6!1s0x47045166a2845993:0x3198c054247164d8!8m2!3d51.5787991!4d16.9475191!16s%2Fg%2F11y9xbxy4c!19sChIJk1mEomZRBEcR2GRxJFTAmDE?authuser=0&hl=tr&rclk=1",
    "website_url": "",
    "rating_text": "5,0",
    "stars": null,
    "number_of_reviews": null,
    "price_level": "",
    "open_hours": "",
    "extraction_timestamp": "2025-06-07T17:32:54.608Z",
    "source_name": "google",
    "source_query": "Irrigation Equipment",
    "source_country": "PL",
    "country": "Poland",
    "state": "Greater Poland Voivodeship",
    "city": "Bojanowo"
  },
  {
    "source_id": "ChIJKbbNUZPUBUcRZzH5Q_PEZ7Y",
    "name": "Z.U.H. Wojciech Rajewski",
    "category": "Z.U.H. Wojciech Rajewski",
    "formatted_address": "4,8(13)",
    "phone_number": "+48601643831",
    "source_url": "https://www.google.com/maps/place/Z.U.H.+Wojciech+Rajewski/data=!4m7!3m6!1s0x4705d49351cdb629:0xb667c4f343f93167!8m2!3d52.2544057!4d16.1341154!16s%2Fg%2F11ddx40f1p!19sChIJKbbNUZPUBUcRZzH5Q_PEZ7Y?authuser=0&hl=tr&rclk=1",
    "website_url": "",
    "rating_text": "4,8",
    "stars": null,
    "number_of_reviews": null,
    "price_level": "",
    "open_hours": "",
    "extraction_timestamp": "2025-06-07T17:32:54.609Z",
    "source_name": "google",
    "source_query": "Irrigation Equipment",
    "source_country": "PL",
    "country": "Poland",
    "state": "Greater Poland Voivodeship",
    "city": "Bojanowo"
  },
  {
    "source_id": "ChIJPZce8OEJBUcRIVsbpcRzLu8",
    "name": "Unicus Usługi Ogrodnicze Nowaczyk",
    "category": "Unicus Usługi Ogrodnicze Nowaczyk",
    "formatted_address": "4,6(19)",
    "phone_number": "+48602815312",
    "source_url": "https://www.google.com/maps/place/Unicus+Us%C5%82ugi+Ogrodnicze+Nowaczyk/data=!4m7!3m6!1s0x470509e1f01e973d:0xef2e73c4a51b5b21!8m2!3d51.897861!4d16.9626557!16s%2Fg%2F11qrl6ljjl!19sChIJPZce8OEJBUcRIVsbpcRzLu8?authuser=0&hl=tr&rclk=1",
    "website_url": "",
    "rating_text": "4,6",
    "stars": null,
    "number_of_reviews": null,
    "price_level": "",
    "open_hours": "",
    "extraction_timestamp": "2025-06-07T17:32:54.610Z",
    "source_name": "google",
    "source_query": "Irrigation Equipment",
    "source_country": "PL",
    "country": "Poland",
    "state": "Greater Poland Voivodeship",
    "city": "Bojanowo"
  },
  {
    "source_id": "ChIJL6WSECc3G0cR0cIZjFQOyyM",
    "name": "Laskowiec. Garden center",
    "category": "Laskowiec. Garden center",
    "formatted_address": "4,6(245)",
    "phone_number": "+48632479236",
    "source_url": "https://www.google.com/maps/place/Laskowiec.+Garden+center/data=!4m7!3m6!1s0x471b37271092a52f:0x23cb0e548c19c2d1!8m2!3d52.2317452!4d18.3177935!16s%2Fg%2F1wk6yj3q!19sChIJL6WSECc3G0cR0cIZjFQOyyM?authuser=0&hl=tr&rclk=1",
    "website_url": "",
    "rating_text": "4,6",
    "stars": null,
    "number_of_reviews": null,
    "price_level": "",
    "open_hours": "",
    "extraction_timestamp": "2025-06-07T17:32:54.610Z",
    "source_name": "google",
    "source_query": "Irrigation Equipment",
    "source_country": "PL",
    "country": "Poland",
    "state": "Greater Poland Voivodeship",
    "city": "Bojanowo"
  },
  {
    "source_id": "ChIJiaP33HZjD0cR8cFrsAAP9vU",
    "name": "M-Garden Studio | PROJEKTY | TRAWNIKI i NAWADNIANIE | OBSŁUGA",
    "category": "M-Garden Studio | PROJEKTY | TRAWNIKI i NAWADNIANIE | OBSŁUGA",
    "formatted_address": "5,0(16)",
    "phone_number": "+48794588389",
    "source_url": "https://www.google.com/maps/place/M-Garden+Studio+%7C+PROJEKTY+%7C+TRAWNIKI+i+NAWADNIANIE+%7C+OBS%C5%81UGA/data=!4m7!3m6!1s0x470f6376dcf7a389:0xf5f60f00b06bc1f1!8m2!3d51.502363!4d16.393773!16s%2Fg%2F11h5rlblpg!19sChIJiaP33HZjD0cR8cFrsAAP9vU?authuser=0&hl=tr&rclk=1",
    "website_url": "",
    "rating_text": "5,0",
    "stars": null,
    "number_of_reviews": null,
    "price_level": "",
    "open_hours": "",
    "extraction_timestamp": "2025-06-07T17:32:54.611Z",
    "source_name": "google",
    "source_query": "Irrigation Equipment",
    "source_country": "PL",
    "country": "Poland",
    "state": "Greater Poland Voivodeship",
    "city": "Bojanowo"
  },
  {
    "source_id": "ChIJv6Kfnx5uBUcRgKe6uYYbsU8",
    "name": "Lely Center w Krobi",
    "category": "Lely Center w Krobi",
    "formatted_address": "4,2(6)",
    "phone_number": "+48884035777",
    "source_url": "https://www.google.com/maps/place/Lely+Center+w+Krobi/data=!4m7!3m6!1s0x47056e1e9f9fa2bf:0x4fb11b86b9baa780!8m2!3d51.7040742!4d16.9929354!16s%2Fg%2F11gbksc8_5!19sChIJv6Kfnx5uBUcRgKe6uYYbsU8?authuser=0&hl=tr&rclk=1",
    "website_url": "",
    "rating_text": "4,2",
    "stars": null,
    "number_of_reviews": null,
    "price_level": "",
    "open_hours": "",
    "extraction_timestamp": "2025-06-07T17:32:54.612Z",
    "source_name": "google",
    "source_query": "Irrigation Equipment",
    "source_country": "PL",
    "country": "Poland",
    "state": "Greater Poland Voivodeship",
    "city": "Bojanowo"
  }
]
