[
  {
    "source_id": "ChIJ-9ESePy7BUcRqmyS3EKUYYM",
    "name": "Zakład Zaopatrzenia i Usług dla Rolnictwa Brembor Z. Sroczyński E. sp.j.",
    "category": "Zakład Zaopatrzenia i Usług dla Rolnictwa Brembor Z. Sroczyński E. sp.j.",
    "formatted_address": "4,6(15)",
    "phone_number": "+48603997035",
    "source_url": "https://www.google.com/maps/place/Zak%C5%82ad+Zaopatrzenia+i+Us%C5%82ug+dla+Rolnictwa+Brembor+Z.+Sroczy%C5%84ski+E.+sp.j./data=!4m7!3m6!1s0x4705bbfc7812d1fb:0x83619442dc926caa!8m2!3d51.990076!4d16.5802248!16s%2Fg%2F11fjmdtf__!19sChIJ-9ESePy7BUcRqmyS3EKUYYM?authuser=0&hl=tr&rclk=1",
    "website_url": "",
    "rating_text": "4,6",
    "stars": null,
    "number_of_reviews": null,
    "price_level": "",
    "open_hours": "",
    "extraction_timestamp": "2025-06-07T17:13:59.388Z",
    "source_name": "google",
    "source_query": "Irrigation Equipment",
    "source_country": "PL",
    "country": "Poland",
    "state": "Greater Poland Voivodeship",
    "city": "Bojanowo Stare"
  },
  {
    "source_id": "ChIJuUw6fUO7BUcRDyzwDC2NbsA",
    "name": "INSTAL-PAT",
    "category": "INSTAL-PAT",
    "formatted_address": "5,0(5)",
    "phone_number": "+48609489453",
    "source_url": "https://www.google.com/maps/place/INSTAL-PAT/data=!4m7!3m6!1s0x4705bb437d3a4cb9:0xc06e8d2d0cf02c0f!8m2!3d51.993326!4d16.58349!16s%2Fg%2F11sq56bbgq!19sChIJuUw6fUO7BUcRDyzwDC2NbsA?authuser=0&hl=tr&rclk=1",
    "website_url": "",
    "rating_text": "5,0",
    "stars": null,
    "number_of_reviews": null,
    "price_level": "",
    "open_hours": "",
    "extraction_timestamp": "2025-06-07T17:13:59.388Z",
    "source_name": "google",
    "source_query": "Irrigation Equipment",
    "source_country": "PL",
    "country": "Poland",
    "state": "Greater Poland Voivodeship",
    "city": "Bojanowo Stare"
  },
  {
    "source_id": "ChIJAx78Eau7BUcRW-1APEkWu2M",
    "name": "Lívio",
    "category": "Lívio",
    "formatted_address": "4,4(20)",
    "phone_number": "",
    "source_url": "https://www.google.com/maps/place/L%C3%ADvio/data=!4m7!3m6!1s0x4705bbab11fc1e03:0x63bb16493c40ed5b!8m2!3d51.9985127!4d16.5839919!16s%2Fg%2F11j47_ylx8!19sChIJAx78Eau7BUcRW-1APEkWu2M?authuser=0&hl=tr&rclk=1",
    "website_url": "",
    "rating_text": "4,4",
    "stars": null,
    "number_of_reviews": null,
    "price_level": "",
    "open_hours": "",
    "extraction_timestamp": "2025-06-07T17:13:59.388Z",
    "source_name": "google",
    "source_query": "Irrigation Equipment",
    "source_country": "PL",
    "country": "Poland",
    "state": "Greater Poland Voivodeship",
    "city": "Bojanowo Stare"
  },
  {
    "source_id": "ChIJPcljuud3BUcRdwqoJ78Jpfw",
    "name": "Chłodnictwo przemysłowe AC PROREF Sp. z o.o",
    "category": "Chłodnictwo przemysłowe AC PROREF Sp. z o.o",
    "formatted_address": "4,6(7)",
    "phone_number": "+48655455309",
    "source_url": "https://www.google.com/maps/place/Ch%C5%82odnictwo+przemys%C5%82owe+AC+PROREF+Sp.+z+o.o/data=!4m7!3m6!1s0x470577e7ba63c93d:0xfca509bf27a80a77!8m2!3d51.7056501!4d16.7562851!16s%2Fg%2F11c3k4_2m_!19sChIJPcljuud3BUcRdwqoJ78Jpfw?authuser=0&hl=tr&rclk=1",
    "website_url": "",
    "rating_text": "4,6",
    "stars": null,
    "number_of_reviews": null,
    "price_level": "",
    "open_hours": "",
    "extraction_timestamp": "2025-06-07T17:13:59.389Z",
    "source_name": "google",
    "source_query": "Irrigation Equipment",
    "source_country": "PL",
    "country": "Poland",
    "state": "Greater Poland Voivodeship",
    "city": "Bojanowo Stare"
  },
  {
    "source_id": "ChIJq5Mh51S6BUcREmGINyJdct0",
    "name": "Sieć 34 Firma Handlowa Henryka Biała",
    "category": "Sieć 34 Firma Handlowa Henryka Biała",
    "formatted_address": "5,0(3)",
    "phone_number": "+48604526722",
    "source_url": "https://www.google.com/maps/place/Sie%C4%87+34+Firma+Handlowa+Henryka+Bia%C5%82a/data=!4m7!3m6!1s0x4705ba54e72193ab:0xdd725d2237886112!8m2!3d52.00152!4d16.58687!16s%2Fg%2F11j4t6sdq0!19sChIJq5Mh51S6BUcREmGINyJdct0?authuser=0&hl=tr&rclk=1",
    "website_url": "",
    "rating_text": "5,0",
    "stars": null,
    "number_of_reviews": null,
    "price_level": "",
    "open_hours": "",
    "extraction_timestamp": "2025-06-07T17:13:59.389Z",
    "source_name": "google",
    "source_query": "Irrigation Equipment",
    "source_country": "PL",
    "country": "Poland",
    "state": "Greater Poland Voivodeship",
    "city": "Bojanowo Stare"
  },
  {
    "source_id": "ChIJTdX05TW7BUcRZuzIlns-GlU",
    "name": "Dino",
    "category": "Dino",
    "formatted_address": "4,4(178)",
    "phone_number": "",
    "source_url": "https://www.google.com/maps/place/Dino/data=!4m7!3m6!1s0x4705bb35e5f4d54d:0x551a3e7b96c8ec66!8m2!3d52.0027018!4d16.5834122!16s%2Fg%2F11j6vvhb_q!19sChIJTdX05TW7BUcRZuzIlns-GlU?authuser=0&hl=tr&rclk=1",
    "website_url": "",
    "rating_text": "4,4",
    "stars": null,
    "number_of_reviews": null,
    "price_level": "",
    "open_hours": "",
    "extraction_timestamp": "2025-06-07T17:13:59.389Z",
    "source_name": "google",
    "source_query": "Irrigation Equipment",
    "source_country": "PL",
    "country": "Poland",
    "state": "Greater Poland Voivodeship",
    "city": "Bojanowo Stare"
  },
  {
    "source_id": "ChIJIYVAC6m7BUcRwfBSx2oQQxU",
    "name": "Firma Handlowa Henryka Biała sklep spożywczy - przemysłowy",
    "category": "Firma Handlowa Henryka Biała sklep spożywczy - przemysłowy",
    "formatted_address": "4,1(10)",
    "phone_number": "+48600392295",
    "source_url": "https://www.google.com/maps/place/Firma+Handlowa+Henryka+Bia%C5%82a+sklep+spo%C5%BCywczy+-+przemys%C5%82owy/data=!4m7!3m6!1s0x4705bba90b408521:0x1543106ac752f0c1!8m2!3d51.9912443!4d16.5858131!16s%2Fg%2F1td5pzwc!19sChIJIYVAC6m7BUcRwfBSx2oQQxU?authuser=0&hl=tr&rclk=1",
    "website_url": "",
    "rating_text": "4,1",
    "stars": null,
    "number_of_reviews": null,
    "price_level": "",
    "open_hours": "",
    "extraction_timestamp": "2025-06-07T17:13:59.389Z",
    "source_name": "google",
    "source_query": "Irrigation Equipment",
    "source_country": "PL",
    "country": "Poland",
    "state": "Greater Poland Voivodeship",
    "city": "Bojanowo Stare"
  }
]
