[
  {
    "source_id": "ChIJac5wPMQQBUcRpvHs4gb_QAc",
    "name": "inducta.pl",
    "category": "inducta.pl",
    "formatted_address": "5,0(7)",
    "phone_number": "+48605267231",
    "source_url": "https://www.google.com/maps/place/inducta.pl/data=!4m7!3m6!1s0x470510c43c70ce69:0x740ff06e2ecf1a6!8m2!3d51.9220909!4d17.2322111!16s%2Fg%2F11c1pr861x!19sChIJac5wPMQQBUcRpvHs4gb_QAc?authuser=0&hl=tr&rclk=1",
    "website_url": "",
    "rating_text": "5,0",
    "stars": null,
    "number_of_reviews": null,
    "price_level": "",
    "open_hours": "",
    "extraction_timestamp": "2025-06-07T17:29:54.048Z",
    "source_name": "google",
    "source_query": "Irrigation Equipment",
    "source_country": "PL",
    "country": "Poland",
    "state": "Greater Poland Voivodeship",
    "city": "Borek Wielkopolski"
  },
  {
    "source_id": "ChIJEQ3qbs0QBUcRaNg7bWaOHsA",
    "name": "Unirol",
    "category": "Unirol",
    "formatted_address": "3,6(16)",
    "phone_number": "+48655716858",
    "source_url": "https://www.google.com/maps/place/Unirol/data=!4m7!3m6!1s0x470510cd6eea0d11:0xc01e8e666d3bd868!8m2!3d51.9144843!4d17.2453752!16s%2Fg%2F1tlwdbsd!19sChIJEQ3qbs0QBUcRaNg7bWaOHsA?authuser=0&hl=tr&rclk=1",
    "website_url": "",
    "rating_text": "3,6",
    "stars": null,
    "number_of_reviews": null,
    "price_level": "",
    "open_hours": "",
    "extraction_timestamp": "2025-06-07T17:29:54.049Z",
    "source_name": "google",
    "source_query": "Irrigation Equipment",
    "source_country": "PL",
    "country": "Poland",
    "state": "Greater Poland Voivodeship",
    "city": "Borek Wielkopolski"
  },
  {
    "source_id": "ChIJMeeB0tEQBUcRoD5FBPNjmGY",
    "name": "Agrotechnika",
    "category": "Agrotechnika",
    "formatted_address": "3,0(1)",
    "phone_number": "",
    "source_url": "https://www.google.com/maps/place/Agrotechnika/data=!4m7!3m6!1s0x470510d1d281e731:0x669863f304453ea0!8m2!3d51.9143338!4d17.236048!16s%2Fg%2F11f37k6t4n!19sChIJMeeB0tEQBUcRoD5FBPNjmGY?authuser=0&hl=tr&rclk=1",
    "website_url": "",
    "rating_text": "3,0",
    "stars": null,
    "number_of_reviews": null,
    "price_level": "",
    "open_hours": "",
    "extraction_timestamp": "2025-06-07T17:29:54.049Z",
    "source_name": "google",
    "source_query": "Irrigation Equipment",
    "source_country": "PL",
    "country": "Poland",
    "state": "Greater Poland Voivodeship",
    "city": "Borek Wielkopolski"
  },
  {
    "source_id": "ChIJT7Tumy0XBUcR4Rk25Yy9jW4",
    "name": "Borecki Zakład Wodociągów I Kanalizacji",
    "category": "Borecki Zakład Wodociągów I Kanalizacji",
    "formatted_address": "5,0(1)",
    "phone_number": "+48655715998",
    "source_url": "https://www.google.com/maps/place/Borecki+Zak%C5%82ad+Wodoci%C4%85g%C3%B3w+I+Kanalizacji/data=!4m7!3m6!1s0x4705172d9beeb44f:0x6e8dbd8ce53619e1!8m2!3d51.9103422!4d17.2528226!16s%2Fg%2F11h53wlf8z!19sChIJT7Tumy0XBUcR4Rk25Yy9jW4?authuser=0&hl=tr&rclk=1",
    "website_url": "",
    "rating_text": "5,0",
    "stars": null,
    "number_of_reviews": null,
    "price_level": "",
    "open_hours": "",
    "extraction_timestamp": "2025-06-07T17:29:54.049Z",
    "source_name": "google",
    "source_query": "Irrigation Equipment",
    "source_country": "PL",
    "country": "Poland",
    "state": "Greater Poland Voivodeship",
    "city": "Borek Wielkopolski"
  },
  {
    "source_id": "ChIJwfWC19EQBUcRX6yby9-9OYw",
    "name": "Unirol sp.j. Wira A., Janicki R., Szymczak K.",
    "category": "Unirol sp.j. Wira A., Janicki R., Szymczak K.",
    "formatted_address": "Unirol sp.j. Wira A., Janicki R., Szymczak K.",
    "phone_number": "+48655716058",
    "source_url": "https://www.google.com/maps/place/Unirol+sp.j.+Wira+A.,+Janicki+R.,+Szymczak+K./data=!4m7!3m6!1s0x470510d1d782f5c1:0x8c39bddfcb9bac5f!8m2!3d51.9169287!4d17.2187683!16s%2Fg%2F1hc6sdqs2!19sChIJwfWC19EQBUcRX6yby9-9OYw?authuser=0&hl=tr&rclk=1",
    "website_url": "",
    "rating_text": "4,2",
    "stars": null,
    "number_of_reviews": null,
    "price_level": "",
    "open_hours": "",
    "extraction_timestamp": "2025-06-07T17:29:54.049Z",
    "source_name": "google",
    "source_query": "Irrigation Equipment",
    "source_country": "PL",
    "country": "Poland",
    "state": "Greater Poland Voivodeship",
    "city": "Borek Wielkopolski"
  },
  {
    "source_id": "ChIJK2GjZAe3GkcRtYCUwk9ASmE",
    "name": "Grofi - Systemy nawadniania do domu i ogrodu",
    "category": "Grofi - Systemy nawadniania do domu i ogrodu",
    "formatted_address": "4,8(16)",
    "phone_number": "+48575716244",
    "source_url": "https://www.google.com/maps/place/Grofi+-+Systemy+nawadniania+do+domu+i+ogrodu/data=!4m7!3m6!1s0x471ab70764a3612b:0x614a404fc29480b5!8m2!3d51.612066!4d17.8638006!16s%2Fg%2F11y5_4bbdm!19sChIJK2GjZAe3GkcRtYCUwk9ASmE?authuser=0&hl=tr&rclk=1",
    "website_url": "",
    "rating_text": "4,8",
    "stars": null,
    "number_of_reviews": null,
    "price_level": "",
    "open_hours": "",
    "extraction_timestamp": "2025-06-07T17:29:54.049Z",
    "source_name": "google",
    "source_query": "Irrigation Equipment",
    "source_country": "PL",
    "country": "Poland",
    "state": "Greater Poland Voivodeship",
    "city": "Borek Wielkopolski"
  },
  {
    "source_id": "ChIJLeu_3toQBUcRE6kLEvw5zLI",
    "name": "Biedronka",
    "category": "Biedronka",
    "formatted_address": "4,4(528)",
    "phone_number": "+48800080010",
    "source_url": "https://www.google.com/maps/place/Biedronka/data=!4m7!3m6!1s0x470510dadebfeb2d:0xb2cc39fc120ba913!8m2!3d51.91536!4d17.2284086!16s%2Fg%2F11df7jr3d9!19sChIJLeu_3toQBUcRE6kLEvw5zLI?authuser=0&hl=tr&rclk=1",
    "website_url": "",
    "rating_text": "4,4",
    "stars": null,
    "number_of_reviews": null,
    "price_level": "",
    "open_hours": "",
    "extraction_timestamp": "2025-06-07T17:29:54.050Z",
    "source_name": "google",
    "source_query": "Irrigation Equipment",
    "source_country": "PL",
    "country": "Poland",
    "state": "Greater Poland Voivodeship",
    "city": "Borek Wielkopolski"
  },
  {
    "source_id": "ChIJ-fMLXwARBUcRtZoqVR1IXVg",
    "name": "Dino",
    "category": "Dino",
    "formatted_address": "4,6(145)",
    "phone_number": "",
    "source_url": "https://www.google.com/maps/place/Dino/data=!4m7!3m6!1s0x470511005f0bf3f9:0x585d481d552a9ab5!8m2!3d51.920377!4d17.247211!16s%2Fg%2F11glw26j37!19sChIJ-fMLXwARBUcRtZoqVR1IXVg?authuser=0&hl=tr&rclk=1",
    "website_url": "",
    "rating_text": "4,6",
    "stars": null,
    "number_of_reviews": null,
    "price_level": "",
    "open_hours": "",
    "extraction_timestamp": "2025-06-07T17:29:54.050Z",
    "source_name": "google",
    "source_query": "Irrigation Equipment",
    "source_country": "PL",
    "country": "Poland",
    "state": "Greater Poland Voivodeship",
    "city": "Borek Wielkopolski"
  },
  {
    "source_id": "ChIJS1ve1s0QBUcR5Wukn1pbedk",
    "name": "Moto-Max Sklep Motoryzacyjny Horała Maciej",
    "category": "Moto-Max Sklep Motoryzacyjny Horała Maciej",
    "formatted_address": "4,9(72)",
    "phone_number": "+48694102319",
    "source_url": "https://www.google.com/maps/place/Moto-Max+Sklep+Motoryzacyjny+Hora%C5%82a+Maciej/data=!4m7!3m6!1s0x470510cdd6de5b4b:0xd9795b5a9fa46be5!8m2!3d51.9163526!4d17.2415064!16s%2Fg%2F1tt0pv18!19sChIJS1ve1s0QBUcR5Wukn1pbedk?authuser=0&hl=tr&rclk=1",
    "website_url": "",
    "rating_text": "4,9",
    "stars": null,
    "number_of_reviews": null,
    "price_level": "",
    "open_hours": "",
    "extraction_timestamp": "2025-06-07T17:29:54.050Z",
    "source_name": "google",
    "source_query": "Irrigation Equipment",
    "source_country": "PL",
    "country": "Poland",
    "state": "Greater Poland Voivodeship",
    "city": "Borek Wielkopolski"
  },
  {
    "source_id": "ChIJ9cdhss0QBUcR6-xMz9PmfZ0",
    "name": "Sklep Spożywczy ABC",
    "category": "Sklep Spożywczy ABC",
    "formatted_address": "4,6(18)",
    "phone_number": "+48655716236",
    "source_url": "https://www.google.com/maps/place/Sklep+Spo%C5%BCywczy+ABC/data=!4m7!3m6!1s0x470510cdb261c7f5:0x9d7de6d3cf4ceceb!8m2!3d51.9163251!4d17.2440131!16s%2Fg%2F11h1br35x!19sChIJ9cdhss0QBUcR6-xMz9PmfZ0?authuser=0&hl=tr&rclk=1",
    "website_url": "",
    "rating_text": "4,6",
    "stars": null,
    "number_of_reviews": null,
    "price_level": "",
    "open_hours": "",
    "extraction_timestamp": "2025-06-07T17:29:54.051Z",
    "source_name": "google",
    "source_query": "Irrigation Equipment",
    "source_country": "PL",
    "country": "Poland",
    "state": "Greater Poland Voivodeship",
    "city": "Borek Wielkopolski"
  },
  {
    "source_id": "ChIJu7R5As4QBUcR3mND32-Afko",
    "name": "Dino",
    "category": "Dino",
    "formatted_address": "4,2(133)",
    "phone_number": "",
    "source_url": "https://www.google.com/maps/place/Dino/data=!4m7!3m6!1s0x470510ce0279b4bb:0x4a7e806fdf4363de!8m2!3d51.9143985!4d17.2393604!16s%2Fg%2F11f57d9m95!19sChIJu7R5As4QBUcR3mND32-Afko?authuser=0&hl=tr&rclk=1",
    "website_url": "",
    "rating_text": "4,2",
    "stars": null,
    "number_of_reviews": null,
    "price_level": "",
    "open_hours": "",
    "extraction_timestamp": "2025-06-07T17:29:54.051Z",
    "source_name": "google",
    "source_query": "Irrigation Equipment",
    "source_country": "PL",
    "country": "Poland",
    "state": "Greater Poland Voivodeship",
    "city": "Borek Wielkopolski"
  },
  {
    "source_id": "ChIJv3VWorS1GkcR91vUXcnWjAo",
    "name": "Systemy pneumatyki. Sprężarki, kompresory, narzędzia",
    "category": "Systemy pneumatyki. Sprężarki, kompresory, narzędzia",
    "formatted_address": "Systemy pneumatyki. Sprężarki, kompresory, narzędzia",
    "phone_number": "+48625910444",
    "source_url": "https://www.google.com/maps/place/Systemy+pneumatyki.+Spr%C4%99%C5%BCarki,+kompresory,+narz%C4%99dzia/data=!4m7!3m6!1s0x471ab5b4a25675bf:0xa8cd6c95dd45bf7!8m2!3d51.6301252!4d17.8127133!16s%2Fg%2F1vm_wmyy!19sChIJv3VWorS1GkcR91vUXcnWjAo?authuser=0&hl=tr&rclk=1",
    "website_url": "",
    "rating_text": "4,1",
    "stars": null,
    "number_of_reviews": null,
    "price_level": "",
    "open_hours": "",
    "extraction_timestamp": "2025-06-07T17:29:54.051Z",
    "source_name": "google",
    "source_query": "Irrigation Equipment",
    "source_country": "PL",
    "country": "Poland",
    "state": "Greater Poland Voivodeship",
    "city": "Borek Wielkopolski"
  },
  {
    "source_id": "ChIJmWm84bURBUcRME75kWwZXWU",
    "name": "Drogeria Rossmann",
    "category": "Drogeria Rossmann",
    "formatted_address": "5,0(2)",
    "phone_number": "+48609499939",
    "source_url": "https://www.google.com/maps/place/Drogeria+Rossmann/data=!4m7!3m6!1s0x470511b5e1bc6999:0x655d196c91f94e30!8m2!3d51.9153265!4d17.2292829!16s%2Fg%2F11y9xhvg4j!19sChIJmWm84bURBUcRME75kWwZXWU?authuser=0&hl=tr&rclk=1",
    "website_url": "",
    "rating_text": "5,0",
    "stars": null,
    "number_of_reviews": null,
    "price_level": "",
    "open_hours": "",
    "extraction_timestamp": "2025-06-07T17:29:54.051Z",
    "source_name": "google",
    "source_query": "Irrigation Equipment",
    "source_country": "PL",
    "country": "Poland",
    "state": "Greater Poland Voivodeship",
    "city": "Borek Wielkopolski"
  },
  {
    "source_id": "ChIJh5yUCqH7BEcRmMfxvcU_1bk",
    "name": "InduPartner",
    "category": "InduPartner",
    "formatted_address": "5,0(2)",
    "phone_number": "+48612854487",
    "source_url": "https://www.google.com/maps/place/InduPartner/data=!4m7!3m6!1s0x4704fba10a949c87:0xb9d53fc5bdf1c798!8m2!3d52.2324617!4d17.2500708!16s%2Fg%2F11h109fk2!19sChIJh5yUCqH7BEcRmMfxvcU_1bk?authuser=0&hl=tr&rclk=1",
    "website_url": "",
    "rating_text": "5,0",
    "stars": null,
    "number_of_reviews": null,
    "price_level": "",
    "open_hours": "",
    "extraction_timestamp": "2025-06-07T17:29:54.051Z",
    "source_name": "google",
    "source_query": "Irrigation Equipment",
    "source_country": "PL",
    "country": "Poland",
    "state": "Greater Poland Voivodeship",
    "city": "Borek Wielkopolski"
  },
  {
    "source_id": "ChIJtzxrzs0QBUcRw6Lt4xTII4w",
    "name": "Piekarnia i Ciastkarnia s.c. ŁAKOMY",
    "category": "Piekarnia i Ciastkarnia s.c. ŁAKOMY",
    "formatted_address": "4,5(62)",
    "phone_number": "+48655716304",
    "source_url": "https://www.google.com/maps/place/Piekarnia+i+Ciastkarnia+s.c.+%C5%81AKOMY/data=!4m7!3m6!1s0x470510cdce6b3cb7:0x8c23c814e3eda2c3!8m2!3d51.9163288!4d17.2423029!16s%2Fg%2F1tfd12lz!19sChIJtzxrzs0QBUcRw6Lt4xTII4w?authuser=0&hl=tr&rclk=1",
    "website_url": "",
    "rating_text": "4,5",
    "stars": null,
    "number_of_reviews": null,
    "price_level": "",
    "open_hours": "",
    "extraction_timestamp": "2025-06-07T17:29:54.052Z",
    "source_name": "google",
    "source_query": "Irrigation Equipment",
    "source_country": "PL",
    "country": "Poland",
    "state": "Greater Poland Voivodeship",
    "city": "Borek Wielkopolski"
  },
  {
    "source_id": "ChIJIWKCb2URBUcRF1AdCViHsc4",
    "name": "Groszek",
    "category": "Groszek",
    "formatted_address": "4,1(7)",
    "phone_number": "",
    "source_url": "https://www.google.com/maps/place/Groszek/data=!4m7!3m6!1s0x470511656f826221:0xceb18758091d5017!8m2!3d51.9163276!4d17.244053!16s%2Fg%2F11g07zty2s!19sChIJIWKCb2URBUcRF1AdCViHsc4?authuser=0&hl=tr&rclk=1",
    "website_url": "",
    "rating_text": "4,1",
    "stars": null,
    "number_of_reviews": null,
    "price_level": "",
    "open_hours": "",
    "extraction_timestamp": "2025-06-07T17:29:54.052Z",
    "source_name": "google",
    "source_query": "Irrigation Equipment",
    "source_country": "PL",
    "country": "Poland",
    "state": "Greater Poland Voivodeship",
    "city": "Borek Wielkopolski"
  },
  {
    "source_id": "ChIJsTV50SsRBUcRS9Sa-22thbs",
    "name": "Sklep Wielobranżowy Natalia i Paweł Jędryczka",
    "category": "Sklep Wielobranżowy Natalia i Paweł Jędryczka",
    "formatted_address": "",
    "phone_number": "+48606433748",
    "source_url": "https://www.google.com/maps/place/Sklep+Wielobran%C5%BCowy+Natalia+i+Pawe%C5%82+J%C4%99dryczka/data=!4m7!3m6!1s0x4705112bd17935b1:0xbb85ad6dfb9ad44b!8m2!3d51.914052!4d17.238333!16s%2Fg%2F11h_8w2wcc!19sChIJsTV50SsRBUcRS9Sa-22thbs?authuser=0&hl=tr&rclk=1",
    "website_url": "",
    "rating_text": "",
    "stars": null,
    "number_of_reviews": null,
    "price_level": "",
    "open_hours": "",
    "extraction_timestamp": "2025-06-07T17:29:54.052Z",
    "source_name": "google",
    "source_query": "Irrigation Equipment",
    "source_country": "PL",
    "country": "Poland",
    "state": "Greater Poland Voivodeship",
    "city": "Borek Wielkopolski"
  },
  {
    "source_id": "ChIJB6y_v5J2HEcRlDfYx3xmc9M",
    "name": "Milex irrigation systems",
    "category": "Milex irrigation systems",
    "formatted_address": "4,6(37)",
    "phone_number": "+48242775222",
    "source_url": "https://www.google.com/maps/place/Milex+irrigation+systems/data=!4m7!3m6!1s0x471c7692bfbfac07:0xd373667cc7d83794!8m2!3d52.4690634!4d19.7520904!16s%2Fg%2F1w2yy67r!19sChIJB6y_v5J2HEcRlDfYx3xmc9M?authuser=0&hl=tr&rclk=1",
    "website_url": "",
    "rating_text": "4,6",
    "stars": null,
    "number_of_reviews": null,
    "price_level": "",
    "open_hours": "",
    "extraction_timestamp": "2025-06-07T17:29:54.052Z",
    "source_name": "google",
    "source_query": "Irrigation Equipment",
    "source_country": "PL",
    "country": "Poland",
    "state": "Greater Poland Voivodeship",
    "city": "Borek Wielkopolski"
  },
  {
    "source_id": "ChIJZW8NK8wQBUcRsry7EV9D06Y",
    "name": "Nowak Adela. Sklep spożywczo - przemysłowy",
    "category": "Nowak Adela. Sklep spożywczo - przemysłowy",
    "formatted_address": "",
    "phone_number": "+48655716820",
    "source_url": "https://www.google.com/maps/place/Nowak+Adela.+Sklep+spo%C5%BCywczo+-+przemys%C5%82owy/data=!4m7!3m6!1s0x470510cc2b0d6f65:0xa6d3435f11bbbcb2!8m2!3d51.9169727!4d17.2418587!16s%2Fg%2F1vnrp9mt!19sChIJZW8NK8wQBUcRsry7EV9D06Y?authuser=0&hl=tr&rclk=1",
    "website_url": "",
    "rating_text": "",
    "stars": null,
    "number_of_reviews": null,
    "price_level": "",
    "open_hours": "",
    "extraction_timestamp": "2025-06-07T17:29:54.052Z",
    "source_name": "google",
    "source_query": "Irrigation Equipment",
    "source_country": "PL",
    "country": "Poland",
    "state": "Greater Poland Voivodeship",
    "city": "Borek Wielkopolski"
  }
]
