[
  {
    "source_id": "ChIJLfLyn3QLEEcRepKFm-x9KNM",
    "name": "BPR MAT-napoje gazowane",
    "category": "BPR MAT-napoje gazowane",
    "formatted_address": "5,0(2)",
    "phone_number": "+48501064440",
    "source_url": "https://www.google.com/maps/place/BPR+MAT-napoje+gazowane/data=!4m7!3m6!1s0x47100b749ff2f22d:0xd3287dec9b85927a!8m2!3d51.281909!4d17.9296227!16s%2Fg%2F11nnmz03cj!19sChIJLfLyn3QLEEcRepKFm-x9KNM?authuser=0&hl=tr&rclk=1",
    "website_url": "",
    "rating_text": "5,0",
    "stars": null,
    "number_of_reviews": null,
    "price_level": "",
    "open_hours": "",
    "extraction_timestamp": "2025-06-07T17:45:23.260Z",
    "source_name": "google",
    "source_query": "Irrigation Equipment",
    "source_country": "PL",
    "country": "Poland",
    "state": "Greater Poland Voivodeship",
    "city": "Bralin"
  },
  {
    "source_id": "ChIJQRHBddMKEEcR-xtFaknAa0U",
    "name": "P.P.H.U. Fachmet s.c. Danuta i Roman Rewer",
    "category": "P.P.H.U. Fachmet s.c. Danuta i Roman Rewer",
    "formatted_address": "4,8(11)",
    "phone_number": "+48504124599",
    "source_url": "https://www.google.com/maps/place/P.P.H.U.+Fachmet+s.c.+Danuta+i+Roman+Rewer/data=!4m7!3m6!1s0x47100ad375c11141:0x456bc0496a451bfb!8m2!3d51.2806272!4d17.90568!16s%2Fg%2F1tggs7m2!19sChIJQRHBddMKEEcR-xtFaknAa0U?authuser=0&hl=tr&rclk=1",
    "website_url": "",
    "rating_text": "4,8",
    "stars": null,
    "number_of_reviews": null,
    "price_level": "",
    "open_hours": "",
    "extraction_timestamp": "2025-06-07T17:45:23.261Z",
    "source_name": "google",
    "source_query": "Irrigation Equipment",
    "source_country": "PL",
    "country": "Poland",
    "state": "Greater Poland Voivodeship",
    "city": "Bralin"
  },
  {
    "source_id": "ChIJvS0uHPQIEEcROFaLCv046mk",
    "name": "Kompresory, lakierowanie proszkowe - Kompresjan",
    "category": "Kompresory, lakierowanie proszkowe - Kompresjan",
    "formatted_address": "Kompresory, lakierowanie proszkowe - Kompresjan",
    "phone_number": "+48627869510",
    "source_url": "https://www.google.com/maps/place/Kompresory,+lakierowanie+proszkowe+-+Kompresjan/data=!4m7!3m6!1s0x471008f41c2e2dbd:0x69ea38fd0a8b5638!8m2!3d51.293394!4d17.79056!16s%2Fg%2F1td5p_hs!19sChIJvS0uHPQIEEcROFaLCv046mk?authuser=0&hl=tr&rclk=1",
    "website_url": "",
    "rating_text": "4,2",
    "stars": null,
    "number_of_reviews": null,
    "price_level": "",
    "open_hours": "",
    "extraction_timestamp": "2025-06-07T17:45:23.261Z",
    "source_name": "google",
    "source_query": "Irrigation Equipment",
    "source_country": "PL",
    "country": "Poland",
    "state": "Greater Poland Voivodeship",
    "city": "Bralin"
  },
  {
    "source_id": "ChIJBUjM7LLIfSQRhmYThqi2KDU",
    "name": "INSTALACJE Tomasz Jański",
    "category": "INSTALACJE Tomasz Jański",
    "formatted_address": "",
    "phone_number": "+48602263501",
    "source_url": "https://www.google.com/maps/place/INSTALACJE+Tomasz+Ja%C5%84ski/data=!4m7!3m6!1s0x247dc8b2eccc4805:0x3528b6a886136686!8m2!3d51.2854726!4d17.9868357!16s%2Fg%2F11xcnnx82g!19sChIJBUjM7LLIfSQRhmYThqi2KDU?authuser=0&hl=tr&rclk=1",
    "website_url": "",
    "rating_text": "",
    "stars": null,
    "number_of_reviews": null,
    "price_level": "",
    "open_hours": "",
    "extraction_timestamp": "2025-06-07T17:45:23.262Z",
    "source_name": "google",
    "source_query": "Irrigation Equipment",
    "source_country": "PL",
    "country": "Poland",
    "state": "Greater Poland Voivodeship",
    "city": "Bralin"
  },
  {
    "source_id": "ChIJCUECSL8LEEcRTp_p9j5IKHA",
    "name": "Stokrotka",
    "category": "Stokrotka",
    "formatted_address": "4,3(165)",
    "phone_number": "+48818889200",
    "source_url": "https://www.google.com/maps/place/Stokrotka/data=!4m7!3m6!1s0x47100bbf48024109:0x7028483ef6e99f4e!8m2!3d51.2841557!4d17.9075638!16s%2Fg%2F11j0brc2bb!19sChIJCUECSL8LEEcRTp_p9j5IKHA?authuser=0&hl=tr&rclk=1",
    "website_url": "",
    "rating_text": "4,3",
    "stars": null,
    "number_of_reviews": null,
    "price_level": "",
    "open_hours": "",
    "extraction_timestamp": "2025-06-07T17:45:23.263Z",
    "source_name": "google",
    "source_query": "Irrigation Equipment",
    "source_country": "PL",
    "country": "Poland",
    "state": "Greater Poland Voivodeship",
    "city": "Bralin"
  },
  {
    "source_id": "ChIJtSOKw1cKEEcRZFfCCfpDsXU",
    "name": "Bajkoland Chojecin",
    "category": "Bajkoland Chojecin",
    "formatted_address": "4,3(216)",
    "phone_number": "+48530668666",
    "source_url": "https://www.google.com/maps/place/Bajkoland+Chojecin/data=!4m7!3m6!1s0x47100a57c38a23b5:0x75b143fa09c25764!8m2!3d51.2840106!4d17.9364239!16s%2Fg%2F11d_bsqg3x!19sChIJtSOKw1cKEEcRZFfCCfpDsXU?authuser=0&hl=tr&rclk=1",
    "website_url": "",
    "rating_text": "4,3",
    "stars": null,
    "number_of_reviews": null,
    "price_level": "",
    "open_hours": "",
    "extraction_timestamp": "2025-06-07T17:45:23.263Z",
    "source_name": "google",
    "source_query": "Irrigation Equipment",
    "source_country": "PL",
    "country": "Poland",
    "state": "Greater Poland Voivodeship",
    "city": "Bralin"
  },
  {
    "source_id": "ChIJg9WgrTYKEEcRS6k8VOMj-fY",
    "name": "Delikatesy Centrum Bralin",
    "category": "Delikatesy Centrum Bralin",
    "formatted_address": "4,2(145)",
    "phone_number": "+48505287024",
    "source_url": "https://www.google.com/maps/place/Delikatesy+Centrum+Bralin/data=!4m7!3m6!1s0x47100a36ada0d583:0xf6f923e3543ca94b!8m2!3d51.2866008!4d17.8991953!16s%2Fg%2F11f2wptqrm!19sChIJg9WgrTYKEEcRS6k8VOMj-fY?authuser=0&hl=tr&rclk=1",
    "website_url": "",
    "rating_text": "4,2",
    "stars": null,
    "number_of_reviews": null,
    "price_level": "",
    "open_hours": "",
    "extraction_timestamp": "2025-06-07T17:45:23.264Z",
    "source_name": "google",
    "source_query": "Irrigation Equipment",
    "source_country": "PL",
    "country": "Poland",
    "state": "Greater Poland Voivodeship",
    "city": "Bralin"
  },
  {
    "source_id": "ChIJ6fWyXOILEEcR-vkQub1hxxY",
    "name": "Dino",
    "category": "Dino",
    "formatted_address": "4,6(30)",
    "phone_number": "",
    "source_url": "https://www.google.com/maps/place/Dino/data=!4m7!3m6!1s0x47100be25cb2f5e9:0x16c761bdb910f9fa!8m2!3d51.2829068!4d17.9206827!16s%2Fg%2F11lyq2m6vb!19sChIJ6fWyXOILEEcR-vkQub1hxxY?authuser=0&hl=tr&rclk=1",
    "website_url": "",
    "rating_text": "4,6",
    "stars": null,
    "number_of_reviews": null,
    "price_level": "",
    "open_hours": "",
    "extraction_timestamp": "2025-06-07T17:45:23.264Z",
    "source_name": "google",
    "source_query": "Irrigation Equipment",
    "source_country": "PL",
    "country": "Poland",
    "state": "Greater Poland Voivodeship",
    "city": "Bralin"
  },
  {
    "source_id": "ChIJEa2aW9QJEEcR0kBmy4qjjkk",
    "name": "Sklep Spożywczo-Przemysłowy Zuzia Krzysztof Wesoły",
    "category": "Sklep Spożywczo-Przemysłowy Zuzia Krzysztof Wesoły",
    "formatted_address": "4,7(32)",
    "phone_number": "+48723970922",
    "source_url": "https://www.google.com/maps/place/Sklep+Spo%C5%BCywczo-Przemys%C5%82owy+Zuzia+Krzysztof+Weso%C5%82y/data=!4m7!3m6!1s0x471009d45b9aad11:0x498ea38acb6640d2!8m2!3d51.2881487!4d17.867734!16s%2Fg%2F11fjxyv69r!19sChIJEa2aW9QJEEcR0kBmy4qjjkk?authuser=0&hl=tr&rclk=1",
    "website_url": "",
    "rating_text": "4,7",
    "stars": null,
    "number_of_reviews": null,
    "price_level": "",
    "open_hours": "",
    "extraction_timestamp": "2025-06-07T17:45:23.265Z",
    "source_name": "google",
    "source_query": "Irrigation Equipment",
    "source_country": "PL",
    "country": "Poland",
    "state": "Greater Poland Voivodeship",
    "city": "Bralin"
  },
  {
    "source_id": "ChIJjahw_iGoEUcR7IIZnJDg3gI",
    "name": "Lewiatan",
    "category": "Lewiatan",
    "formatted_address": "4,0(102)",
    "phone_number": "+48660699076",
    "source_url": "https://www.google.com/maps/place/Lewiatan/data=!4m7!3m6!1s0x4711a821fe70a88d:0x2dee0909c1982ec!8m2!3d51.2864037!4d17.9119259!16s%2Fg%2F1hc147bj5!19sChIJjahw_iGoEUcR7IIZnJDg3gI?authuser=0&hl=tr&rclk=1",
    "website_url": "",
    "rating_text": "4,0",
    "stars": null,
    "number_of_reviews": null,
    "price_level": "",
    "open_hours": "",
    "extraction_timestamp": "2025-06-07T17:45:23.265Z",
    "source_name": "google",
    "source_query": "Irrigation Equipment",
    "source_country": "PL",
    "country": "Poland",
    "state": "Greater Poland Voivodeship",
    "city": "Bralin"
  }
]
