[
  {
    "source_id": "ChIJB6y_v5J2HEcRlDfYx3xmc9M",
    "name": "Milex irrigation systems",
    "category": "Milex irrigation systems",
    "formatted_address": "4,6(37)",
    "phone_number": "+48242775222",
    "source_url": "https://www.google.com/maps/place/Milex+irrigation+systems/data=!4m7!3m6!1s0x471c7692bfbfac07:0xd373667cc7d83794!8m2!3d52.4690634!4d19.7520904!16s%2Fg%2F1w2yy67r!19sChIJB6y_v5J2HEcRlDfYx3xmc9M?authuser=0&hl=tr&rclk=1",
    "website_url": "https://www.milex.pl/",
    "rating_text": "4,6",
    "stars": null,
    "number_of_reviews": null,
    "price_level": "",
    "open_hours": "",
    "extraction_timestamp": "2025-06-07T17:27:11.763Z",
    "source_name": "google",
    "source_query": "Irrigation Equipment",
    "source_country": "PL",
    "country": "Poland",
    "state": "Greater Poland Voivodeship",
    "city": "Brdów"
  },
  {
    "source_id": "ChIJBQ713HVCG0cR80_hBZ-GnUA",
    "name": "Sklep \"U Wojtka\"",
    "category": "Sklep \"U Wojtka\"",
    "formatted_address": "4,6(11)",
    "phone_number": "",
    "source_url": "https://www.google.com/maps/place/Sklep+%22U+Wojtka%22/data=!4m7!3m6!1s0x471b4275dcf50e05:0x409d869f05e14ff3!8m2!3d52.3534505!4d18.7303996!16s%2Fg%2F11f_dp9831!19sChIJBQ713HVCG0cR80_hBZ-GnUA?authuser=0&hl=tr&rclk=1",
    "website_url": "",
    "rating_text": "4,6",
    "stars": null,
    "number_of_reviews": null,
    "price_level": "",
    "open_hours": "",
    "extraction_timestamp": "2025-06-07T17:27:11.763Z",
    "source_name": "google",
    "source_query": "Irrigation Equipment",
    "source_country": "PL",
    "country": "Poland",
    "state": "Greater Poland Voivodeship",
    "city": "Brdów"
  },
  {
    "source_id": "ChIJ26YAEXZCG0cRbqft7B3sebE",
    "name": "Sklep przemysłowy GS Samopomoc Chłopska",
    "category": "Sklep przemysłowy GS Samopomoc Chłopska",
    "formatted_address": "5,0(3)",
    "phone_number": "+48632713013",
    "source_url": "https://www.google.com/maps/place/Sklep+przemys%C5%82owy+GS+Samopomoc+Ch%C5%82opska/data=!4m7!3m6!1s0x471b42761100a6db:0xb179ec1deceda76e!8m2!3d52.3535684!4d18.7311107!16s%2Fg%2F1tg9rfk_!19sChIJ26YAEXZCG0cRbqft7B3sebE?authuser=0&hl=tr&rclk=1",
    "website_url": "",
    "rating_text": "5,0",
    "stars": null,
    "number_of_reviews": null,
    "price_level": "",
    "open_hours": "",
    "extraction_timestamp": "2025-06-07T17:27:11.763Z",
    "source_name": "google",
    "source_query": "Irrigation Equipment",
    "source_country": "PL",
    "country": "Poland",
    "state": "Greater Poland Voivodeship",
    "city": "Brdów"
  },
  {
    "source_id": "ChIJTW5YEHZCG0cRdI4eO_u3BWo",
    "name": "Capri. Kowalczyk S. Catering Imprezy okolicznościowe",
    "category": "Capri. Kowalczyk S. Catering Imprezy okolicznościowe",
    "formatted_address": "4,1(761) · zł 20–40",
    "phone_number": "+48632713142",
    "source_url": "https://www.google.com/maps/place/Capri.+Kowalczyk+S.+Catering+Imprezy+okoliczno%C5%9Bciowe/data=!4m7!3m6!1s0x471b427610586e4d:0x6a05b7fb3b1e8e74!8m2!3d52.3539934!4d18.7306546!16s%2Fg%2F1tjjn3ht!19sChIJTW5YEHZCG0cRdI4eO_u3BWo?authuser=0&hl=tr&rclk=1",
    "website_url": "https://www.pizzeriacapribrdow.pl/",
    "rating_text": "4,1",
    "stars": null,
    "number_of_reviews": null,
    "price_level": "",
    "open_hours": "",
    "extraction_timestamp": "2025-06-07T17:27:11.774Z",
    "source_name": "google",
    "source_query": "Irrigation Equipment",
    "source_country": "PL",
    "country": "Poland",
    "state": "Greater Poland Voivodeship",
    "city": "Brdów"
  },
  {
    "source_id": "ChIJOcWoToO26GMReNvhll3JWj4",
    "name": "Hydreen.pl | Automatyczne systemy nawadniające. Projektowanie, dostawa, montaż, serwis.",
    "category": "Hydreen.pl | Automatyczne systemy nawadniające. Projektowanie, dostawa, montaż, serwis.",
    "formatted_address": "Hydreen.pl | Automatyczne systemy nawadniające. Projektowanie, dostawa, montaż, serwis.",
    "phone_number": "+48694429669",
    "source_url": "https://www.google.com/maps/place/Hydreen.pl+%7C+Automatyczne+systemy+nawadniaj%C4%85ce.+Projektowanie,+dostawa,+monta%C5%BC,+serwis./data=!4m7!3m6!1s0x63e8b6834ea8c539:0x3e5ac95d96e1db78!8m2!3d54.1601!4d19.4437316!16s%2Fg%2F11m67mc1_m!19sChIJOcWoToO26GMReNvhll3JWj4?authuser=0&hl=tr&rclk=1",
    "website_url": "https://www.hydreen.pl/",
    "rating_text": "5,0",
    "stars": null,
    "number_of_reviews": null,
    "price_level": "",
    "open_hours": "",
    "extraction_timestamp": "2025-06-07T17:27:11.774Z",
    "source_name": "google",
    "source_query": "Irrigation Equipment",
    "source_country": "PL",
    "country": "Poland",
    "state": "Greater Poland Voivodeship",
    "city": "Brdów"
  },
  {
    "source_id": "ChIJv2W71q8VH0cRpPR4pDGMGf0",
    "name": "Bomet. Producent maszyn rolniczych",
    "category": "Bomet. Producent maszyn rolniczych",
    "formatted_address": "4,8(138)",
    "phone_number": "+48257923888",
    "source_url": "https://www.google.com/maps/place/Bomet.+Producent+maszyn+rolniczych/data=!4m7!3m6!1s0x471f15afd6bb65bf:0xfd198c31a478f4a4!8m2!3d52.3957052!4d22.007767!16s%2Fg%2F1td46qsm!19sChIJv2W71q8VH0cRpPR4pDGMGf0?authuser=0&hl=tr&rclk=1",
    "website_url": "http://www.bomet.pl/",
    "rating_text": "4,8",
    "stars": null,
    "number_of_reviews": null,
    "price_level": "",
    "open_hours": "",
    "extraction_timestamp": "2025-06-07T17:27:11.775Z",
    "source_name": "google",
    "source_query": "Irrigation Equipment",
    "source_country": "PL",
    "country": "Poland",
    "state": "Greater Poland Voivodeship",
    "city": "Brdów"
  },
  {
    "source_id": "ChIJVTV3W_PzBEcR6gY0xwQi2_E",
    "name": "Deszczownie.com",
    "category": "Deszczownie.com",
    "formatted_address": "",
    "phone_number": "+48726000030",
    "source_url": "https://www.google.com/maps/place/Deszczownie.com/data=!4m7!3m6!1s0x4704f3f35b773555:0xf1db2204c73406ea!8m2!3d52.3623948!4d17.4021087!16s%2Fg%2F11y3pv4rxr!19sChIJVTV3W_PzBEcR6gY0xwQi2_E?authuser=0&hl=tr&rclk=1",
    "website_url": "https://www.deszczownie.com/",
    "rating_text": "",
    "stars": null,
    "number_of_reviews": null,
    "price_level": "",
    "open_hours": "",
    "extraction_timestamp": "2025-06-07T17:27:11.775Z",
    "source_name": "google",
    "source_query": "Irrigation Equipment",
    "source_country": "PL",
    "country": "Poland",
    "state": "Greater Poland Voivodeship",
    "city": "Brdów"
  },
  {
    "source_id": "ChIJ76WAmPBgGUcRnx47bXjXTwU",
    "name": "Agrofim Poland Sp. z o.o.",
    "category": "Agrofim Poland Sp. z o.o.",
    "formatted_address": "3,8(6)",
    "phone_number": "+48468332266",
    "source_url": "https://www.google.com/maps/place/Agrofim+Poland+Sp.+z+o.o./data=!4m7!3m6!1s0x471960f09880a5ef:0x54fd7786d3b1e9f!8m2!3d51.9616303!4d20.1543898!16s%2Fg%2F1tdnjw7b!19sChIJ76WAmPBgGUcRnx47bXjXTwU?authuser=0&hl=tr&rclk=1",
    "website_url": "http://agrofim.pl/",
    "rating_text": "3,8",
    "stars": null,
    "number_of_reviews": null,
    "price_level": "",
    "open_hours": "",
    "extraction_timestamp": "2025-06-07T17:27:11.775Z",
    "source_name": "google",
    "source_query": "Irrigation Equipment",
    "source_country": "PL",
    "country": "Poland",
    "state": "Greater Poland Voivodeship",
    "city": "Brdów"
  }
]
