[
  {
    "source_id": "ChIJn_HDzkOLA0cRaCElibRwM28",
    "name": "Agro-Sieć Maszyny Budzyń | Dealer John Deere",
    "category": "Agro-Sieć Maszyny Budzyń | Dealer John Deere",
    "formatted_address": "4,9(23)",
    "phone_number": "+48673420066",
    "source_url": "https://www.google.com/maps/place/Agro-Sie%C4%87+Maszyny+Budzy%C5%84+%7C+Dealer+John+Deere/data=!4m7!3m6!1s0x47038b43cec3f19f:0x6f3370b489252168!8m2!3d52.8738411!4d16.977329!16s%2Fg%2F11smr9wj1f!19sChIJn_HDzkOLA0cRaCElibRwM28?authuser=0&hl=tr&rclk=1",
    "website_url": "http://www.agro-siec.pl/",
    "rating_text": "4,9",
    "stars": null,
    "number_of_reviews": null,
    "price_level": "",
    "open_hours": "",
    "extraction_timestamp": "2025-06-07T17:49:52.887Z",
    "source_name": "google",
    "source_query": "Irrigation Equipment",
    "source_country": "PL",
    "country": "Poland",
    "state": "Greater Poland Voivodeship",
    "city": "Budzyń"
  },
  {
    "source_id": "ChIJs3B7qdCKA0cRVtlf-PU3m4g",
    "name": "ATA TECHNIK Spółka z ograniczoną odpowiedzialnością S.K.A.",
    "category": "ATA TECHNIK Spółka z ograniczoną odpowiedzialnością S.K.A.",
    "formatted_address": "4,7(64)",
    "phone_number": "+48882138622",
    "source_url": "https://www.google.com/maps/place/ATA+TECHNIK+Sp%C3%B3%C5%82ka+z+ograniczon%C4%85+odpowiedzialno%C5%9Bci%C4%85+S.K.A./data=!4m7!3m6!1s0x47038ad0a97b70b3:0x889b37f5f85fd956!8m2!3d52.9006969!4d16.9717727!16s%2Fg%2F1ptvrwz_6!19sChIJs3B7qdCKA0cRVtlf-PU3m4g?authuser=0&hl=tr&rclk=1",
    "website_url": "https://www.ata-technik.com.pl/",
    "rating_text": "4,7",
    "stars": null,
    "number_of_reviews": null,
    "price_level": "",
    "open_hours": "",
    "extraction_timestamp": "2025-06-07T17:49:52.888Z",
    "source_name": "google",
    "source_query": "Irrigation Equipment",
    "source_country": "PL",
    "country": "Poland",
    "state": "Greater Poland Voivodeship",
    "city": "Budzyń"
  },
  {
    "source_id": "ChIJY8cslk-LA0cRaOKNT4djDj0",
    "name": "Zakuwanie Węży Hydraulicznych Jędruś",
    "category": "Zakuwanie Węży Hydraulicznych Jędruś",
    "formatted_address": "5,0(11)",
    "phone_number": "+48603049940",
    "source_url": "https://www.google.com/maps/place/Zakuwanie+W%C4%99%C5%BCy+Hydraulicznych+J%C4%99dru%C5%9B/data=!4m7!3m6!1s0x47038b4f962cc763:0x3d0e63874f8de268!8m2!3d52.8964115!4d16.9791463!16s%2Fg%2F11y1sg_qm2!19sChIJY8cslk-LA0cRaOKNT4djDj0?authuser=0&hl=tr&rclk=1",
    "website_url": "",
    "rating_text": "5,0",
    "stars": null,
    "number_of_reviews": null,
    "price_level": "",
    "open_hours": "",
    "extraction_timestamp": "2025-06-07T17:49:52.888Z",
    "source_name": "google",
    "source_query": "Irrigation Equipment",
    "source_country": "PL",
    "country": "Poland",
    "state": "Greater Poland Voivodeship",
    "city": "Budzyń"
  },
  {
    "source_id": "ChIJJ8S-qE6LA0cROQNCPtSengg",
    "name": "Firma Handlowa Środkami Do Produkcji Rolnej",
    "category": "Firma Handlowa Środkami Do Produkcji Rolnej",
    "formatted_address": "4,6(14)",
    "phone_number": "+48672843497",
    "source_url": "https://www.google.com/maps/place/Firma+Handlowa+%C5%9Arodkami+Do+Produkcji+Rolnej/data=!4m7!3m6!1s0x47038b4ea8bec427:0x89e9ed43e420339!8m2!3d52.891351!4d16.9921079!16s%2Fg%2F11f6cq8v0s!19sChIJJ8S-qE6LA0cROQNCPtSengg?authuser=0&hl=tr&rclk=1",
    "website_url": "https://www.facebook.com/profile.php?id=100089819632823",
    "rating_text": "4,6",
    "stars": null,
    "number_of_reviews": null,
    "price_level": "",
    "open_hours": "",
    "extraction_timestamp": "2025-06-07T17:49:52.888Z",
    "source_name": "google",
    "source_query": "Irrigation Equipment",
    "source_country": "PL",
    "country": "Poland",
    "state": "Greater Poland Voivodeship",
    "city": "Budzyń"
  },
  {
    "source_id": "ChIJ2QCs2xiLA0cRJsNPOUIw-IE",
    "name": "Wtryskownia Gawrych",
    "category": "Wtryskownia Gawrych",
    "formatted_address": "5,0(1)",
    "phone_number": "+48796453919",
    "source_url": "https://www.google.com/maps/place/Wtryskownia+Gawrych/data=!4m7!3m6!1s0x47038b18dbac00d9:0x81f83042394fc326!8m2!3d52.9056905!4d16.9738628!16s%2Fg%2F11kf3z0008!19sChIJ2QCs2xiLA0cRJsNPOUIw-IE?authuser=0&hl=tr&rclk=1",
    "website_url": "https://wtryskownia-gawrych.pl/",
    "rating_text": "5,0",
    "stars": null,
    "number_of_reviews": null,
    "price_level": "",
    "open_hours": "",
    "extraction_timestamp": "2025-06-07T17:49:52.888Z",
    "source_name": "google",
    "source_query": "Irrigation Equipment",
    "source_country": "PL",
    "country": "Poland",
    "state": "Greater Poland Voivodeship",
    "city": "Budzyń"
  },
  {
    "source_id": "ChIJJQsYgmuLA0cRjUSfH7hWehI",
    "name": "Ata-Technik Bartosz Gramowski",
    "category": "Ata-Technik Bartosz Gramowski",
    "formatted_address": "5,0(2)",
    "phone_number": "+48797025218",
    "source_url": "https://www.google.com/maps/place/Ata-Technik+Bartosz+Gramowski/data=!4m7!3m6!1s0x47038b6b82180b25:0x127a56b81f9f448d!8m2!3d52.889075!4d16.9953101!16s%2Fg%2F11fwcwglkp!19sChIJJQsYgmuLA0cRjUSfH7hWehI?authuser=0&hl=tr&rclk=1",
    "website_url": "",
    "rating_text": "5,0",
    "stars": null,
    "number_of_reviews": null,
    "price_level": "",
    "open_hours": "",
    "extraction_timestamp": "2025-06-07T17:49:52.889Z",
    "source_name": "google",
    "source_query": "Irrigation Equipment",
    "source_country": "PL",
    "country": "Poland",
    "state": "Greater Poland Voivodeship",
    "city": "Budzyń"
  },
  {
    "source_id": "ChIJlc1CKeaLA0cRif2wcAD9tL0",
    "name": "INTECH INSTALACJE - Pompy ciepła i Fotowoltaika",
    "category": "INTECH INSTALACJE - Pompy ciepła i Fotowoltaika",
    "formatted_address": "2,3(3)",
    "phone_number": "+48730004720",
    "source_url": "https://www.google.com/maps/place/INTECH+INSTALACJE+-+Pompy+ciep%C5%82a+i+Fotowoltaika/data=!4m7!3m6!1s0x47038be62942cd95:0xbdb4fd0070b0fd89!8m2!3d52.8986639!4d17.008277!16s%2Fg%2F11sk4vs3fl!19sChIJlc1CKeaLA0cRif2wcAD9tL0?authuser=0&hl=tr&rclk=1",
    "website_url": "http://www.intech-instalacje.com/",
    "rating_text": "2,3",
    "stars": null,
    "number_of_reviews": null,
    "price_level": "",
    "open_hours": "",
    "extraction_timestamp": "2025-06-07T17:49:52.889Z",
    "source_name": "google",
    "source_query": "Irrigation Equipment",
    "source_country": "PL",
    "country": "Poland",
    "state": "Greater Poland Voivodeship",
    "city": "Budzyń"
  },
  {
    "source_id": "ChIJRzjWkumKA0cRV_uVtTfpR_w",
    "name": "Słoneczko, Zakładanie Ogrodów, trawa z rolki, system nawodnienia",
    "category": "Słoneczko, Zakładanie Ogrodów, trawa z rolki, system nawodnienia",
    "formatted_address": "Słoneczko, Zakładanie Ogrodów, trawa z rolki, system nawodnienia",
    "phone_number": "+48669740330",
    "source_url": "https://www.google.com/maps/place/S%C5%82oneczko,+Zak%C5%82adanie+Ogrod%C3%B3w,+trawa+z+rolki,+system+nawodnienia/data=!4m7!3m6!1s0x47038ae992d63847:0xfc47e937b595fb57!8m2!3d52.8909345!4d16.9853835!16s%2Fg%2F11bv3mst70!19sChIJRzjWkumKA0cRV_uVtTfpR_w?authuser=0&hl=tr&rclk=1",
    "website_url": "https://www.facebook.com/eSloneczko",
    "rating_text": "5,0",
    "stars": null,
    "number_of_reviews": null,
    "price_level": "",
    "open_hours": "",
    "extraction_timestamp": "2025-06-07T17:49:52.889Z",
    "source_name": "google",
    "source_query": "Irrigation Equipment",
    "source_country": "PL",
    "country": "Poland",
    "state": "Greater Poland Voivodeship",
    "city": "Budzyń"
  },
  {
    "source_id": "ChIJMQGLD-qKA0cRU9C_w-dtihQ",
    "name": "B & K. Ogrody i systemy nawadniania",
    "category": "B & K. Ogrody i systemy nawadniania",
    "formatted_address": "5,0(1)",
    "phone_number": "+48604342038",
    "source_url": "https://www.google.com/maps/place/B+%26+K.+Ogrody+i+systemy+nawadniania/data=!4m7!3m6!1s0x47038aea0f8b0131:0x148a6de7c3bfd053!8m2!3d52.889493!4d16.983828!16s%2Fg%2F1ptyzf6zk!19sChIJMQGLD-qKA0cRU9C_w-dtihQ?authuser=0&hl=tr&rclk=1",
    "website_url": "http://www.ogrody-wlkp.pl/",
    "rating_text": "5,0",
    "stars": null,
    "number_of_reviews": null,
    "price_level": "",
    "open_hours": "",
    "extraction_timestamp": "2025-06-07T17:49:52.890Z",
    "source_name": "google",
    "source_query": "Irrigation Equipment",
    "source_country": "PL",
    "country": "Poland",
    "state": "Greater Poland Voivodeship",
    "city": "Budzyń"
  },
  {
    "source_id": "ChIJB6y_v5J2HEcRlDfYx3xmc9M",
    "name": "Milex irrigation systems",
    "category": "Milex irrigation systems",
    "formatted_address": "4,6(37)",
    "phone_number": "+48242775222",
    "source_url": "https://www.google.com/maps/place/Milex+irrigation+systems/data=!4m7!3m6!1s0x471c7692bfbfac07:0xd373667cc7d83794!8m2!3d52.4690634!4d19.7520904!16s%2Fg%2F1w2yy67r!19sChIJB6y_v5J2HEcRlDfYx3xmc9M?authuser=0&hl=tr&rclk=1",
    "website_url": "https://www.milex.pl/",
    "rating_text": "4,6",
    "stars": null,
    "number_of_reviews": null,
    "price_level": "",
    "open_hours": "",
    "extraction_timestamp": "2025-06-07T17:49:52.890Z",
    "source_name": "google",
    "source_query": "Irrigation Equipment",
    "source_country": "PL",
    "country": "Poland",
    "state": "Greater Poland Voivodeship",
    "city": "Budzyń"
  },
  {
    "source_id": "ChIJZa6y7cCKA0cRCMLNzGOS7qk",
    "name": "Chata Polska",
    "category": "Chata Polska",
    "formatted_address": "4,5(85)",
    "phone_number": "+48605666230",
    "source_url": "https://www.google.com/maps/place/Chata+Polska/data=!4m7!3m6!1s0x47038ac0edb2ae65:0xa9ee9263cccdc208!8m2!3d52.888296!4d16.976456!16s%2Fg%2F11fy1ln7ry!19sChIJZa6y7cCKA0cRCMLNzGOS7qk?authuser=0&hl=tr&rclk=1",
    "website_url": "http://www.chatapolska.pl/",
    "rating_text": "4,5",
    "stars": null,
    "number_of_reviews": null,
    "price_level": "",
    "open_hours": "",
    "extraction_timestamp": "2025-06-07T17:49:52.919Z",
    "source_name": "google",
    "source_query": "Irrigation Equipment",
    "source_country": "PL",
    "country": "Poland",
    "state": "Greater Poland Voivodeship",
    "city": "Budzyń"
  },
  {
    "source_id": "ChIJUfn2Ig35A0cREW9fZ4029UM",
    "name": "IMTechnika sp. z o.o.",
    "category": "IMTechnika sp. z o.o.",
    "formatted_address": "4,4(17)",
    "phone_number": "+48883820388",
    "source_url": "https://www.google.com/maps/place/IMTechnika+sp.+z+o.o./data=!4m7!3m6!1s0x4703f90d22f6f951:0x43f5368d675f6f11!8m2!3d52.9756271!4d16.657836!16s%2Fg%2F11bw48_6mg!19sChIJUfn2Ig35A0cREW9fZ4029UM?authuser=0&hl=tr&rclk=1",
    "website_url": "http://imtechnika.pl/",
    "rating_text": "4,4",
    "stars": null,
    "number_of_reviews": null,
    "price_level": "",
    "open_hours": "",
    "extraction_timestamp": "2025-06-07T17:49:52.920Z",
    "source_name": "google",
    "source_query": "Irrigation Equipment",
    "source_country": "PL",
    "country": "Poland",
    "state": "Greater Poland Voivodeship",
    "city": "Budzyń"
  },
  {
    "source_id": "ChIJb6Ek1XSLA0cRRnpZSiPYbJY",
    "name": "Instal - Budz Sławomir Szumlicz",
    "category": "Instal - Budz Sławomir Szumlicz",
    "formatted_address": "",
    "phone_number": "+48505915052",
    "source_url": "https://www.google.com/maps/place/Instal+-+Budz+S%C5%82awomir+Szumlicz/data=!4m7!3m6!1s0x47038b74d524a16f:0x966cd8234a597a46!8m2!3d52.8834933!4d16.9820814!16s%2Fg%2F11v3t_4yfp!19sChIJb6Ek1XSLA0cRRnpZSiPYbJY?authuser=0&hl=tr&rclk=1",
    "website_url": "",
    "rating_text": "",
    "stars": null,
    "number_of_reviews": null,
    "price_level": "",
    "open_hours": "",
    "extraction_timestamp": "2025-06-07T17:49:52.921Z",
    "source_name": "google",
    "source_query": "Irrigation Equipment",
    "source_country": "PL",
    "country": "Poland",
    "state": "Greater Poland Voivodeship",
    "city": "Budzyń"
  },
  {
    "source_id": "ChIJofAIVc_zA0cRDjBAG1Ar55k",
    "name": "JarajTo",
    "category": "JarajTo",
    "formatted_address": "4,7(73)",
    "phone_number": "+48616427420",
    "source_url": "https://www.google.com/maps/place/JarajTo/data=!4m7!3m6!1s0x4703f3cf5508f0a1:0x99e72b501b40300e!8m2!3d52.9518378!4d16.9442572!16s%2Fg%2F11fx7vryck!19sChIJofAIVc_zA0cRDjBAG1Ar55k?authuser=0&hl=tr&rclk=1",
    "website_url": "http://www.jarajto.pl/",
    "rating_text": "4,7",
    "stars": null,
    "number_of_reviews": null,
    "price_level": "",
    "open_hours": "",
    "extraction_timestamp": "2025-06-07T17:49:52.922Z",
    "source_name": "google",
    "source_query": "Irrigation Equipment",
    "source_country": "PL",
    "country": "Poland",
    "state": "Greater Poland Voivodeship",
    "city": "Budzyń"
  },
  {
    "source_id": "ChIJtc4rFcGKA0cRtDZjjh4ArhM",
    "name": "Biedronka",
    "category": "Biedronka",
    "formatted_address": "4,1(476)",
    "phone_number": "+48800080010",
    "source_url": "https://www.google.com/maps/place/Biedronka/data=!4m7!3m6!1s0x47038ac1152bceb5:0x13ae001e8e6336b4!8m2!3d52.8901806!4d16.9770011!16s%2Fg%2F113hc6h_m!19sChIJtc4rFcGKA0cRtDZjjh4ArhM?authuser=0&hl=tr&rclk=1",
    "website_url": "https://www.biedronka.pl/pl?utm_source=gmb",
    "rating_text": "4,1",
    "stars": null,
    "number_of_reviews": null,
    "price_level": "",
    "open_hours": "",
    "extraction_timestamp": "2025-06-07T17:49:52.923Z",
    "source_name": "google",
    "source_query": "Irrigation Equipment",
    "source_country": "PL",
    "country": "Poland",
    "state": "Greater Poland Voivodeship",
    "city": "Budzyń"
  }
]
