[
  {
    "source_id": "ChIJFVCITOVPBEcRG-lA_g1qlqk",
    "name": "Technika Wody",
    "category": "Technika Wody",
    "formatted_address": "4,6(288)",
    "phone_number": "+48502506622",
    "source_url": "https://www.google.com/maps/place/Technika+Wody/data=!4m7!3m6!1s0x47044fe54c885015:0xa9966a0dfe40e91b!8m2!3d52.3740842!4d16.819808!16s%2Fg%2F11b7vsdjf5!19sChIJFVCITOVPBEcRG-lA_g1qlqk?authuser=0&hl=tr&rclk=1",
    "website_url": "",
    "rating_text": "4,6",
    "stars": null,
    "number_of_reviews": null,
    "price_level": "",
    "open_hours": "",
    "extraction_timestamp": "2025-06-07T17:43:48.676Z",
    "source_name": "google",
    "source_query": "Irrigation Equipment",
    "source_country": "PL",
    "country": "Poland",
    "state": "Greater Poland Voivodeship",
    "city": "Buk"
  },
  {
    "source_id": "ChIJNRDituA2BEcRt-i-vLtLffo",
    "name": "Serwus. FH. Piechowiak A.",
    "category": "Serwus. FH. Piechowiak A.",
    "formatted_address": "4,3(553)",
    "phone_number": "+48618140966",
    "source_url": "https://www.google.com/maps/place/Serwus.+FH.+Piechowiak+A./data=!4m7!3m6!1s0x470436e0b6e21035:0xfa7d4bbbbcbee8b7!8m2!3d52.3540491!4d16.5187461!16s%2Fg%2F1tjf8zhp!19sChIJNRDituA2BEcRt-i-vLtLffo?authuser=0&hl=tr&rclk=1",
    "website_url": "",
    "rating_text": "4,3",
    "stars": null,
    "number_of_reviews": null,
    "price_level": "",
    "open_hours": "",
    "extraction_timestamp": "2025-06-07T17:43:48.677Z",
    "source_name": "google",
    "source_query": "Irrigation Equipment",
    "source_country": "PL",
    "country": "Poland",
    "state": "Greater Poland Voivodeship",
    "city": "Buk"
  },
  {
    "source_id": "ChIJ82LY_AU3BEcRWTSUKgEi5cg",
    "name": "EFLI GROUP sp. z o.o., sp.k.",
    "category": "EFLI GROUP sp. z o.o., sp.k.",
    "formatted_address": "EFLI GROUP sp. z o.o., sp.k.",
    "phone_number": "+48720883999",
    "source_url": "https://www.google.com/maps/place/EFLI+GROUP+sp.+z+o.o.,+sp.k./data=!4m7!3m6!1s0x47043705fcd862f3:0xc8e522012a943459!8m2!3d52.3495224!4d16.5116073!16s%2Fg%2F11lp5__9q1!19sChIJ82LY_AU3BEcRWTSUKgEi5cg?authuser=0&hl=tr&rclk=1",
    "website_url": "",
    "rating_text": "4,0",
    "stars": null,
    "number_of_reviews": null,
    "price_level": "",
    "open_hours": "",
    "extraction_timestamp": "2025-06-07T17:43:48.678Z",
    "source_name": "google",
    "source_query": "Irrigation Equipment",
    "source_country": "PL",
    "country": "Poland",
    "state": "Greater Poland Voivodeship",
    "city": "Buk"
  },
  {
    "source_id": "ChIJB6y_v5J2HEcRlDfYx3xmc9M",
    "name": "Milex irrigation systems",
    "category": "Milex irrigation systems",
    "formatted_address": "4,6(37)",
    "phone_number": "+48242775222",
    "source_url": "https://www.google.com/maps/place/Milex+irrigation+systems/data=!4m7!3m6!1s0x471c7692bfbfac07:0xd373667cc7d83794!8m2!3d52.4690634!4d19.7520904!16s%2Fg%2F1w2yy67r!19sChIJB6y_v5J2HEcRlDfYx3xmc9M?authuser=0&hl=tr&rclk=1",
    "website_url": "",
    "rating_text": "4,6",
    "stars": null,
    "number_of_reviews": null,
    "price_level": "",
    "open_hours": "",
    "extraction_timestamp": "2025-06-07T17:43:48.679Z",
    "source_name": "google",
    "source_query": "Irrigation Equipment",
    "source_country": "PL",
    "country": "Poland",
    "state": "Greater Poland Voivodeship",
    "city": "Buk"
  },
  {
    "source_id": "ChIJbdMKD-U2BEcRUCc0qEgA7tQ",
    "name": "Odwodnienia mostów",
    "category": "Odwodnienia mostów",
    "formatted_address": "",
    "phone_number": "+48618911000",
    "source_url": "https://www.google.com/maps/place/Odwodnienia+most%C3%B3w/data=!4m7!3m6!1s0x470436e50f0ad36d:0xd4ee0048a8342750!8m2!3d52.348863!4d16.52665!16s%2Fg%2F11h4vn4y6z!19sChIJbdMKD-U2BEcRUCc0qEgA7tQ?authuser=0&hl=tr&rclk=1",
    "website_url": "",
    "rating_text": "",
    "stars": null,
    "number_of_reviews": null,
    "price_level": "",
    "open_hours": "",
    "extraction_timestamp": "2025-06-07T17:43:48.679Z",
    "source_name": "google",
    "source_query": "Irrigation Equipment",
    "source_country": "PL",
    "country": "Poland",
    "state": "Greater Poland Voivodeship",
    "city": "Buk"
  },
  {
    "source_id": "ChIJX0AH2O83BEcR2m8JCyNakBo",
    "name": "PSB Market budowlany",
    "category": "PSB Market budowlany",
    "formatted_address": "4,6(48)",
    "phone_number": "+48535559242",
    "source_url": "https://www.google.com/maps/place/PSB+Market+budowlany/data=!4m7!3m6!1s0x470437efd807405f:0x1a905a230b096fda!8m2!3d52.358808!4d16.514852!16s%2Fg%2F11h320cjs7!19sChIJX0AH2O83BEcR2m8JCyNakBo?authuser=0&hl=tr&rclk=1",
    "website_url": "",
    "rating_text": "4,6",
    "stars": null,
    "number_of_reviews": null,
    "price_level": "",
    "open_hours": "",
    "extraction_timestamp": "2025-06-07T17:43:48.680Z",
    "source_name": "google",
    "source_query": "Irrigation Equipment",
    "source_country": "PL",
    "country": "Poland",
    "state": "Greater Poland Voivodeship",
    "city": "Buk"
  },
  {
    "source_id": "ChIJQYZYU_daBEcRrc4mt6dBBko",
    "name": "HYDROGLOBAL - Przemyślane rozwiązania dla ujęć wody",
    "category": "HYDROGLOBAL - Przemyślane rozwiązania dla ujęć wody",
    "formatted_address": "4,5(8)",
    "phone_number": "+48612785475",
    "source_url": "https://www.google.com/maps/place/HYDROGLOBAL+-+Przemy%C5%9Blane+rozwi%C4%85zania+dla+uj%C4%99%C4%87+wody/data=!4m7!3m6!1s0x47045af753588641:0x4a0641a7b726cead!8m2!3d52.4872791!4d16.8563292!16s%2Fg%2F1wzt11_h!19sChIJQYZYU_daBEcRrc4mt6dBBko?authuser=0&hl=tr&rclk=1",
    "website_url": "",
    "rating_text": "4,5",
    "stars": null,
    "number_of_reviews": null,
    "price_level": "",
    "open_hours": "",
    "extraction_timestamp": "2025-06-07T17:43:48.681Z",
    "source_name": "google",
    "source_query": "Irrigation Equipment",
    "source_country": "PL",
    "country": "Poland",
    "state": "Greater Poland Voivodeship",
    "city": "Buk"
  },
  {
    "source_id": "ChIJKUjarw-_BUcRv85s5NTWUSI",
    "name": "Dimah",
    "category": "Dimah",
    "formatted_address": "3,2(6)",
    "phone_number": "+48512112934",
    "source_url": "https://www.google.com/maps/place/Dimah/data=!4m7!3m6!1s0x4705bf0fafda4829:0x2251d6d4e46ccebf!8m2!3d51.94727!4d16.410281!16s%2Fg%2F11bbrbwlpk!19sChIJKUjarw-_BUcRv85s5NTWUSI?authuser=0&hl=tr&rclk=1",
    "website_url": "",
    "rating_text": "3,2",
    "stars": null,
    "number_of_reviews": null,
    "price_level": "",
    "open_hours": "",
    "extraction_timestamp": "2025-06-07T17:43:48.682Z",
    "source_name": "google",
    "source_query": "Irrigation Equipment",
    "source_country": "PL",
    "country": "Poland",
    "state": "Greater Poland Voivodeship",
    "city": "Buk"
  },
  {
    "source_id": "ChIJ-3H42-Y2BEcR0MsAnbppV3k",
    "name": "Esencja Wina i Alkohole",
    "category": "Esencja Wina i Alkohole",
    "formatted_address": "4,7(80)",
    "phone_number": "+48731700039",
    "source_url": "https://www.google.com/maps/place/Esencja+Wina+i+Alkohole/data=!4m7!3m6!1s0x470436e6dbf871fb:0x795769ba9d00cbd0!8m2!3d52.3519341!4d16.5205877!16s%2Fg%2F11gg67qhmc!19sChIJ-3H42-Y2BEcR0MsAnbppV3k?authuser=0&hl=tr&rclk=1",
    "website_url": "",
    "rating_text": "4,7",
    "stars": null,
    "number_of_reviews": null,
    "price_level": "",
    "open_hours": "",
    "extraction_timestamp": "2025-06-07T17:43:48.683Z",
    "source_name": "google",
    "source_query": "Irrigation Equipment",
    "source_country": "PL",
    "country": "Poland",
    "state": "Greater Poland Voivodeship",
    "city": "Buk"
  },
  {
    "source_id": "ChIJGzzT8uY2BEcRXUEm_DVA3HY",
    "name": "POLOmarket",
    "category": "POLOmarket",
    "formatted_address": "4,0(515)",
    "phone_number": "",
    "source_url": "https://www.google.com/maps/place/POLOmarket/data=!4m7!3m6!1s0x470436e6f2d33c1b:0x76dc4035fc26415d!8m2!3d52.3515892!4d16.5216083!16s%2Fg%2F1hc34014f!19sChIJGzzT8uY2BEcRXUEm_DVA3HY?authuser=0&hl=tr&rclk=1",
    "website_url": "",
    "rating_text": "4,0",
    "stars": null,
    "number_of_reviews": null,
    "price_level": "",
    "open_hours": "",
    "extraction_timestamp": "2025-06-07T17:43:48.684Z",
    "source_name": "google",
    "source_query": "Irrigation Equipment",
    "source_country": "PL",
    "country": "Poland",
    "state": "Greater Poland Voivodeship",
    "city": "Buk"
  },
  {
    "source_id": "ChIJc3Q5Uic3BEcRIaCp4wMvitk",
    "name": "MLECZARNIA BUK - Mleczarski Sklep Firmowy",
    "category": "MLECZARNIA BUK - Mleczarski Sklep Firmowy",
    "formatted_address": "4,5(28)",
    "phone_number": "",
    "source_url": "https://www.google.com/maps/place/MLECZARNIA+BUK+-+Mleczarski+Sklep+Firmowy/data=!4m7!3m6!1s0x4704372752397473:0xd98a2f03e3a9a021!8m2!3d52.3604621!4d16.5123134!16s%2Fg%2F11d_87q_cp!19sChIJc3Q5Uic3BEcRIaCp4wMvitk?authuser=0&hl=tr&rclk=1",
    "website_url": "",
    "rating_text": "4,5",
    "stars": null,
    "number_of_reviews": null,
    "price_level": "",
    "open_hours": "",
    "extraction_timestamp": "2025-06-07T17:43:48.684Z",
    "source_name": "google",
    "source_query": "Irrigation Equipment",
    "source_country": "PL",
    "country": "Poland",
    "state": "Greater Poland Voivodeship",
    "city": "Buk"
  },
  {
    "source_id": "ChIJ4U0RYuY2BEcRY-ZMGxpq58g",
    "name": "Rossmann",
    "category": "Rossmann",
    "formatted_address": "4,3(129)",
    "phone_number": "+48426139700",
    "source_url": "https://www.google.com/maps/place/Rossmann/data=!4m7!3m6!1s0x470436e662114de1:0xc8e76a1a1b4ce663!8m2!3d52.3514121!4d16.5216945!16s%2Fg%2F1pzs6jrhc!19sChIJ4U0RYuY2BEcRY-ZMGxpq58g?authuser=0&hl=tr&rclk=1",
    "website_url": "",
    "rating_text": "4,3",
    "stars": null,
    "number_of_reviews": null,
    "price_level": "",
    "open_hours": "",
    "extraction_timestamp": "2025-06-07T17:43:48.685Z",
    "source_name": "google",
    "source_query": "Irrigation Equipment",
    "source_country": "PL",
    "country": "Poland",
    "state": "Greater Poland Voivodeship",
    "city": "Buk"
  },
  {
    "source_id": "ChIJUfn2Ig35A0cREW9fZ4029UM",
    "name": "IMTechnika sp. z o.o.",
    "category": "IMTechnika sp. z o.o.",
    "formatted_address": "4,4(17)",
    "phone_number": "+48883820388",
    "source_url": "https://www.google.com/maps/place/IMTechnika+sp.+z+o.o./data=!4m7!3m6!1s0x4703f90d22f6f951:0x43f5368d675f6f11!8m2!3d52.9756271!4d16.657836!16s%2Fg%2F11bw48_6mg!19sChIJUfn2Ig35A0cREW9fZ4029UM?authuser=0&hl=tr&rclk=1",
    "website_url": "",
    "rating_text": "4,4",
    "stars": null,
    "number_of_reviews": null,
    "price_level": "",
    "open_hours": "",
    "extraction_timestamp": "2025-06-07T17:43:48.686Z",
    "source_name": "google",
    "source_query": "Irrigation Equipment",
    "source_country": "PL",
    "country": "Poland",
    "state": "Greater Poland Voivodeship",
    "city": "Buk"
  },
  {
    "source_id": "ChIJVTV3W_PzBEcR6gY0xwQi2_E",
    "name": "Deszczownie.com",
    "category": "Deszczownie.com",
    "formatted_address": "",
    "phone_number": "+48726000030",
    "source_url": "https://www.google.com/maps/place/Deszczownie.com/data=!4m7!3m6!1s0x4704f3f35b773555:0xf1db2204c73406ea!8m2!3d52.3623948!4d17.4021087!16s%2Fg%2F11y3pv4rxr!19sChIJVTV3W_PzBEcR6gY0xwQi2_E?authuser=0&hl=tr&rclk=1",
    "website_url": "",
    "rating_text": "",
    "stars": null,
    "number_of_reviews": null,
    "price_level": "",
    "open_hours": "",
    "extraction_timestamp": "2025-06-07T17:43:48.686Z",
    "source_name": "google",
    "source_query": "Irrigation Equipment",
    "source_country": "PL",
    "country": "Poland",
    "state": "Greater Poland Voivodeship",
    "city": "Buk"
  },
  {
    "source_id": "ChIJvZfWfLM3BEcR53v75-IkJ3Q",
    "name": "Sklep \"Owocek \" Twój ulubiony warzywniak",
    "category": "Sklep \"Owocek \" Twój ulubiony warzywniak",
    "formatted_address": "4,6(12)",
    "phone_number": "+48511873190",
    "source_url": "https://www.google.com/maps/place/Sklep+%22Owocek+%22+Tw%C3%B3j+ulubiony+warzywniak/data=!4m7!3m6!1s0x470437b37cd697bd:0x742724e2e7fb7be7!8m2!3d52.3530925!4d16.5199828!16s%2Fg%2F11q3_bg7yr!19sChIJvZfWfLM3BEcR53v75-IkJ3Q?authuser=0&hl=tr&rclk=1",
    "website_url": "",
    "rating_text": "4,6",
    "stars": null,
    "number_of_reviews": null,
    "price_level": "",
    "open_hours": "",
    "extraction_timestamp": "2025-06-07T17:43:48.687Z",
    "source_name": "google",
    "source_query": "Irrigation Equipment",
    "source_country": "PL",
    "country": "Poland",
    "state": "Greater Poland Voivodeship",
    "city": "Buk"
  },
  {
    "source_id": "ChIJs5VFA-Q2BEcR2LDNopxPtqQ",
    "name": "Biedronka",
    "category": "Biedronka",
    "formatted_address": "4,0(1.157)",
    "phone_number": "+48800080010",
    "source_url": "https://www.google.com/maps/place/Biedronka/data=!4m7!3m6!1s0x470436e4034595b3:0xa4b64f9ca2cdb0d8!8m2!3d52.3502617!4d16.5190345!16s%2Fg%2F1tgy_8v5!19sChIJs5VFA-Q2BEcR2LDNopxPtqQ?authuser=0&hl=tr&rclk=1",
    "website_url": "",
    "rating_text": "4,0",
    "stars": null,
    "number_of_reviews": null,
    "price_level": "",
    "open_hours": "",
    "extraction_timestamp": "2025-06-07T17:43:48.689Z",
    "source_name": "google",
    "source_query": "Irrigation Equipment",
    "source_country": "PL",
    "country": "Poland",
    "state": "Greater Poland Voivodeship",
    "city": "Buk"
  },
  {
    "source_id": "ChIJa4bjhBY3BEcRrMNPtyMwq4Q",
    "name": "Quercus Boats",
    "category": "Quercus Boats",
    "formatted_address": "",
    "phone_number": "+48883403020",
    "source_url": "https://www.google.com/maps/place/Quercus+Boats/data=!4m7!3m6!1s0x4704371684e3866b:0x84ab3023b74fc3ac!8m2!3d52.351934!4d16.5238349!16s%2Fg%2F11y6qr1vth!19sChIJa4bjhBY3BEcRrMNPtyMwq4Q?authuser=0&hl=tr&rclk=1",
    "website_url": "",
    "rating_text": "",
    "stars": null,
    "number_of_reviews": null,
    "price_level": "",
    "open_hours": "",
    "extraction_timestamp": "2025-06-07T17:43:48.689Z",
    "source_name": "google",
    "source_query": "Irrigation Equipment",
    "source_country": "PL",
    "country": "Poland",
    "state": "Greater Poland Voivodeship",
    "city": "Buk"
  },
  {
    "source_id": "ChIJm1ZvUt42BEcR5H-j2yxtYek",
    "name": "Sklep motoryzacyjny. Bilińska-Kaus K.",
    "category": "Sklep motoryzacyjny. Bilińska-Kaus K.",
    "formatted_address": "4,8(145)",
    "phone_number": "+48618949681",
    "source_url": "https://www.google.com/maps/place/Sklep+motoryzacyjny.+Bili%C5%84ska-Kaus+K./data=!4m7!3m6!1s0x470436de526f569b:0xe9616d2cdba37fe4!8m2!3d52.3488254!4d16.5254735!16s%2Fg%2F1tf2whkd!19sChIJm1ZvUt42BEcR5H-j2yxtYek?authuser=0&hl=tr&rclk=1",
    "website_url": "",
    "rating_text": "4,8",
    "stars": null,
    "number_of_reviews": null,
    "price_level": "",
    "open_hours": "",
    "extraction_timestamp": "2025-06-07T17:43:48.690Z",
    "source_name": "google",
    "source_query": "Irrigation Equipment",
    "source_country": "PL",
    "country": "Poland",
    "state": "Greater Poland Voivodeship",
    "city": "Buk"
  },
  {
    "source_id": "ChIJa2vjkR43BEcRMmSgCQmCPrE",
    "name": "Market Dino - Wielka Wieś",
    "category": "Market Dino - Wielka Wieś",
    "formatted_address": "4,1(423)",
    "phone_number": "",
    "source_url": "https://www.google.com/maps/place/Market+Dino+-+Wielka+Wie%C5%9B/data=!4m7!3m6!1s0x4704371e91e36b6b:0xb13e820909a06432!8m2!3d52.3615078!4d16.5272328!16s%2Fg%2F11bv1rm738!19sChIJa2vjkR43BEcRMmSgCQmCPrE?authuser=0&hl=tr&rclk=1",
    "website_url": "",
    "rating_text": "4,1",
    "stars": null,
    "number_of_reviews": null,
    "price_level": "",
    "open_hours": "",
    "extraction_timestamp": "2025-06-07T17:43:48.691Z",
    "source_name": "google",
    "source_query": "Irrigation Equipment",
    "source_country": "PL",
    "country": "Poland",
    "state": "Greater Poland Voivodeship",
    "city": "Buk"
  },
  {
    "source_id": "ChIJMaXz0-Y2BEcR2WurU8mpxaw",
    "name": "Savrin. PW. Łopatka M.",
    "category": "Savrin. PW. Łopatka M.",
    "formatted_address": "",
    "phone_number": "+48698534356",
    "source_url": "https://www.google.com/maps/place/Savrin.+PW.+%C5%81opatka+M./data=!4m7!3m6!1s0x470436e6d3f3a531:0xacc5a9c953ab6bd9!8m2!3d52.3530296!4d16.520836!16s%2Fg%2F1tmxpq73!19sChIJMaXz0-Y2BEcR2WurU8mpxaw?authuser=0&hl=tr&rclk=1",
    "website_url": "",
    "rating_text": "",
    "stars": null,
    "number_of_reviews": null,
    "price_level": "",
    "open_hours": "",
    "extraction_timestamp": "2025-06-07T17:43:48.691Z",
    "source_name": "google",
    "source_query": "Irrigation Equipment",
    "source_country": "PL",
    "country": "Poland",
    "state": "Greater Poland Voivodeship",
    "city": "Buk"
  },
  {
    "source_id": "ChIJs_zuQ942BEcRtjLj6y5UIsE",
    "name": "Minimarket Sklep Kasia",
    "category": "Minimarket Sklep Kasia",
    "formatted_address": "4,4(34)",
    "phone_number": "+48609186795",
    "source_url": "https://www.google.com/maps/place/Minimarket+Sklep+Kasia/data=!4m7!3m6!1s0x470436de43eefcb3:0xc122542eebe332b6!8m2!3d52.3556497!4d16.5153839!16s%2Fg%2F11c53rvyyh!19sChIJs_zuQ942BEcRtjLj6y5UIsE?authuser=0&hl=tr&rclk=1",
    "website_url": "",
    "rating_text": "4,4",
    "stars": null,
    "number_of_reviews": null,
    "price_level": "",
    "open_hours": "",
    "extraction_timestamp": "2025-06-07T17:43:48.692Z",
    "source_name": "google",
    "source_query": "Irrigation Equipment",
    "source_country": "PL",
    "country": "Poland",
    "state": "Greater Poland Voivodeship",
    "city": "Buk"
  },
  {
    "source_id": "ChIJr15GMSYzBEcR5M3MzHdzTmk",
    "name": "SunnyHouse",
    "category": "SunnyHouse",
    "formatted_address": "4,8(25)",
    "phone_number": "",
    "source_url": "https://www.google.com/maps/place/SunnyHouse/data=!4m7!3m6!1s0x4704332631465eaf:0x694e7377cccccde4!8m2!3d52.3020406!4d16.4140578!16s%2Fg%2F11hzz8kkfr!19sChIJr15GMSYzBEcR5M3MzHdzTmk?authuser=0&hl=tr&rclk=1",
    "website_url": "",
    "rating_text": "4,8",
    "stars": null,
    "number_of_reviews": null,
    "price_level": "",
    "open_hours": "",
    "extraction_timestamp": "2025-06-07T17:43:48.693Z",
    "source_name": "google",
    "source_query": "Irrigation Equipment",
    "source_country": "PL",
    "country": "Poland",
    "state": "Greater Poland Voivodeship",
    "city": "Buk"
  },
  {
    "source_id": "ChIJQ9Wcp9laBEcRgVdx1f9fOZ8",
    "name": "Mikas Instalacje",
    "category": "Mikas Instalacje",
    "formatted_address": "4,7(58)",
    "phone_number": "+48616497070",
    "source_url": "https://www.google.com/maps/place/Mikas+Instalacje/data=!4m7!3m6!1s0x47045ad9a79cd543:0x9f395fffd5715781!8m2!3d52.3856728!4d16.9154114!16s%2Fg%2F1vn9msv6!19sChIJQ9Wcp9laBEcRgVdx1f9fOZ8?authuser=0&hl=tr&rclk=1",
    "website_url": "",
    "rating_text": "4,7",
    "stars": null,
    "number_of_reviews": null,
    "price_level": "",
    "open_hours": "",
    "extraction_timestamp": "2025-06-07T17:43:48.693Z",
    "source_name": "google",
    "source_query": "Irrigation Equipment",
    "source_country": "PL",
    "country": "Poland",
    "state": "Greater Poland Voivodeship",
    "city": "Buk"
  },
  {
    "source_id": "ChIJKdaoI1tABEcRgKmAyOjvW9k",
    "name": "PHU BASECO",
    "category": "PHU BASECO",
    "formatted_address": "5,0(22)",
    "phone_number": "+48501554711",
    "source_url": "https://www.google.com/maps/place/PHU+BASECO/data=!4m7!3m6!1s0x4704405b23a8d629:0xd95befe8c880a980!8m2!3d52.5100943!4d16.755976!16s%2Fg%2F11c6dlgbh8!19sChIJKdaoI1tABEcRgKmAyOjvW9k?authuser=0&hl=tr&rclk=1",
    "website_url": "",
    "rating_text": "5,0",
    "stars": null,
    "number_of_reviews": null,
    "price_level": "",
    "open_hours": "",
    "extraction_timestamp": "2025-06-07T17:43:48.694Z",
    "source_name": "google",
    "source_query": "Irrigation Equipment",
    "source_country": "PL",
    "country": "Poland",
    "state": "Greater Poland Voivodeship",
    "city": "Buk"
  },
  {
    "source_id": "ChIJtWcFLp3pBEcRLsKDqolJIng",
    "name": "TEST INSTALACJE – Hurtownia instalacyjna Września",
    "category": "TEST INSTALACJE – Hurtownia instalacyjna Września",
    "formatted_address": "4,7(33)",
    "phone_number": "+48616394733",
    "source_url": "https://www.google.com/maps/place/TEST+INSTALACJE+%E2%80%93+Hurtownia+instalacyjna+Wrze%C5%9Bnia/data=!4m7!3m6!1s0x4704e99d2e0567b5:0x78224989aa83c22e!8m2!3d52.3216706!4d17.5802512!16s%2Fg%2F11c50569y3!19sChIJtWcFLp3pBEcRLsKDqolJIng?authuser=0&hl=tr&rclk=1",
    "website_url": "",
    "rating_text": "4,7",
    "stars": null,
    "number_of_reviews": null,
    "price_level": "",
    "open_hours": "",
    "extraction_timestamp": "2025-06-07T17:43:48.723Z",
    "source_name": "google",
    "source_query": "Irrigation Equipment",
    "source_country": "PL",
    "country": "Poland",
    "state": "Greater Poland Voivodeship",
    "city": "Buk"
  },
  {
    "source_id": "ChIJR1Gy6FdHBEcRxLXa4mu3HY8",
    "name": "Fargo PW Centrum Ogrodnicze - Sklep Ogrodniczy i Rolniczy",
    "category": "Fargo PW Centrum Ogrodnicze - Sklep Ogrodniczy i Rolniczy",
    "formatted_address": "4,8(387)",
    "phone_number": "+48618146334",
    "source_url": "https://www.google.com/maps/place/Fargo+PW+Centrum+Ogrodnicze+-+Sklep+Ogrodniczy+i+Rolniczy/data=!4m7!3m6!1s0x47044757e8b25147:0x8f1db76be2dab5c4!8m2!3d52.4575027!4d16.6792707!16s%2Fg%2F1ptwzycf8!19sChIJR1Gy6FdHBEcRxLXa4mu3HY8?authuser=0&hl=tr&rclk=1",
    "website_url": "",
    "rating_text": "4,8",
    "stars": null,
    "number_of_reviews": null,
    "price_level": "",
    "open_hours": "",
    "extraction_timestamp": "2025-06-07T17:43:48.724Z",
    "source_name": "google",
    "source_query": "Irrigation Equipment",
    "source_country": "PL",
    "country": "Poland",
    "state": "Greater Poland Voivodeship",
    "city": "Buk"
  },
  {
    "source_id": "ChIJwdhRqaxEBEcRZ22nzjeUbu0",
    "name": "Pupil",
    "category": "Pupil",
    "formatted_address": "4,6(87)",
    "phone_number": "+48618288772",
    "source_url": "https://www.google.com/maps/place/Pupil/data=!4m7!3m6!1s0x470444aca951d8c1:0xed6e9437cea76d67!8m2!3d52.4348609!4d16.9214779!16s%2Fg%2F11cs13qrdt!19sChIJwdhRqaxEBEcRZ22nzjeUbu0?authuser=0&hl=tr&rclk=1",
    "website_url": "",
    "rating_text": "4,6",
    "stars": null,
    "number_of_reviews": null,
    "price_level": "",
    "open_hours": "",
    "extraction_timestamp": "2025-06-07T17:43:48.725Z",
    "source_name": "google",
    "source_query": "Irrigation Equipment",
    "source_country": "PL",
    "country": "Poland",
    "state": "Greater Poland Voivodeship",
    "city": "Buk"
  },
  {
    "source_id": "ChIJR04HprOiBEcRimDlaVeaHjg",
    "name": "HYDROART GACA SP. With O.O.",
    "category": "HYDROART GACA SP. With O.O.",
    "formatted_address": "4,5(394)",
    "phone_number": "+48614282710",
    "source_url": "https://www.google.com/maps/place/HYDROART+GACA+SP.+With+O.O./data=!4m7!3m6!1s0x4704a2b3a6074e47:0x381e9a5769e5608a!8m2!3d52.5625604!4d17.824335!16s%2Fg%2F1td3k900!19sChIJR04HprOiBEcRimDlaVeaHjg?authuser=0&hl=tr&rclk=1",
    "website_url": "",
    "rating_text": "4,5",
    "stars": null,
    "number_of_reviews": null,
    "price_level": "",
    "open_hours": "",
    "extraction_timestamp": "2025-06-07T17:43:48.726Z",
    "source_name": "google",
    "source_query": "Irrigation Equipment",
    "source_country": "PL",
    "country": "Poland",
    "state": "Greater Poland Voivodeship",
    "city": "Buk"
  },
  {
    "source_id": "ChIJ4a4FVytZZawRHyt-6zfZwSw",
    "name": "Alex hydraulik Poznań, instalator, usługi hydrauliczne, pogotowie hydrauliczne",
    "category": "Alex hydraulik Poznań, instalator, usługi hydrauliczne, pogotowie hydrauliczne",
    "formatted_address": "Alex hydraulik Poznań, instalator, usługi hydrauliczne, pogotowie hydrauliczne",
    "phone_number": "+48791119472",
    "source_url": "https://www.google.com/maps/place/Alex+hydraulik+Pozna%C5%84,+instalator,+us%C5%82ugi+hydrauliczne,+pogotowie+hydrauliczne/data=!4m7!3m6!1s0xac65592b5705aee1:0x2cc1d937eb7e2b1f!8m2!3d52.4161319!4d16.925274!16s%2Fg%2F11wy92ghx9!19sChIJ4a4FVytZZawRHyt-6zfZwSw?authuser=0&hl=tr&rclk=1",
    "website_url": "",
    "rating_text": "5,0",
    "stars": null,
    "number_of_reviews": null,
    "price_level": "",
    "open_hours": "",
    "extraction_timestamp": "2025-06-07T17:43:48.726Z",
    "source_name": "google",
    "source_query": "Irrigation Equipment",
    "source_country": "PL",
    "country": "Poland",
    "state": "Greater Poland Voivodeship",
    "city": "Buk"
  },
  {
    "source_id": "ChIJGR-SjJ1GBEcRmOSS9tKPIrQ",
    "name": "Sanpol Przeźmierowo - hurtownia instalacyjno-grzewcza",
    "category": "Sanpol Przeźmierowo - hurtownia instalacyjno-grzewcza",
    "formatted_address": "3,8(16)",
    "phone_number": "+48618746998",
    "source_url": "https://www.google.com/maps/place/Sanpol+Prze%C5%BAmierowo+-+hurtownia+instalacyjno-grzewcza/data=!4m7!3m6!1s0x4704469d8c921f19:0xb4228fd2f692e498!8m2!3d52.4226984!4d16.7862403!16s%2Fg%2F11g_qfcwd!19sChIJGR-SjJ1GBEcRmOSS9tKPIrQ?authuser=0&hl=tr&rclk=1",
    "website_url": "",
    "rating_text": "3,8",
    "stars": null,
    "number_of_reviews": null,
    "price_level": "",
    "open_hours": "",
    "extraction_timestamp": "2025-06-07T17:43:48.727Z",
    "source_name": "google",
    "source_query": "Irrigation Equipment",
    "source_country": "PL",
    "country": "Poland",
    "state": "Greater Poland Voivodeship",
    "city": "Buk"
  },
  {
    "source_id": "ChIJqfkoPGBFBEcRMcStW1CpLKM",
    "name": "Castorama",
    "category": "Castorama",
    "formatted_address": "4,4(6.394)",
    "phone_number": "+48618348100",
    "source_url": "https://www.google.com/maps/place/Castorama/data=!4m7!3m6!1s0x470445603c28f9a9:0xa32ca9505badc431!8m2!3d52.3567987!4d16.8435038!16s%2Fg%2F11fzvm6wkq!19sChIJqfkoPGBFBEcRMcStW1CpLKM?authuser=0&hl=tr&rclk=1",
    "website_url": "",
    "rating_text": "4,4",
    "stars": null,
    "number_of_reviews": null,
    "price_level": "",
    "open_hours": "",
    "extraction_timestamp": "2025-06-07T17:43:48.729Z",
    "source_name": "google",
    "source_query": "Irrigation Equipment",
    "source_country": "PL",
    "country": "Poland",
    "state": "Greater Poland Voivodeship",
    "city": "Buk"
  }
]
