[
  {
    "source_id": "ChIJiXhpci_yA0cRgAxAh7JSJ9w",
    "name": "Hydro - Projekt Dariusz Majchrzak",
    "category": "Hydro - Projekt Dariusz Majchrzak",
    "formatted_address": "4,4(41)",
    "phone_number": "+48720520420",
    "source_url": "https://www.google.com/maps/place/Hydro+-+Projekt+Dariusz+Majchrzak/data=!4m7!3m6!1s0x4703f22f72697889:0xdc2752b287400c80!8m2!3d53.0195783!4d16.9043985!16s%2Fg%2F11cnb49vbn!19sChIJiXhpci_yA0cRgAxAh7JSJ9w?authuser=0&hl=tr&rclk=1",
    "website_url": "",
    "rating_text": "4,4",
    "stars": null,
    "number_of_reviews": null,
    "price_level": "",
    "open_hours": "",
    "extraction_timestamp": "2025-06-07T17:28:10.220Z",
    "source_name": "google",
    "source_query": "Irrigation Equipment",
    "source_country": "PL",
    "country": "Poland",
    "state": "Greater Poland Voivodeship",
    "city": "Chodzież"
  },
  {
    "source_id": "ChIJIxomosnzA0cRnwrke3K35fM",
    "name": "Kaczmarek M. Napoje",
    "category": "Kaczmarek M. Napoje",
    "formatted_address": "5,0(4)",
    "phone_number": "+48672820883",
    "source_url": "https://www.google.com/maps/place/Kaczmarek+M.+Napoje/data=!4m7!3m6!1s0x4703f3c9a2261a23:0xf3e5b7727be40a9f!8m2!3d52.9986822!4d16.9147052!16s%2Fg%2F1v1vbx4h!19sChIJIxomosnzA0cRnwrke3K35fM?authuser=0&hl=tr&rclk=1",
    "website_url": "",
    "rating_text": "5,0",
    "stars": null,
    "number_of_reviews": null,
    "price_level": "",
    "open_hours": "",
    "extraction_timestamp": "2025-06-07T17:28:10.221Z",
    "source_name": "google",
    "source_query": "Irrigation Equipment",
    "source_country": "PL",
    "country": "Poland",
    "state": "Greater Poland Voivodeship",
    "city": "Chodzież"
  },
  {
    "source_id": "ChIJNwfQpoLzA0cRYk5CNORPMnw",
    "name": "Bricomarché",
    "category": "Bricomarché",
    "formatted_address": "4,1(525)",
    "phone_number": "+48509197425",
    "source_url": "https://www.google.com/maps/place/Bricomarch%C3%A9/data=!4m7!3m6!1s0x4703f382a6d00737:0x7c324fe434424e62!8m2!3d52.9865174!4d16.9208509!16s%2Fg%2F11fn1h21cn!19sChIJNwfQpoLzA0cRYk5CNORPMnw?authuser=0&hl=tr&rclk=1",
    "website_url": "",
    "rating_text": "4,1",
    "stars": null,
    "number_of_reviews": null,
    "price_level": "",
    "open_hours": "",
    "extraction_timestamp": "2025-06-07T17:28:10.250Z",
    "source_name": "google",
    "source_query": "Irrigation Equipment",
    "source_country": "PL",
    "country": "Poland",
    "state": "Greater Poland Voivodeship",
    "city": "Chodzież"
  },
  {
    "source_id": "ChIJpwrrdooJiEoR9sGCYtDw7fY",
    "name": "Expert Gaz Arkadiusz Spychalski. Serwis urządzeń grzewczych",
    "category": "Expert Gaz Arkadiusz Spychalski. Serwis urządzeń grzewczych",
    "formatted_address": "5,0(14)",
    "phone_number": "+48880468846",
    "source_url": "https://www.google.com/maps/place/Expert+Gaz+Arkadiusz+Spychalski.+Serwis+urz%C4%85dze%C5%84+grzewczych/data=!4m7!3m6!1s0x4a88098a76eb0aa7:0xf6edf0d06282c1f6!8m2!3d53.0162058!4d16.9529053!16s%2Fg%2F11l1y2d3dq!19sChIJpwrrdooJiEoR9sGCYtDw7fY?authuser=0&hl=tr&rclk=1",
    "website_url": "",
    "rating_text": "5,0",
    "stars": null,
    "number_of_reviews": null,
    "price_level": "",
    "open_hours": "",
    "extraction_timestamp": "2025-06-07T17:28:10.251Z",
    "source_name": "google",
    "source_query": "Irrigation Equipment",
    "source_country": "PL",
    "country": "Poland",
    "state": "Greater Poland Voivodeship",
    "city": "Chodzież"
  },
  {
    "source_id": "ChIJsdOeR8bzA0cRw-PVBPt0Yjo",
    "name": "ALKON s.c.",
    "category": "ALKON s.c.",
    "formatted_address": "4,7(13)",
    "phone_number": "+48693252502",
    "source_url": "https://www.google.com/maps/place/ALKON+s.c./data=!4m7!3m6!1s0x4703f3c6479ed3b1:0x3a6274fb04d5e3c3!8m2!3d52.9934791!4d16.9100991!16s%2Fg%2F1tglxpfq!19sChIJsdOeR8bzA0cRw-PVBPt0Yjo?authuser=0&hl=tr&rclk=1",
    "website_url": "",
    "rating_text": "4,7",
    "stars": null,
    "number_of_reviews": null,
    "price_level": "",
    "open_hours": "",
    "extraction_timestamp": "2025-06-07T17:28:10.252Z",
    "source_name": "google",
    "source_query": "Irrigation Equipment",
    "source_country": "PL",
    "country": "Poland",
    "state": "Greater Poland Voivodeship",
    "city": "Chodzież"
  },
  {
    "source_id": "ChIJW_gAhpjzA0cRRKK6Sfe-VYU",
    "name": "Hydraulik Chodzież.",
    "category": "Hydraulik Chodzież.",
    "formatted_address": "5,0(4)",
    "phone_number": "+48502002021",
    "source_url": "https://www.google.com/maps/place/Hydraulik+Chodzie%C5%BC./data=!4m7!3m6!1s0x4703f3988600f85b:0x8555bef749baa244!8m2!3d52.9999555!4d16.912017!16s%2Fg%2F11x7y_ppjr!19sChIJW_gAhpjzA0cRRKK6Sfe-VYU?authuser=0&hl=tr&rclk=1",
    "website_url": "",
    "rating_text": "5,0",
    "stars": null,
    "number_of_reviews": null,
    "price_level": "",
    "open_hours": "",
    "extraction_timestamp": "2025-06-07T17:28:10.253Z",
    "source_name": "google",
    "source_query": "Irrigation Equipment",
    "source_country": "PL",
    "country": "Poland",
    "state": "Greater Poland Voivodeship",
    "city": "Chodzież"
  },
  {
    "source_id": "ChIJvzzfhbjzA0cRFyJ_xmGh2Wo",
    "name": "Akara. Kostrzewa-Lewińska I.",
    "category": "Akara. Kostrzewa-Lewińska I.",
    "formatted_address": "4,7(156)",
    "phone_number": "+48605369830",
    "source_url": "https://www.google.com/maps/place/Akara.+Kostrzewa-Lewi%C5%84ska+I./data=!4m7!3m6!1s0x4703f3b885df3cbf:0x6ad9a161c67f2217!8m2!3d52.9913938!4d16.9155723!16s%2Fg%2F1tjs3n24!19sChIJvzzfhbjzA0cRFyJ_xmGh2Wo?authuser=0&hl=tr&rclk=1",
    "website_url": "",
    "rating_text": "4,7",
    "stars": null,
    "number_of_reviews": null,
    "price_level": "",
    "open_hours": "",
    "extraction_timestamp": "2025-06-07T17:28:10.253Z",
    "source_name": "google",
    "source_query": "Irrigation Equipment",
    "source_country": "PL",
    "country": "Poland",
    "state": "Greater Poland Voivodeship",
    "city": "Chodzież"
  },
  {
    "source_id": "ChIJdbglSL_zA0cREY__PlJEaME",
    "name": "Livio Artykuły Spożywce",
    "category": "Livio Artykuły Spożywce",
    "formatted_address": "4,9(14)",
    "phone_number": "+48531635474",
    "source_url": "https://www.google.com/maps/place/Livio+Artyku%C5%82y+Spo%C5%BCywce/data=!4m7!3m6!1s0x4703f3bf4825b875:0xc16844523eff8f11!8m2!3d52.9884975!4d16.9141965!16s%2Fg%2F11rs0jcpjc!19sChIJdbglSL_zA0cREY__PlJEaME?authuser=0&hl=tr&rclk=1",
    "website_url": "",
    "rating_text": "4,9",
    "stars": null,
    "number_of_reviews": null,
    "price_level": "",
    "open_hours": "",
    "extraction_timestamp": "2025-06-07T17:28:10.254Z",
    "source_name": "google",
    "source_query": "Irrigation Equipment",
    "source_country": "PL",
    "country": "Poland",
    "state": "Greater Poland Voivodeship",
    "city": "Chodzież"
  },
  {
    "source_id": "ChIJV67NQPTyA0cR2wEiNiSZHvA",
    "name": "KanVex Alexander Alva",
    "category": "KanVex Alexander Alva",
    "formatted_address": "4,5(52)",
    "phone_number": "+48535758955",
    "source_url": "https://www.google.com/maps/place/KanVex+Alexander+Alva/data=!4m7!3m6!1s0x4703f2f440cdae57:0xf01e9924362201db!8m2!3d52.9993903!4d16.9112752!16s%2Fg%2F11f3x68yv8!19sChIJV67NQPTyA0cR2wEiNiSZHvA?authuser=0&hl=tr&rclk=1",
    "website_url": "",
    "rating_text": "4,5",
    "stars": null,
    "number_of_reviews": null,
    "price_level": "",
    "open_hours": "",
    "extraction_timestamp": "2025-06-07T17:28:10.255Z",
    "source_name": "google",
    "source_query": "Irrigation Equipment",
    "source_country": "PL",
    "country": "Poland",
    "state": "Greater Poland Voivodeship",
    "city": "Chodzież"
  },
  {
    "source_id": "ChIJDZqipKjzA0cRfeYpoFFJi7c",
    "name": "P.H.U. Centrala Nasienna sp z o.o.",
    "category": "P.H.U. Centrala Nasienna sp z o.o.",
    "formatted_address": "5,0(1)",
    "phone_number": "+48672559092",
    "source_url": "https://www.google.com/maps/place/P.H.U.+Centrala+Nasienna+sp+z+o.o./data=!4m7!3m6!1s0x4703f3a8a4a29a0d:0xb78b4951a029e67d!8m2!3d52.996044!4d16.9244475!16s%2Fg%2F11vq3sjpl_!19sChIJDZqipKjzA0cRfeYpoFFJi7c?authuser=0&hl=tr&rclk=1",
    "website_url": "",
    "rating_text": "5,0",
    "stars": null,
    "number_of_reviews": null,
    "price_level": "",
    "open_hours": "",
    "extraction_timestamp": "2025-06-07T17:28:10.256Z",
    "source_name": "google",
    "source_query": "Irrigation Equipment",
    "source_country": "PL",
    "country": "Poland",
    "state": "Greater Poland Voivodeship",
    "city": "Chodzież"
  },
  {
    "source_id": "ChIJTQ3BysfzA0cRAqRjhVun7DE",
    "name": "Intermarche",
    "category": "Intermarche",
    "formatted_address": "4,3(225)",
    "phone_number": "",
    "source_url": "https://www.google.com/maps/place/Intermarche/data=!4m7!3m6!1s0x4703f3c7cac10d4d:0x31eca75b8563a402!8m2!3d52.9937024!4d16.9113304!16s%2Fg%2F11cst1yz6x!19sChIJTQ3BysfzA0cRAqRjhVun7DE?authuser=0&hl=tr&rclk=1",
    "website_url": "",
    "rating_text": "4,3",
    "stars": null,
    "number_of_reviews": null,
    "price_level": "",
    "open_hours": "",
    "extraction_timestamp": "2025-06-07T17:28:10.256Z",
    "source_name": "google",
    "source_query": "Irrigation Equipment",
    "source_country": "PL",
    "country": "Poland",
    "state": "Greater Poland Voivodeship",
    "city": "Chodzież"
  },
  {
    "source_id": "ChIJL7W5b7PzA0cR9QfgTyrDcfU",
    "name": "SPAWALNIK",
    "category": "SPAWALNIK",
    "formatted_address": "3,0(6)",
    "phone_number": "+48500422657",
    "source_url": "https://www.google.com/maps/place/SPAWALNIK/data=!4m7!3m6!1s0x4703f3b36fb9b52f:0xf571c32a4fe007f5!8m2!3d53.0014678!4d16.9300156!16s%2Fg%2F1hc74z0gd!19sChIJL7W5b7PzA0cR9QfgTyrDcfU?authuser=0&hl=tr&rclk=1",
    "website_url": "",
    "rating_text": "3,0",
    "stars": null,
    "number_of_reviews": null,
    "price_level": "",
    "open_hours": "",
    "extraction_timestamp": "2025-06-07T17:28:10.257Z",
    "source_name": "google",
    "source_query": "Irrigation Equipment",
    "source_country": "PL",
    "country": "Poland",
    "state": "Greater Poland Voivodeship",
    "city": "Chodzież"
  },
  {
    "source_id": "ChIJK1ijcS7zA0cR9c219OdSgQA",
    "name": "Martes Sport",
    "category": "Martes Sport",
    "formatted_address": "3,5(35)",
    "phone_number": "+48515858119",
    "source_url": "https://www.google.com/maps/place/Martes+Sport/data=!4m7!3m6!1s0x4703f32e71a3582b:0x8152e7f4b5cdf5!8m2!3d52.9870841!4d16.9201795!16s%2Fg%2F11gmfy64cd!19sChIJK1ijcS7zA0cR9c219OdSgQA?authuser=0&hl=tr&rclk=1",
    "website_url": "",
    "rating_text": "3,5",
    "stars": null,
    "number_of_reviews": null,
    "price_level": "",
    "open_hours": "",
    "extraction_timestamp": "2025-06-07T17:28:10.258Z",
    "source_name": "google",
    "source_query": "Irrigation Equipment",
    "source_country": "PL",
    "country": "Poland",
    "state": "Greater Poland Voivodeship",
    "city": "Chodzież"
  },
  {
    "source_id": "ChIJObSiHLbzA0cRg8LdCRxfcwY",
    "name": "Grosik",
    "category": "Grosik",
    "formatted_address": "4,3(74)",
    "phone_number": "+48672810951",
    "source_url": "https://www.google.com/maps/place/Grosik/data=!4m7!3m6!1s0x4703f3b61ca2b439:0x6735f1c09ddc283!8m2!3d52.99893!4d16.919168!16s%2Fg%2F1vyxh34d!19sChIJObSiHLbzA0cRg8LdCRxfcwY?authuser=0&hl=tr&rclk=1",
    "website_url": "",
    "rating_text": "4,3",
    "stars": null,
    "number_of_reviews": null,
    "price_level": "",
    "open_hours": "",
    "extraction_timestamp": "2025-06-07T17:28:10.259Z",
    "source_name": "google",
    "source_query": "Irrigation Equipment",
    "source_country": "PL",
    "country": "Poland",
    "state": "Greater Poland Voivodeship",
    "city": "Chodzież"
  },
  {
    "source_id": "ChIJSWoIfcfzA0cRLAswlDnP7Us",
    "name": "U Wołynia 24 H Sklep Spozywczo - Monopolowy",
    "category": "U Wołynia 24 H Sklep Spozywczo - Monopolowy",
    "formatted_address": "4,5(232)",
    "phone_number": "+48696488933",
    "source_url": "https://www.google.com/maps/place/U+Wo%C5%82ynia+24+H+Sklep+Spozywczo+-+Monopolowy/data=!4m7!3m6!1s0x4703f3c77d086a49:0x4bedcf3994300b2c!8m2!3d52.9914!4d16.9138361!16s%2Fg%2F11dz_xz390!19sChIJSWoIfcfzA0cRLAswlDnP7Us?authuser=0&hl=tr&rclk=1",
    "website_url": "",
    "rating_text": "4,5",
    "stars": null,
    "number_of_reviews": null,
    "price_level": "",
    "open_hours": "",
    "extraction_timestamp": "2025-06-07T17:28:10.260Z",
    "source_name": "google",
    "source_query": "Irrigation Equipment",
    "source_country": "PL",
    "country": "Poland",
    "state": "Greater Poland Voivodeship",
    "city": "Chodzież"
  },
  {
    "source_id": "ChIJXbTrYbjzA0cR9_QfT306EZ0",
    "name": "Kandziora Aneta. Handel art. perfumeryjno - chemiczno - tytoniowymi",
    "category": "Kandziora Aneta. Handel art. perfumeryjno - chemiczno - tytoniowymi",
    "formatted_address": "5,0(1)",
    "phone_number": "+48503081636",
    "source_url": "https://www.google.com/maps/place/Kandziora+Aneta.+Handel+art.+perfumeryjno+-+chemiczno+-+tytoniowymi/data=!4m7!3m6!1s0x4703f3b861ebb45d:0x9d113a7d4f1ff4f7!8m2!3d52.9916828!4d16.9157187!16s%2Fg%2F1tfjd7c2!19sChIJXbTrYbjzA0cR9_QfT306EZ0?authuser=0&hl=tr&rclk=1",
    "website_url": "",
    "rating_text": "5,0",
    "stars": null,
    "number_of_reviews": null,
    "price_level": "",
    "open_hours": "",
    "extraction_timestamp": "2025-06-07T17:28:10.261Z",
    "source_name": "google",
    "source_query": "Irrigation Equipment",
    "source_country": "PL",
    "country": "Poland",
    "state": "Greater Poland Voivodeship",
    "city": "Chodzież"
  },
  {
    "source_id": "ChIJl6KmuezzA0cRS5ck3DfdbQI",
    "name": "Sklep Leśna",
    "category": "Sklep Leśna",
    "formatted_address": "4,5(54)",
    "phone_number": "",
    "source_url": "https://www.google.com/maps/place/Sklep+Le%C5%9Bna/data=!4m7!3m6!1s0x4703f3ecb9a6a297:0x26ddd37dc24974b!8m2!3d52.9783763!4d16.9042768!16s%2Fg%2F11hbnfflws!19sChIJl6KmuezzA0cRS5ck3DfdbQI?authuser=0&hl=tr&rclk=1",
    "website_url": "",
    "rating_text": "4,5",
    "stars": null,
    "number_of_reviews": null,
    "price_level": "",
    "open_hours": "",
    "extraction_timestamp": "2025-06-07T17:28:10.261Z",
    "source_name": "google",
    "source_query": "Irrigation Equipment",
    "source_country": "PL",
    "country": "Poland",
    "state": "Greater Poland Voivodeship",
    "city": "Chodzież"
  },
  {
    "source_id": "ChIJ-zw9UcfzA0cRkBtqXzZelVU",
    "name": "Stachowiak Zdzisław. Warzywa, owoce i art. spożywcze",
    "category": "Stachowiak Zdzisław. Warzywa, owoce i art. spożywcze",
    "formatted_address": "Stachowiak Zdzisław. Warzywa, owoce i art. spożywcze",
    "phone_number": "+48672821301",
    "source_url": "https://www.google.com/maps/place/Stachowiak+Zdzis%C5%82aw.+Warzywa,+owoce+i+art.+spo%C5%BCywcze/data=!4m7!3m6!1s0x4703f3c7513d3cfb:0x55955e365f6a1b90!8m2!3d52.989855!4d16.912234!16s%2Fg%2F1ptxshvvy!19sChIJ-zw9UcfzA0cRkBtqXzZelVU?authuser=0&hl=tr&rclk=1",
    "website_url": "",
    "rating_text": "4,7",
    "stars": null,
    "number_of_reviews": null,
    "price_level": "",
    "open_hours": "",
    "extraction_timestamp": "2025-06-07T17:28:10.262Z",
    "source_name": "google",
    "source_query": "Irrigation Equipment",
    "source_country": "PL",
    "country": "Poland",
    "state": "Greater Poland Voivodeship",
    "city": "Chodzież"
  },
  {
    "source_id": "ChIJefaA9k_zA0cRQGpQXN3ulFs",
    "name": "Hydrostar Sławomir Starosta",
    "category": "Hydrostar Sławomir Starosta",
    "formatted_address": "",
    "phone_number": "+48508030410",
    "source_url": "https://www.google.com/maps/place/Hydrostar+S%C5%82awomir+Starosta/data=!4m7!3m6!1s0x4703f34ff680f679:0x5b94eedd5c506a40!8m2!3d52.9982559!4d16.9177972!16s%2Fg%2F11y90zt6y1!19sChIJefaA9k_zA0cRQGpQXN3ulFs?authuser=0&hl=tr&rclk=1",
    "website_url": "",
    "rating_text": "",
    "stars": null,
    "number_of_reviews": null,
    "price_level": "",
    "open_hours": "",
    "extraction_timestamp": "2025-06-07T17:28:10.262Z",
    "source_name": "google",
    "source_query": "Irrigation Equipment",
    "source_country": "PL",
    "country": "Poland",
    "state": "Greater Poland Voivodeship",
    "city": "Chodzież"
  },
  {
    "source_id": "ChIJUfn2Ig35A0cREW9fZ4029UM",
    "name": "IMTechnika sp. z o.o.",
    "category": "IMTechnika sp. z o.o.",
    "formatted_address": "4,4(17)",
    "phone_number": "+48883820388",
    "source_url": "https://www.google.com/maps/place/IMTechnika+sp.+z+o.o./data=!4m7!3m6!1s0x4703f90d22f6f951:0x43f5368d675f6f11!8m2!3d52.9756271!4d16.657836!16s%2Fg%2F11bw48_6mg!19sChIJUfn2Ig35A0cREW9fZ4029UM?authuser=0&hl=tr&rclk=1",
    "website_url": "",
    "rating_text": "4,4",
    "stars": null,
    "number_of_reviews": null,
    "price_level": "",
    "open_hours": "",
    "extraction_timestamp": "2025-06-07T17:28:10.263Z",
    "source_name": "google",
    "source_query": "Irrigation Equipment",
    "source_country": "PL",
    "country": "Poland",
    "state": "Greater Poland Voivodeship",
    "city": "Chodzież"
  },
  {
    "source_id": "ChIJtSXoBuTzA0cRHGN3Rbf-p8I",
    "name": "Dino",
    "category": "Dino",
    "formatted_address": "4,4(58)",
    "phone_number": "",
    "source_url": "https://www.google.com/maps/place/Dino/data=!4m7!3m6!1s0x4703f3e406e825b5:0xc2a7feb74577631c!8m2!3d52.9836259!4d16.9210489!16s%2Fg%2F11t8kz6p5f!19sChIJtSXoBuTzA0cRHGN3Rbf-p8I?authuser=0&hl=tr&rclk=1",
    "website_url": "",
    "rating_text": "4,4",
    "stars": null,
    "number_of_reviews": null,
    "price_level": "",
    "open_hours": "",
    "extraction_timestamp": "2025-06-07T17:28:10.264Z",
    "source_name": "google",
    "source_query": "Irrigation Equipment",
    "source_country": "PL",
    "country": "Poland",
    "state": "Greater Poland Voivodeship",
    "city": "Chodzież"
  },
  {
    "source_id": "ChIJQ9JOZ8fzA0cRyXrmMHHkbiI",
    "name": "Pepco",
    "category": "Pepco",
    "formatted_address": "4,5(64)",
    "phone_number": "",
    "source_url": "https://www.google.com/maps/place/Pepco/data=!4m7!3m6!1s0x4703f3c7674ed243:0x226ee47130e67ac9!8m2!3d52.9871081!4d16.9210736!16s%2Fg%2F1hc3c0bwd!19sChIJQ9JOZ8fzA0cRyXrmMHHkbiI?authuser=0&hl=tr&rclk=1",
    "website_url": "",
    "rating_text": "4,5",
    "stars": null,
    "number_of_reviews": null,
    "price_level": "",
    "open_hours": "",
    "extraction_timestamp": "2025-06-07T17:28:10.264Z",
    "source_name": "google",
    "source_query": "Irrigation Equipment",
    "source_country": "PL",
    "country": "Poland",
    "state": "Greater Poland Voivodeship",
    "city": "Chodzież"
  },
  {
    "source_id": "ChIJK2p-5VvFA0cR-m61JAvn2L0",
    "name": "Hebe",
    "category": "Hebe",
    "formatted_address": "4,5(183)",
    "phone_number": "+48222065400",
    "source_url": "https://www.google.com/maps/place/Hebe/data=!4m7!3m6!1s0x4703c55be57e6a2b:0xbdd8e70b24b56efa!8m2!3d52.9869823!4d16.9203749!16s%2Fg%2F11gvy0_9x4!19sChIJK2p-5VvFA0cR-m61JAvn2L0?authuser=0&hl=tr&rclk=1",
    "website_url": "",
    "rating_text": "4,5",
    "stars": null,
    "number_of_reviews": null,
    "price_level": "",
    "open_hours": "",
    "extraction_timestamp": "2025-06-07T17:28:10.265Z",
    "source_name": "google",
    "source_query": "Irrigation Equipment",
    "source_country": "PL",
    "country": "Poland",
    "state": "Greater Poland Voivodeship",
    "city": "Chodzież"
  },
  {
    "source_id": "ChIJF4KGeMnzA0cRgA4ItMhnR8Q",
    "name": "Sezam Sp. z o.o. Zakład piekarniczy",
    "category": "Sezam Sp. z o.o. Zakład piekarniczy",
    "formatted_address": "4,3(72) · ₺",
    "phone_number": "+48672820262",
    "source_url": "https://www.google.com/maps/place/Sezam+Sp.+z+o.o.+Zak%C5%82ad+piekarniczy/data=!4m7!3m6!1s0x4703f3c978868217:0xc44767c8b4080e80!8m2!3d52.9988414!4d16.9135536!16s%2Fg%2F1w0p49tq!19sChIJF4KGeMnzA0cRgA4ItMhnR8Q?authuser=0&hl=tr&rclk=1",
    "website_url": "",
    "rating_text": "4,3",
    "stars": null,
    "number_of_reviews": null,
    "price_level": "",
    "open_hours": "",
    "extraction_timestamp": "2025-06-07T17:28:10.266Z",
    "source_name": "google",
    "source_query": "Irrigation Equipment",
    "source_country": "PL",
    "country": "Poland",
    "state": "Greater Poland Voivodeship",
    "city": "Chodzież"
  },
  {
    "source_id": "ChIJ71iXt7nzA0cRkUsHBwrQuc0",
    "name": "Drogeria Rossmann",
    "category": "Drogeria Rossmann",
    "formatted_address": "4,5(351)",
    "phone_number": "+48426139700",
    "source_url": "https://www.google.com/maps/place/Drogeria+Rossmann/data=!4m7!3m6!1s0x4703f3b9b79758ef:0xcdb9d00a07074b91!8m2!3d52.992253!4d16.91956!16s%2Fg%2F1v27t5vd!19sChIJ71iXt7nzA0cRkUsHBwrQuc0?authuser=0&hl=tr&rclk=1",
    "website_url": "",
    "rating_text": "4,5",
    "stars": null,
    "number_of_reviews": null,
    "price_level": "",
    "open_hours": "",
    "extraction_timestamp": "2025-06-07T17:28:10.267Z",
    "source_name": "google",
    "source_query": "Irrigation Equipment",
    "source_country": "PL",
    "country": "Poland",
    "state": "Greater Poland Voivodeship",
    "city": "Chodzież"
  },
  {
    "source_id": "ChIJicaq3j_zA0cRFZe7RPVs5KQ",
    "name": "automyjnia_pch",
    "category": "automyjnia_pch",
    "formatted_address": "4,7(122)",
    "phone_number": "+48508141219",
    "source_url": "https://www.google.com/maps/place/automyjnia_pch/data=!4m7!3m6!1s0x4703f33fdeaac689:0xa4e46cf544bb9715!8m2!3d52.9898605!4d16.9201793!16s%2Fg%2F11q23krms6!19sChIJicaq3j_zA0cRFZe7RPVs5KQ?authuser=0&hl=tr&rclk=1",
    "website_url": "",
    "rating_text": "4,7",
    "stars": null,
    "number_of_reviews": null,
    "price_level": "",
    "open_hours": "",
    "extraction_timestamp": "2025-06-07T17:28:10.268Z",
    "source_name": "google",
    "source_query": "Irrigation Equipment",
    "source_country": "PL",
    "country": "Poland",
    "state": "Greater Poland Voivodeship",
    "city": "Chodzież"
  },
  {
    "source_id": "ChIJY8cslk-LA0cRaOKNT4djDj0",
    "name": "Zakuwanie Węży Hydraulicznych Jędruś",
    "category": "Zakuwanie Węży Hydraulicznych Jędruś",
    "formatted_address": "5,0(11)",
    "phone_number": "+48603049940",
    "source_url": "https://www.google.com/maps/place/Zakuwanie+W%C4%99%C5%BCy+Hydraulicznych+J%C4%99dru%C5%9B/data=!4m7!3m6!1s0x47038b4f962cc763:0x3d0e63874f8de268!8m2!3d52.8964115!4d16.9791463!16s%2Fg%2F11y1sg_qm2!19sChIJY8cslk-LA0cRaOKNT4djDj0?authuser=0&hl=tr&rclk=1",
    "website_url": "",
    "rating_text": "5,0",
    "stars": null,
    "number_of_reviews": null,
    "price_level": "",
    "open_hours": "",
    "extraction_timestamp": "2025-06-07T17:28:10.269Z",
    "source_name": "google",
    "source_query": "Irrigation Equipment",
    "source_country": "PL",
    "country": "Poland",
    "state": "Greater Poland Voivodeship",
    "city": "Chodzież"
  },
  {
    "source_id": "ChIJnb-GFLnzA0cRgDlzIc7DFgI",
    "name": "Multus Set s.c. Jóźwiak J.P.",
    "category": "Multus Set s.c. Jóźwiak J.P.",
    "formatted_address": "3,8(5)",
    "phone_number": "+48673818091",
    "source_url": "https://www.google.com/maps/place/Multus+Set+s.c.+J%C3%B3%C5%BAwiak+J.P./data=!4m7!3m6!1s0x4703f3b91486bf9d:0x216c3ce21733980!8m2!3d52.9901021!4d16.9190154!16s%2Fg%2F1hc7qn3nw!19sChIJnb-GFLnzA0cRgDlzIc7DFgI?authuser=0&hl=tr&rclk=1",
    "website_url": "",
    "rating_text": "3,8",
    "stars": null,
    "number_of_reviews": null,
    "price_level": "",
    "open_hours": "",
    "extraction_timestamp": "2025-06-07T17:28:10.271Z",
    "source_name": "google",
    "source_query": "Irrigation Equipment",
    "source_country": "PL",
    "country": "Poland",
    "state": "Greater Poland Voivodeship",
    "city": "Chodzież"
  }
]
