[
  {
    "source_id": "ChIJB6y_v5J2HEcRlDfYx3xmc9M",
    "name": "Milex irrigation systems",
    "category": "Milex irrigation systems",
    "formatted_address": "4,6(37)",
    "phone_number": "+48242775222",
    "source_url": "https://www.google.com/maps/place/Milex+irrigation+systems/data=!4m7!3m6!1s0x471c7692bfbfac07:0xd373667cc7d83794!8m2!3d52.4690634!4d19.7520904!16s%2Fg%2F1w2yy67r!19sChIJB6y_v5J2HEcRlDfYx3xmc9M?authuser=0&hl=tr&rclk=1",
    "website_url": "https://www.milex.pl/",
    "rating_text": "4,6",
    "stars": null,
    "number_of_reviews": null,
    "price_level": "",
    "open_hours": "",
    "extraction_timestamp": "2025-06-07T17:38:44.290Z",
    "source_name": "google",
    "source_query": "Irrigation Equipment",
    "source_country": "PL",
    "country": "Poland",
    "state": "Greater Poland Voivodeship",
    "city": "Chodów"
  },
  {
    "source_id": "ChIJDyBBn7pzG0cRjYP6R2p9hKU",
    "name": "Lewiatan",
    "category": "Lewiatan",
    "formatted_address": "4,0(61)",
    "phone_number": "",
    "source_url": "https://www.google.com/maps/place/Lewiatan/data=!4m7!3m6!1s0x471b73ba9f41200f:0xa5847d6a47fa838d!8m2!3d52.2492639!4d19.0133117!16s%2Fg%2F11cspx95ng!19sChIJDyBBn7pzG0cRjYP6R2p9hKU?authuser=0&hl=tr&rclk=1",
    "website_url": "http://www.lewiatan.pl/",
    "rating_text": "4,0",
    "stars": null,
    "number_of_reviews": null,
    "price_level": "",
    "open_hours": "",
    "extraction_timestamp": "2025-06-07T17:38:44.290Z",
    "source_name": "google",
    "source_query": "Irrigation Equipment",
    "source_country": "PL",
    "country": "Poland",
    "state": "Greater Poland Voivodeship",
    "city": "Chodów"
  },
  {
    "source_id": "ChIJv2OZP-OlD0cRxevhZwqbfLA",
    "name": "Polboto",
    "category": "Polboto",
    "formatted_address": "4,6(94)",
    "phone_number": "+48767560050",
    "source_url": "https://www.google.com/maps/place/Polboto/data=!4m7!3m6!1s0x470fa5e33f9963bf:0xb07c9b0a67e1ebc5!8m2!3d51.0377606!4d16.4465299!16s%2Fg%2F1vs5vffr!19sChIJv2OZP-OlD0cRxevhZwqbfLA?authuser=0&hl=tr&rclk=1",
    "website_url": "https://polboto.agrihandler.pl/",
    "rating_text": "4,6",
    "stars": null,
    "number_of_reviews": null,
    "price_level": "",
    "open_hours": "",
    "extraction_timestamp": "2025-06-07T17:38:44.291Z",
    "source_name": "google",
    "source_query": "Irrigation Equipment",
    "source_country": "PL",
    "country": "Poland",
    "state": "Greater Poland Voivodeship",
    "city": "Chodów"
  },
  {
    "source_id": "ChIJpxaaxWNZGUcRjjHprTFlLV8",
    "name": "Hydro-System Waldemar Zimiński",
    "category": "Hydro-System Waldemar Zimiński",
    "formatted_address": "4,5(15)",
    "phone_number": "+48468568476",
    "source_url": "https://www.google.com/maps/place/Hydro-System+Waldemar+Zimi%C5%84ski/data=!4m7!3m6!1s0x47195963c59a16a7:0x5f2d6531ade9318e!8m2!3d52.1203185!4d20.3763374!16s%2Fg%2F1tf5jcy0!19sChIJpxaaxWNZGUcRjjHprTFlLV8?authuser=0&hl=tr&rclk=1",
    "website_url": "https://www.hydros.com.pl/",
    "rating_text": "4,5",
    "stars": null,
    "number_of_reviews": null,
    "price_level": "",
    "open_hours": "",
    "extraction_timestamp": "2025-06-07T17:38:44.308Z",
    "source_name": "google",
    "source_query": "Irrigation Equipment",
    "source_country": "PL",
    "country": "Poland",
    "state": "Greater Poland Voivodeship",
    "city": "Chodów"
  },
  {
    "source_id": "ChIJk1VdEypzG0cRPJ7dZT8XSDo",
    "name": "Sklep spożywczo przemysłowy",
    "category": "Sklep spożywczo przemysłowy",
    "formatted_address": "4,8(11)",
    "phone_number": "",
    "source_url": "https://www.google.com/maps/place/Sklep+spo%C5%BCywczo+przemys%C5%82owy/data=!4m7!3m6!1s0x471b732a135d5593:0x3a48173f65dd9e3c!8m2!3d52.235134!4d19.052709!16s%2Fg%2F11h__ymsp6!19sChIJk1VdEypzG0cRPJ7dZT8XSDo?authuser=0&hl=tr&rclk=1",
    "website_url": "",
    "rating_text": "4,8",
    "stars": null,
    "number_of_reviews": null,
    "price_level": "",
    "open_hours": "",
    "extraction_timestamp": "2025-06-07T17:38:44.309Z",
    "source_name": "google",
    "source_query": "Irrigation Equipment",
    "source_country": "PL",
    "country": "Poland",
    "state": "Greater Poland Voivodeship",
    "city": "Chodów"
  },
  {
    "source_id": "ChIJ_xy9ltqbG0cRfduTNnDyAOw",
    "name": "Polsad Agroma Sp. o.o.",
    "category": "Polsad Agroma Sp. o.o.",
    "formatted_address": "4,5(216)",
    "phone_number": "+48789409130",
    "source_url": "https://www.google.com/maps/place/Polsad+Agroma+Sp.+o.o./data=!4m7!3m6!1s0x471b9bda96bd1cff:0xec00f2703693db7d!8m2!3d52.2229409!4d19.4167943!16s%2Fg%2F1tf_m18n!19sChIJ_xy9ltqbG0cRfduTNnDyAOw?authuser=0&hl=tr&rclk=1",
    "website_url": "http://www.agroma-poznan.pl/",
    "rating_text": "4,5",
    "stars": null,
    "number_of_reviews": null,
    "price_level": "",
    "open_hours": "",
    "extraction_timestamp": "2025-06-07T17:38:44.310Z",
    "source_name": "google",
    "source_query": "Irrigation Equipment",
    "source_country": "PL",
    "country": "Poland",
    "state": "Greater Poland Voivodeship",
    "city": "Chodów"
  },
  {
    "source_id": "ChIJBZYko3ZzG0cRjxoVQRbp-oA",
    "name": "Sklep Spożywczo-przemysłowy Węglarek M.,Faracik D.",
    "category": "Sklep Spożywczo-przemysłowy Węglarek M.,Faracik D.",
    "formatted_address": "Sklep Spożywczo-przemysłowy Węglarek M.,Faracik D.",
    "phone_number": "+48604101143",
    "source_url": "https://www.google.com/maps/place/Sklep+Spo%C5%BCywczo-przemys%C5%82owy+W%C4%99glarek+M.,Faracik+D./data=!4m7!3m6!1s0x471b7376a3249605:0x80fae91641151a8f!8m2!3d52.2292936!4d19.02573!16s%2Fg%2F11c5446g10!19sChIJBZYko3ZzG0cRjxoVQRbp-oA?authuser=0&hl=tr&rclk=1",
    "website_url": "",
    "rating_text": "4,7",
    "stars": null,
    "number_of_reviews": null,
    "price_level": "",
    "open_hours": "",
    "extraction_timestamp": "2025-06-07T17:38:44.311Z",
    "source_name": "google",
    "source_query": "Irrigation Equipment",
    "source_country": "PL",
    "country": "Poland",
    "state": "Greater Poland Voivodeship",
    "city": "Chodów"
  },
  {
    "source_id": "ChIJVTV3W_PzBEcR6gY0xwQi2_E",
    "name": "Deszczownie.com",
    "category": "Deszczownie.com",
    "formatted_address": "",
    "phone_number": "+48726000030",
    "source_url": "https://www.google.com/maps/place/Deszczownie.com/data=!4m7!3m6!1s0x4704f3f35b773555:0xf1db2204c73406ea!8m2!3d52.3623948!4d17.4021087!16s%2Fg%2F11y3pv4rxr!19sChIJVTV3W_PzBEcR6gY0xwQi2_E?authuser=0&hl=tr&rclk=1",
    "website_url": "https://www.deszczownie.com/",
    "rating_text": "",
    "stars": null,
    "number_of_reviews": null,
    "price_level": "",
    "open_hours": "",
    "extraction_timestamp": "2025-06-07T17:38:44.312Z",
    "source_name": "google",
    "source_query": "Irrigation Equipment",
    "source_country": "PL",
    "country": "Poland",
    "state": "Greater Poland Voivodeship",
    "city": "Chodów"
  },
  {
    "source_id": "ChIJ76WAmPBgGUcRnx47bXjXTwU",
    "name": "Agrofim Poland Sp. z o.o.",
    "category": "Agrofim Poland Sp. z o.o.",
    "formatted_address": "3,8(6)",
    "phone_number": "+48468332266",
    "source_url": "https://www.google.com/maps/place/Agrofim+Poland+Sp.+z+o.o./data=!4m7!3m6!1s0x471960f09880a5ef:0x54fd7786d3b1e9f!8m2!3d51.9616303!4d20.1543898!16s%2Fg%2F1tdnjw7b!19sChIJ76WAmPBgGUcRnx47bXjXTwU?authuser=0&hl=tr&rclk=1",
    "website_url": "http://agrofim.pl/",
    "rating_text": "3,8",
    "stars": null,
    "number_of_reviews": null,
    "price_level": "",
    "open_hours": "",
    "extraction_timestamp": "2025-06-07T17:38:44.313Z",
    "source_name": "google",
    "source_query": "Irrigation Equipment",
    "source_country": "PL",
    "country": "Poland",
    "state": "Greater Poland Voivodeship",
    "city": "Chodów"
  }
]
