[
  {
    "source_id": "ChIJdY29fyWgBkcRifCgGSMfRug",
    "name": "INSTALBUD Michał Prędki",
    "category": "INSTALBUD Michał Prędki",
    "formatted_address": "4,1(13)",
    "phone_number": "+48501322851",
    "source_url": "https://www.google.com/maps/place/INSTALBUD+Micha%C5%82+Pr%C4%99dki/data=!4m7!3m6!1s0x4706a0257fbd8d75:0xe8461f2319a0f089!8m2!3d52.627724!4d16.2203489!16s%2Fg%2F1pty_zc67!19sChIJdY29fyWgBkcRifCgGSMfRug?authuser=0&hl=tr&rclk=1",
    "website_url": "http://www.instalbud-predki.pl/",
    "rating_text": "4,1",
    "stars": null,
    "number_of_reviews": null,
    "price_level": "",
    "open_hours": "",
    "extraction_timestamp": "2025-06-07T17:33:58.115Z",
    "source_name": "google",
    "source_query": "Irrigation Equipment",
    "source_country": "PL",
    "country": "Poland",
    "state": "Greater Poland Voivodeship",
    "city": "Chrzypsko Wielkie"
  },
  {
    "source_id": "ChIJbQUkjuehBkcRU8xx1rIh4HI",
    "name": "Usługi Instalacyjne Marcin Kukucki",
    "category": "Usługi Instalacyjne Marcin Kukucki",
    "formatted_address": "5,0(2)",
    "phone_number": "+48724513882",
    "source_url": "https://www.google.com/maps/place/Us%C5%82ugi+Instalacyjne+Marcin+Kukucki/data=!4m7!3m6!1s0x4706a1e78e24056d:0x72e021b2d671cc53!8m2!3d52.631093!4d16.213167!16s%2Fg%2F11fslnwx2v!19sChIJbQUkjuehBkcRU8xx1rIh4HI?authuser=0&hl=tr&rclk=1",
    "website_url": "",
    "rating_text": "5,0",
    "stars": null,
    "number_of_reviews": null,
    "price_level": "",
    "open_hours": "",
    "extraction_timestamp": "2025-06-07T17:33:58.117Z",
    "source_name": "google",
    "source_query": "Irrigation Equipment",
    "source_country": "PL",
    "country": "Poland",
    "state": "Greater Poland Voivodeship",
    "city": "Chrzypsko Wielkie"
  },
  {
    "source_id": "ChIJ3zWW2DGgBkcR8NsT_Ka9Aro",
    "name": "Królik B. Centrum ogrodnicze",
    "category": "Królik B. Centrum ogrodnicze",
    "formatted_address": "4,6(46)",
    "phone_number": "+48612951009",
    "source_url": "https://www.google.com/maps/place/Kr%C3%B3lik+B.+Centrum+ogrodnicze/data=!4m7!3m6!1s0x4706a031d89635df:0xba02bda6fc13dbf0!8m2!3d52.6323977!4d16.2125443!16s%2Fg%2F1hc0z2tlk!19sChIJ3zWW2DGgBkcR8NsT_Ka9Aro?authuser=0&hl=tr&rclk=1",
    "website_url": "http://cebulki-kwiatowe.pl/",
    "rating_text": "4,6",
    "stars": null,
    "number_of_reviews": null,
    "price_level": "",
    "open_hours": "",
    "extraction_timestamp": "2025-06-07T17:33:58.119Z",
    "source_name": "google",
    "source_query": "Irrigation Equipment",
    "source_country": "PL",
    "country": "Poland",
    "state": "Greater Poland Voivodeship",
    "city": "Chrzypsko Wielkie"
  },
  {
    "source_id": "ChIJD4tH1yagBkcRQNXrrmSkPK8",
    "name": "Plaża w Chrzypsku Wielkim",
    "category": "Plaża w Chrzypsku Wielkim",
    "formatted_address": "4,5(328)",
    "phone_number": "",
    "source_url": "https://www.google.com/maps/place/Pla%C5%BCa+w+Chrzypsku+Wielkim/data=!4m7!3m6!1s0x4706a026d7478b0f:0xaf3ca464aeebd540!8m2!3d52.6240079!4d16.2160075!16s%2Fg%2F11g72z0067!19sChIJD4tH1yagBkcRQNXrrmSkPK8?authuser=0&hl=tr&rclk=1",
    "website_url": "",
    "rating_text": "4,5",
    "stars": null,
    "number_of_reviews": null,
    "price_level": "",
    "open_hours": "",
    "extraction_timestamp": "2025-06-07T17:33:58.120Z",
    "source_name": "google",
    "source_query": "Irrigation Equipment",
    "source_country": "PL",
    "country": "Poland",
    "state": "Greater Poland Voivodeship",
    "city": "Chrzypsko Wielkie"
  },
  {
    "source_id": "ChIJcUKYzCOgBkcR3tSPxJ9auuw",
    "name": "Garden Center “GRAŻYNKA”",
    "category": "Garden Center “GRAŻYNKA”",
    "formatted_address": "4,3(8)",
    "phone_number": "+48612951604",
    "source_url": "https://www.google.com/maps/place/Garden+Center+%E2%80%9CGRA%C5%BBYNKA%E2%80%9D/data=!4m7!3m6!1s0x4706a023cc984271:0xecba5a9fc48fd4de!8m2!3d52.6278551!4d16.2172274!16s%2Fg%2F1tdgt2rl!19sChIJcUKYzCOgBkcR3tSPxJ9auuw?authuser=0&hl=tr&rclk=1",
    "website_url": "http://www.cebulki-kwiatowe.pl/",
    "rating_text": "4,3",
    "stars": null,
    "number_of_reviews": null,
    "price_level": "",
    "open_hours": "",
    "extraction_timestamp": "2025-06-07T17:33:58.122Z",
    "source_name": "google",
    "source_query": "Irrigation Equipment",
    "source_country": "PL",
    "country": "Poland",
    "state": "Greater Poland Voivodeship",
    "city": "Chrzypsko Wielkie"
  }
]
