[
  {
    "source_id": "ChIJw8QPLtIABEcRSnudYYyp6GQ",
    "name": "Sanit-El Sp.J. Hurtownia materiałów instalacyjnych",
    "category": "Sanit-El Sp.J. Hurtownia materiałów instalacyjnych",
    "formatted_address": "4,7(27)",
    "phone_number": "+48672555214",
    "source_url": "https://www.google.com/maps/place/Sanit-El+Sp.J.+Hurtownia+materia%C5%82%C3%B3w+instalacyjnych/data=!4m7!3m6!1s0x470400d22e0fc4c3:0x64e8a98c619d7b4a!8m2!3d52.8917003!4d16.5449032!16s%2Fg%2F1tfjjv4j!19sChIJw8QPLtIABEcRSnudYYyp6GQ?authuser=0&hl=tr&rclk=1",
    "website_url": "",
    "rating_text": "4,7",
    "stars": null,
    "number_of_reviews": null,
    "price_level": "",
    "open_hours": "",
    "extraction_timestamp": "2025-06-07T17:56:40.943Z",
    "source_name": "google",
    "source_query": "Irrigation Equipment",
    "source_country": "PL",
    "country": "Poland",
    "state": "Greater Poland Voivodeship",
    "city": "Czarnków"
  },
  {
    "source_id": "ChIJ3739v0AHBEcRDXG7O8P9IaE",
    "name": "Bricomarché Czarnków",
    "category": "Bricomarché Czarnków",
    "formatted_address": "4,7(15)",
    "phone_number": "+48502392468",
    "source_url": "https://www.google.com/maps/place/Bricomarch%C3%A9+Czarnk%C3%B3w/data=!4m7!3m6!1s0x47040740bffdbddf:0xa121fdc33bbb710d!8m2!3d52.9105881!4d16.5690897!16s%2Fg%2F11ycsjdc9y!19sChIJ3739v0AHBEcRDXG7O8P9IaE?authuser=0&hl=tr&rclk=1",
    "website_url": "",
    "rating_text": "4,7",
    "stars": null,
    "number_of_reviews": null,
    "price_level": "",
    "open_hours": "",
    "extraction_timestamp": "2025-06-07T17:56:40.944Z",
    "source_name": "google",
    "source_query": "Irrigation Equipment",
    "source_country": "PL",
    "country": "Poland",
    "state": "Greater Poland Voivodeship",
    "city": "Czarnków"
  },
  {
    "source_id": "ChIJPYsaim5WAUcRTQ1pXWfOVec",
    "name": "Hydro Poland",
    "category": "Hydro Poland",
    "formatted_address": "3,7(87)",
    "phone_number": "+48673525105",
    "source_url": "https://www.google.com/maps/place/Hydro+Poland/data=!4m7!3m6!1s0x4701566e8a1a8b3d:0xe755ce675d690d4d!8m2!3d53.0401073!4d16.4722088!16s%2Fg%2F1tm0rvvr!19sChIJPYsaim5WAUcRTQ1pXWfOVec?authuser=0&hl=tr&rclk=1",
    "website_url": "",
    "rating_text": "3,7",
    "stars": null,
    "number_of_reviews": null,
    "price_level": "",
    "open_hours": "",
    "extraction_timestamp": "2025-06-07T17:56:40.945Z",
    "source_name": "google",
    "source_query": "Irrigation Equipment",
    "source_country": "PL",
    "country": "Poland",
    "state": "Greater Poland Voivodeship",
    "city": "Czarnków"
  },
  {
    "source_id": "ChIJ2yfQ98wABEcRZtfXdogWitE",
    "name": "Intermarche",
    "category": "Intermarche",
    "formatted_address": "4,1(748)",
    "phone_number": "",
    "source_url": "https://www.google.com/maps/place/Intermarche/data=!4m7!3m6!1s0x470400ccf7d027db:0xd18a168876d7d766!8m2!3d52.8963505!4d16.5519985!16s%2Fg%2F11cjqwql7x!19sChIJ2yfQ98wABEcRZtfXdogWitE?authuser=0&hl=tr&rclk=1",
    "website_url": "",
    "rating_text": "4,1",
    "stars": null,
    "number_of_reviews": null,
    "price_level": "",
    "open_hours": "",
    "extraction_timestamp": "2025-06-07T17:56:40.946Z",
    "source_name": "google",
    "source_query": "Irrigation Equipment",
    "source_country": "PL",
    "country": "Poland",
    "state": "Greater Poland Voivodeship",
    "city": "Czarnków"
  },
  {
    "source_id": "ChIJxaS7WRwBBEcRXFXc1O3A8LQ",
    "name": "AquaZiem Studniarstwo Bartosz Bardziński",
    "category": "AquaZiem Studniarstwo Bartosz Bardziński",
    "formatted_address": "4,8(23)",
    "phone_number": "+48602645820",
    "source_url": "https://www.google.com/maps/place/AquaZiem+Studniarstwo+Bartosz+Bardzi%C5%84ski/data=!4m7!3m6!1s0x4704011c59bba4c5:0xb4f0c0edd4dc555c!8m2!3d52.8842696!4d16.5040428!16s%2Fg%2F1tf5jbdh!19sChIJxaS7WRwBBEcRXFXc1O3A8LQ?authuser=0&hl=tr&rclk=1",
    "website_url": "",
    "rating_text": "4,8",
    "stars": null,
    "number_of_reviews": null,
    "price_level": "",
    "open_hours": "",
    "extraction_timestamp": "2025-06-07T17:56:40.947Z",
    "source_name": "google",
    "source_query": "Irrigation Equipment",
    "source_country": "PL",
    "country": "Poland",
    "state": "Greater Poland Voivodeship",
    "city": "Czarnków"
  },
  {
    "source_id": "ChIJnxg4LBwHBEcRp7yGgQLr3tU",
    "name": "PSB Mrówka Multicolor",
    "category": "PSB Mrówka Multicolor",
    "formatted_address": "4,5(106)",
    "phone_number": "+48672554646",
    "source_url": "https://www.google.com/maps/place/PSB+Mr%C3%B3wka+Multicolor/data=!4m7!3m6!1s0x4704071c2c38189f:0xd5deeb028186bca7!8m2!3d52.9181556!4d16.5756111!16s%2Fg%2F11fk8zdlc9!19sChIJnxg4LBwHBEcRp7yGgQLr3tU?authuser=0&hl=tr&rclk=1",
    "website_url": "",
    "rating_text": "4,5",
    "stars": null,
    "number_of_reviews": null,
    "price_level": "",
    "open_hours": "",
    "extraction_timestamp": "2025-06-07T17:56:40.948Z",
    "source_name": "google",
    "source_query": "Irrigation Equipment",
    "source_country": "PL",
    "country": "Poland",
    "state": "Greater Poland Voivodeship",
    "city": "Czarnków"
  },
  {
    "source_id": "ChIJm0Hm8fK4z2gRoasSxFDZJ8E",
    "name": "Ogrody Fabian Orłowski",
    "category": "Ogrody Fabian Orłowski",
    "formatted_address": "5,0(5)",
    "phone_number": "+48790564448",
    "source_url": "https://www.google.com/maps/place/Ogrody+Fabian+Or%C5%82owski/data=!4m7!3m6!1s0x68cfb8f2f1e6419b:0xc127d950c412aba1!8m2!3d52.6681459!4d16.6999666!16s%2Fg%2F11v3h038m6!19sChIJm0Hm8fK4z2gRoasSxFDZJ8E?authuser=0&hl=tr&rclk=1",
    "website_url": "",
    "rating_text": "5,0",
    "stars": null,
    "number_of_reviews": null,
    "price_level": "",
    "open_hours": "",
    "extraction_timestamp": "2025-06-07T17:56:40.949Z",
    "source_name": "google",
    "source_query": "Irrigation Equipment",
    "source_country": "PL",
    "country": "Poland",
    "state": "Greater Poland Voivodeship",
    "city": "Czarnków"
  },
  {
    "source_id": "ChIJDxnslM0ABEcR-TWkzw9md38",
    "name": "AMJ Andrzej Janyska",
    "category": "AMJ Andrzej Janyska",
    "formatted_address": "4,0(31)",
    "phone_number": "",
    "source_url": "https://www.google.com/maps/place/AMJ+Andrzej+Janyska/data=!4m7!3m6!1s0x470400cd94ec190f:0x7f77660fcfa435f9!8m2!3d52.8940471!4d16.5485923!16s%2Fg%2F11cs5m_n4t!19sChIJDxnslM0ABEcR-TWkzw9md38?authuser=0&hl=tr&rclk=1",
    "website_url": "",
    "rating_text": "4,0",
    "stars": null,
    "number_of_reviews": null,
    "price_level": "",
    "open_hours": "",
    "extraction_timestamp": "2025-06-07T17:56:40.949Z",
    "source_name": "google",
    "source_query": "Irrigation Equipment",
    "source_country": "PL",
    "country": "Poland",
    "state": "Greater Poland Voivodeship",
    "city": "Czarnków"
  },
  {
    "source_id": "ChIJUfn2Ig35A0cREW9fZ4029UM",
    "name": "IMTechnika sp. z o.o.",
    "category": "IMTechnika sp. z o.o.",
    "formatted_address": "4,4(17)",
    "phone_number": "+48883820388",
    "source_url": "https://www.google.com/maps/place/IMTechnika+sp.+z+o.o./data=!4m7!3m6!1s0x4703f90d22f6f951:0x43f5368d675f6f11!8m2!3d52.9756271!4d16.657836!16s%2Fg%2F11bw48_6mg!19sChIJUfn2Ig35A0cREW9fZ4029UM?authuser=0&hl=tr&rclk=1",
    "website_url": "",
    "rating_text": "4,4",
    "stars": null,
    "number_of_reviews": null,
    "price_level": "",
    "open_hours": "",
    "extraction_timestamp": "2025-06-07T17:56:40.950Z",
    "source_name": "google",
    "source_query": "Irrigation Equipment",
    "source_country": "PL",
    "country": "Poland",
    "state": "Greater Poland Voivodeship",
    "city": "Czarnków"
  },
  {
    "source_id": "ChIJcw7lFDUHBEcRm5MHn3X8jcg",
    "name": "Komputronik",
    "category": "Komputronik",
    "formatted_address": "4,7(73)",
    "phone_number": "+48505060424",
    "source_url": "https://www.google.com/maps/place/Komputronik/data=!4m7!3m6!1s0x4704073514e50e73:0xc88dfc759f07939b!8m2!3d52.9006358!4d16.5607315!16s%2Fg%2F1tdwcmym!19sChIJcw7lFDUHBEcRm5MHn3X8jcg?authuser=0&hl=tr&rclk=1",
    "website_url": "",
    "rating_text": "4,7",
    "stars": null,
    "number_of_reviews": null,
    "price_level": "",
    "open_hours": "",
    "extraction_timestamp": "2025-06-07T17:56:40.951Z",
    "source_name": "google",
    "source_query": "Irrigation Equipment",
    "source_country": "PL",
    "country": "Poland",
    "state": "Greater Poland Voivodeship",
    "city": "Czarnków"
  },
  {
    "source_id": "ChIJy8fV2k0BBEcRG1Nmx2uKet8",
    "name": "Martes Sport",
    "category": "Martes Sport",
    "formatted_address": "4,0(69)",
    "phone_number": "+48515858192",
    "source_url": "https://www.google.com/maps/place/Martes+Sport/data=!4m7!3m6!1s0x4704014ddad5c7cb:0xdf7a8a6bc766531b!8m2!3d52.8968594!4d16.5531425!16s%2Fg%2F11gv13d4kx!19sChIJy8fV2k0BBEcRG1Nmx2uKet8?authuser=0&hl=tr&rclk=1",
    "website_url": "",
    "rating_text": "4,0",
    "stars": null,
    "number_of_reviews": null,
    "price_level": "",
    "open_hours": "",
    "extraction_timestamp": "2025-06-07T17:56:40.953Z",
    "source_name": "google",
    "source_query": "Irrigation Equipment",
    "source_country": "PL",
    "country": "Poland",
    "state": "Greater Poland Voivodeship",
    "city": "Czarnków"
  },
  {
    "source_id": "ChIJC1prHc4ABEcRHZezB0rsVQQ",
    "name": "Drinks",
    "category": "Drinks",
    "formatted_address": "4,4(65)",
    "phone_number": "+48509118376",
    "source_url": "https://www.google.com/maps/place/Drinks/data=!4m7!3m6!1s0x470400ce1d6b5a0b:0x455ec4a07b3971d!8m2!3d52.8934988!4d16.5446683!16s%2Fg%2F11hbjm99r7!19sChIJC1prHc4ABEcRHZezB0rsVQQ?authuser=0&hl=tr&rclk=1",
    "website_url": "",
    "rating_text": "4,4",
    "stars": null,
    "number_of_reviews": null,
    "price_level": "",
    "open_hours": "",
    "extraction_timestamp": "2025-06-07T17:56:40.954Z",
    "source_name": "google",
    "source_query": "Irrigation Equipment",
    "source_country": "PL",
    "country": "Poland",
    "state": "Greater Poland Voivodeship",
    "city": "Czarnków"
  },
  {
    "source_id": "ChIJ12dqlUsHBEcRd16agQd8VOk",
    "name": "F.H. Lider. Sklep firmowy Max-Elektro",
    "category": "F.H. Lider. Sklep firmowy Max-Elektro",
    "formatted_address": "4,2(57)",
    "phone_number": "+48672554541",
    "source_url": "https://www.google.com/maps/place/F.H.+Lider.+Sklep+firmowy+Max-Elektro/data=!4m7!3m6!1s0x4704074b956a67d7:0xe9547c07819a5e77!8m2!3d52.9053688!4d16.5674725!16s%2Fg%2F1hc841hws!19sChIJ12dqlUsHBEcRd16agQd8VOk?authuser=0&hl=tr&rclk=1",
    "website_url": "",
    "rating_text": "4,2",
    "stars": null,
    "number_of_reviews": null,
    "price_level": "",
    "open_hours": "",
    "extraction_timestamp": "2025-06-07T17:56:40.955Z",
    "source_name": "google",
    "source_query": "Irrigation Equipment",
    "source_country": "PL",
    "country": "Poland",
    "state": "Greater Poland Voivodeship",
    "city": "Czarnków"
  },
  {
    "source_id": "ChIJqwCwm4oHBEcRyoSaTZwDJIc",
    "name": "Sklep monopolowo-spożywczy Żuberek",
    "category": "Sklep monopolowo-spożywczy Żuberek",
    "formatted_address": "4,7(10)",
    "phone_number": "+48887858688",
    "source_url": "https://www.google.com/maps/place/Sklep+monopolowo-spo%C5%BCywczy+%C5%BBuberek/data=!4m7!3m6!1s0x4704078a9bb000ab:0x8724039c4d9a84ca!8m2!3d52.8992396!4d16.560473!16s%2Fg%2F11j2545b31!19sChIJqwCwm4oHBEcRyoSaTZwDJIc?authuser=0&hl=tr&rclk=1",
    "website_url": "",
    "rating_text": "4,7",
    "stars": null,
    "number_of_reviews": null,
    "price_level": "",
    "open_hours": "",
    "extraction_timestamp": "2025-06-07T17:56:40.956Z",
    "source_name": "google",
    "source_query": "Irrigation Equipment",
    "source_country": "PL",
    "country": "Poland",
    "state": "Greater Poland Voivodeship",
    "city": "Czarnków"
  },
  {
    "source_id": "ChIJFdZ7_MwABEcRFeGDt0qGIwk",
    "name": "AUTO-ORZECHOWSKI, Sklep Motoryzacyjny Marek Orzechowski, skutery, motocykle, quady",
    "category": "AUTO-ORZECHOWSKI, Sklep Motoryzacyjny Marek Orzechowski, skutery, motocykle, quady",
    "formatted_address": "AUTO-ORZECHOWSKI, Sklep Motoryzacyjny Marek Orzechowski, skutery, motocykle, quady",
    "phone_number": "+48672530417",
    "source_url": "https://www.google.com/maps/place/AUTO-ORZECHOWSKI,+Sklep+Motoryzacyjny+Marek+Orzechowski,+skutery,+motocykle,+quady/data=!4m7!3m6!1s0x470400ccfc7bd615:0x923864ab783e115!8m2!3d52.8951492!4d16.5518264!16s%2Fg%2F1tncrlrr!19sChIJFdZ7_MwABEcRFeGDt0qGIwk?authuser=0&hl=tr&rclk=1",
    "website_url": "",
    "rating_text": "4,7",
    "stars": null,
    "number_of_reviews": null,
    "price_level": "",
    "open_hours": "",
    "extraction_timestamp": "2025-06-07T17:56:40.957Z",
    "source_name": "google",
    "source_query": "Irrigation Equipment",
    "source_country": "PL",
    "country": "Poland",
    "state": "Greater Poland Voivodeship",
    "city": "Czarnków"
  },
  {
    "source_id": "ChIJWRCVYksHBEcR95GSNh2h8Aw",
    "name": "Drogeria Rossmann",
    "category": "Drogeria Rossmann",
    "formatted_address": "4,6(217)",
    "phone_number": "+48426139700",
    "source_url": "https://www.google.com/maps/place/Drogeria+Rossmann/data=!4m7!3m6!1s0x4704074b62951059:0xcf0a11d369291f7!8m2!3d52.9072569!4d16.5645138!16s%2Fg%2F11bwqbr2mx!19sChIJWRCVYksHBEcR95GSNh2h8Aw?authuser=0&hl=tr&rclk=1",
    "website_url": "",
    "rating_text": "4,6",
    "stars": null,
    "number_of_reviews": null,
    "price_level": "",
    "open_hours": "",
    "extraction_timestamp": "2025-06-07T17:56:40.958Z",
    "source_name": "google",
    "source_query": "Irrigation Equipment",
    "source_country": "PL",
    "country": "Poland",
    "state": "Greater Poland Voivodeship",
    "city": "Czarnków"
  },
  {
    "source_id": "ChIJRaWvoEwHBEcROPMxT9jWbpk",
    "name": "Biedronka",
    "category": "Biedronka",
    "formatted_address": "4,0(870)",
    "phone_number": "+48800080010",
    "source_url": "https://www.google.com/maps/place/Biedronka/data=!4m7!3m6!1s0x4704074ca0afa545:0x996ed6d84f31f338!8m2!3d52.907174!4d16.5640378!16s%2Fg%2F11c1lysdzv!19sChIJRaWvoEwHBEcROPMxT9jWbpk?authuser=0&hl=tr&rclk=1",
    "website_url": "",
    "rating_text": "4,0",
    "stars": null,
    "number_of_reviews": null,
    "price_level": "",
    "open_hours": "",
    "extraction_timestamp": "2025-06-07T17:56:40.959Z",
    "source_name": "google",
    "source_query": "Irrigation Equipment",
    "source_country": "PL",
    "country": "Poland",
    "state": "Greater Poland Voivodeship",
    "city": "Czarnków"
  },
  {
    "source_id": "ChIJSRR34tEABEcR-CuhnnkfR_g",
    "name": "KAKA GRUPA HANDLOWA KATARZYNA MAŃKOWSKA",
    "category": "KAKA GRUPA HANDLOWA KATARZYNA MAŃKOWSKA",
    "formatted_address": "4,2(140)",
    "phone_number": "+48672552090",
    "source_url": "https://www.google.com/maps/place/KAKA+GRUPA+HANDLOWA+KATARZYNA+MA%C5%83KOWSKA/data=!4m7!3m6!1s0x470400d1e2771449:0xf8471f799ea12bf8!8m2!3d52.893458!4d16.5446349!16s%2Fg%2F11c32bgdfs!19sChIJSRR34tEABEcR-CuhnnkfR_g?authuser=0&hl=tr&rclk=1",
    "website_url": "",
    "rating_text": "4,2",
    "stars": null,
    "number_of_reviews": null,
    "price_level": "",
    "open_hours": "",
    "extraction_timestamp": "2025-06-07T17:56:40.960Z",
    "source_name": "google",
    "source_query": "Irrigation Equipment",
    "source_country": "PL",
    "country": "Poland",
    "state": "Greater Poland Voivodeship",
    "city": "Czarnków"
  },
  {
    "source_id": "ChIJ2d20NDUHBEcRQh8c8UOseKE",
    "name": "Drogeria Vica",
    "category": "Drogeria Vica",
    "formatted_address": "4,8(13)",
    "phone_number": "+48601550934",
    "source_url": "https://www.google.com/maps/place/Drogeria+Vica/data=!4m7!3m6!1s0x4704073534b4ddd9:0xa178ac43f11c1f42!8m2!3d52.9008246!4d16.5588081!16s%2Fg%2F11cs5wtq4f!19sChIJ2d20NDUHBEcRQh8c8UOseKE?authuser=0&hl=tr&rclk=1",
    "website_url": "",
    "rating_text": "4,8",
    "stars": null,
    "number_of_reviews": null,
    "price_level": "",
    "open_hours": "",
    "extraction_timestamp": "2025-06-07T17:56:40.961Z",
    "source_name": "google",
    "source_query": "Irrigation Equipment",
    "source_country": "PL",
    "country": "Poland",
    "state": "Greater Poland Voivodeship",
    "city": "Czarnków"
  },
  {
    "source_id": "ChIJNf-Y7wwBBEcRVsU8_hKZQrw",
    "name": "Maciejka - Centrum ogrodnicze",
    "category": "Maciejka - Centrum ogrodnicze",
    "formatted_address": "4,6(20)",
    "phone_number": "+48606329144",
    "source_url": "https://www.google.com/maps/place/Maciejka+-+Centrum+ogrodnicze/data=!4m7!3m6!1s0x4704010cef98ff35:0xbc429912fe3cc556!8m2!3d52.870835!4d16.485485!16s%2Fg%2F11g902l34_!19sChIJNf-Y7wwBBEcRVsU8_hKZQrw?authuser=0&hl=tr&rclk=1",
    "website_url": "",
    "rating_text": "4,6",
    "stars": null,
    "number_of_reviews": null,
    "price_level": "",
    "open_hours": "",
    "extraction_timestamp": "2025-06-07T17:56:40.962Z",
    "source_name": "google",
    "source_query": "Irrigation Equipment",
    "source_country": "PL",
    "country": "Poland",
    "state": "Greater Poland Voivodeship",
    "city": "Czarnków"
  },
  {
    "source_id": "ChIJZ01zsslEBEcRe_YJp9GTrow",
    "name": "Plewa Marcin. Sanitary installations",
    "category": "Plewa Marcin. Sanitary installations",
    "formatted_address": "4,7(92)",
    "phone_number": "+48730359564",
    "source_url": "https://www.google.com/maps/place/Plewa+Marcin.+Sanitary+installations/data=!4m7!3m6!1s0x470444c9b2734d67:0x8cae93d1a709f67b!8m2!3d52.4264503!4d16.8610092!16s%2Fg%2F1thq8kcf!19sChIJZ01zsslEBEcRe_YJp9GTrow?authuser=0&hl=tr&rclk=1",
    "website_url": "",
    "rating_text": "4,7",
    "stars": null,
    "number_of_reviews": null,
    "price_level": "",
    "open_hours": "",
    "extraction_timestamp": "2025-06-07T17:56:40.963Z",
    "source_name": "google",
    "source_query": "Irrigation Equipment",
    "source_country": "PL",
    "country": "Poland",
    "state": "Greater Poland Voivodeship",
    "city": "Czarnków"
  },
  {
    "source_id": "ChIJXbGhVtxvBEcRWiehOaf5NoU",
    "name": "Brumar-hydro",
    "category": "Brumar-hydro",
    "formatted_address": "5,0(1)",
    "phone_number": "+48501796989",
    "source_url": "https://www.google.com/maps/place/Brumar-hydro/data=!4m7!3m6!1s0x47046fdc56a1b15d:0x8536f9a739a1275a!8m2!3d52.7476898!4d17.1610964!16s%2Fg%2F11lz1q4t91!19sChIJXbGhVtxvBEcRWiehOaf5NoU?authuser=0&hl=tr&rclk=1",
    "website_url": "",
    "rating_text": "5,0",
    "stars": null,
    "number_of_reviews": null,
    "price_level": "",
    "open_hours": "",
    "extraction_timestamp": "2025-06-07T17:56:40.964Z",
    "source_name": "google",
    "source_query": "Irrigation Equipment",
    "source_country": "PL",
    "country": "Poland",
    "state": "Greater Poland Voivodeship",
    "city": "Czarnków"
  },
  {
    "source_id": "ChIJ6ZwxDIlBBEcRQdkgYydfEhg",
    "name": "BZW Bruk Zieleń Woda - Dominik Rzepczyński",
    "category": "BZW Bruk Zieleń Woda - Dominik Rzepczyński",
    "formatted_address": "5,0(2)",
    "phone_number": "+48880670990",
    "source_url": "https://www.google.com/maps/place/BZW+Bruk+Ziele%C5%84+Woda+-+Dominik+Rzepczy%C5%84ski/data=!4m7!3m6!1s0x470441890c319ce9:0x18125f276320d941!8m2!3d52.5119822!4d16.7499267!16s%2Fg%2F11mcx3nslq!19sChIJ6ZwxDIlBBEcRQdkgYydfEhg?authuser=0&hl=tr&rclk=1",
    "website_url": "",
    "rating_text": "5,0",
    "stars": null,
    "number_of_reviews": null,
    "price_level": "",
    "open_hours": "",
    "extraction_timestamp": "2025-06-07T17:56:40.965Z",
    "source_name": "google",
    "source_query": "Irrigation Equipment",
    "source_country": "PL",
    "country": "Poland",
    "state": "Greater Poland Voivodeship",
    "city": "Czarnków"
  },
  {
    "source_id": "ChIJQaAR7D37BEcRBa5PF0ULYcE",
    "name": "TEST Łukasz i Grzegorz Kiełbowicz sp. j",
    "category": "TEST Łukasz i Grzegorz Kiełbowicz sp. j",
    "formatted_address": "4,9(75)",
    "phone_number": "+48508635200",
    "source_url": "https://www.google.com/maps/place/TEST+%C5%81ukasz+i+Grzegorz+Kie%C5%82bowicz+sp.+j/data=!4m7!3m6!1s0x4704fb3dec11a041:0xc1610b45174fae05!8m2!3d52.5658269!4d17.6143399!16s%2Fg%2F1twyy791!19sChIJQaAR7D37BEcRBa5PF0ULYcE?authuser=0&hl=tr&rclk=1",
    "website_url": "",
    "rating_text": "4,9",
    "stars": null,
    "number_of_reviews": null,
    "price_level": "",
    "open_hours": "",
    "extraction_timestamp": "2025-06-07T17:56:40.966Z",
    "source_name": "google",
    "source_query": "Irrigation Equipment",
    "source_country": "PL",
    "country": "Poland",
    "state": "Greater Poland Voivodeship",
    "city": "Czarnków"
  },
  {
    "source_id": "ChIJwxC1X09EBEcRLzaLJfk4rD8",
    "name": "OASE - Oczko Wodne Polski Autoryzowany Sklep internetowy Złoty Przedstawiciel Nawadnianie Podlewanie Hunter, Raibird,Rossi",
    "category": "OASE - Oczko Wodne Polski Autoryzowany Sklep internetowy Złoty Przedstawiciel Nawadnianie Podlewanie Hunter, Raibird,Rossi",
    "formatted_address": "OASE - Oczko Wodne Polski Autoryzowany Sklep internetowy Złoty Przedstawiciel Nawadnianie Podlewanie Hunter, Raibird,Rossi",
    "phone_number": "+48618842498",
    "source_url": "https://www.google.com/maps/place/OASE+-+Oczko+Wodne+Polski+Autoryzowany+Sklep+internetowy+Z%C5%82oty+Przedstawiciel+Nawadnianie+Podlewanie+Hunter,+Raibird,Rossi/data=!4m7!3m6!1s0x4704444f5fb510c3:0x3fac38f9258b362f!8m2!3d52.4364533!4d16.8327227!16s%2Fg%2F1hc96cvd0!19sChIJwxC1X09EBEcRLzaLJfk4rD8?authuser=0&hl=tr&rclk=1",
    "website_url": "",
    "rating_text": "4,6",
    "stars": null,
    "number_of_reviews": null,
    "price_level": "",
    "open_hours": "",
    "extraction_timestamp": "2025-06-07T17:56:40.967Z",
    "source_name": "google",
    "source_query": "Irrigation Equipment",
    "source_country": "PL",
    "country": "Poland",
    "state": "Greater Poland Voivodeship",
    "city": "Czarnków"
  },
  {
    "source_id": "ChIJY8cslk-LA0cRaOKNT4djDj0",
    "name": "Zakuwanie Węży Hydraulicznych Jędruś",
    "category": "Zakuwanie Węży Hydraulicznych Jędruś",
    "formatted_address": "5,0(11)",
    "phone_number": "+48603049940",
    "source_url": "https://www.google.com/maps/place/Zakuwanie+W%C4%99%C5%BCy+Hydraulicznych+J%C4%99dru%C5%9B/data=!4m7!3m6!1s0x47038b4f962cc763:0x3d0e63874f8de268!8m2!3d52.8964115!4d16.9791463!16s%2Fg%2F11y1sg_qm2!19sChIJY8cslk-LA0cRaOKNT4djDj0?authuser=0&hl=tr&rclk=1",
    "website_url": "",
    "rating_text": "5,0",
    "stars": null,
    "number_of_reviews": null,
    "price_level": "",
    "open_hours": "",
    "extraction_timestamp": "2025-06-07T17:56:40.968Z",
    "source_name": "google",
    "source_query": "Irrigation Equipment",
    "source_country": "PL",
    "country": "Poland",
    "state": "Greater Poland Voivodeship",
    "city": "Czarnków"
  },
  {
    "source_id": "ChIJtYeyvN1zBEcR6noD_r1poQs",
    "name": "FAKT Armatura",
    "category": "FAKT Armatura",
    "formatted_address": "4,8(43)",
    "phone_number": "+48672617371",
    "source_url": "https://www.google.com/maps/place/FAKT+Armatura/data=!4m7!3m6!1s0x470473ddbcb287b5:0xba169bdfe037aea!8m2!3d52.751154!4d16.982685!16s%2Fg%2F1tmxpq97!19sChIJtYeyvN1zBEcR6noD_r1poQs?authuser=0&hl=tr&rclk=1",
    "website_url": "",
    "rating_text": "4,8",
    "stars": null,
    "number_of_reviews": null,
    "price_level": "",
    "open_hours": "",
    "extraction_timestamp": "2025-06-07T17:56:40.969Z",
    "source_name": "google",
    "source_query": "Irrigation Equipment",
    "source_country": "PL",
    "country": "Poland",
    "state": "Greater Poland Voivodeship",
    "city": "Czarnków"
  },
  {
    "source_id": "ChIJP_lX9sc4BEcRVdRxj6eVLJY",
    "name": "Korbanek Sp. o.o.",
    "category": "Korbanek Sp. o.o.",
    "formatted_address": "4,4(463)",
    "phone_number": "+48618961100",
    "source_url": "https://www.google.com/maps/place/Korbanek+Sp.+o.o./data=!4m7!3m6!1s0x470438c7f657f93f:0x962c95a78f71d455!8m2!3d52.4587541!4d16.6466483!16s%2Fg%2F1tgkf_1k!19sChIJP_lX9sc4BEcRVdRxj6eVLJY?authuser=0&hl=tr&rclk=1",
    "website_url": "",
    "rating_text": "4,4",
    "stars": null,
    "number_of_reviews": null,
    "price_level": "",
    "open_hours": "",
    "extraction_timestamp": "2025-06-07T17:56:40.970Z",
    "source_name": "google",
    "source_query": "Irrigation Equipment",
    "source_country": "PL",
    "country": "Poland",
    "state": "Greater Poland Voivodeship",
    "city": "Czarnków"
  },
  {
    "source_id": "ChIJ4R9soksHBEcRRk-kiCI2HnA",
    "name": "Chata Polska sklep spożywczy",
    "category": "Chata Polska sklep spożywczy",
    "formatted_address": "4,5(46)",
    "phone_number": "+48509421027",
    "source_url": "https://www.google.com/maps/place/Chata+Polska+sklep+spo%C5%BCywczy/data=!4m7!3m6!1s0x4704074ba26c1fe1:0x701e362288a44f46!8m2!3d52.9054281!4d16.5666615!16s%2Fg%2F11fmxz9ylk!19sChIJ4R9soksHBEcRRk-kiCI2HnA?authuser=0&hl=tr&rclk=1",
    "website_url": "",
    "rating_text": "4,5",
    "stars": null,
    "number_of_reviews": null,
    "price_level": "",
    "open_hours": "",
    "extraction_timestamp": "2025-06-07T17:56:40.970Z",
    "source_name": "google",
    "source_query": "Irrigation Equipment",
    "source_country": "PL",
    "country": "Poland",
    "state": "Greater Poland Voivodeship",
    "city": "Czarnków"
  },
  {
    "source_id": "ChIJt4upsbo4BEcRWkUl8Qt9ryw",
    "name": "Barenbrug Polska Sp. z o.o.",
    "category": "Barenbrug Polska Sp. z o.o.",
    "formatted_address": "4,2(9)",
    "phone_number": "+48618164133",
    "source_url": "https://www.google.com/maps/place/Barenbrug+Polska+Sp.+z+o.o./data=!4m7!3m6!1s0x470438bab1a98bb7:0x2caf7d0bf125455a!8m2!3d52.4567446!4d16.6538235!16s%2Fg%2F1w97t2lf!19sChIJt4upsbo4BEcRWkUl8Qt9ryw?authuser=0&hl=tr&rclk=1",
    "website_url": "",
    "rating_text": "4,2",
    "stars": null,
    "number_of_reviews": null,
    "price_level": "",
    "open_hours": "",
    "extraction_timestamp": "2025-06-07T17:56:40.971Z",
    "source_name": "google",
    "source_query": "Irrigation Equipment",
    "source_country": "PL",
    "country": "Poland",
    "state": "Greater Poland Voivodeship",
    "city": "Czarnków"
  },
  {
    "source_id": "ChIJ9Q-puCVbBEcRDgZg45Q4W4M",
    "name": "Cztery Łapy",
    "category": "Cztery Łapy",
    "formatted_address": "4,7(290)",
    "phone_number": "+48504269504",
    "source_url": "https://www.google.com/maps/place/Cztery+%C5%81apy/data=!4m7!3m6!1s0x47045b25b8a90ff5:0x835b3894e360060e!8m2!3d52.3951124!4d16.9206768!16s%2Fg%2F1tfhf3gx!19sChIJ9Q-puCVbBEcRDgZg45Q4W4M?authuser=0&hl=tr&rclk=1",
    "website_url": "",
    "rating_text": "4,7",
    "stars": null,
    "number_of_reviews": null,
    "price_level": "",
    "open_hours": "",
    "extraction_timestamp": "2025-06-07T17:56:40.972Z",
    "source_name": "google",
    "source_query": "Irrigation Equipment",
    "source_country": "PL",
    "country": "Poland",
    "state": "Greater Poland Voivodeship",
    "city": "Czarnków"
  }
]
