[
  {
    "source_id": "ChIJJX4kdP6oBUcRgBCQ2j4_m7g",
    "name": "INSTAL-FILTER SA Industrial Systems Air Protection",
    "category": "INSTAL-FILTER SA Industrial Systems Air Protection",
    "formatted_address": "3,3(10)",
    "phone_number": "+48655351200",
    "source_url": "https://www.google.com/maps/place/INSTAL-FILTER+SA+Industrial+Systems+Air+Protection/data=!4m7!3m6!1s0x4705a8fe74247e25:0xb89b3f3eda901080!8m2!3d52.0898624!4d16.6636458!16s%2Fg%2F11c52ybp21!19sChIJJX4kdP6oBUcRgBCQ2j4_m7g?authuser=0&hl=tr&rclk=1",
    "website_url": "",
    "rating_text": "3,3",
    "stars": null,
    "number_of_reviews": null,
    "price_level": "",
    "open_hours": "",
    "extraction_timestamp": "2025-06-07T17:57:49.810Z",
    "source_name": "google",
    "source_query": "Irrigation Equipment",
    "source_country": "PL",
    "country": "Poland",
    "state": "Greater Poland Voivodeship",
    "city": "Czempiń"
  },
  {
    "source_id": "ChIJOYm3MZutBUcRoBYa04MSnrU",
    "name": "Paja sp.j. Ocelik P.A.",
    "category": "Paja sp.j. Ocelik P.A.",
    "formatted_address": "4,4(57)",
    "phone_number": "+48612826410",
    "source_url": "https://www.google.com/maps/place/Paja+sp.j.+Ocelik+P.A./data=!4m7!3m6!1s0x4705ad9b31b78939:0xb59e1283d31a16a0!8m2!3d52.141788!4d16.7595461!16s%2Fg%2F1tdm70c9!19sChIJOYm3MZutBUcRoBYa04MSnrU?authuser=0&hl=tr&rclk=1",
    "website_url": "",
    "rating_text": "4,4",
    "stars": null,
    "number_of_reviews": null,
    "price_level": "",
    "open_hours": "",
    "extraction_timestamp": "2025-06-07T17:57:49.811Z",
    "source_name": "google",
    "source_query": "Irrigation Equipment",
    "source_country": "PL",
    "country": "Poland",
    "state": "Greater Poland Voivodeship",
    "city": "Czempiń"
  },
  {
    "source_id": "ChIJ7eGExoStBUcRKMwQPnpjzkg",
    "name": "Chłodrol-Bis - Wyposażenie Obór",
    "category": "Chłodrol-Bis - Wyposażenie Obór",
    "formatted_address": "4,7(6)",
    "phone_number": "+48612823057",
    "source_url": "https://www.google.com/maps/place/Ch%C5%82odrol-Bis+-+Wyposa%C5%BCenie+Ob%C3%B3r/data=!4m7!3m6!1s0x4705ad84c684e1ed:0x48ce637a3e10cc28!8m2!3d52.1580594!4d16.7423799!16s%2Fg%2F1hc2hcz43!19sChIJ7eGExoStBUcRKMwQPnpjzkg?authuser=0&hl=tr&rclk=1",
    "website_url": "",
    "rating_text": "4,7",
    "stars": null,
    "number_of_reviews": null,
    "price_level": "",
    "open_hours": "",
    "extraction_timestamp": "2025-06-07T17:57:49.812Z",
    "source_name": "google",
    "source_query": "Irrigation Equipment",
    "source_country": "PL",
    "country": "Poland",
    "state": "Greater Poland Voivodeship",
    "city": "Czempiń"
  },
  {
    "source_id": "ChIJMcvxwXWtBUcRC-wb-9nqR88",
    "name": "u Wiechcia",
    "category": "u Wiechcia",
    "formatted_address": "4,3(341)",
    "phone_number": "+48669111611",
    "source_url": "https://www.google.com/maps/place/u+Wiechcia/data=!4m7!3m6!1s0x4705ad75c1f1cb31:0xcf47ead9fb1bec0b!8m2!3d52.148735!4d16.7729209!16s%2Fg%2F11c1s33fld!19sChIJMcvxwXWtBUcRC-wb-9nqR88?authuser=0&hl=tr&rclk=1",
    "website_url": "",
    "rating_text": "4,3",
    "stars": null,
    "number_of_reviews": null,
    "price_level": "",
    "open_hours": "",
    "extraction_timestamp": "2025-06-07T17:57:49.812Z",
    "source_name": "google",
    "source_query": "Irrigation Equipment",
    "source_country": "PL",
    "country": "Poland",
    "state": "Greater Poland Voivodeship",
    "city": "Czempiń"
  },
  {
    "source_id": "ChIJrzKKoJ2tBUcRFKFMb1VoezI",
    "name": "PSB Mrówka",
    "category": "PSB Mrówka",
    "formatted_address": "4,4(269)",
    "phone_number": "+48508684736",
    "source_url": "https://www.google.com/maps/place/PSB+Mr%C3%B3wka/data=!4m7!3m6!1s0x4705ad9da08a32af:0x327b68556f4ca114!8m2!3d52.1458792!4d16.7612569!16s%2Fg%2F1tkqyzdm!19sChIJrzKKoJ2tBUcRFKFMb1VoezI?authuser=0&hl=tr&rclk=1",
    "website_url": "",
    "rating_text": "4,4",
    "stars": null,
    "number_of_reviews": null,
    "price_level": "",
    "open_hours": "",
    "extraction_timestamp": "2025-06-07T17:57:49.813Z",
    "source_name": "google",
    "source_query": "Irrigation Equipment",
    "source_country": "PL",
    "country": "Poland",
    "state": "Greater Poland Voivodeship",
    "city": "Czempiń"
  },
  {
    "source_id": "ChIJC9osP7lEBEcRAMmkpIrVmUI",
    "name": "Sewlutions - dawniej aleWorek",
    "category": "Sewlutions - dawniej aleWorek",
    "formatted_address": "4,6(21)",
    "phone_number": "+48798463350",
    "source_url": "https://www.google.com/maps/place/Sewlutions+-+dawniej+aleWorek/data=!4m7!3m6!1s0x470444b93f2cda0b:0x4299d58aa4a4c900!8m2!3d52.143403!4d16.764398!16s%2Fg%2F11hbntpr_c!19sChIJC9osP7lEBEcRAMmkpIrVmUI?authuser=0&hl=tr&rclk=1",
    "website_url": "",
    "rating_text": "4,6",
    "stars": null,
    "number_of_reviews": null,
    "price_level": "",
    "open_hours": "",
    "extraction_timestamp": "2025-06-07T17:57:49.814Z",
    "source_name": "google",
    "source_query": "Irrigation Equipment",
    "source_country": "PL",
    "country": "Poland",
    "state": "Greater Poland Voivodeship",
    "city": "Czempiń"
  },
  {
    "source_id": "ChIJw0IY-oStBUcRwPdd8v1KtlI",
    "name": "POLOmarket",
    "category": "POLOmarket",
    "formatted_address": "4,1(456)",
    "phone_number": "+48612826603",
    "source_url": "https://www.google.com/maps/place/POLOmarket/data=!4m7!3m6!1s0x4705ad84fa1842c3:0x52b64afdf25df7c0!8m2!3d52.1430195!4d16.755231!16s%2Fg%2F1hc2zzm7p!19sChIJw0IY-oStBUcRwPdd8v1KtlI?authuser=0&hl=tr&rclk=1",
    "website_url": "",
    "rating_text": "4,1",
    "stars": null,
    "number_of_reviews": null,
    "price_level": "",
    "open_hours": "",
    "extraction_timestamp": "2025-06-07T17:57:49.815Z",
    "source_name": "google",
    "source_query": "Irrigation Equipment",
    "source_country": "PL",
    "country": "Poland",
    "state": "Greater Poland Voivodeship",
    "city": "Czempiń"
  },
  {
    "source_id": "ChIJhXY5H5utBUcRbWbvLNyBD9g",
    "name": "Hobbydog",
    "category": "Hobbydog",
    "formatted_address": "5,0(3)",
    "phone_number": "+48728976693",
    "source_url": "https://www.google.com/maps/place/Hobbydog/data=!4m7!3m6!1s0x4705ad9b1f397685:0xd80f81dc2cef666d!8m2!3d52.1411777!4d16.7607898!16s%2Fg%2F1pp2vdp2p!19sChIJhXY5H5utBUcRbWbvLNyBD9g?authuser=0&hl=tr&rclk=1",
    "website_url": "",
    "rating_text": "5,0",
    "stars": null,
    "number_of_reviews": null,
    "price_level": "",
    "open_hours": "",
    "extraction_timestamp": "2025-06-07T17:57:49.816Z",
    "source_name": "google",
    "source_query": "Irrigation Equipment",
    "source_country": "PL",
    "country": "Poland",
    "state": "Greater Poland Voivodeship",
    "city": "Czempiń"
  },
  {
    "source_id": "ChIJ71nZfJutBUcRww2yvb3LgtQ",
    "name": "Sklep Toro",
    "category": "Sklep Toro",
    "formatted_address": "3,0(4)",
    "phone_number": "",
    "source_url": "https://www.google.com/maps/place/Sklep+Toro/data=!4m7!3m6!1s0x4705ad9b7cd959ef:0xd482cbbdbdb20dc3!8m2!3d52.1431327!4d16.7628868!16s%2Fg%2F11rl877q77!19sChIJ71nZfJutBUcRww2yvb3LgtQ?authuser=0&hl=tr&rclk=1",
    "website_url": "",
    "rating_text": "3,0",
    "stars": null,
    "number_of_reviews": null,
    "price_level": "",
    "open_hours": "",
    "extraction_timestamp": "2025-06-07T17:57:49.816Z",
    "source_name": "google",
    "source_query": "Irrigation Equipment",
    "source_country": "PL",
    "country": "Poland",
    "state": "Greater Poland Voivodeship",
    "city": "Czempiń"
  },
  {
    "source_id": "ChIJ3V87-oStBUcRhpwHM_SXLEg",
    "name": "Świat Prasy",
    "category": "Świat Prasy",
    "formatted_address": "4,0(1)",
    "phone_number": "+48518014071",
    "source_url": "https://www.google.com/maps/place/%C5%9Awiat+Prasy/data=!4m7!3m6!1s0x4705ad84fa3b5fdd:0x482c97f433079c86!8m2!3d52.1422828!4d16.755561!16s%2Fg%2F11hcvj09_p!19sChIJ3V87-oStBUcRhpwHM_SXLEg?authuser=0&hl=tr&rclk=1",
    "website_url": "",
    "rating_text": "4,0",
    "stars": null,
    "number_of_reviews": null,
    "price_level": "",
    "open_hours": "",
    "extraction_timestamp": "2025-06-07T17:57:49.817Z",
    "source_name": "google",
    "source_query": "Irrigation Equipment",
    "source_country": "PL",
    "country": "Poland",
    "state": "Greater Poland Voivodeship",
    "city": "Czempiń"
  },
  {
    "source_id": "ChIJi-2pUZutBUcRH8oN0J32qCo",
    "name": "Livio",
    "category": "Livio",
    "formatted_address": "5,0(3)",
    "phone_number": "",
    "source_url": "https://www.google.com/maps/place/Livio/data=!4m7!3m6!1s0x4705ad9b51a9ed8b:0x2aa8f69dd00dca1f!8m2!3d52.1431563!4d16.7604964!16s%2Fg%2F11rs0j5bcf!19sChIJi-2pUZutBUcRH8oN0J32qCo?authuser=0&hl=tr&rclk=1",
    "website_url": "",
    "rating_text": "5,0",
    "stars": null,
    "number_of_reviews": null,
    "price_level": "",
    "open_hours": "",
    "extraction_timestamp": "2025-06-07T17:57:49.818Z",
    "source_name": "google",
    "source_query": "Irrigation Equipment",
    "source_country": "PL",
    "country": "Poland",
    "state": "Greater Poland Voivodeship",
    "city": "Czempiń"
  },
  {
    "source_id": "ChIJx7-ahZutBUcRa_mxa-tAoWY",
    "name": "Plac targowy",
    "category": "Plac targowy",
    "formatted_address": "3,1(18)",
    "phone_number": "",
    "source_url": "https://www.google.com/maps/place/Plac+targowy/data=!4m7!3m6!1s0x4705ad9b859abfc7:0x66a140eb6bb1f96b!8m2!3d52.1425872!4d16.7644427!16s%2Fg%2F11fz9y8vl0!19sChIJx7-ahZutBUcRa_mxa-tAoWY?authuser=0&hl=tr&rclk=1",
    "website_url": "",
    "rating_text": "3,1",
    "stars": null,
    "number_of_reviews": null,
    "price_level": "",
    "open_hours": "",
    "extraction_timestamp": "2025-06-07T17:57:49.818Z",
    "source_name": "google",
    "source_query": "Irrigation Equipment",
    "source_country": "PL",
    "country": "Poland",
    "state": "Greater Poland Voivodeship",
    "city": "Czempiń"
  },
  {
    "source_id": "ChIJXduFpGCtBUcRFUak9FhIi7g",
    "name": "Cafe Tlen by ArtZagroda",
    "category": "Cafe Tlen by ArtZagroda",
    "formatted_address": "4,8(33) · zł 20–40",
    "phone_number": "",
    "source_url": "https://www.google.com/maps/place/Cafe+Tlen+by+ArtZagroda/data=!4m7!3m6!1s0x4705ad60a485db5d:0xb88b4858f4a44615!8m2!3d52.1414411!4d16.7573774!16s%2Fg%2F11vds6k9pr!19sChIJXduFpGCtBUcRFUak9FhIi7g?authuser=0&hl=tr&rclk=1",
    "website_url": "",
    "rating_text": "4,8",
    "stars": null,
    "number_of_reviews": null,
    "price_level": "",
    "open_hours": "",
    "extraction_timestamp": "2025-06-07T17:57:49.819Z",
    "source_name": "google",
    "source_query": "Irrigation Equipment",
    "source_country": "PL",
    "country": "Poland",
    "state": "Greater Poland Voivodeship",
    "city": "Czempiń"
  },
  {
    "source_id": "ChIJ_erljL6tBUcRIPVIynkVmIQ",
    "name": "Dino",
    "category": "Dino",
    "formatted_address": "4,4(196)",
    "phone_number": "",
    "source_url": "https://www.google.com/maps/place/Dino/data=!4m7!3m6!1s0x4705adbe8ce5eafd:0x84981579ca48f520!8m2!3d52.1403722!4d16.7654048!16s%2Fg%2F11h2k2v65v!19sChIJ_erljL6tBUcRIPVIynkVmIQ?authuser=0&hl=tr&rclk=1",
    "website_url": "",
    "rating_text": "4,4",
    "stars": null,
    "number_of_reviews": null,
    "price_level": "",
    "open_hours": "",
    "extraction_timestamp": "2025-06-07T17:57:49.820Z",
    "source_name": "google",
    "source_query": "Irrigation Equipment",
    "source_country": "PL",
    "country": "Poland",
    "state": "Greater Poland Voivodeship",
    "city": "Czempiń"
  },
  {
    "source_id": "ChIJH0Kvam-tBUcRamNnivXjsuQ",
    "name": "Dino",
    "category": "Dino",
    "formatted_address": "4,7(33)",
    "phone_number": "",
    "source_url": "https://www.google.com/maps/place/Dino/data=!4m7!3m6!1s0x4705ad6f6aaf421f:0xe4b2e3f58a67636a!8m2!3d52.1415548!4d16.7508977!16s%2Fg%2F11t9bqslmv!19sChIJH0Kvam-tBUcRamNnivXjsuQ?authuser=0&hl=tr&rclk=1",
    "website_url": "",
    "rating_text": "4,7",
    "stars": null,
    "number_of_reviews": null,
    "price_level": "",
    "open_hours": "",
    "extraction_timestamp": "2025-06-07T17:57:49.820Z",
    "source_name": "google",
    "source_query": "Irrigation Equipment",
    "source_country": "PL",
    "country": "Poland",
    "state": "Greater Poland Voivodeship",
    "city": "Czempiń"
  },
  {
    "source_id": "ChIJBXHzrkStBUcRfYd4sOvzqp0",
    "name": "TLENka została zamknięta - jest Caffe Tlen",
    "category": "TLENka została zamknięta - jest Caffe Tlen",
    "formatted_address": "4,4(16)",
    "phone_number": "",
    "source_url": "https://www.google.com/maps/place/TLENka+zosta%C5%82a+zamkni%C4%99ta+-+jest+Caffe+Tlen/data=!4m7!3m6!1s0x4705ad44aef37105:0x9daaf3ebb078877d!8m2!3d52.1414662!4d16.7574201!16s%2Fg%2F11rqkvfcm9!19sChIJBXHzrkStBUcRfYd4sOvzqp0?authuser=0&hl=tr&rclk=1",
    "website_url": "",
    "rating_text": "4,4",
    "stars": null,
    "number_of_reviews": null,
    "price_level": "",
    "open_hours": "",
    "extraction_timestamp": "2025-06-07T17:57:49.821Z",
    "source_name": "google",
    "source_query": "Irrigation Equipment",
    "source_country": "PL",
    "country": "Poland",
    "state": "Greater Poland Voivodeship",
    "city": "Czempiń"
  },
  {
    "source_id": "ChIJYccMaJutBUcRjTLGHi4MYH4",
    "name": "Jędrzejczak Andrzej. Sklep spożywczy",
    "category": "Jędrzejczak Andrzej. Sklep spożywczy",
    "formatted_address": "5,0(2)",
    "phone_number": "+48612826798",
    "source_url": "https://www.google.com/maps/place/J%C4%99drzejczak+Andrzej.+Sklep+spo%C5%BCywczy/data=!4m7!3m6!1s0x4705ad9b680cc761:0x7e600c2e1ec6328d!8m2!3d52.1427904!4d16.7616933!16s%2Fg%2F1tdfgd6p!19sChIJYccMaJutBUcRjTLGHi4MYH4?authuser=0&hl=tr&rclk=1",
    "website_url": "",
    "rating_text": "5,0",
    "stars": null,
    "number_of_reviews": null,
    "price_level": "",
    "open_hours": "",
    "extraction_timestamp": "2025-06-07T17:57:49.821Z",
    "source_name": "google",
    "source_query": "Irrigation Equipment",
    "source_country": "PL",
    "country": "Poland",
    "state": "Greater Poland Voivodeship",
    "city": "Czempiń"
  },
  {
    "source_id": "ChIJec4mCACtBUcRv-Zi92XDtMQ",
    "name": "AUTODOMIN Dominik Występski",
    "category": "AUTODOMIN Dominik Występski",
    "formatted_address": "5,0(7)",
    "phone_number": "+48605835463",
    "source_url": "https://www.google.com/maps/place/AUTODOMIN+Dominik+Wyst%C4%99pski/data=!4m7!3m6!1s0x4705ad000826ce79:0xc4b4c365f762e6bf!8m2!3d52.1465604!4d16.7659146!16s%2Fg%2F11y2jr_npl!19sChIJec4mCACtBUcRv-Zi92XDtMQ?authuser=0&hl=tr&rclk=1",
    "website_url": "",
    "rating_text": "5,0",
    "stars": null,
    "number_of_reviews": null,
    "price_level": "",
    "open_hours": "",
    "extraction_timestamp": "2025-06-07T17:57:49.822Z",
    "source_name": "google",
    "source_query": "Irrigation Equipment",
    "source_country": "PL",
    "country": "Poland",
    "state": "Greater Poland Voivodeship",
    "city": "Czempiń"
  },
  {
    "source_id": "ChIJBwdvaputBUcR754GOZmdeKA",
    "name": "Biedronka",
    "category": "Biedronka",
    "formatted_address": "4,1(644)",
    "phone_number": "+48800080010",
    "source_url": "https://www.google.com/maps/place/Biedronka/data=!4m7!3m6!1s0x4705ad9b6a6f0707:0xa0789d9939069eef!8m2!3d52.1427403!4d16.7611841!16s%2Fg%2F113jdsjm6!19sChIJBwdvaputBUcR754GOZmdeKA?authuser=0&hl=tr&rclk=1",
    "website_url": "",
    "rating_text": "4,1",
    "stars": null,
    "number_of_reviews": null,
    "price_level": "",
    "open_hours": "",
    "extraction_timestamp": "2025-06-07T17:57:49.823Z",
    "source_name": "google",
    "source_query": "Irrigation Equipment",
    "source_country": "PL",
    "country": "Poland",
    "state": "Greater Poland Voivodeship",
    "city": "Czempiń"
  },
  {
    "source_id": "ChIJvbxmp5ytBUcRXbr0BONPA-k",
    "name": "Sklep spożywczo - monopolowy GS Samopomoc Chłopska tu niema alkoholu",
    "category": "Sklep spożywczo - monopolowy GS Samopomoc Chłopska tu niema alkoholu",
    "formatted_address": "",
    "phone_number": "+48612827349",
    "source_url": "https://www.google.com/maps/place/Sklep+spo%C5%BCywczo+-+monopolowy+GS+Samopomoc+Ch%C5%82opska+tu+niema+alkoholu/data=!4m7!3m6!1s0x4705ad9ca766bcbd:0xe9034fe304f4ba5d!8m2!3d52.1435866!4d16.7615506!16s%2Fg%2F1tf06cfp!19sChIJvbxmp5ytBUcRXbr0BONPA-k?authuser=0&hl=tr&rclk=1",
    "website_url": "",
    "rating_text": "",
    "stars": null,
    "number_of_reviews": null,
    "price_level": "",
    "open_hours": "",
    "extraction_timestamp": "2025-06-07T17:57:49.846Z",
    "source_name": "google",
    "source_query": "Irrigation Equipment",
    "source_country": "PL",
    "country": "Poland",
    "state": "Greater Poland Voivodeship",
    "city": "Czempiń"
  },
  {
    "source_id": "ChIJgb9bwAyxBUcRbkzLVmoU4K0",
    "name": "OGRÓD-MAX Maciej Kaczmarek",
    "category": "OGRÓD-MAX Maciej Kaczmarek",
    "formatted_address": "4,3(21)",
    "phone_number": "+48601822699",
    "source_url": "https://www.google.com/maps/place/OGR%C3%93D-MAX+Maciej+Kaczmarek/data=!4m7!3m6!1s0x4705b10cc05bbf81:0xade0146a56cb4c6e!8m2!3d52.099415!4d16.6417199!16s%2Fg%2F11bxc6cnmj!19sChIJgb9bwAyxBUcRbkzLVmoU4K0?authuser=0&hl=tr&rclk=1",
    "website_url": "",
    "rating_text": "4,3",
    "stars": null,
    "number_of_reviews": null,
    "price_level": "",
    "open_hours": "",
    "extraction_timestamp": "2025-06-07T17:57:49.846Z",
    "source_name": "google",
    "source_query": "Irrigation Equipment",
    "source_country": "PL",
    "country": "Poland",
    "state": "Greater Poland Voivodeship",
    "city": "Czempiń"
  },
  {
    "source_id": "ChIJwSpyy6mxBUcRzMjRYigH220",
    "name": "Natura",
    "category": "Natura",
    "formatted_address": "4,1(15)",
    "phone_number": "+48883378247",
    "source_url": "https://www.google.com/maps/place/Natura/data=!4m7!3m6!1s0x4705b1a9cb722ac1:0x6ddb072862d1c8cc!8m2!3d52.0865872!4d16.6454959!16s%2Fg%2F1tl8jdtr!19sChIJwSpyy6mxBUcRzMjRYigH220?authuser=0&hl=tr&rclk=1",
    "website_url": "",
    "rating_text": "4,1",
    "stars": null,
    "number_of_reviews": null,
    "price_level": "",
    "open_hours": "",
    "extraction_timestamp": "2025-06-07T17:57:49.847Z",
    "source_name": "google",
    "source_query": "Irrigation Equipment",
    "source_country": "PL",
    "country": "Poland",
    "state": "Greater Poland Voivodeship",
    "city": "Czempiń"
  },
  {
    "source_id": "ChIJ_e0StayzBUcRS3b3iXue3cI",
    "name": "Sklep spożywczo-mopolowy Sekwim",
    "category": "Sklep spożywczo-mopolowy Sekwim",
    "formatted_address": "4,3(25)",
    "phone_number": "",
    "source_url": "https://www.google.com/maps/place/Sklep+spo%C5%BCywczo-mopolowy+Sekwim/data=!4m7!3m6!1s0x4705b3acb512edfd:0xc2dd9e7b89f7764b!8m2!3d52.1527029!4d16.6849825!16s%2Fg%2F11g9qsjkzr!19sChIJ_e0StayzBUcRS3b3iXue3cI?authuser=0&hl=tr&rclk=1",
    "website_url": "",
    "rating_text": "4,3",
    "stars": null,
    "number_of_reviews": null,
    "price_level": "",
    "open_hours": "",
    "extraction_timestamp": "2025-06-07T17:57:49.847Z",
    "source_name": "google",
    "source_query": "Irrigation Equipment",
    "source_country": "PL",
    "country": "Poland",
    "state": "Greater Poland Voivodeship",
    "city": "Czempiń"
  },
  {
    "source_id": "ChIJDyowfo-xBUcR4raovTFtCNQ",
    "name": "Ostrowska Karolina. Firma usługowo - handlowa",
    "category": "Ostrowska Karolina. Firma usługowo - handlowa",
    "formatted_address": "4,2(9)",
    "phone_number": "+48655127411",
    "source_url": "https://www.google.com/maps/place/Ostrowska+Karolina.+Firma+us%C5%82ugowo+-+handlowa/data=!4m7!3m6!1s0x4705b18f7e302a0f:0xd4086d31bda8b6e2!8m2!3d52.1097417!4d16.6742257!16s%2Fg%2F1hc5pmrdj!19sChIJDyowfo-xBUcR4raovTFtCNQ?authuser=0&hl=tr&rclk=1",
    "website_url": "",
    "rating_text": "4,2",
    "stars": null,
    "number_of_reviews": null,
    "price_level": "",
    "open_hours": "",
    "extraction_timestamp": "2025-06-07T17:57:49.847Z",
    "source_name": "google",
    "source_query": "Irrigation Equipment",
    "source_country": "PL",
    "country": "Poland",
    "state": "Greater Poland Voivodeship",
    "city": "Czempiń"
  },
  {
    "source_id": "ChIJYxrAThqxBUcRov5QBgK1yMA",
    "name": "Łukasz Ulichnowski Monter Instalacji Wodno-Kanalizacyjnych i Co",
    "category": "Łukasz Ulichnowski Monter Instalacji Wodno-Kanalizacyjnych i Co",
    "formatted_address": "3,7(3)",
    "phone_number": "+48539958366",
    "source_url": "https://www.google.com/maps/place/%C5%81ukasz+Ulichnowski+Monter+Instalacji+Wodno-Kanalizacyjnych+i+Co/data=!4m7!3m6!1s0x4705b11a4ec01a63:0xc0c8b5020650fea2!8m2!3d52.086813!4d16.67271!16s%2Fg%2F11rwnbwyvw!19sChIJYxrAThqxBUcRov5QBgK1yMA?authuser=0&hl=tr&rclk=1",
    "website_url": "",
    "rating_text": "3,7",
    "stars": null,
    "number_of_reviews": null,
    "price_level": "",
    "open_hours": "",
    "extraction_timestamp": "2025-06-07T17:57:49.847Z",
    "source_name": "google",
    "source_query": "Irrigation Equipment",
    "source_country": "PL",
    "country": "Poland",
    "state": "Greater Poland Voivodeship",
    "city": "Czempiń"
  },
  {
    "source_id": "ChIJNwJou0JO3IoRaKzcaTqacO4",
    "name": "Genialny Ogród-Usługi Ogrodnicze",
    "category": "Genialny Ogród-Usługi Ogrodnicze",
    "formatted_address": "4,8(20)",
    "phone_number": "+48530136216",
    "source_url": "https://www.google.com/maps/place/Genialny+Ogr%C3%B3d-Us%C5%82ugi+Ogrodnicze/data=!4m7!3m6!1s0x8adc4e42bb680237:0xee709a3a69dcac68!8m2!3d52.0287216!4d16.6648398!16s%2Fg%2F11l6dd3z4t!19sChIJNwJou0JO3IoRaKzcaTqacO4?authuser=0&hl=tr&rclk=1",
    "website_url": "",
    "rating_text": "4,8",
    "stars": null,
    "number_of_reviews": null,
    "price_level": "",
    "open_hours": "",
    "extraction_timestamp": "2025-06-07T17:57:49.848Z",
    "source_name": "google",
    "source_query": "Irrigation Equipment",
    "source_country": "PL",
    "country": "Poland",
    "state": "Greater Poland Voivodeship",
    "city": "Czempiń"
  }
]
