[
  {
    "source_id": "ChIJB6y_v5J2HEcRlDfYx3xmc9M",
    "name": "Milex irrigation systems",
    "category": "Milex irrigation systems",
    "formatted_address": "4,6(37)",
    "phone_number": "+48242775222",
    "source_url": "https://www.google.com/maps/place/Milex+irrigation+systems/data=!4m7!3m6!1s0x471c7692bfbfac07:0xd373667cc7d83794!8m2!3d52.4690634!4d19.7520904!16s%2Fg%2F1w2yy67r!19sChIJB6y_v5J2HEcRlDfYx3xmc9M?authuser=0&hl=tr&rclk=1",
    "website_url": "https://www.milex.pl/",
    "rating_text": "4,6",
    "stars": null,
    "number_of_reviews": null,
    "price_level": "",
    "open_hours": "",
    "extraction_timestamp": "2025-06-07T17:48:20.866Z",
    "source_name": "google",
    "source_query": "Irrigation Equipment",
    "source_country": "PL",
    "country": "Poland",
    "state": "Greater Poland Voivodeship",
    "city": "Czermin"
  },
  {
    "source_id": "ChIJfxKHic4uBUcRKNCFR3ytGAI",
    "name": "Lewiatan",
    "category": "Lewiatan",
    "formatted_address": "3,9(90)",
    "phone_number": "+48544127821",
    "source_url": "https://www.google.com/maps/place/Lewiatan/data=!4m7!3m6!1s0x47052ece8987127f:0x218ad7c4785d028!8m2!3d51.950091!4d17.7484231!16s%2Fg%2F11c2k24xks!19sChIJfxKHic4uBUcRKNCFR3ytGAI?authuser=0&hl=tr&rclk=1",
    "website_url": "http://www.lewiatan.pl/",
    "rating_text": "3,9",
    "stars": null,
    "number_of_reviews": null,
    "price_level": "",
    "open_hours": "",
    "extraction_timestamp": "2025-06-07T17:48:20.867Z",
    "source_name": "google",
    "source_query": "Irrigation Equipment",
    "source_country": "PL",
    "country": "Poland",
    "state": "Greater Poland Voivodeship",
    "city": "Czermin"
  },
  {
    "source_id": "ChIJdRnGeDBaBEcRpyx7M8s1JkQ",
    "name": "Wirtgen Polska Sp. z o.o.",
    "category": "Wirtgen Polska Sp. z o.o.",
    "formatted_address": "4,4(31)",
    "phone_number": "+48618982100",
    "source_url": "https://www.google.com/maps/place/Wirtgen+Polska+Sp.+z+o.o./data=!4m7!3m6!1s0x47045a3078c61975:0x442635cb337b2ca7!8m2!3d52.3665338!4d16.9940075!16s%2Fg%2F1pv043rwn!19sChIJdRnGeDBaBEcRpyx7M8s1JkQ?authuser=0&hl=tr&rclk=1",
    "website_url": "https://www.wirtgen-group.com/polska/",
    "rating_text": "4,4",
    "stars": null,
    "number_of_reviews": null,
    "price_level": "",
    "open_hours": "",
    "extraction_timestamp": "2025-06-07T17:48:20.868Z",
    "source_name": "google",
    "source_query": "Irrigation Equipment",
    "source_country": "PL",
    "country": "Poland",
    "state": "Greater Poland Voivodeship",
    "city": "Czermin"
  },
  {
    "source_id": "ChIJUfn2Ig35A0cREW9fZ4029UM",
    "name": "IMTechnika sp. z o.o.",
    "category": "IMTechnika sp. z o.o.",
    "formatted_address": "4,4(17)",
    "phone_number": "+48883820388",
    "source_url": "https://www.google.com/maps/place/IMTechnika+sp.+z+o.o./data=!4m7!3m6!1s0x4703f90d22f6f951:0x43f5368d675f6f11!8m2!3d52.9756271!4d16.657836!16s%2Fg%2F11bw48_6mg!19sChIJUfn2Ig35A0cREW9fZ4029UM?authuser=0&hl=tr&rclk=1",
    "website_url": "http://imtechnika.pl/",
    "rating_text": "4,4",
    "stars": null,
    "number_of_reviews": null,
    "price_level": "",
    "open_hours": "",
    "extraction_timestamp": "2025-06-07T17:48:20.869Z",
    "source_name": "google",
    "source_query": "Irrigation Equipment",
    "source_country": "PL",
    "country": "Poland",
    "state": "Greater Poland Voivodeship",
    "city": "Czermin"
  },
  {
    "source_id": "ChIJ2d4-0cpGBEcRTya15XLl9W0",
    "name": "POLGAR Garniewicz Wełniak spółka komandytowa",
    "category": "POLGAR Garniewicz Wełniak spółka komandytowa",
    "formatted_address": "4,5(23)",
    "phone_number": "+48618160631",
    "source_url": "https://www.google.com/maps/place/POLGAR+Garniewicz+We%C5%82niak+sp%C3%B3%C5%82ka+komandytowa/data=!4m7!3m6!1s0x470446cad13eded9:0x6df5e572e5b5264f!8m2!3d52.4535218!4d16.7706987!16s%2Fg%2F1tlzywfq!19sChIJ2d4-0cpGBEcRTya15XLl9W0?authuser=0&hl=tr&rclk=1",
    "website_url": "http://polgar.com.pl/",
    "rating_text": "4,5",
    "stars": null,
    "number_of_reviews": null,
    "price_level": "",
    "open_hours": "",
    "extraction_timestamp": "2025-06-07T17:48:20.870Z",
    "source_name": "google",
    "source_query": "Irrigation Equipment",
    "source_country": "PL",
    "country": "Poland",
    "state": "Greater Poland Voivodeship",
    "city": "Czermin"
  },
  {
    "source_id": "ChIJHyhChM4uBUcRfarsm0vvRM0",
    "name": "Panaceum. Apteka. Kołaska D., mgr farm.",
    "category": "Panaceum. Apteka. Kołaska D., mgr farm.",
    "formatted_address": "Panaceum. Apteka. Kołaska D., mgr farm.",
    "phone_number": "+48627416820",
    "source_url": "https://www.google.com/maps/place/Panaceum.+Apteka.+Ko%C5%82aska+D.,+mgr+farm./data=!4m7!3m6!1s0x47052ece8442281f:0xcd44ef4b9becaa7d!8m2!3d51.9491652!4d17.7487443!16s%2Fg%2F1td_fys8!19sChIJHyhChM4uBUcRfarsm0vvRM0?authuser=0&hl=tr&rclk=1",
    "website_url": "",
    "rating_text": "3,7",
    "stars": null,
    "number_of_reviews": null,
    "price_level": "",
    "open_hours": "",
    "extraction_timestamp": "2025-06-07T17:48:20.871Z",
    "source_name": "google",
    "source_query": "Irrigation Equipment",
    "source_country": "PL",
    "country": "Poland",
    "state": "Greater Poland Voivodeship",
    "city": "Czermin"
  },
  {
    "source_id": "ChIJOcWoToO26GMReNvhll3JWj4",
    "name": "Hydreen.pl | Automatyczne systemy nawadniające. Projektowanie, dostawa, montaż, serwis.",
    "category": "Hydreen.pl | Automatyczne systemy nawadniające. Projektowanie, dostawa, montaż, serwis.",
    "formatted_address": "Hydreen.pl | Automatyczne systemy nawadniające. Projektowanie, dostawa, montaż, serwis.",
    "phone_number": "+48694429669",
    "source_url": "https://www.google.com/maps/place/Hydreen.pl+%7C+Automatyczne+systemy+nawadniaj%C4%85ce.+Projektowanie,+dostawa,+monta%C5%BC,+serwis./data=!4m7!3m6!1s0x63e8b6834ea8c539:0x3e5ac95d96e1db78!8m2!3d54.1601!4d19.4437316!16s%2Fg%2F11m67mc1_m!19sChIJOcWoToO26GMReNvhll3JWj4?authuser=0&hl=tr&rclk=1",
    "website_url": "https://www.hydreen.pl/",
    "rating_text": "5,0",
    "stars": null,
    "number_of_reviews": null,
    "price_level": "",
    "open_hours": "",
    "extraction_timestamp": "2025-06-07T17:48:20.872Z",
    "source_name": "google",
    "source_query": "Irrigation Equipment",
    "source_country": "PL",
    "country": "Poland",
    "state": "Greater Poland Voivodeship",
    "city": "Czermin"
  },
  {
    "source_id": "ChIJyVfYTbp0PUcRq5Awm9Jnao0",
    "name": "Systemy automatycznego nawadniania e-nawodnienia.pl",
    "category": "Systemy automatycznego nawadniania e-nawodnienia.pl",
    "formatted_address": "4,8(25)",
    "phone_number": "+48500704488",
    "source_url": "https://www.google.com/maps/place/Systemy+automatycznego+nawadniania+e-nawodnienia.pl/data=!4m7!3m6!1s0x473d74ba4dd857c9:0x8d6a67d29b3090ab!8m2!3d50.1730552!4d21.4909736!16s%2Fg%2F1tj2gnmb!19sChIJyVfYTbp0PUcRq5Awm9Jnao0?authuser=0&hl=tr&rclk=1",
    "website_url": "https://e-nawodnienia.pl/",
    "rating_text": "4,8",
    "stars": null,
    "number_of_reviews": null,
    "price_level": "",
    "open_hours": "",
    "extraction_timestamp": "2025-06-07T17:48:20.873Z",
    "source_name": "google",
    "source_query": "Irrigation Equipment",
    "source_country": "PL",
    "country": "Poland",
    "state": "Greater Poland Voivodeship",
    "city": "Czermin"
  },
  {
    "source_id": "ChIJQZy536B0EEcRKXZ_6GMT_90",
    "name": "Agropol Jarych",
    "category": "Agropol Jarych",
    "formatted_address": "4,7(125)",
    "phone_number": "+48627819331",
    "source_url": "https://www.google.com/maps/place/Agropol+Jarych/data=!4m7!3m6!1s0x471074a0dfb99c41:0xddff1363e87f7629!8m2!3d51.25936!4d18.0074366!16s%2Fg%2F1ptw0t04b!19sChIJQZy536B0EEcRKXZ_6GMT_90?authuser=0&hl=tr&rclk=1",
    "website_url": "https://www.agropol-jarych.pl/",
    "rating_text": "4,7",
    "stars": null,
    "number_of_reviews": null,
    "price_level": "",
    "open_hours": "",
    "extraction_timestamp": "2025-06-07T17:48:20.874Z",
    "source_name": "google",
    "source_query": "Irrigation Equipment",
    "source_country": "PL",
    "country": "Poland",
    "state": "Greater Poland Voivodeship",
    "city": "Czermin"
  },
  {
    "source_id": "ChIJuURpljPKHkcRbHI_RgEM7_8",
    "name": "Sprinkler Sp. z o.o.",
    "category": "Sprinkler Sp. z o.o.",
    "formatted_address": "5,0(2)",
    "phone_number": "+48662141039",
    "source_url": "https://www.google.com/maps/place/Sprinkler+Sp.+z+o.o./data=!4m7!3m6!1s0x471eca33966944b9:0xffef0c01463f726c!8m2!3d52.2406666!4d20.9087774!16s%2Fg%2F11f10g71_3!19sChIJuURpljPKHkcRbHI_RgEM7_8?authuser=0&hl=tr&rclk=1",
    "website_url": "http://www.sprinkler.pl/",
    "rating_text": "5,0",
    "stars": null,
    "number_of_reviews": null,
    "price_level": "",
    "open_hours": "",
    "extraction_timestamp": "2025-06-07T17:48:20.875Z",
    "source_name": "google",
    "source_query": "Irrigation Equipment",
    "source_country": "PL",
    "country": "Poland",
    "state": "Greater Poland Voivodeship",
    "city": "Czermin"
  },
  {
    "source_id": "ChIJA6JYetBEBEcRSesm_bQs_GE",
    "name": "Tractorpool - Farm Machinery, Agricultural equipment.",
    "category": "Tractorpool - Farm Machinery, Agricultural equipment.",
    "formatted_address": "Tractorpool - Farm Machinery, Agricultural equipment.",
    "phone_number": "+48618862914",
    "source_url": "https://www.google.com/maps/place/Tractorpool+-+Farm+Machinery,+Agricultural+equipment./data=!4m7!3m6!1s0x470444d07a58a203:0x61fc2cb4fd26eb49!8m2!3d52.381122!4d16.886331!16s%2Fg%2F1hm2sj2sl!19sChIJA6JYetBEBEcRSesm_bQs_GE?authuser=0&hl=tr&rclk=1",
    "website_url": "http://www.traktorpool.pl/",
    "rating_text": "3,0",
    "stars": null,
    "number_of_reviews": null,
    "price_level": "",
    "open_hours": "",
    "extraction_timestamp": "2025-06-07T17:48:20.876Z",
    "source_name": "google",
    "source_query": "Irrigation Equipment",
    "source_country": "PL",
    "country": "Poland",
    "state": "Greater Poland Voivodeship",
    "city": "Czermin"
  },
  {
    "source_id": "ChIJ9cxinJg2GUcRmPrTTmBsRZw",
    "name": "Ekro Knyż Sp.j",
    "category": "Ekro Knyż Sp.j",
    "formatted_address": "4,8(32)",
    "phone_number": "+48604933325",
    "source_url": "https://www.google.com/maps/place/Ekro+Kny%C5%BC+Sp.j/data=!4m7!3m6!1s0x471936989c62ccf5:0x9c456c604ed3fa98!8m2!3d52.1262586!4d20.8581138!16s%2Fg%2F1tdnc_kr!19sChIJ9cxinJg2GUcRmPrTTmBsRZw?authuser=0&hl=tr&rclk=1",
    "website_url": "http://ekro.com.pl/",
    "rating_text": "4,8",
    "stars": null,
    "number_of_reviews": null,
    "price_level": "",
    "open_hours": "",
    "extraction_timestamp": "2025-06-07T17:48:20.877Z",
    "source_name": "google",
    "source_query": "Irrigation Equipment",
    "source_country": "PL",
    "country": "Poland",
    "state": "Greater Poland Voivodeship",
    "city": "Czermin"
  },
  {
    "source_id": "ChIJVTV3W_PzBEcR6gY0xwQi2_E",
    "name": "Deszczownie.com",
    "category": "Deszczownie.com",
    "formatted_address": "",
    "phone_number": "+48726000030",
    "source_url": "https://www.google.com/maps/place/Deszczownie.com/data=!4m7!3m6!1s0x4704f3f35b773555:0xf1db2204c73406ea!8m2!3d52.3623948!4d17.4021087!16s%2Fg%2F11y3pv4rxr!19sChIJVTV3W_PzBEcR6gY0xwQi2_E?authuser=0&hl=tr&rclk=1",
    "website_url": "https://www.deszczownie.com/",
    "rating_text": "",
    "stars": null,
    "number_of_reviews": null,
    "price_level": "",
    "open_hours": "",
    "extraction_timestamp": "2025-06-07T17:48:20.878Z",
    "source_name": "google",
    "source_query": "Irrigation Equipment",
    "source_country": "PL",
    "country": "Poland",
    "state": "Greater Poland Voivodeship",
    "city": "Czermin"
  },
  {
    "source_id": "ChIJ76WAmPBgGUcRnx47bXjXTwU",
    "name": "Agrofim Poland Sp. z o.o.",
    "category": "Agrofim Poland Sp. z o.o.",
    "formatted_address": "3,8(6)",
    "phone_number": "+48468332266",
    "source_url": "https://www.google.com/maps/place/Agrofim+Poland+Sp.+z+o.o./data=!4m7!3m6!1s0x471960f09880a5ef:0x54fd7786d3b1e9f!8m2!3d51.9616303!4d20.1543898!16s%2Fg%2F1tdnjw7b!19sChIJ76WAmPBgGUcRnx47bXjXTwU?authuser=0&hl=tr&rclk=1",
    "website_url": "http://agrofim.pl/",
    "rating_text": "3,8",
    "stars": null,
    "number_of_reviews": null,
    "price_level": "",
    "open_hours": "",
    "extraction_timestamp": "2025-06-07T17:48:20.878Z",
    "source_name": "google",
    "source_query": "Irrigation Equipment",
    "source_country": "PL",
    "country": "Poland",
    "state": "Greater Poland Voivodeship",
    "city": "Czermin"
  }
]
