[
  {
    "source_id": "ChIJ1fH8twRdBEcRWGX6D1tc3ZA",
    "name": "Kardoliński Zbigniew. Pompy głębinowe, hydroforowe, ściekowe",
    "category": "Kardoliński Zbigniew. Pompy głębinowe, hydroforowe, ściekowe",
    "formatted_address": "Kardoliński Zbigniew. Pompy głębinowe, hydroforowe, ściekowe",
    "phone_number": "",
    "source_url": "https://www.google.com/maps/place/Kardoli%C5%84ski+Zbigniew.+Pompy+g%C5%82%C4%99binowe,+hydroforowe,+%C5%9Bciekowe/data=!4m7!3m6!1s0x47045d04b7fcf1d5:0x90dd5c5b0ffa6558!8m2!3d52.4712374!4d16.9991202!16s%2Fg%2F1tfwj1tc!19sChIJ1fH8twRdBEcRWGX6D1tc3ZA?authuser=0&hl=tr&rclk=1",
    "website_url": "http://www.pompykardolinski.pl/",
    "rating_text": "4,8",
    "stars": null,
    "number_of_reviews": null,
    "price_level": "",
    "open_hours": "",
    "extraction_timestamp": "2025-06-07T17:35:32.239Z",
    "source_name": "google",
    "source_query": "Irrigation Equipment",
    "source_country": "PL",
    "country": "Poland",
    "state": "Greater Poland Voivodeship",
    "city": "Czerwonak"
  },
  {
    "source_id": "ChIJqWUG2iNdBEcR6QJmdF4QVZ0",
    "name": "SIJA Sp. z o.o.",
    "category": "SIJA Sp. z o.o.",
    "formatted_address": "5,0(4)",
    "phone_number": "+48889863034",
    "source_url": "https://www.google.com/maps/place/SIJA+Sp.+z+o.o./data=!4m7!3m6!1s0x47045d23da0665a9:0x9d55105e746602e9!8m2!3d52.4711182!4d16.9780516!16s%2Fg%2F11f55_s9tq!19sChIJqWUG2iNdBEcR6QJmdF4QVZ0?authuser=0&hl=tr&rclk=1",
    "website_url": "http://www.sija.eu/",
    "rating_text": "5,0",
    "stars": null,
    "number_of_reviews": null,
    "price_level": "",
    "open_hours": "",
    "extraction_timestamp": "2025-06-07T17:35:32.240Z",
    "source_name": "google",
    "source_query": "Irrigation Equipment",
    "source_country": "PL",
    "country": "Poland",
    "state": "Greater Poland Voivodeship",
    "city": "Czerwonak"
  },
  {
    "source_id": "ChIJ_y5-HSBdBEcRYHeVkHnfWDo",
    "name": "STAR PIPE POLSKA Sp. z o.o.",
    "category": "STAR PIPE POLSKA Sp. z o.o.",
    "formatted_address": "5,0(1)",
    "phone_number": "",
    "source_url": "https://www.google.com/maps/place/STAR+PIPE+POLSKA+Sp.+z+o.o./data=!4m7!3m6!1s0x47045d201d7e2eff:0x3a58df7990957760!8m2!3d52.467494!4d16.9792768!16s%2Fg%2F11gy3jy08z!19sChIJ_y5-HSBdBEcRYHeVkHnfWDo?authuser=0&hl=tr&rclk=1",
    "website_url": "http://strefakomunikaty.pl/",
    "rating_text": "5,0",
    "stars": null,
    "number_of_reviews": null,
    "price_level": "",
    "open_hours": "",
    "extraction_timestamp": "2025-06-07T17:35:32.240Z",
    "source_name": "google",
    "source_query": "Irrigation Equipment",
    "source_country": "PL",
    "country": "Poland",
    "state": "Greater Poland Voivodeship",
    "city": "Czerwonak"
  },
  {
    "source_id": "ChIJSxbnEeFcBEcR9L9KTiSqMRo",
    "name": "Jagodzińscy sp. z o.o.",
    "category": "Jagodzińscy sp. z o.o.",
    "formatted_address": "5,0(6)",
    "phone_number": "+48618120150",
    "source_url": "https://www.google.com/maps/place/Jagodzi%C5%84scy+sp.+z+o.o./data=!4m7!3m6!1s0x47045ce111e7164b:0x1a31aa244e4abff4!8m2!3d52.4637036!4d16.9824551!16s%2Fg%2F1jglwtcx6!19sChIJSxbnEeFcBEcR9L9KTiSqMRo?authuser=0&hl=tr&rclk=1",
    "website_url": "http://www.jagodzinscy.pl/",
    "rating_text": "5,0",
    "stars": null,
    "number_of_reviews": null,
    "price_level": "",
    "open_hours": "",
    "extraction_timestamp": "2025-06-07T17:35:32.240Z",
    "source_name": "google",
    "source_query": "Irrigation Equipment",
    "source_country": "PL",
    "country": "Poland",
    "state": "Greater Poland Voivodeship",
    "city": "Czerwonak"
  },
  {
    "source_id": "ChIJ08Gh7R9dBEcRxjRDsq-RRq0",
    "name": "Grel-Pol s.c. Rosik G., Gruszka W.",
    "category": "Grel-Pol s.c. Rosik G., Gruszka W.",
    "formatted_address": "Grel-Pol s.c. Rosik G., Gruszka W.",
    "phone_number": "+48618120922",
    "source_url": "https://www.google.com/maps/place/Grel-Pol+s.c.+Rosik+G.,+Gruszka+W./data=!4m7!3m6!1s0x47045d1feda1c1d3:0xad4691afb24334c6!8m2!3d52.468358!4d16.9809189!16s%2Fg%2F1tjmcc38!19sChIJ08Gh7R9dBEcRxjRDsq-RRq0?authuser=0&hl=tr&rclk=1",
    "website_url": "",
    "rating_text": "4,4",
    "stars": null,
    "number_of_reviews": null,
    "price_level": "",
    "open_hours": "",
    "extraction_timestamp": "2025-06-07T17:35:32.247Z",
    "source_name": "google",
    "source_query": "Irrigation Equipment",
    "source_country": "PL",
    "country": "Poland",
    "state": "Greater Poland Voivodeship",
    "city": "Czerwonak"
  },
  {
    "source_id": "ChIJ95_yLBldBEcRDGDzYPpaY5s",
    "name": "HYDRO-INSTAL",
    "category": "HYDRO-INSTAL",
    "formatted_address": "5,0(1)",
    "phone_number": "+48691732394",
    "source_url": "https://www.google.com/maps/place/HYDRO-INSTAL/data=!4m7!3m6!1s0x47045d192cf29ff7:0x9b635afa60f3600c!8m2!3d52.4725176!4d16.9878616!16s%2Fg%2F11frsn6sjl!19sChIJ95_yLBldBEcRDGDzYPpaY5s?authuser=0&hl=tr&rclk=1",
    "website_url": "",
    "rating_text": "5,0",
    "stars": null,
    "number_of_reviews": null,
    "price_level": "",
    "open_hours": "",
    "extraction_timestamp": "2025-06-07T17:35:32.248Z",
    "source_name": "google",
    "source_query": "Irrigation Equipment",
    "source_country": "PL",
    "country": "Poland",
    "state": "Greater Poland Voivodeship",
    "city": "Czerwonak"
  },
  {
    "source_id": "ChIJ4zc6v4hZBEcRKah1mzKBwPg",
    "name": "PHU \"ADVISER\" - Systemy nawadniania",
    "category": "PHU \"ADVISER\" - Systemy nawadniania",
    "formatted_address": "4,8(123)",
    "phone_number": "+48618798700",
    "source_url": "https://www.google.com/maps/place/PHU+%22ADVISER%22+-+Systemy+nawadniania/data=!4m7!3m6!1s0x47045988bf3a37e3:0xf8c081329b75a829!8m2!3d52.3434333!4d17.0287055!16s%2Fg%2F1w3459w5!19sChIJ4zc6v4hZBEcRKah1mzKBwPg?authuser=0&hl=tr&rclk=1",
    "website_url": "http://www.phu-adviser.pl/",
    "rating_text": "4,8",
    "stars": null,
    "number_of_reviews": null,
    "price_level": "",
    "open_hours": "",
    "extraction_timestamp": "2025-06-07T17:35:32.248Z",
    "source_name": "google",
    "source_query": "Irrigation Equipment",
    "source_country": "PL",
    "country": "Poland",
    "state": "Greater Poland Voivodeship",
    "city": "Czerwonak"
  },
  {
    "source_id": "ChIJhxDjzbVdBEcRlAZybqxMg-Q",
    "name": "Perfekcyjny Ogród",
    "category": "Perfekcyjny Ogród",
    "formatted_address": "5,0(12)",
    "phone_number": "+48517129667",
    "source_url": "https://www.google.com/maps/place/Perfekcyjny+Ogr%C3%B3d/data=!4m7!3m6!1s0x47045db5cde31087:0xe4834cac6e720694!8m2!3d52.4747416!4d16.9854597!16s%2Fg%2F11fnb299yg!19sChIJhxDjzbVdBEcRlAZybqxMg-Q?authuser=0&hl=tr&rclk=1",
    "website_url": "",
    "rating_text": "5,0",
    "stars": null,
    "number_of_reviews": null,
    "price_level": "",
    "open_hours": "",
    "extraction_timestamp": "2025-06-07T17:35:32.248Z",
    "source_name": "google",
    "source_query": "Irrigation Equipment",
    "source_country": "PL",
    "country": "Poland",
    "state": "Greater Poland Voivodeship",
    "city": "Czerwonak"
  },
  {
    "source_id": "ChIJg-nxUTtdBEcRjzF-rOCyCrA",
    "name": "Tespa. Spawanie",
    "category": "Tespa. Spawanie",
    "formatted_address": "4,8(13)",
    "phone_number": "+48509337277",
    "source_url": "https://www.google.com/maps/place/Tespa.+Spawanie/data=!4m7!3m6!1s0x47045d3b51f1e983:0xb00ab2e0ac7e318f!8m2!3d52.4789466!4d16.9774233!16s%2Fg%2F1tjz21xn!19sChIJg-nxUTtdBEcRjzF-rOCyCrA?authuser=0&hl=tr&rclk=1",
    "website_url": "",
    "rating_text": "4,8",
    "stars": null,
    "number_of_reviews": null,
    "price_level": "",
    "open_hours": "",
    "extraction_timestamp": "2025-06-07T17:35:32.249Z",
    "source_name": "google",
    "source_query": "Irrigation Equipment",
    "source_country": "PL",
    "country": "Poland",
    "state": "Greater Poland Voivodeship",
    "city": "Czerwonak"
  },
  {
    "source_id": "ChIJsz9M_BNfBEcR6_44pqZu2V0",
    "name": "SAMURIO",
    "category": "SAMURIO",
    "formatted_address": "4,9(103)",
    "phone_number": "+48797796062",
    "source_url": "https://www.google.com/maps/place/SAMURIO/data=!4m7!3m6!1s0x47045f13fc4c3fb3:0x5dd96ea6a638feeb!8m2!3d52.4671989!4d16.9489626!16s%2Fg%2F11rctv7f14!19sChIJsz9M_BNfBEcR6_44pqZu2V0?authuser=0&hl=tr&rclk=1",
    "website_url": "https://www.samurio.pl/",
    "rating_text": "4,9",
    "stars": null,
    "number_of_reviews": null,
    "price_level": "",
    "open_hours": "",
    "extraction_timestamp": "2025-06-07T17:35:32.249Z",
    "source_name": "google",
    "source_query": "Irrigation Equipment",
    "source_country": "PL",
    "country": "Poland",
    "state": "Greater Poland Voivodeship",
    "city": "Czerwonak"
  },
  {
    "source_id": "ChIJ0USMYP1cBEcRVK7FWfHkryM",
    "name": "King Spaw",
    "category": "King Spaw",
    "formatted_address": "3,0(2)",
    "phone_number": "+48606820900",
    "source_url": "https://www.google.com/maps/place/King+Spaw/data=!4m7!3m6!1s0x47045cfd608c44d1:0x23afe4f159c5ae54!8m2!3d52.4646342!4d16.9961214!16s%2Fg%2F11h48x0tm1!19sChIJ0USMYP1cBEcRVK7FWfHkryM?authuser=0&hl=tr&rclk=1",
    "website_url": "http://king-spaw.pl/kontakt.htm",
    "rating_text": "3,0",
    "stars": null,
    "number_of_reviews": null,
    "price_level": "",
    "open_hours": "",
    "extraction_timestamp": "2025-06-07T17:35:32.250Z",
    "source_name": "google",
    "source_query": "Irrigation Equipment",
    "source_country": "PL",
    "country": "Poland",
    "state": "Greater Poland Voivodeship",
    "city": "Czerwonak"
  },
  {
    "source_id": "ChIJrXu96PVcBEcRR5dAhMNiLtg",
    "name": "HIPPER.pl",
    "category": "HIPPER.pl",
    "formatted_address": "4,1(1.016)",
    "phone_number": "+48509145300",
    "source_url": "https://www.google.com/maps/place/HIPPER.pl/data=!4m7!3m6!1s0x47045cf5e8bd7bad:0xd82e62c384409747!8m2!3d52.4472625!4d16.9978116!16s%2Fg%2F11dfjw_cy8!19sChIJrXu96PVcBEcRR5dAhMNiLtg?authuser=0&hl=tr&rclk=1",
    "website_url": "http://www.hipper.pl/",
    "rating_text": "4,1",
    "stars": null,
    "number_of_reviews": null,
    "price_level": "",
    "open_hours": "",
    "extraction_timestamp": "2025-06-07T17:35:32.252Z",
    "source_name": "google",
    "source_query": "Irrigation Equipment",
    "source_country": "PL",
    "country": "Poland",
    "state": "Greater Poland Voivodeship",
    "city": "Czerwonak"
  },
  {
    "source_id": "ChIJ6TigCPtbBEcRDr5Mlbvqz0s",
    "name": "REXEL",
    "category": "REXEL",
    "formatted_address": "3,2(11)",
    "phone_number": "+48618768946",
    "source_url": "https://www.google.com/maps/place/REXEL/data=!4m7!3m6!1s0x47045bfb08a038e9:0x4bcfeabb954cbe0e!8m2!3d52.4074751!4d17.0285672!16s%2Fg%2F1th0lll2!19sChIJ6TigCPtbBEcRDr5Mlbvqz0s?authuser=0&hl=tr&rclk=1",
    "website_url": "http://www.rexel.com.pl/",
    "rating_text": "3,2",
    "stars": null,
    "number_of_reviews": null,
    "price_level": "",
    "open_hours": "",
    "extraction_timestamp": "2025-06-07T17:35:32.253Z",
    "source_name": "google",
    "source_query": "Irrigation Equipment",
    "source_country": "PL",
    "country": "Poland",
    "state": "Greater Poland Voivodeship",
    "city": "Czerwonak"
  },
  {
    "source_id": "ChIJrfaDZTxdBEcR2FjdFfOqFdI",
    "name": "PHU JANKES Anna Jankowiak",
    "category": "PHU JANKES Anna Jankowiak",
    "formatted_address": "4,1(36)",
    "phone_number": "+48618121376",
    "source_url": "https://www.google.com/maps/place/PHU+JANKES+Anna+Jankowiak/data=!4m7!3m6!1s0x47045d3c6583f6ad:0xd215aaf315dd58d8!8m2!3d52.4810863!4d16.9807773!16s%2Fg%2F1tfgbyly!19sChIJrfaDZTxdBEcR2FjdFfOqFdI?authuser=0&hl=tr&rclk=1",
    "website_url": "",
    "rating_text": "4,1",
    "stars": null,
    "number_of_reviews": null,
    "price_level": "",
    "open_hours": "",
    "extraction_timestamp": "2025-06-07T17:35:32.253Z",
    "source_name": "google",
    "source_query": "Irrigation Equipment",
    "source_country": "PL",
    "country": "Poland",
    "state": "Greater Poland Voivodeship",
    "city": "Czerwonak"
  },
  {
    "source_id": "ChIJO0Yn9whdBEcRTQA7ZzIuh5A",
    "name": "RoboSPot Sp. z o. o. | Spawanie zrobotyzowane | Automatyka Przemysłowa",
    "category": "RoboSPot Sp. z o. o. | Spawanie zrobotyzowane | Automatyka Przemysłowa",
    "formatted_address": "",
    "phone_number": "+48504860650",
    "source_url": "https://www.google.com/maps/place/RoboSPot+Sp.+z+o.+o.+%7C+Spawanie+zrobotyzowane+%7C+Automatyka+Przemys%C5%82owa/data=!4m7!3m6!1s0x47045d08f727463b:0x90872e32673b004d!8m2!3d52.4715485!4d16.9783401!16s%2Fg%2F11tsdm9lxy!19sChIJO0Yn9whdBEcRTQA7ZzIuh5A?authuser=0&hl=tr&rclk=1",
    "website_url": "http://robospot.pl/",
    "rating_text": "",
    "stars": null,
    "number_of_reviews": null,
    "price_level": "",
    "open_hours": "",
    "extraction_timestamp": "2025-06-07T17:35:32.254Z",
    "source_name": "google",
    "source_query": "Irrigation Equipment",
    "source_country": "PL",
    "country": "Poland",
    "state": "Greater Poland Voivodeship",
    "city": "Czerwonak"
  },
  {
    "source_id": "ChIJ03UCFLhdBEcR7GVMvQE5Fc4",
    "name": "Instalacje wod., kan., c.o.gaz Łukasz Grajzer",
    "category": "Instalacje wod., kan., c.o.gaz Łukasz Grajzer",
    "formatted_address": "Instalacje wod., kan., c.o.gaz Łukasz Grajzer",
    "phone_number": "+48883321741",
    "source_url": "https://www.google.com/maps/place/Instalacje+wod.,+kan.,+c.o.gaz+%C5%81ukasz+Grajzer/data=!4m7!3m6!1s0x47045db8140275d3:0xce153901bd4c65ec!8m2!3d52.4656511!4d16.9499052!16s%2Fg%2F11ll8f6pb0!19sChIJ03UCFLhdBEcR7GVMvQE5Fc4?authuser=0&hl=tr&rclk=1",
    "website_url": "",
    "rating_text": "5,0",
    "stars": null,
    "number_of_reviews": null,
    "price_level": "",
    "open_hours": "",
    "extraction_timestamp": "2025-06-07T17:35:32.255Z",
    "source_name": "google",
    "source_query": "Irrigation Equipment",
    "source_country": "PL",
    "country": "Poland",
    "state": "Greater Poland Voivodeship",
    "city": "Czerwonak"
  },
  {
    "source_id": "ChIJjyz1agBdBEcRQnCLqTbr-P0",
    "name": "PRZEDSIĘBIORSTWO PRODUKCYJNO-HANDLOWE RAKAPOL Sp. z o.o.",
    "category": "PRZEDSIĘBIORSTWO PRODUKCYJNO-HANDLOWE RAKAPOL Sp. z o.o.",
    "formatted_address": "5,0(2)",
    "phone_number": "+48618257041",
    "source_url": "https://www.google.com/maps/place/PRZEDSI%C4%98BIORSTWO+PRODUKCYJNO-HANDLOWE+RAKAPOL+Sp.+z+o.o./data=!4m7!3m6!1s0x47045d006af52c8f:0xfdf8eb36a98b7042!8m2!3d52.4668405!4d16.9481286!16s%2Fg%2F11lv_nfk5_!19sChIJjyz1agBdBEcRQnCLqTbr-P0?authuser=0&hl=tr&rclk=1",
    "website_url": "https://rakapol.pl/",
    "rating_text": "5,0",
    "stars": null,
    "number_of_reviews": null,
    "price_level": "",
    "open_hours": "",
    "extraction_timestamp": "2025-06-07T17:35:32.256Z",
    "source_name": "google",
    "source_query": "Irrigation Equipment",
    "source_country": "PL",
    "country": "Poland",
    "state": "Greater Poland Voivodeship",
    "city": "Czerwonak"
  },
  {
    "source_id": "ChIJIQMJooZdBEcR9A-RTOdTTVU",
    "name": "Duży Ben",
    "category": "Duży Ben",
    "formatted_address": "4,2(23)",
    "phone_number": "+48571404963",
    "source_url": "https://www.google.com/maps/place/Du%C5%BCy+Ben/data=!4m7!3m6!1s0x47045d86a2090321:0x554d53e74c910ff4!8m2!3d52.4652887!4d16.9815!16s%2Fg%2F11t2_pthr4!19sChIJIQMJooZdBEcR9A-RTOdTTVU?authuser=0&hl=tr&rclk=1",
    "website_url": "http://duzyben.pl/",
    "rating_text": "4,2",
    "stars": null,
    "number_of_reviews": null,
    "price_level": "",
    "open_hours": "",
    "extraction_timestamp": "2025-06-07T17:35:32.257Z",
    "source_name": "google",
    "source_query": "Irrigation Equipment",
    "source_country": "PL",
    "country": "Poland",
    "state": "Greater Poland Voivodeship",
    "city": "Czerwonak"
  },
  {
    "source_id": "ChIJZ0NZMfFcBEcR1IsK-y95GX8",
    "name": "Alkoteka",
    "category": "Alkoteka",
    "formatted_address": "4,8(95)",
    "phone_number": "+48535036344",
    "source_url": "https://www.google.com/maps/place/Alkoteka/data=!4m7!3m6!1s0x47045cf131594367:0x7f19792ffb0a8bd4!8m2!3d52.4505746!4d16.9929894!16s%2Fg%2F11c172ck3s!19sChIJZ0NZMfFcBEcR1IsK-y95GX8?authuser=0&hl=tr&rclk=1",
    "website_url": "https://www.facebook.com/Alkoteka-1187009214657455/",
    "rating_text": "4,8",
    "stars": null,
    "number_of_reviews": null,
    "price_level": "",
    "open_hours": "",
    "extraction_timestamp": "2025-06-07T17:35:32.258Z",
    "source_name": "google",
    "source_query": "Irrigation Equipment",
    "source_country": "PL",
    "country": "Poland",
    "state": "Greater Poland Voivodeship",
    "city": "Czerwonak"
  },
  {
    "source_id": "ChIJUfn2Ig35A0cREW9fZ4029UM",
    "name": "IMTechnika sp. z o.o.",
    "category": "IMTechnika sp. z o.o.",
    "formatted_address": "4,4(17)",
    "phone_number": "+48883820388",
    "source_url": "https://www.google.com/maps/place/IMTechnika+sp.+z+o.o./data=!4m7!3m6!1s0x4703f90d22f6f951:0x43f5368d675f6f11!8m2!3d52.9756271!4d16.657836!16s%2Fg%2F11bw48_6mg!19sChIJUfn2Ig35A0cREW9fZ4029UM?authuser=0&hl=tr&rclk=1",
    "website_url": "http://imtechnika.pl/",
    "rating_text": "4,4",
    "stars": null,
    "number_of_reviews": null,
    "price_level": "",
    "open_hours": "",
    "extraction_timestamp": "2025-06-07T17:35:32.258Z",
    "source_name": "google",
    "source_query": "Irrigation Equipment",
    "source_country": "PL",
    "country": "Poland",
    "state": "Greater Poland Voivodeship",
    "city": "Czerwonak"
  },
  {
    "source_id": "ChIJx7XFlnxdBEcRf9OQ1CQDqO8",
    "name": "Adapia - Fotowoltaika, Klimatyzacja, Pompy Ciepła, Rekuperacja, Termomodernizacja Budynków",
    "category": "Adapia - Fotowoltaika, Klimatyzacja, Pompy Ciepła, Rekuperacja, Termomodernizacja Budynków",
    "formatted_address": "Adapia - Fotowoltaika, Klimatyzacja, Pompy Ciepła, Rekuperacja, Termomodernizacja Budynków",
    "phone_number": "+48506637706",
    "source_url": "https://www.google.com/maps/place/Adapia+-+Fotowoltaika,+Klimatyzacja,+Pompy+Ciep%C5%82a,+Rekuperacja,+Termomodernizacja+Budynk%C3%B3w/data=!4m7!3m6!1s0x47045d7c96c5b5c7:0xefa80324d490d37f!8m2!3d52.4448368!4d16.9623942!16s%2Fg%2F11fpgvv4ft!19sChIJx7XFlnxdBEcRf9OQ1CQDqO8?authuser=0&hl=tr&rclk=1",
    "website_url": "https://www.adapia.pl/",
    "rating_text": "4,9",
    "stars": null,
    "number_of_reviews": null,
    "price_level": "",
    "open_hours": "",
    "extraction_timestamp": "2025-06-07T17:35:32.259Z",
    "source_name": "google",
    "source_query": "Irrigation Equipment",
    "source_country": "PL",
    "country": "Poland",
    "state": "Greater Poland Voivodeship",
    "city": "Czerwonak"
  },
  {
    "source_id": "ChIJyZjmqD1bBEcRYqRiUZRkcyk",
    "name": "ZIELONO MI - zakładanie, pielęgnacja, nawadnianie ogrodów i inne usługi ogrodnicze",
    "category": "ZIELONO MI - zakładanie, pielęgnacja, nawadnianie ogrodów i inne usługi ogrodnicze",
    "formatted_address": "ZIELONO MI - zakładanie, pielęgnacja, nawadnianie ogrodów i inne usługi ogrodnicze",
    "phone_number": "+48600554434",
    "source_url": "https://www.google.com/maps/place/ZIELONO+MI+-+zak%C5%82adanie,+piel%C4%99gnacja,+nawadnianie+ogrod%C3%B3w+i+inne+us%C5%82ugi+ogrodnicze/data=!4m7!3m6!1s0x47045b3da8e698c9:0x297364945162a462!8m2!3d52.4003319!4d16.9337693!16s%2Fg%2F1tdz83c3!19sChIJyZjmqD1bBEcRYqRiUZRkcyk?authuser=0&hl=tr&rclk=1",
    "website_url": "http://www.zielono-mi.com.pl/",
    "rating_text": "4,5",
    "stars": null,
    "number_of_reviews": null,
    "price_level": "",
    "open_hours": "",
    "extraction_timestamp": "2025-06-07T17:35:32.260Z",
    "source_name": "google",
    "source_query": "Irrigation Equipment",
    "source_country": "PL",
    "country": "Poland",
    "state": "Greater Poland Voivodeship",
    "city": "Czerwonak"
  },
  {
    "source_id": "ChIJfwFzbxBFBEcRn7xY2iu3RtU",
    "name": "Wielkopolski Ośrodek Doradztwa Rolniczego w Poznaniu",
    "category": "Wielkopolski Ośrodek Doradztwa Rolniczego w Poznaniu",
    "formatted_address": "3,9(20)",
    "phone_number": "+48618685272",
    "source_url": "https://www.google.com/maps/place/Wielkopolski+O%C5%9Brodek+Doradztwa+Rolniczego+w+Poznaniu/data=!4m7!3m6!1s0x470445106f73017f:0xd546b72bda58bc9f!8m2!3d52.3867242!4d16.8493122!16s%2Fg%2F1tj1qsdz!19sChIJfwFzbxBFBEcRn7xY2iu3RtU?authuser=0&hl=tr&rclk=1",
    "website_url": "http://www.wodr.poznan.pl/",
    "rating_text": "3,9",
    "stars": null,
    "number_of_reviews": null,
    "price_level": "",
    "open_hours": "",
    "extraction_timestamp": "2025-06-07T17:35:32.261Z",
    "source_name": "google",
    "source_query": "Irrigation Equipment",
    "source_country": "PL",
    "country": "Poland",
    "state": "Greater Poland Voivodeship",
    "city": "Czerwonak"
  },
  {
    "source_id": "ChIJUa4p0sVbBEcRe4BWo02o8f8",
    "name": "Prowitech Instalacje Sanitarne i Grzewcze. Klimatyzacja. Pompy ciepła.",
    "category": "Prowitech Instalacje Sanitarne i Grzewcze. Klimatyzacja. Pompy ciepła.",
    "formatted_address": "5,0(5)",
    "phone_number": "+48606223575",
    "source_url": "https://www.google.com/maps/place/Prowitech+Instalacje+Sanitarne+i+Grzewcze.+Klimatyzacja.+Pompy+ciep%C5%82a./data=!4m7!3m6!1s0x47045bc5d229ae51:0xfff1a84da356807b!8m2!3d52.3892603!4d17.0043897!16s%2Fg%2F1tdmt9_s!19sChIJUa4p0sVbBEcRe4BWo02o8f8?authuser=0&hl=tr&rclk=1",
    "website_url": "http://www.prowitech.com.pl/",
    "rating_text": "5,0",
    "stars": null,
    "number_of_reviews": null,
    "price_level": "",
    "open_hours": "",
    "extraction_timestamp": "2025-06-07T17:35:32.262Z",
    "source_name": "google",
    "source_query": "Irrigation Equipment",
    "source_country": "PL",
    "country": "Poland",
    "state": "Greater Poland Voivodeship",
    "city": "Czerwonak"
  },
  {
    "source_id": "ChIJ0-UeNs5EBEcRWyFRaNGFPr0",
    "name": "Instalkos - Usługi hydrauliczne, Pompy ciepła, Ogrzewanie podłogowe, Instalacje gazowe.",
    "category": "Instalkos - Usługi hydrauliczne, Pompy ciepła, Ogrzewanie podłogowe, Instalacje gazowe.",
    "formatted_address": "Instalkos - Usługi hydrauliczne, Pompy ciepła, Ogrzewanie podłogowe, Instalacje gazowe.",
    "phone_number": "+48510485790",
    "source_url": "https://www.google.com/maps/place/Instalkos+-+Us%C5%82ugi+hydrauliczne,+Pompy+ciep%C5%82a,+Ogrzewanie+pod%C5%82ogowe,+Instalacje+gazowe./data=!4m7!3m6!1s0x470444ce361ee5d3:0xbd3e85d16851215b!8m2!3d52.4042737!4d16.8948005!16s%2Fg%2F11f54k7znf!19sChIJ0-UeNs5EBEcRWyFRaNGFPr0?authuser=0&hl=tr&rclk=1",
    "website_url": "http://instalkos.pl/",
    "rating_text": "5,0",
    "stars": null,
    "number_of_reviews": null,
    "price_level": "",
    "open_hours": "",
    "extraction_timestamp": "2025-06-07T17:35:32.263Z",
    "source_name": "google",
    "source_query": "Irrigation Equipment",
    "source_country": "PL",
    "country": "Poland",
    "state": "Greater Poland Voivodeship",
    "city": "Czerwonak"
  },
  {
    "source_id": "ChIJLQg_eupdBEcRdiumEXeO1m4",
    "name": "WaterGreen-Systems Sp. z o.o. Systemy Nawadniania - sprzedaż , montaż , serwis.",
    "category": "WaterGreen-Systems Sp. z o.o. Systemy Nawadniania - sprzedaż , montaż , serwis.",
    "formatted_address": "WaterGreen-Systems Sp. z o.o. Systemy Nawadniania - sprzedaż , montaż , serwis.",
    "phone_number": "+48601773701",
    "source_url": "https://www.google.com/maps/place/WaterGreen-Systems+Sp.+z+o.o.+Systemy+Nawadniania+-+sprzeda%C5%BC+,+monta%C5%BC+,+serwis./data=!4m7!3m6!1s0x47045dea7a3f082d:0x6ed68e7711a62b76!8m2!3d52.4443283!4d17.0354739!16s%2Fg%2F11j7k4tmx3!19sChIJLQg_eupdBEcRdiumEXeO1m4?authuser=0&hl=tr&rclk=1",
    "website_url": "http://www.watergreen.pl/",
    "rating_text": "",
    "stars": null,
    "number_of_reviews": null,
    "price_level": "",
    "open_hours": "",
    "extraction_timestamp": "2025-06-07T17:35:32.263Z",
    "source_name": "google",
    "source_query": "Irrigation Equipment",
    "source_country": "PL",
    "country": "Poland",
    "state": "Greater Poland Voivodeship",
    "city": "Czerwonak"
  },
  {
    "source_id": "ChIJR1Gy6FdHBEcRxLXa4mu3HY8",
    "name": "Fargo PW Centrum Ogrodnicze - Sklep Ogrodniczy i Rolniczy",
    "category": "Fargo PW Centrum Ogrodnicze - Sklep Ogrodniczy i Rolniczy",
    "formatted_address": "4,8(387)",
    "phone_number": "+48618146334",
    "source_url": "https://www.google.com/maps/place/Fargo+PW+Centrum+Ogrodnicze+-+Sklep+Ogrodniczy+i+Rolniczy/data=!4m7!3m6!1s0x47044757e8b25147:0x8f1db76be2dab5c4!8m2!3d52.4575027!4d16.6792707!16s%2Fg%2F1ptwzycf8!19sChIJR1Gy6FdHBEcRxLXa4mu3HY8?authuser=0&hl=tr&rclk=1",
    "website_url": "https://fargotarnowo.pl/",
    "rating_text": "4,8",
    "stars": null,
    "number_of_reviews": null,
    "price_level": "",
    "open_hours": "",
    "extraction_timestamp": "2025-06-07T17:35:32.264Z",
    "source_name": "google",
    "source_query": "Irrigation Equipment",
    "source_country": "PL",
    "country": "Poland",
    "state": "Greater Poland Voivodeship",
    "city": "Czerwonak"
  },
  {
    "source_id": "ChIJOwLFJlZgBEcRZMtVUC4YyOc",
    "name": "Eko-Beach",
    "category": "Eko-Beach",
    "formatted_address": "4,1(1.181)",
    "phone_number": "",
    "source_url": "https://www.google.com/maps/place/Eko-Beach/data=!4m7!3m6!1s0x4704605626c5023b:0xe7c8182e5055cb64!8m2!3d52.5177976!4d17.1772368!16s%2Fg%2F1pp2t_t1b!19sChIJOwLFJlZgBEcRZMtVUC4YyOc?authuser=0&hl=tr&rclk=1",
    "website_url": "http://www.eko-plaza.com/",
    "rating_text": "4,1",
    "stars": null,
    "number_of_reviews": null,
    "price_level": "",
    "open_hours": "",
    "extraction_timestamp": "2025-06-07T17:35:32.265Z",
    "source_name": "google",
    "source_query": "Irrigation Equipment",
    "source_country": "PL",
    "country": "Poland",
    "state": "Greater Poland Voivodeship",
    "city": "Czerwonak"
  },
  {
    "source_id": "ChIJQzbH-L9EBEcRGcpQrYPmLms",
    "name": "TSM Osuszanie Budynków Szurgot Sp k",
    "category": "TSM Osuszanie Budynków Szurgot Sp k",
    "formatted_address": "5,0(86)",
    "phone_number": "+48533555883",
    "source_url": "https://www.google.com/maps/place/TSM+Osuszanie+Budynk%C3%B3w+Szurgot+Sp+k/data=!4m7!3m6!1s0x470444bff8c73643:0x6b2ee683ad50ca19!8m2!3d52.4157513!4d16.8818183!16s%2Fg%2F11b6q4xnx0!19sChIJQzbH-L9EBEcRGcpQrYPmLms?authuser=0&hl=tr&rclk=1",
    "website_url": "https://suszenie.com/osuszanie-poznan/",
    "rating_text": "5,0",
    "stars": null,
    "number_of_reviews": null,
    "price_level": "",
    "open_hours": "",
    "extraction_timestamp": "2025-06-07T17:35:32.266Z",
    "source_name": "google",
    "source_query": "Irrigation Equipment",
    "source_country": "PL",
    "country": "Poland",
    "state": "Greater Poland Voivodeship",
    "city": "Czerwonak"
  },
  {
    "source_id": "ChIJ-ftLg7EXBEcRJrnqe3P14Hc",
    "name": "Stylowy Ogrodnik. Usługi ogrodnicze. Systemy nawadniające",
    "category": "Stylowy Ogrodnik. Usługi ogrodnicze. Systemy nawadniające",
    "formatted_address": "5,0(16)",
    "phone_number": "+48792772881",
    "source_url": "https://www.google.com/maps/place/Stylowy+Ogrodnik.+Us%C5%82ugi+ogrodnicze.+Systemy+nawadniaj%C4%85ce/data=!4m7!3m6!1s0x470417b1834bfbf9:0x77e0f5737beab926!8m2!3d52.5973027!4d16.6115318!16s%2Fg%2F11h0_9y4dl!19sChIJ-ftLg7EXBEcRJrnqe3P14Hc?authuser=0&hl=tr&rclk=1",
    "website_url": "https://stylowyogrodnik.pl/",
    "rating_text": "5,0",
    "stars": null,
    "number_of_reviews": null,
    "price_level": "",
    "open_hours": "",
    "extraction_timestamp": "2025-06-07T17:35:32.267Z",
    "source_name": "google",
    "source_query": "Irrigation Equipment",
    "source_country": "PL",
    "country": "Poland",
    "state": "Greater Poland Voivodeship",
    "city": "Czerwonak"
  }
]
