[
  {
    "source_id": "ChIJxY8ZL1XtBEcR8OOmh8hwkd0",
    "name": "MAGMAR MURAWY |Pielęgnacja muraw| Pielęgnacja boisk| Budowa boisk",
    "category": "MAGMAR MURAWY |Pielęgnacja muraw| Pielęgnacja boisk| Budowa boisk",
    "formatted_address": "5,0(33)",
    "phone_number": "+48696065016",
    "source_url": "https://www.google.com/maps/place/MAGMAR+MURAWY+%7CPiel%C4%99gnacja+muraw%7C+Piel%C4%99gnacja+boisk%7C+Budowa+boisk/data=!4m7!3m6!1s0x4704ed552f198fc5:0xdd9170c887a6e3f0!8m2!3d52.4291858!4d17.4828694!16s%2Fg%2F11lm4pnqrb!19sChIJxY8ZL1XtBEcR8OOmh8hwkd0?authuser=0&hl=tr&rclk=1",
    "website_url": "https://magmar-murawy.pl/",
    "rating_text": "5,0",
    "stars": null,
    "number_of_reviews": null,
    "price_level": "",
    "open_hours": "",
    "extraction_timestamp": "2025-06-07T17:51:12.575Z",
    "source_name": "google",
    "source_query": "Irrigation Equipment",
    "source_country": "PL",
    "country": "Poland",
    "state": "Greater Poland Voivodeship",
    "city": "Czerniejewo"
  },
  {
    "source_id": "ChIJieWwptJEBEcRm8Y9_OwWYiY",
    "name": "Gargot sp.z o.o.",
    "category": "Gargot sp.z o.o.",
    "formatted_address": "3,2(13)",
    "phone_number": "+48616747196",
    "source_url": "https://www.google.com/maps/place/Gargot+sp.z+o.o./data=!4m7!3m6!1s0x470444d2a6b0e589:0x266216ecfc3dc69b!8m2!3d52.4295295!4d17.4834994!16s%2Fg%2F11d_7v2ywq!19sChIJieWwptJEBEcRm8Y9_OwWYiY?authuser=0&hl=tr&rclk=1",
    "website_url": "http://www.gargot.pl/",
    "rating_text": "3,2",
    "stars": null,
    "number_of_reviews": null,
    "price_level": "",
    "open_hours": "",
    "extraction_timestamp": "2025-06-07T17:51:12.576Z",
    "source_name": "google",
    "source_query": "Irrigation Equipment",
    "source_country": "PL",
    "country": "Poland",
    "state": "Greater Poland Voivodeship",
    "city": "Czerniejewo"
  },
  {
    "source_id": "ChIJeZgY1xqRBEcRpcLMUkxBkfI",
    "name": "Ha-Two-O Paweł Filipiak",
    "category": "Ha-Two-O Paweł Filipiak",
    "formatted_address": "4,8(101)",
    "phone_number": "+48575579000",
    "source_url": "https://www.google.com/maps/place/Ha-Two-O+Pawe%C5%82+Filipiak/data=!4m7!3m6!1s0x4704911ad7189879:0xf291414c52ccc2a5!8m2!3d52.5491138!4d17.555824!16s%2Fg%2F1x6q0ggt!19sChIJeZgY1xqRBEcRpcLMUkxBkfI?authuser=0&hl=tr&rclk=1",
    "website_url": "https://www.ha-dwa-o.pl/",
    "rating_text": "4,8",
    "stars": null,
    "number_of_reviews": null,
    "price_level": "",
    "open_hours": "",
    "extraction_timestamp": "2025-06-07T17:51:12.577Z",
    "source_name": "google",
    "source_query": "Irrigation Equipment",
    "source_country": "PL",
    "country": "Poland",
    "state": "Greater Poland Voivodeship",
    "city": "Czerniejewo"
  },
  {
    "source_id": "ChIJb-pofPTtBEcR19e7EZczZDk",
    "name": "Jbserwis Pogotowie kanalizacyjne",
    "category": "Jbserwis Pogotowie kanalizacyjne",
    "formatted_address": "4,9(9)",
    "phone_number": "+48721092681",
    "source_url": "https://www.google.com/maps/place/Jbserwis+Pogotowie+kanalizacyjne/data=!4m7!3m6!1s0x4704edf47c68ea6f:0x3964339711bbd7d7!8m2!3d52.4295319!4d17.4815626!16s%2Fg%2F11lp59t72k!19sChIJb-pofPTtBEcR19e7EZczZDk?authuser=0&hl=tr&rclk=1",
    "website_url": "https://jbserwis.pl/",
    "rating_text": "4,9",
    "stars": null,
    "number_of_reviews": null,
    "price_level": "",
    "open_hours": "",
    "extraction_timestamp": "2025-06-07T17:51:12.579Z",
    "source_name": "google",
    "source_query": "Irrigation Equipment",
    "source_country": "PL",
    "country": "Poland",
    "state": "Greater Poland Voivodeship",
    "city": "Czerniejewo"
  },
  {
    "source_id": "ChIJ-TzytITtBEcRcKMlxKgdaGA",
    "name": "Pogotowie kanalizacyjne Paweł Morawski",
    "category": "Pogotowie kanalizacyjne Paweł Morawski",
    "formatted_address": "4,2(15)",
    "phone_number": "+48603209311",
    "source_url": "https://www.google.com/maps/place/Pogotowie+kanalizacyjne+Pawe%C5%82+Morawski/data=!4m7!3m6!1s0x4704ed84b4f23cf9:0x60681da8c425a370!8m2!3d52.4306948!4d17.4844705!16s%2Fg%2F11bv1vc99q!19sChIJ-TzytITtBEcRcKMlxKgdaGA?authuser=0&hl=tr&rclk=1",
    "website_url": "https://pmorawski.com/",
    "rating_text": "4,2",
    "stars": null,
    "number_of_reviews": null,
    "price_level": "",
    "open_hours": "",
    "extraction_timestamp": "2025-06-07T17:51:12.580Z",
    "source_name": "google",
    "source_query": "Irrigation Equipment",
    "source_country": "PL",
    "country": "Poland",
    "state": "Greater Poland Voivodeship",
    "city": "Czerniejewo"
  },
  {
    "source_id": "ChIJo13QQortBEcRYi6yP-0Yn5A",
    "name": "MAGMAR",
    "category": "MAGMAR",
    "formatted_address": "",
    "phone_number": "+48691484656",
    "source_url": "https://www.google.com/maps/place/MAGMAR/data=!4m7!3m6!1s0x4704ed8a42d05da3:0x909f18ed3fb22e62!8m2!3d52.4292483!4d17.4743497!16s%2Fg%2F11m5ppb24r!19sChIJo13QQortBEcRYi6yP-0Yn5A?authuser=0&hl=tr&rclk=1",
    "website_url": "https://www.nawozydotrawy.pl/",
    "rating_text": "",
    "stars": null,
    "number_of_reviews": null,
    "price_level": "",
    "open_hours": "",
    "extraction_timestamp": "2025-06-07T17:51:12.581Z",
    "source_name": "google",
    "source_query": "Irrigation Equipment",
    "source_country": "PL",
    "country": "Poland",
    "state": "Greater Poland Voivodeship",
    "city": "Czerniejewo"
  },
  {
    "source_id": "ChIJpTatKj_tBEcRq45Oj8VH1Pw",
    "name": "BIURO POLSKA",
    "category": "BIURO POLSKA",
    "formatted_address": "5,0(7)",
    "phone_number": "+48614372485",
    "source_url": "https://www.google.com/maps/place/BIURO+POLSKA/data=!4m7!3m6!1s0x4704ed3f2aad36a5:0xfcd447c58f4e8eab!8m2!3d52.4233732!4d17.4851695!16s%2Fg%2F1w3459xp!19sChIJpTatKj_tBEcRq45Oj8VH1Pw?authuser=0&hl=tr&rclk=1",
    "website_url": "http://www.biuropolska.pl/",
    "rating_text": "5,0",
    "stars": null,
    "number_of_reviews": null,
    "price_level": "",
    "open_hours": "",
    "extraction_timestamp": "2025-06-07T17:51:12.582Z",
    "source_name": "google",
    "source_query": "Irrigation Equipment",
    "source_country": "PL",
    "country": "Poland",
    "state": "Greater Poland Voivodeship",
    "city": "Czerniejewo"
  },
  {
    "source_id": "ChIJVTV3W_PzBEcR6gY0xwQi2_E",
    "name": "Deszczownie.com",
    "category": "Deszczownie.com",
    "formatted_address": "",
    "phone_number": "+48726000030",
    "source_url": "https://www.google.com/maps/place/Deszczownie.com/data=!4m7!3m6!1s0x4704f3f35b773555:0xf1db2204c73406ea!8m2!3d52.3623948!4d17.4021087!16s%2Fg%2F11y3pv4rxr!19sChIJVTV3W_PzBEcR6gY0xwQi2_E?authuser=0&hl=tr&rclk=1",
    "website_url": "https://www.deszczownie.com/",
    "rating_text": "",
    "stars": null,
    "number_of_reviews": null,
    "price_level": "",
    "open_hours": "",
    "extraction_timestamp": "2025-06-07T17:51:12.615Z",
    "source_name": "google",
    "source_query": "Irrigation Equipment",
    "source_country": "PL",
    "country": "Poland",
    "state": "Greater Poland Voivodeship",
    "city": "Czerniejewo"
  },
  {
    "source_id": "ChIJAZuGNTHtBEcRtJXUvh0Tle8",
    "name": "SAM Sklep",
    "category": "SAM Sklep",
    "formatted_address": "4,6(72)",
    "phone_number": "+48614273040",
    "source_url": "https://www.google.com/maps/place/SAM+Sklep/data=!4m7!3m6!1s0x4704ed3135869b01:0xef95131dbed495b4!8m2!3d52.4278509!4d17.4897469!16s%2Fg%2F11g65f2bnv!19sChIJAZuGNTHtBEcRtJXUvh0Tle8?authuser=0&hl=tr&rclk=1",
    "website_url": "",
    "rating_text": "4,6",
    "stars": null,
    "number_of_reviews": null,
    "price_level": "",
    "open_hours": "",
    "extraction_timestamp": "2025-06-07T17:51:12.617Z",
    "source_name": "google",
    "source_query": "Irrigation Equipment",
    "source_country": "PL",
    "country": "Poland",
    "state": "Greater Poland Voivodeship",
    "city": "Czerniejewo"
  },
  {
    "source_id": "ChIJLQg_eupdBEcRdiumEXeO1m4",
    "name": "WaterGreen-Systems Sp. z o.o. Systemy Nawadniania - sprzedaż , montaż , serwis.",
    "category": "WaterGreen-Systems Sp. z o.o. Systemy Nawadniania - sprzedaż , montaż , serwis.",
    "formatted_address": "WaterGreen-Systems Sp. z o.o. Systemy Nawadniania - sprzedaż , montaż , serwis.",
    "phone_number": "+48601773701",
    "source_url": "https://www.google.com/maps/place/WaterGreen-Systems+Sp.+z+o.o.+Systemy+Nawadniania+-+sprzeda%C5%BC+,+monta%C5%BC+,+serwis./data=!4m7!3m6!1s0x47045dea7a3f082d:0x6ed68e7711a62b76!8m2!3d52.4443283!4d17.0354739!16s%2Fg%2F11j7k4tmx3!19sChIJLQg_eupdBEcRdiumEXeO1m4?authuser=0&hl=tr&rclk=1",
    "website_url": "http://www.watergreen.pl/",
    "rating_text": "",
    "stars": null,
    "number_of_reviews": null,
    "price_level": "",
    "open_hours": "",
    "extraction_timestamp": "2025-06-07T17:51:12.618Z",
    "source_name": "google",
    "source_query": "Irrigation Equipment",
    "source_country": "PL",
    "country": "Poland",
    "state": "Greater Poland Voivodeship",
    "city": "Czerniejewo"
  },
  {
    "source_id": "ChIJNVn8Y5XtBEcR0Z5K7FN5Frc",
    "name": "Drogeria Rossmann",
    "category": "Drogeria Rossmann",
    "formatted_address": "5,0(2)",
    "phone_number": "+48609499939",
    "source_url": "https://www.google.com/maps/place/Drogeria+Rossmann/data=!4m7!3m6!1s0x4704ed9563fc5935:0xb7167953ec4a9ed1!8m2!3d52.4225342!4d17.4853377!16s%2Fg%2F11ltm9zg4j!19sChIJNVn8Y5XtBEcR0Z5K7FN5Frc?authuser=0&hl=tr&rclk=1",
    "website_url": "https://www.rossmann.com.pl/",
    "rating_text": "5,0",
    "stars": null,
    "number_of_reviews": null,
    "price_level": "",
    "open_hours": "",
    "extraction_timestamp": "2025-06-07T17:51:12.619Z",
    "source_name": "google",
    "source_query": "Irrigation Equipment",
    "source_country": "PL",
    "country": "Poland",
    "state": "Greater Poland Voivodeship",
    "city": "Czerniejewo"
  },
  {
    "source_id": "ChIJdRnGeDBaBEcRpyx7M8s1JkQ",
    "name": "Wirtgen Polska Sp. z o.o.",
    "category": "Wirtgen Polska Sp. z o.o.",
    "formatted_address": "4,4(31)",
    "phone_number": "+48618982100",
    "source_url": "https://www.google.com/maps/place/Wirtgen+Polska+Sp.+z+o.o./data=!4m7!3m6!1s0x47045a3078c61975:0x442635cb337b2ca7!8m2!3d52.3665338!4d16.9940075!16s%2Fg%2F1pv043rwn!19sChIJdRnGeDBaBEcRpyx7M8s1JkQ?authuser=0&hl=tr&rclk=1",
    "website_url": "https://www.wirtgen-group.com/polska/",
    "rating_text": "4,4",
    "stars": null,
    "number_of_reviews": null,
    "price_level": "",
    "open_hours": "",
    "extraction_timestamp": "2025-06-07T17:51:12.620Z",
    "source_name": "google",
    "source_query": "Irrigation Equipment",
    "source_country": "PL",
    "country": "Poland",
    "state": "Greater Poland Voivodeship",
    "city": "Czerniejewo"
  },
  {
    "source_id": "ChIJkcV5zir1BEcRwhfOQfveU0k",
    "name": "CARPSITE.PL",
    "category": "CARPSITE.PL",
    "formatted_address": "4,6(80)",
    "phone_number": "+48535959755",
    "source_url": "https://www.google.com/maps/place/CARPSITE.PL/data=!4m7!3m6!1s0x4704f52ace79c591:0x4953defb41ce17c2!8m2!3d52.4262489!4d17.4881798!16s%2Fg%2F11jg7rk2w9!19sChIJkcV5zir1BEcRwhfOQfveU0k?authuser=0&hl=tr&rclk=1",
    "website_url": "http://www.carpsite.pl/",
    "rating_text": "4,6",
    "stars": null,
    "number_of_reviews": null,
    "price_level": "",
    "open_hours": "",
    "extraction_timestamp": "2025-06-07T17:51:12.621Z",
    "source_name": "google",
    "source_query": "Irrigation Equipment",
    "source_country": "PL",
    "country": "Poland",
    "state": "Greater Poland Voivodeship",
    "city": "Czerniejewo"
  },
  {
    "source_id": "ChIJY56iROLtBEcRUyuc9Z4ITok",
    "name": "Dino",
    "category": "Dino",
    "formatted_address": "4,2(143)",
    "phone_number": "",
    "source_url": "https://www.google.com/maps/place/Dino/data=!4m7!3m6!1s0x4704ede244a29e63:0x894e089ef59c2b53!8m2!3d52.4299831!4d17.4862467!16s%2Fg%2F11fkr_40m1!19sChIJY56iROLtBEcRUyuc9Z4ITok?authuser=0&hl=tr&rclk=1",
    "website_url": "https://marketdino.pl/",
    "rating_text": "4,2",
    "stars": null,
    "number_of_reviews": null,
    "price_level": "",
    "open_hours": "",
    "extraction_timestamp": "2025-06-07T17:51:12.621Z",
    "source_name": "google",
    "source_query": "Irrigation Equipment",
    "source_country": "PL",
    "country": "Poland",
    "state": "Greater Poland Voivodeship",
    "city": "Czerniejewo"
  },
  {
    "source_id": "ChIJdS8ALDftBEcRNsIVtMPQXk8",
    "name": "Biedronka",
    "category": "Biedronka",
    "formatted_address": "4,1(380)",
    "phone_number": "+48800080010",
    "source_url": "https://www.google.com/maps/place/Biedronka/data=!4m7!3m6!1s0x4704ed372c002f75:0x4f5ed0c3b415c236!8m2!3d52.4228425!4d17.4860061!16s%2Fg%2F11b5wlgdv8!19sChIJdS8ALDftBEcRNsIVtMPQXk8?authuser=0&hl=tr&rclk=1",
    "website_url": "https://www.biedronka.pl/pl?utm_source=gmb",
    "rating_text": "4,1",
    "stars": null,
    "number_of_reviews": null,
    "price_level": "",
    "open_hours": "",
    "extraction_timestamp": "2025-06-07T17:51:12.623Z",
    "source_name": "google",
    "source_query": "Irrigation Equipment",
    "source_country": "PL",
    "country": "Poland",
    "state": "Greater Poland Voivodeship",
    "city": "Czerniejewo"
  }
]
