[
  {
    "source_id": "ChIJrwsny546BUcR29n8TO-u8Uw",
    "name": "Sklep przemysłowy JESIK",
    "category": "Sklep przemysłowy JESIK",
    "formatted_address": "5,0(24)",
    "phone_number": "+48627413303",
    "source_url": "https://www.google.com/maps/place/Sklep+przemys%C5%82owy+JESIK/data=!4m7!3m6!1s0x47053a9ecb270baf:0x4cf1aeef4cfcd9db!8m2!3d51.861816!4d17.6057492!16s%2Fg%2F1tjymd_m!19sChIJrwsny546BUcR29n8TO-u8Uw?authuser=0&hl=tr&rclk=1",
    "website_url": "",
    "rating_text": "5,0",
    "stars": null,
    "number_of_reviews": null,
    "price_level": "",
    "open_hours": "",
    "extraction_timestamp": "2025-06-07T17:33:41.217Z",
    "source_name": "google",
    "source_query": "Irrigation Equipment",
    "source_country": "PL",
    "country": "Poland",
    "state": "Greater Poland Voivodeship",
    "city": "Dobrzyca"
  },
  {
    "source_id": "ChIJ4zc6v4hZBEcRKah1mzKBwPg",
    "name": "PHU \"ADVISER\" - Systemy nawadniania",
    "category": "PHU \"ADVISER\" - Systemy nawadniania",
    "formatted_address": "4,8(123)",
    "phone_number": "+48618798700",
    "source_url": "https://www.google.com/maps/place/PHU+%22ADVISER%22+-+Systemy+nawadniania/data=!4m7!3m6!1s0x47045988bf3a37e3:0xf8c081329b75a829!8m2!3d52.3434333!4d17.0287055!16s%2Fg%2F1w3459w5!19sChIJ4zc6v4hZBEcRKah1mzKBwPg?authuser=0&hl=tr&rclk=1",
    "website_url": "",
    "rating_text": "4,8",
    "stars": null,
    "number_of_reviews": null,
    "price_level": "",
    "open_hours": "",
    "extraction_timestamp": "2025-06-07T17:33:41.218Z",
    "source_name": "google",
    "source_query": "Irrigation Equipment",
    "source_country": "PL",
    "country": "Poland",
    "state": "Greater Poland Voivodeship",
    "city": "Dobrzyca"
  },
  {
    "source_id": "ChIJbaXJccY7BUcReQuIKCu_G5M",
    "name": "PROweld Łukasz Olejniczak",
    "category": "PROweld Łukasz Olejniczak",
    "formatted_address": "5,0(2)",
    "phone_number": "+48727772666",
    "source_url": "https://www.google.com/maps/place/PROweld+%C5%81ukasz+Olejniczak/data=!4m7!3m6!1s0x47053bc671c9a56d:0x931bbf2b28880b79!8m2!3d51.8513095!4d17.5955648!16s%2Fg%2F11rn4q80w4!19sChIJbaXJccY7BUcReQuIKCu_G5M?authuser=0&hl=tr&rclk=1",
    "website_url": "",
    "rating_text": "5,0",
    "stars": null,
    "number_of_reviews": null,
    "price_level": "",
    "open_hours": "",
    "extraction_timestamp": "2025-06-07T17:33:41.219Z",
    "source_name": "google",
    "source_query": "Irrigation Equipment",
    "source_country": "PL",
    "country": "Poland",
    "state": "Greater Poland Voivodeship",
    "city": "Dobrzyca"
  },
  {
    "source_id": "ChIJd1shy546BUcRbEOL19IHnPE",
    "name": "Chata Polska",
    "category": "Chata Polska",
    "formatted_address": "4,5(44)",
    "phone_number": "+48627413308",
    "source_url": "https://www.google.com/maps/place/Chata+Polska/data=!4m7!3m6!1s0x47053a9ecb215b77:0xf19c07d2d78b436c!8m2!3d51.8621651!4d17.6026444!16s%2Fg%2F1td7xsx3!19sChIJd1shy546BUcRbEOL19IHnPE?authuser=0&hl=tr&rclk=1",
    "website_url": "",
    "rating_text": "4,5",
    "stars": null,
    "number_of_reviews": null,
    "price_level": "",
    "open_hours": "",
    "extraction_timestamp": "2025-06-07T17:33:41.221Z",
    "source_name": "google",
    "source_query": "Irrigation Equipment",
    "source_country": "PL",
    "country": "Poland",
    "state": "Greater Poland Voivodeship",
    "city": "Dobrzyca"
  },
  {
    "source_id": "ChIJwaAuV5k6BUcRwn6IP9uX4iA",
    "name": "Sklep Arka Maxelektro",
    "category": "Sklep Arka Maxelektro",
    "formatted_address": "4,8(27)",
    "phone_number": "+48627413904",
    "source_url": "https://www.google.com/maps/place/Sklep+Arka+Maxelektro/data=!4m7!3m6!1s0x47053a99572ea0c1:0x20e297db3f887ec2!8m2!3d51.8665578!4d17.599845!16s%2Fg%2F11c3k94tlt!19sChIJwaAuV5k6BUcRwn6IP9uX4iA?authuser=0&hl=tr&rclk=1",
    "website_url": "",
    "rating_text": "4,8",
    "stars": null,
    "number_of_reviews": null,
    "price_level": "",
    "open_hours": "",
    "extraction_timestamp": "2025-06-07T17:33:41.222Z",
    "source_name": "google",
    "source_query": "Irrigation Equipment",
    "source_country": "PL",
    "country": "Poland",
    "state": "Greater Poland Voivodeship",
    "city": "Dobrzyca"
  },
  {
    "source_id": "ChIJ7zffyp46BUcRe7Ny2MUto8k",
    "name": "Sklep zoologiczny Centrum Wielkopolska",
    "category": "Sklep zoologiczny Centrum Wielkopolska",
    "formatted_address": "4,9(17)",
    "phone_number": "+48601576869",
    "source_url": "https://www.google.com/maps/place/Sklep+zoologiczny+Centrum+Wielkopolska/data=!4m7!3m6!1s0x47053a9ecadf37ef:0xc9a32dc5d872b37b!8m2!3d51.8683831!4d17.6048335!16s%2Fg%2F1tnhx0sj!19sChIJ7zffyp46BUcRe7Ny2MUto8k?authuser=0&hl=tr&rclk=1",
    "website_url": "",
    "rating_text": "4,9",
    "stars": null,
    "number_of_reviews": null,
    "price_level": "",
    "open_hours": "",
    "extraction_timestamp": "2025-06-07T17:33:41.224Z",
    "source_name": "google",
    "source_query": "Irrigation Equipment",
    "source_country": "PL",
    "country": "Poland",
    "state": "Greater Poland Voivodeship",
    "city": "Dobrzyca"
  },
  {
    "source_id": "ChIJWRHDnAr7BEcRi-y-7iptxWI",
    "name": "HOMAG Polska",
    "category": "HOMAG Polska",
    "formatted_address": "4,2(129)",
    "phone_number": "+48616474500",
    "source_url": "https://www.google.com/maps/place/HOMAG+Polska/data=!4m7!3m6!1s0x4704fb0a9cc31159:0x62c56d2aeebeec8b!8m2!3d52.2310332!4d17.2558263!16s%2Fg%2F1tf7qv7c!19sChIJWRHDnAr7BEcRi-y-7iptxWI?authuser=0&hl=tr&rclk=1",
    "website_url": "",
    "rating_text": "4,2",
    "stars": null,
    "number_of_reviews": null,
    "price_level": "",
    "open_hours": "",
    "extraction_timestamp": "2025-06-07T17:33:41.225Z",
    "source_name": "google",
    "source_query": "Irrigation Equipment",
    "source_country": "PL",
    "country": "Poland",
    "state": "Greater Poland Voivodeship",
    "city": "Dobrzyca"
  },
  {
    "source_id": "ChIJPb4sMps6BUcRLSlYN7Mxt3I",
    "name": "PARTCAR",
    "category": "PARTCAR",
    "formatted_address": "4,9(44)",
    "phone_number": "+48518194848",
    "source_url": "https://www.google.com/maps/place/PARTCAR/data=!4m7!3m6!1s0x47053a9b322cbe3d:0x72b731b33758292d!8m2!3d51.8630195!4d17.5951056!16s%2Fg%2F1tz74pcz!19sChIJPb4sMps6BUcRLSlYN7Mxt3I?authuser=0&hl=tr&rclk=1",
    "website_url": "",
    "rating_text": "4,9",
    "stars": null,
    "number_of_reviews": null,
    "price_level": "",
    "open_hours": "",
    "extraction_timestamp": "2025-06-07T17:33:41.226Z",
    "source_name": "google",
    "source_query": "Irrigation Equipment",
    "source_country": "PL",
    "country": "Poland",
    "state": "Greater Poland Voivodeship",
    "city": "Dobrzyca"
  },
  {
    "source_id": "ChIJoxFPbSo7BUcRTFLzPhVwKWE",
    "name": "Biedronka",
    "category": "Biedronka",
    "formatted_address": "4,3(199)",
    "phone_number": "+48800080010",
    "source_url": "https://www.google.com/maps/place/Biedronka/data=!4m7!3m6!1s0x47053b2a6d4f11a3:0x612970153ef3524c!8m2!3d51.8589063!4d17.5996686!16s%2Fg%2F11jr_hbjqy!19sChIJoxFPbSo7BUcRTFLzPhVwKWE?authuser=0&hl=tr&rclk=1",
    "website_url": "",
    "rating_text": "4,3",
    "stars": null,
    "number_of_reviews": null,
    "price_level": "",
    "open_hours": "",
    "extraction_timestamp": "2025-06-07T17:33:41.227Z",
    "source_name": "google",
    "source_query": "Irrigation Equipment",
    "source_country": "PL",
    "country": "Poland",
    "state": "Greater Poland Voivodeship",
    "city": "Dobrzyca"
  },
  {
    "source_id": "ChIJEZvZQoI7BUcRFVLhvNokx2k",
    "name": "Twój Market",
    "category": "Twój Market",
    "formatted_address": "4,4(46)",
    "phone_number": "+48801555559",
    "source_url": "https://www.google.com/maps/place/Tw%C3%B3j+Market/data=!4m7!3m6!1s0x47053b8242d99b11:0x69c724dabce15215!8m2!3d51.864807!4d17.6000844!16s%2Fg%2F11r3dgqk81!19sChIJEZvZQoI7BUcRFVLhvNokx2k?authuser=0&hl=tr&rclk=1",
    "website_url": "",
    "rating_text": "4,4",
    "stars": null,
    "number_of_reviews": null,
    "price_level": "",
    "open_hours": "",
    "extraction_timestamp": "2025-06-07T17:33:41.229Z",
    "source_name": "google",
    "source_query": "Irrigation Equipment",
    "source_country": "PL",
    "country": "Poland",
    "state": "Greater Poland Voivodeship",
    "city": "Dobrzyca"
  },
  {
    "source_id": "ChIJc7CRSpk6BUcRB6VYmwOzo_c",
    "name": "Dino",
    "category": "Dino",
    "formatted_address": "4,1(220)",
    "phone_number": "",
    "source_url": "https://www.google.com/maps/place/Dino/data=!4m7!3m6!1s0x47053a994a91b073:0xf7a3b3039b58a507!8m2!3d51.8666446!4d17.5993485!16s%2Fg%2F1ptyf1hsq!19sChIJc7CRSpk6BUcRB6VYmwOzo_c?authuser=0&hl=tr&rclk=1",
    "website_url": "",
    "rating_text": "4,1",
    "stars": null,
    "number_of_reviews": null,
    "price_level": "",
    "open_hours": "",
    "extraction_timestamp": "2025-06-07T17:33:41.230Z",
    "source_name": "google",
    "source_query": "Irrigation Equipment",
    "source_country": "PL",
    "country": "Poland",
    "state": "Greater Poland Voivodeship",
    "city": "Dobrzyca"
  }
]
