[
  {
    "source_id": "ChIJ42Gq4uwFBUcRW_RZ7HZHygI",
    "name": "Ciszewicz Hanna. Sklep spożywczo - przemysłowy",
    "category": "Ciszewicz Hanna. Sklep spożywczo - przemysłowy",
    "formatted_address": "3,8(5)",
    "phone_number": "+48612825465",
    "source_url": "https://www.google.com/maps/place/Ciszewicz+Hanna.+Sklep+spo%C5%BCywczo+-+przemys%C5%82owy/data=!4m7!3m6!1s0x470505ece2aa61e3:0x2ca4776ec59f45b!8m2!3d51.987105!4d17.0632551!16s%2Fg%2F1ptwq9t5m!19sChIJ42Gq4uwFBUcRW_RZ7HZHygI?authuser=0&hl=tr&rclk=1",
    "website_url": "",
    "rating_text": "3,8",
    "stars": null,
    "number_of_reviews": null,
    "price_level": "",
    "open_hours": "",
    "extraction_timestamp": "2025-06-07T17:55:26.246Z",
    "source_name": "google",
    "source_query": "Irrigation Equipment",
    "source_country": "PL",
    "country": "Poland",
    "state": "Greater Poland Voivodeship",
    "city": "Dolsk"
  },
  {
    "source_id": "ChIJ9_EtAO0FBUcRADRBqWgn6mo",
    "name": "Mini market U Hani otwarte w niedziele świeże produkty nabiał owoce warzywa",
    "category": "Mini market U Hani otwarte w niedziele świeże produkty nabiał owoce warzywa",
    "formatted_address": "4,4(63)",
    "phone_number": "+48612825465",
    "source_url": "https://www.google.com/maps/place/Mini+market+U+Hani+otwarte+w+niedziele+%C5%9Bwie%C5%BCe+produkty+nabia%C5%82+owoce+warzywa/data=!4m7!3m6!1s0x470505ed002df1f7:0x6aea2768a9413400!8m2!3d51.9871371!4d17.0632281!16s%2Fg%2F11b88tf7tc!19sChIJ9_EtAO0FBUcRADRBqWgn6mo?authuser=0&hl=tr&rclk=1",
    "website_url": "",
    "rating_text": "4,4",
    "stars": null,
    "number_of_reviews": null,
    "price_level": "",
    "open_hours": "",
    "extraction_timestamp": "2025-06-07T17:55:26.246Z",
    "source_name": "google",
    "source_query": "Irrigation Equipment",
    "source_country": "PL",
    "country": "Poland",
    "state": "Greater Poland Voivodeship",
    "city": "Dolsk"
  },
  {
    "source_id": "ChIJr_JxEO0FBUcRP_qk4gJxa5o",
    "name": "PHU Marcel sklep spożywczo- przemysłowy",
    "category": "PHU Marcel sklep spożywczo- przemysłowy",
    "formatted_address": "4,4(52)",
    "phone_number": "+48612825181",
    "source_url": "https://www.google.com/maps/place/PHU+Marcel+sklep+spo%C5%BCywczo-+przemys%C5%82owy/data=!4m7!3m6!1s0x470505ed1071f2af:0x9a6b7102e2a4fa3f!8m2!3d51.9866982!4d17.0628372!16s%2Fg%2F1tfkzxbk!19sChIJr_JxEO0FBUcRP_qk4gJxa5o?authuser=0&hl=tr&rclk=1",
    "website_url": "",
    "rating_text": "4,4",
    "stars": null,
    "number_of_reviews": null,
    "price_level": "",
    "open_hours": "",
    "extraction_timestamp": "2025-06-07T17:55:26.247Z",
    "source_name": "google",
    "source_query": "Irrigation Equipment",
    "source_country": "PL",
    "country": "Poland",
    "state": "Greater Poland Voivodeship",
    "city": "Dolsk"
  },
  {
    "source_id": "ChIJx13Gc-0FBUcRe0bOiFmP1LI",
    "name": "Sklep Mini Market",
    "category": "Sklep Mini Market",
    "formatted_address": "4,7(7)",
    "phone_number": "",
    "source_url": "https://www.google.com/maps/place/Sklep+Mini+Market/data=!4m7!3m6!1s0x470505ed73c65dc7:0xb2d48f5988ce467b!8m2!3d51.9858509!4d17.0629357!16s%2Fg%2F11c6t1vc10!19sChIJx13Gc-0FBUcRe0bOiFmP1LI?authuser=0&hl=tr&rclk=1",
    "website_url": "",
    "rating_text": "4,7",
    "stars": null,
    "number_of_reviews": null,
    "price_level": "",
    "open_hours": "",
    "extraction_timestamp": "2025-06-07T17:55:26.247Z",
    "source_name": "google",
    "source_query": "Irrigation Equipment",
    "source_country": "PL",
    "country": "Poland",
    "state": "Greater Poland Voivodeship",
    "city": "Dolsk"
  },
  {
    "source_id": "ChIJJSqbIPMFBUcRt_vkDMr6vio",
    "name": "Dino",
    "category": "Dino",
    "formatted_address": "4,2(286)",
    "phone_number": "",
    "source_url": "https://www.google.com/maps/place/Dino/data=!4m7!3m6!1s0x470505f3209b2a25:0x2abefaca0ce4fbb7!8m2!3d51.9816555!4d17.066156!16s%2Fg%2F1hc4qhnh6!19sChIJJSqbIPMFBUcRt_vkDMr6vio?authuser=0&hl=tr&rclk=1",
    "website_url": "",
    "rating_text": "4,2",
    "stars": null,
    "number_of_reviews": null,
    "price_level": "",
    "open_hours": "",
    "extraction_timestamp": "2025-06-07T17:55:26.247Z",
    "source_name": "google",
    "source_query": "Irrigation Equipment",
    "source_country": "PL",
    "country": "Poland",
    "state": "Greater Poland Voivodeship",
    "city": "Dolsk"
  },
  {
    "source_id": "ChIJjz17Ye0FBUcRivEajk_X8o8",
    "name": "Kamińska Hanna. Sklep spożywczy",
    "category": "Kamińska Hanna. Sklep spożywczy",
    "formatted_address": "4,2(10)",
    "phone_number": "",
    "source_url": "https://www.google.com/maps/place/Kami%C5%84ska+Hanna.+Sklep+spo%C5%BCywczy/data=!4m7!3m6!1s0x470505ed617b3d8f:0x8ff2d74f8e1af18a!8m2!3d51.9857876!4d17.063058!16s%2Fg%2F1hc7c0qvn!19sChIJjz17Ye0FBUcRivEajk_X8o8?authuser=0&hl=tr&rclk=1",
    "website_url": "",
    "rating_text": "4,2",
    "stars": null,
    "number_of_reviews": null,
    "price_level": "",
    "open_hours": "",
    "extraction_timestamp": "2025-06-07T17:55:26.247Z",
    "source_name": "google",
    "source_query": "Irrigation Equipment",
    "source_country": "PL",
    "country": "Poland",
    "state": "Greater Poland Voivodeship",
    "city": "Dolsk"
  },
  {
    "source_id": "ChIJJye-1-wFBUcRiLmD8__Sa7Q",
    "name": "1001 Drobiazgow",
    "category": "1001 Drobiazgow",
    "formatted_address": "5,0(1)",
    "phone_number": "",
    "source_url": "https://www.google.com/maps/place/1001+Drobiazgow/data=!4m7!3m6!1s0x470505ecd7be2727:0xb46bd2fff383b988!8m2!3d51.9868895!4d17.066129!16s%2Fg%2F11ghp3g6mt!19sChIJJye-1-wFBUcRiLmD8__Sa7Q?authuser=0&hl=tr&rclk=1",
    "website_url": "",
    "rating_text": "5,0",
    "stars": null,
    "number_of_reviews": null,
    "price_level": "",
    "open_hours": "",
    "extraction_timestamp": "2025-06-07T17:55:26.247Z",
    "source_name": "google",
    "source_query": "Irrigation Equipment",
    "source_country": "PL",
    "country": "Poland",
    "state": "Greater Poland Voivodeship",
    "city": "Dolsk"
  },
  {
    "source_id": "ChIJ4-9L8_IFBUcR8294BWJ_-KA",
    "name": "Biedronka",
    "category": "Biedronka",
    "formatted_address": "4,4(237)",
    "phone_number": "+48800080010",
    "source_url": "https://www.google.com/maps/place/Biedronka/data=!4m7!3m6!1s0x470505f2f34befe3:0xa0f87f6205786ff3!8m2!3d51.9815892!4d17.0720123!16s%2Fg%2F11pdp05cgy!19sChIJ4-9L8_IFBUcR8294BWJ_-KA?authuser=0&hl=tr&rclk=1",
    "website_url": "",
    "rating_text": "4,4",
    "stars": null,
    "number_of_reviews": null,
    "price_level": "",
    "open_hours": "",
    "extraction_timestamp": "2025-06-07T17:55:26.248Z",
    "source_name": "google",
    "source_query": "Irrigation Equipment",
    "source_country": "PL",
    "country": "Poland",
    "state": "Greater Poland Voivodeship",
    "city": "Dolsk"
  },
  {
    "source_id": "ChIJg98j7P4FBUcRPmsORgJSpwE",
    "name": "Jezioro Dolskie Wielkie",
    "category": "Jezioro Dolskie Wielkie",
    "formatted_address": "4,3(38)",
    "phone_number": "",
    "source_url": "https://www.google.com/maps/place/Jezioro+Dolskie+Wielkie/data=!4m7!3m6!1s0x470505feec23df83:0x1a75202460e6b3e!8m2!3d51.9834829!4d17.0425702!16s%2Fg%2F120x7866!19sChIJg98j7P4FBUcRPmsORgJSpwE?authuser=0&hl=tr&rclk=1",
    "website_url": "",
    "rating_text": "4,3",
    "stars": null,
    "number_of_reviews": null,
    "price_level": "",
    "open_hours": "",
    "extraction_timestamp": "2025-06-07T17:55:26.248Z",
    "source_name": "google",
    "source_query": "Irrigation Equipment",
    "source_country": "PL",
    "country": "Poland",
    "state": "Greater Poland Voivodeship",
    "city": "Dolsk"
  },
  {
    "source_id": "ChIJB6y_v5J2HEcRlDfYx3xmc9M",
    "name": "Milex irrigation systems",
    "category": "Milex irrigation systems",
    "formatted_address": "4,6(37)",
    "phone_number": "+48242775222",
    "source_url": "https://www.google.com/maps/place/Milex+irrigation+systems/data=!4m7!3m6!1s0x471c7692bfbfac07:0xd373667cc7d83794!8m2!3d52.4690634!4d19.7520904!16s%2Fg%2F1w2yy67r!19sChIJB6y_v5J2HEcRlDfYx3xmc9M?authuser=0&hl=tr&rclk=1",
    "website_url": "",
    "rating_text": "4,6",
    "stars": null,
    "number_of_reviews": null,
    "price_level": "",
    "open_hours": "",
    "extraction_timestamp": "2025-06-07T17:55:26.248Z",
    "source_name": "google",
    "source_query": "Irrigation Equipment",
    "source_country": "PL",
    "country": "Poland",
    "state": "Greater Poland Voivodeship",
    "city": "Dolsk"
  },
  {
    "source_id": "ChIJv2OZP-OlD0cRxevhZwqbfLA",
    "name": "Polboto",
    "category": "Polboto",
    "formatted_address": "4,6(94)",
    "phone_number": "+48767560050",
    "source_url": "https://www.google.com/maps/place/Polboto/data=!4m7!3m6!1s0x470fa5e33f9963bf:0xb07c9b0a67e1ebc5!8m2!3d51.0377606!4d16.4465299!16s%2Fg%2F1vs5vffr!19sChIJv2OZP-OlD0cRxevhZwqbfLA?authuser=0&hl=tr&rclk=1",
    "website_url": "",
    "rating_text": "4,6",
    "stars": null,
    "number_of_reviews": null,
    "price_level": "",
    "open_hours": "",
    "extraction_timestamp": "2025-06-07T17:55:26.248Z",
    "source_name": "google",
    "source_query": "Irrigation Equipment",
    "source_country": "PL",
    "country": "Poland",
    "state": "Greater Poland Voivodeship",
    "city": "Dolsk"
  },
  {
    "source_id": "ChIJVTV3W_PzBEcR6gY0xwQi2_E",
    "name": "Deszczownie.com",
    "category": "Deszczownie.com",
    "formatted_address": "",
    "phone_number": "+48726000030",
    "source_url": "https://www.google.com/maps/place/Deszczownie.com/data=!4m7!3m6!1s0x4704f3f35b773555:0xf1db2204c73406ea!8m2!3d52.3623948!4d17.4021087!16s%2Fg%2F11y3pv4rxr!19sChIJVTV3W_PzBEcR6gY0xwQi2_E?authuser=0&hl=tr&rclk=1",
    "website_url": "",
    "rating_text": "",
    "stars": null,
    "number_of_reviews": null,
    "price_level": "",
    "open_hours": "",
    "extraction_timestamp": "2025-06-07T17:55:26.248Z",
    "source_name": "google",
    "source_query": "Irrigation Equipment",
    "source_country": "PL",
    "country": "Poland",
    "state": "Greater Poland Voivodeship",
    "city": "Dolsk"
  }
]
