[
  {
    "source_id": "ChIJ_32NLF_xBEcR2Nftl770cB4",
    "name": "AgroDN",
    "category": "AgroDN",
    "formatted_address": "4,5(53)",
    "phone_number": "+48603332257",
    "source_url": "https://www.google.com/maps/place/AgroDN/data=!4m7!3m6!1s0x4704f15f2c8d7dff:0x1e70f4be97edd7d8!8m2!3d52.295188!4d17.3582259!16s%2Fg%2F11j74dbl7l!19sChIJ_32NLF_xBEcR2Nftl770cB4?authuser=0&hl=tr&rclk=1",
    "website_url": "http://agrodn.com/",
    "rating_text": "4,5",
    "stars": null,
    "number_of_reviews": null,
    "price_level": "",
    "open_hours": "",
    "extraction_timestamp": "2025-06-07T17:14:53.747Z",
    "source_name": "google",
    "source_query": "Irrigation Equipment",
    "source_country": "PL",
    "country": "Poland",
    "state": "Greater Poland Voivodeship",
    "city": "Dominowo"
  },
  {
    "source_id": "ChIJFdskLUb7BEcRYjm39Uc-uv4",
    "name": "P.P.H.U. Hydro-Pomp Michał Dydymski",
    "category": "P.P.H.U. Hydro-Pomp Michał Dydymski",
    "formatted_address": "5,0(1)",
    "phone_number": "+48612856771",
    "source_url": "https://www.google.com/maps/place/P.P.H.U.+Hydro-Pomp+Micha%C5%82+Dydymski/data=!4m7!3m6!1s0x4704fb462d24db15:0xfeba3e47f5b73962!8m2!3d52.2199578!4d17.2963723!16s%2Fg%2F1tdcq6vc!19sChIJFdskLUb7BEcRYjm39Uc-uv4?authuser=0&hl=tr&rclk=1",
    "website_url": "https://lampydoogrodu.pl/",
    "rating_text": "5,0",
    "stars": null,
    "number_of_reviews": null,
    "price_level": "",
    "open_hours": "",
    "extraction_timestamp": "2025-06-07T17:14:53.748Z",
    "source_name": "google",
    "source_query": "Irrigation Equipment",
    "source_country": "PL",
    "country": "Poland",
    "state": "Greater Poland Voivodeship",
    "city": "Dominowo"
  },
  {
    "source_id": "ChIJ27KJkuLvBEcRu8q1AeVYLyw",
    "name": "Chata Polska",
    "category": "Chata Polska",
    "formatted_address": "4,3(100)",
    "phone_number": "",
    "source_url": "https://www.google.com/maps/place/Chata+Polska/data=!4m7!3m6!1s0x4704efe29289b2db:0x2c2f58e501b5cabb!8m2!3d52.2915728!4d17.3615709!16s%2Fg%2F11c6png971!19sChIJ27KJkuLvBEcRu8q1AeVYLyw?authuser=0&hl=tr&rclk=1",
    "website_url": "https://facebook.com/Chata-Polska-Dominowo-228095150855538/?locale2=pl_PL",
    "rating_text": "4,3",
    "stars": null,
    "number_of_reviews": null,
    "price_level": "",
    "open_hours": "",
    "extraction_timestamp": "2025-06-07T17:14:53.748Z",
    "source_name": "google",
    "source_query": "Irrigation Equipment",
    "source_country": "PL",
    "country": "Poland",
    "state": "Greater Poland Voivodeship",
    "city": "Dominowo"
  },
  {
    "source_id": "ChIJWRHDnAr7BEcRi-y-7iptxWI",
    "name": "HOMAG Polska",
    "category": "HOMAG Polska",
    "formatted_address": "4,2(129)",
    "phone_number": "+48616474500",
    "source_url": "https://www.google.com/maps/place/HOMAG+Polska/data=!4m7!3m6!1s0x4704fb0a9cc31159:0x62c56d2aeebeec8b!8m2!3d52.2310332!4d17.2558263!16s%2Fg%2F1tf7qv7c!19sChIJWRHDnAr7BEcRi-y-7iptxWI?authuser=0&hl=tr&rclk=1",
    "website_url": "https://www.homag.com/pl/kontakt/homag-polska",
    "rating_text": "4,2",
    "stars": null,
    "number_of_reviews": null,
    "price_level": "",
    "open_hours": "",
    "extraction_timestamp": "2025-06-07T17:14:53.757Z",
    "source_name": "google",
    "source_query": "Irrigation Equipment",
    "source_country": "PL",
    "country": "Poland",
    "state": "Greater Poland Voivodeship",
    "city": "Dominowo"
  },
  {
    "source_id": "ChIJH3hMwXEXNggRPywVej3EYNo",
    "name": "JDJ. Instal Montaż instalacji Maciej Siwek",
    "category": "JDJ. Instal Montaż instalacji Maciej Siwek",
    "formatted_address": "",
    "phone_number": "+48511305603",
    "source_url": "https://www.google.com/maps/place/JDJ.+Instal+Monta%C5%BC+instalacji+Maciej+Siwek/data=!4m7!3m6!1s0x8361771c14c781f:0xda60c43d7a152c3f!8m2!3d52.3797562!4d17.4406732!16s%2Fg%2F11jzthl97c!19sChIJH3hMwXEXNggRPywVej3EYNo?authuser=0&hl=tr&rclk=1",
    "website_url": "",
    "rating_text": "",
    "stars": null,
    "number_of_reviews": null,
    "price_level": "",
    "open_hours": "",
    "extraction_timestamp": "2025-06-07T17:14:53.757Z",
    "source_name": "google",
    "source_query": "Irrigation Equipment",
    "source_country": "PL",
    "country": "Poland",
    "state": "Greater Poland Voivodeship",
    "city": "Dominowo"
  },
  {
    "source_id": "ChIJVTV3W_PzBEcR6gY0xwQi2_E",
    "name": "Deszczownie.com",
    "category": "Deszczownie.com",
    "formatted_address": "",
    "phone_number": "+48726000030",
    "source_url": "https://www.google.com/maps/place/Deszczownie.com/data=!4m7!3m6!1s0x4704f3f35b773555:0xf1db2204c73406ea!8m2!3d52.3623948!4d17.4021087!16s%2Fg%2F11y3pv4rxr!19sChIJVTV3W_PzBEcR6gY0xwQi2_E?authuser=0&hl=tr&rclk=1",
    "website_url": "https://www.deszczownie.com/",
    "rating_text": "",
    "stars": null,
    "number_of_reviews": null,
    "price_level": "",
    "open_hours": "",
    "extraction_timestamp": "2025-06-07T17:14:53.757Z",
    "source_name": "google",
    "source_query": "Irrigation Equipment",
    "source_country": "PL",
    "country": "Poland",
    "state": "Greater Poland Voivodeship",
    "city": "Dominowo"
  }
]
