[
  {
    "source_id": "ChIJV9tsZ_NNBEcRgljrqD0yfhA",
    "name": "Sup For Fun",
    "category": "Sup For Fun",
    "formatted_address": "5,0(2)",
    "phone_number": "+48667866430",
    "source_url": "https://www.google.com/maps/place/Sup+For+Fun/data=!4m7!3m6!1s0x47044df3676cdb57:0x107e323da8eb5882!8m2!3d52.361979!4d16.675658!16s%2Fg%2F11gxn4z2f5!19sChIJV9tsZ_NNBEcRgljrqD0yfhA?authuser=0&hl=tr&rclk=1",
    "website_url": "",
    "rating_text": "5,0",
    "stars": null,
    "number_of_reviews": null,
    "price_level": "",
    "open_hours": "",
    "extraction_timestamp": "2025-06-07T17:42:49.987Z",
    "source_name": "google",
    "source_query": "Irrigation Equipment",
    "source_country": "PL",
    "country": "Poland",
    "state": "Greater Poland Voivodeship",
    "city": "Dopiewo"
  },
  {
    "source_id": "ChIJyz3bYGBIBEcRAk4DS04jfsU",
    "name": "ROLTECH. Środki Ochrony Roślin, Materiał Siewny, Nawozy, Zaopatrzenie Rolnictwa",
    "category": "ROLTECH. Środki Ochrony Roślin, Materiał Siewny, Nawozy, Zaopatrzenie Rolnictwa",
    "formatted_address": "ROLTECH. Środki Ochrony Roślin, Materiał Siewny, Nawozy, Zaopatrzenie Rolnictwa",
    "phone_number": "+48604712301",
    "source_url": "https://www.google.com/maps/place/ROLTECH.+%C5%9Arodki+Ochrony+Ro%C5%9Blin,+Materia%C5%82+Siewny,+Nawozy,+Zaopatrzenie+Rolnictwa/data=!4m7!3m6!1s0x4704486060db3dcb:0xc57e234e4b034e02!8m2!3d52.3592834!4d16.6790866!16s%2Fg%2F1tg2c5w9!19sChIJyz3bYGBIBEcRAk4DS04jfsU?authuser=0&hl=tr&rclk=1",
    "website_url": "",
    "rating_text": "4,6",
    "stars": null,
    "number_of_reviews": null,
    "price_level": "",
    "open_hours": "",
    "extraction_timestamp": "2025-06-07T17:42:49.988Z",
    "source_name": "google",
    "source_query": "Irrigation Equipment",
    "source_country": "PL",
    "country": "Poland",
    "state": "Greater Poland Voivodeship",
    "city": "Dopiewo"
  },
  {
    "source_id": "ChIJFVCITOVPBEcRG-lA_g1qlqk",
    "name": "Technika Wody",
    "category": "Technika Wody",
    "formatted_address": "4,6(288)",
    "phone_number": "+48502506622",
    "source_url": "https://www.google.com/maps/place/Technika+Wody/data=!4m7!3m6!1s0x47044fe54c885015:0xa9966a0dfe40e91b!8m2!3d52.3740842!4d16.819808!16s%2Fg%2F11b7vsdjf5!19sChIJFVCITOVPBEcRG-lA_g1qlqk?authuser=0&hl=tr&rclk=1",
    "website_url": "",
    "rating_text": "4,6",
    "stars": null,
    "number_of_reviews": null,
    "price_level": "",
    "open_hours": "",
    "extraction_timestamp": "2025-06-07T17:42:49.989Z",
    "source_name": "google",
    "source_query": "Irrigation Equipment",
    "source_country": "PL",
    "country": "Poland",
    "state": "Greater Poland Voivodeship",
    "city": "Dopiewo"
  },
  {
    "source_id": "ChIJ4zc6v4hZBEcRKah1mzKBwPg",
    "name": "PHU \"ADVISER\" - Systemy nawadniania",
    "category": "PHU \"ADVISER\" - Systemy nawadniania",
    "formatted_address": "4,8(123)",
    "phone_number": "+48618798700",
    "source_url": "https://www.google.com/maps/place/PHU+%22ADVISER%22+-+Systemy+nawadniania/data=!4m7!3m6!1s0x47045988bf3a37e3:0xf8c081329b75a829!8m2!3d52.3434333!4d17.0287055!16s%2Fg%2F1w3459w5!19sChIJ4zc6v4hZBEcRKah1mzKBwPg?authuser=0&hl=tr&rclk=1",
    "website_url": "",
    "rating_text": "4,8",
    "stars": null,
    "number_of_reviews": null,
    "price_level": "",
    "open_hours": "",
    "extraction_timestamp": "2025-06-07T17:42:49.990Z",
    "source_name": "google",
    "source_query": "Irrigation Equipment",
    "source_country": "PL",
    "country": "Poland",
    "state": "Greater Poland Voivodeship",
    "city": "Dopiewo"
  },
  {
    "source_id": "ChIJ8yEvbxn3-gIRuCQ1--S87AM",
    "name": "water4home",
    "category": "water4home",
    "formatted_address": "5,0(4)",
    "phone_number": "+48789571166",
    "source_url": "https://www.google.com/maps/place/water4home/data=!4m7!3m6!1s0x2faf7196f2f21f3:0x3ecbce4fb3524b8!8m2!3d52.4006266!4d16.8786484!16s%2Fg%2F11l1gw9y19!19sChIJ8yEvbxn3-gIRuCQ1--S87AM?authuser=0&hl=tr&rclk=1",
    "website_url": "",
    "rating_text": "5,0",
    "stars": null,
    "number_of_reviews": null,
    "price_level": "",
    "open_hours": "",
    "extraction_timestamp": "2025-06-07T17:42:49.991Z",
    "source_name": "google",
    "source_query": "Irrigation Equipment",
    "source_country": "PL",
    "country": "Poland",
    "state": "Greater Poland Voivodeship",
    "city": "Dopiewo"
  },
  {
    "source_id": "ChIJ2d4-0cpGBEcRTya15XLl9W0",
    "name": "POLGAR Garniewicz Wełniak spółka komandytowa",
    "category": "POLGAR Garniewicz Wełniak spółka komandytowa",
    "formatted_address": "4,5(23)",
    "phone_number": "+48618160631",
    "source_url": "https://www.google.com/maps/place/POLGAR+Garniewicz+We%C5%82niak+sp%C3%B3%C5%82ka+komandytowa/data=!4m7!3m6!1s0x470446cad13eded9:0x6df5e572e5b5264f!8m2!3d52.4535218!4d16.7706987!16s%2Fg%2F1tlzywfq!19sChIJ2d4-0cpGBEcRTya15XLl9W0?authuser=0&hl=tr&rclk=1",
    "website_url": "",
    "rating_text": "4,5",
    "stars": null,
    "number_of_reviews": null,
    "price_level": "",
    "open_hours": "",
    "extraction_timestamp": "2025-06-07T17:42:49.992Z",
    "source_name": "google",
    "source_query": "Irrigation Equipment",
    "source_country": "PL",
    "country": "Poland",
    "state": "Greater Poland Voivodeship",
    "city": "Dopiewo"
  },
  {
    "source_id": "ChIJd5wVfcZFBEcR6kPvOmiq31g",
    "name": "ROL INVEST dealer KUBOTA, STIHL, AS MOTOTR. CUB CADET",
    "category": "ROL INVEST dealer KUBOTA, STIHL, AS MOTOTR. CUB CADET",
    "formatted_address": "ROL INVEST dealer KUBOTA, STIHL, AS MOTOTR. CUB CADET",
    "phone_number": "+48618143631",
    "source_url": "https://www.google.com/maps/place/ROL+INVEST+dealer+KUBOTA,+STIHL,+AS+MOTOTR.+CUB+CADET/data=!4m7!3m6!1s0x470445c67d159c77:0x58dfaa683aef43ea!8m2!3d52.3851823!4d16.7938659!16s%2Fg%2F1tnmqdw3!19sChIJd5wVfcZFBEcR6kPvOmiq31g?authuser=0&hl=tr&rclk=1",
    "website_url": "",
    "rating_text": "4,7",
    "stars": null,
    "number_of_reviews": null,
    "price_level": "",
    "open_hours": "",
    "extraction_timestamp": "2025-06-07T17:42:49.993Z",
    "source_name": "google",
    "source_query": "Irrigation Equipment",
    "source_country": "PL",
    "country": "Poland",
    "state": "Greater Poland Voivodeship",
    "city": "Dopiewo"
  },
  {
    "source_id": "ChIJSwr1IyFEBEcRj_tPtMf0Q18",
    "name": "Perfect Service · serwis pomp",
    "category": "Perfect Service",
    "formatted_address": "serwis pomp",
    "phone_number": "+48691630557",
    "source_url": "https://www.google.com/maps/place/Perfect+Service+%C2%B7+serwis+pomp/data=!4m7!3m6!1s0x4704442123f50a4b:0x5f43f4c7b44ffb8f!8m2!3d52.3848264!4d16.8022174!16s%2Fg%2F1ptx5y1j6!19sChIJSwr1IyFEBEcRj_tPtMf0Q18?authuser=0&hl=tr&rclk=1",
    "website_url": "",
    "rating_text": "4,8",
    "stars": null,
    "number_of_reviews": null,
    "price_level": "",
    "open_hours": "",
    "extraction_timestamp": "2025-06-07T17:42:49.994Z",
    "source_name": "google",
    "source_query": "Irrigation Equipment",
    "source_country": "PL",
    "country": "Poland",
    "state": "Greater Poland Voivodeship",
    "city": "Dopiewo"
  },
  {
    "source_id": "ChIJK7BzbyJFBEcRGDI7vl5IvSY",
    "name": "HYDROMIL",
    "category": "HYDROMIL",
    "formatted_address": "4,6(11)",
    "phone_number": "+48605578387",
    "source_url": "https://www.google.com/maps/place/HYDROMIL/data=!4m7!3m6!1s0x470445226f73b02b:0x26bd485ebe3b3218!8m2!3d52.3384345!4d16.792845!16s%2Fg%2F11g8b5yn79!19sChIJK7BzbyJFBEcRGDI7vl5IvSY?authuser=0&hl=tr&rclk=1",
    "website_url": "",
    "rating_text": "4,6",
    "stars": null,
    "number_of_reviews": null,
    "price_level": "",
    "open_hours": "",
    "extraction_timestamp": "2025-06-07T17:42:49.996Z",
    "source_name": "google",
    "source_query": "Irrigation Equipment",
    "source_country": "PL",
    "country": "Poland",
    "state": "Greater Poland Voivodeship",
    "city": "Dopiewo"
  },
  {
    "source_id": "ChIJ8Q05FVxIBEcRG6LExRswC4E",
    "name": "Stadion GKS Dopiewo",
    "category": "Stadion GKS Dopiewo",
    "formatted_address": "4,3(142)",
    "phone_number": "",
    "source_url": "https://www.google.com/maps/place/Stadion+GKS+Dopiewo/data=!4m7!3m6!1s0x4704485c15390df1:0x810b301bc5c4a21b!8m2!3d52.3549151!4d16.6698234!16s%2Fg%2F1hhx7_b4y!19sChIJ8Q05FVxIBEcRG6LExRswC4E?authuser=0&hl=tr&rclk=1",
    "website_url": "",
    "rating_text": "4,3",
    "stars": null,
    "number_of_reviews": null,
    "price_level": "",
    "open_hours": "",
    "extraction_timestamp": "2025-06-07T17:42:49.996Z",
    "source_name": "google",
    "source_query": "Irrigation Equipment",
    "source_country": "PL",
    "country": "Poland",
    "state": "Greater Poland Voivodeship",
    "city": "Dopiewo"
  },
  {
    "source_id": "ChIJY8GT6-lJBEcRpHPh-hwco80",
    "name": "MAT-MAR Świat Ogrodów",
    "category": "MAT-MAR Świat Ogrodów",
    "formatted_address": "5,0(1)",
    "phone_number": "+48506872092",
    "source_url": "https://www.google.com/maps/place/MAT-MAR+%C5%9Awiat+Ogrod%C3%B3w/data=!4m7!3m6!1s0x470449e9eb93c163:0xcda31c1cfae173a4!8m2!3d52.342739!4d16.712135!16s%2Fg%2F11jmcjg3_4!19sChIJY8GT6-lJBEcRpHPh-hwco80?authuser=0&hl=tr&rclk=1",
    "website_url": "",
    "rating_text": "5,0",
    "stars": null,
    "number_of_reviews": null,
    "price_level": "",
    "open_hours": "",
    "extraction_timestamp": "2025-06-07T17:42:49.997Z",
    "source_name": "google",
    "source_query": "Irrigation Equipment",
    "source_country": "PL",
    "country": "Poland",
    "state": "Greater Poland Voivodeship",
    "city": "Dopiewo"
  },
  {
    "source_id": "ChIJBfc5UyxFBEcRHg9S4xhnII4",
    "name": "Limets",
    "category": "Limets",
    "formatted_address": "4,5(16)",
    "phone_number": "+48618667900",
    "source_url": "https://www.google.com/maps/place/Limets/data=!4m7!3m6!1s0x4704452c5339f705:0x8e206718e3520f1e!8m2!3d52.3846048!4d16.8895941!16s%2Fg%2F1wbrwgx8!19sChIJBfc5UyxFBEcRHg9S4xhnII4?authuser=0&hl=tr&rclk=1",
    "website_url": "",
    "rating_text": "4,5",
    "stars": null,
    "number_of_reviews": null,
    "price_level": "",
    "open_hours": "",
    "extraction_timestamp": "2025-06-07T17:42:49.998Z",
    "source_name": "google",
    "source_query": "Irrigation Equipment",
    "source_country": "PL",
    "country": "Poland",
    "state": "Greater Poland Voivodeship",
    "city": "Dopiewo"
  },
  {
    "source_id": "ChIJIdTlkK9cBEcRiRXp8LAfmFo",
    "name": "AquaTerra.pl",
    "category": "AquaTerra.pl",
    "formatted_address": "5,0(4)",
    "phone_number": "+48616243871",
    "source_url": "https://www.google.com/maps/place/AquaTerra.pl/data=!4m7!3m6!1s0x47045caf90e5d421:0x5a981fb0f0e91589!8m2!3d52.3993703!4d16.7824177!16s%2Fg%2F113hg84yn!19sChIJIdTlkK9cBEcRiRXp8LAfmFo?authuser=0&hl=tr&rclk=1",
    "website_url": "",
    "rating_text": "5,0",
    "stars": null,
    "number_of_reviews": null,
    "price_level": "",
    "open_hours": "",
    "extraction_timestamp": "2025-06-07T17:42:49.999Z",
    "source_name": "google",
    "source_query": "Irrigation Equipment",
    "source_country": "PL",
    "country": "Poland",
    "state": "Greater Poland Voivodeship",
    "city": "Dopiewo"
  },
  {
    "source_id": "ChIJXzJLNlxIBEcRIsrPqqqscKM",
    "name": "Piekarnia - Cukiernia Nowaczyk - siedziba firmy",
    "category": "Piekarnia - Cukiernia Nowaczyk - siedziba firmy",
    "formatted_address": "4,7(844) · zł 1–20",
    "phone_number": "+48618148316",
    "source_url": "https://www.google.com/maps/place/Piekarnia+-+Cukiernia+Nowaczyk+-+siedziba+firmy/data=!4m7!3m6!1s0x4704485c364b325f:0xa370acaaaacfca22!8m2!3d52.3578558!4d16.673314!16s%2Fg%2F1hc19w2hm!19sChIJXzJLNlxIBEcRIsrPqqqscKM?authuser=0&hl=tr&rclk=1",
    "website_url": "",
    "rating_text": "4,7",
    "stars": null,
    "number_of_reviews": null,
    "price_level": "",
    "open_hours": "",
    "extraction_timestamp": "2025-06-07T17:42:50.001Z",
    "source_name": "google",
    "source_query": "Irrigation Equipment",
    "source_country": "PL",
    "country": "Poland",
    "state": "Greater Poland Voivodeship",
    "city": "Dopiewo"
  },
  {
    "source_id": "ChIJfxs8v4pIBEcRB8Xs9lVYSl4",
    "name": "Sklep Wędkarski Brązowy Amur Michał Brzykowski- sprzęt,wędzisko,wędkarstwo, robakomat",
    "category": "Sklep Wędkarski Brązowy Amur Michał Brzykowski- sprzęt,wędzisko,wędkarstwo, robakomat",
    "formatted_address": "Sklep Wędkarski Brązowy Amur Michał Brzykowski- sprzęt,wędzisko,wędkarstwo, robakomat",
    "phone_number": "+48518137142",
    "source_url": "https://www.google.com/maps/place/Sklep+W%C4%99dkarski+Br%C4%85zowy+Amur+Micha%C5%82+Brzykowski-+sprz%C4%99t,w%C4%99dzisko,w%C4%99dkarstwo,+robakomat/data=!4m7!3m6!1s0x4704488abf3c1b7f:0x5e4a5855f6ecc507!8m2!3d52.3585971!4d16.6833495!16s%2Fg%2F1hc0xlx5k!19sChIJfxs8v4pIBEcRB8Xs9lVYSl4?authuser=0&hl=tr&rclk=1",
    "website_url": "",
    "rating_text": "4,9",
    "stars": null,
    "number_of_reviews": null,
    "price_level": "",
    "open_hours": "",
    "extraction_timestamp": "2025-06-07T17:42:50.002Z",
    "source_name": "google",
    "source_query": "Irrigation Equipment",
    "source_country": "PL",
    "country": "Poland",
    "state": "Greater Poland Voivodeship",
    "city": "Dopiewo"
  },
  {
    "source_id": "ChIJj2ZyznRDBEcRrJledLqBHPs",
    "name": "Water Serwis",
    "category": "Water Serwis",
    "formatted_address": "4,9(7)",
    "phone_number": "+48501354383",
    "source_url": "https://www.google.com/maps/place/Water+Serwis/data=!4m7!3m6!1s0x47044374ce72668f:0xfb1c81ba745e99ac!8m2!3d52.3514712!4d16.8608327!16s%2Fg%2F1ptzgr_ch!19sChIJj2ZyznRDBEcRrJledLqBHPs?authuser=0&hl=tr&rclk=1",
    "website_url": "",
    "rating_text": "4,9",
    "stars": null,
    "number_of_reviews": null,
    "price_level": "",
    "open_hours": "",
    "extraction_timestamp": "2025-06-07T17:42:50.003Z",
    "source_name": "google",
    "source_query": "Irrigation Equipment",
    "source_country": "PL",
    "country": "Poland",
    "state": "Greater Poland Voivodeship",
    "city": "Dopiewo"
  },
  {
    "source_id": "ChIJfwFzbxBFBEcRn7xY2iu3RtU",
    "name": "Wielkopolski Ośrodek Doradztwa Rolniczego w Poznaniu",
    "category": "Wielkopolski Ośrodek Doradztwa Rolniczego w Poznaniu",
    "formatted_address": "3,9(20)",
    "phone_number": "+48618685272",
    "source_url": "https://www.google.com/maps/place/Wielkopolski+O%C5%9Brodek+Doradztwa+Rolniczego+w+Poznaniu/data=!4m7!3m6!1s0x470445106f73017f:0xd546b72bda58bc9f!8m2!3d52.3867242!4d16.8493122!16s%2Fg%2F1tj1qsdz!19sChIJfwFzbxBFBEcRn7xY2iu3RtU?authuser=0&hl=tr&rclk=1",
    "website_url": "",
    "rating_text": "3,9",
    "stars": null,
    "number_of_reviews": null,
    "price_level": "",
    "open_hours": "",
    "extraction_timestamp": "2025-06-07T17:42:50.004Z",
    "source_name": "google",
    "source_query": "Irrigation Equipment",
    "source_country": "PL",
    "country": "Poland",
    "state": "Greater Poland Voivodeship",
    "city": "Dopiewo"
  },
  {
    "source_id": "ChIJcXZ8iPVIBEcRZS-cxY70SSQ",
    "name": "Pawilon handlowy GS Samopomoc Chłopska",
    "category": "Pawilon handlowy GS Samopomoc Chłopska",
    "formatted_address": "5,0(1)",
    "phone_number": "+48618148071",
    "source_url": "https://www.google.com/maps/place/Pawilon+handlowy+GS+Samopomoc+Ch%C5%82opska/data=!4m7!3m6!1s0x470448f5887c7671:0x2449f48ec59c2f65!8m2!3d52.3523748!4d16.6819216!16s%2Fg%2F1tcwdpbx!19sChIJcXZ8iPVIBEcRZS-cxY70SSQ?authuser=0&hl=tr&rclk=1",
    "website_url": "",
    "rating_text": "5,0",
    "stars": null,
    "number_of_reviews": null,
    "price_level": "",
    "open_hours": "",
    "extraction_timestamp": "2025-06-07T17:42:50.004Z",
    "source_name": "google",
    "source_query": "Irrigation Equipment",
    "source_country": "PL",
    "country": "Poland",
    "state": "Greater Poland Voivodeship",
    "city": "Dopiewo"
  },
  {
    "source_id": "ChIJ_8ZGnilEBEcRf9K0w4mbr4E",
    "name": "Dino",
    "category": "Dino",
    "formatted_address": "4,5(129)",
    "phone_number": "",
    "source_url": "https://www.google.com/maps/place/Dino/data=!4m7!3m6!1s0x470444299e46c6ff:0x81af9b89c3b4d27f!8m2!3d52.3566309!4d16.6738365!16s%2Fg%2F11hzwc1p57!19sChIJ_8ZGnilEBEcRf9K0w4mbr4E?authuser=0&hl=tr&rclk=1",
    "website_url": "",
    "rating_text": "4,5",
    "stars": null,
    "number_of_reviews": null,
    "price_level": "",
    "open_hours": "",
    "extraction_timestamp": "2025-06-07T17:42:50.005Z",
    "source_name": "google",
    "source_query": "Irrigation Equipment",
    "source_country": "PL",
    "country": "Poland",
    "state": "Greater Poland Voivodeship",
    "city": "Dopiewo"
  },
  {
    "source_id": "ChIJSZwRDgBJBEcRWYxx49HcuYI",
    "name": "Miodowa",
    "category": "Miodowa",
    "formatted_address": "5,0(2)",
    "phone_number": "",
    "source_url": "https://www.google.com/maps/place/Miodowa/data=!4m7!3m6!1s0x470449000e119c49:0x82b9dcd1e3718c59!8m2!3d52.3722239!4d16.7132102!16s%2Fg%2F11ycxpjkh2!19sChIJSZwRDgBJBEcRWYxx49HcuYI?authuser=0&hl=tr&rclk=1",
    "website_url": "",
    "rating_text": "5,0",
    "stars": null,
    "number_of_reviews": null,
    "price_level": "",
    "open_hours": "",
    "extraction_timestamp": "2025-06-07T17:42:50.005Z",
    "source_name": "google",
    "source_query": "Irrigation Equipment",
    "source_country": "PL",
    "country": "Poland",
    "state": "Greater Poland Voivodeship",
    "city": "Dopiewo"
  },
  {
    "source_id": "ChIJV8oKMG9DBEcRhxkRFioKa8k",
    "name": "Stelmaszyk Sp. J.",
    "category": "Stelmaszyk Sp. J.",
    "formatted_address": "4,6(94)",
    "phone_number": "+48618221190",
    "source_url": "https://www.google.com/maps/place/Stelmaszyk+Sp.+J./data=!4m7!3m6!1s0x4704436f300aca57:0xc96b0a2a16111987!8m2!3d52.4490968!4d16.8934735!16s%2Fg%2F1tj7zn_p!19sChIJV8oKMG9DBEcRhxkRFioKa8k?authuser=0&hl=tr&rclk=1",
    "website_url": "",
    "rating_text": "4,6",
    "stars": null,
    "number_of_reviews": null,
    "price_level": "",
    "open_hours": "",
    "extraction_timestamp": "2025-06-07T17:42:50.006Z",
    "source_name": "google",
    "source_query": "Irrigation Equipment",
    "source_country": "PL",
    "country": "Poland",
    "state": "Greater Poland Voivodeship",
    "city": "Dopiewo"
  },
  {
    "source_id": "ChIJ0-UeNs5EBEcRWyFRaNGFPr0",
    "name": "Instalkos - Usługi hydrauliczne, Pompy ciepła, Ogrzewanie podłogowe, Instalacje gazowe.",
    "category": "Instalkos - Usługi hydrauliczne, Pompy ciepła, Ogrzewanie podłogowe, Instalacje gazowe.",
    "formatted_address": "Instalkos - Usługi hydrauliczne, Pompy ciepła, Ogrzewanie podłogowe, Instalacje gazowe.",
    "phone_number": "+48510485790",
    "source_url": "https://www.google.com/maps/place/Instalkos+-+Us%C5%82ugi+hydrauliczne,+Pompy+ciep%C5%82a,+Ogrzewanie+pod%C5%82ogowe,+Instalacje+gazowe./data=!4m7!3m6!1s0x470444ce361ee5d3:0xbd3e85d16851215b!8m2!3d52.4042737!4d16.8948005!16s%2Fg%2F11f54k7znf!19sChIJ0-UeNs5EBEcRWyFRaNGFPr0?authuser=0&hl=tr&rclk=1",
    "website_url": "",
    "rating_text": "5,0",
    "stars": null,
    "number_of_reviews": null,
    "price_level": "",
    "open_hours": "",
    "extraction_timestamp": "2025-06-07T17:42:50.007Z",
    "source_name": "google",
    "source_query": "Irrigation Equipment",
    "source_country": "PL",
    "country": "Poland",
    "state": "Greater Poland Voivodeship",
    "city": "Dopiewo"
  },
  {
    "source_id": "ChIJnc398spaBEcRj7v-9AgLfjY",
    "name": "Alsi Serwis Sp. z o.o.",
    "category": "Alsi Serwis Sp. z o.o.",
    "formatted_address": "4,1(9)",
    "phone_number": "+48501081033",
    "source_url": "https://www.google.com/maps/place/Alsi+Serwis+Sp.+z+o.o./data=!4m7!3m6!1s0x47045acaf2fdcd9d:0x367e0b08f4febb8f!8m2!3d52.3721925!4d16.890079!16s%2Fg%2F1td68ky8!19sChIJnc398spaBEcRj7v-9AgLfjY?authuser=0&hl=tr&rclk=1",
    "website_url": "",
    "rating_text": "4,1",
    "stars": null,
    "number_of_reviews": null,
    "price_level": "",
    "open_hours": "",
    "extraction_timestamp": "2025-06-07T17:42:50.008Z",
    "source_name": "google",
    "source_query": "Irrigation Equipment",
    "source_country": "PL",
    "country": "Poland",
    "state": "Greater Poland Voivodeship",
    "city": "Dopiewo"
  },
  {
    "source_id": "ChIJvyRsSJ5bBEcRVqXmhXZK594",
    "name": "Termy Maltańskie",
    "category": "Termy Maltańskie",
    "formatted_address": "4,4(26.872)",
    "phone_number": "+48268724",
    "source_url": "https://www.google.com/maps/place/Termy+Malta%C5%84skie/data=!4m7!3m6!1s0x47045b9e486c24bf:0xdee74a7685e6a556!8m2!3d52.40528!4d16.9742523!16s%2Fg%2F120xzsc5!19sChIJvyRsSJ5bBEcRVqXmhXZK594?authuser=0&hl=tr&rclk=1",
    "website_url": "",
    "rating_text": "4,4",
    "stars": null,
    "number_of_reviews": null,
    "price_level": "",
    "open_hours": "",
    "extraction_timestamp": "2025-06-07T17:42:50.009Z",
    "source_name": "google",
    "source_query": "Irrigation Equipment",
    "source_country": "PL",
    "country": "Poland",
    "state": "Greater Poland Voivodeship",
    "city": "Dopiewo"
  },
  {
    "source_id": "ChIJAduKWlhQBEcR_lic4Yg76mk",
    "name": "Agropomoc",
    "category": "Agropomoc",
    "formatted_address": "4,4(58)",
    "phone_number": "+48512236754",
    "source_url": "https://www.google.com/maps/place/Agropomoc/data=!4m7!3m6!1s0x470450585a8adb01:0x69ea3b88e19c58fe!8m2!3d52.4615211!4d16.6768669!16s%2Fg%2F11bv38f0mj!19sChIJAduKWlhQBEcR_lic4Yg76mk?authuser=0&hl=tr&rclk=1",
    "website_url": "",
    "rating_text": "4,4",
    "stars": null,
    "number_of_reviews": null,
    "price_level": "",
    "open_hours": "",
    "extraction_timestamp": "2025-06-07T17:42:50.010Z",
    "source_name": "google",
    "source_query": "Irrigation Equipment",
    "source_country": "PL",
    "country": "Poland",
    "state": "Greater Poland Voivodeship",
    "city": "Dopiewo"
  },
  {
    "source_id": "ChIJi56vM2tbBEcRrYnmZzUWQ6s",
    "name": "Sklep Instalacyjny hydrauliczny Poznań – Doradca Energetyczny – pompy ciepła – kotły gazowe Poznań",
    "category": "Sklep Instalacyjny hydrauliczny Poznań – Doradca Energetyczny – pompy ciepła – kotły gazowe Poznań",
    "formatted_address": "5,0(25)",
    "phone_number": "+48509786200",
    "source_url": "https://www.google.com/maps/place/Sklep+Instalacyjny+hydrauliczny+Pozna%C5%84+%E2%80%93+Doradca+Energetyczny+%E2%80%93+pompy+ciep%C5%82a+%E2%80%93+kot%C5%82y+gazowe+Pozna%C5%84/data=!4m7!3m6!1s0x47045b6b33af9e8b:0xab43163567e689ad!8m2!3d52.3830683!4d16.9201901!16s%2Fg%2F11tdf74spl!19sChIJi56vM2tbBEcRrYnmZzUWQ6s?authuser=0&hl=tr&rclk=1",
    "website_url": "",
    "rating_text": "5,0",
    "stars": null,
    "number_of_reviews": null,
    "price_level": "",
    "open_hours": "",
    "extraction_timestamp": "2025-06-07T17:42:50.011Z",
    "source_name": "google",
    "source_query": "Irrigation Equipment",
    "source_country": "PL",
    "country": "Poland",
    "state": "Greater Poland Voivodeship",
    "city": "Dopiewo"
  },
  {
    "source_id": "ChIJdU0ANU1FBEcR2moWCHkgDNg",
    "name": "Granimex- Uzdatnianie wody, Technologia basenowa, Odwrócona osmoza, Kondycjonowanie wody",
    "category": "Granimex- Uzdatnianie wody, Technologia basenowa, Odwrócona osmoza, Kondycjonowanie wody",
    "formatted_address": "Granimex- Uzdatnianie wody, Technologia basenowa, Odwrócona osmoza, Kondycjonowanie wody",
    "phone_number": "+48618305685",
    "source_url": "https://www.google.com/maps/place/Granimex-+Uzdatnianie+wody,+Technologia+basenowa,+Odwr%C3%B3cona+osmoza,+Kondycjonowanie+wody/data=!4m7!3m6!1s0x4704454d35004d75:0xd80c207908166ada!8m2!3d52.3731194!4d16.8887854!16s%2Fg%2F1tcvsk8q!19sChIJdU0ANU1FBEcR2moWCHkgDNg?authuser=0&hl=tr&rclk=1",
    "website_url": "",
    "rating_text": "5,0",
    "stars": null,
    "number_of_reviews": null,
    "price_level": "",
    "open_hours": "",
    "extraction_timestamp": "2025-06-07T17:42:50.012Z",
    "source_name": "google",
    "source_query": "Irrigation Equipment",
    "source_country": "PL",
    "country": "Poland",
    "state": "Greater Poland Voivodeship",
    "city": "Dopiewo"
  },
  {
    "source_id": "ChIJLYhEm6xDBEcRyx2zr8tDWH0",
    "name": "Rafamarina Centrum Morsów",
    "category": "Rafamarina Centrum Morsów",
    "formatted_address": "4,7(137)",
    "phone_number": "+48508907032",
    "source_url": "https://www.google.com/maps/place/Rafamarina+Centrum+Mors%C3%B3w/data=!4m7!3m6!1s0x470443ac9b44882d:0x7d5843cbafb31dcb!8m2!3d52.463029!4d16.8258449!16s%2Fg%2F11h2l8fqp8!19sChIJLYhEm6xDBEcRyx2zr8tDWH0?authuser=0&hl=tr&rclk=1",
    "website_url": "",
    "rating_text": "4,7",
    "stars": null,
    "number_of_reviews": null,
    "price_level": "",
    "open_hours": "",
    "extraction_timestamp": "2025-06-07T17:42:50.012Z",
    "source_name": "google",
    "source_query": "Irrigation Equipment",
    "source_country": "PL",
    "country": "Poland",
    "state": "Greater Poland Voivodeship",
    "city": "Dopiewo"
  },
  {
    "source_id": "ChIJCxkSanFbBEcRaYmK7Ew9_ag",
    "name": "Krzysztof Jaroszek INSAJ",
    "category": "Krzysztof Jaroszek INSAJ",
    "formatted_address": "4,8(49)",
    "phone_number": "+48531778217",
    "source_url": "https://www.google.com/maps/place/Krzysztof+Jaroszek+INSAJ/data=!4m7!3m6!1s0x47045b716a12190b:0xa8fd3d4cec8a8969!8m2!3d52.3988549!4d16.9064207!16s%2Fg%2F11m9thzfpd!19sChIJCxkSanFbBEcRaYmK7Ew9_ag?authuser=0&hl=tr&rclk=1",
    "website_url": "",
    "rating_text": "4,8",
    "stars": null,
    "number_of_reviews": null,
    "price_level": "",
    "open_hours": "",
    "extraction_timestamp": "2025-06-07T17:42:50.013Z",
    "source_name": "google",
    "source_query": "Irrigation Equipment",
    "source_country": "PL",
    "country": "Poland",
    "state": "Greater Poland Voivodeship",
    "city": "Dopiewo"
  },
  {
    "source_id": "ChIJz2mQGAtFBEcRmKeaBejlx8U",
    "name": "Stejmeg",
    "category": "Stejmeg",
    "formatted_address": "4,1(29)",
    "phone_number": "+48618678248",
    "source_url": "https://www.google.com/maps/place/Stejmeg/data=!4m7!3m6!1s0x4704450b189069cf:0xc5c7e5e8059aa798!8m2!3d52.3809252!4d16.8315109!16s%2Fg%2F1pv0b_sxb!19sChIJz2mQGAtFBEcRmKeaBejlx8U?authuser=0&hl=tr&rclk=1",
    "website_url": "",
    "rating_text": "4,1",
    "stars": null,
    "number_of_reviews": null,
    "price_level": "",
    "open_hours": "",
    "extraction_timestamp": "2025-06-07T17:42:50.014Z",
    "source_name": "google",
    "source_query": "Irrigation Equipment",
    "source_country": "PL",
    "country": "Poland",
    "state": "Greater Poland Voivodeship",
    "city": "Dopiewo"
  },
  {
    "source_id": "ChIJudci_QJQBEcRlVnpAtMYNlk",
    "name": "Garden Center Straczkowscy",
    "category": "Garden Center Straczkowscy",
    "formatted_address": "4,4(308)",
    "phone_number": "",
    "source_url": "https://www.google.com/maps/place/Garden+Center+Straczkowscy/data=!4m7!3m6!1s0x47045002fd22d7b9:0x593618d302e95995!8m2!3d52.342706!4d16.871955!16s%2Fg%2F1v8y2r64!19sChIJudci_QJQBEcRlVnpAtMYNlk?authuser=0&hl=tr&rclk=1",
    "website_url": "",
    "rating_text": "4,4",
    "stars": null,
    "number_of_reviews": null,
    "price_level": "",
    "open_hours": "",
    "extraction_timestamp": "2025-06-07T17:42:50.015Z",
    "source_name": "google",
    "source_query": "Irrigation Equipment",
    "source_country": "PL",
    "country": "Poland",
    "state": "Greater Poland Voivodeship",
    "city": "Dopiewo"
  },
  {
    "source_id": "ChIJGfivszlbBEcRiEei8QMy0mA",
    "name": "CONDENSA osuszanie wynajem osuszaczy",
    "category": "CONDENSA osuszanie wynajem osuszaczy",
    "formatted_address": "5,0(126)",
    "phone_number": "+48530610610",
    "source_url": "https://www.google.com/maps/place/CONDENSA+osuszanie+wynajem+osuszaczy/data=!4m7!3m6!1s0x47045b39b3aff819:0x60d23203f1a24788!8m2!3d52.4476731!4d16.9082079!16s%2Fg%2F1tg8051y!19sChIJGfivszlbBEcRiEei8QMy0mA?authuser=0&hl=tr&rclk=1",
    "website_url": "",
    "rating_text": "5,0",
    "stars": null,
    "number_of_reviews": null,
    "price_level": "",
    "open_hours": "",
    "extraction_timestamp": "2025-06-07T17:42:50.016Z",
    "source_name": "google",
    "source_query": "Irrigation Equipment",
    "source_country": "PL",
    "country": "Poland",
    "state": "Greater Poland Voivodeship",
    "city": "Dopiewo"
  }
]
