[
  {
    "source_id": "ChIJjUsN6D8lBEcRVWFUy-blvAo",
    "name": "MASTER-TANK",
    "category": "MASTER-TANK",
    "formatted_address": "",
    "phone_number": "+48697016605",
    "source_url": "https://www.google.com/maps/place/MASTER-TANK/data=!4m7!3m6!1s0x4704253fe80d4b8d:0xabce5e6cb546155!8m2!3d52.4532811!4d16.4042717!16s%2Fg%2F11k69p4rxt!19sChIJjUsN6D8lBEcRVWFUy-blvAo?authuser=0&hl=tr&rclk=1",
    "website_url": "",
    "rating_text": "",
    "stars": null,
    "number_of_reviews": null,
    "price_level": "",
    "open_hours": "",
    "extraction_timestamp": "2025-06-07T17:39:57.070Z",
    "source_name": "google",
    "source_query": "Irrigation Equipment",
    "source_country": "PL",
    "country": "Poland",
    "state": "Greater Poland Voivodeship",
    "city": "Duszniki"
  },
  {
    "source_id": "ChIJHXzTDjIlBEcRUFqnyOfWokk",
    "name": "Chata Polska",
    "category": "Chata Polska",
    "formatted_address": "4,2(194)",
    "phone_number": "",
    "source_url": "https://www.google.com/maps/place/Chata+Polska/data=!4m7!3m6!1s0x470425320ed37c1d:0x49a2d6e7c8a75a50!8m2!3d52.4512048!4d16.407036!16s%2Fg%2F11fxfz_0kw!19sChIJHXzTDjIlBEcRUFqnyOfWokk?authuser=0&hl=tr&rclk=1",
    "website_url": "",
    "rating_text": "4,2",
    "stars": null,
    "number_of_reviews": null,
    "price_level": "",
    "open_hours": "",
    "extraction_timestamp": "2025-06-07T17:39:57.070Z",
    "source_name": "google",
    "source_query": "Irrigation Equipment",
    "source_country": "PL",
    "country": "Poland",
    "state": "Greater Poland Voivodeship",
    "city": "Duszniki"
  },
  {
    "source_id": "ChIJe668Zig6BEcRCpdCldQIn0Y",
    "name": "Volkswagen Staszak ASO SKODA SEAT VW DOSTAWCZE",
    "category": "Volkswagen Staszak ASO SKODA SEAT VW DOSTAWCZE",
    "formatted_address": "4,7(215)",
    "phone_number": "+48612919054",
    "source_url": "https://www.google.com/maps/place/Volkswagen+Staszak+ASO+SKODA+SEAT+VW+DOSTAWCZE/data=!4m7!3m6!1s0x47043a2866bcae7b:0x469f08d49542970a!8m2!3d52.453327!4d16.4077301!16s%2Fg%2F1ptxc_4k7!19sChIJe668Zig6BEcRCpdCldQIn0Y?authuser=0&hl=tr&rclk=1",
    "website_url": "",
    "rating_text": "4,7",
    "stars": null,
    "number_of_reviews": null,
    "price_level": "",
    "open_hours": "",
    "extraction_timestamp": "2025-06-07T17:39:57.070Z",
    "source_name": "google",
    "source_query": "Irrigation Equipment",
    "source_country": "PL",
    "country": "Poland",
    "state": "Greater Poland Voivodeship",
    "city": "Duszniki"
  },
  {
    "source_id": "ChIJeXkoCjElBEcRhnqhq5SlMk0",
    "name": "Sklep spożywczo - przemysłowy GS Samopomoc Chłopska",
    "category": "Sklep spożywczo - przemysłowy GS Samopomoc Chłopska",
    "formatted_address": "5,0(1)",
    "phone_number": "+48612919008",
    "source_url": "https://www.google.com/maps/place/Sklep+spo%C5%BCywczo+-+przemys%C5%82owy+GS+Samopomoc+Ch%C5%82opska/data=!4m7!3m6!1s0x470425310a287979:0x4d32a594aba17a86!8m2!3d52.4519914!4d16.4050831!16s%2Fg%2F1ptw79rnp!19sChIJeXkoCjElBEcRhnqhq5SlMk0?authuser=0&hl=tr&rclk=1",
    "website_url": "",
    "rating_text": "5,0",
    "stars": null,
    "number_of_reviews": null,
    "price_level": "",
    "open_hours": "",
    "extraction_timestamp": "2025-06-07T17:39:57.070Z",
    "source_name": "google",
    "source_query": "Irrigation Equipment",
    "source_country": "PL",
    "country": "Poland",
    "state": "Greater Poland Voivodeship",
    "city": "Duszniki"
  },
  {
    "source_id": "ChIJLYbUTzAlBEcRxnuTDL_KY1o",
    "name": "Dino",
    "category": "Dino",
    "formatted_address": "3,9(369)",
    "phone_number": "",
    "source_url": "https://www.google.com/maps/place/Dino/data=!4m7!3m6!1s0x470425304fd4862d:0x5a63cabf0c937bc6!8m2!3d52.4520155!4d16.4006042!16s%2Fg%2F1hc3kxc_k!19sChIJLYbUTzAlBEcRxnuTDL_KY1o?authuser=0&hl=tr&rclk=1",
    "website_url": "",
    "rating_text": "3,9",
    "stars": null,
    "number_of_reviews": null,
    "price_level": "",
    "open_hours": "",
    "extraction_timestamp": "2025-06-07T17:39:57.070Z",
    "source_name": "google",
    "source_query": "Irrigation Equipment",
    "source_country": "PL",
    "country": "Poland",
    "state": "Greater Poland Voivodeship",
    "city": "Duszniki"
  }
]
