[
  {
    "source_id": "ChIJB6y_v5J2HEcRlDfYx3xmc9M",
    "name": "Milex irrigation systems",
    "category": "Milex irrigation systems",
    "formatted_address": "4,6(37)",
    "phone_number": "+48242775222",
    "source_url": "https://www.google.com/maps/place/Milex+irrigation+systems/data=!4m7!3m6!1s0x471c7692bfbfac07:0xd373667cc7d83794!8m2!3d52.4690634!4d19.7520904!16s%2Fg%2F1w2yy67r!19sChIJB6y_v5J2HEcRlDfYx3xmc9M?authuser=0&hl=tr&rclk=1",
    "website_url": "",
    "rating_text": "4,6",
    "stars": null,
    "number_of_reviews": null,
    "price_level": "",
    "open_hours": "",
    "extraction_timestamp": "2025-06-07T17:27:49.224Z",
    "source_name": "google",
    "source_query": "Irrigation Equipment",
    "source_country": "PL",
    "country": "Poland",
    "state": "Greater Poland Voivodeship",
    "city": "Dąbie"
  },
  {
    "source_id": "ChIJYZj5UtcRG0cR3gTTAzqBehg",
    "name": "Albin Jadwiga. Sklep spożywczo - monopolowy",
    "category": "Albin Jadwiga. Sklep spożywczo - monopolowy",
    "formatted_address": "4,5(14)",
    "phone_number": "+48632710408",
    "source_url": "https://www.google.com/maps/place/Albin+Jadwiga.+Sklep+spo%C5%BCywczo+-+monopolowy/data=!4m7!3m6!1s0x471b11d752f99861:0x187a813a03d304de!8m2!3d52.0895904!4d18.822729!16s%2Fg%2F1td4nfxx!19sChIJYZj5UtcRG0cR3gTTAzqBehg?authuser=0&hl=tr&rclk=1",
    "website_url": "",
    "rating_text": "4,5",
    "stars": null,
    "number_of_reviews": null,
    "price_level": "",
    "open_hours": "",
    "extraction_timestamp": "2025-06-07T17:27:49.225Z",
    "source_name": "google",
    "source_query": "Irrigation Equipment",
    "source_country": "PL",
    "country": "Poland",
    "state": "Greater Poland Voivodeship",
    "city": "Dąbie"
  },
  {
    "source_id": "ChIJb-IwFNQPG0cRskCCCBwuvQI",
    "name": "Drewex. PPHU. Pecyna S.",
    "category": "Drewex. PPHU. Pecyna S.",
    "formatted_address": "4,0(3)",
    "phone_number": "+48632710049",
    "source_url": "https://www.google.com/maps/place/Drewex.+PPHU.+Pecyna+S./data=!4m7!3m6!1s0x471b0fd41430e26f:0x2bd2e1c088240b2!8m2!3d52.0872234!4d18.8211043!16s%2Fg%2F1vs1qmds!19sChIJb-IwFNQPG0cRskCCCBwuvQI?authuser=0&hl=tr&rclk=1",
    "website_url": "",
    "rating_text": "4,0",
    "stars": null,
    "number_of_reviews": null,
    "price_level": "",
    "open_hours": "",
    "extraction_timestamp": "2025-06-07T17:27:49.226Z",
    "source_name": "google",
    "source_query": "Irrigation Equipment",
    "source_country": "PL",
    "country": "Poland",
    "state": "Greater Poland Voivodeship",
    "city": "Dąbie"
  },
  {
    "source_id": "ChIJ_ZygMtQPG0cR0TiUkSgD-hk",
    "name": "Pss Lux",
    "category": "Pss Lux",
    "formatted_address": "5,0(1)",
    "phone_number": "+48519335137",
    "source_url": "https://www.google.com/maps/place/Pss+Lux/data=!4m7!3m6!1s0x471b0fd432a09cfd:0x19fa0328919438d1!8m2!3d52.0870627!4d18.8191357!16s%2Fg%2F11p65rwbqm!19sChIJ_ZygMtQPG0cR0TiUkSgD-hk?authuser=0&hl=tr&rclk=1",
    "website_url": "",
    "rating_text": "5,0",
    "stars": null,
    "number_of_reviews": null,
    "price_level": "",
    "open_hours": "",
    "extraction_timestamp": "2025-06-07T17:27:49.227Z",
    "source_name": "google",
    "source_query": "Irrigation Equipment",
    "source_country": "PL",
    "country": "Poland",
    "state": "Greater Poland Voivodeship",
    "city": "Dąbie"
  },
  {
    "source_id": "ChIJu0HKEdUPG0cR31kG5SccaNo",
    "name": "Dino",
    "category": "Dino",
    "formatted_address": "4,1(347)",
    "phone_number": "",
    "source_url": "https://www.google.com/maps/place/Dino/data=!4m7!3m6!1s0x471b0fd511ca41bb:0xda681c27e50659df!8m2!3d52.0900036!4d18.8197494!16s%2Fg%2F1jkwp69j_!19sChIJu0HKEdUPG0cR31kG5SccaNo?authuser=0&hl=tr&rclk=1",
    "website_url": "",
    "rating_text": "4,1",
    "stars": null,
    "number_of_reviews": null,
    "price_level": "",
    "open_hours": "",
    "extraction_timestamp": "2025-06-07T17:27:49.228Z",
    "source_name": "google",
    "source_query": "Irrigation Equipment",
    "source_country": "PL",
    "country": "Poland",
    "state": "Greater Poland Voivodeship",
    "city": "Dąbie"
  },
  {
    "source_id": "ChIJm4FTJ1kPG0cR-2nKyfqM3ks",
    "name": "Sklep Lux",
    "category": "Sklep Lux",
    "formatted_address": "4,3(7)",
    "phone_number": "",
    "source_url": "https://www.google.com/maps/place/Sklep+Lux/data=!4m7!3m6!1s0x471b0f592753819b:0x4bde8cfac9ca69fb!8m2!3d52.0871714!4d18.8216132!16s%2Fg%2F11h3dp4fwb!19sChIJm4FTJ1kPG0cR-2nKyfqM3ks?authuser=0&hl=tr&rclk=1",
    "website_url": "",
    "rating_text": "4,3",
    "stars": null,
    "number_of_reviews": null,
    "price_level": "",
    "open_hours": "",
    "extraction_timestamp": "2025-06-07T17:27:49.228Z",
    "source_name": "google",
    "source_query": "Irrigation Equipment",
    "source_country": "PL",
    "country": "Poland",
    "state": "Greater Poland Voivodeship",
    "city": "Dąbie"
  },
  {
    "source_id": "ChIJ-WmrMtQPG0cRsFAw7fe8rI4",
    "name": "Carrefour Express",
    "category": "Carrefour Express",
    "formatted_address": "4,2(43)",
    "phone_number": "+48801200000",
    "source_url": "https://www.google.com/maps/place/Carrefour+Express/data=!4m7!3m6!1s0x471b0fd432ab69f9:0x8eacbcf7ed3050b0!8m2!3d52.0867365!4d18.819344!16s%2Fg%2F11c40mlt2n!19sChIJ-WmrMtQPG0cRsFAw7fe8rI4?authuser=0&hl=tr&rclk=1",
    "website_url": "",
    "rating_text": "4,2",
    "stars": null,
    "number_of_reviews": null,
    "price_level": "",
    "open_hours": "",
    "extraction_timestamp": "2025-06-07T17:27:49.230Z",
    "source_name": "google",
    "source_query": "Irrigation Equipment",
    "source_country": "PL",
    "country": "Poland",
    "state": "Greater Poland Voivodeship",
    "city": "Dąbie"
  },
  {
    "source_id": "ChIJv0hNf95KGkcRnRWNY1Nsl6c",
    "name": "Poldrip",
    "category": "Poldrip",
    "formatted_address": "4,6(12)",
    "phone_number": "+48662789555",
    "source_url": "https://www.google.com/maps/place/Poldrip/data=!4m7!3m6!1s0x471a4ade7f4d48bf:0xa7976c53638d159d!8m2!3d51.7694982!4d19.3328193!16s%2Fg%2F1pty2psn6!19sChIJv0hNf95KGkcRnRWNY1Nsl6c?authuser=0&hl=tr&rclk=1",
    "website_url": "",
    "rating_text": "4,6",
    "stars": null,
    "number_of_reviews": null,
    "price_level": "",
    "open_hours": "",
    "extraction_timestamp": "2025-06-07T17:27:49.230Z",
    "source_name": "google",
    "source_query": "Irrigation Equipment",
    "source_country": "PL",
    "country": "Poland",
    "state": "Greater Poland Voivodeship",
    "city": "Dąbie"
  },
  {
    "source_id": "ChIJb-IwFNQPG0cR4EShceX5HJo",
    "name": "Nova. Apteka. Florczak G.",
    "category": "Nova. Apteka. Florczak G.",
    "formatted_address": "5,0(1)",
    "phone_number": "+48632710057",
    "source_url": "https://www.google.com/maps/place/Nova.+Apteka.+Florczak+G./data=!4m7!3m6!1s0x471b0fd41430e26f:0x9a1cf9e571a144e0!8m2!3d52.087279!4d18.821845!16s%2Fg%2F1vysv8rb!19sChIJb-IwFNQPG0cR4EShceX5HJo?authuser=0&hl=tr&rclk=1",
    "website_url": "",
    "rating_text": "5,0",
    "stars": null,
    "number_of_reviews": null,
    "price_level": "",
    "open_hours": "",
    "extraction_timestamp": "2025-06-07T17:27:49.231Z",
    "source_name": "google",
    "source_query": "Irrigation Equipment",
    "source_country": "PL",
    "country": "Poland",
    "state": "Greater Poland Voivodeship",
    "city": "Dąbie"
  },
  {
    "source_id": "ChIJNRtV6ImZG0cRU-E1dF0VgxM",
    "name": "Agrisolutions Poland Sp. z o.o. (Andersen)",
    "category": "Agrisolutions Poland Sp. z o.o. (Andersen)",
    "formatted_address": "5,0(6)",
    "phone_number": "+48571401242",
    "source_url": "https://www.google.com/maps/place/Agrisolutions+Poland+Sp.+z+o.o.+%28Andersen%29/data=!4m7!3m6!1s0x471b9989e8551b35:0x1383155d7435e153!8m2!3d52.2135911!4d19.4012165!16s%2Fg%2F11bz0rg8vy!19sChIJNRtV6ImZG0cRU-E1dF0VgxM?authuser=0&hl=tr&rclk=1",
    "website_url": "",
    "rating_text": "5,0",
    "stars": null,
    "number_of_reviews": null,
    "price_level": "",
    "open_hours": "",
    "extraction_timestamp": "2025-06-07T17:27:49.232Z",
    "source_name": "google",
    "source_query": "Irrigation Equipment",
    "source_country": "PL",
    "country": "Poland",
    "state": "Greater Poland Voivodeship",
    "city": "Dąbie"
  },
  {
    "source_id": "ChIJOcWoToO26GMReNvhll3JWj4",
    "name": "Hydreen.pl | Automatyczne systemy nawadniające. Projektowanie, dostawa, montaż, serwis.",
    "category": "Hydreen.pl | Automatyczne systemy nawadniające. Projektowanie, dostawa, montaż, serwis.",
    "formatted_address": "Hydreen.pl | Automatyczne systemy nawadniające. Projektowanie, dostawa, montaż, serwis.",
    "phone_number": "+48694429669",
    "source_url": "https://www.google.com/maps/place/Hydreen.pl+%7C+Automatyczne+systemy+nawadniaj%C4%85ce.+Projektowanie,+dostawa,+monta%C5%BC,+serwis./data=!4m7!3m6!1s0x63e8b6834ea8c539:0x3e5ac95d96e1db78!8m2!3d54.1601!4d19.4437316!16s%2Fg%2F11m67mc1_m!19sChIJOcWoToO26GMReNvhll3JWj4?authuser=0&hl=tr&rclk=1",
    "website_url": "",
    "rating_text": "5,0",
    "stars": null,
    "number_of_reviews": null,
    "price_level": "",
    "open_hours": "",
    "extraction_timestamp": "2025-06-07T17:27:49.233Z",
    "source_name": "google",
    "source_query": "Irrigation Equipment",
    "source_country": "PL",
    "country": "Poland",
    "state": "Greater Poland Voivodeship",
    "city": "Dąbie"
  },
  {
    "source_id": "ChIJLdcfDjZPFkcRN5srWAG2qGA",
    "name": "DS Hydro Sp. z o.o.",
    "category": "DS Hydro Sp. z o.o.",
    "formatted_address": "5,0(27)",
    "phone_number": "+48724256012",
    "source_url": "https://www.google.com/maps/place/DS+Hydro+Sp.+z+o.o./data=!4m7!3m6!1s0x47164f360e1fd72d:0x60a8b601582b9b37!8m2!3d50.1603608!4d19.9873067!16s%2Fg%2F11rg4nxptq!19sChIJLdcfDjZPFkcRN5srWAG2qGA?authuser=0&hl=tr&rclk=1",
    "website_url": "",
    "rating_text": "5,0",
    "stars": null,
    "number_of_reviews": null,
    "price_level": "",
    "open_hours": "",
    "extraction_timestamp": "2025-06-07T17:27:49.233Z",
    "source_name": "google",
    "source_query": "Irrigation Equipment",
    "source_country": "PL",
    "country": "Poland",
    "state": "Greater Poland Voivodeship",
    "city": "Dąbie"
  },
  {
    "source_id": "ChIJVTV3W_PzBEcR6gY0xwQi2_E",
    "name": "Deszczownie.com",
    "category": "Deszczownie.com",
    "formatted_address": "",
    "phone_number": "+48726000030",
    "source_url": "https://www.google.com/maps/place/Deszczownie.com/data=!4m7!3m6!1s0x4704f3f35b773555:0xf1db2204c73406ea!8m2!3d52.3623948!4d17.4021087!16s%2Fg%2F11y3pv4rxr!19sChIJVTV3W_PzBEcR6gY0xwQi2_E?authuser=0&hl=tr&rclk=1",
    "website_url": "",
    "rating_text": "",
    "stars": null,
    "number_of_reviews": null,
    "price_level": "",
    "open_hours": "",
    "extraction_timestamp": "2025-06-07T17:27:49.234Z",
    "source_name": "google",
    "source_query": "Irrigation Equipment",
    "source_country": "PL",
    "country": "Poland",
    "state": "Greater Poland Voivodeship",
    "city": "Dąbie"
  },
  {
    "source_id": "ChIJ76WAmPBgGUcRnx47bXjXTwU",
    "name": "Agrofim Poland Sp. z o.o.",
    "category": "Agrofim Poland Sp. z o.o.",
    "formatted_address": "3,8(6)",
    "phone_number": "+48468332266",
    "source_url": "https://www.google.com/maps/place/Agrofim+Poland+Sp.+z+o.o./data=!4m7!3m6!1s0x471960f09880a5ef:0x54fd7786d3b1e9f!8m2!3d51.9616303!4d20.1543898!16s%2Fg%2F1tdnjw7b!19sChIJ76WAmPBgGUcRnx47bXjXTwU?authuser=0&hl=tr&rclk=1",
    "website_url": "",
    "rating_text": "3,8",
    "stars": null,
    "number_of_reviews": null,
    "price_level": "",
    "open_hours": "",
    "extraction_timestamp": "2025-06-07T17:27:49.235Z",
    "source_name": "google",
    "source_query": "Irrigation Equipment",
    "source_country": "PL",
    "country": "Poland",
    "state": "Greater Poland Voivodeship",
    "city": "Dąbie"
  }
]
