[
  {
    "source_id": "ChIJB6y_v5J2HEcRlDfYx3xmc9M",
    "name": "Milex irrigation systems",
    "category": "Milex irrigation systems",
    "formatted_address": "4,6(37)",
    "phone_number": "+48242775222",
    "source_url": "https://www.google.com/maps/place/Milex+irrigation+systems/data=!4m7!3m6!1s0x471c7692bfbfac07:0xd373667cc7d83794!8m2!3d52.4690634!4d19.7520904!16s%2Fg%2F1w2yy67r!19sChIJB6y_v5J2HEcRlDfYx3xmc9M?authuser=0&hl=tr&rclk=1",
    "website_url": "https://www.milex.pl/",
    "rating_text": "4,6",
    "stars": null,
    "number_of_reviews": null,
    "price_level": "",
    "open_hours": "",
    "extraction_timestamp": "2025-06-07T17:37:38.667Z",
    "source_name": "google",
    "source_query": "Irrigation Equipment",
    "source_country": "PL",
    "country": "Poland",
    "state": "Greater Poland Voivodeship",
    "city": "Gizałki"
  },
  {
    "source_id": "ChIJQdbo8CjJHkcRWthLH0PC6H0",
    "name": "GM Sprinkler Sp. o.o.",
    "category": "GM Sprinkler Sp. o.o.",
    "formatted_address": "4,9(23)",
    "phone_number": "+48226788566",
    "source_url": "https://www.google.com/maps/place/GM+Sprinkler+Sp.+o.o./data=!4m7!3m6!1s0x471ec928f0e8d641:0x7de8c2431f4bd85a!8m2!3d52.3177399!4d21.0295375!16s%2Fg%2F1tw1cll3!19sChIJQdbo8CjJHkcRWthLH0PC6H0?authuser=0&hl=tr&rclk=1",
    "website_url": "http://www.gmsprinkler.pl/",
    "rating_text": "4,9",
    "stars": null,
    "number_of_reviews": null,
    "price_level": "",
    "open_hours": "",
    "extraction_timestamp": "2025-06-07T17:37:38.667Z",
    "source_name": "google",
    "source_query": "Irrigation Equipment",
    "source_country": "PL",
    "country": "Poland",
    "state": "Greater Poland Voivodeship",
    "city": "Gizałki"
  },
  {
    "source_id": "ChIJUfn2Ig35A0cREW9fZ4029UM",
    "name": "IMTechnika sp. z o.o.",
    "category": "IMTechnika sp. z o.o.",
    "formatted_address": "4,4(17)",
    "phone_number": "+48883820388",
    "source_url": "https://www.google.com/maps/place/IMTechnika+sp.+z+o.o./data=!4m7!3m6!1s0x4703f90d22f6f951:0x43f5368d675f6f11!8m2!3d52.9756271!4d16.657836!16s%2Fg%2F11bw48_6mg!19sChIJUfn2Ig35A0cREW9fZ4029UM?authuser=0&hl=tr&rclk=1",
    "website_url": "http://imtechnika.pl/",
    "rating_text": "4,4",
    "stars": null,
    "number_of_reviews": null,
    "price_level": "",
    "open_hours": "",
    "extraction_timestamp": "2025-06-07T17:37:38.677Z",
    "source_name": "google",
    "source_query": "Irrigation Equipment",
    "source_country": "PL",
    "country": "Poland",
    "state": "Greater Poland Voivodeship",
    "city": "Gizałki"
  },
  {
    "source_id": "ChIJVTV3W_PzBEcR6gY0xwQi2_E",
    "name": "Deszczownie.com",
    "category": "Deszczownie.com",
    "formatted_address": "",
    "phone_number": "+48726000030",
    "source_url": "https://www.google.com/maps/place/Deszczownie.com/data=!4m7!3m6!1s0x4704f3f35b773555:0xf1db2204c73406ea!8m2!3d52.3623948!4d17.4021087!16s%2Fg%2F11y3pv4rxr!19sChIJVTV3W_PzBEcR6gY0xwQi2_E?authuser=0&hl=tr&rclk=1",
    "website_url": "https://www.deszczownie.com/",
    "rating_text": "",
    "stars": null,
    "number_of_reviews": null,
    "price_level": "",
    "open_hours": "",
    "extraction_timestamp": "2025-06-07T17:37:38.677Z",
    "source_name": "google",
    "source_query": "Irrigation Equipment",
    "source_country": "PL",
    "country": "Poland",
    "state": "Greater Poland Voivodeship",
    "city": "Gizałki"
  },
  {
    "source_id": "ChIJIUx9HQv9IUcRC0Rejij-fC4",
    "name": "AGRIGROUP KONRAD WYSOKIŃSKI, MICHAŁ WAKULIŃSKI",
    "category": "AGRIGROUP KONRAD WYSOKIŃSKI, MICHAŁ WAKULIŃSKI",
    "formatted_address": "AGRIGROUP KONRAD WYSOKIŃSKI, MICHAŁ WAKULIŃSKI",
    "phone_number": "+48602774874",
    "source_url": "https://www.google.com/maps/place/AGRIGROUP+KONRAD+WYSOKI%C5%83SKI,+MICHA%C5%81+WAKULI%C5%83SKI/data=!4m7!3m6!1s0x4721fd0b1d7d4c21:0x2e7cfe288e5e440b!8m2!3d52.0567659!4d22.397828!16s%2Fg%2F11np0pspxx!19sChIJIUx9HQv9IUcRC0Rejij-fC4?authuser=0&hl=tr&rclk=1",
    "website_url": "",
    "rating_text": "4,4",
    "stars": null,
    "number_of_reviews": null,
    "price_level": "",
    "open_hours": "",
    "extraction_timestamp": "2025-06-07T17:37:38.678Z",
    "source_name": "google",
    "source_query": "Irrigation Equipment",
    "source_country": "PL",
    "country": "Poland",
    "state": "Greater Poland Voivodeship",
    "city": "Gizałki"
  },
  {
    "source_id": "ChIJ8XX8RaUSD0cRyV6vMLFBtuE",
    "name": "GK Sprinkler Polska Sp. z o.o. Instalacje Tryskaczowe",
    "category": "GK Sprinkler Polska Sp. z o.o. Instalacje Tryskaczowe",
    "formatted_address": "4,8(8)",
    "phone_number": "+48768626804",
    "source_url": "https://www.google.com/maps/place/GK+Sprinkler+Polska+Sp.+z+o.o.+Instalacje+Tryskaczowe/data=!4m7!3m6!1s0x470f12a545fc75f1:0xe1b641b130af5ec9!8m2!3d51.1780991!4d16.1583151!16s%2Fg%2F1tnjh93k!19sChIJ8XX8RaUSD0cRyV6vMLFBtuE?authuser=0&hl=tr&rclk=1",
    "website_url": "http://gk-sprinkler.pl/",
    "rating_text": "4,8",
    "stars": null,
    "number_of_reviews": null,
    "price_level": "",
    "open_hours": "",
    "extraction_timestamp": "2025-06-07T17:37:38.679Z",
    "source_name": "google",
    "source_query": "Irrigation Equipment",
    "source_country": "PL",
    "country": "Poland",
    "state": "Greater Poland Voivodeship",
    "city": "Gizałki"
  },
  {
    "source_id": "ChIJ6ZYbXNjXBEcRBSx5AREUbqw",
    "name": "Lewiatan",
    "category": "Lewiatan",
    "formatted_address": "4,1(205)",
    "phone_number": "",
    "source_url": "https://www.google.com/maps/place/Lewiatan/data=!4m7!3m6!1s0x4704d7d85c1b96e9:0xac6e141101792c05!8m2!3d52.0426041!4d17.7688285!16s%2Fg%2F11c54ywtgl!19sChIJ6ZYbXNjXBEcRBSx5AREUbqw?authuser=0&hl=tr&rclk=1",
    "website_url": "http://www.lewiatan.pl/",
    "rating_text": "4,1",
    "stars": null,
    "number_of_reviews": null,
    "price_level": "",
    "open_hours": "",
    "extraction_timestamp": "2025-06-07T17:37:38.679Z",
    "source_name": "google",
    "source_query": "Irrigation Equipment",
    "source_country": "PL",
    "country": "Poland",
    "state": "Greater Poland Voivodeship",
    "city": "Gizałki"
  }
]
