[
  {
    "source_id": "ChIJeZgY1xqRBEcRpcLMUkxBkfI",
    "name": "Ha-Two-O Paweł Filipiak",
    "category": "Ha-Two-O Paweł Filipiak",
    "formatted_address": "4,8(101)",
    "phone_number": "+48575579000",
    "source_url": "https://www.google.com/maps/place/Ha-Two-O+Pawe%C5%82+Filipiak/data=!4m7!3m6!1s0x4704911ad7189879:0xf291414c52ccc2a5!8m2!3d52.5491138!4d17.555824!16s%2Fg%2F1x6q0ggt!19sChIJeZgY1xqRBEcRpcLMUkxBkfI?authuser=0&hl=tr&rclk=1",
    "website_url": "",
    "rating_text": "4,8",
    "stars": null,
    "number_of_reviews": null,
    "price_level": "",
    "open_hours": "",
    "extraction_timestamp": "2025-06-07T17:44:53.746Z",
    "source_name": "google",
    "source_query": "Irrigation Equipment",
    "source_country": "PL",
    "country": "Poland",
    "state": "Greater Poland Voivodeship",
    "city": "Gniezno"
  },
  {
    "source_id": "ChIJQaAR7D37BEcRBa5PF0ULYcE",
    "name": "TEST Łukasz i Grzegorz Kiełbowicz sp. j",
    "category": "TEST Łukasz i Grzegorz Kiełbowicz sp. j",
    "formatted_address": "4,9(75)",
    "phone_number": "+48508635200",
    "source_url": "https://www.google.com/maps/place/TEST+%C5%81ukasz+i+Grzegorz+Kie%C5%82bowicz+sp.+j/data=!4m7!3m6!1s0x4704fb3dec11a041:0xc1610b45174fae05!8m2!3d52.5658269!4d17.6143399!16s%2Fg%2F1twyy791!19sChIJQaAR7D37BEcRBa5PF0ULYcE?authuser=0&hl=tr&rclk=1",
    "website_url": "",
    "rating_text": "4,9",
    "stars": null,
    "number_of_reviews": null,
    "price_level": "",
    "open_hours": "",
    "extraction_timestamp": "2025-06-07T17:44:53.747Z",
    "source_name": "google",
    "source_query": "Irrigation Equipment",
    "source_country": "PL",
    "country": "Poland",
    "state": "Greater Poland Voivodeship",
    "city": "Gniezno"
  },
  {
    "source_id": "ChIJ-R2-l9ORBEcRdO81qqZWVsg",
    "name": "Ptak Wypożyczalnia sprzętu budowlanego Gniezno Ptak Magdalena",
    "category": "Ptak Wypożyczalnia sprzętu budowlanego Gniezno Ptak Magdalena",
    "formatted_address": "4,9(217)",
    "phone_number": "+48668389989",
    "source_url": "https://www.google.com/maps/place/Ptak+Wypo%C5%BCyczalnia+sprz%C4%99tu+budowlanego+Gniezno+Ptak+Magdalena/data=!4m7!3m6!1s0x470491d397be1df9:0xc85656a6aa35ef74!8m2!3d52.5304919!4d17.5656107!16s%2Fg%2F11fpqhh8xp!19sChIJ-R2-l9ORBEcRdO81qqZWVsg?authuser=0&hl=tr&rclk=1",
    "website_url": "",
    "rating_text": "4,9",
    "stars": null,
    "number_of_reviews": null,
    "price_level": "",
    "open_hours": "",
    "extraction_timestamp": "2025-06-07T17:44:53.748Z",
    "source_name": "google",
    "source_query": "Irrigation Equipment",
    "source_country": "PL",
    "country": "Poland",
    "state": "Greater Poland Voivodeship",
    "city": "Gniezno"
  },
  {
    "source_id": "ChIJba-L2kGRBEcReMof_Qz5t2I",
    "name": "WODKAN",
    "category": "WODKAN",
    "formatted_address": "4,4(73)",
    "phone_number": "+48614264788",
    "source_url": "https://www.google.com/maps/place/WODKAN/data=!4m7!3m6!1s0x47049141da8baf6d:0x62b7f90cfd1fca78!8m2!3d52.5228121!4d17.6103852!16s%2Fg%2F11fjzw4xkj!19sChIJba-L2kGRBEcReMof_Qz5t2I?authuser=0&hl=tr&rclk=1",
    "website_url": "",
    "rating_text": "4,4",
    "stars": null,
    "number_of_reviews": null,
    "price_level": "",
    "open_hours": "",
    "extraction_timestamp": "2025-06-07T17:44:53.749Z",
    "source_name": "google",
    "source_query": "Irrigation Equipment",
    "source_country": "PL",
    "country": "Poland",
    "state": "Greater Poland Voivodeship",
    "city": "Gniezno"
  },
  {
    "source_id": "ChIJ3QW_7fCQBEcRrjPyhQFy0g4",
    "name": "Castorama",
    "category": "Castorama",
    "formatted_address": "4,2(2.540)",
    "phone_number": "+48614234100",
    "source_url": "https://www.google.com/maps/place/Castorama/data=!4m7!3m6!1s0x470490f0edbf05dd:0xed2720185f233ae!8m2!3d52.562405!4d17.6114263!16s%2Fg%2F1tj7crlx!19sChIJ3QW_7fCQBEcRrjPyhQFy0g4?authuser=0&hl=tr&rclk=1",
    "website_url": "",
    "rating_text": "4,2",
    "stars": null,
    "number_of_reviews": null,
    "price_level": "",
    "open_hours": "",
    "extraction_timestamp": "2025-06-07T17:44:53.751Z",
    "source_name": "google",
    "source_query": "Irrigation Equipment",
    "source_country": "PL",
    "country": "Poland",
    "state": "Greater Poland Voivodeship",
    "city": "Gniezno"
  },
  {
    "source_id": "ChIJQX4GjJmRBEcR66iQL5bfjRY",
    "name": "Tadex Hurtownia",
    "category": "Tadex Hurtownia",
    "formatted_address": "4,6(161)",
    "phone_number": "+48614250480",
    "source_url": "https://www.google.com/maps/place/Tadex+Hurtownia/data=!4m7!3m6!1s0x470491998c067e41:0x168ddf962f90a8eb!8m2!3d52.5280799!4d17.5662491!16s%2Fg%2F1tvq2tw5!19sChIJQX4GjJmRBEcR66iQL5bfjRY?authuser=0&hl=tr&rclk=1",
    "website_url": "",
    "rating_text": "4,6",
    "stars": null,
    "number_of_reviews": null,
    "price_level": "",
    "open_hours": "",
    "extraction_timestamp": "2025-06-07T17:44:53.752Z",
    "source_name": "google",
    "source_query": "Irrigation Equipment",
    "source_country": "PL",
    "country": "Poland",
    "state": "Greater Poland Voivodeship",
    "city": "Gniezno"
  },
  {
    "source_id": "ChIJv973QUWRBEcRNQU6cX7Muqw",
    "name": "GUBAŁA Technika Grzewcza Technika Sanitarna odbiory techniczne gazowe pompy ciepła serwis immergas instalacje gazowe",
    "category": "GUBAŁA Technika Grzewcza Technika Sanitarna odbiory techniczne gazowe pompy ciepła serwis immergas instalacje gazowe",
    "formatted_address": "5,0(14)",
    "phone_number": "+48608186785",
    "source_url": "https://www.google.com/maps/place/GUBA%C5%81A+Technika+Grzewcza+Technika+Sanitarna+odbiory+techniczne+gazowe+pompy+ciep%C5%82a+serwis+immergas+instalacje+gazowe/data=!4m7!3m6!1s0x4704914541f7debf:0xacbacc7e713a0535!8m2!3d52.515169!4d17.6197481!16s%2Fg%2F1wz51dx8!19sChIJv973QUWRBEcRNQU6cX7Muqw?authuser=0&hl=tr&rclk=1",
    "website_url": "",
    "rating_text": "5,0",
    "stars": null,
    "number_of_reviews": null,
    "price_level": "",
    "open_hours": "",
    "extraction_timestamp": "2025-06-07T17:44:53.754Z",
    "source_name": "google",
    "source_query": "Irrigation Equipment",
    "source_country": "PL",
    "country": "Poland",
    "state": "Greater Poland Voivodeship",
    "city": "Gniezno"
  },
  {
    "source_id": "ChIJ464SpmyRBEcRf-_A5mvXN2U",
    "name": "Bricomarche Gniezno",
    "category": "Bricomarche Gniezno",
    "formatted_address": "4,1(1.070)",
    "phone_number": "+48613067410",
    "source_url": "https://www.google.com/maps/place/Bricomarche+Gniezno/data=!4m7!3m6!1s0x4704916ca612aee3:0x6537d76be6c0ef7f!8m2!3d52.5271106!4d17.6000538!16s%2Fg%2F11g03h25nl!19sChIJ464SpmyRBEcRf-_A5mvXN2U?authuser=0&hl=tr&rclk=1",
    "website_url": "",
    "rating_text": "4,1",
    "stars": null,
    "number_of_reviews": null,
    "price_level": "",
    "open_hours": "",
    "extraction_timestamp": "2025-06-07T17:44:53.756Z",
    "source_name": "google",
    "source_query": "Irrigation Equipment",
    "source_country": "PL",
    "country": "Poland",
    "state": "Greater Poland Voivodeship",
    "city": "Gniezno"
  },
  {
    "source_id": "ChIJCzDt8wiRBEcRIuchPiSUCSU",
    "name": "INSTAL-BUDEX Usługi instalacyjne i ogólnobudowlane, Autoryzowany Partner Bosch Termotechnika",
    "category": "INSTAL-BUDEX Usługi instalacyjne i ogólnobudowlane, Autoryzowany Partner Bosch Termotechnika",
    "formatted_address": "INSTAL-BUDEX Usługi instalacyjne i ogólnobudowlane, Autoryzowany Partner Bosch Termotechnika",
    "phone_number": "+48693566363",
    "source_url": "https://www.google.com/maps/place/INSTAL-BUDEX+Us%C5%82ugi+instalacyjne+i+og%C3%B3lnobudowlane,+Autoryzowany+Partner+Bosch+Termotechnika/data=!4m7!3m6!1s0x47049108f3ed300b:0x250994243e21e722!8m2!3d52.5509382!4d17.6019383!16s%2Fg%2F11h1zbqz90!19sChIJCzDt8wiRBEcRIuchPiSUCSU?authuser=0&hl=tr&rclk=1",
    "website_url": "",
    "rating_text": "4,9",
    "stars": null,
    "number_of_reviews": null,
    "price_level": "",
    "open_hours": "",
    "extraction_timestamp": "2025-06-07T17:44:53.757Z",
    "source_name": "google",
    "source_query": "Irrigation Equipment",
    "source_country": "PL",
    "country": "Poland",
    "state": "Greater Poland Voivodeship",
    "city": "Gniezno"
  },
  {
    "source_id": "ChIJyTTQtSaRBEcRTQPf4kaTPl0",
    "name": "HL SYSTEM-melioracja, hydrotechnika, odbudowy, konserwacje rzek, wałów",
    "category": "HL SYSTEM-melioracja, hydrotechnika, odbudowy, konserwacje rzek, wałów",
    "formatted_address": "HL SYSTEM-melioracja, hydrotechnika, odbudowy, konserwacje rzek, wałów",
    "phone_number": "+48608252712",
    "source_url": "https://www.google.com/maps/place/HL+SYSTEM-melioracja,+hydrotechnika,+odbudowy,+konserwacje+rzek,+wa%C5%82%C3%B3w/data=!4m7!3m6!1s0x47049126b5d034c9:0x5d3e9346e2df034d!8m2!3d52.541202!4d17.631774!16s%2Fg%2F1tgjj_9j!19sChIJyTTQtSaRBEcRTQPf4kaTPl0?authuser=0&hl=tr&rclk=1",
    "website_url": "",
    "rating_text": "5,0",
    "stars": null,
    "number_of_reviews": null,
    "price_level": "",
    "open_hours": "",
    "extraction_timestamp": "2025-06-07T17:44:53.758Z",
    "source_name": "google",
    "source_query": "Irrigation Equipment",
    "source_country": "PL",
    "country": "Poland",
    "state": "Greater Poland Voivodeship",
    "city": "Gniezno"
  },
  {
    "source_id": "ChIJXzf_ZlyRBEcRSHGvceKu3BE",
    "name": "P.H.U. \"RADO\" Radosław Gieburowski Grupa SBS",
    "category": "P.H.U. \"RADO\" Radosław Gieburowski Grupa SBS",
    "formatted_address": "4,7(96)",
    "phone_number": "",
    "source_url": "https://www.google.com/maps/place/P.H.U.+%22RADO%22+Rados%C5%82aw+Gieburowski+Grupa+SBS/data=!4m7!3m6!1s0x4704915c66ff375f:0x11dcaee271af7148!8m2!3d52.512284!4d17.609528!16s%2Fg%2F1tj883q9!19sChIJXzf_ZlyRBEcRSHGvceKu3BE?authuser=0&hl=tr&rclk=1",
    "website_url": "",
    "rating_text": "4,7",
    "stars": null,
    "number_of_reviews": null,
    "price_level": "",
    "open_hours": "",
    "extraction_timestamp": "2025-06-07T17:44:53.759Z",
    "source_name": "google",
    "source_query": "Irrigation Equipment",
    "source_country": "PL",
    "country": "Poland",
    "state": "Greater Poland Voivodeship",
    "city": "Gniezno"
  },
  {
    "source_id": "ChIJxUf9nw2RBEcRfOPseO3pT_o",
    "name": "Instal-Plast Plus. Technika grzewcza",
    "category": "Instal-Plast Plus. Technika grzewcza",
    "formatted_address": "4,3(18)",
    "phone_number": "+48614254309",
    "source_url": "https://www.google.com/maps/place/Instal-Plast+Plus.+Technika+grzewcza/data=!4m7!3m6!1s0x4704910d9ffd47c5:0xfa4fe9ed78ece37c!8m2!3d52.525219!4d17.598766!16s%2Fg%2F1pv5yj_5g!19sChIJxUf9nw2RBEcRfOPseO3pT_o?authuser=0&hl=tr&rclk=1",
    "website_url": "",
    "rating_text": "4,3",
    "stars": null,
    "number_of_reviews": null,
    "price_level": "",
    "open_hours": "",
    "extraction_timestamp": "2025-06-07T17:44:53.759Z",
    "source_name": "google",
    "source_query": "Irrigation Equipment",
    "source_country": "PL",
    "country": "Poland",
    "state": "Greater Poland Voivodeship",
    "city": "Gniezno"
  },
  {
    "source_id": "ChIJ5WTdLjqRBEcRyXeq-j9y4kk",
    "name": "Instal-Hand, Piotr Socha, Autoryzowany Top Partner Buderus",
    "category": "Instal-Hand, Piotr Socha, Autoryzowany Top Partner Buderus",
    "formatted_address": "Instal-Hand, Piotr Socha, Autoryzowany Top Partner Buderus",
    "phone_number": "+48608809608",
    "source_url": "https://www.google.com/maps/place/Instal-Hand,+Piotr+Socha,+Autoryzowany+Top+Partner+Buderus/data=!4m7!3m6!1s0x4704913a2edd64e5:0x49e2723ffaaa77c9!8m2!3d52.5301542!4d17.6271288!16s%2Fg%2F11b7lhrjgz!19sChIJ5WTdLjqRBEcRyXeq-j9y4kk?authuser=0&hl=tr&rclk=1",
    "website_url": "",
    "rating_text": "3,9",
    "stars": null,
    "number_of_reviews": null,
    "price_level": "",
    "open_hours": "",
    "extraction_timestamp": "2025-06-07T17:44:53.761Z",
    "source_name": "google",
    "source_query": "Irrigation Equipment",
    "source_country": "PL",
    "country": "Poland",
    "state": "Greater Poland Voivodeship",
    "city": "Gniezno"
  },
  {
    "source_id": "ChIJeUvhimuRBEcRGD98Qu1Aq6U",
    "name": "Wesołowski Dariusz. Sklep firmy ADF Stihl",
    "category": "Wesołowski Dariusz. Sklep firmy ADF Stihl",
    "formatted_address": "4,2(80)",
    "phone_number": "+48614241711",
    "source_url": "https://www.google.com/maps/place/Weso%C5%82owski+Dariusz.+Sklep+firmy+ADF+Stihl/data=!4m7!3m6!1s0x4704916b8ae14b79:0xa5ab40ed427c3f18!8m2!3d52.5120115!4d17.6011452!16s%2Fg%2F1tdfrvjq!19sChIJeUvhimuRBEcRGD98Qu1Aq6U?authuser=0&hl=tr&rclk=1",
    "website_url": "",
    "rating_text": "4,2",
    "stars": null,
    "number_of_reviews": null,
    "price_level": "",
    "open_hours": "",
    "extraction_timestamp": "2025-06-07T17:44:53.761Z",
    "source_name": "google",
    "source_query": "Irrigation Equipment",
    "source_country": "PL",
    "country": "Poland",
    "state": "Greater Poland Voivodeship",
    "city": "Gniezno"
  },
  {
    "source_id": "ChIJLVgyoTyRBEcR2AfWLQdrdgk",
    "name": "Centrum Techniki Grzewczej i Sanitarnej Eko-Plus Pompy Ciepła Gniezno",
    "category": "Centrum Techniki Grzewczej i Sanitarnej Eko-Plus Pompy Ciepła Gniezno",
    "formatted_address": "4,3(31)",
    "phone_number": "+48614263769",
    "source_url": "https://www.google.com/maps/place/Centrum+Techniki+Grzewczej+i+Sanitarnej+Eko-Plus+Pompy+Ciep%C5%82a+Gniezno/data=!4m7!3m6!1s0x4704913ca132582d:0x9766b072dd607d8!8m2!3d52.534089!4d17.6250639!16s%2Fg%2F1tg2jcj7!19sChIJLVgyoTyRBEcR2AfWLQdrdgk?authuser=0&hl=tr&rclk=1",
    "website_url": "",
    "rating_text": "4,3",
    "stars": null,
    "number_of_reviews": null,
    "price_level": "",
    "open_hours": "",
    "extraction_timestamp": "2025-06-07T17:44:53.762Z",
    "source_name": "google",
    "source_query": "Irrigation Equipment",
    "source_country": "PL",
    "country": "Poland",
    "state": "Greater Poland Voivodeship",
    "city": "Gniezno"
  },
  {
    "source_id": "ChIJdZ3zy-qTBEcRk5uFgW9P4Iw",
    "name": "Hydro-Mako.pl",
    "category": "Hydro-Mako.pl",
    "formatted_address": "4,7(3)",
    "phone_number": "+48501240769",
    "source_url": "https://www.google.com/maps/place/Hydro-Mako.pl/data=!4m7!3m6!1s0x470493eacbf39d75:0x8ce04f6f81859b93!8m2!3d52.5045959!4d17.5399972!16s%2Fg%2F11vhrr1r_3!19sChIJdZ3zy-qTBEcRk5uFgW9P4Iw?authuser=0&hl=tr&rclk=1",
    "website_url": "",
    "rating_text": "4,7",
    "stars": null,
    "number_of_reviews": null,
    "price_level": "",
    "open_hours": "",
    "extraction_timestamp": "2025-06-07T17:44:53.763Z",
    "source_name": "google",
    "source_query": "Irrigation Equipment",
    "source_country": "PL",
    "country": "Poland",
    "state": "Greater Poland Voivodeship",
    "city": "Gniezno"
  },
  {
    "source_id": "ChIJNzgZnbqRBEcRfqiaIfzEg_M",
    "name": "Agroplant. Sklep ze środkami ochrony roślin, nawozami i nasionami",
    "category": "Agroplant. Sklep ze środkami ochrony roślin, nawozami i nasionami",
    "formatted_address": "Agroplant. Sklep ze środkami ochrony roślin, nawozami i nasionami",
    "phone_number": "+48614243604",
    "source_url": "https://www.google.com/maps/place/Agroplant.+Sklep+ze+%C5%9Brodkami+ochrony+ro%C5%9Blin,+nawozami+i+nasionami/data=!4m7!3m6!1s0x470491ba9d193837:0xf383c4fc219aa87e!8m2!3d52.543246!4d17.5703764!16s%2Fg%2F1vlz91jl!19sChIJNzgZnbqRBEcRfqiaIfzEg_M?authuser=0&hl=tr&rclk=1",
    "website_url": "",
    "rating_text": "4,6",
    "stars": null,
    "number_of_reviews": null,
    "price_level": "",
    "open_hours": "",
    "extraction_timestamp": "2025-06-07T17:44:53.764Z",
    "source_name": "google",
    "source_query": "Irrigation Equipment",
    "source_country": "PL",
    "country": "Poland",
    "state": "Greater Poland Voivodeship",
    "city": "Gniezno"
  },
  {
    "source_id": "ChIJH16-6G1un2ARXnV8VfOyF-o",
    "name": "Hydrocomplex Technika Sanitarna Janusz Ryczkowski",
    "category": "Hydrocomplex Technika Sanitarna Janusz Ryczkowski",
    "formatted_address": "5,0(1)",
    "phone_number": "+48605045392",
    "source_url": "https://www.google.com/maps/place/Hydrocomplex+Technika+Sanitarna+Janusz+Ryczkowski/data=!4m7!3m6!1s0x609f6e6de8be5e1f:0xea17b2f3557c755e!8m2!3d52.5377784!4d17.5954842!16s%2Fg%2F11s988npj9!19sChIJH16-6G1un2ARXnV8VfOyF-o?authuser=0&hl=tr&rclk=1",
    "website_url": "",
    "rating_text": "5,0",
    "stars": null,
    "number_of_reviews": null,
    "price_level": "",
    "open_hours": "",
    "extraction_timestamp": "2025-06-07T17:44:53.765Z",
    "source_name": "google",
    "source_query": "Irrigation Equipment",
    "source_country": "PL",
    "country": "Poland",
    "state": "Greater Poland Voivodeship",
    "city": "Gniezno"
  },
  {
    "source_id": "ChIJ5ZvUSKKRBEcRynrdHEQqINQ",
    "name": "Przydomowe oczyszczalnie ścieków, szamba ekologiczne, oczyszczalnia biologiczna Poznań Primeko",
    "category": "Przydomowe oczyszczalnie ścieków, szamba ekologiczne, oczyszczalnia biologiczna Poznań Primeko",
    "formatted_address": "Przydomowe oczyszczalnie ścieków, szamba ekologiczne, oczyszczalnia biologiczna Poznań Primeko",
    "phone_number": "+48602378800",
    "source_url": "https://www.google.com/maps/place/Przydomowe+oczyszczalnie+%C5%9Bciek%C3%B3w,+szamba+ekologiczne,+oczyszczalnia+biologiczna+Pozna%C5%84+Primeko/data=!4m7!3m6!1s0x470491a248d49be5:0xd4202a441cdd7aca!8m2!3d52.4423601!4d17.7689707!16s%2Fg%2F12lk6jt3j!19sChIJ5ZvUSKKRBEcRynrdHEQqINQ?authuser=0&hl=tr&rclk=1",
    "website_url": "",
    "rating_text": "4,5",
    "stars": null,
    "number_of_reviews": null,
    "price_level": "",
    "open_hours": "",
    "extraction_timestamp": "2025-06-07T17:44:53.766Z",
    "source_name": "google",
    "source_query": "Irrigation Equipment",
    "source_country": "PL",
    "country": "Poland",
    "state": "Greater Poland Voivodeship",
    "city": "Gniezno"
  }
]
