[
  {
    "source_id": "ChIJDRmchqTMBEcRwnf6CwR1e6w",
    "name": "Agropartner Kościelski i Wspólnicy sp.j.",
    "category": "Agropartner Kościelski i Wspólnicy sp.j.",
    "formatted_address": "4,9(8)",
    "phone_number": "+48632417848",
    "source_url": "https://www.google.com/maps/place/Agropartner+Ko%C5%9Bcielski+i+Wsp%C3%B3lnicy+sp.j./data=!4m7!3m6!1s0x4704cca4869c190d:0xac7b75040bfa77c2!8m2!3d52.243382!4d18.097892!16s%2Fg%2F1v3dqv0y!19sChIJDRmchqTMBEcRwnf6CwR1e6w?authuser=0&hl=tr&rclk=1",
    "website_url": "",
    "rating_text": "4,9",
    "stars": null,
    "number_of_reviews": null,
    "price_level": "",
    "open_hours": "",
    "extraction_timestamp": "2025-06-07T17:24:04.825Z",
    "source_name": "google",
    "source_query": "Irrigation Equipment",
    "source_country": "PL",
    "country": "Poland",
    "state": "Greater Poland Voivodeship",
    "city": "Golina"
  },
  {
    "source_id": "ChIJ2RzufaTMBEcRpPYqrlTELc4",
    "name": "Żelazny Golina",
    "category": "Żelazny Golina",
    "formatted_address": "4,7(158)",
    "phone_number": "+48530282820",
    "source_url": "https://www.google.com/maps/place/%C5%BBelazny+Golina/data=!4m7!3m6!1s0x4704cca47dee1cd9:0xce2dc454ae2af6a4!8m2!3d52.244249!4d18.097791!16s%2Fg%2F1q6j28665!19sChIJ2RzufaTMBEcRpPYqrlTELc4?authuser=0&hl=tr&rclk=1",
    "website_url": "",
    "rating_text": "4,7",
    "stars": null,
    "number_of_reviews": null,
    "price_level": "",
    "open_hours": "",
    "extraction_timestamp": "2025-06-07T17:24:04.827Z",
    "source_name": "google",
    "source_query": "Irrigation Equipment",
    "source_country": "PL",
    "country": "Poland",
    "state": "Greater Poland Voivodeship",
    "city": "Golina"
  },
  {
    "source_id": "ChIJg5pycJnMBEcRBX2728Oe4Vw",
    "name": "Wiercenie studni Konin Hydro-odwiert",
    "category": "Wiercenie studni Konin Hydro-odwiert",
    "formatted_address": "5,0(2)",
    "phone_number": "+48607576215",
    "source_url": "https://www.google.com/maps/place/Wiercenie+studni+Konin+Hydro-odwiert/data=!4m7!3m6!1s0x4704cc9970729a83:0x5ce19ec3dbbb7d05!8m2!3d52.247051!4d18.0835479!16s%2Fg%2F11f52yk3mw!19sChIJg5pycJnMBEcRBX2728Oe4Vw?authuser=0&hl=tr&rclk=1",
    "website_url": "",
    "rating_text": "5,0",
    "stars": null,
    "number_of_reviews": null,
    "price_level": "",
    "open_hours": "",
    "extraction_timestamp": "2025-06-07T17:24:04.828Z",
    "source_name": "google",
    "source_query": "Irrigation Equipment",
    "source_country": "PL",
    "country": "Poland",
    "state": "Greater Poland Voivodeship",
    "city": "Golina"
  },
  {
    "source_id": "ChIJrUEdsrQ8BUcRmMUZDURVJhw",
    "name": "Pol-Agro",
    "category": "Pol-Agro",
    "formatted_address": "4,7(84)",
    "phone_number": "+48627404071",
    "source_url": "https://www.google.com/maps/place/Pol-Agro/data=!4m7!3m6!1s0x47053cb4b21d41ad:0x1c2655440d19c598!8m2!3d51.9106752!4d17.4778009!16s%2Fg%2F1wk7pkrs!19sChIJrUEdsrQ8BUcRmMUZDURVJhw?authuser=0&hl=tr&rclk=1",
    "website_url": "",
    "rating_text": "4,7",
    "stars": null,
    "number_of_reviews": null,
    "price_level": "",
    "open_hours": "",
    "extraction_timestamp": "2025-06-07T17:24:04.829Z",
    "source_name": "google",
    "source_query": "Irrigation Equipment",
    "source_country": "PL",
    "country": "Poland",
    "state": "Greater Poland Voivodeship",
    "city": "Golina"
  },
  {
    "source_id": "ChIJm3g0y2HNBEcRMqWjKsXRLzk",
    "name": "Pol-therm Łukasz Kamiński",
    "category": "Pol-therm Łukasz Kamiński",
    "formatted_address": "5,0(1)",
    "phone_number": "+48691816349",
    "source_url": "https://www.google.com/maps/place/Pol-therm+%C5%81ukasz+Kami%C5%84ski/data=!4m7!3m6!1s0x4704cd61cb34789b:0x392fd1c52aa3a532!8m2!3d52.2465995!4d18.0885548!16s%2Fg%2F11rvcqzzkv!19sChIJm3g0y2HNBEcRMqWjKsXRLzk?authuser=0&hl=tr&rclk=1",
    "website_url": "",
    "rating_text": "5,0",
    "stars": null,
    "number_of_reviews": null,
    "price_level": "",
    "open_hours": "",
    "extraction_timestamp": "2025-06-07T17:24:04.831Z",
    "source_name": "google",
    "source_query": "Irrigation Equipment",
    "source_country": "PL",
    "country": "Poland",
    "state": "Greater Poland Voivodeship",
    "city": "Golina"
  },
  {
    "source_id": "ChIJ794pkKTMBEcR8d6QJtPjBbE",
    "name": "Tytan. PHU",
    "category": "Tytan. PHU",
    "formatted_address": "4,8(31)",
    "phone_number": "+48632418243",
    "source_url": "https://www.google.com/maps/place/Tytan.+PHU/data=!4m7!3m6!1s0x4704cca49029deef:0xb105e3d32690def1!8m2!3d52.2434112!4d18.0982791!16s%2Fg%2F1wf20k4m!19sChIJ794pkKTMBEcR8d6QJtPjBbE?authuser=0&hl=tr&rclk=1",
    "website_url": "",
    "rating_text": "4,8",
    "stars": null,
    "number_of_reviews": null,
    "price_level": "",
    "open_hours": "",
    "extraction_timestamp": "2025-06-07T17:24:04.832Z",
    "source_name": "google",
    "source_query": "Irrigation Equipment",
    "source_country": "PL",
    "country": "Poland",
    "state": "Greater Poland Voivodeship",
    "city": "Golina"
  },
  {
    "source_id": "ChIJcYpouaTMBEcR-DAfERdMY9g",
    "name": "Starówka sp.j. Koliński G., Kędzierski Z.",
    "category": "Starówka sp.j. Koliński G., Kędzierski Z.",
    "formatted_address": "Starówka sp.j. Koliński G., Kędzierski Z.",
    "phone_number": "+48632417657",
    "source_url": "https://www.google.com/maps/place/Star%C3%B3wka+sp.j.+Koli%C5%84ski+G.,+K%C4%99dzierski+Z./data=!4m7!3m6!1s0x4704cca4b9688a71:0xd8634c17111f30f8!8m2!3d52.24243!4d18.09752!16s%2Fg%2F1hc593c10!19sChIJcYpouaTMBEcR-DAfERdMY9g?authuser=0&hl=tr&rclk=1",
    "website_url": "",
    "rating_text": "5,0",
    "stars": null,
    "number_of_reviews": null,
    "price_level": "",
    "open_hours": "",
    "extraction_timestamp": "2025-06-07T17:24:04.833Z",
    "source_name": "google",
    "source_query": "Irrigation Equipment",
    "source_country": "PL",
    "country": "Poland",
    "state": "Greater Poland Voivodeship",
    "city": "Golina"
  },
  {
    "source_id": "ChIJmUaPCn7NBEcRR6OVb9seAGs",
    "name": "POLOmarket",
    "category": "POLOmarket",
    "formatted_address": "4,4(77)",
    "phone_number": "+48801162160",
    "source_url": "https://www.google.com/maps/place/POLOmarket/data=!4m7!3m6!1s0x4704cd7e0a8f4699:0x6b001edb6f95a347!8m2!3d52.2432894!4d18.1048665!16s%2Fg%2F11q8378yf4!19sChIJmUaPCn7NBEcRR6OVb9seAGs?authuser=0&hl=tr&rclk=1",
    "website_url": "",
    "rating_text": "4,4",
    "stars": null,
    "number_of_reviews": null,
    "price_level": "",
    "open_hours": "",
    "extraction_timestamp": "2025-06-07T17:24:04.835Z",
    "source_name": "google",
    "source_query": "Irrigation Equipment",
    "source_country": "PL",
    "country": "Poland",
    "state": "Greater Poland Voivodeship",
    "city": "Golina"
  },
  {
    "source_id": "ChIJa8c5xtfNBEcR5LaU1f_Bvfs",
    "name": "Premium Alkohole",
    "category": "Premium Alkohole",
    "formatted_address": "4,9(15)",
    "phone_number": "+48601673223",
    "source_url": "https://www.google.com/maps/place/Premium+Alkohole/data=!4m7!3m6!1s0x4704cdd7c639c76b:0xfbbdc1ffd594b6e4!8m2!3d52.2428232!4d18.0951362!16s%2Fg%2F11j4dq8nhl!19sChIJa8c5xtfNBEcR5LaU1f_Bvfs?authuser=0&hl=tr&rclk=1",
    "website_url": "",
    "rating_text": "4,9",
    "stars": null,
    "number_of_reviews": null,
    "price_level": "",
    "open_hours": "",
    "extraction_timestamp": "2025-06-07T17:24:04.836Z",
    "source_name": "google",
    "source_query": "Irrigation Equipment",
    "source_country": "PL",
    "country": "Poland",
    "state": "Greater Poland Voivodeship",
    "city": "Golina"
  },
  {
    "source_id": "ChIJj3tO7KjNBEcRzyuhuyHSpAk",
    "name": "Hydro Mario",
    "category": "Hydro Mario",
    "formatted_address": "5,0(1)",
    "phone_number": "",
    "source_url": "https://www.google.com/maps/place/Hydro+Mario/data=!4m7!3m6!1s0x4704cda8ec4e7b8f:0x9a4d221bba12bcf!8m2!3d52.256496!4d18.0296755!16s%2Fg%2F11ry4x1c_f!19sChIJj3tO7KjNBEcRzyuhuyHSpAk?authuser=0&hl=tr&rclk=1",
    "website_url": "",
    "rating_text": "5,0",
    "stars": null,
    "number_of_reviews": null,
    "price_level": "",
    "open_hours": "",
    "extraction_timestamp": "2025-06-07T17:24:04.837Z",
    "source_name": "google",
    "source_query": "Irrigation Equipment",
    "source_country": "PL",
    "country": "Poland",
    "state": "Greater Poland Voivodeship",
    "city": "Golina"
  },
  {
    "source_id": "ChIJobuFz6PMBEcRDZ5QWZnKSpI",
    "name": "Tęcza",
    "category": "Tęcza",
    "formatted_address": "3,3(15)",
    "phone_number": "",
    "source_url": "https://www.google.com/maps/place/T%C4%99cza/data=!4m7!3m6!1s0x4704cca3cf85bba1:0x924aca9959509e0d!8m2!3d52.2464871!4d18.0955292!16s%2Fg%2F11c1pm2wj3!19sChIJobuFz6PMBEcRDZ5QWZnKSpI?authuser=0&hl=tr&rclk=1",
    "website_url": "",
    "rating_text": "3,3",
    "stars": null,
    "number_of_reviews": null,
    "price_level": "",
    "open_hours": "",
    "extraction_timestamp": "2025-06-07T17:24:04.838Z",
    "source_name": "google",
    "source_query": "Irrigation Equipment",
    "source_country": "PL",
    "country": "Poland",
    "state": "Greater Poland Voivodeship",
    "city": "Golina"
  },
  {
    "source_id": "ChIJDRmchqTMBEcRQMrOb0kp_4w",
    "name": "Communal Peasant Self-Help Cooperative",
    "category": "Communal Peasant Self-Help Cooperative",
    "formatted_address": "4,3(4)",
    "phone_number": "+48632418028",
    "source_url": "https://www.google.com/maps/place/Communal+Peasant+Self-Help+Cooperative/data=!4m7!3m6!1s0x4704cca4869c190d:0x8cff29496fceca40!8m2!3d52.2436686!4d18.0978875!16s%2Fg%2F1ttdlpng!19sChIJDRmchqTMBEcRQMrOb0kp_4w?authuser=0&hl=tr&rclk=1",
    "website_url": "",
    "rating_text": "4,3",
    "stars": null,
    "number_of_reviews": null,
    "price_level": "",
    "open_hours": "",
    "extraction_timestamp": "2025-06-07T17:24:04.839Z",
    "source_name": "google",
    "source_query": "Irrigation Equipment",
    "source_country": "PL",
    "country": "Poland",
    "state": "Greater Poland Voivodeship",
    "city": "Golina"
  },
  {
    "source_id": "ChIJT4mt4KTMBEcRonnOQkRkvR4",
    "name": "Sklep Spozywczo-przemyslowy Sara",
    "category": "Sklep Spozywczo-przemyslowy Sara",
    "formatted_address": "4,7(10)",
    "phone_number": "",
    "source_url": "https://www.google.com/maps/place/Sklep+Spozywczo-przemyslowy+Sara/data=!4m7!3m6!1s0x4704cca4e0ad894f:0x1ebd644442ce79a2!8m2!3d52.2425713!4d18.0997039!16s%2Fg%2F11fct5t96z!19sChIJT4mt4KTMBEcRonnOQkRkvR4?authuser=0&hl=tr&rclk=1",
    "website_url": "",
    "rating_text": "4,7",
    "stars": null,
    "number_of_reviews": null,
    "price_level": "",
    "open_hours": "",
    "extraction_timestamp": "2025-06-07T17:24:04.840Z",
    "source_name": "google",
    "source_query": "Irrigation Equipment",
    "source_country": "PL",
    "country": "Poland",
    "state": "Greater Poland Voivodeship",
    "city": "Golina"
  },
  {
    "source_id": "ChIJTcyOGWXLBEcRuk_1ATGrVBw",
    "name": "Krawinstall Przemysław Krawczyk",
    "category": "Krawinstall Przemysław Krawczyk",
    "formatted_address": "5,0(2)",
    "phone_number": "+48663407931",
    "source_url": "https://www.google.com/maps/place/Krawinstall+Przemys%C5%82aw+Krawczyk/data=!4m7!3m6!1s0x4704cb65198ecc4d:0x1c54ab3101f54fba!8m2!3d52.262901!4d18.087393!16s%2Fg%2F11f5djfks6!19sChIJTcyOGWXLBEcRuk_1ATGrVBw?authuser=0&hl=tr&rclk=1",
    "website_url": "",
    "rating_text": "5,0",
    "stars": null,
    "number_of_reviews": null,
    "price_level": "",
    "open_hours": "",
    "extraction_timestamp": "2025-06-07T17:24:04.841Z",
    "source_name": "google",
    "source_query": "Irrigation Equipment",
    "source_country": "PL",
    "country": "Poland",
    "state": "Greater Poland Voivodeship",
    "city": "Golina"
  },
  {
    "source_id": "ChIJ2Udq7aHMBEcRx9FjhjlLDAo",
    "name": "Sklep Polski",
    "category": "Sklep Polski",
    "formatted_address": "4,4(114)",
    "phone_number": "",
    "source_url": "https://www.google.com/maps/place/Sklep+Polski/data=!4m7!3m6!1s0x4704cca1ed6a47d9:0xa0c4b398663d1c7!8m2!3d52.2483512!4d18.0936204!16s%2Fg%2F11cs0dbfs0!19sChIJ2Udq7aHMBEcRx9FjhjlLDAo?authuser=0&hl=tr&rclk=1",
    "website_url": "",
    "rating_text": "4,4",
    "stars": null,
    "number_of_reviews": null,
    "price_level": "",
    "open_hours": "",
    "extraction_timestamp": "2025-06-07T17:24:04.842Z",
    "source_name": "google",
    "source_query": "Irrigation Equipment",
    "source_country": "PL",
    "country": "Poland",
    "state": "Greater Poland Voivodeship",
    "city": "Golina"
  },
  {
    "source_id": "ChIJze4PbzvNBEcRJ91HzQiwpPc",
    "name": "Twój Market",
    "category": "Twój Market",
    "formatted_address": "4,2(54)",
    "phone_number": "",
    "source_url": "https://www.google.com/maps/place/Tw%C3%B3j+Market/data=!4m7!3m6!1s0x4704cd3b6f0feecd:0xf7a4b008cd47dd27!8m2!3d52.2439761!4d18.093431!16s%2Fg%2F11vccz4k_l!19sChIJze4PbzvNBEcRJ91HzQiwpPc?authuser=0&hl=tr&rclk=1",
    "website_url": "",
    "rating_text": "4,2",
    "stars": null,
    "number_of_reviews": null,
    "price_level": "",
    "open_hours": "",
    "extraction_timestamp": "2025-06-07T17:24:04.842Z",
    "source_name": "google",
    "source_query": "Irrigation Equipment",
    "source_country": "PL",
    "country": "Poland",
    "state": "Greater Poland Voivodeship",
    "city": "Golina"
  },
  {
    "source_id": "ChIJj7D1hqLMBEcR5QXKoVhMB14",
    "name": "Market Spożywczy Oliwka",
    "category": "Market Spożywczy Oliwka",
    "formatted_address": "4,4(211)",
    "phone_number": "",
    "source_url": "https://www.google.com/maps/place/Market+Spo%C5%BCywczy+Oliwka/data=!4m7!3m6!1s0x4704cca286f5b08f:0x5e074c58a1ca05e5!8m2!3d52.2451442!4d18.090268!16s%2Fg%2F11clgl6xc8!19sChIJj7D1hqLMBEcR5QXKoVhMB14?authuser=0&hl=tr&rclk=1",
    "website_url": "",
    "rating_text": "4,4",
    "stars": null,
    "number_of_reviews": null,
    "price_level": "",
    "open_hours": "",
    "extraction_timestamp": "2025-06-07T17:24:04.843Z",
    "source_name": "google",
    "source_query": "Irrigation Equipment",
    "source_country": "PL",
    "country": "Poland",
    "state": "Greater Poland Voivodeship",
    "city": "Golina"
  },
  {
    "source_id": "ChIJm_twOKPMBEcRI2YRKVsS7Q8",
    "name": "U Jurka Monopolowy Art. Spożywcze",
    "category": "U Jurka Monopolowy Art. Spożywcze",
    "formatted_address": "5,0(5)",
    "phone_number": "",
    "source_url": "https://www.google.com/maps/place/U+Jurka+Monopolowy+Art.+Spo%C5%BCywcze/data=!4m7!3m6!1s0x4704cca33870fb9b:0xfed125b29116623!8m2!3d52.242866!4d18.0941858!16s%2Fg%2F11fqpc3nd5!19sChIJm_twOKPMBEcRI2YRKVsS7Q8?authuser=0&hl=tr&rclk=1",
    "website_url": "",
    "rating_text": "5,0",
    "stars": null,
    "number_of_reviews": null,
    "price_level": "",
    "open_hours": "",
    "extraction_timestamp": "2025-06-07T17:24:04.843Z",
    "source_name": "google",
    "source_query": "Irrigation Equipment",
    "source_country": "PL",
    "country": "Poland",
    "state": "Greater Poland Voivodeship",
    "city": "Golina"
  },
  {
    "source_id": "ChIJ0UPvVwbNBEcRlyxeqUpGAc4",
    "name": "Pepco",
    "category": "Pepco",
    "formatted_address": "4,7(32)",
    "phone_number": "",
    "source_url": "https://www.google.com/maps/place/Pepco/data=!4m7!3m6!1s0x4704cd0657ef43d1:0xce01464aa95e2c97!8m2!3d52.2436076!4d18.1048505!16s%2Fg%2F11t73fl_g7!19sChIJ0UPvVwbNBEcRlyxeqUpGAc4?authuser=0&hl=tr&rclk=1",
    "website_url": "",
    "rating_text": "4,7",
    "stars": null,
    "number_of_reviews": null,
    "price_level": "",
    "open_hours": "",
    "extraction_timestamp": "2025-06-07T17:24:04.844Z",
    "source_name": "google",
    "source_query": "Irrigation Equipment",
    "source_country": "PL",
    "country": "Poland",
    "state": "Greater Poland Voivodeship",
    "city": "Golina"
  },
  {
    "source_id": "ChIJSacGPWPNBEcRqayUzZChm9E",
    "name": "Kawiarnia Estera Caffé",
    "category": "Kawiarnia Estera Caffé",
    "formatted_address": "4,6(20) · zł 1–20",
    "phone_number": "+48782913242",
    "source_url": "https://www.google.com/maps/place/Kawiarnia+Estera+Caff%C3%A9/data=!4m7!3m6!1s0x4704cd633d06a749:0xd19ba190cd94aca9!8m2!3d52.2425506!4d18.0980231!16s%2Fg%2F11y55wd_jx!19sChIJSacGPWPNBEcRqayUzZChm9E?authuser=0&hl=tr&rclk=1",
    "website_url": "",
    "rating_text": "4,6",
    "stars": null,
    "number_of_reviews": null,
    "price_level": "",
    "open_hours": "",
    "extraction_timestamp": "2025-06-07T17:24:04.845Z",
    "source_name": "google",
    "source_query": "Irrigation Equipment",
    "source_country": "PL",
    "country": "Poland",
    "state": "Greater Poland Voivodeship",
    "city": "Golina"
  },
  {
    "source_id": "ChIJMxysyRo1G0cRBxdQ1HKRxOo",
    "name": "REISAN Instalacje Gaz, wod-kan",
    "category": "REISAN Instalacje Gaz, wod-kan",
    "formatted_address": "REISAN Instalacje Gaz, wod-kan",
    "phone_number": "+48605133737",
    "source_url": "https://www.google.com/maps/place/REISAN+Instalacje+Gaz,+wod-kan/data=!4m7!3m6!1s0x471b351ac9ac1c33:0xeac49172d4501707!8m2!3d52.2376806!4d18.2112126!16s%2Fg%2F11y5611d4n!19sChIJMxysyRo1G0cRBxdQ1HKRxOo?authuser=0&hl=tr&rclk=1",
    "website_url": "",
    "rating_text": "5,0",
    "stars": null,
    "number_of_reviews": null,
    "price_level": "",
    "open_hours": "",
    "extraction_timestamp": "2025-06-07T17:24:04.847Z",
    "source_name": "google",
    "source_query": "Irrigation Equipment",
    "source_country": "PL",
    "country": "Poland",
    "state": "Greater Poland Voivodeship",
    "city": "Golina"
  },
  {
    "source_id": "ChIJR2e_iu_dBEcRHayvDq1P5bs",
    "name": "GeoEnergia Września - Fotowoltaika • Klimatyzacje • Pompy Ciepla",
    "category": "GeoEnergia Września - Fotowoltaika • Klimatyzacje • Pompy Ciepla",
    "formatted_address": "5,0(34)",
    "phone_number": "+48720720466",
    "source_url": "https://www.google.com/maps/place/GeoEnergia+Wrze%C5%9Bnia+-+Fotowoltaika+%E2%80%A2+Klimatyzacje+%E2%80%A2+Pompy+Ciepla/data=!4m7!3m6!1s0x4704ddef8abf6747:0xbbe54fad0eafac1d!8m2!3d52.2034419!4d17.6542439!16s%2Fg%2F11m89spxgq!19sChIJR2e_iu_dBEcRHayvDq1P5bs?authuser=0&hl=tr&rclk=1",
    "website_url": "",
    "rating_text": "5,0",
    "stars": null,
    "number_of_reviews": null,
    "price_level": "",
    "open_hours": "",
    "extraction_timestamp": "2025-06-07T17:24:04.848Z",
    "source_name": "google",
    "source_query": "Irrigation Equipment",
    "source_country": "PL",
    "country": "Poland",
    "state": "Greater Poland Voivodeship",
    "city": "Golina"
  },
  {
    "source_id": "ChIJ2SyVEg5EAk4R9VHFtc3U9FY",
    "name": "Usługi ogrodnicze - Jankowski",
    "category": "Usługi ogrodnicze - Jankowski",
    "formatted_address": "5,0(31)",
    "phone_number": "+48790439585",
    "source_url": "https://www.google.com/maps/place/Us%C5%82ugi+ogrodnicze+-+Jankowski/data=!4m7!3m6!1s0x4e02440e12952cd9:0x56f4d4cdb5c551f5!8m2!3d52.375107!4d18.3034218!16s%2Fg%2F11shp28ps_!19sChIJ2SyVEg5EAk4R9VHFtc3U9FY?authuser=0&hl=tr&rclk=1",
    "website_url": "",
    "rating_text": "5,0",
    "stars": null,
    "number_of_reviews": null,
    "price_level": "",
    "open_hours": "",
    "extraction_timestamp": "2025-06-07T17:24:04.849Z",
    "source_name": "google",
    "source_query": "Irrigation Equipment",
    "source_country": "PL",
    "country": "Poland",
    "state": "Greater Poland Voivodeship",
    "city": "Golina"
  },
  {
    "source_id": "ChIJcUvG6lzRBEcRIaC2rjMsvJI",
    "name": "Pro Jack Instal Jacek Wędzina",
    "category": "Pro Jack Instal Jacek Wędzina",
    "formatted_address": "4,7(28)",
    "phone_number": "+48726630778",
    "source_url": "https://www.google.com/maps/place/Pro+Jack+Instal+Jacek+W%C4%99dzina/data=!4m7!3m6!1s0x4704d15ceac64b71:0x92bc2c33aeb6a021!8m2!3d52.1379235!4d17.7915396!16s%2Fg%2F11fknhfn9j!19sChIJcUvG6lzRBEcRIaC2rjMsvJI?authuser=0&hl=tr&rclk=1",
    "website_url": "",
    "rating_text": "4,7",
    "stars": null,
    "number_of_reviews": null,
    "price_level": "",
    "open_hours": "",
    "extraction_timestamp": "2025-06-07T17:24:04.850Z",
    "source_name": "google",
    "source_query": "Irrigation Equipment",
    "source_country": "PL",
    "country": "Poland",
    "state": "Greater Poland Voivodeship",
    "city": "Golina"
  },
  {
    "source_id": "ChIJVTV3W_PzBEcR6gY0xwQi2_E",
    "name": "Deszczownie.com",
    "category": "Deszczownie.com",
    "formatted_address": "",
    "phone_number": "+48726000030",
    "source_url": "https://www.google.com/maps/place/Deszczownie.com/data=!4m7!3m6!1s0x4704f3f35b773555:0xf1db2204c73406ea!8m2!3d52.3623948!4d17.4021087!16s%2Fg%2F11y3pv4rxr!19sChIJVTV3W_PzBEcR6gY0xwQi2_E?authuser=0&hl=tr&rclk=1",
    "website_url": "",
    "rating_text": "",
    "stars": null,
    "number_of_reviews": null,
    "price_level": "",
    "open_hours": "",
    "extraction_timestamp": "2025-06-07T17:24:04.851Z",
    "source_name": "google",
    "source_query": "Irrigation Equipment",
    "source_country": "PL",
    "country": "Poland",
    "state": "Greater Poland Voivodeship",
    "city": "Golina"
  },
  {
    "source_id": "ChIJr503wDa1BEcR_jFkIgDU15g",
    "name": "P.H.U. EL-WI Jarosław Witucki",
    "category": "P.H.U. EL-WI Jarosław Witucki",
    "formatted_address": "4,4(7)",
    "phone_number": "+48632701135",
    "source_url": "https://www.google.com/maps/place/P.H.U.+EL-WI+Jaros%C5%82aw+Witucki/data=!4m7!3m6!1s0x4704b536c0379daf:0x98d7d400226431fe!8m2!3d52.3663249!4d18.1827379!16s%2Fg%2F11jdqygth7!19sChIJr503wDa1BEcR_jFkIgDU15g?authuser=0&hl=tr&rclk=1",
    "website_url": "",
    "rating_text": "4,4",
    "stars": null,
    "number_of_reviews": null,
    "price_level": "",
    "open_hours": "",
    "extraction_timestamp": "2025-06-07T17:24:04.852Z",
    "source_name": "google",
    "source_query": "Irrigation Equipment",
    "source_country": "PL",
    "country": "Poland",
    "state": "Greater Poland Voivodeship",
    "city": "Golina"
  },
  {
    "source_id": "ChIJmfZRRKpXAkcR1MoaeRxNjr0",
    "name": "Rolmet-Plus - Hydraulika Siłowa Punkt odbioru zamówień Konin",
    "category": "Rolmet-Plus - Hydraulika Siłowa Punkt odbioru zamówień Konin",
    "formatted_address": "4,8(9)",
    "phone_number": "+48516131594",
    "source_url": "https://www.google.com/maps/place/Rolmet-Plus+-+Hydraulika+Si%C5%82owa+Punkt+odbioru+zam%C3%B3wie%C5%84+Konin/data=!4m7!3m6!1s0x470257aa4451f699:0xbd8e4d1c791acad4!8m2!3d52.2301776!4d18.2380751!16s%2Fg%2F119v9_st0!19sChIJmfZRRKpXAkcR1MoaeRxNjr0?authuser=0&hl=tr&rclk=1",
    "website_url": "",
    "rating_text": "4,8",
    "stars": null,
    "number_of_reviews": null,
    "price_level": "",
    "open_hours": "",
    "extraction_timestamp": "2025-06-07T17:24:04.853Z",
    "source_name": "google",
    "source_query": "Irrigation Equipment",
    "source_country": "PL",
    "country": "Poland",
    "state": "Greater Poland Voivodeship",
    "city": "Golina"
  },
  {
    "source_id": "ChIJD9YagltLG0cRKh10_Bhw4-Y",
    "name": "ArtDOM - Pompy Ciepła, Klimatyzacja, Wentylacja",
    "category": "ArtDOM - Pompy Ciepła, Klimatyzacja, Wentylacja",
    "formatted_address": "ArtDOM - Pompy Ciepła, Klimatyzacja, Wentylacja",
    "phone_number": "+48632703907",
    "source_url": "https://www.google.com/maps/place/ArtDOM+-+Pompy+Ciep%C5%82a,+Klimatyzacja,+Wentylacja/data=!4m7!3m6!1s0x471b4b5b821ad60f:0xe6e37018fc741d2a!8m2!3d52.307592!4d18.2616605!16s%2Fg%2F11r6b8np8m!19sChIJD9YagltLG0cRKh10_Bhw4-Y?authuser=0&hl=tr&rclk=1",
    "website_url": "",
    "rating_text": "4,9",
    "stars": null,
    "number_of_reviews": null,
    "price_level": "",
    "open_hours": "",
    "extraction_timestamp": "2025-06-07T17:24:04.854Z",
    "source_name": "google",
    "source_query": "Irrigation Equipment",
    "source_country": "PL",
    "country": "Poland",
    "state": "Greater Poland Voivodeship",
    "city": "Golina"
  }
]
