[
  {
    "source_id": "ChIJrUus0-e0GkcRfTx5snbdfYg",
    "name": "Eko Systemy Grzewcze I Sanitarne Agnieszka i Rafal Kolodziej",
    "category": "Eko Systemy Grzewcze I Sanitarne Agnieszka i Rafal Kolodziej",
    "formatted_address": "4,5(11)",
    "phone_number": "+48605360999",
    "source_url": "https://www.google.com/maps/place/Eko+Systemy+Grzewcze+I+Sanitarne+Agnieszka+i+Rafal+Kolodziej/data=!4m7!3m6!1s0x471ab4e7d3ac4bad:0x887ddd76b2793c7d!8m2!3d51.640181!4d17.7554659!16s%2Fg%2F11b75qg7wx!19sChIJrUus0-e0GkcRfTx5snbdfYg?authuser=0&hl=tr&rclk=1",
    "website_url": "http://www.ekosystemy.com.pl/",
    "rating_text": "4,5",
    "stars": null,
    "number_of_reviews": null,
    "price_level": "",
    "open_hours": "",
    "extraction_timestamp": "2025-06-07T17:51:04.218Z",
    "source_name": "google",
    "source_query": "Irrigation Equipment",
    "source_country": "PL",
    "country": "Poland",
    "state": "Greater Poland Voivodeship",
    "city": "Gorzyce Wielkie"
  },
  {
    "source_id": "ChIJv3VWorS1GkcR91vUXcnWjAo",
    "name": "Systemy pneumatyki. Sprężarki, kompresory, narzędzia",
    "category": "Systemy pneumatyki. Sprężarki, kompresory, narzędzia",
    "formatted_address": "Systemy pneumatyki. Sprężarki, kompresory, narzędzia",
    "phone_number": "+48625910444",
    "source_url": "https://www.google.com/maps/place/Systemy+pneumatyki.+Spr%C4%99%C5%BCarki,+kompresory,+narz%C4%99dzia/data=!4m7!3m6!1s0x471ab5b4a25675bf:0xa8cd6c95dd45bf7!8m2!3d51.6301252!4d17.8127133!16s%2Fg%2F1vm_wmyy!19sChIJv3VWorS1GkcR91vUXcnWjAo?authuser=0&hl=tr&rclk=1",
    "website_url": "http://www.systemypneumatyki.pl/",
    "rating_text": "4,1",
    "stars": null,
    "number_of_reviews": null,
    "price_level": "",
    "open_hours": "",
    "extraction_timestamp": "2025-06-07T17:51:04.219Z",
    "source_name": "google",
    "source_query": "Irrigation Equipment",
    "source_country": "PL",
    "country": "Poland",
    "state": "Greater Poland Voivodeship",
    "city": "Gorzyce Wielkie"
  },
  {
    "source_id": "ChIJVVVVVQnKGkcRd2aNroLxE_M",
    "name": "MINIKOP Roboty ziemne",
    "category": "MINIKOP Roboty ziemne",
    "formatted_address": "4,0(4)",
    "phone_number": "+48606329437",
    "source_url": "https://www.google.com/maps/place/MINIKOP+Roboty+ziemne/data=!4m7!3m6!1s0x471aca0955555555:0xf313f182ae8d6677!8m2!3d51.646258!4d17.729649!16s%2Fg%2F11j8l63r8l!19sChIJVVVVVQnKGkcRd2aNroLxE_M?authuser=0&hl=tr&rclk=1",
    "website_url": "http://minikop.pl/",
    "rating_text": "4,0",
    "stars": null,
    "number_of_reviews": null,
    "price_level": "",
    "open_hours": "",
    "extraction_timestamp": "2025-06-07T17:51:04.221Z",
    "source_name": "google",
    "source_query": "Irrigation Equipment",
    "source_country": "PL",
    "country": "Poland",
    "state": "Greater Poland Voivodeship",
    "city": "Gorzyce Wielkie"
  },
  {
    "source_id": "ChIJcR97xNAtBUcR__NeBCdOFjU",
    "name": "Słoneczny Doradca - pompy ciepła - usługi hydrauliczne - kotły c.o",
    "category": "Słoneczny Doradca - pompy ciepła - usługi hydrauliczne - kotły c.o",
    "formatted_address": "4,7(56)",
    "phone_number": "+48600600342",
    "source_url": "https://www.google.com/maps/place/S%C5%82oneczny+Doradca+-+pompy+ciep%C5%82a+-+us%C5%82ugi+hydrauliczne+-+kot%C5%82y+c.o/data=!4m7!3m6!1s0x47052dd0c47b1f71:0x35164e27045ef3ff!8m2!3d51.639729!4d17.7827231!16s%2Fg%2F11rscv369w!19sChIJcR97xNAtBUcR__NeBCdOFjU?authuser=0&hl=tr&rclk=1",
    "website_url": "https://slonecznydoradca.pl/",
    "rating_text": "4,7",
    "stars": null,
    "number_of_reviews": null,
    "price_level": "",
    "open_hours": "",
    "extraction_timestamp": "2025-06-07T17:51:04.222Z",
    "source_name": "google",
    "source_query": "Irrigation Equipment",
    "source_country": "PL",
    "country": "Poland",
    "state": "Greater Poland Voivodeship",
    "city": "Gorzyce Wielkie"
  },
  {
    "source_id": "ChIJv13aMo20GkcRuIJwITpZIug",
    "name": "ASHYDRO",
    "category": "ASHYDRO",
    "formatted_address": "5,0(5)",
    "phone_number": "+48508377657",
    "source_url": "https://www.google.com/maps/place/ASHYDRO/data=!4m7!3m6!1s0x471ab48d32da5dbf:0xe822593a217082b8!8m2!3d51.627431!4d17.762832!16s%2Fg%2F11b6_cnlmt!19sChIJv13aMo20GkcRuIJwITpZIug?authuser=0&hl=tr&rclk=1",
    "website_url": "http://www.ashydro.pl/",
    "rating_text": "5,0",
    "stars": null,
    "number_of_reviews": null,
    "price_level": "",
    "open_hours": "",
    "extraction_timestamp": "2025-06-07T17:51:04.224Z",
    "source_name": "google",
    "source_query": "Irrigation Equipment",
    "source_country": "PL",
    "country": "Poland",
    "state": "Greater Poland Voivodeship",
    "city": "Gorzyce Wielkie"
  },
  {
    "source_id": "ChIJK2GjZAe3GkcRtYCUwk9ASmE",
    "name": "Grofi - Systemy nawadniania do domu i ogrodu",
    "category": "Grofi - Systemy nawadniania do domu i ogrodu",
    "formatted_address": "4,8(16)",
    "phone_number": "+48575716244",
    "source_url": "https://www.google.com/maps/place/Grofi+-+Systemy+nawadniania+do+domu+i+ogrodu/data=!4m7!3m6!1s0x471ab70764a3612b:0x614a404fc29480b5!8m2!3d51.612066!4d17.8638006!16s%2Fg%2F11y5_4bbdm!19sChIJK2GjZAe3GkcRtYCUwk9ASmE?authuser=0&hl=tr&rclk=1",
    "website_url": "http://grofi.pl/",
    "rating_text": "4,8",
    "stars": null,
    "number_of_reviews": null,
    "price_level": "",
    "open_hours": "",
    "extraction_timestamp": "2025-06-07T17:51:04.225Z",
    "source_name": "google",
    "source_query": "Irrigation Equipment",
    "source_country": "PL",
    "country": "Poland",
    "state": "Greater Poland Voivodeship",
    "city": "Gorzyce Wielkie"
  },
  {
    "source_id": "ChIJodBz2Ku1GkcRpFFk9S5cnoQ",
    "name": "Producent Armatury LPG — GOK Regler und Armaturen Polska",
    "category": "Producent Armatury LPG — GOK Regler und Armaturen Polska",
    "formatted_address": "5,0(1)",
    "phone_number": "+48627358408",
    "source_url": "https://www.google.com/maps/place/Producent+Armatury+LPG+%E2%80%94+GOK+Regler+und+Armaturen+Polska/data=!4m7!3m6!1s0x471ab5abd873d0a1:0x849e5c2ef56451a4!8m2!3d51.6582233!4d17.7926164!16s%2Fg%2F11rfbk8grh!19sChIJodBz2Ku1GkcRpFFk9S5cnoQ?authuser=0&hl=tr&rclk=1",
    "website_url": "http://www.gok.pl/",
    "rating_text": "5,0",
    "stars": null,
    "number_of_reviews": null,
    "price_level": "",
    "open_hours": "",
    "extraction_timestamp": "2025-06-07T17:51:04.225Z",
    "source_name": "google",
    "source_query": "Irrigation Equipment",
    "source_country": "PL",
    "country": "Poland",
    "state": "Greater Poland Voivodeship",
    "city": "Gorzyce Wielkie"
  },
  {
    "source_id": "ChIJp73Gf7K1GkcRI6cI3kKdWUM",
    "name": "PHU Elmax Kopacki S.",
    "category": "PHU Elmax Kopacki S.",
    "formatted_address": "5,0(69)",
    "phone_number": "+48627243375",
    "source_url": "https://www.google.com/maps/place/PHU+Elmax+Kopacki+S./data=!4m7!3m6!1s0x471ab5b27fc6bda7:0x43599d42de08a723!8m2!3d51.6395306!4d17.7555412!16s%2Fg%2F1tsynjgw!19sChIJp73Gf7K1GkcRI6cI3kKdWUM?authuser=0&hl=tr&rclk=1",
    "website_url": "https://elmax.pasaz24.pl/",
    "rating_text": "5,0",
    "stars": null,
    "number_of_reviews": null,
    "price_level": "",
    "open_hours": "",
    "extraction_timestamp": "2025-06-07T17:51:04.225Z",
    "source_name": "google",
    "source_query": "Irrigation Equipment",
    "source_country": "PL",
    "country": "Poland",
    "state": "Greater Poland Voivodeship",
    "city": "Gorzyce Wielkie"
  },
  {
    "source_id": "ChIJDdDmYF-0GkcRznJ_dc7O48g",
    "name": "Geoserwis. Studnie głębinowe .",
    "category": "Geoserwis. Studnie głębinowe .",
    "formatted_address": "3,0(2)",
    "phone_number": "+48602792320",
    "source_url": "https://www.google.com/maps/place/Geoserwis.+Studnie+g%C5%82%C4%99binowe+./data=!4m7!3m6!1s0x471ab45f60e6d00d:0xc8e3cece757f72ce!8m2!3d51.6279623!4d17.7760877!16s%2Fg%2F11ddw__q0x!19sChIJDdDmYF-0GkcRznJ_dc7O48g?authuser=0&hl=tr&rclk=1",
    "website_url": "http://wiertnik.com.pl/",
    "rating_text": "3,0",
    "stars": null,
    "number_of_reviews": null,
    "price_level": "",
    "open_hours": "",
    "extraction_timestamp": "2025-06-07T17:51:04.226Z",
    "source_name": "google",
    "source_query": "Irrigation Equipment",
    "source_country": "PL",
    "country": "Poland",
    "state": "Greater Poland Voivodeship",
    "city": "Gorzyce Wielkie"
  },
  {
    "source_id": "ChIJVSJ38P-0GkcRT0SBTvqUAz0",
    "name": "Eko-Instal. Montaż instalacji cieplnych",
    "category": "Eko-Instal. Montaż instalacji cieplnych",
    "formatted_address": "5,0(7)",
    "phone_number": "+48606792045",
    "source_url": "https://www.google.com/maps/place/Eko-Instal.+Monta%C5%BC+instalacji+cieplnych/data=!4m7!3m6!1s0x471ab4fff0772255:0x3d0394fa4e81444f!8m2!3d51.6447411!4d17.786776!16s%2Fg%2F1hc0zkgfz!19sChIJVSJ38P-0GkcRT0SBTvqUAz0?authuser=0&hl=tr&rclk=1",
    "website_url": "http://ekoinstal-ostrow-wlkp.pl/",
    "rating_text": "5,0",
    "stars": null,
    "number_of_reviews": null,
    "price_level": "",
    "open_hours": "",
    "extraction_timestamp": "2025-06-07T17:51:04.226Z",
    "source_name": "google",
    "source_query": "Irrigation Equipment",
    "source_country": "PL",
    "country": "Poland",
    "state": "Greater Poland Voivodeship",
    "city": "Gorzyce Wielkie"
  },
  {
    "source_id": "ChIJ5TSa_sK0GkcRK_4whdb5nqQ",
    "name": "Auto Serwis Radosław Bednarek",
    "category": "Auto Serwis Radosław Bednarek",
    "formatted_address": "4,8(76)",
    "phone_number": "+48519056168",
    "source_url": "https://www.google.com/maps/place/Auto+Serwis+Rados%C5%82aw+Bednarek/data=!4m7!3m6!1s0x471ab4c2fe9a34e5:0xa49ef9d68530fe2b!8m2!3d51.6382686!4d17.7478211!16s%2Fg%2F11c1p503wx!19sChIJ5TSa_sK0GkcRK_4whdb5nqQ?authuser=0&hl=tr&rclk=1",
    "website_url": "https://auto-bednarek.pl/",
    "rating_text": "4,8",
    "stars": null,
    "number_of_reviews": null,
    "price_level": "",
    "open_hours": "",
    "extraction_timestamp": "2025-06-07T17:51:04.226Z",
    "source_name": "google",
    "source_query": "Irrigation Equipment",
    "source_country": "PL",
    "country": "Poland",
    "state": "Greater Poland Voivodeship",
    "city": "Gorzyce Wielkie"
  },
  {
    "source_id": "ChIJE1LyQXC5GkcReaYk7xtVbBU",
    "name": "JM ENERGY - Agregaty prądotwórcze / kompresory / Maszyny Budowlane",
    "category": "JM ENERGY - Agregaty prądotwórcze / kompresory / Maszyny Budowlane",
    "formatted_address": "5,0(5)",
    "phone_number": "+48669432664",
    "source_url": "https://www.google.com/maps/place/JM+ENERGY+-+Agregaty+pr%C4%85dotw%C3%B3rcze+%2F+kompresory+%2F+Maszyny+Budowlane/data=!4m7!3m6!1s0x471ab97041f25213:0x156c551bef24a679!8m2!3d51.6354221!4d18.0032579!16s%2Fg%2F11lh3t9ph4!19sChIJE1LyQXC5GkcReaYk7xtVbBU?authuser=0&hl=tr&rclk=1",
    "website_url": "",
    "rating_text": "5,0",
    "stars": null,
    "number_of_reviews": null,
    "price_level": "",
    "open_hours": "",
    "extraction_timestamp": "2025-06-07T17:51:04.227Z",
    "source_name": "google",
    "source_query": "Irrigation Equipment",
    "source_country": "PL",
    "country": "Poland",
    "state": "Greater Poland Voivodeship",
    "city": "Gorzyce Wielkie"
  },
  {
    "source_id": "ChIJRbuBK93kxgkRrhAjZfgm7_M",
    "name": "Inst-Raf Rafał Kaczmarek",
    "category": "Inst-Raf Rafał Kaczmarek",
    "formatted_address": "5,0(1)",
    "phone_number": "+48601829533",
    "source_url": "https://www.google.com/maps/place/Inst-Raf+Rafa%C5%82+Kaczmarek/data=!4m7!3m6!1s0x9c6e4dd2b81bb45:0xf3ef26f8652310ae!8m2!3d51.953761!4d19.1343692!16s%2Fg%2F11y34v1cx6!19sChIJRbuBK93kxgkRrhAjZfgm7_M?authuser=0&hl=tr&rclk=1",
    "website_url": "",
    "rating_text": "5,0",
    "stars": null,
    "number_of_reviews": null,
    "price_level": "",
    "open_hours": "",
    "extraction_timestamp": "2025-06-07T17:51:04.227Z",
    "source_name": "google",
    "source_query": "Irrigation Equipment",
    "source_country": "PL",
    "country": "Poland",
    "state": "Greater Poland Voivodeship",
    "city": "Gorzyce Wielkie"
  },
  {
    "source_id": "ChIJsTNrALG1GkcRlf4pcV8iFgQ",
    "name": "Dino",
    "category": "Dino",
    "formatted_address": "4,3(149)",
    "phone_number": "",
    "source_url": "https://www.google.com/maps/place/Dino/data=!4m7!3m6!1s0x471ab5b1006b33b1:0x416225f7129fe95!8m2!3d51.6357633!4d17.7294478!16s%2Fg%2F11f6576vq1!19sChIJsTNrALG1GkcRlf4pcV8iFgQ?authuser=0&hl=tr&rclk=1",
    "website_url": "https://marketdino.pl/",
    "rating_text": "4,3",
    "stars": null,
    "number_of_reviews": null,
    "price_level": "",
    "open_hours": "",
    "extraction_timestamp": "2025-06-07T17:51:04.228Z",
    "source_name": "google",
    "source_query": "Irrigation Equipment",
    "source_country": "PL",
    "country": "Poland",
    "state": "Greater Poland Voivodeship",
    "city": "Gorzyce Wielkie"
  }
]
