[
  {
    "source_id": "ChIJ1cFYp1MMBUcRwdi59ZYLnJw",
    "name": "Autoryzowany Dealer DeLaval Jan Witkowski",
    "category": "Autoryzowany Dealer DeLaval Jan Witkowski",
    "formatted_address": "4,8(12)",
    "phone_number": "+48655722575",
    "source_url": "https://www.google.com/maps/place/Autoryzowany+Dealer+DeLaval+Jan+Witkowski/data=!4m7!3m6!1s0x47050c53a758c1d5:0x9c9c0b96f5b9d8c1!8m2!3d51.8574961!4d17.0138717!16s%2Fg%2F1vvdsxxn!19sChIJ1cFYp1MMBUcRwdi59ZYLnJw?authuser=0&hl=tr&rclk=1",
    "website_url": "",
    "rating_text": "4,8",
    "stars": null,
    "number_of_reviews": null,
    "price_level": "",
    "open_hours": "",
    "extraction_timestamp": "2025-06-07T17:13:41.934Z",
    "source_name": "google",
    "source_query": "Irrigation Equipment",
    "source_country": "PL",
    "country": "Poland",
    "state": "Greater Poland Voivodeship",
    "city": "Gostyń"
  },
  {
    "source_id": "ChIJi_wadzcMBUcR1Q7CsAUmcbw",
    "name": "Efli Gostyń",
    "category": "Efli Gostyń",
    "formatted_address": "4,2(22)",
    "phone_number": "+48655720421",
    "source_url": "https://www.google.com/maps/place/Efli+Gosty%C5%84/data=!4m7!3m6!1s0x47050c37771afc8b:0xbc712605b0c20ed5!8m2!3d51.8751638!4d17.0143424!16s%2Fg%2F1tv22w0_!19sChIJi_wadzcMBUcR1Q7CsAUmcbw?authuser=0&hl=tr&rclk=1",
    "website_url": "",
    "rating_text": "4,2",
    "stars": null,
    "number_of_reviews": null,
    "price_level": "",
    "open_hours": "",
    "extraction_timestamp": "2025-06-07T17:13:41.935Z",
    "source_name": "google",
    "source_query": "Irrigation Equipment",
    "source_country": "PL",
    "country": "Poland",
    "state": "Greater Poland Voivodeship",
    "city": "Gostyń"
  },
  {
    "source_id": "ChIJP7JrhSQMBUcRS_hRvCJj3NE",
    "name": "AGROPAX Sklep rolniczo-techniczny Powered by Kramp Gostyń",
    "category": "AGROPAX Sklep rolniczo-techniczny Powered by Kramp Gostyń",
    "formatted_address": "4,6(43)",
    "phone_number": "+48655721131",
    "source_url": "https://www.google.com/maps/place/AGROPAX+Sklep+rolniczo-techniczny+Powered+by+Kramp+Gosty%C5%84/data=!4m7!3m6!1s0x47050c24856bb23f:0xd1dc6322bc51f84b!8m2!3d51.8853105!4d17.0113079!16s%2Fg%2F1tdckn_m!19sChIJP7JrhSQMBUcRS_hRvCJj3NE?authuser=0&hl=tr&rclk=1",
    "website_url": "",
    "rating_text": "4,6",
    "stars": null,
    "number_of_reviews": null,
    "price_level": "",
    "open_hours": "",
    "extraction_timestamp": "2025-06-07T17:13:41.935Z",
    "source_name": "google",
    "source_query": "Irrigation Equipment",
    "source_country": "PL",
    "country": "Poland",
    "state": "Greater Poland Voivodeship",
    "city": "Gostyń"
  },
  {
    "source_id": "ChIJaWVNgjsMBUcRt5kdDZ_6qyE",
    "name": "Karbona Sp. z o.o.",
    "category": "Karbona Sp. z o.o.",
    "formatted_address": "4,5(2)",
    "phone_number": "+48655722240",
    "source_url": "https://www.google.com/maps/place/Karbona+Sp.+z+o.o./data=!4m7!3m6!1s0x47050c3b824d6569:0x21abfa9f0d1d99b7!8m2!3d51.88078!4d17.00881!16s%2Fg%2F1hc2fqk7y!19sChIJaWVNgjsMBUcRt5kdDZ_6qyE?authuser=0&hl=tr&rclk=1",
    "website_url": "",
    "rating_text": "4,5",
    "stars": null,
    "number_of_reviews": null,
    "price_level": "",
    "open_hours": "",
    "extraction_timestamp": "2025-06-07T17:13:41.935Z",
    "source_name": "google",
    "source_query": "Irrigation Equipment",
    "source_country": "PL",
    "country": "Poland",
    "state": "Greater Poland Voivodeship",
    "city": "Gostyń"
  },
  {
    "source_id": "ChIJSx7-dSMMBUcRtikRKLvVN8U",
    "name": "Armatura sp.j. Sklep przemysłowy. Nowak U.T.A.",
    "category": "Armatura sp.j. Sklep przemysłowy. Nowak U.T.A.",
    "formatted_address": "4,7(60)",
    "phone_number": "+48655723325",
    "source_url": "https://www.google.com/maps/place/Armatura+sp.j.+Sklep+przemys%C5%82owy.+Nowak+U.T.A./data=!4m7!3m6!1s0x47050c2375fe1e4b:0xc537d5bb281129b6!8m2!3d51.886231!4d17.0100919!16s%2Fg%2F1tg2jcjx!19sChIJSx7-dSMMBUcRtikRKLvVN8U?authuser=0&hl=tr&rclk=1",
    "website_url": "",
    "rating_text": "4,7",
    "stars": null,
    "number_of_reviews": null,
    "price_level": "",
    "open_hours": "",
    "extraction_timestamp": "2025-06-07T17:13:41.936Z",
    "source_name": "google",
    "source_query": "Irrigation Equipment",
    "source_country": "PL",
    "country": "Poland",
    "state": "Greater Poland Voivodeship",
    "city": "Gostyń"
  },
  {
    "source_id": "ChIJP7JrhSQMBUcR-_NZnMvRs6Y",
    "name": "Urządzenia Sanitarne i Grzewcze sp. z o.o.",
    "category": "Urządzenia Sanitarne i Grzewcze sp. z o.o.",
    "formatted_address": "4,5(6)",
    "phone_number": "+48655751688",
    "source_url": "https://www.google.com/maps/place/Urz%C4%85dzenia+Sanitarne+i+Grzewcze+sp.+z+o.o./data=!4m7!3m6!1s0x47050c24856bb23f:0xa6b3d1cb9c59f3fb!8m2!3d51.8853044!4d17.0112887!16s%2Fg%2F1v5_83mk!19sChIJP7JrhSQMBUcR-_NZnMvRs6Y?authuser=0&hl=tr&rclk=1",
    "website_url": "",
    "rating_text": "4,5",
    "stars": null,
    "number_of_reviews": null,
    "price_level": "",
    "open_hours": "",
    "extraction_timestamp": "2025-06-07T17:13:41.936Z",
    "source_name": "google",
    "source_query": "Irrigation Equipment",
    "source_country": "PL",
    "country": "Poland",
    "state": "Greater Poland Voivodeship",
    "city": "Gostyń"
  },
  {
    "source_id": "ChIJLSex-ApzBUcRCpj8De0_1NY",
    "name": "Agritech Techniczne Wyposażenie Rolnictwa",
    "category": "Agritech Techniczne Wyposażenie Rolnictwa",
    "formatted_address": "5,0(59)",
    "phone_number": "+48669738934",
    "source_url": "https://www.google.com/maps/place/Agritech+Techniczne+Wyposa%C5%BCenie+Rolnictwa/data=!4m7!3m6!1s0x4705730af8b1272d:0xd6d43fed0dfc980a!8m2!3d51.7740263!4d16.9777365!16s%2Fg%2F11h08qlbkb!19sChIJLSex-ApzBUcRCpj8De0_1NY?authuser=0&hl=tr&rclk=1",
    "website_url": "",
    "rating_text": "5,0",
    "stars": null,
    "number_of_reviews": null,
    "price_level": "",
    "open_hours": "",
    "extraction_timestamp": "2025-06-07T17:13:41.936Z",
    "source_name": "google",
    "source_query": "Irrigation Equipment",
    "source_country": "PL",
    "country": "Poland",
    "state": "Greater Poland Voivodeship",
    "city": "Gostyń"
  },
  {
    "source_id": "ChIJPZce8OEJBUcRIVsbpcRzLu8",
    "name": "Unicus Usługi Ogrodnicze Nowaczyk",
    "category": "Unicus Usługi Ogrodnicze Nowaczyk",
    "formatted_address": "4,6(19)",
    "phone_number": "+48602815312",
    "source_url": "https://www.google.com/maps/place/Unicus+Us%C5%82ugi+Ogrodnicze+Nowaczyk/data=!4m7!3m6!1s0x470509e1f01e973d:0xef2e73c4a51b5b21!8m2!3d51.897861!4d16.9626557!16s%2Fg%2F11qrl6ljjl!19sChIJPZce8OEJBUcRIVsbpcRzLu8?authuser=0&hl=tr&rclk=1",
    "website_url": "",
    "rating_text": "4,6",
    "stars": null,
    "number_of_reviews": null,
    "price_level": "",
    "open_hours": "",
    "extraction_timestamp": "2025-06-07T17:13:41.936Z",
    "source_name": "google",
    "source_query": "Irrigation Equipment",
    "source_country": "PL",
    "country": "Poland",
    "state": "Greater Poland Voivodeship",
    "city": "Gostyń"
  },
  {
    "source_id": "ChIJtdPjXiMMBUcRhrlA9lB9o_I",
    "name": "Bricomarché",
    "category": "Bricomarché",
    "formatted_address": "4,0(1.121)",
    "phone_number": "+48655720140",
    "source_url": "https://www.google.com/maps/place/Bricomarch%C3%A9/data=!4m7!3m6!1s0x47050c235ee3d3b5:0xf2a37d50f640b986!8m2!3d51.8846609!4d17.0107148!16s%2Fg%2F1tdxcz_d!19sChIJtdPjXiMMBUcRhrlA9lB9o_I?authuser=0&hl=tr&rclk=1",
    "website_url": "",
    "rating_text": "4,0",
    "stars": null,
    "number_of_reviews": null,
    "price_level": "",
    "open_hours": "",
    "extraction_timestamp": "2025-06-07T17:13:41.937Z",
    "source_name": "google",
    "source_query": "Irrigation Equipment",
    "source_country": "PL",
    "country": "Poland",
    "state": "Greater Poland Voivodeship",
    "city": "Gostyń"
  },
  {
    "source_id": "ChIJJ_mbHAMPBUcR8XuZ9oEIYy8",
    "name": "A&D NaturArt - Usługi Ogrodnicze",
    "category": "A&D NaturArt - Usługi Ogrodnicze",
    "formatted_address": "5,0(1)",
    "phone_number": "+48508344990",
    "source_url": "https://www.google.com/maps/place/A%26D+NaturArt+-+Us%C5%82ugi+Ogrodnicze/data=!4m7!3m6!1s0x47050f031c9bf927:0x2f630881f6997bf1!8m2!3d51.9002771!4d17.0109018!16s%2Fg%2F11w_fgn0qy!19sChIJJ_mbHAMPBUcR8XuZ9oEIYy8?authuser=0&hl=tr&rclk=1",
    "website_url": "",
    "rating_text": "5,0",
    "stars": null,
    "number_of_reviews": null,
    "price_level": "",
    "open_hours": "",
    "extraction_timestamp": "2025-06-07T17:13:41.937Z",
    "source_name": "google",
    "source_query": "Irrigation Equipment",
    "source_country": "PL",
    "country": "Poland",
    "state": "Greater Poland Voivodeship",
    "city": "Gostyń"
  },
  {
    "source_id": "ChIJs3R64zcMBUcRPF60V6n19NU",
    "name": "Wencel. Pompy wody, głębinowne, pompy zatapialne, silniki elektryczne",
    "category": "Wencel. Pompy wody, głębinowne, pompy zatapialne, silniki elektryczne",
    "formatted_address": "Wencel. Pompy wody, głębinowne, pompy zatapialne, silniki elektryczne",
    "phone_number": "+48504054253",
    "source_url": "https://www.google.com/maps/place/Wencel.+Pompy+wody,+g%C5%82%C4%99binowne,+pompy+zatapialne,+silniki+elektryczne/data=!4m7!3m6!1s0x47050c37e37a74b3:0xd5f4f5a957b45e3c!8m2!3d51.8725775!4d17.012215!16s%2Fg%2F1hc7fgk4l!19sChIJs3R64zcMBUcRPF60V6n19NU?authuser=0&hl=tr&rclk=1",
    "website_url": "",
    "rating_text": "5,0",
    "stars": null,
    "number_of_reviews": null,
    "price_level": "",
    "open_hours": "",
    "extraction_timestamp": "2025-06-07T17:13:41.937Z",
    "source_name": "google",
    "source_query": "Irrigation Equipment",
    "source_country": "PL",
    "country": "Poland",
    "state": "Greater Poland Voivodeship",
    "city": "Gostyń"
  },
  {
    "source_id": "ChIJ78UMEzsMBUcRTny4LFqQf6M",
    "name": "Tech-Pol. Pompy głębinowe, hydroforowe",
    "category": "Tech-Pol. Pompy głębinowe, hydroforowe",
    "formatted_address": "Tech-Pol. Pompy głębinowe, hydroforowe",
    "phone_number": "+48655720171",
    "source_url": "https://www.google.com/maps/place/Tech-Pol.+Pompy+g%C5%82%C4%99binowe,+hydroforowe/data=!4m7!3m6!1s0x47050c3b130cc5ef:0xa37f905a2cb87c4e!8m2!3d51.8815729!4d17.010848!16s%2Fg%2F1hc4_z27m!19sChIJ78UMEzsMBUcRTny4LFqQf6M?authuser=0&hl=tr&rclk=1",
    "website_url": "",
    "rating_text": "",
    "stars": null,
    "number_of_reviews": null,
    "price_level": "",
    "open_hours": "",
    "extraction_timestamp": "2025-06-07T17:13:41.938Z",
    "source_name": "google",
    "source_query": "Irrigation Equipment",
    "source_country": "PL",
    "country": "Poland",
    "state": "Greater Poland Voivodeship",
    "city": "Gostyń"
  },
  {
    "source_id": "ChIJA7-KdBINBUcRv9e1APOYK8o",
    "name": "Zakład Zielarski Kawon-Hurt Nowak Sp. J.",
    "category": "Zakład Zielarski Kawon-Hurt Nowak Sp. J.",
    "formatted_address": "3,9(21)",
    "phone_number": "+48655720822",
    "source_url": "https://www.google.com/maps/place/Zak%C5%82ad+Zielarski+Kawon-Hurt+Nowak+Sp.+J./data=!4m7!3m6!1s0x47050d12748abf03:0xca2b98f300b5d7bf!8m2!3d51.8473861!4d17.018772!16s%2Fg%2F1wj_rzpw!19sChIJA7-KdBINBUcRv9e1APOYK8o?authuser=0&hl=tr&rclk=1",
    "website_url": "",
    "rating_text": "3,9",
    "stars": null,
    "number_of_reviews": null,
    "price_level": "",
    "open_hours": "",
    "extraction_timestamp": "2025-06-07T17:13:41.938Z",
    "source_name": "google",
    "source_query": "Irrigation Equipment",
    "source_country": "PL",
    "country": "Poland",
    "state": "Greater Poland Voivodeship",
    "city": "Gostyń"
  },
  {
    "source_id": "ChIJP7JrhSQMBUcR4AXA89zeCd4",
    "name": "Zawieja Sp. J.",
    "category": "Zawieja Sp. J.",
    "formatted_address": "4,3(104)",
    "phone_number": "+48655720200",
    "source_url": "https://www.google.com/maps/place/Zawieja+Sp.+J./data=!4m7!3m6!1s0x47050c24856bb23f:0xde09dedcf3c005e0!8m2!3d51.8849341!4d17.0120183!16s%2Fg%2F1w04htb6!19sChIJP7JrhSQMBUcR4AXA89zeCd4?authuser=0&hl=tr&rclk=1",
    "website_url": "",
    "rating_text": "4,3",
    "stars": null,
    "number_of_reviews": null,
    "price_level": "",
    "open_hours": "",
    "extraction_timestamp": "2025-06-07T17:13:41.938Z",
    "source_name": "google",
    "source_query": "Irrigation Equipment",
    "source_country": "PL",
    "country": "Poland",
    "state": "Greater Poland Voivodeship",
    "city": "Gostyń"
  },
  {
    "source_id": "ChIJRS8ZY58OBUcRJfOMj2P8ok4",
    "name": "Centrum Ogrodnicze Iwona Dziedzic",
    "category": "Centrum Ogrodnicze Iwona Dziedzic",
    "formatted_address": "4,6(123)",
    "phone_number": "+48655723733",
    "source_url": "https://www.google.com/maps/place/Centrum+Ogrodnicze+Iwona+Dziedzic/data=!4m7!3m6!1s0x47050e9f63192f45:0x4ea2fc638f8cf325!8m2!3d51.8976277!4d17.0118604!16s%2Fg%2F1trrbx45!19sChIJRS8ZY58OBUcRJfOMj2P8ok4?authuser=0&hl=tr&rclk=1",
    "website_url": "",
    "rating_text": "4,6",
    "stars": null,
    "number_of_reviews": null,
    "price_level": "",
    "open_hours": "",
    "extraction_timestamp": "2025-06-07T17:13:41.938Z",
    "source_name": "google",
    "source_query": "Irrigation Equipment",
    "source_country": "PL",
    "country": "Poland",
    "state": "Greater Poland Voivodeship",
    "city": "Gostyń"
  },
  {
    "source_id": "ChIJE4mrszYMBUcRqgan3FVq3ZA",
    "name": "Lifeng Sp. z o.o.",
    "category": "Lifeng Sp. z o.o.",
    "formatted_address": "5,0(1)",
    "phone_number": "+48655722086",
    "source_url": "https://www.google.com/maps/place/Lifeng+Sp.+z+o.o./data=!4m7!3m6!1s0x47050c36b3ab8913:0x90dd6a55dca706aa!8m2!3d51.8746525!4d17.017558!16s%2Fg%2F1hc16bgzp!19sChIJE4mrszYMBUcRqgan3FVq3ZA?authuser=0&hl=tr&rclk=1",
    "website_url": "",
    "rating_text": "5,0",
    "stars": null,
    "number_of_reviews": null,
    "price_level": "",
    "open_hours": "",
    "extraction_timestamp": "2025-06-07T17:13:41.939Z",
    "source_name": "google",
    "source_query": "Irrigation Equipment",
    "source_country": "PL",
    "country": "Poland",
    "state": "Greater Poland Voivodeship",
    "city": "Gostyń"
  },
  {
    "source_id": "ChIJZbUduRcNBUcRDLFf6n_-Cus",
    "name": "Action Gostyń",
    "category": "Action Gostyń",
    "formatted_address": "4,5(77)",
    "phone_number": "+48326305898",
    "source_url": "https://www.google.com/maps/place/Action+Gosty%C5%84/data=!4m7!3m6!1s0x47050d17b91db565:0xeb0afe7fea5fb10c!8m2!3d51.8763612!4d17.0147055!16s%2Fg%2F11rq4tzl2m!19sChIJZbUduRcNBUcRDLFf6n_-Cus?authuser=0&hl=tr&rclk=1",
    "website_url": "",
    "rating_text": "4,5",
    "stars": null,
    "number_of_reviews": null,
    "price_level": "",
    "open_hours": "",
    "extraction_timestamp": "2025-06-07T17:13:41.939Z",
    "source_name": "google",
    "source_query": "Irrigation Equipment",
    "source_country": "PL",
    "country": "Poland",
    "state": "Greater Poland Voivodeship",
    "city": "Gostyń"
  },
  {
    "source_id": "ChIJaWVNgjsMBUcRoJZ_m-ScwPU",
    "name": "Intermarché Supermarket Drive Zdrowa żywność",
    "category": "Intermarché Supermarket Drive Zdrowa żywność",
    "formatted_address": "4,1(586)",
    "phone_number": "+48655722240",
    "source_url": "https://www.google.com/maps/place/Intermarch%C3%A9+Supermarket+Drive+Zdrowa+%C5%BCywno%C5%9B%C4%87/data=!4m7!3m6!1s0x47050c3b824d6569:0xf5c09ce49b7f96a0!8m2!3d51.8807799!4d17.00881!16s%2Fg%2F1hc41y29d!19sChIJaWVNgjsMBUcRoJZ_m-ScwPU?authuser=0&hl=tr&rclk=1",
    "website_url": "",
    "rating_text": "4,1",
    "stars": null,
    "number_of_reviews": null,
    "price_level": "",
    "open_hours": "",
    "extraction_timestamp": "2025-06-07T17:13:41.939Z",
    "source_name": "google",
    "source_query": "Irrigation Equipment",
    "source_country": "PL",
    "country": "Poland",
    "state": "Greater Poland Voivodeship",
    "city": "Gostyń"
  },
  {
    "source_id": "ChIJkxcd9lQMBUcRdPcMh-CxVCU",
    "name": "PUH GTG Barbara Grocka Tomasz Grocki sp. j.",
    "category": "PUH GTG Barbara Grocka Tomasz Grocki sp. j.",
    "formatted_address": "4,6(9)",
    "phone_number": "+48655723580",
    "source_url": "https://www.google.com/maps/place/PUH+GTG+Barbara+Grocka+Tomasz+Grocki+sp.+j./data=!4m7!3m6!1s0x47050c54f61d1793:0x2554b1e0870cf774!8m2!3d51.8549244!4d17.0114122!16s%2Fg%2F1tlw7sdt!19sChIJkxcd9lQMBUcRdPcMh-CxVCU?authuser=0&hl=tr&rclk=1",
    "website_url": "",
    "rating_text": "4,6",
    "stars": null,
    "number_of_reviews": null,
    "price_level": "",
    "open_hours": "",
    "extraction_timestamp": "2025-06-07T17:13:41.939Z",
    "source_name": "google",
    "source_query": "Irrigation Equipment",
    "source_country": "PL",
    "country": "Poland",
    "state": "Greater Poland Voivodeship",
    "city": "Gostyń"
  },
  {
    "source_id": "ChIJi5EgpFoNBUcR8e22hfx7iSM",
    "name": "Supeco",
    "category": "Supeco",
    "formatted_address": "4,4(277)",
    "phone_number": "+48655114949",
    "source_url": "https://www.google.com/maps/place/Supeco/data=!4m7!3m6!1s0x47050d5aa420918b:0x23897bfc85b6edf1!8m2!3d51.8735269!4d17.016233!16s%2Fg%2F11fq5t6b3y!19sChIJi5EgpFoNBUcR8e22hfx7iSM?authuser=0&hl=tr&rclk=1",
    "website_url": "",
    "rating_text": "4,4",
    "stars": null,
    "number_of_reviews": null,
    "price_level": "",
    "open_hours": "",
    "extraction_timestamp": "2025-06-07T17:13:41.939Z",
    "source_name": "google",
    "source_query": "Irrigation Equipment",
    "source_country": "PL",
    "country": "Poland",
    "state": "Greater Poland Voivodeship",
    "city": "Gostyń"
  },
  {
    "source_id": "ChIJxX-J0zAMBUcRi1CsoNctuJg",
    "name": "HYDRO-INSTAL Armatura sanitarna, wyposażenie łazienek, technika grzewcza",
    "category": "HYDRO-INSTAL Armatura sanitarna, wyposażenie łazienek, technika grzewcza",
    "formatted_address": "HYDRO-INSTAL Armatura sanitarna, wyposażenie łazienek, technika grzewcza",
    "phone_number": "",
    "source_url": "https://www.google.com/maps/place/HYDRO-INSTAL+Armatura+sanitarna,+wyposa%C5%BCenie+%C5%82azienek,+technika+grzewcza/data=!4m7!3m6!1s0x47050c30d3897fc5:0x98b82dd7a0ac508b!8m2!3d51.8841787!4d17.0711948!16s%2Fg%2F1tmgb40c!19sChIJxX-J0zAMBUcRi1CsoNctuJg?authuser=0&hl=tr&rclk=1",
    "website_url": "",
    "rating_text": "4,8",
    "stars": null,
    "number_of_reviews": null,
    "price_level": "",
    "open_hours": "",
    "extraction_timestamp": "2025-06-07T17:13:41.940Z",
    "source_name": "google",
    "source_query": "Irrigation Equipment",
    "source_country": "PL",
    "country": "Poland",
    "state": "Greater Poland Voivodeship",
    "city": "Gostyń"
  },
  {
    "source_id": "ChIJnXNAiX11BUcRUXzbVBlsjFg",
    "name": "Aqua-Kan Instal Jacek Jakubiak",
    "category": "Aqua-Kan Instal Jacek Jakubiak",
    "formatted_address": "5,0(3)",
    "phone_number": "+48884614837",
    "source_url": "https://www.google.com/maps/place/Aqua-Kan+Instal+Jacek+Jakubiak/data=!4m7!3m6!1s0x4705757d8940739d:0x588c6c1954db7c51!8m2!3d51.78463!4d16.8546549!16s%2Fg%2F11gv00f4vf!19sChIJnXNAiX11BUcRUXzbVBlsjFg?authuser=0&hl=tr&rclk=1",
    "website_url": "",
    "rating_text": "5,0",
    "stars": null,
    "number_of_reviews": null,
    "price_level": "",
    "open_hours": "",
    "extraction_timestamp": "2025-06-07T17:13:41.940Z",
    "source_name": "google",
    "source_query": "Irrigation Equipment",
    "source_country": "PL",
    "country": "Poland",
    "state": "Greater Poland Voivodeship",
    "city": "Gostyń"
  },
  {
    "source_id": "ChIJTe_hCToMBUcRbkBi6uUpMwo",
    "name": "Drogeria Natura",
    "category": "Drogeria Natura",
    "formatted_address": "3,7(22)",
    "phone_number": "+48883378162",
    "source_url": "https://www.google.com/maps/place/Drogeria+Natura/data=!4m7!3m6!1s0x47050c3a09e1ef4d:0xa3329e5ea62406e!8m2!3d51.8783089!4d17.0146339!16s%2Fg%2F1tfyc8j6!19sChIJTe_hCToMBUcRbkBi6uUpMwo?authuser=0&hl=tr&rclk=1",
    "website_url": "",
    "rating_text": "3,7",
    "stars": null,
    "number_of_reviews": null,
    "price_level": "",
    "open_hours": "",
    "extraction_timestamp": "2025-06-07T17:13:41.940Z",
    "source_name": "google",
    "source_query": "Irrigation Equipment",
    "source_country": "PL",
    "country": "Poland",
    "state": "Greater Poland Voivodeship",
    "city": "Gostyń"
  },
  {
    "source_id": "ChIJrX1KOBUMBUcRBy9wcJq8R4Y",
    "name": "Delicja. Sklep spożywczo - przemysłowy \"u Marylki\" Jarożek M.",
    "category": "Delicja. Sklep spożywczo - przemysłowy \"u Marylki\" Jarożek M.",
    "formatted_address": "4,7(26)",
    "phone_number": "+48655724513",
    "source_url": "https://www.google.com/maps/place/Delicja.+Sklep+spo%C5%BCywczo+-+przemys%C5%82owy+%22u+Marylki%22+Jaro%C5%BCek+M./data=!4m7!3m6!1s0x47050c15384a7dad:0x8647bc9a70702f07!8m2!3d51.8747819!4d16.9938436!16s%2Fg%2F1ptybswgs!19sChIJrX1KOBUMBUcRBy9wcJq8R4Y?authuser=0&hl=tr&rclk=1",
    "website_url": "",
    "rating_text": "4,7",
    "stars": null,
    "number_of_reviews": null,
    "price_level": "",
    "open_hours": "",
    "extraction_timestamp": "2025-06-07T17:13:41.940Z",
    "source_name": "google",
    "source_query": "Irrigation Equipment",
    "source_country": "PL",
    "country": "Poland",
    "state": "Greater Poland Voivodeship",
    "city": "Gostyń"
  },
  {
    "source_id": "ChIJozP9WvQNBUcRHbW5dI6GwYo",
    "name": "PSB Mrówka",
    "category": "PSB Mrówka",
    "formatted_address": "4,2(278)",
    "phone_number": "+48655729628",
    "source_url": "https://www.google.com/maps/place/PSB+Mr%C3%B3wka/data=!4m7!3m6!1s0x47050df45afd33a3:0x8ac1868e74b9b51d!8m2!3d51.8524736!4d17.0131676!16s%2Fg%2F1hc2c3j_b!19sChIJozP9WvQNBUcRHbW5dI6GwYo?authuser=0&hl=tr&rclk=1",
    "website_url": "",
    "rating_text": "4,2",
    "stars": null,
    "number_of_reviews": null,
    "price_level": "",
    "open_hours": "",
    "extraction_timestamp": "2025-06-07T17:13:41.941Z",
    "source_name": "google",
    "source_query": "Irrigation Equipment",
    "source_country": "PL",
    "country": "Poland",
    "state": "Greater Poland Voivodeship",
    "city": "Gostyń"
  },
  {
    "source_id": "ChIJ32LZTToMBUcRZQ52UTSjPVw",
    "name": "Zieleniak Warzywa Owoce",
    "category": "Zieleniak Warzywa Owoce",
    "formatted_address": "4,3(6)",
    "phone_number": "",
    "source_url": "https://www.google.com/maps/place/Zieleniak+Warzywa+Owoce/data=!4m7!3m6!1s0x47050c3a4dd962df:0x5c3da33451760e65!8m2!3d51.8797087!4d17.0118889!16s%2Fg%2F11gnnm7043!19sChIJ32LZTToMBUcRZQ52UTSjPVw?authuser=0&hl=tr&rclk=1",
    "website_url": "",
    "rating_text": "4,3",
    "stars": null,
    "number_of_reviews": null,
    "price_level": "",
    "open_hours": "",
    "extraction_timestamp": "2025-06-07T17:13:41.941Z",
    "source_name": "google",
    "source_query": "Irrigation Equipment",
    "source_country": "PL",
    "country": "Poland",
    "state": "Greater Poland Voivodeship",
    "city": "Gostyń"
  },
  {
    "source_id": "ChIJEUdJCToMBUcRDlwtE6Bxelk",
    "name": "Drogeria Rossmann",
    "category": "Drogeria Rossmann",
    "formatted_address": "4,5(624)",
    "phone_number": "+48426139700",
    "source_url": "https://www.google.com/maps/place/Drogeria+Rossmann/data=!4m7!3m6!1s0x47050c3a09494711:0x597a71a0132d5c0e!8m2!3d51.8785876!4d17.0142093!16s%2Fg%2F12cp07wb5!19sChIJEUdJCToMBUcRDlwtE6Bxelk?authuser=0&hl=tr&rclk=1",
    "website_url": "",
    "rating_text": "4,5",
    "stars": null,
    "number_of_reviews": null,
    "price_level": "",
    "open_hours": "",
    "extraction_timestamp": "2025-06-07T17:13:41.941Z",
    "source_name": "google",
    "source_query": "Irrigation Equipment",
    "source_country": "PL",
    "country": "Poland",
    "state": "Greater Poland Voivodeship",
    "city": "Gostyń"
  },
  {
    "source_id": "ChIJvW-8e0INBUcR0xSwVBqimsg",
    "name": "Kubiktech-usługi hydrauliczne Jakub Sura Ogrzewanie Podłogowe Pogotowie Hydrauliczne Instalacje Sanitarne Hydraulik",
    "category": "Kubiktech-usługi hydrauliczne Jakub Sura Ogrzewanie Podłogowe Pogotowie Hydrauliczne Instalacje Sanitarne Hydraulik",
    "formatted_address": "5,0(4)",
    "phone_number": "+48727935375",
    "source_url": "https://www.google.com/maps/place/Kubiktech-us%C5%82ugi+hydrauliczne+Jakub+Sura+Ogrzewanie+Pod%C5%82ogowe+Pogotowie+Hydrauliczne+Instalacje+Sanitarne+Hydraulik/data=!4m7!3m6!1s0x47050d427bbc6fbd:0xc89aa21a54b014d3!8m2!3d51.8837291!4d17.0788374!16s%2Fg%2F11w7hbsq95!19sChIJvW-8e0INBUcR0xSwVBqimsg?authuser=0&hl=tr&rclk=1",
    "website_url": "",
    "rating_text": "5,0",
    "stars": null,
    "number_of_reviews": null,
    "price_level": "",
    "open_hours": "",
    "extraction_timestamp": "2025-06-07T17:13:41.941Z",
    "source_name": "google",
    "source_query": "Irrigation Equipment",
    "source_country": "PL",
    "country": "Poland",
    "state": "Greater Poland Voivodeship",
    "city": "Gostyń"
  },
  {
    "source_id": "ChIJxUyZpTwMBUcRWS_GveDCiLY",
    "name": "Martes Sport",
    "category": "Martes Sport",
    "formatted_address": "4,4(105)",
    "phone_number": "+48515857338",
    "source_url": "https://www.google.com/maps/place/Martes+Sport/data=!4m7!3m6!1s0x47050c3ca5994cc5:0xb688c2e0bdc62f59!8m2!3d51.8829373!4d17.008517!16s%2Fg%2F11f537ln_7!19sChIJxUyZpTwMBUcRWS_GveDCiLY?authuser=0&hl=tr&rclk=1",
    "website_url": "",
    "rating_text": "4,4",
    "stars": null,
    "number_of_reviews": null,
    "price_level": "",
    "open_hours": "",
    "extraction_timestamp": "2025-06-07T17:13:41.942Z",
    "source_name": "google",
    "source_query": "Irrigation Equipment",
    "source_country": "PL",
    "country": "Poland",
    "state": "Greater Poland Voivodeship",
    "city": "Gostyń"
  }
]
