[
  {
    "source_id": "ChIJQ3mAQqqFA0cRyvgul7LDhq0",
    "name": "AGAZ PRO sp. z o. o.",
    "category": "AGAZ PRO sp. z o. o.",
    "formatted_address": "4,8(45)",
    "phone_number": "+48672615211",
    "source_url": "https://www.google.com/maps/place/AGAZ+PRO+sp.+z+o.+o./data=!4m7!3m6!1s0x470385aa42807943:0xad86c3b2972ef8ca!8m2!3d52.9451255!4d17.3139134!16s%2Fg%2F1tfkjwjp!19sChIJQ3mAQqqFA0cRyvgul7LDhq0?authuser=0&hl=tr&rclk=1",
    "website_url": "",
    "rating_text": "4,8",
    "stars": null,
    "number_of_reviews": null,
    "price_level": "",
    "open_hours": "",
    "extraction_timestamp": "2025-06-07T17:15:48.677Z",
    "source_name": "google",
    "source_query": "Irrigation Equipment",
    "source_country": "PL",
    "country": "Poland",
    "state": "Greater Poland Voivodeship",
    "city": "Gołańcz"
  },
  {
    "source_id": "ChIJRebjL8SFA0cRFu4w5lIOj34",
    "name": "Nowaczewski",
    "category": "Nowaczewski",
    "formatted_address": "5,0(2)",
    "phone_number": "",
    "source_url": "https://www.google.com/maps/place/Nowaczewski/data=!4m7!3m6!1s0x470385c42fe3e645:0x7e8f0e52e630ee16!8m2!3d52.944068!4d17.2992243!16s%2Fg%2F11f77c3yk5!19sChIJRebjL8SFA0cRFu4w5lIOj34?authuser=0&hl=tr&rclk=1",
    "website_url": "",
    "rating_text": "5,0",
    "stars": null,
    "number_of_reviews": null,
    "price_level": "",
    "open_hours": "",
    "extraction_timestamp": "2025-06-07T17:15:48.678Z",
    "source_name": "google",
    "source_query": "Irrigation Equipment",
    "source_country": "PL",
    "country": "Poland",
    "state": "Greater Poland Voivodeship",
    "city": "Gołańcz"
  },
  {
    "source_id": "ChIJeVsIA6aFA0cRdpp_yy5hmRA",
    "name": "Hydraulik. Sklep z art. instalacyjnymi",
    "category": "Hydraulik. Sklep z art. instalacyjnymi",
    "formatted_address": "5,0(3)",
    "phone_number": "+48672615560",
    "source_url": "https://www.google.com/maps/place/Hydraulik.+Sklep+z+art.+instalacyjnymi/data=!4m7!3m6!1s0x470385a603085b79:0x1099612ecb7f9a76!8m2!3d52.9440169!4d17.2994168!16s%2Fg%2F1tdr1_ny!19sChIJeVsIA6aFA0cRdpp_yy5hmRA?authuser=0&hl=tr&rclk=1",
    "website_url": "",
    "rating_text": "5,0",
    "stars": null,
    "number_of_reviews": null,
    "price_level": "",
    "open_hours": "",
    "extraction_timestamp": "2025-06-07T17:15:48.678Z",
    "source_name": "google",
    "source_query": "Irrigation Equipment",
    "source_country": "PL",
    "country": "Poland",
    "state": "Greater Poland Voivodeship",
    "city": "Gołańcz"
  },
  {
    "source_id": "ChIJ85_htLyFA0cR-w-Glf_EHJY",
    "name": "Zespół Szkół Ponadgimnazjalnych im. Karola Libelta w Gołańczy",
    "category": "Zespół Szkół Ponadgimnazjalnych im. Karola Libelta w Gołańczy",
    "formatted_address": "3,0(15)",
    "phone_number": "+48672683156",
    "source_url": "https://www.google.com/maps/place/Zesp%C3%B3%C5%82+Szk%C3%B3%C5%82+Ponadgimnazjalnych+im.+Karola+Libelta+w+Go%C5%82a%C5%84czy/data=!4m7!3m6!1s0x470385bcb4e19ff3:0x961cc4ff95860ffb!8m2!3d52.9408281!4d17.2921801!16s%2Fg%2F1tfvxvpf!19sChIJ85_htLyFA0cR-w-Glf_EHJY?authuser=0&hl=tr&rclk=1",
    "website_url": "",
    "rating_text": "3,0",
    "stars": null,
    "number_of_reviews": null,
    "price_level": "",
    "open_hours": "",
    "extraction_timestamp": "2025-06-07T17:15:48.678Z",
    "source_name": "google",
    "source_query": "Irrigation Equipment",
    "source_country": "PL",
    "country": "Poland",
    "state": "Greater Poland Voivodeship",
    "city": "Gołańcz"
  },
  {
    "source_id": "ChIJeVsIA6aFA0cRGel3EowJM0s",
    "name": "U Kasi. ABC Art. Spożywcze. Olechnowicz R.",
    "category": "U Kasi. ABC Art. Spożywcze. Olechnowicz R.",
    "formatted_address": "4,8(20)",
    "phone_number": "+48672615109",
    "source_url": "https://www.google.com/maps/place/U+Kasi.+ABC+Art.+Spo%C5%BCywcze.+Olechnowicz+R./data=!4m7!3m6!1s0x470385a603085b79:0x4b33098c1277e919!8m2!3d52.9443625!4d17.30021!16s%2Fg%2F1tlzywd0!19sChIJeVsIA6aFA0cRGel3EowJM0s?authuser=0&hl=tr&rclk=1",
    "website_url": "",
    "rating_text": "4,8",
    "stars": null,
    "number_of_reviews": null,
    "price_level": "",
    "open_hours": "",
    "extraction_timestamp": "2025-06-07T17:15:48.678Z",
    "source_name": "google",
    "source_query": "Irrigation Equipment",
    "source_country": "PL",
    "country": "Poland",
    "state": "Greater Poland Voivodeship",
    "city": "Gołańcz"
  },
  {
    "source_id": "ChIJ54_fTQyFA0cRWSvRFCE4Mzs",
    "name": "Belter Stanisław. Szlifiernia, mechanika",
    "category": "Belter Stanisław. Szlifiernia, mechanika",
    "formatted_address": "Belter Stanisław. Szlifiernia, mechanika",
    "phone_number": "+48672615470",
    "source_url": "https://www.google.com/maps/place/Belter+Stanis%C5%82aw.+Szlifiernia,+mechanika/data=!4m7!3m6!1s0x4703850c4ddf8fe7:0x3b33382114d12b59!8m2!3d52.948093!4d17.3006957!16s%2Fg%2F1v3hyp9n!19sChIJ54_fTQyFA0cRWSvRFCE4Mzs?authuser=0&hl=tr&rclk=1",
    "website_url": "",
    "rating_text": "4,5",
    "stars": null,
    "number_of_reviews": null,
    "price_level": "",
    "open_hours": "",
    "extraction_timestamp": "2025-06-07T17:15:48.679Z",
    "source_name": "google",
    "source_query": "Irrigation Equipment",
    "source_country": "PL",
    "country": "Poland",
    "state": "Greater Poland Voivodeship",
    "city": "Gołańcz"
  },
  {
    "source_id": "ChIJYeWCabCFA0cRqk6AqPTRd1I",
    "name": "Mielke Łukasz. Naprawa pomp wtryskowych i wtryskiwaczy",
    "category": "Mielke Łukasz. Naprawa pomp wtryskowych i wtryskiwaczy",
    "formatted_address": "4,0(7)",
    "phone_number": "+48603531980",
    "source_url": "https://www.google.com/maps/place/Mielke+%C5%81ukasz.+Naprawa+pomp+wtryskowych+i+wtryskiwaczy/data=!4m7!3m6!1s0x470385b06982e561:0x5277d1f4a8804eaa!8m2!3d52.939465!4d17.299627!16s%2Fg%2F1v_0hggx!19sChIJYeWCabCFA0cRqk6AqPTRd1I?authuser=0&hl=tr&rclk=1",
    "website_url": "",
    "rating_text": "4,0",
    "stars": null,
    "number_of_reviews": null,
    "price_level": "",
    "open_hours": "",
    "extraction_timestamp": "2025-06-07T17:15:48.679Z",
    "source_name": "google",
    "source_query": "Irrigation Equipment",
    "source_country": "PL",
    "country": "Poland",
    "state": "Greater Poland Voivodeship",
    "city": "Gołańcz"
  },
  {
    "source_id": "ChIJUfn2Ig35A0cREW9fZ4029UM",
    "name": "IMTechnika sp. z o.o.",
    "category": "IMTechnika sp. z o.o.",
    "formatted_address": "4,4(17)",
    "phone_number": "+48883820388",
    "source_url": "https://www.google.com/maps/place/IMTechnika+sp.+z+o.o./data=!4m7!3m6!1s0x4703f90d22f6f951:0x43f5368d675f6f11!8m2!3d52.9756271!4d16.657836!16s%2Fg%2F11bw48_6mg!19sChIJUfn2Ig35A0cREW9fZ4029UM?authuser=0&hl=tr&rclk=1",
    "website_url": "",
    "rating_text": "4,4",
    "stars": null,
    "number_of_reviews": null,
    "price_level": "",
    "open_hours": "",
    "extraction_timestamp": "2025-06-07T17:15:48.679Z",
    "source_name": "google",
    "source_query": "Irrigation Equipment",
    "source_country": "PL",
    "country": "Poland",
    "state": "Greater Poland Voivodeship",
    "city": "Gołańcz"
  },
  {
    "source_id": "ChIJH38c_q6FA0cROeOVpJCBOcU",
    "name": "SKLEP a-z",
    "category": "SKLEP a-z",
    "formatted_address": "4,6(5)",
    "phone_number": "",
    "source_url": "https://www.google.com/maps/place/SKLEP+a-z/data=!4m7!3m6!1s0x470385aefe1c7f1f:0xc5398190a495e339!8m2!3d52.9404052!4d17.3025114!16s%2Fg%2F11gg63x9jx!19sChIJH38c_q6FA0cROeOVpJCBOcU?authuser=0&hl=tr&rclk=1",
    "website_url": "",
    "rating_text": "4,6",
    "stars": null,
    "number_of_reviews": null,
    "price_level": "",
    "open_hours": "",
    "extraction_timestamp": "2025-06-07T17:15:48.680Z",
    "source_name": "google",
    "source_query": "Irrigation Equipment",
    "source_country": "PL",
    "country": "Poland",
    "state": "Greater Poland Voivodeship",
    "city": "Gołańcz"
  },
  {
    "source_id": "ChIJf7Qxm6iFA0cR2eXW4RMiIEM",
    "name": "Szcześniak Paweł. Firma handlowo - usługowa",
    "category": "Szcześniak Paweł. Firma handlowo - usługowa",
    "formatted_address": "3,5(4)",
    "phone_number": "+48672611966",
    "source_url": "https://www.google.com/maps/place/Szcze%C5%9Bniak+Pawe%C5%82.+Firma+handlowo+-+us%C5%82ugowa/data=!4m7!3m6!1s0x470385a89b31b47f:0x43202213e1d6e5d9!8m2!3d52.9454505!4d17.3015118!16s%2Fg%2F1ptxfbh8g!19sChIJf7Qxm6iFA0cR2eXW4RMiIEM?authuser=0&hl=tr&rclk=1",
    "website_url": "",
    "rating_text": "3,5",
    "stars": null,
    "number_of_reviews": null,
    "price_level": "",
    "open_hours": "",
    "extraction_timestamp": "2025-06-07T17:15:48.680Z",
    "source_name": "google",
    "source_query": "Irrigation Equipment",
    "source_country": "PL",
    "country": "Poland",
    "state": "Greater Poland Voivodeship",
    "city": "Gołańcz"
  },
  {
    "source_id": "ChIJAaA1f6iFA0cRazeZx3kVbtQ",
    "name": "Biedronka",
    "category": "Biedronka",
    "formatted_address": "4,3(499)",
    "phone_number": "+48800080010",
    "source_url": "https://www.google.com/maps/place/Biedronka/data=!4m7!3m6!1s0x470385a87f35a001:0xd46e1579c799376b!8m2!3d52.9460662!4d17.3016171!16s%2Fg%2F11b5wffxbt!19sChIJAaA1f6iFA0cRazeZx3kVbtQ?authuser=0&hl=tr&rclk=1",
    "website_url": "",
    "rating_text": "4,3",
    "stars": null,
    "number_of_reviews": null,
    "price_level": "",
    "open_hours": "",
    "extraction_timestamp": "2025-06-07T17:15:48.680Z",
    "source_name": "google",
    "source_query": "Irrigation Equipment",
    "source_country": "PL",
    "country": "Poland",
    "state": "Greater Poland Voivodeship",
    "city": "Gołańcz"
  },
  {
    "source_id": "ChIJ54_fTQyFA0cROX-j8SEr_d0",
    "name": "Tomaszewski Marek. Sklep wielobranżowy",
    "category": "Tomaszewski Marek. Sklep wielobranżowy",
    "formatted_address": "4,0(2)",
    "phone_number": "+48672615212",
    "source_url": "https://www.google.com/maps/place/Tomaszewski+Marek.+Sklep+wielobran%C5%BCowy/data=!4m7!3m6!1s0x4703850c4ddf8fe7:0xddfd2b21f1a37f39!8m2!3d52.9466311!4d17.3009876!16s%2Fg%2F1tfgn2rk!19sChIJ54_fTQyFA0cROX-j8SEr_d0?authuser=0&hl=tr&rclk=1",
    "website_url": "",
    "rating_text": "4,0",
    "stars": null,
    "number_of_reviews": null,
    "price_level": "",
    "open_hours": "",
    "extraction_timestamp": "2025-06-07T17:15:48.680Z",
    "source_name": "google",
    "source_query": "Irrigation Equipment",
    "source_country": "PL",
    "country": "Poland",
    "state": "Greater Poland Voivodeship",
    "city": "Gołańcz"
  },
  {
    "source_id": "ChIJg-o7y6eFA0cR5Evr6lE-muQ",
    "name": "Auto Części Jacek Kaleta",
    "category": "Auto Części Jacek Kaleta",
    "formatted_address": "4,8(63)",
    "phone_number": "+48692520828",
    "source_url": "https://www.google.com/maps/place/Auto+Cz%C4%99%C5%9Bci+Jacek+Kaleta/data=!4m7!3m6!1s0x470385a7cb3bea83:0xe49a3e51eaeb4be4!8m2!3d52.9457943!4d17.3003026!16s%2Fg%2F11bz0rcj2x!19sChIJg-o7y6eFA0cR5Evr6lE-muQ?authuser=0&hl=tr&rclk=1",
    "website_url": "",
    "rating_text": "4,8",
    "stars": null,
    "number_of_reviews": null,
    "price_level": "",
    "open_hours": "",
    "extraction_timestamp": "2025-06-07T17:15:48.681Z",
    "source_name": "google",
    "source_query": "Irrigation Equipment",
    "source_country": "PL",
    "country": "Poland",
    "state": "Greater Poland Voivodeship",
    "city": "Gołańcz"
  },
  {
    "source_id": "ChIJYeWCabCFA0cR09c5eGxTmdY",
    "name": "Dino",
    "category": "Dino",
    "formatted_address": "4,2(256)",
    "phone_number": "",
    "source_url": "https://www.google.com/maps/place/Dino/data=!4m7!3m6!1s0x470385b06982e561:0xd699536c7839d7d3!8m2!3d52.9411538!4d17.3002273!16s%2Fg%2F1v6wm__z!19sChIJYeWCabCFA0cR09c5eGxTmdY?authuser=0&hl=tr&rclk=1",
    "website_url": "",
    "rating_text": "4,2",
    "stars": null,
    "number_of_reviews": null,
    "price_level": "",
    "open_hours": "",
    "extraction_timestamp": "2025-06-07T17:15:48.681Z",
    "source_name": "google",
    "source_query": "Irrigation Equipment",
    "source_country": "PL",
    "country": "Poland",
    "state": "Greater Poland Voivodeship",
    "city": "Gołańcz"
  },
  {
    "source_id": "ChIJ84ZDEauFA0cRlT2YjrVgQY8",
    "name": "Kozłowski Szymon. Zakład handlowo - usługowy",
    "category": "Kozłowski Szymon. Zakład handlowo - usługowy",
    "formatted_address": "",
    "phone_number": "+48672615161",
    "source_url": "https://www.google.com/maps/place/Koz%C5%82owski+Szymon.+Zak%C5%82ad+handlowo+-+us%C5%82ugowy/data=!4m7!3m6!1s0x470385ab114386f3:0x8f4160b58e983d95!8m2!3d52.9455633!4d17.3125345!16s%2Fg%2F1v1vbx3t!19sChIJ84ZDEauFA0cRlT2YjrVgQY8?authuser=0&hl=tr&rclk=1",
    "website_url": "",
    "rating_text": "",
    "stars": null,
    "number_of_reviews": null,
    "price_level": "",
    "open_hours": "",
    "extraction_timestamp": "2025-06-07T17:15:48.681Z",
    "source_name": "google",
    "source_query": "Irrigation Equipment",
    "source_country": "PL",
    "country": "Poland",
    "state": "Greater Poland Voivodeship",
    "city": "Gołańcz"
  }
]
