[
  {
    "source_id": "ChIJbQHbU3TSGkcR2E2u9MIexc4",
    "name": "Gołuchowski Ośrodek Turystyki i Sportu",
    "category": "Gołuchowski Ośrodek Turystyki i Sportu",
    "formatted_address": "4,3(773)",
    "phone_number": "+48627615063",
    "source_url": "https://www.google.com/maps/place/Go%C5%82uchowski+O%C5%9Brodek+Turystyki+i+Sportu/data=!4m7!3m6!1s0x471ad27453db016d:0xcec51ec2f4ae4dd8!8m2!3d51.8408687!4d17.9394077!16s%2Fg%2F1thx2sq4!19sChIJbQHbU3TSGkcR2E2u9MIexc4?authuser=0&hl=tr&rclk=1",
    "website_url": "",
    "rating_text": "4,3",
    "stars": null,
    "number_of_reviews": null,
    "price_level": "",
    "open_hours": "",
    "extraction_timestamp": "2025-06-07T18:00:31.597Z",
    "source_name": "google",
    "source_query": "Irrigation Equipment",
    "source_country": "PL",
    "country": "Poland",
    "state": "Greater Poland Voivodeship",
    "city": "Gołuchów"
  },
  {
    "source_id": "ChIJa70vN1TTGkcRqZ_-4PcoUBU",
    "name": "Serwis i Sklep ze Sprzętem do Ogrodu - FHU. MARIO MARIUSZ KOTARA",
    "category": "Serwis i Sklep ze Sprzętem do Ogrodu - FHU. MARIO MARIUSZ KOTARA",
    "formatted_address": "4,5(49)",
    "phone_number": "+48697305400",
    "source_url": "https://www.google.com/maps/place/Serwis+i+Sklep+ze+Sprz%C4%99tem+do+Ogrodu+-+FHU.+MARIO+MARIUSZ+KOTARA/data=!4m7!3m6!1s0x471ad354372fbd6b:0x155028f7e0fe9fa9!8m2!3d51.8456631!4d17.9243106!16s%2Fg%2F11ffmnhkf7!19sChIJa70vN1TTGkcRqZ_-4PcoUBU?authuser=0&hl=tr&rclk=1",
    "website_url": "",
    "rating_text": "4,5",
    "stars": null,
    "number_of_reviews": null,
    "price_level": "",
    "open_hours": "",
    "extraction_timestamp": "2025-06-07T18:00:31.598Z",
    "source_name": "google",
    "source_query": "Irrigation Equipment",
    "source_country": "PL",
    "country": "Poland",
    "state": "Greater Poland Voivodeship",
    "city": "Gołuchów"
  },
  {
    "source_id": "ChIJK2GjZAe3GkcRtYCUwk9ASmE",
    "name": "Grofi - Systemy nawadniania do domu i ogrodu",
    "category": "Grofi - Systemy nawadniania do domu i ogrodu",
    "formatted_address": "4,8(16)",
    "phone_number": "+48575716244",
    "source_url": "https://www.google.com/maps/place/Grofi+-+Systemy+nawadniania+do+domu+i+ogrodu/data=!4m7!3m6!1s0x471ab70764a3612b:0x614a404fc29480b5!8m2!3d51.612066!4d17.8638006!16s%2Fg%2F11y5_4bbdm!19sChIJK2GjZAe3GkcRtYCUwk9ASmE?authuser=0&hl=tr&rclk=1",
    "website_url": "",
    "rating_text": "4,8",
    "stars": null,
    "number_of_reviews": null,
    "price_level": "",
    "open_hours": "",
    "extraction_timestamp": "2025-06-07T18:00:31.599Z",
    "source_name": "google",
    "source_query": "Irrigation Equipment",
    "source_country": "PL",
    "country": "Poland",
    "state": "Greater Poland Voivodeship",
    "city": "Gołuchów"
  },
  {
    "source_id": "ChIJzdTYnnrSGkcRtFy_bnnmSqk",
    "name": "Instal Group S.C.",
    "category": "Instal Group S.C.",
    "formatted_address": "Üretici · ul. Stefana, Jarmickiego 2+48 503 496 543",
    "phone_number": "+48503496543",
    "source_url": "https://www.google.com/maps/place/Instal+Group+S.C./data=!4m7!3m6!1s0x471ad27a9ed8d4cd:0xa94ae6796ebf5cb4!8m2!3d51.8488693!4d17.9388863!16s%2Fg%2F11gv13gtp1!19sChIJzdTYnnrSGkcRtFy_bnnmSqk?authuser=0&hl=tr&rclk=1",
    "website_url": "",
    "rating_text": "",
    "stars": null,
    "number_of_reviews": null,
    "price_level": "",
    "open_hours": "",
    "extraction_timestamp": "2025-06-07T18:00:31.600Z",
    "source_name": "google",
    "source_query": "Irrigation Equipment",
    "source_country": "PL",
    "country": "Poland",
    "state": "Greater Poland Voivodeship",
    "city": "Gołuchów"
  },
  {
    "source_id": "ChIJB6y_v5J2HEcRlDfYx3xmc9M",
    "name": "Milex irrigation systems",
    "category": "Milex irrigation systems",
    "formatted_address": "4,6(37)",
    "phone_number": "+48242775222",
    "source_url": "https://www.google.com/maps/place/Milex+irrigation+systems/data=!4m7!3m6!1s0x471c7692bfbfac07:0xd373667cc7d83794!8m2!3d52.4690634!4d19.7520904!16s%2Fg%2F1w2yy67r!19sChIJB6y_v5J2HEcRlDfYx3xmc9M?authuser=0&hl=tr&rclk=1",
    "website_url": "",
    "rating_text": "4,6",
    "stars": null,
    "number_of_reviews": null,
    "price_level": "",
    "open_hours": "",
    "extraction_timestamp": "2025-06-07T18:00:31.601Z",
    "source_name": "google",
    "source_query": "Irrigation Equipment",
    "source_country": "PL",
    "country": "Poland",
    "state": "Greater Poland Voivodeship",
    "city": "Gołuchów"
  },
  {
    "source_id": "ChIJVdb3Vu3NGkcRnHNxbiJ5rRo",
    "name": "Hydromal Instalacje Sanitarne Michał Małecki Pogotowie hydrauliczne kalisz 24/7",
    "category": "Hydromal Instalacje Sanitarne Michał Małecki Pogotowie hydrauliczne kalisz 24/7",
    "formatted_address": "5,0(6)",
    "phone_number": "+48666847911",
    "source_url": "https://www.google.com/maps/place/Hydromal+Instalacje+Sanitarne+Micha%C5%82+Ma%C5%82ecki+Pogotowie+hydrauliczne+kalisz+24%2F7/data=!4m7!3m6!1s0x471acded56f7d655:0x1aad79226e71739c!8m2!3d51.8329633!4d17.9227654!16s%2Fg%2F11vm87mh7r!19sChIJVdb3Vu3NGkcRnHNxbiJ5rRo?authuser=0&hl=tr&rclk=1",
    "website_url": "",
    "rating_text": "5,0",
    "stars": null,
    "number_of_reviews": null,
    "price_level": "",
    "open_hours": "",
    "extraction_timestamp": "2025-06-07T18:00:31.602Z",
    "source_name": "google",
    "source_query": "Irrigation Equipment",
    "source_country": "PL",
    "country": "Poland",
    "state": "Greater Poland Voivodeship",
    "city": "Gołuchów"
  },
  {
    "source_id": "ChIJQYZYU_daBEcRrc4mt6dBBko",
    "name": "HYDROGLOBAL - Przemyślane rozwiązania dla ujęć wody",
    "category": "HYDROGLOBAL - Przemyślane rozwiązania dla ujęć wody",
    "formatted_address": "4,5(8)",
    "phone_number": "+48612785475",
    "source_url": "https://www.google.com/maps/place/HYDROGLOBAL+-+Przemy%C5%9Blane+rozwi%C4%85zania+dla+uj%C4%99%C4%87+wody/data=!4m7!3m6!1s0x47045af753588641:0x4a0641a7b726cead!8m2!3d52.4872791!4d16.8563292!16s%2Fg%2F1wzt11_h!19sChIJQYZYU_daBEcRrc4mt6dBBko?authuser=0&hl=tr&rclk=1",
    "website_url": "",
    "rating_text": "4,5",
    "stars": null,
    "number_of_reviews": null,
    "price_level": "",
    "open_hours": "",
    "extraction_timestamp": "2025-06-07T18:00:31.602Z",
    "source_name": "google",
    "source_query": "Irrigation Equipment",
    "source_country": "PL",
    "country": "Poland",
    "state": "Greater Poland Voivodeship",
    "city": "Gołuchów"
  },
  {
    "source_id": "ChIJe8teKXnSGkcRv1YbAh-JeYo",
    "name": "Sklep Spożywczo-Wędliniarski Maria Dwojak",
    "category": "Sklep Spożywczo-Wędliniarski Maria Dwojak",
    "formatted_address": "4,7(61)",
    "phone_number": "",
    "source_url": "https://www.google.com/maps/place/Sklep+Spo%C5%BCywczo-W%C4%99dliniarski+Maria+Dwojak/data=!4m7!3m6!1s0x471ad279295ecb7b:0x8a79891f021b56bf!8m2!3d51.844318!4d17.92847!16s%2Fg%2F1thq40xl!19sChIJe8teKXnSGkcRv1YbAh-JeYo?authuser=0&hl=tr&rclk=1",
    "website_url": "",
    "rating_text": "4,7",
    "stars": null,
    "number_of_reviews": null,
    "price_level": "",
    "open_hours": "",
    "extraction_timestamp": "2025-06-07T18:00:31.603Z",
    "source_name": "google",
    "source_query": "Irrigation Equipment",
    "source_country": "PL",
    "country": "Poland",
    "state": "Greater Poland Voivodeship",
    "city": "Gołuchów"
  },
  {
    "source_id": "ChIJeceBTgDTGkcR1pqDczGh1YA",
    "name": "Kawiarnia Letnia Księżnej Pani",
    "category": "Kawiarnia Letnia Księżnej Pani",
    "formatted_address": "4,4(30) · zł 20–40",
    "phone_number": "",
    "source_url": "https://www.google.com/maps/place/Kawiarnia+Letnia+Ksi%C4%99%C5%BCnej+Pani/data=!4m7!3m6!1s0x471ad3004e81c779:0x80d5a13173839ad6!8m2!3d51.8524353!4d17.9363889!16s%2Fg%2F11y5grb3p7!19sChIJeceBTgDTGkcR1pqDczGh1YA?authuser=0&hl=tr&rclk=1",
    "website_url": "",
    "rating_text": "4,4",
    "stars": null,
    "number_of_reviews": null,
    "price_level": "",
    "open_hours": "",
    "extraction_timestamp": "2025-06-07T18:00:31.604Z",
    "source_name": "google",
    "source_query": "Irrigation Equipment",
    "source_country": "PL",
    "country": "Poland",
    "state": "Greater Poland Voivodeship",
    "city": "Gołuchów"
  },
  {
    "source_id": "ChIJse2itIfSGkcRSk1nzhArXq4",
    "name": "Sklep Polski",
    "category": "Sklep Polski",
    "formatted_address": "4,5(21)",
    "phone_number": "",
    "source_url": "https://www.google.com/maps/place/Sklep+Polski/data=!4m7!3m6!1s0x471ad287b4a2edb1:0xae5e2b10ce674d4a!8m2!3d51.8516241!4d17.920746!16s%2Fg%2F11j4t6gxv6!19sChIJse2itIfSGkcRSk1nzhArXq4?authuser=0&hl=tr&rclk=1",
    "website_url": "",
    "rating_text": "4,5",
    "stars": null,
    "number_of_reviews": null,
    "price_level": "",
    "open_hours": "",
    "extraction_timestamp": "2025-06-07T18:00:31.604Z",
    "source_name": "google",
    "source_query": "Irrigation Equipment",
    "source_country": "PL",
    "country": "Poland",
    "state": "Greater Poland Voivodeship",
    "city": "Gołuchów"
  },
  {
    "source_id": "ChIJWfE875jFGkcRBk1gviUkaS8",
    "name": "Dino",
    "category": "Dino",
    "formatted_address": "4,2(475)",
    "phone_number": "",
    "source_url": "https://www.google.com/maps/place/Dino/data=!4m7!3m6!1s0x471ac598ef3cf159:0x2f692425be604d06!8m2!3d51.8473496!4d17.9376661!16s%2Fg%2F1tmbtw8d!19sChIJWfE875jFGkcRBk1gviUkaS8?authuser=0&hl=tr&rclk=1",
    "website_url": "",
    "rating_text": "4,2",
    "stars": null,
    "number_of_reviews": null,
    "price_level": "",
    "open_hours": "",
    "extraction_timestamp": "2025-06-07T18:00:31.605Z",
    "source_name": "google",
    "source_query": "Irrigation Equipment",
    "source_country": "PL",
    "country": "Poland",
    "state": "Greater Poland Voivodeship",
    "city": "Gołuchów"
  },
  {
    "source_id": "ChIJf66LTnnSGkcRHpqPTUBhZWw",
    "name": "Lewiatan",
    "category": "Lewiatan",
    "formatted_address": "4,0(122)",
    "phone_number": "+48618460890",
    "source_url": "https://www.google.com/maps/place/Lewiatan/data=!4m7!3m6!1s0x471ad2794e8bae7f:0x6c6561404d8f9a1e!8m2!3d51.845784!4d17.931595!16s%2Fg%2F1ptydwqfw!19sChIJf66LTnnSGkcRHpqPTUBhZWw?authuser=0&hl=tr&rclk=1",
    "website_url": "",
    "rating_text": "4,0",
    "stars": null,
    "number_of_reviews": null,
    "price_level": "",
    "open_hours": "",
    "extraction_timestamp": "2025-06-07T18:00:31.606Z",
    "source_name": "google",
    "source_query": "Irrigation Equipment",
    "source_country": "PL",
    "country": "Poland",
    "state": "Greater Poland Voivodeship",
    "city": "Gołuchów"
  },
  {
    "source_id": "ChIJ6ZiqGEvTGkcR_n8W3I8xTPY",
    "name": "Cafe Park",
    "category": "Cafe Park",
    "formatted_address": "4,8(98)",
    "phone_number": "+48602802580",
    "source_url": "https://www.google.com/maps/place/Cafe+Park/data=!4m7!3m6!1s0x471ad34b18aa98e9:0xf64c318fdc167ffe!8m2!3d51.849667!4d17.9335854!16s%2Fg%2F11kq7wm0l2!19sChIJ6ZiqGEvTGkcR_n8W3I8xTPY?authuser=0&hl=tr&rclk=1",
    "website_url": "",
    "rating_text": "4,8",
    "stars": null,
    "number_of_reviews": null,
    "price_level": "",
    "open_hours": "",
    "extraction_timestamp": "2025-06-07T18:00:31.607Z",
    "source_name": "google",
    "source_query": "Irrigation Equipment",
    "source_country": "PL",
    "country": "Poland",
    "state": "Greater Poland Voivodeship",
    "city": "Gołuchów"
  },
  {
    "source_id": "ChIJG_kQaHvSGkcRV70Lql5iUGM",
    "name": "Sklep Polski",
    "category": "Sklep Polski",
    "formatted_address": "4,2(13)",
    "phone_number": "",
    "source_url": "https://www.google.com/maps/place/Sklep+Polski/data=!4m7!3m6!1s0x471ad27b6810f91b:0x6350625eaa0bbd57!8m2!3d51.8497069!4d17.9330111!16s%2Fg%2F11fct6g5ct!19sChIJG_kQaHvSGkcRV70Lql5iUGM?authuser=0&hl=tr&rclk=1",
    "website_url": "",
    "rating_text": "4,2",
    "stars": null,
    "number_of_reviews": null,
    "price_level": "",
    "open_hours": "",
    "extraction_timestamp": "2025-06-07T18:00:31.607Z",
    "source_name": "google",
    "source_query": "Irrigation Equipment",
    "source_country": "PL",
    "country": "Poland",
    "state": "Greater Poland Voivodeship",
    "city": "Gołuchów"
  },
  {
    "source_id": "ChIJi-qCknvSGkcRcfX18voUBM0",
    "name": "PHUP Skorpion",
    "category": "PHUP Skorpion",
    "formatted_address": "2,4(5)",
    "phone_number": "+48606654577",
    "source_url": "https://www.google.com/maps/place/PHUP+Skorpion/data=!4m7!3m6!1s0x471ad27b9282ea8b:0xcd0414faf2f5f571!8m2!3d51.8496913!4d17.9330564!16s%2Fg%2F1t_tj0zk!19sChIJi-qCknvSGkcRcfX18voUBM0?authuser=0&hl=tr&rclk=1",
    "website_url": "",
    "rating_text": "2,4",
    "stars": null,
    "number_of_reviews": null,
    "price_level": "",
    "open_hours": "",
    "extraction_timestamp": "2025-06-07T18:00:31.609Z",
    "source_name": "google",
    "source_query": "Irrigation Equipment",
    "source_country": "PL",
    "country": "Poland",
    "state": "Greater Poland Voivodeship",
    "city": "Gołuchów"
  },
  {
    "source_id": "ChIJEXzmfRTSGkcRqk7FAkLp0Bo",
    "name": "Sklep spożywczo - przemysłowy GS Samopomoc Chłopska",
    "category": "Sklep spożywczo - przemysłowy GS Samopomoc Chłopska",
    "formatted_address": "3,5(10)",
    "phone_number": "+48627615773",
    "source_url": "https://www.google.com/maps/place/Sklep+spo%C5%BCywczo+-+przemys%C5%82owy+GS+Samopomoc+Ch%C5%82opska/data=!4m7!3m6!1s0x471ad2147de67c11:0x1ad0e94202c54eaa!8m2!3d51.8496556!4d17.9626071!16s%2Fg%2F1w0h67x9!19sChIJEXzmfRTSGkcRqk7FAkLp0Bo?authuser=0&hl=tr&rclk=1",
    "website_url": "",
    "rating_text": "3,5",
    "stars": null,
    "number_of_reviews": null,
    "price_level": "",
    "open_hours": "",
    "extraction_timestamp": "2025-06-07T18:00:31.610Z",
    "source_name": "google",
    "source_query": "Irrigation Equipment",
    "source_country": "PL",
    "country": "Poland",
    "state": "Greater Poland Voivodeship",
    "city": "Gołuchów"
  },
  {
    "source_id": "ChIJHT_EgnvSGkcRAX4G5q7jim8",
    "name": "Sklep spożywczo - przemysłowy",
    "category": "Sklep spożywczo - przemysłowy",
    "formatted_address": "4,5(2)",
    "phone_number": "+48627616871",
    "source_url": "https://www.google.com/maps/place/Sklep+spo%C5%BCywczo+-+przemys%C5%82owy/data=!4m7!3m6!1s0x471ad27b82c43f1d:0x6f8ae3aee6067e01!8m2!3d51.8504273!4d17.9305759!16s%2Fg%2F1ptxkkpn5!19sChIJHT_EgnvSGkcRAX4G5q7jim8?authuser=0&hl=tr&rclk=1",
    "website_url": "",
    "rating_text": "4,5",
    "stars": null,
    "number_of_reviews": null,
    "price_level": "",
    "open_hours": "",
    "extraction_timestamp": "2025-06-07T18:00:31.611Z",
    "source_name": "google",
    "source_query": "Irrigation Equipment",
    "source_country": "PL",
    "country": "Poland",
    "state": "Greater Poland Voivodeship",
    "city": "Gołuchów"
  },
  {
    "source_id": "ChIJhxTQgnvSGkcRhnNA1_oNNAE",
    "name": "Szczepański Waldemar. Sklep spożywczy",
    "category": "Szczepański Waldemar. Sklep spożywczy",
    "formatted_address": "3,9(22)",
    "phone_number": "+48502781245",
    "source_url": "https://www.google.com/maps/place/Szczepa%C5%84ski+Waldemar.+Sklep+spo%C5%BCywczy/data=!4m7!3m6!1s0x471ad27b82d01487:0x1340dfad7407386!8m2!3d51.8485913!4d17.9297963!16s%2Fg%2F1tj_3_b_!19sChIJhxTQgnvSGkcRhnNA1_oNNAE?authuser=0&hl=tr&rclk=1",
    "website_url": "",
    "rating_text": "3,9",
    "stars": null,
    "number_of_reviews": null,
    "price_level": "",
    "open_hours": "",
    "extraction_timestamp": "2025-06-07T18:00:31.611Z",
    "source_name": "google",
    "source_query": "Irrigation Equipment",
    "source_country": "PL",
    "country": "Poland",
    "state": "Greater Poland Voivodeship",
    "city": "Gołuchów"
  }
]
