[
  {
    "source_id": "ChIJla6vWgu9GkcRHKz79fqoHyc",
    "name": "Agro-Hydro-Land. Sklep. Młynek H.",
    "category": "Agro-Hydro-Land. Sklep. Młynek H.",
    "formatted_address": "4,0(2)",
    "phone_number": "+48627305612",
    "source_url": "https://www.google.com/maps/place/Agro-Hydro-Land.+Sklep.+M%C5%82ynek+H./data=!4m7!3m6!1s0x471abd0b5aafae95:0x271fa8faf5fbac1c!8m2!3d51.5020403!4d18.1144835!16s%2Fg%2F1tdj2z8d!19sChIJla6vWgu9GkcRHKz79fqoHyc?authuser=0&hl=tr&rclk=1",
    "website_url": "",
    "rating_text": "4,0",
    "stars": null,
    "number_of_reviews": null,
    "price_level": "",
    "open_hours": "",
    "extraction_timestamp": "2025-06-07T17:15:56.953Z",
    "source_name": "google",
    "source_query": "Irrigation Equipment",
    "source_country": "PL",
    "country": "Poland",
    "state": "Greater Poland Voivodeship",
    "city": "Grabów nad Prosną"
  },
  {
    "source_id": "ChIJISYz_gi9GkcRbKq44_UDl3E",
    "name": "EHB s.c. FH. Błaszczyk E.H.",
    "category": "EHB s.c. FH. Błaszczyk E.H.",
    "formatted_address": "4,4(9)",
    "phone_number": "+48627305336",
    "source_url": "https://www.google.com/maps/place/EHB+s.c.+FH.+B%C5%82aszczyk+E.H./data=!4m7!3m6!1s0x471abd08fe332621:0x719703f5e3b8aa6c!8m2!3d51.5044684!4d18.1043319!16s%2Fg%2F1tfvxxb1!19sChIJISYz_gi9GkcRbKq44_UDl3E?authuser=0&hl=tr&rclk=1",
    "website_url": "",
    "rating_text": "4,4",
    "stars": null,
    "number_of_reviews": null,
    "price_level": "",
    "open_hours": "",
    "extraction_timestamp": "2025-06-07T17:15:56.955Z",
    "source_name": "google",
    "source_query": "Irrigation Equipment",
    "source_country": "PL",
    "country": "Poland",
    "state": "Greater Poland Voivodeship",
    "city": "Grabów nad Prosną"
  },
  {
    "source_id": "ChIJxUxrGAO9GkcRPtuW4OCLreI",
    "name": "SKŁAD BUDOWLANY ANDRZEJ CEGIEŁKA",
    "category": "SKŁAD BUDOWLANY ANDRZEJ CEGIEŁKA",
    "formatted_address": "5,0(7)",
    "phone_number": "+48693119771",
    "source_url": "https://www.google.com/maps/place/SK%C5%81AD+BUDOWLANY+ANDRZEJ+CEGIE%C5%81KA/data=!4m7!3m6!1s0x471abd03186b4cc5:0xe2ad8be0e096db3e!8m2!3d51.5064808!4d18.1071494!16s%2Fg%2F11q96jpr63!19sChIJxUxrGAO9GkcRPtuW4OCLreI?authuser=0&hl=tr&rclk=1",
    "website_url": "",
    "rating_text": "5,0",
    "stars": null,
    "number_of_reviews": null,
    "price_level": "",
    "open_hours": "",
    "extraction_timestamp": "2025-06-07T17:15:56.956Z",
    "source_name": "google",
    "source_query": "Irrigation Equipment",
    "source_country": "PL",
    "country": "Poland",
    "state": "Greater Poland Voivodeship",
    "city": "Grabów nad Prosną"
  },
  {
    "source_id": "ChIJCwjieUu9GkcRPs5_B8rVSx4",
    "name": "AUTOMATYKA GARNCAREK",
    "category": "AUTOMATYKA GARNCAREK",
    "formatted_address": "",
    "phone_number": "+48507586089",
    "source_url": "https://www.google.com/maps/place/AUTOMATYKA+GARNCAREK/data=!4m7!3m6!1s0x471abd4b79e2080b:0x1e4bd5ca077fce3e!8m2!3d51.5064224!4d18.1208467!16s%2Fg%2F11gym39dmc!19sChIJCwjieUu9GkcRPs5_B8rVSx4?authuser=0&hl=tr&rclk=1",
    "website_url": "",
    "rating_text": "",
    "stars": null,
    "number_of_reviews": null,
    "price_level": "",
    "open_hours": "",
    "extraction_timestamp": "2025-06-07T17:15:56.956Z",
    "source_name": "google",
    "source_query": "Irrigation Equipment",
    "source_country": "PL",
    "country": "Poland",
    "state": "Greater Poland Voivodeship",
    "city": "Grabów nad Prosną"
  },
  {
    "source_id": "ChIJzxa02wi9GkcRiDQsCZUsA1w",
    "name": "Biedronka",
    "category": "Biedronka",
    "formatted_address": "4,1(648)",
    "phone_number": "+48800080010",
    "source_url": "https://www.google.com/maps/place/Biedronka/data=!4m7!3m6!1s0x471abd08dbb416cf:0x5c032c95092c3488!8m2!3d51.5039158!4d18.1021312!16s%2Fg%2F11j1f91192!19sChIJzxa02wi9GkcRiDQsCZUsA1w?authuser=0&hl=tr&rclk=1",
    "website_url": "",
    "rating_text": "4,1",
    "stars": null,
    "number_of_reviews": null,
    "price_level": "",
    "open_hours": "",
    "extraction_timestamp": "2025-06-07T17:15:56.957Z",
    "source_name": "google",
    "source_query": "Irrigation Equipment",
    "source_country": "PL",
    "country": "Poland",
    "state": "Greater Poland Voivodeship",
    "city": "Grabów nad Prosną"
  },
  {
    "source_id": "ChIJOXI6nqu9GkcRgRKev35Sux4",
    "name": "PP-INSTAL Piotr Puchała",
    "category": "PP-INSTAL Piotr Puchała",
    "formatted_address": "",
    "phone_number": "+48667470627",
    "source_url": "https://www.google.com/maps/place/PP-INSTAL+Piotr+Pucha%C5%82a/data=!4m7!3m6!1s0x471abdab9e3a7239:0x1ebb527ebf9e1281!8m2!3d51.515601!4d18.1151511!16s%2Fg%2F11hhf_5vs2!19sChIJOXI6nqu9GkcRgRKev35Sux4?authuser=0&hl=tr&rclk=1",
    "website_url": "",
    "rating_text": "",
    "stars": null,
    "number_of_reviews": null,
    "price_level": "",
    "open_hours": "",
    "extraction_timestamp": "2025-06-07T17:15:56.959Z",
    "source_name": "google",
    "source_query": "Irrigation Equipment",
    "source_country": "PL",
    "country": "Poland",
    "state": "Greater Poland Voivodeship",
    "city": "Grabów nad Prosną"
  },
  {
    "source_id": "ChIJB6y_v5J2HEcRlDfYx3xmc9M",
    "name": "Milex irrigation systems",
    "category": "Milex irrigation systems",
    "formatted_address": "4,6(37)",
    "phone_number": "+48242775222",
    "source_url": "https://www.google.com/maps/place/Milex+irrigation+systems/data=!4m7!3m6!1s0x471c7692bfbfac07:0xd373667cc7d83794!8m2!3d52.4690634!4d19.7520904!16s%2Fg%2F1w2yy67r!19sChIJB6y_v5J2HEcRlDfYx3xmc9M?authuser=0&hl=tr&rclk=1",
    "website_url": "",
    "rating_text": "4,6",
    "stars": null,
    "number_of_reviews": null,
    "price_level": "",
    "open_hours": "",
    "extraction_timestamp": "2025-06-07T17:15:56.960Z",
    "source_name": "google",
    "source_query": "Irrigation Equipment",
    "source_country": "PL",
    "country": "Poland",
    "state": "Greater Poland Voivodeship",
    "city": "Grabów nad Prosną"
  },
  {
    "source_id": "ChIJEeUStoO9GkcR3eh9-wOKC2o",
    "name": "Handel artykułami spożywczymi Izabela Jędroszka",
    "category": "Handel artykułami spożywczymi Izabela Jędroszka",
    "formatted_address": "5,0(9)",
    "phone_number": "+48694419754",
    "source_url": "https://www.google.com/maps/place/Handel+artyku%C5%82ami+spo%C5%BCywczymi+Izabela+J%C4%99droszka/data=!4m7!3m6!1s0x471abd83b612e511:0x6a0b8a03fb7de8dd!8m2!3d51.5063689!4d18.119604!16s%2Fg%2F11gy27b1yr!19sChIJEeUStoO9GkcR3eh9-wOKC2o?authuser=0&hl=tr&rclk=1",
    "website_url": "",
    "rating_text": "5,0",
    "stars": null,
    "number_of_reviews": null,
    "price_level": "",
    "open_hours": "",
    "extraction_timestamp": "2025-06-07T17:15:56.961Z",
    "source_name": "google",
    "source_query": "Irrigation Equipment",
    "source_country": "PL",
    "country": "Poland",
    "state": "Greater Poland Voivodeship",
    "city": "Grabów nad Prosną"
  },
  {
    "source_id": "ChIJAy1vK7K9GkcRrhR2OHPppKU",
    "name": "Rynek",
    "category": "Rynek",
    "formatted_address": "4,6(118)",
    "phone_number": "",
    "source_url": "https://www.google.com/maps/place/Rynek/data=!4m7!3m6!1s0x471abdb22b6f2d03:0xa5a4e973387614ae!8m2!3d51.5060414!4d18.1189034!16s%2Fg%2F11h718j1pj!19sChIJAy1vK7K9GkcRrhR2OHPppKU?authuser=0&hl=tr&rclk=1",
    "website_url": "",
    "rating_text": "4,6",
    "stars": null,
    "number_of_reviews": null,
    "price_level": "",
    "open_hours": "",
    "extraction_timestamp": "2025-06-07T17:15:56.961Z",
    "source_name": "google",
    "source_query": "Irrigation Equipment",
    "source_country": "PL",
    "country": "Poland",
    "state": "Greater Poland Voivodeship",
    "city": "Grabów nad Prosną"
  },
  {
    "source_id": "ChIJeTxwx6e9GkcRUbPgPIJX80M",
    "name": "Dino",
    "category": "Dino",
    "formatted_address": "4,2(321)",
    "phone_number": "",
    "source_url": "https://www.google.com/maps/place/Dino/data=!4m7!3m6!1s0x471abda7c7703c79:0x43f357823ce0b351!8m2!3d51.5069363!4d18.1076519!16s%2Fg%2F1tpn19d1!19sChIJeTxwx6e9GkcRUbPgPIJX80M?authuser=0&hl=tr&rclk=1",
    "website_url": "",
    "rating_text": "4,2",
    "stars": null,
    "number_of_reviews": null,
    "price_level": "",
    "open_hours": "",
    "extraction_timestamp": "2025-06-07T17:15:56.962Z",
    "source_name": "google",
    "source_query": "Irrigation Equipment",
    "source_country": "PL",
    "country": "Poland",
    "state": "Greater Poland Voivodeship",
    "city": "Grabów nad Prosną"
  },
  {
    "source_id": "ChIJQfN7AKC9GkcRUbKELP1trsk",
    "name": "Sklep Koniczynka",
    "category": "Sklep Koniczynka",
    "formatted_address": "4,2(12)",
    "phone_number": "",
    "source_url": "https://www.google.com/maps/place/Sklep+Koniczynka/data=!4m7!3m6!1s0x471abda0007bf341:0xc9ae6dfd2c84b251!8m2!3d51.506259!4d18.118291!16s%2Fg%2F11hzwc25gt!19sChIJQfN7AKC9GkcRUbKELP1trsk?authuser=0&hl=tr&rclk=1",
    "website_url": "",
    "rating_text": "4,2",
    "stars": null,
    "number_of_reviews": null,
    "price_level": "",
    "open_hours": "",
    "extraction_timestamp": "2025-06-07T17:15:56.962Z",
    "source_name": "google",
    "source_query": "Irrigation Equipment",
    "source_country": "PL",
    "country": "Poland",
    "state": "Greater Poland Voivodeship",
    "city": "Grabów nad Prosną"
  },
  {
    "source_id": "ChIJf0rC_J-9GkcRW3bybSidGek",
    "name": "ATM. Sklep spożywczy. Mądry T.",
    "category": "ATM. Sklep spożywczy. Mądry T.",
    "formatted_address": "4,1(14)",
    "phone_number": "+48627305207",
    "source_url": "https://www.google.com/maps/place/ATM.+Sklep+spo%C5%BCywczy.+M%C4%85dry+T./data=!4m7!3m6!1s0x471abd9ffcc24a7f:0xe9199d286df2765b!8m2!3d51.506436!4d18.118669!16s%2Fg%2F1wc46qw8!19sChIJf0rC_J-9GkcRW3bybSidGek?authuser=0&hl=tr&rclk=1",
    "website_url": "",
    "rating_text": "4,1",
    "stars": null,
    "number_of_reviews": null,
    "price_level": "",
    "open_hours": "",
    "extraction_timestamp": "2025-06-07T17:15:56.963Z",
    "source_name": "google",
    "source_query": "Irrigation Equipment",
    "source_country": "PL",
    "country": "Poland",
    "state": "Greater Poland Voivodeship",
    "city": "Grabów nad Prosną"
  },
  {
    "source_id": "ChIJvXBYlIS9GkcR_pIZMprsiXs",
    "name": "Dino",
    "category": "Dino",
    "formatted_address": "4,5(30)",
    "phone_number": "",
    "source_url": "https://www.google.com/maps/place/Dino/data=!4m7!3m6!1s0x471abd84945870bd:0x7b89ec9a321992fe!8m2!3d51.5104394!4d18.119078!16s%2Fg%2F11rwphbdr8!19sChIJvXBYlIS9GkcR_pIZMprsiXs?authuser=0&hl=tr&rclk=1",
    "website_url": "",
    "rating_text": "4,5",
    "stars": null,
    "number_of_reviews": null,
    "price_level": "",
    "open_hours": "",
    "extraction_timestamp": "2025-06-07T17:15:56.964Z",
    "source_name": "google",
    "source_query": "Irrigation Equipment",
    "source_country": "PL",
    "country": "Poland",
    "state": "Greater Poland Voivodeship",
    "city": "Grabów nad Prosną"
  },
  {
    "source_id": "ChIJISYz_gi9GkcR7NymhVRyXpo",
    "name": "Ratajski Stanisław. Zakład usług elektrycznych",
    "category": "Ratajski Stanisław. Zakład usług elektrycznych",
    "formatted_address": "",
    "phone_number": "+48627305812",
    "source_url": "https://www.google.com/maps/place/Ratajski+Stanis%C5%82aw.+Zak%C5%82ad+us%C5%82ug+elektrycznych/data=!4m7!3m6!1s0x471abd08fe332621:0x9a5e725485a6dcec!8m2!3d51.5054069!4d18.1056838!16s%2Fg%2F11xvx0hm2!19sChIJISYz_gi9GkcR7NymhVRyXpo?authuser=0&hl=tr&rclk=1",
    "website_url": "",
    "rating_text": "",
    "stars": null,
    "number_of_reviews": null,
    "price_level": "",
    "open_hours": "",
    "extraction_timestamp": "2025-06-07T17:15:56.964Z",
    "source_name": "google",
    "source_query": "Irrigation Equipment",
    "source_country": "PL",
    "country": "Poland",
    "state": "Greater Poland Voivodeship",
    "city": "Grabów nad Prosną"
  },
  {
    "source_id": "ChIJH80ztTa9GkcR2vuxH9GpJXA",
    "name": "Powidło",
    "category": "Powidło",
    "formatted_address": "4,7(24) · zł 1–20",
    "phone_number": "",
    "source_url": "https://www.google.com/maps/place/Powid%C5%82o/data=!4m7!3m6!1s0x471abd36b533cd1f:0x7025a9d11fb1fbda!8m2!3d51.5058023!4d18.1186513!16s%2Fg%2F11v6039y9f!19sChIJH80ztTa9GkcR2vuxH9GpJXA?authuser=0&hl=tr&rclk=1",
    "website_url": "",
    "rating_text": "4,7",
    "stars": null,
    "number_of_reviews": null,
    "price_level": "",
    "open_hours": "",
    "extraction_timestamp": "2025-06-07T17:15:56.965Z",
    "source_name": "google",
    "source_query": "Irrigation Equipment",
    "source_country": "PL",
    "country": "Poland",
    "state": "Greater Poland Voivodeship",
    "city": "Grabów nad Prosną"
  },
  {
    "source_id": "ChIJWyWeImq9GkcRQ4v8HGHCcEk",
    "name": "Bombonierka. Kawiarnia.",
    "category": "Bombonierka. Kawiarnia.",
    "formatted_address": "5,0(68) · zł 1–20",
    "phone_number": "+48603076999",
    "source_url": "https://www.google.com/maps/place/Bombonierka.+Kawiarnia./data=!4m7!3m6!1s0x471abd6a229e255b:0x4970c2611cfc8b43!8m2!3d51.5062039!4d18.11956!16s%2Fg%2F11t7bc26jy!19sChIJWyWeImq9GkcRQ4v8HGHCcEk?authuser=0&hl=tr&rclk=1",
    "website_url": "",
    "rating_text": "5,0",
    "stars": null,
    "number_of_reviews": null,
    "price_level": "",
    "open_hours": "",
    "extraction_timestamp": "2025-06-07T17:15:56.965Z",
    "source_name": "google",
    "source_query": "Irrigation Equipment",
    "source_country": "PL",
    "country": "Poland",
    "state": "Greater Poland Voivodeship",
    "city": "Grabów nad Prosną"
  },
  {
    "source_id": "ChIJuQKH-wi9GkcRECoVozYpzmQ",
    "name": "Rossmann drugstore",
    "category": "Rossmann drugstore",
    "formatted_address": "4,5(38)",
    "phone_number": "+48426139700",
    "source_url": "https://www.google.com/maps/place/Rossmann+drugstore/data=!4m7!3m6!1s0x471abd08fb8702b9:0x64ce2936a3152a10!8m2!3d51.5040548!4d18.1039933!16s%2Fg%2F11lkdzlsf9!19sChIJuQKH-wi9GkcRECoVozYpzmQ?authuser=0&hl=tr&rclk=1",
    "website_url": "",
    "rating_text": "4,5",
    "stars": null,
    "number_of_reviews": null,
    "price_level": "",
    "open_hours": "",
    "extraction_timestamp": "2025-06-07T17:15:56.966Z",
    "source_name": "google",
    "source_query": "Irrigation Equipment",
    "source_country": "PL",
    "country": "Poland",
    "state": "Greater Poland Voivodeship",
    "city": "Grabów nad Prosną"
  }
]
