[
  {
    "source_id": "ChIJJcs52bPKBUcRWL49DJ4Qru8",
    "name": "GRENE",
    "category": "GRENE",
    "formatted_address": "4,2(23)",
    "phone_number": "+48614472025",
    "source_url": "https://www.google.com/maps/place/GRENE/data=!4m7!3m6!1s0x4705cab3d939cb25:0xefae109e0c3dbe58!8m2!3d52.2234909!4d16.512436!16s%2Fg%2F11df6hyhm5!19sChIJJcs52bPKBUcRWL49DJ4Qru8?authuser=0&hl=tr&rclk=1",
    "website_url": "",
    "rating_text": "4,2",
    "stars": null,
    "number_of_reviews": null,
    "price_level": "",
    "open_hours": "",
    "extraction_timestamp": "2025-06-07T17:40:34.862Z",
    "source_name": "google",
    "source_query": "Irrigation Equipment",
    "source_country": "PL",
    "country": "Poland",
    "state": "Greater Poland Voivodeship",
    "city": "Granowo"
  },
  {
    "source_id": "ChIJ_9P9xqvKBUcR4Ci7TUuXasA",
    "name": "Megran Z.Krym",
    "category": "Megran Z.Krym",
    "formatted_address": "4,8(65)",
    "phone_number": "+48602173280",
    "source_url": "https://www.google.com/maps/place/Megran+Z.Krym/data=!4m7!3m6!1s0x4705caabc6fdd3ff:0xc06a974b4dbb28e0!8m2!3d52.2200273!4d16.5387012!16s%2Fg%2F1tlmm0lh!19sChIJ_9P9xqvKBUcR4Ci7TUuXasA?authuser=0&hl=tr&rclk=1",
    "website_url": "",
    "rating_text": "4,8",
    "stars": null,
    "number_of_reviews": null,
    "price_level": "",
    "open_hours": "",
    "extraction_timestamp": "2025-06-07T17:40:34.863Z",
    "source_name": "google",
    "source_query": "Irrigation Equipment",
    "source_country": "PL",
    "country": "Poland",
    "state": "Greater Poland Voivodeship",
    "city": "Granowo"
  },
  {
    "source_id": "ChIJq0wE9bXLBUcRLh0DzWKOJ4k",
    "name": "SKLEP SPOŻYWCZO - PRZEMYSŁOWY GRAŻYNA GOLCZYK",
    "category": "SKLEP SPOŻYWCZO - PRZEMYSŁOWY GRAŻYNA GOLCZYK",
    "formatted_address": "4,8(13)",
    "phone_number": "",
    "source_url": "https://www.google.com/maps/place/SKLEP+SPO%C5%BBYWCZO+-+PRZEMYS%C5%81OWY+GRA%C5%BBYNA+GOLCZYK/data=!4m7!3m6!1s0x4705cbb5f5044cab:0x89278e62cd031d2e!8m2!3d52.225139!4d16.5276441!16s%2Fg%2F11ptvgrx6s!19sChIJq0wE9bXLBUcRLh0DzWKOJ4k?authuser=0&hl=tr&rclk=1",
    "website_url": "",
    "rating_text": "4,8",
    "stars": null,
    "number_of_reviews": null,
    "price_level": "",
    "open_hours": "",
    "extraction_timestamp": "2025-06-07T17:40:34.865Z",
    "source_name": "google",
    "source_query": "Irrigation Equipment",
    "source_country": "PL",
    "country": "Poland",
    "state": "Greater Poland Voivodeship",
    "city": "Granowo"
  },
  {
    "source_id": "ChIJz36ML161BUcR1syju9wBeVU",
    "name": "Mini-market spożywczo-przemysłowy",
    "category": "Mini-market spożywczo-przemysłowy",
    "formatted_address": "4,5(64)",
    "phone_number": "",
    "source_url": "https://www.google.com/maps/place/Mini-market+spo%C5%BCywczo-przemys%C5%82owy/data=!4m7!3m6!1s0x4705b55e2f8c7ecf:0x557901dcbba3ccd6!8m2!3d52.2218746!4d16.5376474!16s%2Fg%2F11f60y8_sy!19sChIJz36ML161BUcR1syju9wBeVU?authuser=0&hl=tr&rclk=1",
    "website_url": "",
    "rating_text": "4,5",
    "stars": null,
    "number_of_reviews": null,
    "price_level": "",
    "open_hours": "",
    "extraction_timestamp": "2025-06-07T17:40:34.866Z",
    "source_name": "google",
    "source_query": "Irrigation Equipment",
    "source_country": "PL",
    "country": "Poland",
    "state": "Greater Poland Voivodeship",
    "city": "Granowo"
  },
  {
    "source_id": "ChIJ45JB6mlDBEcR__dhF4hl_T8",
    "name": "Agrii Polska Sp.z.o.o.",
    "category": "Agrii Polska Sp.z.o.o.",
    "formatted_address": "4,5(22)",
    "phone_number": "+48616708888",
    "source_url": "https://www.google.com/maps/place/Agrii+Polska+Sp.z.o.o./data=!4m7!3m6!1s0x47044369ea4192e3:0x3ffd65881761f7ff!8m2!3d52.447053!4d16.9069442!16s%2Fg%2F1tnmqdvf!19sChIJ45JB6mlDBEcR__dhF4hl_T8?authuser=0&hl=tr&rclk=1",
    "website_url": "",
    "rating_text": "4,5",
    "stars": null,
    "number_of_reviews": null,
    "price_level": "",
    "open_hours": "",
    "extraction_timestamp": "2025-06-07T17:40:34.867Z",
    "source_name": "google",
    "source_query": "Irrigation Equipment",
    "source_country": "PL",
    "country": "Poland",
    "state": "Greater Poland Voivodeship",
    "city": "Granowo"
  },
  {
    "source_id": "ChIJL3CGAqzKBUcREOdSTDX4QIo",
    "name": "Auto Serwis & Auto Części & Klimatyzacja & Wulkanizacja",
    "category": "Auto Serwis & Auto Części & Klimatyzacja & Wulkanizacja",
    "formatted_address": "4,6(59)",
    "phone_number": "+48691838374",
    "source_url": "https://www.google.com/maps/place/Auto+Serwis+%26+Auto+Cz%C4%99%C5%9Bci+%26+Klimatyzacja+%26+Wulkanizacja/data=!4m7!3m6!1s0x4705caac0286702f:0x8a40f8354c52e710!8m2!3d52.2215008!4d16.5237783!16s%2Fg%2F11c3yr6mym!19sChIJL3CGAqzKBUcREOdSTDX4QIo?authuser=0&hl=tr&rclk=1",
    "website_url": "",
    "rating_text": "4,6",
    "stars": null,
    "number_of_reviews": null,
    "price_level": "",
    "open_hours": "",
    "extraction_timestamp": "2025-06-07T17:40:34.869Z",
    "source_name": "google",
    "source_query": "Irrigation Equipment",
    "source_country": "PL",
    "country": "Poland",
    "state": "Greater Poland Voivodeship",
    "city": "Granowo"
  },
  {
    "source_id": "ChIJ_RSEPN-1BUcRgkqtGHkJOnk",
    "name": "Dino",
    "category": "Dino",
    "formatted_address": "4,4(40)",
    "phone_number": "",
    "source_url": "https://www.google.com/maps/place/Dino/data=!4m7!3m6!1s0x4705b5df3c8414fd:0x793a097918ad4a82!8m2!3d52.2204882!4d16.5362678!16s%2Fg%2F11rqyvbsj4!19sChIJ_RSEPN-1BUcRgkqtGHkJOnk?authuser=0&hl=tr&rclk=1",
    "website_url": "",
    "rating_text": "4,4",
    "stars": null,
    "number_of_reviews": null,
    "price_level": "",
    "open_hours": "",
    "extraction_timestamp": "2025-06-07T17:40:34.870Z",
    "source_name": "google",
    "source_query": "Irrigation Equipment",
    "source_country": "PL",
    "country": "Poland",
    "state": "Greater Poland Voivodeship",
    "city": "Granowo"
  },
  {
    "source_id": "ChIJ60ahl1W1BUcRNfWHW9ZQBck",
    "name": "Chata Polska",
    "category": "Chata Polska",
    "formatted_address": "4,2(214)",
    "phone_number": "+48614471613",
    "source_url": "https://www.google.com/maps/place/Chata+Polska/data=!4m7!3m6!1s0x4705b55597a146eb:0xc90550d65b87f535!8m2!3d52.2218599!4d16.5350763!16s%2Fg%2F11c0xp2cph!19sChIJ60ahl1W1BUcRNfWHW9ZQBck?authuser=0&hl=tr&rclk=1",
    "website_url": "",
    "rating_text": "4,2",
    "stars": null,
    "number_of_reviews": null,
    "price_level": "",
    "open_hours": "",
    "extraction_timestamp": "2025-06-07T17:40:34.871Z",
    "source_name": "google",
    "source_query": "Irrigation Equipment",
    "source_country": "PL",
    "country": "Poland",
    "state": "Greater Poland Voivodeship",
    "city": "Granowo"
  },
  {
    "source_id": "ChIJnc-jLKzKBUcRJgfpXqI8MS8",
    "name": "Dino",
    "category": "Dino",
    "formatted_address": "4,1(347)",
    "phone_number": "",
    "source_url": "https://www.google.com/maps/place/Dino/data=!4m7!3m6!1s0x4705caac2ca3cf9d:0x2f313ca25ee90726!8m2!3d52.2224962!4d16.5215027!16s%2Fg%2F11c2kx1zz8!19sChIJnc-jLKzKBUcRJgfpXqI8MS8?authuser=0&hl=tr&rclk=1",
    "website_url": "",
    "rating_text": "4,1",
    "stars": null,
    "number_of_reviews": null,
    "price_level": "",
    "open_hours": "",
    "extraction_timestamp": "2025-06-07T17:40:34.872Z",
    "source_name": "google",
    "source_query": "Irrigation Equipment",
    "source_country": "PL",
    "country": "Poland",
    "state": "Greater Poland Voivodeship",
    "city": "Granowo"
  }
]
