[
  {
    "source_id": "ChIJT5-ht-3MBUcRfj9r0ngkQ80",
    "name": "DANFLOR Centrum Ogrodnicze, Autoryzowany Diler Husqvarna",
    "category": "DANFLOR Centrum Ogrodnicze, Autoryzowany Diler Husqvarna",
    "formatted_address": "DANFLOR Centrum Ogrodnicze, Autoryzowany Diler Husqvarna",
    "phone_number": "+48614445171",
    "source_url": "https://www.google.com/maps/place/DANFLOR+Centrum+Ogrodnicze,+Autoryzowany+Diler+Husqvarna/data=!4m7!3m6!1s0x4705ccedb7a19f4f:0xcd432478d26b3f7e!8m2!3d52.218807!4d16.364237!16s%2Fg%2F1tf2whpl!19sChIJT5-ht-3MBUcRfj9r0ngkQ80?authuser=0&hl=tr&rclk=1",
    "website_url": "",
    "rating_text": "4,5",
    "stars": null,
    "number_of_reviews": null,
    "price_level": "",
    "open_hours": "",
    "extraction_timestamp": "2025-06-07T17:57:39.968Z",
    "source_name": "google",
    "source_query": "Irrigation Equipment",
    "source_country": "PL",
    "country": "Poland",
    "state": "Greater Poland Voivodeship",
    "city": "Grodzisk Wielkopolski"
  },
  {
    "source_id": "ChIJw34RjMHMBUcR1pUtuf634Zc",
    "name": "Gawron Grzegorz. Armatura sanitarna i instalacyjna",
    "category": "Gawron Grzegorz. Armatura sanitarna i instalacyjna",
    "formatted_address": "4,6(56)",
    "phone_number": "+48614445704",
    "source_url": "https://www.google.com/maps/place/Gawron+Grzegorz.+Armatura+sanitarna+i+instalacyjna/data=!4m7!3m6!1s0x4705ccc18c117ec3:0x97e1b7feb92d95d6!8m2!3d52.2291296!4d16.3684564!16s%2Fg%2F1tjs3n61!19sChIJw34RjMHMBUcR1pUtuf634Zc?authuser=0&hl=tr&rclk=1",
    "website_url": "",
    "rating_text": "4,6",
    "stars": null,
    "number_of_reviews": null,
    "price_level": "",
    "open_hours": "",
    "extraction_timestamp": "2025-06-07T17:57:39.969Z",
    "source_name": "google",
    "source_query": "Irrigation Equipment",
    "source_country": "PL",
    "country": "Poland",
    "state": "Greater Poland Voivodeship",
    "city": "Grodzisk Wielkopolski"
  },
  {
    "source_id": "ChIJCZi81fHMBUcRVnxI1izUUtg",
    "name": "Bricomarché",
    "category": "Bricomarché",
    "formatted_address": "4,3(900)",
    "phone_number": "+48501814409",
    "source_url": "https://www.google.com/maps/place/Bricomarch%C3%A9/data=!4m7!3m6!1s0x4705ccf1d5bc9809:0xd852d42cd6487c56!8m2!3d52.2179336!4d16.3583933!16s%2Fg%2F11c3ywcw6v!19sChIJCZi81fHMBUcRVnxI1izUUtg?authuser=0&hl=tr&rclk=1",
    "website_url": "",
    "rating_text": "4,3",
    "stars": null,
    "number_of_reviews": null,
    "price_level": "",
    "open_hours": "",
    "extraction_timestamp": "2025-06-07T17:57:39.971Z",
    "source_name": "google",
    "source_query": "Irrigation Equipment",
    "source_country": "PL",
    "country": "Poland",
    "state": "Greater Poland Voivodeship",
    "city": "Grodzisk Wielkopolski"
  },
  {
    "source_id": "ChIJI55nQ93MBUcRIybzvv8Urzs",
    "name": "HABA przydomowe i osiedlowe oczyszczalnie ścieków",
    "category": "HABA przydomowe i osiedlowe oczyszczalnie ścieków",
    "formatted_address": "4,9(486)",
    "phone_number": "+48613070172",
    "source_url": "https://www.google.com/maps/place/HABA+przydomowe+i+osiedlowe+oczyszczalnie+%C5%9Bciek%C3%B3w/data=!4m7!3m6!1s0x4705ccdd43679e23:0x3baf14ffbef32623!8m2!3d52.2417963!4d16.3268291!16s%2Fg%2F1tdmtb1j!19sChIJI55nQ93MBUcRIybzvv8Urzs?authuser=0&hl=tr&rclk=1",
    "website_url": "",
    "rating_text": "4,9",
    "stars": null,
    "number_of_reviews": null,
    "price_level": "",
    "open_hours": "",
    "extraction_timestamp": "2025-06-07T17:57:39.972Z",
    "source_name": "google",
    "source_query": "Irrigation Equipment",
    "source_country": "PL",
    "country": "Poland",
    "state": "Greater Poland Voivodeship",
    "city": "Grodzisk Wielkopolski"
  },
  {
    "source_id": "ChIJL7LvNNLNBUcR30Yqub8x3fM",
    "name": "EFLI GROUP Spółka z Ograniczoną Odpowiedzialnością Spółka Komandytowa",
    "category": "EFLI GROUP Spółka z Ograniczoną Odpowiedzialnością Spółka Komandytowa",
    "formatted_address": "4,9(14)",
    "phone_number": "+48607500037",
    "source_url": "https://www.google.com/maps/place/EFLI+GROUP+Sp%C3%B3%C5%82ka+z+Ograniczon%C4%85+Odpowiedzialno%C5%9Bci%C4%85+Sp%C3%B3%C5%82ka+Komandytowa/data=!4m7!3m6!1s0x4705cdd234efb22f:0xf3dd31bfb92a46df!8m2!3d52.2191154!4d16.3562051!16s%2Fg%2F11hz3_hbxg!19sChIJL7LvNNLNBUcR30Yqub8x3fM?authuser=0&hl=tr&rclk=1",
    "website_url": "",
    "rating_text": "4,9",
    "stars": null,
    "number_of_reviews": null,
    "price_level": "",
    "open_hours": "",
    "extraction_timestamp": "2025-06-07T17:57:39.973Z",
    "source_name": "google",
    "source_query": "Irrigation Equipment",
    "source_country": "PL",
    "country": "Poland",
    "state": "Greater Poland Voivodeship",
    "city": "Grodzisk Wielkopolski"
  },
  {
    "source_id": "ChIJZ_7qzk_NBUcRnmRVWfSsi54",
    "name": "Pro-Alter Wojciech Stopierzyński",
    "category": "Pro-Alter Wojciech Stopierzyński",
    "formatted_address": "5,0(15)",
    "phone_number": "+48535245145",
    "source_url": "https://www.google.com/maps/place/Pro-Alter+Wojciech+Stopierzy%C5%84ski/data=!4m7!3m6!1s0x4705cd4fceeafe67:0x9e8bacf45955649e!8m2!3d52.2145115!4d16.3524954!16s%2Fg%2F11t7b5zmd4!19sChIJZ_7qzk_NBUcRnmRVWfSsi54?authuser=0&hl=tr&rclk=1",
    "website_url": "",
    "rating_text": "5,0",
    "stars": null,
    "number_of_reviews": null,
    "price_level": "",
    "open_hours": "",
    "extraction_timestamp": "2025-06-07T17:57:39.975Z",
    "source_name": "google",
    "source_query": "Irrigation Equipment",
    "source_country": "PL",
    "country": "Poland",
    "state": "Greater Poland Voivodeship",
    "city": "Grodzisk Wielkopolski"
  },
  {
    "source_id": "ChIJWzvsy0rNBUcRfMWc9lSQzwE",
    "name": "Agro-Efekt sp. z o.o. Grodzisk Wielkopolski",
    "category": "Agro-Efekt sp. z o.o. Grodzisk Wielkopolski",
    "formatted_address": "4,7(21)",
    "phone_number": "+48573793971",
    "source_url": "https://www.google.com/maps/place/Agro-Efekt+sp.+z+o.o.+Grodzisk+Wielkopolski/data=!4m7!3m6!1s0x4705cd4acbec3b5b:0x1cf9054f69cc57c!8m2!3d52.2407332!4d16.3624399!16s%2Fg%2F11s1bh3rpb!19sChIJWzvsy0rNBUcRfMWc9lSQzwE?authuser=0&hl=tr&rclk=1",
    "website_url": "",
    "rating_text": "4,7",
    "stars": null,
    "number_of_reviews": null,
    "price_level": "",
    "open_hours": "",
    "extraction_timestamp": "2025-06-07T17:57:39.976Z",
    "source_name": "google",
    "source_query": "Irrigation Equipment",
    "source_country": "PL",
    "country": "Poland",
    "state": "Greater Poland Voivodeship",
    "city": "Grodzisk Wielkopolski"
  },
  {
    "source_id": "ChIJ-_3dwN_MBUcR3rmxgOLFppU",
    "name": "Hurtownia Wod-Gaz - Rynny, armatura żeliwna",
    "category": "Hurtownia Wod-Gaz - Rynny, armatura żeliwna",
    "formatted_address": "Hurtownia Wod-Gaz - Rynny, armatura żeliwna",
    "phone_number": "+48614448706",
    "source_url": "https://www.google.com/maps/place/Hurtownia+Wod-Gaz+-+Rynny,+armatura+%C5%BCeliwna/data=!4m7!3m6!1s0x4705ccdfc0ddfdfb:0x95a6c5e280b1b9de!8m2!3d52.2303801!4d16.3413179!16s%2Fg%2F1tg_85kn!19sChIJ-_3dwN_MBUcR3rmxgOLFppU?authuser=0&hl=tr&rclk=1",
    "website_url": "",
    "rating_text": "5,0",
    "stars": null,
    "number_of_reviews": null,
    "price_level": "",
    "open_hours": "",
    "extraction_timestamp": "2025-06-07T17:57:39.977Z",
    "source_name": "google",
    "source_query": "Irrigation Equipment",
    "source_country": "PL",
    "country": "Poland",
    "state": "Greater Poland Voivodeship",
    "city": "Grodzisk Wielkopolski"
  },
  {
    "source_id": "ChIJaUplh-3MBUcRa0HvwzEX4_U",
    "name": "Dybionka Barbara. Autoryzowany dealer firmy Stihl",
    "category": "Dybionka Barbara. Autoryzowany dealer firmy Stihl",
    "formatted_address": "4,6(9)",
    "phone_number": "+48614421143",
    "source_url": "https://www.google.com/maps/place/Dybionka+Barbara.+Autoryzowany+dealer+firmy+Stihl/data=!4m7!3m6!1s0x4705cced87654a69:0xf5e31731c3ef416b!8m2!3d52.2181429!4d16.363671!16s%2Fg%2F1tklp7ky!19sChIJaUplh-3MBUcRa0HvwzEX4_U?authuser=0&hl=tr&rclk=1",
    "website_url": "",
    "rating_text": "4,6",
    "stars": null,
    "number_of_reviews": null,
    "price_level": "",
    "open_hours": "",
    "extraction_timestamp": "2025-06-07T17:57:39.978Z",
    "source_name": "google",
    "source_query": "Irrigation Equipment",
    "source_country": "PL",
    "country": "Poland",
    "state": "Greater Poland Voivodeship",
    "city": "Grodzisk Wielkopolski"
  },
  {
    "source_id": "ChIJ65VuJerMBUcRPDD8jvreBIc",
    "name": "F.U.H.P. Agroster Zdzisław Schwartz",
    "category": "F.U.H.P. Agroster Zdzisław Schwartz",
    "formatted_address": "5,0(2)",
    "phone_number": "+48614446893",
    "source_url": "https://www.google.com/maps/place/F.U.H.P.+Agroster+Zdzis%C5%82aw+Schwartz/data=!4m7!3m6!1s0x4705ccea256e95eb:0x8704defa8efc303c!8m2!3d52.2257113!4d16.3666542!16s%2Fg%2F1pv5_ty5f!19sChIJ65VuJerMBUcRPDD8jvreBIc?authuser=0&hl=tr&rclk=1",
    "website_url": "",
    "rating_text": "5,0",
    "stars": null,
    "number_of_reviews": null,
    "price_level": "",
    "open_hours": "",
    "extraction_timestamp": "2025-06-07T17:57:39.979Z",
    "source_name": "google",
    "source_query": "Irrigation Equipment",
    "source_country": "PL",
    "country": "Poland",
    "state": "Greater Poland Voivodeship",
    "city": "Grodzisk Wielkopolski"
  },
  {
    "source_id": "ChIJqetkIO3MBUcR8aLpWNt5pUs",
    "name": "PSB Mrówka",
    "category": "PSB Mrówka",
    "formatted_address": "4,4(703)",
    "phone_number": "+48668880210",
    "source_url": "https://www.google.com/maps/place/PSB+Mr%C3%B3wka/data=!4m7!3m6!1s0x4705cced2064eba9:0x4ba579db58e9a2f1!8m2!3d52.2185466!4d16.3665627!16s%2Fg%2F11cm3vjn5s!19sChIJqetkIO3MBUcR8aLpWNt5pUs?authuser=0&hl=tr&rclk=1",
    "website_url": "",
    "rating_text": "4,4",
    "stars": null,
    "number_of_reviews": null,
    "price_level": "",
    "open_hours": "",
    "extraction_timestamp": "2025-06-07T17:57:39.980Z",
    "source_name": "google",
    "source_query": "Irrigation Equipment",
    "source_country": "PL",
    "country": "Poland",
    "state": "Greater Poland Voivodeship",
    "city": "Grodzisk Wielkopolski"
  },
  {
    "source_id": "ChIJ82lR_OzMBUcRW37zOrFk774",
    "name": "NGR Technologie sp. z o.o.",
    "category": "NGR Technologie sp. z o.o.",
    "formatted_address": "4,5(15)",
    "phone_number": "+48614445165",
    "source_url": "https://www.google.com/maps/place/NGR+Technologie+sp.+z+o.o./data=!4m7!3m6!1s0x4705ccecfc5169f3:0xbeef64b13af37e5b!8m2!3d52.219673!4d16.366894!16s%2Fg%2F1wk7pkss!19sChIJ82lR_OzMBUcRW37zOrFk774?authuser=0&hl=tr&rclk=1",
    "website_url": "",
    "rating_text": "4,5",
    "stars": null,
    "number_of_reviews": null,
    "price_level": "",
    "open_hours": "",
    "extraction_timestamp": "2025-06-07T17:57:39.982Z",
    "source_name": "google",
    "source_query": "Irrigation Equipment",
    "source_country": "PL",
    "country": "Poland",
    "state": "Greater Poland Voivodeship",
    "city": "Grodzisk Wielkopolski"
  },
  {
    "source_id": "ChIJ3XvcacDMBUcRqyQ9Cf-RBYU",
    "name": "DORMAX - Salon Łazienek | Drzwi wewnętrzne i zewnętrzne | Tapety",
    "category": "DORMAX - Salon Łazienek | Drzwi wewnętrzne i zewnętrzne | Tapety",
    "formatted_address": "4,5(74)",
    "phone_number": "+48614440265",
    "source_url": "https://www.google.com/maps/place/DORMAX+-+Salon+%C5%81azienek+%7C+Drzwi+wewn%C4%99trzne+i+zewn%C4%99trzne+%7C+Tapety/data=!4m7!3m6!1s0x4705ccc069dc7bdd:0x850591ff093d24ab!8m2!3d52.2278334!4d16.3722395!16s%2Fg%2F1thk_k8d!19sChIJ3XvcacDMBUcRqyQ9Cf-RBYU?authuser=0&hl=tr&rclk=1",
    "website_url": "",
    "rating_text": "4,5",
    "stars": null,
    "number_of_reviews": null,
    "price_level": "",
    "open_hours": "",
    "extraction_timestamp": "2025-06-07T17:57:39.983Z",
    "source_name": "google",
    "source_query": "Irrigation Equipment",
    "source_country": "PL",
    "country": "Poland",
    "state": "Greater Poland Voivodeship",
    "city": "Grodzisk Wielkopolski"
  },
  {
    "source_id": "ChIJ3QsGyRLNBUcRAy30D8D-WWY",
    "name": "Na Berlinku Mateusz Piosik",
    "category": "Na Berlinku Mateusz Piosik",
    "formatted_address": "4,5(43)",
    "phone_number": "+48695473141",
    "source_url": "https://www.google.com/maps/place/Na+Berlinku+Mateusz+Piosik/data=!4m7!3m6!1s0x4705cd12c9060bdd:0x6659fec00ff42d03!8m2!3d52.229518!4d16.3661576!16s%2Fg%2F11r_v2y21j!19sChIJ3QsGyRLNBUcRAy30D8D-WWY?authuser=0&hl=tr&rclk=1",
    "website_url": "",
    "rating_text": "4,5",
    "stars": null,
    "number_of_reviews": null,
    "price_level": "",
    "open_hours": "",
    "extraction_timestamp": "2025-06-07T17:57:39.984Z",
    "source_name": "google",
    "source_query": "Irrigation Equipment",
    "source_country": "PL",
    "country": "Poland",
    "state": "Greater Poland Voivodeship",
    "city": "Grodzisk Wielkopolski"
  },
  {
    "source_id": "ChIJB6wOwuvMBUcRS1n5wOl1RlI",
    "name": "Studnia św. Bernarda w Grodzisku Wielkopolskim",
    "category": "Studnia św. Bernarda w Grodzisku Wielkopolskim",
    "formatted_address": "4,6(225)",
    "phone_number": "",
    "source_url": "https://www.google.com/maps/place/Studnia+%C5%9Bw.+Bernarda+w+Grodzisku+Wielkopolskim/data=!4m7!3m6!1s0x4705ccebc20eac07:0x524675e9c0f9594b!8m2!3d52.2237172!4d16.3660172!16s%2Fg%2F120hzj0y!19sChIJB6wOwuvMBUcRS1n5wOl1RlI?authuser=0&hl=tr&rclk=1",
    "website_url": "",
    "rating_text": "4,6",
    "stars": null,
    "number_of_reviews": null,
    "price_level": "",
    "open_hours": "",
    "extraction_timestamp": "2025-06-07T17:57:39.985Z",
    "source_name": "google",
    "source_query": "Irrigation Equipment",
    "source_country": "PL",
    "country": "Poland",
    "state": "Greater Poland Voivodeship",
    "city": "Grodzisk Wielkopolski"
  },
  {
    "source_id": "ChIJJVBDwIytBUcRWcmsQgPZbxU",
    "name": "NEO INSTALACJE - pompy ciepła, klimatyzacja, wentylacja, ogrzewanie, instalacje wod-kan",
    "category": "NEO INSTALACJE - pompy ciepła, klimatyzacja, wentylacja, ogrzewanie, instalacje wod-kan",
    "formatted_address": "NEO INSTALACJE - pompy ciepła, klimatyzacja, wentylacja, ogrzewanie, instalacje wod-kan",
    "phone_number": "+48661774385",
    "source_url": "https://www.google.com/maps/place/NEO+INSTALACJE+-+pompy+ciep%C5%82a,+klimatyzacja,+wentylacja,+ogrzewanie,+instalacje+wod-kan/data=!4m7!3m6!1s0x4705ad8cc0435025:0x156fd90342acc959!8m2!3d52.2351527!4d16.3470933!16s%2Fg%2F11fm16f44t!19sChIJJVBDwIytBUcRWcmsQgPZbxU?authuser=0&hl=tr&rclk=1",
    "website_url": "",
    "rating_text": "5,0",
    "stars": null,
    "number_of_reviews": null,
    "price_level": "",
    "open_hours": "",
    "extraction_timestamp": "2025-06-07T17:57:39.986Z",
    "source_name": "google",
    "source_query": "Irrigation Equipment",
    "source_country": "PL",
    "country": "Poland",
    "state": "Greater Poland Voivodeship",
    "city": "Grodzisk Wielkopolski"
  },
  {
    "source_id": "ChIJo0D41d3MBUcR_2KIa-mdgLM",
    "name": "Intermarché Super",
    "category": "Intermarché Super",
    "formatted_address": "4,1(835)",
    "phone_number": "+48614447879",
    "source_url": "https://www.google.com/maps/place/Intermarch%C3%A9+Super/data=!4m7!3m6!1s0x4705ccddd5f840a3:0xb3809de96b8862ff!8m2!3d52.2307824!4d16.3530991!16s%2Fg%2F1tfn1fhy!19sChIJo0D41d3MBUcR_2KIa-mdgLM?authuser=0&hl=tr&rclk=1",
    "website_url": "",
    "rating_text": "4,1",
    "stars": null,
    "number_of_reviews": null,
    "price_level": "",
    "open_hours": "",
    "extraction_timestamp": "2025-06-07T17:57:39.988Z",
    "source_name": "google",
    "source_query": "Irrigation Equipment",
    "source_country": "PL",
    "country": "Poland",
    "state": "Greater Poland Voivodeship",
    "city": "Grodzisk Wielkopolski"
  },
  {
    "source_id": "ChIJhTnOXpLMBUcR4JrDFaEl54M",
    "name": "Pago Sp. o.o. Cold store",
    "category": "Pago Sp. o.o. Cold store",
    "formatted_address": "3,8(267)",
    "phone_number": "+48614481343",
    "source_url": "https://www.google.com/maps/place/Pago+Sp.+o.o.+Cold+store/data=!4m7!3m6!1s0x4705cc925ece3985:0x83e725a115c39ae0!8m2!3d52.2166722!4d16.3782214!16s%2Fg%2F1tfz_sk8!19sChIJhTnOXpLMBUcR4JrDFaEl54M?authuser=0&hl=tr&rclk=1",
    "website_url": "",
    "rating_text": "3,8",
    "stars": null,
    "number_of_reviews": null,
    "price_level": "",
    "open_hours": "",
    "extraction_timestamp": "2025-06-07T17:57:39.989Z",
    "source_name": "google",
    "source_query": "Irrigation Equipment",
    "source_country": "PL",
    "country": "Poland",
    "state": "Greater Poland Voivodeship",
    "city": "Grodzisk Wielkopolski"
  },
  {
    "source_id": "ChIJi21zuO3MBUcRBcu73lmGiu4",
    "name": "Max Elektro Adlech Grodzisk Wlkp. | Autoryzowany dealer KROSS",
    "category": "Max Elektro Adlech Grodzisk Wlkp. | Autoryzowany dealer KROSS",
    "formatted_address": "4,8(19)",
    "phone_number": "+48614440079",
    "source_url": "https://www.google.com/maps/place/Max+Elektro+Adlech+Grodzisk+Wlkp.+%7C+Autoryzowany+dealer+KROSS/data=!4m7!3m6!1s0x4705ccedb8736d8b:0xee8a8659debbcb05!8m2!3d52.2191373!4d16.3638281!16s%2Fg%2F11gxn21lrh!19sChIJi21zuO3MBUcRBcu73lmGiu4?authuser=0&hl=tr&rclk=1",
    "website_url": "",
    "rating_text": "4,8",
    "stars": null,
    "number_of_reviews": null,
    "price_level": "",
    "open_hours": "",
    "extraction_timestamp": "2025-06-07T17:57:39.990Z",
    "source_name": "google",
    "source_query": "Irrigation Equipment",
    "source_country": "PL",
    "country": "Poland",
    "state": "Greater Poland Voivodeship",
    "city": "Grodzisk Wielkopolski"
  },
  {
    "source_id": "ChIJyw9mSM1FBEcRvbn0NisHxw8",
    "name": "Agroster | Obróbka CNC",
    "category": "Agroster | Obróbka CNC",
    "formatted_address": "4,8(10)",
    "phone_number": "+48616634315",
    "source_url": "https://www.google.com/maps/place/Agroster+%7C+Obr%C3%B3bka+CNC/data=!4m7!3m6!1s0x470445cd48660fcb:0xfc7072b36f4b9bd!8m2!3d52.4135587!4d16.788875!16s%2Fg%2F1vs1qktr!19sChIJyw9mSM1FBEcRvbn0NisHxw8?authuser=0&hl=tr&rclk=1",
    "website_url": "",
    "rating_text": "4,8",
    "stars": null,
    "number_of_reviews": null,
    "price_level": "",
    "open_hours": "",
    "extraction_timestamp": "2025-06-07T17:57:39.991Z",
    "source_name": "google",
    "source_query": "Irrigation Equipment",
    "source_country": "PL",
    "country": "Poland",
    "state": "Greater Poland Voivodeship",
    "city": "Grodzisk Wielkopolski"
  },
  {
    "source_id": "ChIJSzzEtTRBBEcRSs_tkkc5-9E",
    "name": "Farm - Fertilizers and Irrigation",
    "category": "Farm - Fertilizers and Irrigation",
    "formatted_address": "4,7(128)",
    "phone_number": "+48600424533",
    "source_url": "https://www.google.com/maps/place/Farm+-+Fertilizers+and+Irrigation/data=!4m7!3m6!1s0x47044134b5c43c4b:0xd1fb394792edcf4a!8m2!3d52.454788!4d16.768546!16s%2Fg%2F1w4vhmkd!19sChIJSzzEtTRBBEcRSs_tkkc5-9E?authuser=0&hl=tr&rclk=1",
    "website_url": "",
    "rating_text": "4,7",
    "stars": null,
    "number_of_reviews": null,
    "price_level": "",
    "open_hours": "",
    "extraction_timestamp": "2025-06-07T17:57:39.992Z",
    "source_name": "google",
    "source_query": "Irrigation Equipment",
    "source_country": "PL",
    "country": "Poland",
    "state": "Greater Poland Voivodeship",
    "city": "Grodzisk Wielkopolski"
  },
  {
    "source_id": "ChIJOfsjSvDMBUcRIaPERnjZ-mI",
    "name": "GROINSTAL",
    "category": "GROINSTAL",
    "formatted_address": "1,0(1)",
    "phone_number": "+48602655615",
    "source_url": "https://www.google.com/maps/place/GROINSTAL/data=!4m7!3m6!1s0x4705ccf04a23fb39:0x62fad97846c4a321!8m2!3d52.2170009!4d16.3561139!16s%2Fg%2F1v42dhg9!19sChIJOfsjSvDMBUcRIaPERnjZ-mI?authuser=0&hl=tr&rclk=1",
    "website_url": "",
    "rating_text": "1,0",
    "stars": null,
    "number_of_reviews": null,
    "price_level": "",
    "open_hours": "",
    "extraction_timestamp": "2025-06-07T17:57:39.992Z",
    "source_name": "google",
    "source_query": "Irrigation Equipment",
    "source_country": "PL",
    "country": "Poland",
    "state": "Greater Poland Voivodeship",
    "city": "Grodzisk Wielkopolski"
  },
  {
    "source_id": "ChIJAbmOLY3MBUcRX539RTeqgRg",
    "name": "ETIOA",
    "category": "ETIOA",
    "formatted_address": "5,0(2)",
    "phone_number": "+48613072298",
    "source_url": "https://www.google.com/maps/place/ETIOA/data=!4m7!3m6!1s0x4705cc8d2d8eb901:0x1881aa3745fd9d5f!8m2!3d52.2163445!4d16.3671122!16s%2Fg%2F11f1p_94p2!19sChIJAbmOLY3MBUcRX539RTeqgRg?authuser=0&hl=tr&rclk=1",
    "website_url": "",
    "rating_text": "5,0",
    "stars": null,
    "number_of_reviews": null,
    "price_level": "",
    "open_hours": "",
    "extraction_timestamp": "2025-06-07T17:57:39.994Z",
    "source_name": "google",
    "source_query": "Irrigation Equipment",
    "source_country": "PL",
    "country": "Poland",
    "state": "Greater Poland Voivodeship",
    "city": "Grodzisk Wielkopolski"
  },
  {
    "source_id": "ChIJk6ZLRenMBUcRcJ5ph3kg-yw",
    "name": "Biedronka",
    "category": "Biedronka",
    "formatted_address": "4,1(1.052)",
    "phone_number": "+48800080010",
    "source_url": "https://www.google.com/maps/place/Biedronka/data=!4m7!3m6!1s0x4705cce9454ba693:0x2cfb207987699e70!8m2!3d52.2235901!4d16.3629884!16s%2Fg%2F1tcvskct!19sChIJk6ZLRenMBUcRcJ5ph3kg-yw?authuser=0&hl=tr&rclk=1",
    "website_url": "",
    "rating_text": "4,1",
    "stars": null,
    "number_of_reviews": null,
    "price_level": "",
    "open_hours": "",
    "extraction_timestamp": "2025-06-07T17:57:39.996Z",
    "source_name": "google",
    "source_query": "Irrigation Equipment",
    "source_country": "PL",
    "country": "Poland",
    "state": "Greater Poland Voivodeship",
    "city": "Grodzisk Wielkopolski"
  },
  {
    "source_id": "ChIJTWvaoMobcaoRWJt166OMbqg",
    "name": "Instal-Tech. Systemy grzewcze i sanitarne Maciej Gładysz",
    "category": "Instal-Tech. Systemy grzewcze i sanitarne Maciej Gładysz",
    "formatted_address": "",
    "phone_number": "+48537082769",
    "source_url": "https://www.google.com/maps/place/Instal-Tech.+Systemy+grzewcze+i+sanitarne+Maciej+G%C5%82adysz/data=!4m7!3m6!1s0xaa711bcaa0da6b4d:0xa86e8ca3eb759b58!8m2!3d52.4170919!4d16.7080735!16s%2Fg%2F11vpn0xj75!19sChIJTWvaoMobcaoRWJt166OMbqg?authuser=0&hl=tr&rclk=1",
    "website_url": "",
    "rating_text": "",
    "stars": null,
    "number_of_reviews": null,
    "price_level": "",
    "open_hours": "",
    "extraction_timestamp": "2025-06-07T17:57:39.997Z",
    "source_name": "google",
    "source_query": "Irrigation Equipment",
    "source_country": "PL",
    "country": "Poland",
    "state": "Greater Poland Voivodeship",
    "city": "Grodzisk Wielkopolski"
  },
  {
    "source_id": "ChIJBXlV1-vMBUcRR0iN471wT0o",
    "name": "Bombonierka. Sklep spożywczy",
    "category": "Bombonierka. Sklep spożywczy",
    "formatted_address": "4,5(34)",
    "phone_number": "+48614446555",
    "source_url": "https://www.google.com/maps/place/Bombonierka.+Sklep+spo%C5%BCywczy/data=!4m7!3m6!1s0x4705ccebd7557905:0x4a4f70bde38d4847!8m2!3d52.2239926!4d16.365616!16s%2Fg%2F1ts_5948!19sChIJBXlV1-vMBUcRR0iN471wT0o?authuser=0&hl=tr&rclk=1",
    "website_url": "",
    "rating_text": "4,5",
    "stars": null,
    "number_of_reviews": null,
    "price_level": "",
    "open_hours": "",
    "extraction_timestamp": "2025-06-07T17:57:39.998Z",
    "source_name": "google",
    "source_query": "Irrigation Equipment",
    "source_country": "PL",
    "country": "Poland",
    "state": "Greater Poland Voivodeship",
    "city": "Grodzisk Wielkopolski"
  },
  {
    "source_id": "ChIJbxvaicDMBUcRqXtAqacmzyA",
    "name": "Sklep wielobranżowy GS Samopomoc Chłopska",
    "category": "Sklep wielobranżowy GS Samopomoc Chłopska",
    "formatted_address": "4,3(28)",
    "phone_number": "+48614448840",
    "source_url": "https://www.google.com/maps/place/Sklep+wielobran%C5%BCowy+GS+Samopomoc+Ch%C5%82opska/data=!4m7!3m6!1s0x4705ccc089da1b6f:0x20cf26a7a9407ba9!8m2!3d52.230847!4d16.367653!16s%2Fg%2F1tcy2_pn!19sChIJbxvaicDMBUcRqXtAqacmzyA?authuser=0&hl=tr&rclk=1",
    "website_url": "",
    "rating_text": "4,3",
    "stars": null,
    "number_of_reviews": null,
    "price_level": "",
    "open_hours": "",
    "extraction_timestamp": "2025-06-07T17:57:39.999Z",
    "source_name": "google",
    "source_query": "Irrigation Equipment",
    "source_country": "PL",
    "country": "Poland",
    "state": "Greater Poland Voivodeship",
    "city": "Grodzisk Wielkopolski"
  },
  {
    "source_id": "ChIJjUjVRAGP10ER-bzIY6ggWA8",
    "name": "Handyman / Złota Rączka Oleh Levenets",
    "category": "Handyman / Złota Rączka Oleh Levenets",
    "formatted_address": "5,0(21)",
    "phone_number": "+48692684991",
    "source_url": "https://www.google.com/maps/place/Handyman+%2F+Z%C5%82ota+R%C4%85czka+Oleh+Levenets/data=!4m7!3m6!1s0x41d78f0144d5488d:0xf5820a863c8bcf9!8m2!3d52.4170919!4d16.5111762!16s%2Fg%2F11x27p9dh5!19sChIJjUjVRAGP10ER-bzIY6ggWA8?authuser=0&hl=tr&rclk=1",
    "website_url": "",
    "rating_text": "5,0",
    "stars": null,
    "number_of_reviews": null,
    "price_level": "",
    "open_hours": "",
    "extraction_timestamp": "2025-06-07T17:57:40.000Z",
    "source_name": "google",
    "source_query": "Irrigation Equipment",
    "source_country": "PL",
    "country": "Poland",
    "state": "Greater Poland Voivodeship",
    "city": "Grodzisk Wielkopolski"
  },
  {
    "source_id": "ChIJx9dLaaM-BEcR0BMvflVq1Po",
    "name": "GRASSLAND FARMS",
    "category": "GRASSLAND FARMS",
    "formatted_address": "4,4(103)",
    "phone_number": "+48602382601",
    "source_url": "https://www.google.com/maps/place/GRASSLAND+FARMS/data=!4m7!3m6!1s0x47043ea3694bd7c7:0xfad46a557e2f13d0!8m2!3d52.5034131!4d16.5908032!16s%2Fg%2F1tlczwnb!19sChIJx9dLaaM-BEcR0BMvflVq1Po?authuser=0&hl=tr&rclk=1",
    "website_url": "",
    "rating_text": "4,4",
    "stars": null,
    "number_of_reviews": null,
    "price_level": "",
    "open_hours": "",
    "extraction_timestamp": "2025-06-07T17:57:40.001Z",
    "source_name": "google",
    "source_query": "Irrigation Equipment",
    "source_country": "PL",
    "country": "Poland",
    "state": "Greater Poland Voivodeship",
    "city": "Grodzisk Wielkopolski"
  },
  {
    "source_id": "ChIJhzNVMAjNBUcRXLihfq_gXBU",
    "name": "El Dorado Beer, Wine & Spirits",
    "category": "El Dorado Beer, Wine & Spirits",
    "formatted_address": "El Dorado Beer, Wine & Spirits",
    "phone_number": "+48882063615",
    "source_url": "https://www.google.com/maps/place/El+Dorado+Beer,+Wine+%26+Spirits/data=!4m7!3m6!1s0x4705cd0830553387:0x155ce0af7ea1b85c!8m2!3d52.231344!4d16.3587892!16s%2Fg%2F11nxg0x1pk!19sChIJhzNVMAjNBUcRXLihfq_gXBU?authuser=0&hl=tr&rclk=1",
    "website_url": "",
    "rating_text": "4,9",
    "stars": null,
    "number_of_reviews": null,
    "price_level": "",
    "open_hours": "",
    "extraction_timestamp": "2025-06-07T17:57:40.002Z",
    "source_name": "google",
    "source_query": "Irrigation Equipment",
    "source_country": "PL",
    "country": "Poland",
    "state": "Greater Poland Voivodeship",
    "city": "Grodzisk Wielkopolski"
  }
]
