[
  {
    "source_id": "ChIJB6y_v5J2HEcRlDfYx3xmc9M",
    "name": "Milex irrigation systems",
    "category": "Milex irrigation systems",
    "formatted_address": "4,6(37)",
    "phone_number": "+48242775222",
    "source_url": "https://www.google.com/maps/place/Milex+irrigation+systems/data=!4m7!3m6!1s0x471c7692bfbfac07:0xd373667cc7d83794!8m2!3d52.4690634!4d19.7520904!16s%2Fg%2F1w2yy67r!19sChIJB6y_v5J2HEcRlDfYx3xmc9M?authuser=0&hl=tr&rclk=1",
    "website_url": "",
    "rating_text": "4,6",
    "stars": null,
    "number_of_reviews": null,
    "price_level": "",
    "open_hours": "",
    "extraction_timestamp": "2025-06-07T17:56:20.961Z",
    "source_name": "google",
    "source_query": "Irrigation Equipment",
    "source_country": "PL",
    "country": "Poland",
    "state": "Greater Poland Voivodeship",
    "city": "Grzegorzew"
  },
  {
    "source_id": "ChIJqZWYPIwUG0cRQwrkZMzenQ8",
    "name": "Sklep Polski",
    "category": "Sklep Polski",
    "formatted_address": "4,5(59)",
    "phone_number": "",
    "source_url": "https://www.google.com/maps/place/Sklep+Polski/data=!4m7!3m6!1s0x471b148c3c9895a9:0xf9ddecc64e40a43!8m2!3d52.200987!4d18.7342681!16s%2Fg%2F11bx2l5rzk!19sChIJqZWYPIwUG0cRQwrkZMzenQ8?authuser=0&hl=tr&rclk=1",
    "website_url": "",
    "rating_text": "4,5",
    "stars": null,
    "number_of_reviews": null,
    "price_level": "",
    "open_hours": "",
    "extraction_timestamp": "2025-06-07T17:56:20.961Z",
    "source_name": "google",
    "source_query": "Irrigation Equipment",
    "source_country": "PL",
    "country": "Poland",
    "state": "Greater Poland Voivodeship",
    "city": "Grzegorzew"
  },
  {
    "source_id": "ChIJ62HV81UVG0cRa0hynyBQxYs",
    "name": "Dino",
    "category": "Dino",
    "formatted_address": "4,5(104)",
    "phone_number": "",
    "source_url": "https://www.google.com/maps/place/Dino/data=!4m7!3m6!1s0x471b1555f3d561eb:0x8bc550209f72486b!8m2!3d52.2074961!4d18.7332866!16s%2Fg%2F11r4byvn94!19sChIJ62HV81UVG0cRa0hynyBQxYs?authuser=0&hl=tr&rclk=1",
    "website_url": "",
    "rating_text": "4,5",
    "stars": null,
    "number_of_reviews": null,
    "price_level": "",
    "open_hours": "",
    "extraction_timestamp": "2025-06-07T17:56:20.962Z",
    "source_name": "google",
    "source_query": "Irrigation Equipment",
    "source_country": "PL",
    "country": "Poland",
    "state": "Greater Poland Voivodeship",
    "city": "Grzegorzew"
  },
  {
    "source_id": "ChIJeQlQJowUG0cRbKQ3eJTFLgU",
    "name": "Lux. Sklep spożywczy PSS Społem",
    "category": "Lux. Sklep spożywczy PSS Społem",
    "formatted_address": "4,2(82)",
    "phone_number": "+48632718514",
    "source_url": "https://www.google.com/maps/place/Lux.+Sklep+spo%C5%BCywczy+PSS+Spo%C5%82em/data=!4m7!3m6!1s0x471b148c26500979:0x52ec5947837a46c!8m2!3d52.2016112!4d18.7334419!16s%2Fg%2F1tdvyn9r!19sChIJeQlQJowUG0cRbKQ3eJTFLgU?authuser=0&hl=tr&rclk=1",
    "website_url": "",
    "rating_text": "4,2",
    "stars": null,
    "number_of_reviews": null,
    "price_level": "",
    "open_hours": "",
    "extraction_timestamp": "2025-06-07T17:56:20.962Z",
    "source_name": "google",
    "source_query": "Irrigation Equipment",
    "source_country": "PL",
    "country": "Poland",
    "state": "Greater Poland Voivodeship",
    "city": "Grzegorzew"
  },
  {
    "source_id": "ChIJm0Fy5-wVG0cRXnSMsvAg_JE",
    "name": "Idrante - usługi przeciwpożarowe",
    "category": "Idrante - usługi przeciwpożarowe",
    "formatted_address": "5,0(2)",
    "phone_number": "+48509365685",
    "source_url": "https://www.google.com/maps/place/Idrante+-+us%C5%82ugi+przeciwpo%C5%BCarowe/data=!4m7!3m6!1s0x471b15ece772419b:0x91fc20f0b28c745e!8m2!3d52.2001098!4d18.645056!16s%2Fg%2F11ybw5rrt3!19sChIJm0Fy5-wVG0cRXnSMsvAg_JE?authuser=0&hl=tr&rclk=1",
    "website_url": "",
    "rating_text": "5,0",
    "stars": null,
    "number_of_reviews": null,
    "price_level": "",
    "open_hours": "",
    "extraction_timestamp": "2025-06-07T17:56:20.962Z",
    "source_name": "google",
    "source_query": "Irrigation Equipment",
    "source_country": "PL",
    "country": "Poland",
    "state": "Greater Poland Voivodeship",
    "city": "Grzegorzew"
  },
  {
    "source_id": "ChIJpxaaxWNZGUcRjjHprTFlLV8",
    "name": "Hydro-System Waldemar Zimiński",
    "category": "Hydro-System Waldemar Zimiński",
    "formatted_address": "4,5(15)",
    "phone_number": "+48468568476",
    "source_url": "https://www.google.com/maps/place/Hydro-System+Waldemar+Zimi%C5%84ski/data=!4m7!3m6!1s0x47195963c59a16a7:0x5f2d6531ade9318e!8m2!3d52.1203185!4d20.3763374!16s%2Fg%2F1tf5jcy0!19sChIJpxaaxWNZGUcRjjHprTFlLV8?authuser=0&hl=tr&rclk=1",
    "website_url": "",
    "rating_text": "4,5",
    "stars": null,
    "number_of_reviews": null,
    "price_level": "",
    "open_hours": "",
    "extraction_timestamp": "2025-06-07T17:56:20.963Z",
    "source_name": "google",
    "source_query": "Irrigation Equipment",
    "source_country": "PL",
    "country": "Poland",
    "state": "Greater Poland Voivodeship",
    "city": "Grzegorzew"
  },
  {
    "source_id": "ChIJKTYEMYwUG0cRrJb_vrkxFeQ",
    "name": "APTEKA \"TWOJE LEKI\"",
    "category": "APTEKA \"TWOJE LEKI\"",
    "formatted_address": "4,5(12)",
    "phone_number": "+48632474330",
    "source_url": "https://www.google.com/maps/place/APTEKA+%22TWOJE+LEKI%22/data=!4m7!3m6!1s0x471b148c31043629:0xe41531b9beff96ac!8m2!3d52.201623!4d18.7345309!16s%2Fg%2F11hbql25fh!19sChIJKTYEMYwUG0cRrJb_vrkxFeQ?authuser=0&hl=tr&rclk=1",
    "website_url": "",
    "rating_text": "4,5",
    "stars": null,
    "number_of_reviews": null,
    "price_level": "",
    "open_hours": "",
    "extraction_timestamp": "2025-06-07T17:56:20.973Z",
    "source_name": "google",
    "source_query": "Irrigation Equipment",
    "source_country": "PL",
    "country": "Poland",
    "state": "Greater Poland Voivodeship",
    "city": "Grzegorzew"
  }
]
