[
  {
    "source_id": "ChIJUdvySo4ZBUcRR6hVUR8g0_w",
    "name": "Kacper. FHU",
    "category": "Kacper. FHU",
    "formatted_address": "4,0(71)",
    "phone_number": "+48603059805",
    "source_url": "https://www.google.com/maps/place/Kacper.+FHU/data=!4m7!3m6!1s0x4705198e4af2db51:0xfcd3201f5155a847!8m2!3d51.9688822!4d17.296086!16s%2Fg%2F1v7tk1nv!19sChIJUdvySo4ZBUcRR6hVUR8g0_w?authuser=0&hl=tr&rclk=1",
    "website_url": "",
    "rating_text": "4,0",
    "stars": null,
    "number_of_reviews": null,
    "price_level": "",
    "open_hours": "",
    "extraction_timestamp": "2025-06-07T17:58:33.283Z",
    "source_name": "google",
    "source_query": "Irrigation Equipment",
    "source_country": "PL",
    "country": "Poland",
    "state": "Greater Poland Voivodeship",
    "city": "Jaraczewo"
  },
  {
    "source_id": "ChIJi5dedbZ1-GIRyOEyTBuZoWc",
    "name": "Usługi hydrauliczne Wojciech Szabałaj",
    "category": "Usługi hydrauliczne Wojciech Szabałaj",
    "formatted_address": "",
    "phone_number": "+48666921811",
    "source_url": "https://www.google.com/maps/place/Us%C5%82ugi+hydrauliczne+Wojciech+Szaba%C5%82aj/data=!4m7!3m6!1s0x62f875b6755e978b:0x67a1991b4c32e1c8!8m2!3d54.4651795!4d18.6167865!16s%2Fg%2F11whpd7g6f!19sChIJi5dedbZ1-GIRyOEyTBuZoWc?authuser=0&hl=tr&rclk=1",
    "website_url": "",
    "rating_text": "",
    "stars": null,
    "number_of_reviews": null,
    "price_level": "",
    "open_hours": "",
    "extraction_timestamp": "2025-06-07T17:58:33.283Z",
    "source_name": "google",
    "source_query": "Irrigation Equipment",
    "source_country": "PL",
    "country": "Poland",
    "state": "Greater Poland Voivodeship",
    "city": "Jaraczewo"
  },
  {
    "source_id": "ChIJ4zc6v4hZBEcRKah1mzKBwPg",
    "name": "PHU \"ADVISER\" - Systemy nawadniania",
    "category": "PHU \"ADVISER\" - Systemy nawadniania",
    "formatted_address": "4,8(123)",
    "phone_number": "+48618798700",
    "source_url": "https://www.google.com/maps/place/PHU+%22ADVISER%22+-+Systemy+nawadniania/data=!4m7!3m6!1s0x47045988bf3a37e3:0xf8c081329b75a829!8m2!3d52.3434333!4d17.0287055!16s%2Fg%2F1w3459w5!19sChIJ4zc6v4hZBEcRKah1mzKBwPg?authuser=0&hl=tr&rclk=1",
    "website_url": "",
    "rating_text": "4,8",
    "stars": null,
    "number_of_reviews": null,
    "price_level": "",
    "open_hours": "",
    "extraction_timestamp": "2025-06-07T17:58:33.284Z",
    "source_name": "google",
    "source_query": "Irrigation Equipment",
    "source_country": "PL",
    "country": "Poland",
    "state": "Greater Poland Voivodeship",
    "city": "Jaraczewo"
  },
  {
    "source_id": "ChIJTwm5y48ZBUcRSIvVZ6BvP0s",
    "name": "Sklep Ani Wielobranżowy",
    "category": "Sklep Ani Wielobranżowy",
    "formatted_address": "5,0(1)",
    "phone_number": "",
    "source_url": "https://www.google.com/maps/place/Sklep+Ani+Wielobran%C5%BCowy/data=!4m7!3m6!1s0x4705198fcbb9094f:0x4b3f6fa067d58b48!8m2!3d51.9686943!4d17.2973693!16s%2Fg%2F11lf6wy2s8!19sChIJTwm5y48ZBUcRSIvVZ6BvP0s?authuser=0&hl=tr&rclk=1",
    "website_url": "",
    "rating_text": "5,0",
    "stars": null,
    "number_of_reviews": null,
    "price_level": "",
    "open_hours": "",
    "extraction_timestamp": "2025-06-07T17:58:33.284Z",
    "source_name": "google",
    "source_query": "Irrigation Equipment",
    "source_country": "PL",
    "country": "Poland",
    "state": "Greater Poland Voivodeship",
    "city": "Jaraczewo"
  },
  {
    "source_id": "ChIJB6y_v5J2HEcRlDfYx3xmc9M",
    "name": "Milex irrigation systems",
    "category": "Milex irrigation systems",
    "formatted_address": "4,6(37)",
    "phone_number": "+48242775222",
    "source_url": "https://www.google.com/maps/place/Milex+irrigation+systems/data=!4m7!3m6!1s0x471c7692bfbfac07:0xd373667cc7d83794!8m2!3d52.4690634!4d19.7520904!16s%2Fg%2F1w2yy67r!19sChIJB6y_v5J2HEcRlDfYx3xmc9M?authuser=0&hl=tr&rclk=1",
    "website_url": "",
    "rating_text": "4,6",
    "stars": null,
    "number_of_reviews": null,
    "price_level": "",
    "open_hours": "",
    "extraction_timestamp": "2025-06-07T17:58:33.284Z",
    "source_name": "google",
    "source_query": "Irrigation Equipment",
    "source_country": "PL",
    "country": "Poland",
    "state": "Greater Poland Voivodeship",
    "city": "Jaraczewo"
  },
  {
    "source_id": "ChIJeT1mWGydFkcR7g0XeDf1k60",
    "name": "Lewiatan",
    "category": "Lewiatan",
    "formatted_address": "4,3(237)",
    "phone_number": "+48507102066",
    "source_url": "https://www.google.com/maps/place/Lewiatan/data=!4m7!3m6!1s0x47169d6c58663d79:0xad93f53778170dee!8m2!3d51.9652834!4d17.2952876!16s%2Fg%2F11csp_5kn6!19sChIJeT1mWGydFkcR7g0XeDf1k60?authuser=0&hl=tr&rclk=1",
    "website_url": "",
    "rating_text": "4,3",
    "stars": null,
    "number_of_reviews": null,
    "price_level": "",
    "open_hours": "",
    "extraction_timestamp": "2025-06-07T17:58:33.284Z",
    "source_name": "google",
    "source_query": "Irrigation Equipment",
    "source_country": "PL",
    "country": "Poland",
    "state": "Greater Poland Voivodeship",
    "city": "Jaraczewo"
  },
  {
    "source_id": "ChIJHQJixpcZBUcRMQhge-KdvPw",
    "name": "Dino",
    "category": "Dino",
    "formatted_address": "4,5(179)",
    "phone_number": "",
    "source_url": "https://www.google.com/maps/place/Dino/data=!4m7!3m6!1s0x47051997c662021d:0xfcbc9de27b600831!8m2!3d51.968724!4d17.296879!16s%2Fg%2F11fljjntdp!19sChIJHQJixpcZBUcRMQhge-KdvPw?authuser=0&hl=tr&rclk=1",
    "website_url": "",
    "rating_text": "4,5",
    "stars": null,
    "number_of_reviews": null,
    "price_level": "",
    "open_hours": "",
    "extraction_timestamp": "2025-06-07T17:58:33.285Z",
    "source_name": "google",
    "source_query": "Irrigation Equipment",
    "source_country": "PL",
    "country": "Poland",
    "state": "Greater Poland Voivodeship",
    "city": "Jaraczewo"
  },
  {
    "source_id": "ChIJO6pBDyAZBUcR2dziFGxKQ38",
    "name": "Firma ogrodnicza CEDR",
    "category": "Firma ogrodnicza CEDR",
    "formatted_address": "",
    "phone_number": "+48694108953",
    "source_url": "https://www.google.com/maps/place/Firma+ogrodnicza+CEDR/data=!4m7!3m6!1s0x470519200f41aa3b:0x7f434a6c14e2dcd9!8m2!3d51.9908708!4d17.378452!16s%2Fg%2F11x32trfmq!19sChIJO6pBDyAZBUcR2dziFGxKQ38?authuser=0&hl=tr&rclk=1",
    "website_url": "",
    "rating_text": "",
    "stars": null,
    "number_of_reviews": null,
    "price_level": "",
    "open_hours": "",
    "extraction_timestamp": "2025-06-07T17:58:33.285Z",
    "source_name": "google",
    "source_query": "Irrigation Equipment",
    "source_country": "PL",
    "country": "Poland",
    "state": "Greater Poland Voivodeship",
    "city": "Jaraczewo"
  },
  {
    "source_id": "ChIJ2d4-0cpGBEcRTya15XLl9W0",
    "name": "POLGAR Garniewicz Wełniak spółka komandytowa",
    "category": "POLGAR Garniewicz Wełniak spółka komandytowa",
    "formatted_address": "4,5(23)",
    "phone_number": "+48618160631",
    "source_url": "https://www.google.com/maps/place/POLGAR+Garniewicz+We%C5%82niak+sp%C3%B3%C5%82ka+komandytowa/data=!4m7!3m6!1s0x470446cad13eded9:0x6df5e572e5b5264f!8m2!3d52.4535218!4d16.7706987!16s%2Fg%2F1tlzywfq!19sChIJ2d4-0cpGBEcRTya15XLl9W0?authuser=0&hl=tr&rclk=1",
    "website_url": "",
    "rating_text": "4,5",
    "stars": null,
    "number_of_reviews": null,
    "price_level": "",
    "open_hours": "",
    "extraction_timestamp": "2025-06-07T17:58:33.285Z",
    "source_name": "google",
    "source_query": "Irrigation Equipment",
    "source_country": "PL",
    "country": "Poland",
    "state": "Greater Poland Voivodeship",
    "city": "Jaraczewo"
  },
  {
    "source_id": "ChIJMelRP44ZBUcRGYe9_5w_fIA",
    "name": "Delikatesy Porzucek",
    "category": "Delikatesy Porzucek",
    "formatted_address": "4,0(4)",
    "phone_number": "",
    "source_url": "https://www.google.com/maps/place/Delikatesy+Porzucek/data=!4m7!3m6!1s0x4705198e3f51e931:0x807c3f9cffbd8719!8m2!3d51.9675765!4d17.2962823!16s%2Fg%2F11hdltt808!19sChIJMelRP44ZBUcRGYe9_5w_fIA?authuser=0&hl=tr&rclk=1",
    "website_url": "",
    "rating_text": "4,0",
    "stars": null,
    "number_of_reviews": null,
    "price_level": "",
    "open_hours": "",
    "extraction_timestamp": "2025-06-07T17:58:33.285Z",
    "source_name": "google",
    "source_query": "Irrigation Equipment",
    "source_country": "PL",
    "country": "Poland",
    "state": "Greater Poland Voivodeship",
    "city": "Jaraczewo"
  },
  {
    "source_id": "ChIJUfn2Ig35A0cREW9fZ4029UM",
    "name": "IMTechnika sp. z o.o.",
    "category": "IMTechnika sp. z o.o.",
    "formatted_address": "4,4(17)",
    "phone_number": "+48883820388",
    "source_url": "https://www.google.com/maps/place/IMTechnika+sp.+z+o.o./data=!4m7!3m6!1s0x4703f90d22f6f951:0x43f5368d675f6f11!8m2!3d52.9756271!4d16.657836!16s%2Fg%2F11bw48_6mg!19sChIJUfn2Ig35A0cREW9fZ4029UM?authuser=0&hl=tr&rclk=1",
    "website_url": "",
    "rating_text": "4,4",
    "stars": null,
    "number_of_reviews": null,
    "price_level": "",
    "open_hours": "",
    "extraction_timestamp": "2025-06-07T17:58:33.286Z",
    "source_name": "google",
    "source_query": "Irrigation Equipment",
    "source_country": "PL",
    "country": "Poland",
    "state": "Greater Poland Voivodeship",
    "city": "Jaraczewo"
  },
  {
    "source_id": "ChIJsZKbpI8ZBUcR59L53zMaiQg",
    "name": "Jakrzewska Krystyna. Sklep spożywczy",
    "category": "Jakrzewska Krystyna. Sklep spożywczy",
    "formatted_address": "5,0(1)",
    "phone_number": "+48627408407",
    "source_url": "https://www.google.com/maps/place/Jakrzewska+Krystyna.+Sklep+spo%C5%BCywczy/data=!4m7!3m6!1s0x4705198fa49b92b1:0x8891a33dff9d2e7!8m2!3d51.9693583!4d17.2988202!16s%2Fg%2F1tdvt067!19sChIJsZKbpI8ZBUcR59L53zMaiQg?authuser=0&hl=tr&rclk=1",
    "website_url": "",
    "rating_text": "5,0",
    "stars": null,
    "number_of_reviews": null,
    "price_level": "",
    "open_hours": "",
    "extraction_timestamp": "2025-06-07T17:58:33.286Z",
    "source_name": "google",
    "source_query": "Irrigation Equipment",
    "source_country": "PL",
    "country": "Poland",
    "state": "Greater Poland Voivodeship",
    "city": "Jaraczewo"
  },
  {
    "source_id": "ChIJ6TigCPtbBEcRDr5Mlbvqz0s",
    "name": "REXEL",
    "category": "REXEL",
    "formatted_address": "3,2(11)",
    "phone_number": "+48618768946",
    "source_url": "https://www.google.com/maps/place/REXEL/data=!4m7!3m6!1s0x47045bfb08a038e9:0x4bcfeabb954cbe0e!8m2!3d52.4074751!4d17.0285672!16s%2Fg%2F1th0lll2!19sChIJ6TigCPtbBEcRDr5Mlbvqz0s?authuser=0&hl=tr&rclk=1",
    "website_url": "",
    "rating_text": "3,2",
    "stars": null,
    "number_of_reviews": null,
    "price_level": "",
    "open_hours": "",
    "extraction_timestamp": "2025-06-07T17:58:33.286Z",
    "source_name": "google",
    "source_query": "Irrigation Equipment",
    "source_country": "PL",
    "country": "Poland",
    "state": "Greater Poland Voivodeship",
    "city": "Jaraczewo"
  },
  {
    "source_id": "ChIJq6BIPTmVBUcRVCEmK-n4hmc",
    "name": "HYDRAINSTAL | Kompleksowe Instalacje Hydrauliczne | Jakub Nędzyk",
    "category": "HYDRAINSTAL | Kompleksowe Instalacje Hydrauliczne | Jakub Nędzyk",
    "formatted_address": "5,0(11)",
    "phone_number": "+48795581988",
    "source_url": "https://www.google.com/maps/place/HYDRAINSTAL+%7C+Kompleksowe+Instalacje+Hydrauliczne+%7C+Jakub+N%C4%99dzyk/data=!4m7!3m6!1s0x470595393d48a0ab:0x6786f8e92b262154!8m2!3d51.8781175!4d16.3636586!16s%2Fg%2F11x7b_57fm!19sChIJq6BIPTmVBUcRVCEmK-n4hmc?authuser=0&hl=tr&rclk=1",
    "website_url": "",
    "rating_text": "5,0",
    "stars": null,
    "number_of_reviews": null,
    "price_level": "",
    "open_hours": "",
    "extraction_timestamp": "2025-06-07T17:58:33.286Z",
    "source_name": "google",
    "source_query": "Irrigation Equipment",
    "source_country": "PL",
    "country": "Poland",
    "state": "Greater Poland Voivodeship",
    "city": "Jaraczewo"
  }
]
