[
  {
    "source_id": "ChIJW7ijhaMjBUcREbrLJh9AHU8",
    "name": "Kar-System Myjki Karcher",
    "category": "Kar-System Myjki Karcher",
    "formatted_address": "4,9(32)",
    "phone_number": "+48669015322",
    "source_url": "https://www.google.com/maps/place/Kar-System+Myjki+Karcher/data=!4m7!3m6!1s0x470523a385a3b85b:0x4f1d401f26cbba11!8m2!3d51.9620971!4d17.4996692!16s%2Fg%2F1td3dqy0!19sChIJW7ijhaMjBUcREbrLJh9AHU8?authuser=0&hl=tr&rclk=1",
    "website_url": "https://kar-system.pl/",
    "rating_text": "4,9",
    "stars": null,
    "number_of_reviews": null,
    "price_level": "",
    "open_hours": "",
    "extraction_timestamp": "2025-06-07T17:45:50.554Z",
    "source_name": "google",
    "source_query": "Irrigation Equipment",
    "source_country": "PL",
    "country": "Poland",
    "state": "Greater Poland Voivodeship",
    "city": "Jarocin"
  },
  {
    "source_id": "ChIJv-ZHi5wjBUcRMEOLR71JXnA",
    "name": "Hydro-Marko",
    "category": "Hydro-Marko",
    "formatted_address": "4,5(45)",
    "phone_number": "+48627471609",
    "source_url": "https://www.google.com/maps/place/Hydro-Marko/data=!4m7!3m6!1s0x4705239c8b47e6bf:0x705e49bd478b4330!8m2!3d51.9543854!4d17.5167091!16s%2Fg%2F1tf34nqm!19sChIJv-ZHi5wjBUcRMEOLR71JXnA?authuser=0&hl=tr&rclk=1",
    "website_url": "http://www.hydro-marko.pl/",
    "rating_text": "4,5",
    "stars": null,
    "number_of_reviews": null,
    "price_level": "",
    "open_hours": "",
    "extraction_timestamp": "2025-06-07T17:45:50.556Z",
    "source_name": "google",
    "source_query": "Irrigation Equipment",
    "source_country": "PL",
    "country": "Poland",
    "state": "Greater Poland Voivodeship",
    "city": "Jarocin"
  },
  {
    "source_id": "ChIJtVGe38AjBUcRViPnRfnf_6k",
    "name": "Dommar. Shop Art. installation",
    "category": "Dommar. Shop Art. installation",
    "formatted_address": "4,6(204)",
    "phone_number": "+48627476022",
    "source_url": "https://www.google.com/maps/place/Dommar.+Shop+Art.+installation/data=!4m7!3m6!1s0x470523c0df9e51b5:0xa9ffdff945e72356!8m2!3d51.9745964!4d17.5084117!16s%2Fg%2F1tftjxn0!19sChIJtVGe38AjBUcRViPnRfnf_6k?authuser=0&hl=tr&rclk=1",
    "website_url": "http://dommar.pl/",
    "rating_text": "4,6",
    "stars": null,
    "number_of_reviews": null,
    "price_level": "",
    "open_hours": "",
    "extraction_timestamp": "2025-06-07T17:45:50.557Z",
    "source_name": "google",
    "source_query": "Irrigation Equipment",
    "source_country": "PL",
    "country": "Poland",
    "state": "Greater Poland Voivodeship",
    "city": "Jarocin"
  },
  {
    "source_id": "ChIJUXLHWrAjBUcR7SF3-qpovZo",
    "name": "P.H. Kroll s.c.",
    "category": "P.H. Kroll s.c.",
    "formatted_address": "4,7(457)",
    "phone_number": "+48627477667",
    "source_url": "https://www.google.com/maps/place/P.H.+Kroll+s.c./data=!4m7!3m6!1s0x470523b05ac77251:0x9abd68aafa7721ed!8m2!3d51.9684995!4d17.4894002!16s%2Fg%2F1vxw6znz!19sChIJUXLHWrAjBUcR7SF3-qpovZo?authuser=0&hl=tr&rclk=1",
    "website_url": "http://www.kroll.pl/",
    "rating_text": "4,7",
    "stars": null,
    "number_of_reviews": null,
    "price_level": "",
    "open_hours": "",
    "extraction_timestamp": "2025-06-07T17:45:50.558Z",
    "source_name": "google",
    "source_query": "Irrigation Equipment",
    "source_country": "PL",
    "country": "Poland",
    "state": "Greater Poland Voivodeship",
    "city": "Jarocin"
  },
  {
    "source_id": "ChIJyWPaXbcjBUcRyOdjfYS_vEQ",
    "name": "Jaroński | studnie wodomierzowe,dachowe kliny styropianowe",
    "category": "Jaroński | studnie wodomierzowe,dachowe kliny styropianowe",
    "formatted_address": "Jaroński | studnie wodomierzowe,dachowe kliny styropianowe",
    "phone_number": "+48601737523",
    "source_url": "https://www.google.com/maps/place/Jaro%C5%84ski+%7C+studnie+wodomierzowe,dachowe+kliny+styropianowe/data=!4m7!3m6!1s0x470523b75dda63c9:0x44bcbf847d63e7c8!8m2!3d51.9390687!4d17.4949197!16s%2Fg%2F11fmmdx6qx!19sChIJyWPaXbcjBUcRyOdjfYS_vEQ?authuser=0&hl=tr&rclk=1",
    "website_url": "http://www.wodomierzowe.pl/kontakt.html",
    "rating_text": "5,0",
    "stars": null,
    "number_of_reviews": null,
    "price_level": "",
    "open_hours": "",
    "extraction_timestamp": "2025-06-07T17:45:50.559Z",
    "source_name": "google",
    "source_query": "Irrigation Equipment",
    "source_country": "PL",
    "country": "Poland",
    "state": "Greater Poland Voivodeship",
    "city": "Jarocin"
  },
  {
    "source_id": "ChIJn10V9p0jBUcRvLl-QrH4Fvs",
    "name": "ITT - Filtracja",
    "category": "ITT - Filtracja",
    "formatted_address": "5,0(4)",
    "phone_number": "+48627409042",
    "source_url": "https://www.google.com/maps/place/ITT+-+Filtracja/data=!4m7!3m6!1s0x4705239df6155d9f:0xfb16f8b1427eb9bc!8m2!3d51.9622227!4d17.5063423!16s%2Fg%2F11h7bgvvdn!19sChIJn10V9p0jBUcRvLl-QrH4Fvs?authuser=0&hl=tr&rclk=1",
    "website_url": "https://itt-filtracja.pl/",
    "rating_text": "5,0",
    "stars": null,
    "number_of_reviews": null,
    "price_level": "",
    "open_hours": "",
    "extraction_timestamp": "2025-06-07T17:45:50.559Z",
    "source_name": "google",
    "source_query": "Irrigation Equipment",
    "source_country": "PL",
    "country": "Poland",
    "state": "Greater Poland Voivodeship",
    "city": "Jarocin"
  },
  {
    "source_id": "ChIJcdko5aEjBUcRBY_ru2e6F1A",
    "name": "Salon Łazienek i Techniki Grzewczej Armatura Kozłowski Jarocin (hurtownia instalacyjna, hydrauliczna)",
    "category": "Salon Łazienek i Techniki Grzewczej Armatura Kozłowski Jarocin (hurtownia instalacyjna, hydrauliczna)",
    "formatted_address": "Salon Łazienek i Techniki Grzewczej Armatura Kozłowski Jarocin (hurtownia instalacyjna, hydrauliczna)",
    "phone_number": "+48627477788",
    "source_url": "https://www.google.com/maps/place/Salon+%C5%81azienek+i+Techniki+Grzewczej+Armatura+Koz%C5%82owski+Jarocin+%28hurtownia+instalacyjna,+hydrauliczna%29/data=!4m7!3m6!1s0x470523a1e528d971:0x5017ba67bbeb8f05!8m2!3d51.9554366!4d17.5015692!16s%2Fg%2F11h0x_2sj!19sChIJcdko5aEjBUcRBY_ru2e6F1A?authuser=0&hl=tr&rclk=1",
    "website_url": "https://armatura24.pl/?utm_source=local&utm_medium=organic&utm_campaign=jarocin&utm_content=gmb",
    "rating_text": "4,2",
    "stars": null,
    "number_of_reviews": null,
    "price_level": "",
    "open_hours": "",
    "extraction_timestamp": "2025-06-07T17:45:50.560Z",
    "source_name": "google",
    "source_query": "Irrigation Equipment",
    "source_country": "PL",
    "country": "Poland",
    "state": "Greater Poland Voivodeship",
    "city": "Jarocin"
  },
  {
    "source_id": "ChIJyzdlzcAjBUcRbdzrHva5Cc0",
    "name": "Water Action s.c. Adrian Wiszniewski, Tomasz Misiak",
    "category": "Water Action s.c. Adrian Wiszniewski, Tomasz Misiak",
    "formatted_address": "Water Action s.c. Adrian Wiszniewski, Tomasz Misiak",
    "phone_number": "+48503034907",
    "source_url": "https://www.google.com/maps/place/Water+Action+s.c.+Adrian+Wiszniewski,+Tomasz+Misiak/data=!4m7!3m6!1s0x470523c0cd6537cb:0xcd09b9f61eebdc6d!8m2!3d51.973985!4d17.50695!16s%2Fg%2F11c0xd5cws!19sChIJyzdlzcAjBUcRbdzrHva5Cc0?authuser=0&hl=tr&rclk=1",
    "website_url": "http://www.wateraction.pl/",
    "rating_text": "4,8",
    "stars": null,
    "number_of_reviews": null,
    "price_level": "",
    "open_hours": "",
    "extraction_timestamp": "2025-06-07T17:45:50.561Z",
    "source_name": "google",
    "source_query": "Irrigation Equipment",
    "source_country": "PL",
    "country": "Poland",
    "state": "Greater Poland Voivodeship",
    "city": "Jarocin"
  },
  {
    "source_id": "ChIJnecU_LMjBUcRe6tfVx2Ojwc",
    "name": "Spółka Cywilna Jarogaz Witold Głowicki Zdzisław Gołembiewski",
    "category": "Spółka Cywilna Jarogaz Witold Głowicki Zdzisław Gołembiewski",
    "formatted_address": "3,7(3)",
    "phone_number": "+48627472788",
    "source_url": "https://www.google.com/maps/place/Sp%C3%B3%C5%82ka+Cywilna+Jarogaz+Witold+G%C5%82owicki+Zdzis%C5%82aw+Go%C5%82embiewski/data=!4m7!3m6!1s0x470523b3fc14e79d:0x78f8e1d575fab7b!8m2!3d51.9692881!4d17.4863183!16s%2Fg%2F11g6bjfcw3!19sChIJnecU_LMjBUcRe6tfVx2Ojwc?authuser=0&hl=tr&rclk=1",
    "website_url": "",
    "rating_text": "3,7",
    "stars": null,
    "number_of_reviews": null,
    "price_level": "",
    "open_hours": "",
    "extraction_timestamp": "2025-06-07T17:45:50.562Z",
    "source_name": "google",
    "source_query": "Irrigation Equipment",
    "source_country": "PL",
    "country": "Poland",
    "state": "Greater Poland Voivodeship",
    "city": "Jarocin"
  },
  {
    "source_id": "ChIJc2hR8r8jBUcRpCHjDCvm5ps",
    "name": "Hebo. Pompy i systemy pompowe",
    "category": "Hebo. Pompy i systemy pompowe",
    "formatted_address": "5,0(2)",
    "phone_number": "+48627478508",
    "source_url": "https://www.google.com/maps/place/Hebo.+Pompy+i+systemy+pompowe/data=!4m7!3m6!1s0x470523bff2516873:0x9be6e62b0ce321a4!8m2!3d51.9708761!4d17.5105716!16s%2Fg%2F1hc3rkc15!19sChIJc2hR8r8jBUcRpCHjDCvm5ps?authuser=0&hl=tr&rclk=1",
    "website_url": "http://hebo-pompy.pl/",
    "rating_text": "5,0",
    "stars": null,
    "number_of_reviews": null,
    "price_level": "",
    "open_hours": "",
    "extraction_timestamp": "2025-06-07T17:45:50.563Z",
    "source_name": "google",
    "source_query": "Irrigation Equipment",
    "source_country": "PL",
    "country": "Poland",
    "state": "Greater Poland Voivodeship",
    "city": "Jarocin"
  },
  {
    "source_id": "ChIJk6snZa4jBUcRATcPUI1jZD8",
    "name": "San Gaz Wodociągi kanalizacja gazociągi rura odwodnienie studnia",
    "category": "San Gaz Wodociągi kanalizacja gazociągi rura odwodnienie studnia",
    "formatted_address": "3,7(3)",
    "phone_number": "+48627477603",
    "source_url": "https://www.google.com/maps/place/San+Gaz+Wodoci%C4%85gi+kanalizacja+gazoci%C4%85gi+rura+odwodnienie+studnia/data=!4m7!3m6!1s0x470523ae6527ab93:0x3f64638d500f3701!8m2!3d51.962615!4d17.484222!16s%2Fg%2F1tdxjkr_!19sChIJk6snZa4jBUcRATcPUI1jZD8?authuser=0&hl=tr&rclk=1",
    "website_url": "http://www.sangazjarocin.pl/",
    "rating_text": "3,7",
    "stars": null,
    "number_of_reviews": null,
    "price_level": "",
    "open_hours": "",
    "extraction_timestamp": "2025-06-07T17:45:50.563Z",
    "source_name": "google",
    "source_query": "Irrigation Equipment",
    "source_country": "PL",
    "country": "Poland",
    "state": "Greater Poland Voivodeship",
    "city": "Jarocin"
  },
  {
    "source_id": "ChIJ1fc8HpkjBUcR2hQZetH7A9s",
    "name": "Bricomarché Jarocin",
    "category": "Bricomarché Jarocin",
    "formatted_address": "4,1(1.803)",
    "phone_number": "+48627479400",
    "source_url": "https://www.google.com/maps/place/Bricomarch%C3%A9+Jarocin/data=!4m7!3m6!1s0x470523991e3cf7d5:0xdb03fbd17a1914da!8m2!3d51.9567305!4d17.5087883!16s%2Fg%2F1tdq98mm!19sChIJ1fc8HpkjBUcR2hQZetH7A9s?authuser=0&hl=tr&rclk=1",
    "website_url": "https://www.bricomarche.pl/?posId=79",
    "rating_text": "4,1",
    "stars": null,
    "number_of_reviews": null,
    "price_level": "",
    "open_hours": "",
    "extraction_timestamp": "2025-06-07T17:45:50.584Z",
    "source_name": "google",
    "source_query": "Irrigation Equipment",
    "source_country": "PL",
    "country": "Poland",
    "state": "Greater Poland Voivodeship",
    "city": "Jarocin"
  },
  {
    "source_id": "ChIJdYoFxHUjBUcRfNAKYR3ujmg",
    "name": "Protect Systems s.c. - Odzież robocza Jarocin",
    "category": "Protect Systems s.c. - Odzież robocza Jarocin",
    "formatted_address": "4,9(29)",
    "phone_number": "+48570390620",
    "source_url": "https://www.google.com/maps/place/Protect+Systems+s.c.+-+Odzie%C5%BC+robocza+Jarocin/data=!4m7!3m6!1s0x47052375c4058a75:0x688eee1d610ad07c!8m2!3d51.9641029!4d17.50908!16s%2Fg%2F11mqvnlsn8!19sChIJdYoFxHUjBUcRfNAKYR3ujmg?authuser=0&hl=tr&rclk=1",
    "website_url": "http://www.odziezbhp-jarocin.pl/",
    "rating_text": "4,9",
    "stars": null,
    "number_of_reviews": null,
    "price_level": "",
    "open_hours": "",
    "extraction_timestamp": "2025-06-07T17:45:50.584Z",
    "source_name": "google",
    "source_query": "Irrigation Equipment",
    "source_country": "PL",
    "country": "Poland",
    "state": "Greater Poland Voivodeship",
    "city": "Jarocin"
  },
  {
    "source_id": "ChIJkYXxy8IjBUcRqfgCAjlD4Gk",
    "name": "Szkolenia - Hydrografika (HYDRONAUKA)",
    "category": "Szkolenia - Hydrografika (HYDRONAUKA)",
    "formatted_address": "4,8(33)",
    "phone_number": "+48514300085",
    "source_url": "https://www.google.com/maps/place/Szkolenia+-+Hydrografika+%28HYDRONAUKA%29/data=!4m7!3m6!1s0x470523c2cbf18591:0x69e043390202f8a9!8m2!3d51.981204!4d17.5166049!16s%2Fg%2F11b6nmcqqm!19sChIJkYXxy8IjBUcRqfgCAjlD4Gk?authuser=0&hl=tr&rclk=1",
    "website_url": "http://www.szkolenia-hydrografika.pl/",
    "rating_text": "4,8",
    "stars": null,
    "number_of_reviews": null,
    "price_level": "",
    "open_hours": "",
    "extraction_timestamp": "2025-06-07T17:45:50.585Z",
    "source_name": "google",
    "source_query": "Irrigation Equipment",
    "source_country": "PL",
    "country": "Poland",
    "state": "Greater Poland Voivodeship",
    "city": "Jarocin"
  },
  {
    "source_id": "ChIJMc0U18AjBUcR6Psv4MbKigc",
    "name": "Inspiro Michał Sucholiński Płytki Ceramiczne Kabiny Prysznicowe Baterie Łazienkowe Fugi Kleje",
    "category": "Inspiro Michał Sucholiński Płytki Ceramiczne Kabiny Prysznicowe Baterie Łazienkowe Fugi Kleje",
    "formatted_address": "4,5(60)",
    "phone_number": "+48601216786",
    "source_url": "https://www.google.com/maps/place/Inspiro+Micha%C5%82+Sucholi%C5%84ski+P%C5%82ytki+Ceramiczne+Kabiny+Prysznicowe+Baterie+%C5%81azienkowe+Fugi+Kleje/data=!4m7!3m6!1s0x470523c0d714cd31:0x78acac6e02ffbe8!8m2!3d51.9659096!4d17.5071827!16s%2Fg%2F11b6t4zqgx!19sChIJMc0U18AjBUcR6Psv4MbKigc?authuser=0&hl=tr&rclk=1",
    "website_url": "https://inspiro-design.pl/",
    "rating_text": "4,5",
    "stars": null,
    "number_of_reviews": null,
    "price_level": "",
    "open_hours": "",
    "extraction_timestamp": "2025-06-07T17:45:50.586Z",
    "source_name": "google",
    "source_query": "Irrigation Equipment",
    "source_country": "PL",
    "country": "Poland",
    "state": "Greater Poland Voivodeship",
    "city": "Jarocin"
  },
  {
    "source_id": "ChIJhRNWj78jBUcRBLRzAyeKFYo",
    "name": "CENTRUM OGRODNICZE Hurtownia Nasienno-Ogrodnicza \"JARNAS\"",
    "category": "CENTRUM OGRODNICZE Hurtownia Nasienno-Ogrodnicza \"JARNAS\"",
    "formatted_address": "4,7(75)",
    "phone_number": "+48500119746",
    "source_url": "https://www.google.com/maps/place/CENTRUM+OGRODNICZE+Hurtownia+Nasienno-Ogrodnicza+%22JARNAS%22/data=!4m7!3m6!1s0x470523bf8f561385:0x8a158a270373b404!8m2!3d51.9711891!4d17.5118918!16s%2Fg%2F12q4qfnhy!19sChIJhRNWj78jBUcRBLRzAyeKFYo?authuser=0&hl=tr&rclk=1",
    "website_url": "https://www.facebook.com/CentrumOgrodniczeJarnas/",
    "rating_text": "4,7",
    "stars": null,
    "number_of_reviews": null,
    "price_level": "",
    "open_hours": "",
    "extraction_timestamp": "2025-06-07T17:45:50.587Z",
    "source_name": "google",
    "source_query": "Irrigation Equipment",
    "source_country": "PL",
    "country": "Poland",
    "state": "Greater Poland Voivodeship",
    "city": "Jarocin"
  },
  {
    "source_id": "ChIJRaLJhPXfUgoRTt4_70LGDJ8",
    "name": "Jaroma Maszyny Sp. z o.o.",
    "category": "Jaroma Maszyny Sp. z o.o.",
    "formatted_address": "5,0(17)",
    "phone_number": "+48533444720",
    "source_url": "https://www.google.com/maps/place/Jaroma+Maszyny+Sp.+z+o.o./data=!4m7!3m6!1s0xa52dff584c9a245:0x9f0cc642ef3fde4e!8m2!3d51.961064!4d17.4981673!16s%2Fg%2F11sdb7b2px!19sChIJRaLJhPXfUgoRTt4_70LGDJ8?authuser=0&hl=tr&rclk=1",
    "website_url": "https://www.jaroma.com.pl/",
    "rating_text": "5,0",
    "stars": null,
    "number_of_reviews": null,
    "price_level": "",
    "open_hours": "",
    "extraction_timestamp": "2025-06-07T17:45:50.588Z",
    "source_name": "google",
    "source_query": "Irrigation Equipment",
    "source_country": "PL",
    "country": "Poland",
    "state": "Greater Poland Voivodeship",
    "city": "Jarocin"
  },
  {
    "source_id": "ChIJAQB8TaMjBUcRO-ChBVRDSY4",
    "name": "Zakuwanie I Naprawa Węży Hydraulicznych Jarocin Wielkopolska",
    "category": "Zakuwanie I Naprawa Węży Hydraulicznych Jarocin Wielkopolska",
    "formatted_address": "5,0(3)",
    "phone_number": "+48889459794",
    "source_url": "https://www.google.com/maps/place/Zakuwanie+I+Naprawa+W%C4%99%C5%BCy+Hydraulicznych+Jarocin+Wielkopolska/data=!4m7!3m6!1s0x470523a34d7c0001:0x8e49435405a1e03b!8m2!3d51.9621141!4d17.4996594!16s%2Fg%2F11fp1szpn0!19sChIJAQB8TaMjBUcRO-ChBVRDSY4?authuser=0&hl=tr&rclk=1",
    "website_url": "https://zakuwaniewezy.pl/",
    "rating_text": "5,0",
    "stars": null,
    "number_of_reviews": null,
    "price_level": "",
    "open_hours": "",
    "extraction_timestamp": "2025-06-07T17:45:50.589Z",
    "source_name": "google",
    "source_query": "Irrigation Equipment",
    "source_country": "PL",
    "country": "Poland",
    "state": "Greater Poland Voivodeship",
    "city": "Jarocin"
  },
  {
    "source_id": "ChIJQQCEGrIjBUcRw6arIDFO-7I",
    "name": "Linde Gaz Polska Sp. z o.o.Partner Handlowy",
    "category": "Linde Gaz Polska Sp. z o.o.Partner Handlowy",
    "formatted_address": "5,0(4)",
    "phone_number": "+48625941405",
    "source_url": "https://www.google.com/maps/place/Linde+Gaz+Polska+Sp.+z+o.o.Partner+Handlowy/data=!4m7!3m6!1s0x470523b21a840041:0xb2fb4e3120aba6c3!8m2!3d51.9652566!4d17.4833971!16s%2Fg%2F11c6qcsvgm!19sChIJQQCEGrIjBUcRw6arIDFO-7I?authuser=0&hl=tr&rclk=1",
    "website_url": "https://www.facebook.com/WeldCenterJarocin",
    "rating_text": "5,0",
    "stars": null,
    "number_of_reviews": null,
    "price_level": "",
    "open_hours": "",
    "extraction_timestamp": "2025-06-07T17:45:50.590Z",
    "source_name": "google",
    "source_query": "Irrigation Equipment",
    "source_country": "PL",
    "country": "Poland",
    "state": "Greater Poland Voivodeship",
    "city": "Jarocin"
  },
  {
    "source_id": "ChIJy0c8_8IjBUcR7N-BCIvHnIg",
    "name": "Jargum. PPHU Węże gumowe pcv Przewody hydrauliczne",
    "category": "Jargum. PPHU Węże gumowe pcv Przewody hydrauliczne",
    "formatted_address": "5,0(2)",
    "phone_number": "+48604209356",
    "source_url": "https://www.google.com/maps/place/Jargum.+PPHU+W%C4%99%C5%BCe+gumowe+pcv+Przewody+hydrauliczne/data=!4m7!3m6!1s0x470523c2ff3c47cb:0x889cc78b0881dfec!8m2!3d52.0061475!4d17.4778422!16s%2Fg%2F1tf85smk!19sChIJy0c8_8IjBUcR7N-BCIvHnIg?authuser=0&hl=tr&rclk=1",
    "website_url": "http://jargum.pl/",
    "rating_text": "5,0",
    "stars": null,
    "number_of_reviews": null,
    "price_level": "",
    "open_hours": "",
    "extraction_timestamp": "2025-06-07T17:45:50.591Z",
    "source_name": "google",
    "source_query": "Irrigation Equipment",
    "source_country": "PL",
    "country": "Poland",
    "state": "Greater Poland Voivodeship",
    "city": "Jarocin"
  },
  {
    "source_id": "ChIJI85i4r0jBUcRVHPCQA5ceIM",
    "name": "Dr Szprycha - Sklep rowerowy, serwis rowerów elektrycznych i hulajnóg",
    "category": "Dr Szprycha - Sklep rowerowy, serwis rowerów elektrycznych i hulajnóg",
    "formatted_address": "Dr Szprycha - Sklep rowerowy, serwis rowerów elektrycznych i hulajnóg",
    "phone_number": "+48509940669",
    "source_url": "https://www.google.com/maps/place/Dr+Szprycha+-+Sklep+rowerowy,+serwis+rower%C3%B3w+elektrycznych+i+hulajn%C3%B3g/data=!4m7!3m6!1s0x470523bde262ce23:0x83785c0e40c27354!8m2!3d51.965824!4d17.5083303!16s%2Fg%2F1hm64q00p!19sChIJI85i4r0jBUcRVHPCQA5ceIM?authuser=0&hl=tr&rclk=1",
    "website_url": "http://drszprycha.pl/",
    "rating_text": "4,2",
    "stars": null,
    "number_of_reviews": null,
    "price_level": "",
    "open_hours": "",
    "extraction_timestamp": "2025-06-07T17:45:50.592Z",
    "source_name": "google",
    "source_query": "Irrigation Equipment",
    "source_country": "PL",
    "country": "Poland",
    "state": "Greater Poland Voivodeship",
    "city": "Jarocin"
  },
  {
    "source_id": "ChIJG3FBFrwjBUcRZHvI-8Su9VY",
    "name": "Anal s.c. Jurasz J.A.",
    "category": "Anal s.c. Jurasz J.A.",
    "formatted_address": "5,0(12)",
    "phone_number": "+48625054020",
    "source_url": "https://www.google.com/maps/place/Anal+s.c.+Jurasz+J.A./data=!4m7!3m6!1s0x470523bc1641711b:0x56f5aec4fbc87b64!8m2!3d51.9661389!4d17.5031224!16s%2Fg%2F1tg_drj4!19sChIJG3FBFrwjBUcRZHvI-8Su9VY?authuser=0&hl=tr&rclk=1",
    "website_url": "",
    "rating_text": "5,0",
    "stars": null,
    "number_of_reviews": null,
    "price_level": "",
    "open_hours": "",
    "extraction_timestamp": "2025-06-07T17:45:50.593Z",
    "source_name": "google",
    "source_query": "Irrigation Equipment",
    "source_country": "PL",
    "country": "Poland",
    "state": "Greater Poland Voivodeship",
    "city": "Jarocin"
  },
  {
    "source_id": "ChIJ-UpiFJkjBUcRkn6terx_csE",
    "name": "Belinda Sp. z o.o.",
    "category": "Belinda Sp. z o.o.",
    "formatted_address": "4,1(26)",
    "phone_number": "+48627478909",
    "source_url": "https://www.google.com/maps/place/Belinda+Sp.+z+o.o./data=!4m7!3m6!1s0x4705239914624af9:0xc1727fbc7aad7e92!8m2!3d51.9566081!4d17.5091532!16s%2Fg%2F1vhq2dm2!19sChIJ-UpiFJkjBUcRkn6terx_csE?authuser=0&hl=tr&rclk=1",
    "website_url": "https://www.bisnode.pl/firma/?id=1839604&nazwa=BELINDA_SP_Z_O_O",
    "rating_text": "4,1",
    "stars": null,
    "number_of_reviews": null,
    "price_level": "",
    "open_hours": "",
    "extraction_timestamp": "2025-06-07T17:45:50.594Z",
    "source_name": "google",
    "source_query": "Irrigation Equipment",
    "source_country": "PL",
    "country": "Poland",
    "state": "Greater Poland Voivodeship",
    "city": "Jarocin"
  },
  {
    "source_id": "ChIJ80WT_LgjBUcRHwRiMoY9zI0",
    "name": "Natura drugstore",
    "category": "Natura drugstore",
    "formatted_address": "4,6(45)",
    "phone_number": "+48883378432",
    "source_url": "https://www.google.com/maps/place/Natura+drugstore/data=!4m7!3m6!1s0x470523b8fc9345f3:0x8dcc3d863262041f!8m2!3d51.9706543!4d17.5003804!16s%2Fg%2F1wd3trnr!19sChIJ80WT_LgjBUcRHwRiMoY9zI0?authuser=0&hl=tr&rclk=1",
    "website_url": "https://drogerienatura.pl/",
    "rating_text": "4,6",
    "stars": null,
    "number_of_reviews": null,
    "price_level": "",
    "open_hours": "",
    "extraction_timestamp": "2025-06-07T17:45:50.596Z",
    "source_name": "google",
    "source_query": "Irrigation Equipment",
    "source_country": "PL",
    "country": "Poland",
    "state": "Greater Poland Voivodeship",
    "city": "Jarocin"
  },
  {
    "source_id": "ChIJebbBX7wjBUcR_rw9SKk0EKY",
    "name": "NOVA Drogeria Perfumeria Jarocin",
    "category": "NOVA Drogeria Perfumeria Jarocin",
    "formatted_address": "4,8(127)",
    "phone_number": "+48627472017",
    "source_url": "https://www.google.com/maps/place/NOVA+Drogeria+Perfumeria+Jarocin/data=!4m7!3m6!1s0x470523bc5fc1b679:0xa61034a9483dbcfe!8m2!3d51.964652!4d17.5023538!16s%2Fg%2F1tfvfxzg!19sChIJebbBX7wjBUcR_rw9SKk0EKY?authuser=0&hl=tr&rclk=1",
    "website_url": "https://www.facebook.com/NovaKosmeteriaJarocin/",
    "rating_text": "4,8",
    "stars": null,
    "number_of_reviews": null,
    "price_level": "",
    "open_hours": "",
    "extraction_timestamp": "2025-06-07T17:45:50.597Z",
    "source_name": "google",
    "source_query": "Irrigation Equipment",
    "source_country": "PL",
    "country": "Poland",
    "state": "Greater Poland Voivodeship",
    "city": "Jarocin"
  },
  {
    "source_id": "ChIJ19_GA7kjBUcR8HlT9r-EVX0",
    "name": "Sklep \"PROMILEK\"",
    "category": "Sklep \"PROMILEK\"",
    "formatted_address": "4,7(48)",
    "phone_number": "+48690426777",
    "source_url": "https://www.google.com/maps/place/Sklep+%22PROMILEK%22/data=!4m7!3m6!1s0x470523b903c6dfd7:0x7d5584bff65379f0!8m2!3d51.9700852!4d17.5002447!16s%2Fg%2F11cjj67g8n!19sChIJ19_GA7kjBUcR8HlT9r-EVX0?authuser=0&hl=tr&rclk=1",
    "website_url": "https://mapa.targeo.pl/promilek-paderewskiego-ignacego-jana-1-63-200-jarocin~5543369/monopolowy-sklep/adres",
    "rating_text": "4,7",
    "stars": null,
    "number_of_reviews": null,
    "price_level": "",
    "open_hours": "",
    "extraction_timestamp": "2025-06-07T17:45:50.597Z",
    "source_name": "google",
    "source_query": "Irrigation Equipment",
    "source_country": "PL",
    "country": "Poland",
    "state": "Greater Poland Voivodeship",
    "city": "Jarocin"
  },
  {
    "source_id": "ChIJJ0bHSsUlBUcRZ52YV8bfFqI",
    "name": "OGRODY \"Zielony\" Gajewski Grzegorz Jarocin",
    "category": "OGRODY \"Zielony\" Gajewski Grzegorz Jarocin",
    "formatted_address": "4,8(6)",
    "phone_number": "+48722100905",
    "source_url": "https://www.google.com/maps/place/OGRODY+%22Zielony%22+Gajewski+Grzegorz+Jarocin/data=!4m7!3m6!1s0x470525c54ac74627:0xa216dfc657989d67!8m2!3d51.9456628!4d17.5784526!16s%2Fg%2F11g_qzj_vx!19sChIJJ0bHSsUlBUcRZ52YV8bfFqI?authuser=0&hl=tr&rclk=1",
    "website_url": "http://www.ogrodyzielony.pl/",
    "rating_text": "4,8",
    "stars": null,
    "number_of_reviews": null,
    "price_level": "",
    "open_hours": "",
    "extraction_timestamp": "2025-06-07T17:45:50.598Z",
    "source_name": "google",
    "source_query": "Irrigation Equipment",
    "source_country": "PL",
    "country": "Poland",
    "state": "Greater Poland Voivodeship",
    "city": "Jarocin"
  },
  {
    "source_id": "ChIJ0YxFo5AjBUcRPCbhWhQfEHQ",
    "name": "Izabel. Kujawa I.",
    "category": "Izabel. Kujawa I.",
    "formatted_address": "4,6(19)",
    "phone_number": "+48662821090",
    "source_url": "https://www.google.com/maps/place/Izabel.+Kujawa+I./data=!4m7!3m6!1s0x47052390a3458cd1:0x74101f145ae1263c!8m2!3d51.960855!4d17.515619!16s%2Fg%2F1hc7bksg3!19sChIJ0YxFo5AjBUcRPCbhWhQfEHQ?authuser=0&hl=tr&rclk=1",
    "website_url": "",
    "rating_text": "4,6",
    "stars": null,
    "number_of_reviews": null,
    "price_level": "",
    "open_hours": "",
    "extraction_timestamp": "2025-06-07T17:45:50.599Z",
    "source_name": "google",
    "source_query": "Irrigation Equipment",
    "source_country": "PL",
    "country": "Poland",
    "state": "Greater Poland Voivodeship",
    "city": "Jarocin"
  },
  {
    "source_id": "ChIJvbed5gAjBUcRQ0POYW7xhD4",
    "name": "Sklep Konopiejka - produkty z lnu, konopi i miedzi (odzież lniana i konopna, olejki CBD / CBG, miedziane naczynia i świece)",
    "category": "Sklep Konopiejka - produkty z lnu, konopi i miedzi (odzież lniana i konopna, olejki CBD / CBG, miedziane naczynia i świece)",
    "formatted_address": "Sklep Konopiejka - produkty z lnu, konopi i miedzi (odzież lniana i konopna, olejki CBD / CBG, miedziane naczynia i świece)",
    "phone_number": "+48786203660",
    "source_url": "https://www.google.com/maps/place/Sklep+Konopiejka+-+produkty+z+lnu,+konopi+i+miedzi+%28odzie%C5%BC+lniana+i+konopna,+olejki+CBD+%2F+CBG,+miedziane+naczynia+i+%C5%9Bwiece%29/data=!4m7!3m6!1s0x47052300e69db7bd:0x3e84f16e61ce4343!8m2!3d51.9672324!4d17.5011865!16s%2Fg%2F11vr0jkx5h!19sChIJvbed5gAjBUcRQ0POYW7xhD4?authuser=0&hl=tr&rclk=1",
    "website_url": "https://sklepkonopiejka.pl/",
    "rating_text": "5,0",
    "stars": null,
    "number_of_reviews": null,
    "price_level": "",
    "open_hours": "",
    "extraction_timestamp": "2025-06-07T17:45:50.600Z",
    "source_name": "google",
    "source_query": "Irrigation Equipment",
    "source_country": "PL",
    "country": "Poland",
    "state": "Greater Poland Voivodeship",
    "city": "Jarocin"
  },
  {
    "source_id": "ChIJt0sqA7YjBUcR1pgM5vr60Tc",
    "name": "Marco Polo. Sklep wielobranżowy",
    "category": "Marco Polo. Sklep wielobranżowy",
    "formatted_address": "4,4(20)",
    "phone_number": "+48627472358",
    "source_url": "https://www.google.com/maps/place/Marco+Polo.+Sklep+wielobran%C5%BCowy/data=!4m7!3m6!1s0x470523b6032a4bb7:0x37d1fafae60c98d6!8m2!3d51.9741137!4d17.4915587!16s%2Fg%2F1thxtxx7!19sChIJt0sqA7YjBUcR1pgM5vr60Tc?authuser=0&hl=tr&rclk=1",
    "website_url": "",
    "rating_text": "4,4",
    "stars": null,
    "number_of_reviews": null,
    "price_level": "",
    "open_hours": "",
    "extraction_timestamp": "2025-06-07T17:45:50.601Z",
    "source_name": "google",
    "source_query": "Irrigation Equipment",
    "source_country": "PL",
    "country": "Poland",
    "state": "Greater Poland Voivodeship",
    "city": "Jarocin"
  },
  {
    "source_id": "ChIJgTaM-UYjBUcRtyRpQu-qm14",
    "name": "ZABAWKI BORYS",
    "category": "ZABAWKI BORYS",
    "formatted_address": "4,7(212)",
    "phone_number": "+48519168989",
    "source_url": "https://www.google.com/maps/place/ZABAWKI+BORYS/data=!4m7!3m6!1s0x47052346f98c3681:0x5e9baaef426924b7!8m2!3d51.9585282!4d17.5008107!16s%2Fg%2F11h565mnp5!19sChIJgTaM-UYjBUcRtyRpQu-qm14?authuser=0&hl=tr&rclk=1",
    "website_url": "",
    "rating_text": "4,7",
    "stars": null,
    "number_of_reviews": null,
    "price_level": "",
    "open_hours": "",
    "extraction_timestamp": "2025-06-07T17:45:50.602Z",
    "source_name": "google",
    "source_query": "Irrigation Equipment",
    "source_country": "PL",
    "country": "Poland",
    "state": "Greater Poland Voivodeship",
    "city": "Jarocin"
  },
  {
    "source_id": "ChIJB3UgLDkjBUcR92VcA0zZ-Ck",
    "name": "PSB Mrówka",
    "category": "PSB Mrówka",
    "formatted_address": "4,3(220)",
    "phone_number": "+48627232000",
    "source_url": "https://www.google.com/maps/place/PSB+Mr%C3%B3wka/data=!4m7!3m6!1s0x470523392c207507:0x29f8d94c035c65f7!8m2!3d51.969182!4d17.5093708!16s%2Fg%2F11t57jl1sm!19sChIJB3UgLDkjBUcR92VcA0zZ-Ck?authuser=0&hl=tr&rclk=1",
    "website_url": "http://mrowka-jarocin.pl/",
    "rating_text": "4,3",
    "stars": null,
    "number_of_reviews": null,
    "price_level": "",
    "open_hours": "",
    "extraction_timestamp": "2025-06-07T17:45:50.603Z",
    "source_name": "google",
    "source_query": "Irrigation Equipment",
    "source_country": "PL",
    "country": "Poland",
    "state": "Greater Poland Voivodeship",
    "city": "Jarocin"
  }
]
