[
  {
    "source_id": "ChIJJ-4N4nbXA0cRh7knWGHbrdY",
    "name": "Z.U.H. Automech s.c.",
    "category": "Z.U.H. Automech s.c.",
    "formatted_address": "4,8(37)",
    "phone_number": "+48672663676",
    "source_url": "https://www.google.com/maps/place/Z.U.H.+Automech+s.c./data=!4m7!3m6!1s0x4703d776e20dee27:0xd6addb615827b987!8m2!3d53.431115!4d16.8293515!16s%2Fg%2F1tl9l8h0!19sChIJJ-4N4nbXA0cRh7knWGHbrdY?authuser=0&hl=tr&rclk=1",
    "website_url": "",
    "rating_text": "4,8",
    "stars": null,
    "number_of_reviews": null,
    "price_level": "",
    "open_hours": "",
    "extraction_timestamp": "2025-06-07T17:42:03.613Z",
    "source_name": "google",
    "source_query": "Irrigation Equipment",
    "source_country": "PL",
    "country": "Poland",
    "state": "Greater Poland Voivodeship",
    "city": "Jastrowie"
  },
  {
    "source_id": "ChIJvSVbQLnXA0cROzeRYCG8DXk",
    "name": "PPHU Jan Romańczuk. Hydraulika, Elektryka",
    "category": "PPHU Jan Romańczuk. Hydraulika, Elektryka",
    "formatted_address": "PPHU Jan Romańczuk. Hydraulika, Elektryka",
    "phone_number": "+48509013888",
    "source_url": "https://www.google.com/maps/place/PPHU+Jan+Roma%C5%84czuk.+Hydraulika,+Elektryka/data=!4m7!3m6!1s0x4703d7b9405b25bd:0x790dbc216091373b!8m2!3d53.4204633!4d16.8112516!16s%2Fg%2F11fct4m7j_!19sChIJvSVbQLnXA0cROzeRYCG8DXk?authuser=0&hl=tr&rclk=1",
    "website_url": "",
    "rating_text": "5,0",
    "stars": null,
    "number_of_reviews": null,
    "price_level": "",
    "open_hours": "",
    "extraction_timestamp": "2025-06-07T17:42:03.613Z",
    "source_name": "google",
    "source_query": "Irrigation Equipment",
    "source_country": "PL",
    "country": "Poland",
    "state": "Greater Poland Voivodeship",
    "city": "Jastrowie"
  },
  {
    "source_id": "ChIJQW6bdzr44UYRkfLyt4KTPIQ",
    "name": "HIPPER.pl",
    "category": "HIPPER.pl",
    "formatted_address": "4,3(60)",
    "phone_number": "+48500019393",
    "source_url": "https://www.google.com/maps/place/HIPPER.pl/data=!4m7!3m6!1s0x46e1f83a779b6e41:0x843c9382b7f2f291!8m2!3d53.414349!4d16.8017927!16s%2Fg%2F11fd3qp4km!19sChIJQW6bdzr44UYRkfLyt4KTPIQ?authuser=0&hl=tr&rclk=1",
    "website_url": "",
    "rating_text": "4,3",
    "stars": null,
    "number_of_reviews": null,
    "price_level": "",
    "open_hours": "",
    "extraction_timestamp": "2025-06-07T17:42:03.615Z",
    "source_name": "google",
    "source_query": "Irrigation Equipment",
    "source_country": "PL",
    "country": "Poland",
    "state": "Greater Poland Voivodeship",
    "city": "Jastrowie"
  },
  {
    "source_id": "ChIJ4ad0E5_XA0cRZmoAB2NZvYA",
    "name": "Cydro-Win Paweł Rudnik",
    "category": "Cydro-Win Paweł Rudnik",
    "formatted_address": "5,0(7)",
    "phone_number": "+48532232555",
    "source_url": "https://www.google.com/maps/place/Cydro-Win+Pawe%C5%82+Rudnik/data=!4m7!3m6!1s0x4703d79f1374a7e1:0x80bd596307006a66!8m2!3d53.4280006!4d16.8301717!16s%2Fg%2F11v50fbwwp!19sChIJ4ad0E5_XA0cRZmoAB2NZvYA?authuser=0&hl=tr&rclk=1",
    "website_url": "",
    "rating_text": "5,0",
    "stars": null,
    "number_of_reviews": null,
    "price_level": "",
    "open_hours": "",
    "extraction_timestamp": "2025-06-07T17:42:03.615Z",
    "source_name": "google",
    "source_query": "Irrigation Equipment",
    "source_country": "PL",
    "country": "Poland",
    "state": "Greater Poland Voivodeship",
    "city": "Jastrowie"
  },
  {
    "source_id": "ChIJn8GOcIDXA0cRad0aUUXsozk",
    "name": "Łuk-Mar",
    "category": "Łuk-Mar",
    "formatted_address": "4,7(7)",
    "phone_number": "+48672662206",
    "source_url": "https://www.google.com/maps/place/%C5%81uk-Mar/data=!4m7!3m6!1s0x4703d780708ec19f:0x39a3ec45511add69!8m2!3d53.4199942!4d16.813621!16s%2Fg%2F1tppqnz1!19sChIJn8GOcIDXA0cRad0aUUXsozk?authuser=0&hl=tr&rclk=1",
    "website_url": "",
    "rating_text": "4,7",
    "stars": null,
    "number_of_reviews": null,
    "price_level": "",
    "open_hours": "",
    "extraction_timestamp": "2025-06-07T17:42:03.616Z",
    "source_name": "google",
    "source_query": "Irrigation Equipment",
    "source_country": "PL",
    "country": "Poland",
    "state": "Greater Poland Voivodeship",
    "city": "Jastrowie"
  },
  {
    "source_id": "ChIJfebb-uHZA0cRhwjC6Fa9iPc",
    "name": "Plaża Miejska",
    "category": "Plaża Miejska",
    "formatted_address": "4,1(230)",
    "phone_number": "",
    "source_url": "https://www.google.com/maps/place/Pla%C5%BCa+Miejska/data=!4m7!3m6!1s0x4703d9e1fadbe67d:0xf788bd56e8c20887!8m2!3d53.4132665!4d16.8536389!16s%2Fg%2F11clyx4mlm!19sChIJfebb-uHZA0cRhwjC6Fa9iPc?authuser=0&hl=tr&rclk=1",
    "website_url": "",
    "rating_text": "4,1",
    "stars": null,
    "number_of_reviews": null,
    "price_level": "",
    "open_hours": "",
    "extraction_timestamp": "2025-06-07T17:42:03.616Z",
    "source_name": "google",
    "source_query": "Irrigation Equipment",
    "source_country": "PL",
    "country": "Poland",
    "state": "Greater Poland Voivodeship",
    "city": "Jastrowie"
  },
  {
    "source_id": "ChIJj5ki4X_XA0cR9MWer0YkVvE",
    "name": "Kiciuś",
    "category": "Kiciuś",
    "formatted_address": "4,4(29)",
    "phone_number": "+48668384990",
    "source_url": "https://www.google.com/maps/place/Kiciu%C5%9B/data=!4m7!3m6!1s0x4703d77fe122998f:0xf1562446af9ec5f4!8m2!3d53.4202544!4d16.8139154!16s%2Fg%2F1tm0rvyq!19sChIJj5ki4X_XA0cR9MWer0YkVvE?authuser=0&hl=tr&rclk=1",
    "website_url": "",
    "rating_text": "4,4",
    "stars": null,
    "number_of_reviews": null,
    "price_level": "",
    "open_hours": "",
    "extraction_timestamp": "2025-06-07T17:42:03.617Z",
    "source_name": "google",
    "source_query": "Irrigation Equipment",
    "source_country": "PL",
    "country": "Poland",
    "state": "Greater Poland Voivodeship",
    "city": "Jastrowie"
  },
  {
    "source_id": "ChIJsejgVX7XA0cRbQuh2sZkdmA",
    "name": "Janmar s.c. PHU. Świątkowski J., Wodziński M.",
    "category": "Janmar s.c. PHU. Świątkowski J., Wodziński M.",
    "formatted_address": "Janmar s.c. PHU. Świątkowski J., Wodziński M.",
    "phone_number": "+48882566963",
    "source_url": "https://www.google.com/maps/place/Janmar+s.c.+PHU.+%C5%9Awi%C4%85tkowski+J.,+Wodzi%C5%84ski+M./data=!4m7!3m6!1s0x4703d77e55e0e8b1:0x607664c6daa10b6d!8m2!3d53.420314!4d16.8208038!16s%2Fg%2F1tlc6s0x!19sChIJsejgVX7XA0cRbQuh2sZkdmA?authuser=0&hl=tr&rclk=1",
    "website_url": "",
    "rating_text": "4,8",
    "stars": null,
    "number_of_reviews": null,
    "price_level": "",
    "open_hours": "",
    "extraction_timestamp": "2025-06-07T17:42:03.618Z",
    "source_name": "google",
    "source_query": "Irrigation Equipment",
    "source_country": "PL",
    "country": "Poland",
    "state": "Greater Poland Voivodeship",
    "city": "Jastrowie"
  },
  {
    "source_id": "ChIJjZK5FYDXA0cR_avbCds1pmk",
    "name": "Agmar s.c. Sklep spożywczo - przemysłowy. Bryda G.L.",
    "category": "Agmar s.c. Sklep spożywczo - przemysłowy. Bryda G.L.",
    "formatted_address": "4,5(2)",
    "phone_number": "+48601835380",
    "source_url": "https://www.google.com/maps/place/Agmar+s.c.+Sklep+spo%C5%BCywczo+-+przemys%C5%82owy.+Bryda+G.L./data=!4m7!3m6!1s0x4703d78015b9928d:0x69a635db09dbabfd!8m2!3d53.420757!4d16.814909!16s%2Fg%2F1tcvy355!19sChIJjZK5FYDXA0cR_avbCds1pmk?authuser=0&hl=tr&rclk=1",
    "website_url": "",
    "rating_text": "4,5",
    "stars": null,
    "number_of_reviews": null,
    "price_level": "",
    "open_hours": "",
    "extraction_timestamp": "2025-06-07T17:42:03.618Z",
    "source_name": "google",
    "source_query": "Irrigation Equipment",
    "source_country": "PL",
    "country": "Poland",
    "state": "Greater Poland Voivodeship",
    "city": "Jastrowie"
  },
  {
    "source_id": "ChIJ3wWgBWHXA0cR7up0Eeb-vRA",
    "name": "\"Pupilowo\". Sklep Zoologiczny.",
    "category": "\"Pupilowo\". Sklep Zoologiczny.",
    "formatted_address": "5,0(28)",
    "phone_number": "+48509505636",
    "source_url": "https://www.google.com/maps/place/%22Pupilowo%22.+Sklep+Zoologiczny./data=!4m7!3m6!1s0x4703d76105a005df:0x10bdfee61174eaee!8m2!3d53.4187326!4d16.8267116!16s%2Fg%2F11q460nhvc!19sChIJ3wWgBWHXA0cR7up0Eeb-vRA?authuser=0&hl=tr&rclk=1",
    "website_url": "",
    "rating_text": "5,0",
    "stars": null,
    "number_of_reviews": null,
    "price_level": "",
    "open_hours": "",
    "extraction_timestamp": "2025-06-07T17:42:03.619Z",
    "source_name": "google",
    "source_query": "Irrigation Equipment",
    "source_country": "PL",
    "country": "Poland",
    "state": "Greater Poland Voivodeship",
    "city": "Jastrowie"
  },
  {
    "source_id": "ChIJc-05aH_XA0cRgrYe2SZcr34",
    "name": "Tomex",
    "category": "Tomex",
    "formatted_address": "4,5(2)",
    "phone_number": "+48672663657",
    "source_url": "https://www.google.com/maps/place/Tomex/data=!4m7!3m6!1s0x4703d77f6839ed73:0x7eaf5c26d91eb682!8m2!3d53.4223809!4d16.8191886!16s%2Fg%2F1tm8cpl7!19sChIJc-05aH_XA0cRgrYe2SZcr34?authuser=0&hl=tr&rclk=1",
    "website_url": "",
    "rating_text": "4,5",
    "stars": null,
    "number_of_reviews": null,
    "price_level": "",
    "open_hours": "",
    "extraction_timestamp": "2025-06-07T17:42:03.620Z",
    "source_name": "google",
    "source_query": "Irrigation Equipment",
    "source_country": "PL",
    "country": "Poland",
    "state": "Greater Poland Voivodeship",
    "city": "Jastrowie"
  },
  {
    "source_id": "ChIJa3wRJoDXA0cRIC3-HgvNy_Q",
    "name": "Dom handlowy GS Samopomoc Chłopska",
    "category": "Dom handlowy GS Samopomoc Chłopska",
    "formatted_address": "5,0(1)",
    "phone_number": "+48672662149",
    "source_url": "https://www.google.com/maps/place/Dom+handlowy+GS+Samopomoc+Ch%C5%82opska/data=!4m7!3m6!1s0x4703d78026117c6b:0xf4cbcd0b1efe2d20!8m2!3d53.421011!4d16.816665!16s%2Fg%2F1v_0hgh3!19sChIJa3wRJoDXA0cRIC3-HgvNy_Q?authuser=0&hl=tr&rclk=1",
    "website_url": "",
    "rating_text": "5,0",
    "stars": null,
    "number_of_reviews": null,
    "price_level": "",
    "open_hours": "",
    "extraction_timestamp": "2025-06-07T17:42:03.620Z",
    "source_name": "google",
    "source_query": "Irrigation Equipment",
    "source_country": "PL",
    "country": "Poland",
    "state": "Greater Poland Voivodeship",
    "city": "Jastrowie"
  },
  {
    "source_id": "ChIJcVjcX2LXA0cR3DYNkLI0zOY",
    "name": "W.P.H.U. \"Delfin\" Sklep zoologiczny Jastrowie",
    "category": "W.P.H.U. \"Delfin\" Sklep zoologiczny Jastrowie",
    "formatted_address": "4,8(5)",
    "phone_number": "",
    "source_url": "https://www.google.com/maps/place/W.P.H.U.+%22Delfin%22+Sklep+zoologiczny+Jastrowie/data=!4m7!3m6!1s0x4703d7625fdc5871:0xe6cc34b2900d36dc!8m2!3d53.4202544!4d16.8139154!16s%2Fg%2F11ln1h3qxk!19sChIJcVjcX2LXA0cR3DYNkLI0zOY?authuser=0&hl=tr&rclk=1",
    "website_url": "",
    "rating_text": "4,8",
    "stars": null,
    "number_of_reviews": null,
    "price_level": "",
    "open_hours": "",
    "extraction_timestamp": "2025-06-07T17:42:03.620Z",
    "source_name": "google",
    "source_query": "Irrigation Equipment",
    "source_country": "PL",
    "country": "Poland",
    "state": "Greater Poland Voivodeship",
    "city": "Jastrowie"
  },
  {
    "source_id": "ChIJ574Jb4DXA0cRnmVxfzxO8Io",
    "name": "Lewiatan",
    "category": "Lewiatan",
    "formatted_address": "4,3(153)",
    "phone_number": "",
    "source_url": "https://www.google.com/maps/place/Lewiatan/data=!4m7!3m6!1s0x4703d7806f09bee7:0x8af04e3c7f71659e!8m2!3d53.4201898!4d16.813819!16s%2Fg%2F1hc1htj7k!19sChIJ574Jb4DXA0cRnmVxfzxO8Io?authuser=0&hl=tr&rclk=1",
    "website_url": "",
    "rating_text": "4,3",
    "stars": null,
    "number_of_reviews": null,
    "price_level": "",
    "open_hours": "",
    "extraction_timestamp": "2025-06-07T17:42:03.621Z",
    "source_name": "google",
    "source_query": "Irrigation Equipment",
    "source_country": "PL",
    "country": "Poland",
    "state": "Greater Poland Voivodeship",
    "city": "Jastrowie"
  },
  {
    "source_id": "ChIJUWphbP_XA0cRHMmRNaMsJ9E",
    "name": "Dino",
    "category": "Dino",
    "formatted_address": "4,4(37)",
    "phone_number": "",
    "source_url": "https://www.google.com/maps/place/Dino/data=!4m7!3m6!1s0x4703d7ff6c616a51:0xd1272ca33591c91c!8m2!3d53.4038132!4d16.7910027!16s%2Fg%2F11hndhwvn4!19sChIJUWphbP_XA0cRHMmRNaMsJ9E?authuser=0&hl=tr&rclk=1",
    "website_url": "",
    "rating_text": "4,4",
    "stars": null,
    "number_of_reviews": null,
    "price_level": "",
    "open_hours": "",
    "extraction_timestamp": "2025-06-07T17:42:03.621Z",
    "source_name": "google",
    "source_query": "Irrigation Equipment",
    "source_country": "PL",
    "country": "Poland",
    "state": "Greater Poland Voivodeship",
    "city": "Jastrowie"
  },
  {
    "source_id": "ChIJoxbGQvnXA0cRqm3KbiioHfQ",
    "name": "Targowisko Miejskie",
    "category": "Targowisko Miejskie",
    "formatted_address": "4,1(8)",
    "phone_number": "+48672662211",
    "source_url": "https://www.google.com/maps/place/Targowisko+Miejskie/data=!4m7!3m6!1s0x4703d7f942c616a3:0xf41da8286eca6daa!8m2!3d53.4188379!4d16.8264101!16s%2Fg%2F11gmtbd898!19sChIJoxbGQvnXA0cRqm3KbiioHfQ?authuser=0&hl=tr&rclk=1",
    "website_url": "",
    "rating_text": "4,1",
    "stars": null,
    "number_of_reviews": null,
    "price_level": "",
    "open_hours": "",
    "extraction_timestamp": "2025-06-07T17:42:03.622Z",
    "source_name": "google",
    "source_query": "Irrigation Equipment",
    "source_country": "PL",
    "country": "Poland",
    "state": "Greater Poland Voivodeship",
    "city": "Jastrowie"
  },
  {
    "source_id": "ChIJx2cHMn7XA0cRbZy7GYZ9Ytc",
    "name": "Market Dino - Jastrowie1",
    "category": "Market Dino - Jastrowie1",
    "formatted_address": "4,3(391)",
    "phone_number": "",
    "source_url": "https://www.google.com/maps/place/Market+Dino+-+Jastrowie1/data=!4m7!3m6!1s0x4703d77e320767c7:0xd7627d8619bb9c6d!8m2!3d53.4192088!4d16.8207505!16s%2Fg%2F11cls6nrvh!19sChIJx2cHMn7XA0cRbZy7GYZ9Ytc?authuser=0&hl=tr&rclk=1",
    "website_url": "",
    "rating_text": "4,3",
    "stars": null,
    "number_of_reviews": null,
    "price_level": "",
    "open_hours": "",
    "extraction_timestamp": "2025-06-07T17:42:03.622Z",
    "source_name": "google",
    "source_query": "Irrigation Equipment",
    "source_country": "PL",
    "country": "Poland",
    "state": "Greater Poland Voivodeship",
    "city": "Jastrowie"
  },
  {
    "source_id": "ChIJQ4GDUV7XA0cRhtBL1Pz8sqE",
    "name": "Drogeria Rossmann",
    "category": "Drogeria Rossmann",
    "formatted_address": "4,6(18)",
    "phone_number": "+48426139700",
    "source_url": "https://www.google.com/maps/place/Drogeria+Rossmann/data=!4m7!3m6!1s0x4703d75e51838143:0xa1b2fcfcd44bd086!8m2!3d53.419351!4d16.8200864!16s%2Fg%2F11t9ws810s!19sChIJQ4GDUV7XA0cRhtBL1Pz8sqE?authuser=0&hl=tr&rclk=1",
    "website_url": "",
    "rating_text": "4,6",
    "stars": null,
    "number_of_reviews": null,
    "price_level": "",
    "open_hours": "",
    "extraction_timestamp": "2025-06-07T17:42:03.623Z",
    "source_name": "google",
    "source_query": "Irrigation Equipment",
    "source_country": "PL",
    "country": "Poland",
    "state": "Greater Poland Voivodeship",
    "city": "Jastrowie"
  },
  {
    "source_id": "ChIJ547RclbZA0cRSbVWpoDv7dc",
    "name": "Biedronka",
    "category": "Biedronka",
    "formatted_address": "4,4(262)",
    "phone_number": "+48800080010",
    "source_url": "https://www.google.com/maps/place/Biedronka/data=!4m7!3m6!1s0x4703d95672d18ee7:0xd7edef80a656b549!8m2!3d53.415141!4d16.8029025!16s%2Fg%2F11spx6_mp8!19sChIJ547RclbZA0cRSbVWpoDv7dc?authuser=0&hl=tr&rclk=1",
    "website_url": "",
    "rating_text": "4,4",
    "stars": null,
    "number_of_reviews": null,
    "price_level": "",
    "open_hours": "",
    "extraction_timestamp": "2025-06-07T17:42:03.623Z",
    "source_name": "google",
    "source_query": "Irrigation Equipment",
    "source_country": "PL",
    "country": "Poland",
    "state": "Greater Poland Voivodeship",
    "city": "Jastrowie"
  },
  {
    "source_id": "ChIJm-ZsYu_bA0cRTUiN83a6ZLM",
    "name": "WARTER WOJCIECH RYCHLIK sp.k. Oddział w Tarnowskim Młynie. Fabryka tektury i papieru",
    "category": "WARTER WOJCIECH RYCHLIK sp.k. Oddział w Tarnowskim Młynie. Fabryka tektury i papieru",
    "formatted_address": "3,9(56)",
    "phone_number": "+48672664001",
    "source_url": "https://www.google.com/maps/place/WARTER+WOJCIECH+RYCHLIK+sp.k.+Oddzia%C5%82+w+Tarnowskim+M%C5%82ynie.+Fabryka+tektury+i+papieru/data=!4m7!3m6!1s0x4703dbef626ce69b:0xb364ba76f38d484d!8m2!3d53.3476525!4d16.8163066!16s%2Fg%2F1tdgt2l8!19sChIJm-ZsYu_bA0cRTUiN83a6ZLM?authuser=0&hl=tr&rclk=1",
    "website_url": "",
    "rating_text": "3,9",
    "stars": null,
    "number_of_reviews": null,
    "price_level": "",
    "open_hours": "",
    "extraction_timestamp": "2025-06-07T17:42:03.624Z",
    "source_name": "google",
    "source_query": "Irrigation Equipment",
    "source_country": "PL",
    "country": "Poland",
    "state": "Greater Poland Voivodeship",
    "city": "Jastrowie"
  },
  {
    "source_id": "ChIJi-DkJTfXA0cRMFjMQmNk7Uo",
    "name": "Kawiarnia Usiądź Sobie",
    "category": "Kawiarnia Usiądź Sobie",
    "formatted_address": "4,7(54) · zł 20–40",
    "phone_number": "+48785136072",
    "source_url": "https://www.google.com/maps/place/Kawiarnia+Usi%C4%85d%C5%BA+Sobie/data=!4m7!3m6!1s0x4703d73725e4e08b:0x4aed646342cc5830!8m2!3d53.4217595!4d16.8132311!16s%2Fg%2F11t5ynfsxp!19sChIJi-DkJTfXA0cRMFjMQmNk7Uo?authuser=0&hl=tr&rclk=1",
    "website_url": "",
    "rating_text": "4,7",
    "stars": null,
    "number_of_reviews": null,
    "price_level": "",
    "open_hours": "",
    "extraction_timestamp": "2025-06-07T17:42:03.625Z",
    "source_name": "google",
    "source_query": "Irrigation Equipment",
    "source_country": "PL",
    "country": "Poland",
    "state": "Greater Poland Voivodeship",
    "city": "Jastrowie"
  },
  {
    "source_id": "ChIJ6QJ7DjrYA0cR84lSwdUktMc",
    "name": "Biedronka",
    "category": "Biedronka",
    "formatted_address": "4,1(657)",
    "phone_number": "+48800080010",
    "source_url": "https://www.google.com/maps/place/Biedronka/data=!4m7!3m6!1s0x4703d83a0e7b02e9:0xc7b424d5c15289f3!8m2!3d53.417394!4d16.8262656!16s%2Fg%2F1tdxtqhf!19sChIJ6QJ7DjrYA0cR84lSwdUktMc?authuser=0&hl=tr&rclk=1",
    "website_url": "",
    "rating_text": "4,1",
    "stars": null,
    "number_of_reviews": null,
    "price_level": "",
    "open_hours": "",
    "extraction_timestamp": "2025-06-07T17:42:03.625Z",
    "source_name": "google",
    "source_query": "Irrigation Equipment",
    "source_country": "PL",
    "country": "Poland",
    "state": "Greater Poland Voivodeship",
    "city": "Jastrowie"
  },
  {
    "source_id": "ChIJ25ijCn_ZA0cRiqPXdZML59E",
    "name": "Dealz",
    "category": "Dealz",
    "formatted_address": "4,4(39)",
    "phone_number": "",
    "source_url": "https://www.google.com/maps/place/Dealz/data=!4m7!3m6!1s0x4703d97f0aa398db:0xd1e70b9375d7a38a!8m2!3d53.4146777!4d16.8026053!16s%2Fg%2F11sk22dvn0!19sChIJ25ijCn_ZA0cRiqPXdZML59E?authuser=0&hl=tr&rclk=1",
    "website_url": "",
    "rating_text": "4,4",
    "stars": null,
    "number_of_reviews": null,
    "price_level": "",
    "open_hours": "",
    "extraction_timestamp": "2025-06-07T17:42:03.626Z",
    "source_name": "google",
    "source_query": "Irrigation Equipment",
    "source_country": "PL",
    "country": "Poland",
    "state": "Greater Poland Voivodeship",
    "city": "Jastrowie"
  },
  {
    "source_id": "ChIJzdjCoXjXA0cRSJ83BmPQ9f0",
    "name": "ELEKTRO-INSTAL Michał Rakowski",
    "category": "ELEKTRO-INSTAL Michał Rakowski",
    "formatted_address": "3,0(9)",
    "phone_number": "+48696436774",
    "source_url": "https://www.google.com/maps/place/ELEKTRO-INSTAL+Micha%C5%82+Rakowski/data=!4m7!3m6!1s0x4703d778a1c2d8cd:0xfdf5d06306379f48!8m2!3d53.4260254!4d16.8193817!16s%2Fg%2F11b7hw5qv6!19sChIJzdjCoXjXA0cRSJ83BmPQ9f0?authuser=0&hl=tr&rclk=1",
    "website_url": "",
    "rating_text": "3,0",
    "stars": null,
    "number_of_reviews": null,
    "price_level": "",
    "open_hours": "",
    "extraction_timestamp": "2025-06-07T17:42:03.626Z",
    "source_name": "google",
    "source_query": "Irrigation Equipment",
    "source_country": "PL",
    "country": "Poland",
    "state": "Greater Poland Voivodeship",
    "city": "Jastrowie"
  },
  {
    "source_id": "ChIJeZvquQzFA0cRXfjrYzh80HU",
    "name": "Alkohole Pod Jeleniem",
    "category": "Alkohole Pod Jeleniem",
    "formatted_address": "4,6(88)",
    "phone_number": "+48500077443",
    "source_url": "https://www.google.com/maps/place/Alkohole+Pod+Jeleniem/data=!4m7!3m6!1s0x4703c50cb9ea9b79:0x75d07c3863ebf85d!8m2!3d53.3634473!4d17.0399694!16s%2Fg%2F11dxrvvs22!19sChIJeZvquQzFA0cRXfjrYzh80HU?authuser=0&hl=tr&rclk=1",
    "website_url": "",
    "rating_text": "4,6",
    "stars": null,
    "number_of_reviews": null,
    "price_level": "",
    "open_hours": "",
    "extraction_timestamp": "2025-06-07T17:42:03.627Z",
    "source_name": "google",
    "source_query": "Irrigation Equipment",
    "source_country": "PL",
    "country": "Poland",
    "state": "Greater Poland Voivodeship",
    "city": "Jastrowie"
  },
  {
    "source_id": "ChIJIxC3R8DXA0cR3uSfXkrijek",
    "name": "Dino",
    "category": "Dino",
    "formatted_address": "4,2(171)",
    "phone_number": "",
    "source_url": "https://www.google.com/maps/place/Dino/data=!4m7!3m6!1s0x4703d7c047b71023:0xe98de24a5e9fe4de!8m2!3d53.4261779!4d16.8199609!16s%2Fg%2F11f5q642kl!19sChIJIxC3R8DXA0cR3uSfXkrijek?authuser=0&hl=tr&rclk=1",
    "website_url": "",
    "rating_text": "4,2",
    "stars": null,
    "number_of_reviews": null,
    "price_level": "",
    "open_hours": "",
    "extraction_timestamp": "2025-06-07T17:42:03.628Z",
    "source_name": "google",
    "source_query": "Irrigation Equipment",
    "source_country": "PL",
    "country": "Poland",
    "state": "Greater Poland Voivodeship",
    "city": "Jastrowie"
  },
  {
    "source_id": "ChIJfdY6L6PXA0cRa4h-GHcvacs",
    "name": "Paluch",
    "category": "Paluch",
    "formatted_address": "4,4(27) · zł 1–20",
    "phone_number": "+48672631297",
    "source_url": "https://www.google.com/maps/place/Paluch/data=!4m7!3m6!1s0x4703d7a32f3ad67d:0xcb692f77187e886b!8m2!3d53.420131!4d16.8151169!16s%2Fg%2F11h27lsjrt!19sChIJfdY6L6PXA0cRa4h-GHcvacs?authuser=0&hl=tr&rclk=1",
    "website_url": "",
    "rating_text": "4,4",
    "stars": null,
    "number_of_reviews": null,
    "price_level": "",
    "open_hours": "",
    "extraction_timestamp": "2025-06-07T17:42:03.628Z",
    "source_name": "google",
    "source_query": "Irrigation Equipment",
    "source_country": "PL",
    "country": "Poland",
    "state": "Greater Poland Voivodeship",
    "city": "Jastrowie"
  },
  {
    "source_id": "ChIJzWv7HwPXA0cRFECKuwkgNxI",
    "name": "Lewiatan",
    "category": "Lewiatan",
    "formatted_address": "4,6(19)",
    "phone_number": "",
    "source_url": "https://www.google.com/maps/place/Lewiatan/data=!4m7!3m6!1s0x4703d7031ffb6bcd:0x12372009bb8a4014!8m2!3d53.421283!4d16.8273241!16s%2Fg%2F11fvjb6f1n!19sChIJzWv7HwPXA0cRFECKuwkgNxI?authuser=0&hl=tr&rclk=1",
    "website_url": "",
    "rating_text": "4,6",
    "stars": null,
    "number_of_reviews": null,
    "price_level": "",
    "open_hours": "",
    "extraction_timestamp": "2025-06-07T17:42:03.629Z",
    "source_name": "google",
    "source_query": "Irrigation Equipment",
    "source_country": "PL",
    "country": "Poland",
    "state": "Greater Poland Voivodeship",
    "city": "Jastrowie"
  }
]
