[
  {
    "source_id": "ChIJiW2pXP1pBUcRN7B34VSu7ec",
    "name": "FHU Instal Jan",
    "category": "FHU Instal Jan",
    "formatted_address": "4,4(9)",
    "phone_number": "+48607865657",
    "source_url": "https://www.google.com/maps/place/FHU+Instal+Jan/data=!4m7!3m6!1s0x470569fd5ca96d89:0xe7edae54e177b037!8m2!3d51.6512511!4d17.1629113!16s%2Fg%2F11n32_9wyx!19sChIJiW2pXP1pBUcRN7B34VSu7ec?authuser=0&hl=tr&rclk=1",
    "website_url": "",
    "rating_text": "4,4",
    "stars": null,
    "number_of_reviews": null,
    "price_level": "",
    "open_hours": "",
    "extraction_timestamp": "2025-06-07T17:32:15.438Z",
    "source_name": "google",
    "source_query": "Irrigation Equipment",
    "source_country": "PL",
    "country": "Poland",
    "state": "Greater Poland Voivodeship",
    "city": "Jutrosin"
  },
  {
    "source_id": "ChIJk9BtX5BpBUcRi7VBGTl0kVg",
    "name": "Firma Hydrauliczna Polbud",
    "category": "Firma Hydrauliczna Polbud",
    "formatted_address": "2,8(13)",
    "phone_number": "+48723545020",
    "source_url": "https://www.google.com/maps/place/Firma+Hydrauliczna+Polbud/data=!4m7!3m6!1s0x470569905f6dd093:0x589174391941b58b!8m2!3d51.644696!4d17.165886!16s%2Fg%2F11ry5jtb8b!19sChIJk9BtX5BpBUcRi7VBGTl0kVg?authuser=0&hl=tr&rclk=1",
    "website_url": "",
    "rating_text": "2,8",
    "stars": null,
    "number_of_reviews": null,
    "price_level": "",
    "open_hours": "",
    "extraction_timestamp": "2025-06-07T17:32:15.438Z",
    "source_name": "google",
    "source_query": "Irrigation Equipment",
    "source_country": "PL",
    "country": "Poland",
    "state": "Greater Poland Voivodeship",
    "city": "Jutrosin"
  },
  {
    "source_id": "ChIJk6yJSFFpBUcR00epDbbNQGo",
    "name": "PHU \"KUKLA\" Robert Kukla - Sklep ABC",
    "category": "PHU \"KUKLA\" Robert Kukla - Sklep ABC",
    "formatted_address": "2,5(2)",
    "phone_number": "",
    "source_url": "https://www.google.com/maps/place/PHU+%22KUKLA%22+Robert+Kukla+-+Sklep+ABC/data=!4m7!3m6!1s0x470569514889ac93:0x6a40cdb60da947d3!8m2!3d51.652799!4d17.169058!16s%2Fg%2F11ghpmrx3w!19sChIJk6yJSFFpBUcR00epDbbNQGo?authuser=0&hl=tr&rclk=1",
    "website_url": "",
    "rating_text": "2,5",
    "stars": null,
    "number_of_reviews": null,
    "price_level": "",
    "open_hours": "",
    "extraction_timestamp": "2025-06-07T17:32:15.439Z",
    "source_name": "google",
    "source_query": "Irrigation Equipment",
    "source_country": "PL",
    "country": "Poland",
    "state": "Greater Poland Voivodeship",
    "city": "Jutrosin"
  },
  {
    "source_id": "ChIJ2SG0mGZpBUcRLWg9Jddd0CY",
    "name": "Dino",
    "category": "Dino",
    "formatted_address": "4,4(102)",
    "phone_number": "",
    "source_url": "https://www.google.com/maps/place/Dino/data=!4m7!3m6!1s0x4705696698b421d9:0x26d05dd7253d682d!8m2!3d51.6442051!4d17.1630696!16s%2Fg%2F11h4tn9wcx!19sChIJ2SG0mGZpBUcRLWg9Jddd0CY?authuser=0&hl=tr&rclk=1",
    "website_url": "",
    "rating_text": "4,4",
    "stars": null,
    "number_of_reviews": null,
    "price_level": "",
    "open_hours": "",
    "extraction_timestamp": "2025-06-07T17:32:15.439Z",
    "source_name": "google",
    "source_query": "Irrigation Equipment",
    "source_country": "PL",
    "country": "Poland",
    "state": "Greater Poland Voivodeship",
    "city": "Jutrosin"
  },
  {
    "source_id": "ChIJ_9jQN7ppBUcRswW5Yug2104",
    "name": "Dino",
    "category": "Dino",
    "formatted_address": "4,6(27)",
    "phone_number": "",
    "source_url": "https://www.google.com/maps/place/Dino/data=!4m7!3m6!1s0x470569ba37d0d8ff:0x4ed736e862b905b3!8m2!3d51.6487941!4d17.1716153!16s%2Fg%2F11fslnrdxw!19sChIJ_9jQN7ppBUcRswW5Yug2104?authuser=0&hl=tr&rclk=1",
    "website_url": "",
    "rating_text": "4,6",
    "stars": null,
    "number_of_reviews": null,
    "price_level": "",
    "open_hours": "",
    "extraction_timestamp": "2025-06-07T17:32:15.439Z",
    "source_name": "google",
    "source_query": "Irrigation Equipment",
    "source_country": "PL",
    "country": "Poland",
    "state": "Greater Poland Voivodeship",
    "city": "Jutrosin"
  },
  {
    "source_id": "ChIJDebJTbNpBUcRHybHfp0xNQw",
    "name": "Sklep spożywczy GS Samopomoc Chłopska",
    "category": "Sklep spożywczy GS Samopomoc Chłopska",
    "formatted_address": "4,8(6)",
    "phone_number": "+48655471160",
    "source_url": "https://www.google.com/maps/place/Sklep+spo%C5%BCywczy+GS+Samopomoc+Ch%C5%82opska/data=!4m7!3m6!1s0x470569b34dc9e60d:0xc35319d7ec7261f!8m2!3d51.6536168!4d17.168486!16s%2Fg%2F1tl1m4f2!19sChIJDebJTbNpBUcRHybHfp0xNQw?authuser=0&hl=tr&rclk=1",
    "website_url": "",
    "rating_text": "4,8",
    "stars": null,
    "number_of_reviews": null,
    "price_level": "",
    "open_hours": "",
    "extraction_timestamp": "2025-06-07T17:32:15.439Z",
    "source_name": "google",
    "source_query": "Irrigation Equipment",
    "source_country": "PL",
    "country": "Poland",
    "state": "Greater Poland Voivodeship",
    "city": "Jutrosin"
  },
  {
    "source_id": "ChIJB6y_v5J2HEcRlDfYx3xmc9M",
    "name": "Milex irrigation systems",
    "category": "Milex irrigation systems",
    "formatted_address": "4,6(37)",
    "phone_number": "+48242775222",
    "source_url": "https://www.google.com/maps/place/Milex+irrigation+systems/data=!4m7!3m6!1s0x471c7692bfbfac07:0xd373667cc7d83794!8m2!3d52.4690634!4d19.7520904!16s%2Fg%2F1w2yy67r!19sChIJB6y_v5J2HEcRlDfYx3xmc9M?authuser=0&hl=tr&rclk=1",
    "website_url": "",
    "rating_text": "4,6",
    "stars": null,
    "number_of_reviews": null,
    "price_level": "",
    "open_hours": "",
    "extraction_timestamp": "2025-06-07T17:32:15.439Z",
    "source_name": "google",
    "source_query": "Irrigation Equipment",
    "source_country": "PL",
    "country": "Poland",
    "state": "Greater Poland Voivodeship",
    "city": "Jutrosin"
  },
  {
    "source_id": "ChIJv2OZP-OlD0cRxevhZwqbfLA",
    "name": "Polboto",
    "category": "Polboto",
    "formatted_address": "4,6(94)",
    "phone_number": "+48767560050",
    "source_url": "https://www.google.com/maps/place/Polboto/data=!4m7!3m6!1s0x470fa5e33f9963bf:0xb07c9b0a67e1ebc5!8m2!3d51.0377606!4d16.4465299!16s%2Fg%2F1vs5vffr!19sChIJv2OZP-OlD0cRxevhZwqbfLA?authuser=0&hl=tr&rclk=1",
    "website_url": "",
    "rating_text": "4,6",
    "stars": null,
    "number_of_reviews": null,
    "price_level": "",
    "open_hours": "",
    "extraction_timestamp": "2025-06-07T17:32:15.440Z",
    "source_name": "google",
    "source_query": "Irrigation Equipment",
    "source_country": "PL",
    "country": "Poland",
    "state": "Greater Poland Voivodeship",
    "city": "Jutrosin"
  },
  {
    "source_id": "ChIJaxm9NABpBUcR7UR7mGrTRbs",
    "name": "Biedronka",
    "category": "Biedronka",
    "formatted_address": "3,5(6)",
    "phone_number": "+48800080010",
    "source_url": "https://www.google.com/maps/place/Biedronka/data=!4m7!3m6!1s0x4705690034bd196b:0xbb45d36a987b44ed!8m2!3d51.643821!4d17.1631899!16s%2Fg%2F11wvffrbbf!19sChIJaxm9NABpBUcR7UR7mGrTRbs?authuser=0&hl=tr&rclk=1",
    "website_url": "",
    "rating_text": "3,5",
    "stars": null,
    "number_of_reviews": null,
    "price_level": "",
    "open_hours": "",
    "extraction_timestamp": "2025-06-07T17:32:15.440Z",
    "source_name": "google",
    "source_query": "Irrigation Equipment",
    "source_country": "PL",
    "country": "Poland",
    "state": "Greater Poland Voivodeship",
    "city": "Jutrosin"
  }
]
