[
  {
    "source_id": "ChIJUfn2Ig35A0cREW9fZ4029UM",
    "name": "IMTechnika sp. z o.o.",
    "category": "IMTechnika sp. z o.o.",
    "formatted_address": "4,4(17)",
    "phone_number": "+48883820388",
    "source_url": "https://www.google.com/maps/place/IMTechnika+sp.+z+o.o./data=!4m7!3m6!1s0x4703f90d22f6f951:0x43f5368d675f6f11!8m2!3d52.9756271!4d16.657836!16s%2Fg%2F11bw48_6mg!19sChIJUfn2Ig35A0cREW9fZ4029UM?authuser=0&hl=tr&rclk=1",
    "website_url": "",
    "rating_text": "4,4",
    "stars": null,
    "number_of_reviews": null,
    "price_level": "",
    "open_hours": "",
    "extraction_timestamp": "2025-06-07T17:16:58.991Z",
    "source_name": "google",
    "source_query": "Irrigation Equipment",
    "source_country": "PL",
    "country": "Poland",
    "state": "Greater Poland Voivodeship",
    "city": "Kaczory"
  },
  {
    "source_id": "ChIJPYsaim5WAUcRTQ1pXWfOVec",
    "name": "Hydro Poland",
    "category": "Hydro Poland",
    "formatted_address": "3,7(87)",
    "phone_number": "+48673525105",
    "source_url": "https://www.google.com/maps/place/Hydro+Poland/data=!4m7!3m6!1s0x4701566e8a1a8b3d:0xe755ce675d690d4d!8m2!3d53.0401073!4d16.4722088!16s%2Fg%2F1tm0rvvr!19sChIJPYsaim5WAUcRTQ1pXWfOVec?authuser=0&hl=tr&rclk=1",
    "website_url": "",
    "rating_text": "3,7",
    "stars": null,
    "number_of_reviews": null,
    "price_level": "",
    "open_hours": "",
    "extraction_timestamp": "2025-06-07T17:16:58.992Z",
    "source_name": "google",
    "source_query": "Irrigation Equipment",
    "source_country": "PL",
    "country": "Poland",
    "state": "Greater Poland Voivodeship",
    "city": "Kaczory"
  },
  {
    "source_id": "ChIJ__-7Z_fuA0cRFVsdb1lqoo4",
    "name": "Gospodarstwo Sadownicze Jacek i Dariusz Mela",
    "category": "Gospodarstwo Sadownicze Jacek i Dariusz Mela",
    "formatted_address": "5,0(4)",
    "phone_number": "+48790790666",
    "source_url": "https://www.google.com/maps/place/Gospodarstwo+Sadownicze+Jacek+i+Dariusz+Mela/data=!4m7!3m6!1s0x4703eef767bbffff:0x8ea26a596f1d5b15!8m2!3d53.1002743!4d16.9002439!16s%2Fg%2F11fr0d2xc7!19sChIJ__-7Z_fuA0cRFVsdb1lqoo4?authuser=0&hl=tr&rclk=1",
    "website_url": "",
    "rating_text": "5,0",
    "stars": null,
    "number_of_reviews": null,
    "price_level": "",
    "open_hours": "",
    "extraction_timestamp": "2025-06-07T17:16:58.992Z",
    "source_name": "google",
    "source_query": "Irrigation Equipment",
    "source_country": "PL",
    "country": "Poland",
    "state": "Greater Poland Voivodeship",
    "city": "Kaczory"
  },
  {
    "source_id": "ChIJC03V6QDvA0cReTRoVaspIpE",
    "name": "Market Lewiatan",
    "category": "Market Lewiatan",
    "formatted_address": "4,3(149)",
    "phone_number": "+48510084440",
    "source_url": "https://www.google.com/maps/place/Market+Lewiatan/data=!4m7!3m6!1s0x4703ef00e9d54d0b:0x912229ab55683479!8m2!3d53.1012971!4d16.8770579!16s%2Fg%2F11cs69b9fg!19sChIJC03V6QDvA0cReTRoVaspIpE?authuser=0&hl=tr&rclk=1",
    "website_url": "",
    "rating_text": "4,3",
    "stars": null,
    "number_of_reviews": null,
    "price_level": "",
    "open_hours": "",
    "extraction_timestamp": "2025-06-07T17:16:58.992Z",
    "source_name": "google",
    "source_query": "Irrigation Equipment",
    "source_country": "PL",
    "country": "Poland",
    "state": "Greater Poland Voivodeship",
    "city": "Kaczory"
  },
  {
    "source_id": "ChIJO0sgrQbvA0cRZQ_eiuqXQU8",
    "name": "Sklep zabawkowy Majka",
    "category": "Sklep zabawkowy Majka",
    "formatted_address": "4,9(12)",
    "phone_number": "+48663113423",
    "source_url": "https://www.google.com/maps/place/Sklep+zabawkowy+Majka/data=!4m7!3m6!1s0x4703ef06ad204b3b:0x4f4197ea8ade0f65!8m2!3d53.104217!4d16.878341!16s%2Fg%2F11g8ctv0kr!19sChIJO0sgrQbvA0cRZQ_eiuqXQU8?authuser=0&hl=tr&rclk=1",
    "website_url": "",
    "rating_text": "4,9",
    "stars": null,
    "number_of_reviews": null,
    "price_level": "",
    "open_hours": "",
    "extraction_timestamp": "2025-06-07T17:16:58.992Z",
    "source_name": "google",
    "source_query": "Irrigation Equipment",
    "source_country": "PL",
    "country": "Poland",
    "state": "Greater Poland Voivodeship",
    "city": "Kaczory"
  },
  {
    "source_id": "ChIJkTIbhwHvA0cRyB0Zu6fs3Tg",
    "name": "Sklep Zielarski Na Zdrowie",
    "category": "Sklep Zielarski Na Zdrowie",
    "formatted_address": "5,0(4)",
    "phone_number": "+48503774830",
    "source_url": "https://www.google.com/maps/place/Sklep+Zielarski+Na+Zdrowie/data=!4m7!3m6!1s0x4703ef01871b3291:0x38ddeca7bb191dc8!8m2!3d53.1043388!4d16.8817846!16s%2Fg%2F11clytx1_8!19sChIJkTIbhwHvA0cRyB0Zu6fs3Tg?authuser=0&hl=tr&rclk=1",
    "website_url": "",
    "rating_text": "5,0",
    "stars": null,
    "number_of_reviews": null,
    "price_level": "",
    "open_hours": "",
    "extraction_timestamp": "2025-06-07T17:16:58.993Z",
    "source_name": "google",
    "source_query": "Irrigation Equipment",
    "source_country": "PL",
    "country": "Poland",
    "state": "Greater Poland Voivodeship",
    "city": "Kaczory"
  },
  {
    "source_id": "ChIJB6y_v5J2HEcRlDfYx3xmc9M",
    "name": "Milex irrigation systems",
    "category": "Milex irrigation systems",
    "formatted_address": "4,6(37)",
    "phone_number": "+48242775222",
    "source_url": "https://www.google.com/maps/place/Milex+irrigation+systems/data=!4m7!3m6!1s0x471c7692bfbfac07:0xd373667cc7d83794!8m2!3d52.4690634!4d19.7520904!16s%2Fg%2F1w2yy67r!19sChIJB6y_v5J2HEcRlDfYx3xmc9M?authuser=0&hl=tr&rclk=1",
    "website_url": "",
    "rating_text": "4,6",
    "stars": null,
    "number_of_reviews": null,
    "price_level": "",
    "open_hours": "",
    "extraction_timestamp": "2025-06-07T17:16:58.993Z",
    "source_name": "google",
    "source_query": "Irrigation Equipment",
    "source_country": "PL",
    "country": "Poland",
    "state": "Greater Poland Voivodeship",
    "city": "Kaczory"
  },
  {
    "source_id": "ChIJySzhVFXuA0cRqfQlvvxmtxU",
    "name": "Dino",
    "category": "Dino",
    "formatted_address": "4,3(357)",
    "phone_number": "",
    "source_url": "https://www.google.com/maps/place/Dino/data=!4m7!3m6!1s0x4703ee5554e12cc9:0x15b766fcbe25f4a9!8m2!3d53.0986328!4d16.8818855!16s%2Fg%2F12q4x38n8!19sChIJySzhVFXuA0cRqfQlvvxmtxU?authuser=0&hl=tr&rclk=1",
    "website_url": "",
    "rating_text": "4,3",
    "stars": null,
    "number_of_reviews": null,
    "price_level": "",
    "open_hours": "",
    "extraction_timestamp": "2025-06-07T17:16:58.993Z",
    "source_name": "google",
    "source_query": "Irrigation Equipment",
    "source_country": "PL",
    "country": "Poland",
    "state": "Greater Poland Voivodeship",
    "city": "Kaczory"
  },
  {
    "source_id": "ChIJf-Np47XvA0cRi0-2KuBgLjc",
    "name": "Dino",
    "category": "Dino",
    "formatted_address": "4,0(26)",
    "phone_number": "",
    "source_url": "https://www.google.com/maps/place/Dino/data=!4m7!3m6!1s0x4703efb5e369e37f:0x372e60e02ab64f8b!8m2!3d53.1000774!4d16.8933407!16s%2Fg%2F11kpd5x4m7!19sChIJf-Np47XvA0cRi0-2KuBgLjc?authuser=0&hl=tr&rclk=1",
    "website_url": "",
    "rating_text": "4,0",
    "stars": null,
    "number_of_reviews": null,
    "price_level": "",
    "open_hours": "",
    "extraction_timestamp": "2025-06-07T17:16:58.993Z",
    "source_name": "google",
    "source_query": "Irrigation Equipment",
    "source_country": "PL",
    "country": "Poland",
    "state": "Greater Poland Voivodeship",
    "city": "Kaczory"
  },
  {
    "source_id": "ChIJfTXRXgDvA0cRCXnbjMtG8LQ",
    "name": "Biedronka",
    "category": "Biedronka",
    "formatted_address": "4,4(29)",
    "phone_number": "+48800080010",
    "source_url": "https://www.google.com/maps/place/Biedronka/data=!4m7!3m6!1s0x4703ef005ed1357d:0xb4f046cb8cdb7909!8m2!3d53.1049714!4d16.8805553!16s%2Fg%2F11wfl1142_!19sChIJfTXRXgDvA0cRCXnbjMtG8LQ?authuser=0&hl=tr&rclk=1",
    "website_url": "",
    "rating_text": "4,4",
    "stars": null,
    "number_of_reviews": null,
    "price_level": "",
    "open_hours": "",
    "extraction_timestamp": "2025-06-07T17:16:58.994Z",
    "source_name": "google",
    "source_query": "Irrigation Equipment",
    "source_country": "PL",
    "country": "Poland",
    "state": "Greater Poland Voivodeship",
    "city": "Kaczory"
  },
  {
    "source_id": "ChIJZQFASRHkA0cRbyRmr8_YVAs",
    "name": "Manufaktura Lodów Prawdziwych",
    "category": "Manufaktura Lodów Prawdziwych",
    "formatted_address": "4,5(52) · ₺₺",
    "phone_number": "+48502395776",
    "source_url": "https://www.google.com/maps/place/Manufaktura+Lod%C3%B3w+Prawdziwych/data=!4m7!3m6!1s0x4703e41149400165:0xb54d8cfaf66246f!8m2!3d53.1135191!4d16.8575271!16s%2Fg%2F11cn12cly7!19sChIJZQFASRHkA0cRbyRmr8_YVAs?authuser=0&hl=tr&rclk=1",
    "website_url": "",
    "rating_text": "4,5",
    "stars": null,
    "number_of_reviews": null,
    "price_level": "",
    "open_hours": "",
    "extraction_timestamp": "2025-06-07T17:16:58.994Z",
    "source_name": "google",
    "source_query": "Irrigation Equipment",
    "source_country": "PL",
    "country": "Poland",
    "state": "Greater Poland Voivodeship",
    "city": "Kaczory"
  },
  {
    "source_id": "ChIJ0zlEn2LuA0cRaofKVEitynM",
    "name": "Sklep w Rzadkowie",
    "category": "Sklep w Rzadkowie",
    "formatted_address": "4,3(13)",
    "phone_number": "",
    "source_url": "https://www.google.com/maps/place/Sklep+w+Rzadkowie/data=!4m7!3m6!1s0x4703ee629f4439d3:0x73caad4854ca876a!8m2!3d53.0922533!4d16.9255063!16s%2Fg%2F11hbpsd8fh!19sChIJ0zlEn2LuA0cRaofKVEitynM?authuser=0&hl=tr&rclk=1",
    "website_url": "",
    "rating_text": "4,3",
    "stars": null,
    "number_of_reviews": null,
    "price_level": "",
    "open_hours": "",
    "extraction_timestamp": "2025-06-07T17:16:58.994Z",
    "source_name": "google",
    "source_query": "Irrigation Equipment",
    "source_country": "PL",
    "country": "Poland",
    "state": "Greater Poland Voivodeship",
    "city": "Kaczory"
  },
  {
    "source_id": "ChIJE1hRMgDvA0cRjd7zKNsee7M",
    "name": "Żabka",
    "category": "Żabka",
    "formatted_address": "2,8(25)",
    "phone_number": "",
    "source_url": "https://www.google.com/maps/place/%C5%BBabka/data=!4m7!3m6!1s0x4703ef0032515813:0xb37b1edb28f3de8d!8m2!3d53.1033984!4d16.880892!16s%2Fg%2F11vyv6q0cn!19sChIJE1hRMgDvA0cRjd7zKNsee7M?authuser=0&hl=tr&rclk=1",
    "website_url": "",
    "rating_text": "2,8",
    "stars": null,
    "number_of_reviews": null,
    "price_level": "",
    "open_hours": "",
    "extraction_timestamp": "2025-06-07T17:16:58.994Z",
    "source_name": "google",
    "source_query": "Irrigation Equipment",
    "source_country": "PL",
    "country": "Poland",
    "state": "Greater Poland Voivodeship",
    "city": "Kaczory"
  },
  {
    "source_id": "ChIJyfJumEHvA0cRPuJRmN_HQxY",
    "name": "Sklep Spożywczy ABC",
    "category": "Sklep Spożywczy ABC",
    "formatted_address": "4,0(9)",
    "phone_number": "+48504116927",
    "source_url": "https://www.google.com/maps/place/Sklep+Spo%C5%BCywczy+ABC/data=!4m7!3m6!1s0x4703ef41986ef2c9:0x1643c7df9851e23e!8m2!3d53.0836939!4d16.892173!16s%2Fg%2F11gjt0b57x!19sChIJyfJumEHvA0cRPuJRmN_HQxY?authuser=0&hl=tr&rclk=1",
    "website_url": "",
    "rating_text": "4,0",
    "stars": null,
    "number_of_reviews": null,
    "price_level": "",
    "open_hours": "",
    "extraction_timestamp": "2025-06-07T17:16:58.995Z",
    "source_name": "google",
    "source_query": "Irrigation Equipment",
    "source_country": "PL",
    "country": "Poland",
    "state": "Greater Poland Voivodeship",
    "city": "Kaczory"
  },
  {
    "source_id": "ChIJt1t4kg7vA0cRwf-mgKSSdlE",
    "name": "DOZ Apteka dbam o zdrowie",
    "category": "DOZ Apteka dbam o zdrowie",
    "formatted_address": "4,9(8)",
    "phone_number": "+48672842847",
    "source_url": "https://www.google.com/maps/place/DOZ+Apteka+dbam+o+zdrowie/data=!4m7!3m6!1s0x4703ef0e92785bb7:0x517692a480a6ffc1!8m2!3d53.1042498!4d16.8782376!16s%2Fg%2F11g98yxtnl!19sChIJt1t4kg7vA0cRwf-mgKSSdlE?authuser=0&hl=tr&rclk=1",
    "website_url": "",
    "rating_text": "4,9",
    "stars": null,
    "number_of_reviews": null,
    "price_level": "",
    "open_hours": "",
    "extraction_timestamp": "2025-06-07T17:16:58.995Z",
    "source_name": "google",
    "source_query": "Irrigation Equipment",
    "source_country": "PL",
    "country": "Poland",
    "state": "Greater Poland Voivodeship",
    "city": "Kaczory"
  }
]
