[
  {
    "source_id": "ChIJfYkDVvnFGkcRCEcun_IcbEM",
    "name": "aktywatory.pl | Biopreparaty bakterie do szamb i oczyszczalni | Chemia basenowa | Nawozy i środki ochrony roślin",
    "category": "aktywatory.pl | Biopreparaty bakterie do szamb i oczyszczalni | Chemia basenowa | Nawozy i środki ochrony roślin",
    "formatted_address": "4,8(39)",
    "phone_number": "+48506306906",
    "source_url": "https://www.google.com/maps/place/aktywatory.pl+%7C+Biopreparaty+bakterie+do+szamb+i+oczyszczalni+%7C+Chemia+basenowa+%7C+Nawozy+i+%C5%9Brodki+ochrony+ro%C5%9Blin/data=!4m7!3m6!1s0x471ac5f95603897d:0x436c1cf29f2e4708!8m2!3d51.7515076!4d18.1373287!16s%2Fg%2F1q6kk2b79!19sChIJfYkDVvnFGkcRCEcun_IcbEM?authuser=0&hl=tr&rclk=1",
    "website_url": "",
    "rating_text": "4,8",
    "stars": null,
    "number_of_reviews": null,
    "price_level": "",
    "open_hours": "",
    "extraction_timestamp": "2025-06-07T17:50:38.886Z",
    "source_name": "google",
    "source_query": "Irrigation Equipment",
    "source_country": "PL",
    "country": "Poland",
    "state": "Greater Poland Voivodeship",
    "city": "Kalisz"
  },
  {
    "source_id": "ChIJhTVXiWbFGkcRWyfYdlxUv8A",
    "name": "Tlen-Spaw s.c.",
    "category": "Tlen-Spaw s.c.",
    "formatted_address": "4,4(47)",
    "phone_number": "+48728970900",
    "source_url": "https://www.google.com/maps/place/Tlen-Spaw+s.c./data=!4m7!3m6!1s0x471ac56689573585:0xc0bf545c76d8275b!8m2!3d51.7892438!4d18.0909312!16s%2Fg%2F1tdr2167!19sChIJhTVXiWbFGkcRWyfYdlxUv8A?authuser=0&hl=tr&rclk=1",
    "website_url": "",
    "rating_text": "4,4",
    "stars": null,
    "number_of_reviews": null,
    "price_level": "",
    "open_hours": "",
    "extraction_timestamp": "2025-06-07T17:50:38.887Z",
    "source_name": "google",
    "source_query": "Irrigation Equipment",
    "source_country": "PL",
    "country": "Poland",
    "state": "Greater Poland Voivodeship",
    "city": "Kalisz"
  },
  {
    "source_id": "ChIJk2maeanIGkcRYG6zFgKyHaQ",
    "name": "Tubes International",
    "category": "Tubes International",
    "formatted_address": "4,9(10)",
    "phone_number": "+48627667310",
    "source_url": "https://www.google.com/maps/place/Tubes+International/data=!4m7!3m6!1s0x471ac8a9799a6993:0xa41db20216b36e60!8m2!3d51.7310723!4d18.0361834!16s%2Fg%2F1vn178dj!19sChIJk2maeanIGkcRYG6zFgKyHaQ?authuser=0&hl=tr&rclk=1",
    "website_url": "",
    "rating_text": "4,9",
    "stars": null,
    "number_of_reviews": null,
    "price_level": "",
    "open_hours": "",
    "extraction_timestamp": "2025-06-07T17:50:38.888Z",
    "source_name": "google",
    "source_query": "Irrigation Equipment",
    "source_country": "PL",
    "country": "Poland",
    "state": "Greater Poland Voivodeship",
    "city": "Kalisz"
  },
  {
    "source_id": "ChIJ4SqzaQzPGkcRVS5YHRgFK8s",
    "name": "K-Bet Energy System",
    "category": "K-Bet Energy System",
    "formatted_address": "4,8(50)",
    "phone_number": "+48530605573",
    "source_url": "https://www.google.com/maps/place/K-Bet+Energy+System/data=!4m7!3m6!1s0x471acf0c69b32ae1:0xcb2b05181d582e55!8m2!3d51.7440409!4d18.0454349!16s%2Fg%2F11j8v6pw0s!19sChIJ4SqzaQzPGkcRVS5YHRgFK8s?authuser=0&hl=tr&rclk=1",
    "website_url": "",
    "rating_text": "4,8",
    "stars": null,
    "number_of_reviews": null,
    "price_level": "",
    "open_hours": "",
    "extraction_timestamp": "2025-06-07T17:50:38.916Z",
    "source_name": "google",
    "source_query": "Irrigation Equipment",
    "source_country": "PL",
    "country": "Poland",
    "state": "Greater Poland Voivodeship",
    "city": "Kalisz"
  },
  {
    "source_id": "ChIJifG51gnFGkcRE-1U2O4Hz3o",
    "name": "3DSmart",
    "category": "3DSmart",
    "formatted_address": "5,0(69)",
    "phone_number": "+48577151315",
    "source_url": "https://www.google.com/maps/place/3DSmart/data=!4m7!3m6!1s0x471ac509d6b9f189:0x7acf07eed854ed13!8m2!3d51.7505032!4d18.0768332!16s%2Fg%2F11sylqpzh8!19sChIJifG51gnFGkcRE-1U2O4Hz3o?authuser=0&hl=tr&rclk=1",
    "website_url": "",
    "rating_text": "5,0",
    "stars": null,
    "number_of_reviews": null,
    "price_level": "",
    "open_hours": "",
    "extraction_timestamp": "2025-06-07T17:50:38.917Z",
    "source_name": "google",
    "source_query": "Irrigation Equipment",
    "source_country": "PL",
    "country": "Poland",
    "state": "Greater Poland Voivodeship",
    "city": "Kalisz"
  },
  {
    "source_id": "ChIJ7_ej3frFGkcRxnKTsa4G17c",
    "name": "MARTECH Mariusz Andrzejewski",
    "category": "MARTECH Mariusz Andrzejewski",
    "formatted_address": "4,5(10)",
    "phone_number": "+48625011640",
    "source_url": "https://www.google.com/maps/place/MARTECH+Mariusz+Andrzejewski/data=!4m7!3m6!1s0x471ac5fadda3f7ef:0xb7d706aeb19372c6!8m2!3d51.7417518!4d18.061754!16s%2Fg%2F1tf06dw4!19sChIJ7_ej3frFGkcRxnKTsa4G17c?authuser=0&hl=tr&rclk=1",
    "website_url": "",
    "rating_text": "4,5",
    "stars": null,
    "number_of_reviews": null,
    "price_level": "",
    "open_hours": "",
    "extraction_timestamp": "2025-06-07T17:50:38.918Z",
    "source_name": "google",
    "source_query": "Irrigation Equipment",
    "source_country": "PL",
    "country": "Poland",
    "state": "Greater Poland Voivodeship",
    "city": "Kalisz"
  },
  {
    "source_id": "ChIJARsQ31fPGkcRPp9yuThQF7E",
    "name": "SCAPE sp. z o.o. | Infrastruktura dla architektury krajobrazu",
    "category": "SCAPE sp. z o.o. | Infrastruktura dla architektury krajobrazu",
    "formatted_address": "3,5(11)",
    "phone_number": "+48600044019",
    "source_url": "https://www.google.com/maps/place/SCAPE+sp.+z+o.o.+%7C+Infrastruktura+dla+architektury+krajobrazu/data=!4m7!3m6!1s0x471acf57df101b01:0xb1175038b9729f3e!8m2!3d51.7590375!4d18.0779258!16s%2Fg%2F1pxq7y5hn!19sChIJARsQ31fPGkcRPp9yuThQF7E?authuser=0&hl=tr&rclk=1",
    "website_url": "",
    "rating_text": "3,5",
    "stars": null,
    "number_of_reviews": null,
    "price_level": "",
    "open_hours": "",
    "extraction_timestamp": "2025-06-07T17:50:38.919Z",
    "source_name": "google",
    "source_query": "Irrigation Equipment",
    "source_country": "PL",
    "country": "Poland",
    "state": "Greater Poland Voivodeship",
    "city": "Kalisz"
  },
  {
    "source_id": "ChIJk6zIVw_FGkcRlu4FAF0fHXs",
    "name": "KOKOS INSTALACJE hydraulik Kalisz",
    "category": "KOKOS INSTALACJE hydraulik Kalisz",
    "formatted_address": "5,0(52)",
    "phone_number": "+48731869869",
    "source_url": "https://www.google.com/maps/place/KOKOS+INSTALACJE+hydraulik+Kalisz/data=!4m7!3m6!1s0x471ac50f57c8ac93:0x7b1d1f5d0005ee96!8m2!3d51.7695497!4d17.9862631!16s%2Fg%2F11r9p_zr0k!19sChIJk6zIVw_FGkcRlu4FAF0fHXs?authuser=0&hl=tr&rclk=1",
    "website_url": "",
    "rating_text": "5,0",
    "stars": null,
    "number_of_reviews": null,
    "price_level": "",
    "open_hours": "",
    "extraction_timestamp": "2025-06-07T17:50:38.920Z",
    "source_name": "google",
    "source_query": "Irrigation Equipment",
    "source_country": "PL",
    "country": "Poland",
    "state": "Greater Poland Voivodeship",
    "city": "Kalisz"
  },
  {
    "source_id": "ChIJI4lTlOgABUcRFXHcNEunf24",
    "name": "Aquaro",
    "category": "Aquaro",
    "formatted_address": "3,1(20)",
    "phone_number": "+48609636969",
    "source_url": "https://www.google.com/maps/place/Aquaro/data=!4m7!3m6!1s0x470500e894538923:0x6e7fa74b34dc7115!8m2!3d51.751307!4d18.069943!16s%2Fg%2F1hc340c2s!19sChIJI4lTlOgABUcRFXHcNEunf24?authuser=0&hl=tr&rclk=1",
    "website_url": "",
    "rating_text": "3,1",
    "stars": null,
    "number_of_reviews": null,
    "price_level": "",
    "open_hours": "",
    "extraction_timestamp": "2025-06-07T17:50:38.921Z",
    "source_name": "google",
    "source_query": "Irrigation Equipment",
    "source_country": "PL",
    "country": "Poland",
    "state": "Greater Poland Voivodeship",
    "city": "Kalisz"
  },
  {
    "source_id": "ChIJB1w9K5bFGkcRyKXz69ipgDU",
    "name": "Wotem s.c. Sklep Hydrauliczny | Pompy Ciepła | Artykuły Instalacyjno-Sanitarne | Hurt, Detal",
    "category": "Wotem s.c. Sklep Hydrauliczny | Pompy Ciepła | Artykuły Instalacyjno-Sanitarne | Hurt, Detal",
    "formatted_address": "Wotem s.c. Sklep Hydrauliczny | Pompy Ciepła | Artykuły Instalacyjno-Sanitarne | Hurt, Detal",
    "phone_number": "+48625013454",
    "source_url": "https://www.google.com/maps/place/Wotem+s.c.+Sklep+Hydrauliczny+%7C+Pompy+Ciep%C5%82a+%7C+Artyku%C5%82y+Instalacyjno-Sanitarne+%7C+Hurt,+Detal/data=!4m7!3m6!1s0x471ac5962b3d5c07:0x3580a9d8ebf3a5c8!8m2!3d51.7582713!4d18.0914814!16s%2Fg%2F1v6wn1l5!19sChIJB1w9K5bFGkcRyKXz69ipgDU?authuser=0&hl=tr&rclk=1",
    "website_url": "",
    "rating_text": "4,9",
    "stars": null,
    "number_of_reviews": null,
    "price_level": "",
    "open_hours": "",
    "extraction_timestamp": "2025-06-07T17:50:38.922Z",
    "source_name": "google",
    "source_query": "Irrigation Equipment",
    "source_country": "PL",
    "country": "Poland",
    "state": "Greater Poland Voivodeship",
    "city": "Kalisz"
  },
  {
    "source_id": "ChIJhwKmwWLPGkcRvzhqKrZWs5c",
    "name": "Leroy Merlin",
    "category": "Leroy Merlin",
    "formatted_address": "4,3(2.000)",
    "phone_number": "+48627608800",
    "source_url": "https://www.google.com/maps/place/Leroy+Merlin/data=!4m7!3m6!1s0x471acf62c1a60287:0x97b356b62a6a38bf!8m2!3d51.7677423!4d18.0616432!16s%2Fg%2F1tmqq31z!19sChIJhwKmwWLPGkcRvzhqKrZWs5c?authuser=0&hl=tr&rclk=1",
    "website_url": "",
    "rating_text": "4,3",
    "stars": null,
    "number_of_reviews": null,
    "price_level": "",
    "open_hours": "",
    "extraction_timestamp": "2025-06-07T17:50:38.925Z",
    "source_name": "google",
    "source_query": "Irrigation Equipment",
    "source_country": "PL",
    "country": "Poland",
    "state": "Greater Poland Voivodeship",
    "city": "Kalisz"
  },
  {
    "source_id": "ChIJRWpObLHFGkcReDC3XRF1ao0",
    "name": "Zamkniecie dzialalmosci",
    "category": "Zamkniecie dzialalmosci",
    "formatted_address": "5,0(1)",
    "phone_number": "",
    "source_url": "https://www.google.com/maps/place/Zamkniecie+dzialalmosci/data=!4m7!3m6!1s0x471ac5b16c4e6a45:0x8d6a75115db73078!8m2!3d51.7511517!4d18.0956779!16s%2Fg%2F11pcn73dk8!19sChIJRWpObLHFGkcReDC3XRF1ao0?authuser=0&hl=tr&rclk=1",
    "website_url": "",
    "rating_text": "5,0",
    "stars": null,
    "number_of_reviews": null,
    "price_level": "",
    "open_hours": "",
    "extraction_timestamp": "2025-06-07T17:50:38.926Z",
    "source_name": "google",
    "source_query": "Irrigation Equipment",
    "source_country": "PL",
    "country": "Poland",
    "state": "Greater Poland Voivodeship",
    "city": "Kalisz"
  },
  {
    "source_id": "ChIJjXGDs5vFGkcRz6k0GidFaC0",
    "name": "Sanpol Kalisz - hurtownia instalacyjna, hydrauliczna, sanitarna",
    "category": "Sanpol Kalisz - hurtownia instalacyjna, hydrauliczna, sanitarna",
    "formatted_address": "Sanpol Kalisz - hurtownia instalacyjna, hydrauliczna, sanitarna",
    "phone_number": "+48623100710",
    "source_url": "https://www.google.com/maps/place/Sanpol+Kalisz+-+hurtownia+instalacyjna,+hydrauliczna,+sanitarna/data=!4m7!3m6!1s0x471ac59bb383718d:0x2d6845271a34a9cf!8m2!3d51.736962!4d18.050493!16s%2Fg%2F11fnwwb4rm!19sChIJjXGDs5vFGkcRz6k0GidFaC0?authuser=0&hl=tr&rclk=1",
    "website_url": "",
    "rating_text": "4,5",
    "stars": null,
    "number_of_reviews": null,
    "price_level": "",
    "open_hours": "",
    "extraction_timestamp": "2025-06-07T17:50:38.927Z",
    "source_name": "google",
    "source_query": "Irrigation Equipment",
    "source_country": "PL",
    "country": "Poland",
    "state": "Greater Poland Voivodeship",
    "city": "Kalisz"
  },
  {
    "source_id": "ChIJAVXJ5f7FGkcRlVhCS-NnVYo",
    "name": "Salon Łazienek i Techniki Grzewczej Armatura Kozłowski Kalisz (hurtownia instalacyjna, hydrauliczna)",
    "category": "Salon Łazienek i Techniki Grzewczej Armatura Kozłowski Kalisz (hurtownia instalacyjna, hydrauliczna)",
    "formatted_address": "Salon Łazienek i Techniki Grzewczej Armatura Kozłowski Kalisz (hurtownia instalacyjna, hydrauliczna)",
    "phone_number": "+48627653038",
    "source_url": "https://www.google.com/maps/place/Salon+%C5%81azienek+i+Techniki+Grzewczej+Armatura+Koz%C5%82owski+Kalisz+%28hurtownia+instalacyjna,+hydrauliczna%29/data=!4m7!3m6!1s0x471ac5fee5c95501:0x8a5567e34b425895!8m2!3d51.7380246!4d18.0514779!16s%2Fg%2F11gzcvrzk!19sChIJAVXJ5f7FGkcRlVhCS-NnVYo?authuser=0&hl=tr&rclk=1",
    "website_url": "",
    "rating_text": "4,7",
    "stars": null,
    "number_of_reviews": null,
    "price_level": "",
    "open_hours": "",
    "extraction_timestamp": "2025-06-07T17:50:38.928Z",
    "source_name": "google",
    "source_query": "Irrigation Equipment",
    "source_country": "PL",
    "country": "Poland",
    "state": "Greater Poland Voivodeship",
    "city": "Kalisz"
  },
  {
    "source_id": "ChIJCfcHy__FGkcR36dHBr5RrB4",
    "name": "Monter Shop Samoobsługowa Hurtownia Instalacyjna",
    "category": "Monter Shop Samoobsługowa Hurtownia Instalacyjna",
    "formatted_address": "4,9(8)",
    "phone_number": "+48627272051",
    "source_url": "https://www.google.com/maps/place/Monter+Shop+Samoobs%C5%82ugowa+Hurtownia+Instalacyjna/data=!4m7!3m6!1s0x471ac5ffcb07f709:0x1eac51be0647a7df!8m2!3d51.7371864!4d18.051136!16s%2Fg%2F11f4m67tdd!19sChIJCfcHy__FGkcR36dHBr5RrB4?authuser=0&hl=tr&rclk=1",
    "website_url": "",
    "rating_text": "4,9",
    "stars": null,
    "number_of_reviews": null,
    "price_level": "",
    "open_hours": "",
    "extraction_timestamp": "2025-06-07T17:50:38.929Z",
    "source_name": "google",
    "source_query": "Irrigation Equipment",
    "source_country": "PL",
    "country": "Poland",
    "state": "Greater Poland Voivodeship",
    "city": "Kalisz"
  },
  {
    "source_id": "ChIJ6VElD7zFGkcRnmZ-J3ftI24",
    "name": "Przystań Kalisz",
    "category": "Przystań Kalisz",
    "formatted_address": "4,4(57)",
    "phone_number": "",
    "source_url": "https://www.google.com/maps/place/Przysta%C5%84+Kalisz/data=!4m7!3m6!1s0x471ac5bc0f2551e9:0x6e23ed77277e669e!8m2!3d51.7555198!4d18.0973289!16s%2Fg%2F11g8pgd4_n!19sChIJ6VElD7zFGkcRnmZ-J3ftI24?authuser=0&hl=tr&rclk=1",
    "website_url": "",
    "rating_text": "4,4",
    "stars": null,
    "number_of_reviews": null,
    "price_level": "",
    "open_hours": "",
    "extraction_timestamp": "2025-06-07T17:50:38.929Z",
    "source_name": "google",
    "source_query": "Irrigation Equipment",
    "source_country": "PL",
    "country": "Poland",
    "state": "Greater Poland Voivodeship",
    "city": "Kalisz"
  },
  {
    "source_id": "ChIJD9Wst2LPGkcRVuxtV7kIfeo",
    "name": "Somar sp.j.",
    "category": "Somar sp.j.",
    "formatted_address": "4,0(16)",
    "phone_number": "+48627643395",
    "source_url": "https://www.google.com/maps/place/Somar+sp.j./data=!4m7!3m6!1s0x471acf62b7acd50f:0xea7d08b9576dec56!8m2!3d51.7650779!4d18.0617549!16s%2Fg%2F1tfwj38h!19sChIJD9Wst2LPGkcRVuxtV7kIfeo?authuser=0&hl=tr&rclk=1",
    "website_url": "",
    "rating_text": "4,0",
    "stars": null,
    "number_of_reviews": null,
    "price_level": "",
    "open_hours": "",
    "extraction_timestamp": "2025-06-07T17:50:38.930Z",
    "source_name": "google",
    "source_query": "Irrigation Equipment",
    "source_country": "PL",
    "country": "Poland",
    "state": "Greater Poland Voivodeship",
    "city": "Kalisz"
  },
  {
    "source_id": "ChIJAQCkgkXEGkcRgJ0Vht-vAPo",
    "name": "Garden Products",
    "category": "Garden Products",
    "formatted_address": "5,0(11)",
    "phone_number": "+48668111200",
    "source_url": "https://www.google.com/maps/place/Garden+Products/data=!4m7!3m6!1s0x471ac44582a40001:0xfa00afdf86159d80!8m2!3d51.7586913!4d18.0916237!16s%2Fg%2F11h48wx5zv!19sChIJAQCkgkXEGkcRgJ0Vht-vAPo?authuser=0&hl=tr&rclk=1",
    "website_url": "",
    "rating_text": "5,0",
    "stars": null,
    "number_of_reviews": null,
    "price_level": "",
    "open_hours": "",
    "extraction_timestamp": "2025-06-07T17:50:38.931Z",
    "source_name": "google",
    "source_query": "Irrigation Equipment",
    "source_country": "PL",
    "country": "Poland",
    "state": "Greater Poland Voivodeship",
    "city": "Kalisz"
  },
  {
    "source_id": "ChIJZT82tEvJGkcRurSDcsFoIhQ",
    "name": "KROMON - Hydraulika siłowa, zakuwanie węży",
    "category": "KROMON - Hydraulika siłowa, zakuwanie węży",
    "formatted_address": "KROMON - Hydraulika siłowa, zakuwanie węży",
    "phone_number": "+48500192823",
    "source_url": "https://www.google.com/maps/place/KROMON+-+Hydraulika+si%C5%82owa,+zakuwanie+w%C4%99%C5%BCy/data=!4m7!3m6!1s0x471ac94bb4363f65:0x142268c17283b4ba!8m2!3d51.7318101!4d18.0366028!16s%2Fg%2F11fk1k5zsv!19sChIJZT82tEvJGkcRurSDcsFoIhQ?authuser=0&hl=tr&rclk=1",
    "website_url": "",
    "rating_text": "4,8",
    "stars": null,
    "number_of_reviews": null,
    "price_level": "",
    "open_hours": "",
    "extraction_timestamp": "2025-06-07T17:50:38.932Z",
    "source_name": "google",
    "source_query": "Irrigation Equipment",
    "source_country": "PL",
    "country": "Poland",
    "state": "Greater Poland Voivodeship",
    "city": "Kalisz"
  },
  {
    "source_id": "ChIJNw3Q8__FGkcRpjgbZhOXb8Q",
    "name": "Castorama",
    "category": "Castorama",
    "formatted_address": "4,3(3.239)",
    "phone_number": "+48627696100",
    "source_url": "https://www.google.com/maps/place/Castorama/data=!4m7!3m6!1s0x471ac5fff3d00d37:0xc46f9713661b38a6!8m2!3d51.7377627!4d18.043353!16s%2Fg%2F1td1c4yj!19sChIJNw3Q8__FGkcRpjgbZhOXb8Q?authuser=0&hl=tr&rclk=1",
    "website_url": "",
    "rating_text": "4,3",
    "stars": null,
    "number_of_reviews": null,
    "price_level": "",
    "open_hours": "",
    "extraction_timestamp": "2025-06-07T17:50:38.933Z",
    "source_name": "google",
    "source_query": "Irrigation Equipment",
    "source_country": "PL",
    "country": "Poland",
    "state": "Greater Poland Voivodeship",
    "city": "Kalisz"
  },
  {
    "source_id": "ChIJheTyjHXEGkcRyE_BfvV_xQk",
    "name": "GRENE",
    "category": "GRENE",
    "formatted_address": "4,3(37)",
    "phone_number": "+48627612182",
    "source_url": "https://www.google.com/maps/place/GRENE/data=!4m7!3m6!1s0x471ac4758cf2e485:0x9c57ff57ec14fc8!8m2!3d51.7401417!4d18.1775515!16s%2Fg%2F11bbrn13qd!19sChIJheTyjHXEGkcRyE_BfvV_xQk?authuser=0&hl=tr&rclk=1",
    "website_url": "",
    "rating_text": "4,3",
    "stars": null,
    "number_of_reviews": null,
    "price_level": "",
    "open_hours": "",
    "extraction_timestamp": "2025-06-07T17:50:38.934Z",
    "source_name": "google",
    "source_query": "Irrigation Equipment",
    "source_country": "PL",
    "country": "Poland",
    "state": "Greater Poland Voivodeship",
    "city": "Kalisz"
  },
  {
    "source_id": "ChIJlU7_ig_FGkcRylqef2tylog",
    "name": "Nowy Rynek Targowisko \"Pod Tęczą\"",
    "category": "Nowy Rynek Targowisko \"Pod Tęczą\"",
    "formatted_address": "3,7(425)",
    "phone_number": "",
    "source_url": "https://www.google.com/maps/place/Nowy+Rynek+Targowisko+%22Pod+T%C4%99cz%C4%85%22/data=!4m7!3m6!1s0x471ac50f8aff4e95:0x8896726b7f9e5aca!8m2!3d51.7656528!4d18.0864837!16s%2Fg%2F11hdfbysk7!19sChIJlU7_ig_FGkcRylqef2tylog?authuser=0&hl=tr&rclk=1",
    "website_url": "",
    "rating_text": "3,7",
    "stars": null,
    "number_of_reviews": null,
    "price_level": "",
    "open_hours": "",
    "extraction_timestamp": "2025-06-07T17:50:38.935Z",
    "source_name": "google",
    "source_query": "Irrigation Equipment",
    "source_country": "PL",
    "country": "Poland",
    "state": "Greater Poland Voivodeship",
    "city": "Kalisz"
  },
  {
    "source_id": "ChIJ3UMPZVXOGkcRdxgD9_Qf0NQ",
    "name": "Agromark - Części do ciągników i maszyn rolniczych",
    "category": "Agromark - Części do ciągników i maszyn rolniczych",
    "formatted_address": "4,7(54)",
    "phone_number": "+48627616201",
    "source_url": "https://www.google.com/maps/place/Agromark+-+Cz%C4%99%C5%9Bci+do+ci%C4%85gnik%C3%B3w+i+maszyn+rolniczych/data=!4m7!3m6!1s0x471ace55650f43dd:0xd4d01ff4f7031877!8m2!3d51.7852123!4d18.0088958!16s%2Fg%2F11bw_5s7gd!19sChIJ3UMPZVXOGkcRdxgD9_Qf0NQ?authuser=0&hl=tr&rclk=1",
    "website_url": "",
    "rating_text": "4,7",
    "stars": null,
    "number_of_reviews": null,
    "price_level": "",
    "open_hours": "",
    "extraction_timestamp": "2025-06-07T17:50:38.936Z",
    "source_name": "google",
    "source_query": "Irrigation Equipment",
    "source_country": "PL",
    "country": "Poland",
    "state": "Greater Poland Voivodeship",
    "city": "Kalisz"
  },
  {
    "source_id": "ChIJTWP5_7rPGkcRlkPtLg7rUHA",
    "name": "Usługi Hydrauliczne Kalisz- Hydraulik Kalisz",
    "category": "Usługi Hydrauliczne Kalisz- Hydraulik Kalisz",
    "formatted_address": "4,4(26)",
    "phone_number": "+48663228545",
    "source_url": "https://www.google.com/maps/place/Us%C5%82ugi+Hydrauliczne+Kalisz-+Hydraulik+Kalisz/data=!4m7!3m6!1s0x471acfbafff9634d:0x7050eb0e2eed4396!8m2!3d51.807862!4d18.04582!16s%2Fg%2F11j47n1bfc!19sChIJTWP5_7rPGkcRlkPtLg7rUHA?authuser=0&hl=tr&rclk=1",
    "website_url": "",
    "rating_text": "4,4",
    "stars": null,
    "number_of_reviews": null,
    "price_level": "",
    "open_hours": "",
    "extraction_timestamp": "2025-06-07T17:50:38.937Z",
    "source_name": "google",
    "source_query": "Irrigation Equipment",
    "source_country": "PL",
    "country": "Poland",
    "state": "Greater Poland Voivodeship",
    "city": "Kalisz"
  },
  {
    "source_id": "ChIJg4y0gPLFGkcRznTrkw22A30",
    "name": "Bricomarché",
    "category": "Bricomarché",
    "formatted_address": "4,3(1.534)",
    "phone_number": "+48625065320",
    "source_url": "https://www.google.com/maps/place/Bricomarch%C3%A9/data=!4m7!3m6!1s0x471ac5f280b48c83:0x7d03b60d93eb74ce!8m2!3d51.7508582!4d18.0689644!16s%2Fg%2F11dxr_c0gb!19sChIJg4y0gPLFGkcRznTrkw22A30?authuser=0&hl=tr&rclk=1",
    "website_url": "",
    "rating_text": "4,3",
    "stars": null,
    "number_of_reviews": null,
    "price_level": "",
    "open_hours": "",
    "extraction_timestamp": "2025-06-07T17:50:38.938Z",
    "source_name": "google",
    "source_query": "Irrigation Equipment",
    "source_country": "PL",
    "country": "Poland",
    "state": "Greater Poland Voivodeship",
    "city": "Kalisz"
  },
  {
    "source_id": "ChIJS1oykgrFGkcRoN_i3GzY4PU",
    "name": "MK Elektro Monika Krzywda",
    "category": "MK Elektro Monika Krzywda",
    "formatted_address": "5,0(25)",
    "phone_number": "+48577400071",
    "source_url": "https://www.google.com/maps/place/MK+Elektro+Monika+Krzywda/data=!4m7!3m6!1s0x471ac50a92325a4b:0xf5e0d86cdce2dfa0!8m2!3d51.7705074!4d18.1038503!16s%2Fg%2F11dynvms4j!19sChIJS1oykgrFGkcRoN_i3GzY4PU?authuser=0&hl=tr&rclk=1",
    "website_url": "",
    "rating_text": "5,0",
    "stars": null,
    "number_of_reviews": null,
    "price_level": "",
    "open_hours": "",
    "extraction_timestamp": "2025-06-07T17:50:38.939Z",
    "source_name": "google",
    "source_query": "Irrigation Equipment",
    "source_country": "PL",
    "country": "Poland",
    "state": "Greater Poland Voivodeship",
    "city": "Kalisz"
  },
  {
    "source_id": "ChIJi-lmjv7FGkcRQ1CQOmc9TII",
    "name": "Geotech Studnie Głębinowe Kalisz Odwierty Wiercenie Studni Pompy",
    "category": "Geotech Studnie Głębinowe Kalisz Odwierty Wiercenie Studni Pompy",
    "formatted_address": "5,0(2)",
    "phone_number": "+48505325777",
    "source_url": "https://www.google.com/maps/place/Geotech+Studnie+G%C5%82%C4%99binowe+Kalisz+Odwierty+Wiercenie+Studni+Pompy/data=!4m7!3m6!1s0x471ac5fe8e66e98b:0x824c3d673a905043!8m2!3d51.7373418!4d18.0512412!16s%2Fg%2F1w96fhcg!19sChIJi-lmjv7FGkcRQ1CQOmc9TII?authuser=0&hl=tr&rclk=1",
    "website_url": "",
    "rating_text": "5,0",
    "stars": null,
    "number_of_reviews": null,
    "price_level": "",
    "open_hours": "",
    "extraction_timestamp": "2025-06-07T17:50:38.940Z",
    "source_name": "google",
    "source_query": "Irrigation Equipment",
    "source_country": "PL",
    "country": "Poland",
    "state": "Greater Poland Voivodeship",
    "city": "Kalisz"
  },
  {
    "source_id": "ChIJOYvU9IrFGkcRfM8siIgqKtY",
    "name": "Arsen",
    "category": "Arsen",
    "formatted_address": "4,7(218)",
    "phone_number": "+48627683585",
    "source_url": "https://www.google.com/maps/place/Arsen/data=!4m7!3m6!1s0x471ac58af4d48b39:0xd62a2a88882ccf7c!8m2!3d51.7575873!4d18.0605577!16s%2Fg%2F113dxbp6l!19sChIJOYvU9IrFGkcRfM8siIgqKtY?authuser=0&hl=tr&rclk=1",
    "website_url": "",
    "rating_text": "4,7",
    "stars": null,
    "number_of_reviews": null,
    "price_level": "",
    "open_hours": "",
    "extraction_timestamp": "2025-06-07T17:50:38.941Z",
    "source_name": "google",
    "source_query": "Irrigation Equipment",
    "source_country": "PL",
    "country": "Poland",
    "state": "Greater Poland Voivodeship",
    "city": "Kalisz"
  }
]
