[
  {
    "source_id": "ChIJi8nORy54DCgRpnrgm4KBOQM",
    "name": "Water-Plast - Geomembrana PEHD, Folia PEHD / Zbiorniki / Uszczelnianie, izolacja",
    "category": "Water-Plast - Geomembrana PEHD, Folia PEHD / Zbiorniki / Uszczelnianie, izolacja",
    "formatted_address": "Water-Plast - Geomembrana PEHD, Folia PEHD / Zbiorniki / Uszczelnianie, izolacja",
    "phone_number": "+48696805103",
    "source_url": "https://www.google.com/maps/place/Water-Plast+-+Geomembrana+PEHD,+Folia+PEHD+%2F+Zbiorniki+%2F+Uszczelnianie,+izolacja/data=!4m7!3m6!1s0x280c782e47cec98b:0x33981829be07aa6!8m2!3d51.3163154!4d18.5852543!16s%2Fg%2F11js9j9wjh!19sChIJi8nORy54DCgRpnrgm4KBOQM?authuser=0&hl=tr&rclk=1",
    "website_url": "https://water-plast.pl/",
    "rating_text": "5,0",
    "stars": null,
    "number_of_reviews": null,
    "price_level": "",
    "open_hours": "",
    "extraction_timestamp": "2025-06-07T17:21:09.096Z",
    "source_name": "google",
    "source_query": "Irrigation Equipment",
    "source_country": "PL",
    "country": "Poland",
    "state": "Greater Poland Voivodeship",
    "city": "Kawęczyn"
  },
  {
    "source_id": "ChIJrXGBxEGyIkcRgrToMNf8K1M",
    "name": "Aqua-Woda Systems",
    "category": "Aqua-Woda Systems",
    "formatted_address": "4,3(3)",
    "phone_number": "",
    "source_url": "https://www.google.com/maps/place/Aqua-Woda+Systems/data=!4m7!3m6!1s0x4722b241c48171ad:0x532bfcd730e8b482!8m2!3d50.7353499!4d21.5997062!16s%2Fg%2F11b75n3d8q!19sChIJrXGBxEGyIkcRgrToMNf8K1M?authuser=0&hl=tr&rclk=1",
    "website_url": "",
    "rating_text": "4,3",
    "stars": null,
    "number_of_reviews": null,
    "price_level": "",
    "open_hours": "",
    "extraction_timestamp": "2025-06-07T17:21:09.096Z",
    "source_name": "google",
    "source_query": "Irrigation Equipment",
    "source_country": "PL",
    "country": "Poland",
    "state": "Greater Poland Voivodeship",
    "city": "Kawęczyn"
  },
  {
    "source_id": "ChIJB6y_v5J2HEcRlDfYx3xmc9M",
    "name": "Milex irrigation systems",
    "category": "Milex irrigation systems",
    "formatted_address": "4,6(37)",
    "phone_number": "+48242775222",
    "source_url": "https://www.google.com/maps/place/Milex+irrigation+systems/data=!4m7!3m6!1s0x471c7692bfbfac07:0xd373667cc7d83794!8m2!3d52.4690634!4d19.7520904!16s%2Fg%2F1w2yy67r!19sChIJB6y_v5J2HEcRlDfYx3xmc9M?authuser=0&hl=tr&rclk=1",
    "website_url": "https://www.milex.pl/",
    "rating_text": "4,6",
    "stars": null,
    "number_of_reviews": null,
    "price_level": "",
    "open_hours": "",
    "extraction_timestamp": "2025-06-07T17:21:09.097Z",
    "source_name": "google",
    "source_query": "Irrigation Equipment",
    "source_country": "PL",
    "country": "Poland",
    "state": "Greater Poland Voivodeship",
    "city": "Kawęczyn"
  },
  {
    "source_id": "ChIJpxaaxWNZGUcRjjHprTFlLV8",
    "name": "Hydro-System Waldemar Zimiński",
    "category": "Hydro-System Waldemar Zimiński",
    "formatted_address": "4,5(15)",
    "phone_number": "+48468568476",
    "source_url": "https://www.google.com/maps/place/Hydro-System+Waldemar+Zimi%C5%84ski/data=!4m7!3m6!1s0x47195963c59a16a7:0x5f2d6531ade9318e!8m2!3d52.1203185!4d20.3763374!16s%2Fg%2F1tf5jcy0!19sChIJpxaaxWNZGUcRjjHprTFlLV8?authuser=0&hl=tr&rclk=1",
    "website_url": "https://www.hydros.com.pl/",
    "rating_text": "4,5",
    "stars": null,
    "number_of_reviews": null,
    "price_level": "",
    "open_hours": "",
    "extraction_timestamp": "2025-06-07T17:21:09.097Z",
    "source_name": "google",
    "source_query": "Irrigation Equipment",
    "source_country": "PL",
    "country": "Poland",
    "state": "Greater Poland Voivodeship",
    "city": "Kawęczyn"
  },
  {
    "source_id": "ChIJs2hxcV5KGUcRFjh_aSMtbZI",
    "name": "Grupa KN Sp. z o.o. - Producent Aeratorów - Wynajem Napowietrzania",
    "category": "Grupa KN Sp. z o.o. - Producent Aeratorów - Wynajem Napowietrzania",
    "formatted_address": "5,0(31)",
    "phone_number": "+48223506937",
    "source_url": "https://www.google.com/maps/place/Grupa+KN+Sp.+z+o.o.+-+Producent+Aerator%C3%B3w+-+Wynajem+Napowietrzania/data=!4m7!3m6!1s0x47194a5e717168b3:0x926d2d23697f3816!8m2!3d52.1893385!4d20.7639522!16s%2Fg%2F124t5kdl0!19sChIJs2hxcV5KGUcRFjh_aSMtbZI?authuser=0&hl=tr&rclk=1",
    "website_url": "https://grupakn.pl/",
    "rating_text": "5,0",
    "stars": null,
    "number_of_reviews": null,
    "price_level": "",
    "open_hours": "",
    "extraction_timestamp": "2025-06-07T17:21:09.097Z",
    "source_name": "google",
    "source_query": "Irrigation Equipment",
    "source_country": "PL",
    "country": "Poland",
    "state": "Greater Poland Voivodeship",
    "city": "Kawęczyn"
  },
  {
    "source_id": "ChIJ76WAmPBgGUcRnx47bXjXTwU",
    "name": "Agrofim Poland Sp. z o.o.",
    "category": "Agrofim Poland Sp. z o.o.",
    "formatted_address": "3,8(6)",
    "phone_number": "+48468332266",
    "source_url": "https://www.google.com/maps/place/Agrofim+Poland+Sp.+z+o.o./data=!4m7!3m6!1s0x471960f09880a5ef:0x54fd7786d3b1e9f!8m2!3d51.9616303!4d20.1543898!16s%2Fg%2F1tdnjw7b!19sChIJ76WAmPBgGUcRnx47bXjXTwU?authuser=0&hl=tr&rclk=1",
    "website_url": "http://agrofim.pl/",
    "rating_text": "3,8",
    "stars": null,
    "number_of_reviews": null,
    "price_level": "",
    "open_hours": "",
    "extraction_timestamp": "2025-06-07T17:21:09.098Z",
    "source_name": "google",
    "source_query": "Irrigation Equipment",
    "source_country": "PL",
    "country": "Poland",
    "state": "Greater Poland Voivodeship",
    "city": "Kawęczyn"
  },
  {
    "source_id": "ChIJVTV3W_PzBEcR6gY0xwQi2_E",
    "name": "Deszczownie.com",
    "category": "Deszczownie.com",
    "formatted_address": "",
    "phone_number": "+48726000030",
    "source_url": "https://www.google.com/maps/place/Deszczownie.com/data=!4m7!3m6!1s0x4704f3f35b773555:0xf1db2204c73406ea!8m2!3d52.3623948!4d17.4021087!16s%2Fg%2F11y3pv4rxr!19sChIJVTV3W_PzBEcR6gY0xwQi2_E?authuser=0&hl=tr&rclk=1",
    "website_url": "https://www.deszczownie.com/",
    "rating_text": "",
    "stars": null,
    "number_of_reviews": null,
    "price_level": "",
    "open_hours": "",
    "extraction_timestamp": "2025-06-07T17:21:09.098Z",
    "source_name": "google",
    "source_query": "Irrigation Equipment",
    "source_country": "PL",
    "country": "Poland",
    "state": "Greater Poland Voivodeship",
    "city": "Kawęczyn"
  }
]
