[
  {
    "source_id": "ChIJKzWU367LBEcRC2O7OUrK7yY",
    "name": "PROGAR Kopanie Studni Głębinowych",
    "category": "PROGAR Kopanie Studni Głębinowych",
    "formatted_address": "1,0(1)",
    "phone_number": "+48609604627",
    "source_url": "https://www.google.com/maps/place/PROGAR+Kopanie+Studni+G%C5%82%C4%99binowych/data=!4m7!3m6!1s0x4704cbaedf94352b:0x26efca4a39bb630b!8m2!3d52.3031914!4d18.1538147!16s%2Fg%2F11g0g6k3y4!19sChIJKzWU367LBEcRC2O7OUrK7yY?authuser=0&hl=tr&rclk=1",
    "website_url": "",
    "rating_text": "1,0",
    "stars": null,
    "number_of_reviews": null,
    "price_level": "",
    "open_hours": "",
    "extraction_timestamp": "2025-06-07T17:56:04.035Z",
    "source_name": "google",
    "source_query": "Irrigation Equipment",
    "source_country": "PL",
    "country": "Poland",
    "state": "Greater Poland Voivodeship",
    "city": "Kazimierz Biskupi"
  },
  {
    "source_id": "ChIJ6_G5XXXLBEcRiirIdlp1BAE",
    "name": "Targowisko- bazar w Kazimierzu Biskupim",
    "category": "Targowisko- bazar w Kazimierzu Biskupim",
    "formatted_address": "3,0(2)",
    "phone_number": "",
    "source_url": "https://www.google.com/maps/place/Targowisko-+bazar+w+Kazimierzu+Biskupim/data=!4m7!3m6!1s0x4704cb755db9f1eb:0x104755a76c82a8a!8m2!3d52.3130258!4d18.1556162!16s%2Fg%2F11t8b8z0k9!19sChIJ6_G5XXXLBEcRiirIdlp1BAE?authuser=0&hl=tr&rclk=1",
    "website_url": "",
    "rating_text": "3,0",
    "stars": null,
    "number_of_reviews": null,
    "price_level": "",
    "open_hours": "",
    "extraction_timestamp": "2025-06-07T17:56:04.036Z",
    "source_name": "google",
    "source_query": "Irrigation Equipment",
    "source_country": "PL",
    "country": "Poland",
    "state": "Greater Poland Voivodeship",
    "city": "Kazimierz Biskupi"
  },
  {
    "source_id": "ChIJc7MIWLPKBEcRQsKjw1u20ss",
    "name": "Galeria Alkoholi",
    "category": "Galeria Alkoholi",
    "formatted_address": "3,7(15)",
    "phone_number": "",
    "source_url": "https://www.google.com/maps/place/Galeria+Alkoholi/data=!4m7!3m6!1s0x4704cab35808b373:0xcbd2b65bc3a3c242!8m2!3d52.3129685!4d18.1582818!16s%2Fg%2F11g9qpw7_k!19sChIJc7MIWLPKBEcRQsKjw1u20ss?authuser=0&hl=tr&rclk=1",
    "website_url": "",
    "rating_text": "3,7",
    "stars": null,
    "number_of_reviews": null,
    "price_level": "",
    "open_hours": "",
    "extraction_timestamp": "2025-06-07T17:56:04.037Z",
    "source_name": "google",
    "source_query": "Irrigation Equipment",
    "source_country": "PL",
    "country": "Poland",
    "state": "Greater Poland Voivodeship",
    "city": "Kazimierz Biskupi"
  },
  {
    "source_id": "ChIJM41sxJRKG0cRH_ZwaZD1i1k",
    "name": "REN-SERW",
    "category": "REN-SERW",
    "formatted_address": "4,8(24)",
    "phone_number": "+48601547721",
    "source_url": "https://www.google.com/maps/place/REN-SERW/data=!4m7!3m6!1s0x471b4a94c46c8d33:0x598bf5906970f61f!8m2!3d52.3418065!4d18.2270349!16s%2Fg%2F12hmxf5qq!19sChIJM41sxJRKG0cRH_ZwaZD1i1k?authuser=0&hl=tr&rclk=1",
    "website_url": "",
    "rating_text": "4,8",
    "stars": null,
    "number_of_reviews": null,
    "price_level": "",
    "open_hours": "",
    "extraction_timestamp": "2025-06-07T17:56:04.038Z",
    "source_name": "google",
    "source_query": "Irrigation Equipment",
    "source_country": "PL",
    "country": "Poland",
    "state": "Greater Poland Voivodeship",
    "city": "Kazimierz Biskupi"
  },
  {
    "source_id": "ChIJd15IoLbKBEcRgm3fY4Ij3ZI",
    "name": "Twój Market",
    "category": "Twój Market",
    "formatted_address": "4,1(338)",
    "phone_number": "+48801555559",
    "source_url": "https://www.google.com/maps/place/Tw%C3%B3j+Market/data=!4m7!3m6!1s0x4704cab6a0485e77:0x92dd238263df6d82!8m2!3d52.3126096!4d18.159761!16s%2Fg%2F11cls77vcc!19sChIJd15IoLbKBEcRgm3fY4Ij3ZI?authuser=0&hl=tr&rclk=1",
    "website_url": "http://twojmarket.pl/",
    "rating_text": "4,1",
    "stars": null,
    "number_of_reviews": null,
    "price_level": "",
    "open_hours": "",
    "extraction_timestamp": "2025-06-07T17:56:04.040Z",
    "source_name": "google",
    "source_query": "Irrigation Equipment",
    "source_country": "PL",
    "country": "Poland",
    "state": "Greater Poland Voivodeship",
    "city": "Kazimierz Biskupi"
  },
  {
    "source_id": "ChIJt_LiLDzLBEcRCHu9OqHzFEI",
    "name": "Biedronka",
    "category": "Biedronka",
    "formatted_address": "4,1(274)",
    "phone_number": "+48800080010",
    "source_url": "https://www.google.com/maps/place/Biedronka/data=!4m7!3m6!1s0x4704cb3c2ce2f2b7:0x4214f3a13abd7b08!8m2!3d52.3132038!4d18.1576364!16s%2Fg%2F11n0bl1b92!19sChIJt_LiLDzLBEcRCHu9OqHzFEI?authuser=0&hl=tr&rclk=1",
    "website_url": "https://www.biedronka.pl/pl?utm_source=gmb",
    "rating_text": "4,1",
    "stars": null,
    "number_of_reviews": null,
    "price_level": "",
    "open_hours": "",
    "extraction_timestamp": "2025-06-07T17:56:04.042Z",
    "source_name": "google",
    "source_query": "Irrigation Equipment",
    "source_country": "PL",
    "country": "Poland",
    "state": "Greater Poland Voivodeship",
    "city": "Kazimierz Biskupi"
  },
  {
    "source_id": "ChIJbyW9V5rLBEcRg7rYIRo3I2Q",
    "name": "Lewiatan",
    "category": "Lewiatan",
    "formatted_address": "4,5(30)",
    "phone_number": "+48632412009",
    "source_url": "https://www.google.com/maps/place/Lewiatan/data=!4m7!3m6!1s0x4704cb9a57bd256f:0x6423371a21d8ba83!8m2!3d52.3130343!4d18.1588192!16s%2Fg%2F11lwp1ksdb!19sChIJbyW9V5rLBEcRg7rYIRo3I2Q?authuser=0&hl=tr&rclk=1",
    "website_url": "http://www.lewiatan.pl/",
    "rating_text": "4,5",
    "stars": null,
    "number_of_reviews": null,
    "price_level": "",
    "open_hours": "",
    "extraction_timestamp": "2025-06-07T17:56:04.043Z",
    "source_name": "google",
    "source_query": "Irrigation Equipment",
    "source_country": "PL",
    "country": "Poland",
    "state": "Greater Poland Voivodeship",
    "city": "Kazimierz Biskupi"
  },
  {
    "source_id": "ChIJlQJABaXLBEcRmcStsUO6S10",
    "name": "Rynek w Kazimierzu Biskupim",
    "category": "Rynek w Kazimierzu Biskupim",
    "formatted_address": "3,7(3)",
    "phone_number": "",
    "source_url": "https://www.google.com/maps/place/Rynek+w+Kazimierzu+Biskupim/data=!4m7!3m6!1s0x4704cba505400295:0x5d4bba43b1adc499!8m2!3d52.3127642!4d18.1672875!16s%2Fg%2F11smb40p5s!19sChIJlQJABaXLBEcRmcStsUO6S10?authuser=0&hl=tr&rclk=1",
    "website_url": "",
    "rating_text": "3,7",
    "stars": null,
    "number_of_reviews": null,
    "price_level": "",
    "open_hours": "",
    "extraction_timestamp": "2025-06-07T17:56:04.044Z",
    "source_name": "google",
    "source_query": "Irrigation Equipment",
    "source_country": "PL",
    "country": "Poland",
    "state": "Greater Poland Voivodeship",
    "city": "Kazimierz Biskupi"
  },
  {
    "source_id": "ChIJ8Rgxf8vKBEcRuWV42fCFEd8",
    "name": "Chata Polska sklep spożywczy",
    "category": "Chata Polska sklep spożywczy",
    "formatted_address": "4,5(36)",
    "phone_number": "+48510140307",
    "source_url": "https://www.google.com/maps/place/Chata+Polska+sklep+spo%C5%BCywczy/data=!4m7!3m6!1s0x4704cacb7f3118f1:0xdf1185f0d97865b9!8m2!3d52.3036209!4d18.1583191!16s%2Fg%2F11fkmz3_yf!19sChIJ8Rgxf8vKBEcRuWV42fCFEd8?authuser=0&hl=tr&rclk=1",
    "website_url": "http://www.chatapolska.pl/",
    "rating_text": "4,5",
    "stars": null,
    "number_of_reviews": null,
    "price_level": "",
    "open_hours": "",
    "extraction_timestamp": "2025-06-07T17:56:04.046Z",
    "source_name": "google",
    "source_query": "Irrigation Equipment",
    "source_country": "PL",
    "country": "Poland",
    "state": "Greater Poland Voivodeship",
    "city": "Kazimierz Biskupi"
  },
  {
    "source_id": "ChIJ88CFz5XLBEcRsmW1O8ogSzk",
    "name": "Pepco",
    "category": "Pepco",
    "formatted_address": "3,3(43)",
    "phone_number": "",
    "source_url": "https://www.google.com/maps/place/Pepco/data=!4m7!3m6!1s0x4704cb95cf85c0f3:0x394b20ca3bb565b2!8m2!3d52.3127996!4d18.1574714!16s%2Fg%2F11ll80bpcf!19sChIJ88CFz5XLBEcRsmW1O8ogSzk?authuser=0&hl=tr&rclk=1",
    "website_url": "https://pepco.pl/",
    "rating_text": "3,3",
    "stars": null,
    "number_of_reviews": null,
    "price_level": "",
    "open_hours": "",
    "extraction_timestamp": "2025-06-07T17:56:04.047Z",
    "source_name": "google",
    "source_query": "Irrigation Equipment",
    "source_country": "PL",
    "country": "Poland",
    "state": "Greater Poland Voivodeship",
    "city": "Kazimierz Biskupi"
  },
  {
    "source_id": "ChIJT55ZjLXKBEcRtuNc9IYlcVs",
    "name": "Sklep spożywczy GS Samopomoc Chłopska",
    "category": "Sklep spożywczy GS Samopomoc Chłopska",
    "formatted_address": "3,7(3)",
    "phone_number": "+48632411329",
    "source_url": "https://www.google.com/maps/place/Sklep+spo%C5%BCywczy+GS+Samopomoc+Ch%C5%82opska/data=!4m7!3m6!1s0x4704cab58c599e4f:0x5b712586f45ce3b6!8m2!3d52.3134039!4d18.1672618!16s%2Fg%2F1vn_xnx5!19sChIJT55ZjLXKBEcRtuNc9IYlcVs?authuser=0&hl=tr&rclk=1",
    "website_url": "",
    "rating_text": "3,7",
    "stars": null,
    "number_of_reviews": null,
    "price_level": "",
    "open_hours": "",
    "extraction_timestamp": "2025-06-07T17:56:04.048Z",
    "source_name": "google",
    "source_query": "Irrigation Equipment",
    "source_country": "PL",
    "country": "Poland",
    "state": "Greater Poland Voivodeship",
    "city": "Kazimierz Biskupi"
  },
  {
    "source_id": "ChIJ8Rgxf8vKBEcR08sUNbtq3P0",
    "name": "Carrefour Express",
    "category": "Carrefour Express",
    "formatted_address": "4,2(57)",
    "phone_number": "+48801200000",
    "source_url": "https://www.google.com/maps/place/Carrefour+Express/data=!4m7!3m6!1s0x4704cacb7f3118f1:0xfddc6abb3514cbd3!8m2!3d52.3036209!4d18.1583191!16s%2Fg%2F1jkxld79d!19sChIJ8Rgxf8vKBEcR08sUNbtq3P0?authuser=0&hl=tr&rclk=1",
    "website_url": "http://carrefour.pl/",
    "rating_text": "4,2",
    "stars": null,
    "number_of_reviews": null,
    "price_level": "",
    "open_hours": "",
    "extraction_timestamp": "2025-06-07T17:56:04.049Z",
    "source_name": "google",
    "source_query": "Irrigation Equipment",
    "source_country": "PL",
    "country": "Poland",
    "state": "Greater Poland Voivodeship",
    "city": "Kazimierz Biskupi"
  }
]
