[
  {
    "source_id": "ChIJa-HWH50-BEcRajUgzhwIXg0",
    "name": "Kalinowski Sp. z o.o.",
    "category": "Kalinowski Sp. z o.o.",
    "formatted_address": "4,3(159)",
    "phone_number": "+48612918363",
    "source_url": "https://www.google.com/maps/place/Kalinowski+Sp.+z+o.o./data=!4m7!3m6!1s0x47043e9d1fd6e16b:0xd5e081cce20356a!8m2!3d52.5192079!4d16.5621268!16s%2Fg%2F1ptxkdt3y!19sChIJa-HWH50-BEcRajUgzhwIXg0?authuser=0&hl=tr&rclk=1",
    "website_url": "",
    "rating_text": "4,3",
    "stars": null,
    "number_of_reviews": null,
    "price_level": "",
    "open_hours": "",
    "extraction_timestamp": "2025-06-07T17:27:20.500Z",
    "source_name": "google",
    "source_query": "Irrigation Equipment",
    "source_country": "PL",
    "country": "Poland",
    "state": "Greater Poland Voivodeship",
    "city": "Kaźmierz"
  },
  {
    "source_id": "ChIJx9dLaaM-BEcR0BMvflVq1Po",
    "name": "GRASSLAND FARMS",
    "category": "GRASSLAND FARMS",
    "formatted_address": "4,4(103)",
    "phone_number": "+48602382601",
    "source_url": "https://www.google.com/maps/place/GRASSLAND+FARMS/data=!4m7!3m6!1s0x47043ea3694bd7c7:0xfad46a557e2f13d0!8m2!3d52.5034131!4d16.5908032!16s%2Fg%2F1tlczwnb!19sChIJx9dLaaM-BEcR0BMvflVq1Po?authuser=0&hl=tr&rclk=1",
    "website_url": "",
    "rating_text": "4,4",
    "stars": null,
    "number_of_reviews": null,
    "price_level": "",
    "open_hours": "",
    "extraction_timestamp": "2025-06-07T17:27:20.502Z",
    "source_name": "google",
    "source_query": "Irrigation Equipment",
    "source_country": "PL",
    "country": "Poland",
    "state": "Greater Poland Voivodeship",
    "city": "Kaźmierz"
  },
  {
    "source_id": "ChIJxaqqPu1EBEcRGtJQZO14rXU",
    "name": "Agregaty-Service",
    "category": "Agregaty-Service",
    "formatted_address": "4,9(18)",
    "phone_number": "+48605723006",
    "source_url": "https://www.google.com/maps/place/Agregaty-Service/data=!4m7!3m6!1s0x470444ed3eaaaac5:0x75ad78ed6450d21a!8m2!3d52.5060158!4d16.601227!16s%2Fg%2F1ptwysrkb!19sChIJxaqqPu1EBEcRGtJQZO14rXU?authuser=0&hl=tr&rclk=1",
    "website_url": "",
    "rating_text": "4,9",
    "stars": null,
    "number_of_reviews": null,
    "price_level": "",
    "open_hours": "",
    "extraction_timestamp": "2025-06-07T17:27:20.504Z",
    "source_name": "google",
    "source_query": "Irrigation Equipment",
    "source_country": "PL",
    "country": "Poland",
    "state": "Greater Poland Voivodeship",
    "city": "Kaźmierz"
  },
  {
    "source_id": "ChIJLUoq2ic8BEcRi0S29I67JRI",
    "name": "Violet Serwis",
    "category": "Violet Serwis",
    "formatted_address": "",
    "phone_number": "+48510043559",
    "source_url": "https://www.google.com/maps/place/Violet+Serwis/data=!4m7!3m6!1s0x47043c27da2a4a2d:0x1225bb8ef4b6448b!8m2!3d52.5178207!4d16.5664799!16s%2Fg%2F1pv1y676_!19sChIJLUoq2ic8BEcRi0S29I67JRI?authuser=0&hl=tr&rclk=1",
    "website_url": "",
    "rating_text": "",
    "stars": null,
    "number_of_reviews": null,
    "price_level": "",
    "open_hours": "",
    "extraction_timestamp": "2025-06-07T17:27:20.505Z",
    "source_name": "google",
    "source_query": "Irrigation Equipment",
    "source_country": "PL",
    "country": "Poland",
    "state": "Greater Poland Voivodeship",
    "city": "Kaźmierz"
  },
  {
    "source_id": "ChIJEQUzt9U9BEcR-C3BFDwotA8",
    "name": "Redyska - Sklep ze zdrową żywnością, warzywami i owocami",
    "category": "Redyska - Sklep ze zdrową żywnością, warzywami i owocami",
    "formatted_address": "Redyska - Sklep ze zdrową żywnością, warzywami i owocami",
    "phone_number": "+48609420541",
    "source_url": "https://www.google.com/maps/place/Redyska+-+Sklep+ze+zdrow%C4%85+%C5%BCywno%C5%9Bci%C4%85,+warzywami+i+owocami/data=!4m7!3m6!1s0x47043dd5b7330511:0xfb4283c14c12df8!8m2!3d52.5174275!4d16.5680871!16s%2Fg%2F11kxrldrbg!19sChIJEQUzt9U9BEcR-C3BFDwotA8?authuser=0&hl=tr&rclk=1",
    "website_url": "",
    "rating_text": "4,7",
    "stars": null,
    "number_of_reviews": null,
    "price_level": "",
    "open_hours": "",
    "extraction_timestamp": "2025-06-07T17:27:20.506Z",
    "source_name": "google",
    "source_query": "Irrigation Equipment",
    "source_country": "PL",
    "country": "Poland",
    "state": "Greater Poland Voivodeship",
    "city": "Kaźmierz"
  },
  {
    "source_id": "ChIJG_DIEp0-BEcRWz3lBuI57bM",
    "name": "Mini Max",
    "category": "Mini Max",
    "formatted_address": "4,6(50)",
    "phone_number": "",
    "source_url": "https://www.google.com/maps/place/Mini+Max/data=!4m7!3m6!1s0x47043e9d12c8f01b:0xb3ed39e206e53d5b!8m2!3d52.512028!4d16.5835725!16s%2Fg%2F11j1j6mcwh!19sChIJG_DIEp0-BEcRWz3lBuI57bM?authuser=0&hl=tr&rclk=1",
    "website_url": "",
    "rating_text": "4,6",
    "stars": null,
    "number_of_reviews": null,
    "price_level": "",
    "open_hours": "",
    "extraction_timestamp": "2025-06-07T17:27:20.507Z",
    "source_name": "google",
    "source_query": "Irrigation Equipment",
    "source_country": "PL",
    "country": "Poland",
    "state": "Greater Poland Voivodeship",
    "city": "Kaźmierz"
  },
  {
    "source_id": "ChIJwf-UN7s9BEcRSVeUE8EO8Ws",
    "name": "AQUABUFOR Dominik Kluza",
    "category": "AQUABUFOR Dominik Kluza",
    "formatted_address": "4,0(6)",
    "phone_number": "+48721987406",
    "source_url": "https://www.google.com/maps/place/AQUABUFOR+Dominik+Kluza/data=!4m7!3m6!1s0x47043dbb3794ffc1:0x6bf10ec113945749!8m2!3d52.5414469!4d16.5820096!16s%2Fg%2F11sjvy6m0j!19sChIJwf-UN7s9BEcRSVeUE8EO8Ws?authuser=0&hl=tr&rclk=1",
    "website_url": "",
    "rating_text": "4,0",
    "stars": null,
    "number_of_reviews": null,
    "price_level": "",
    "open_hours": "",
    "extraction_timestamp": "2025-06-07T17:27:20.509Z",
    "source_name": "google",
    "source_query": "Irrigation Equipment",
    "source_country": "PL",
    "country": "Poland",
    "state": "Greater Poland Voivodeship",
    "city": "Kaźmierz"
  },
  {
    "source_id": "ChIJA_DLH50-BEcRaLcC6oCqGD8",
    "name": "Kazimierczak Renata. Sklep wielobranżowy",
    "category": "Kazimierczak Renata. Sklep wielobranżowy",
    "formatted_address": "5,0(3)",
    "phone_number": "+48612917586",
    "source_url": "https://www.google.com/maps/place/Kazimierczak+Renata.+Sklep+wielobran%C5%BCowy/data=!4m7!3m6!1s0x47043e9d1fcbf003:0x3f18aa80ea02b768!8m2!3d52.5119812!4d16.5835716!16s%2Fg%2F1th0llj6!19sChIJA_DLH50-BEcRaLcC6oCqGD8?authuser=0&hl=tr&rclk=1",
    "website_url": "",
    "rating_text": "5,0",
    "stars": null,
    "number_of_reviews": null,
    "price_level": "",
    "open_hours": "",
    "extraction_timestamp": "2025-06-07T17:27:20.509Z",
    "source_name": "google",
    "source_query": "Irrigation Equipment",
    "source_country": "PL",
    "country": "Poland",
    "state": "Greater Poland Voivodeship",
    "city": "Kaźmierz"
  },
  {
    "source_id": "ChIJwWLQkoU-BEcRAJgzDMYphvg",
    "name": "Marek Krzewina Projektowanie i Doradztwo",
    "category": "Marek Krzewina Projektowanie i Doradztwo",
    "formatted_address": "5,0(1)",
    "phone_number": "+48693503211",
    "source_url": "https://www.google.com/maps/place/Marek+Krzewina+Projektowanie+i+Doradztwo/data=!4m7!3m6!1s0x47043e8592d062c1:0xf88629c60c339800!8m2!3d52.515848!4d16.59894!16s%2Fg%2F11fhvr49km!19sChIJwWLQkoU-BEcRAJgzDMYphvg?authuser=0&hl=tr&rclk=1",
    "website_url": "",
    "rating_text": "5,0",
    "stars": null,
    "number_of_reviews": null,
    "price_level": "",
    "open_hours": "",
    "extraction_timestamp": "2025-06-07T17:27:20.510Z",
    "source_name": "google",
    "source_query": "Irrigation Equipment",
    "source_country": "PL",
    "country": "Poland",
    "state": "Greater Poland Voivodeship",
    "city": "Kaźmierz"
  },
  {
    "source_id": "ChIJ4co9BoE-BEcRWNocHdYQYxg",
    "name": "TRIADA Firma Produkcyjno Handlowa",
    "category": "TRIADA Firma Produkcyjno Handlowa",
    "formatted_address": "",
    "phone_number": "+48604220398",
    "source_url": "https://www.google.com/maps/place/TRIADA+Firma+Produkcyjno+Handlowa/data=!4m7!3m6!1s0x47043e81063dcae1:0x186310d61d1cda58!8m2!3d52.5205678!4d16.5919708!16s%2Fg%2F11bccgv3k_!19sChIJ4co9BoE-BEcRWNocHdYQYxg?authuser=0&hl=tr&rclk=1",
    "website_url": "",
    "rating_text": "",
    "stars": null,
    "number_of_reviews": null,
    "price_level": "",
    "open_hours": "",
    "extraction_timestamp": "2025-06-07T17:27:20.511Z",
    "source_name": "google",
    "source_query": "Irrigation Equipment",
    "source_country": "PL",
    "country": "Poland",
    "state": "Greater Poland Voivodeship",
    "city": "Kaźmierz"
  },
  {
    "source_id": "ChIJr3T2yiY8BEcRZQK9_Fzuhq0",
    "name": "Hałaszkiewicz",
    "category": "Hałaszkiewicz",
    "formatted_address": "4,7(6)",
    "phone_number": "+48616583042",
    "source_url": "https://www.google.com/maps/place/Ha%C5%82aszkiewicz/data=!4m7!3m6!1s0x47043c26caf674af:0xad86ee5cfcbd0265!8m2!3d52.5100989!4d16.574351!16s%2Fg%2F12hlnx6_7!19sChIJr3T2yiY8BEcRZQK9_Fzuhq0?authuser=0&hl=tr&rclk=1",
    "website_url": "",
    "rating_text": "4,7",
    "stars": null,
    "number_of_reviews": null,
    "price_level": "",
    "open_hours": "",
    "extraction_timestamp": "2025-06-07T17:27:20.512Z",
    "source_name": "google",
    "source_query": "Irrigation Equipment",
    "source_country": "PL",
    "country": "Poland",
    "state": "Greater Poland Voivodeship",
    "city": "Kaźmierz"
  },
  {
    "source_id": "ChIJazD4z5w-BEcRm-9bcflo1CM",
    "name": "Chata Polska sklep spożywczy",
    "category": "Chata Polska sklep spożywczy",
    "formatted_address": "4,1(173)",
    "phone_number": "+48887331033",
    "source_url": "https://www.google.com/maps/place/Chata+Polska+sklep+spo%C5%BCywczy/data=!4m7!3m6!1s0x47043e9ccff8306b:0x23d468f9715bef9b!8m2!3d52.5127987!4d16.5871165!16s%2Fg%2F11f6h8xvlk!19sChIJazD4z5w-BEcRm-9bcflo1CM?authuser=0&hl=tr&rclk=1",
    "website_url": "",
    "rating_text": "4,1",
    "stars": null,
    "number_of_reviews": null,
    "price_level": "",
    "open_hours": "",
    "extraction_timestamp": "2025-06-07T17:27:20.513Z",
    "source_name": "google",
    "source_query": "Irrigation Equipment",
    "source_country": "PL",
    "country": "Poland",
    "state": "Greater Poland Voivodeship",
    "city": "Kaźmierz"
  },
  {
    "source_id": "ChIJdRnGeDBaBEcRpyx7M8s1JkQ",
    "name": "Wirtgen Polska Sp. z o.o.",
    "category": "Wirtgen Polska Sp. z o.o.",
    "formatted_address": "4,4(31)",
    "phone_number": "+48618982100",
    "source_url": "https://www.google.com/maps/place/Wirtgen+Polska+Sp.+z+o.o./data=!4m7!3m6!1s0x47045a3078c61975:0x442635cb337b2ca7!8m2!3d52.3665338!4d16.9940075!16s%2Fg%2F1pv043rwn!19sChIJdRnGeDBaBEcRpyx7M8s1JkQ?authuser=0&hl=tr&rclk=1",
    "website_url": "",
    "rating_text": "4,4",
    "stars": null,
    "number_of_reviews": null,
    "price_level": "",
    "open_hours": "",
    "extraction_timestamp": "2025-06-07T17:27:20.514Z",
    "source_name": "google",
    "source_query": "Irrigation Equipment",
    "source_country": "PL",
    "country": "Poland",
    "state": "Greater Poland Voivodeship",
    "city": "Kaźmierz"
  },
  {
    "source_id": "ChIJQ1ohPQ8XBEcRWBg-baAh3OU",
    "name": "Hydromar",
    "category": "Hydromar",
    "formatted_address": "4,2(19)",
    "phone_number": "+48612921984",
    "source_url": "https://www.google.com/maps/place/Hydromar/data=!4m7!3m6!1s0x4704170f3d215a43:0xe5dc21a06d3e1858!8m2!3d52.620958!4d16.5665889!16s%2Fg%2F1tp06t6y!19sChIJQ1ohPQ8XBEcRWBg-baAh3OU?authuser=0&hl=tr&rclk=1",
    "website_url": "",
    "rating_text": "4,2",
    "stars": null,
    "number_of_reviews": null,
    "price_level": "",
    "open_hours": "",
    "extraction_timestamp": "2025-06-07T17:27:20.515Z",
    "source_name": "google",
    "source_query": "Irrigation Equipment",
    "source_country": "PL",
    "country": "Poland",
    "state": "Greater Poland Voivodeship",
    "city": "Kaźmierz"
  },
  {
    "source_id": "ChIJ4_wFmYI-BEcR5T4duJ9N03o",
    "name": "Biedronka",
    "category": "Biedronka",
    "formatted_address": "3,9(772)",
    "phone_number": "+48800080010",
    "source_url": "https://www.google.com/maps/place/Biedronka/data=!4m7!3m6!1s0x47043e829905fce3:0x7ad34d9fb81d3ee5!8m2!3d52.515155!4d16.58408!16s%2Fg%2F11b5wdmxzc!19sChIJ4_wFmYI-BEcR5T4duJ9N03o?authuser=0&hl=tr&rclk=1",
    "website_url": "",
    "rating_text": "3,9",
    "stars": null,
    "number_of_reviews": null,
    "price_level": "",
    "open_hours": "",
    "extraction_timestamp": "2025-06-07T17:27:20.516Z",
    "source_name": "google",
    "source_query": "Irrigation Equipment",
    "source_country": "PL",
    "country": "Poland",
    "state": "Greater Poland Voivodeship",
    "city": "Kaźmierz"
  }
]
