[
  {
    "source_id": "ChIJr503wDa1BEcR_jFkIgDU15g",
    "name": "P.H.U. EL-WI Jarosław Witucki",
    "category": "P.H.U. EL-WI Jarosław Witucki",
    "formatted_address": "4,4(7)",
    "phone_number": "+48632701135",
    "source_url": "https://www.google.com/maps/place/P.H.U.+EL-WI+Jaros%C5%82aw+Witucki/data=!4m7!3m6!1s0x4704b536c0379daf:0x98d7d400226431fe!8m2!3d52.3663249!4d18.1827379!16s%2Fg%2F11jdqygth7!19sChIJr503wDa1BEcR_jFkIgDU15g?authuser=0&hl=tr&rclk=1",
    "website_url": "",
    "rating_text": "4,4",
    "stars": null,
    "number_of_reviews": null,
    "price_level": "",
    "open_hours": "",
    "extraction_timestamp": "2025-06-07T17:43:57.340Z",
    "source_name": "google",
    "source_query": "Irrigation Equipment",
    "source_country": "PL",
    "country": "Poland",
    "state": "Greater Poland Voivodeship",
    "city": "Kleczew"
  },
  {
    "source_id": "ChIJ1-OvA5K1BEcR-dzV1V4h8Jk",
    "name": "HYDRO_DAR - Dariusz Powidzki | USŁUGI HYDRAULICZNE",
    "category": "HYDRO_DAR - Dariusz Powidzki | USŁUGI HYDRAULICZNE",
    "formatted_address": "4,5(6)",
    "phone_number": "+48607811807",
    "source_url": "https://www.google.com/maps/place/HYDRO_DAR+-+Dariusz+Powidzki+%7C+US%C5%81UGI+HYDRAULICZNE/data=!4m7!3m6!1s0x4704b59203afe3d7:0x99f0215ed5d5dcf9!8m2!3d52.3760935!4d18.1705123!16s%2Fg%2F11pymw2dwr!19sChIJ1-OvA5K1BEcR-dzV1V4h8Jk?authuser=0&hl=tr&rclk=1",
    "website_url": "",
    "rating_text": "4,5",
    "stars": null,
    "number_of_reviews": null,
    "price_level": "",
    "open_hours": "",
    "extraction_timestamp": "2025-06-07T17:43:57.341Z",
    "source_name": "google",
    "source_query": "Irrigation Equipment",
    "source_country": "PL",
    "country": "Poland",
    "state": "Greater Poland Voivodeship",
    "city": "Kleczew"
  },
  {
    "source_id": "ChIJ8WjSDQQ0G0cRlurAMqQfSVc",
    "name": "Ferro Spółka z.o.o.",
    "category": "Ferro Spółka z.o.o.",
    "formatted_address": "4,6(9)",
    "phone_number": "+48632428819",
    "source_url": "https://www.google.com/maps/place/Ferro+Sp%C3%B3%C5%82ka+z.o.o./data=!4m7!3m6!1s0x471b34040dd268f1:0x57491fa432c0ea96!8m2!3d52.2362945!4d18.2407474!16s%2Fg%2F1tdbpmg7!19sChIJ8WjSDQQ0G0cRlurAMqQfSVc?authuser=0&hl=tr&rclk=1",
    "website_url": "",
    "rating_text": "4,6",
    "stars": null,
    "number_of_reviews": null,
    "price_level": "",
    "open_hours": "",
    "extraction_timestamp": "2025-06-07T17:43:57.341Z",
    "source_name": "google",
    "source_query": "Irrigation Equipment",
    "source_country": "PL",
    "country": "Poland",
    "state": "Greater Poland Voivodeship",
    "city": "Kleczew"
  },
  {
    "source_id": "ChIJIxlmSCC1BEcRy053nKnRG5E",
    "name": "Prezent",
    "category": "Prezent",
    "formatted_address": "4,9(14)",
    "phone_number": "+48725470999",
    "source_url": "https://www.google.com/maps/place/Prezent/data=!4m7!3m6!1s0x4704b52048661923:0x911bd1a99c774ecb!8m2!3d52.3698491!4d18.1761195!16s%2Fg%2F11j4t6wq6q!19sChIJIxlmSCC1BEcRy053nKnRG5E?authuser=0&hl=tr&rclk=1",
    "website_url": "",
    "rating_text": "4,9",
    "stars": null,
    "number_of_reviews": null,
    "price_level": "",
    "open_hours": "",
    "extraction_timestamp": "2025-06-07T17:43:57.341Z",
    "source_name": "google",
    "source_query": "Irrigation Equipment",
    "source_country": "PL",
    "country": "Poland",
    "state": "Greater Poland Voivodeship",
    "city": "Kleczew"
  },
  {
    "source_id": "ChIJLRBwI-21BEcRU7_bL-TkPdE",
    "name": "Targowisko miejskie",
    "category": "Targowisko miejskie",
    "formatted_address": "4,3(3)",
    "phone_number": "",
    "source_url": "https://www.google.com/maps/place/Targowisko+miejskie/data=!4m7!3m6!1s0x4704b5ed2370102d:0xd13de4e42fdbbf53!8m2!3d52.3709849!4d18.1762605!16s%2Fg%2F11qh1m4vtr!19sChIJLRBwI-21BEcRU7_bL-TkPdE?authuser=0&hl=tr&rclk=1",
    "website_url": "",
    "rating_text": "4,3",
    "stars": null,
    "number_of_reviews": null,
    "price_level": "",
    "open_hours": "",
    "extraction_timestamp": "2025-06-07T17:43:57.342Z",
    "source_name": "google",
    "source_query": "Irrigation Equipment",
    "source_country": "PL",
    "country": "Poland",
    "state": "Greater Poland Voivodeship",
    "city": "Kleczew"
  },
  {
    "source_id": "ChIJSxJzri-1BEcRBRusEgjsqV4",
    "name": "Prohydro",
    "category": "Prohydro",
    "formatted_address": "5,0(1)",
    "phone_number": "+48603437677",
    "source_url": "https://www.google.com/maps/place/Prohydro/data=!4m7!3m6!1s0x4704b52fae73124b:0x5ea9ec0812ac1b05!8m2!3d51.953761!4d19.1343692!16s%2Fg%2F11fm1697gm!19sChIJSxJzri-1BEcRBRusEgjsqV4?authuser=0&hl=tr&rclk=1",
    "website_url": "",
    "rating_text": "5,0",
    "stars": null,
    "number_of_reviews": null,
    "price_level": "",
    "open_hours": "",
    "extraction_timestamp": "2025-06-07T17:43:57.342Z",
    "source_name": "google",
    "source_query": "Irrigation Equipment",
    "source_country": "PL",
    "country": "Poland",
    "state": "Greater Poland Voivodeship",
    "city": "Kleczew"
  },
  {
    "source_id": "ChIJjcE-QiC1BEcRwbcYshhf5Kw",
    "name": "Lewiatan. Szymon Młodziński",
    "category": "Lewiatan. Szymon Młodziński",
    "formatted_address": "4,3(115)",
    "phone_number": "+48500117607",
    "source_url": "https://www.google.com/maps/place/Lewiatan.+Szymon+M%C5%82odzi%C5%84ski/data=!4m7!3m6!1s0x4704b520423ec18d:0xace45f18b218b7c1!8m2!3d52.3703889!4d18.1769599!16s%2Fg%2F1vtzfx_5!19sChIJjcE-QiC1BEcRwbcYshhf5Kw?authuser=0&hl=tr&rclk=1",
    "website_url": "",
    "rating_text": "4,3",
    "stars": null,
    "number_of_reviews": null,
    "price_level": "",
    "open_hours": "",
    "extraction_timestamp": "2025-06-07T17:43:57.342Z",
    "source_name": "google",
    "source_query": "Irrigation Equipment",
    "source_country": "PL",
    "country": "Poland",
    "state": "Greater Poland Voivodeship",
    "city": "Kleczew"
  },
  {
    "source_id": "ChIJ44HUaSC1BEcRajZCGSv1PqI",
    "name": "Plaża Jezioro Malta Kleczewska",
    "category": "Plaża Jezioro Malta Kleczewska",
    "formatted_address": "4,6(58)",
    "phone_number": "",
    "source_url": "https://www.google.com/maps/place/Pla%C5%BCa+Jezioro+Malta+Kleczewska/data=!4m7!3m6!1s0x4704b52069d481e3:0xa23ef52b1942366a!8m2!3d52.3624073!4d18.2065453!16s%2Fg%2F11gfhx97sg!19sChIJ44HUaSC1BEcRajZCGSv1PqI?authuser=0&hl=tr&rclk=1",
    "website_url": "",
    "rating_text": "4,6",
    "stars": null,
    "number_of_reviews": null,
    "price_level": "",
    "open_hours": "",
    "extraction_timestamp": "2025-06-07T17:43:57.342Z",
    "source_name": "google",
    "source_query": "Irrigation Equipment",
    "source_country": "PL",
    "country": "Poland",
    "state": "Greater Poland Voivodeship",
    "city": "Kleczew"
  },
  {
    "source_id": "ChIJayy1Vam1BEcRm4xAvndthdc",
    "name": "Premium Alkohole",
    "category": "Premium Alkohole",
    "formatted_address": "4,7(15)",
    "phone_number": "+48609244443",
    "source_url": "https://www.google.com/maps/place/Premium+Alkohole/data=!4m7!3m6!1s0x4704b5a955b52c6b:0xd7856d77be408c9b!8m2!3d52.3693929!4d18.1758819!16s%2Fg%2F11fn55tm2v!19sChIJayy1Vam1BEcRm4xAvndthdc?authuser=0&hl=tr&rclk=1",
    "website_url": "",
    "rating_text": "4,7",
    "stars": null,
    "number_of_reviews": null,
    "price_level": "",
    "open_hours": "",
    "extraction_timestamp": "2025-06-07T17:43:57.342Z",
    "source_name": "google",
    "source_query": "Irrigation Equipment",
    "source_country": "PL",
    "country": "Poland",
    "state": "Greater Poland Voivodeship",
    "city": "Kleczew"
  },
  {
    "source_id": "ChIJkUu7UiC1BEcR9ho-mBwlcDc",
    "name": "Twój Market",
    "category": "Twój Market",
    "formatted_address": "4,1(159)",
    "phone_number": "+48801555559",
    "source_url": "https://www.google.com/maps/place/Tw%C3%B3j+Market/data=!4m7!3m6!1s0x4704b52052bb4b91:0x3770251c983e1af6!8m2!3d52.3689746!4d18.1768507!16s%2Fg%2F1tcxhgr1!19sChIJkUu7UiC1BEcR9ho-mBwlcDc?authuser=0&hl=tr&rclk=1",
    "website_url": "",
    "rating_text": "4,1",
    "stars": null,
    "number_of_reviews": null,
    "price_level": "",
    "open_hours": "",
    "extraction_timestamp": "2025-06-07T17:43:57.343Z",
    "source_name": "google",
    "source_query": "Irrigation Equipment",
    "source_country": "PL",
    "country": "Poland",
    "state": "Greater Poland Voivodeship",
    "city": "Kleczew"
  },
  {
    "source_id": "ChIJId2z0re1BEcRnled2uDfYfU",
    "name": "Pepco",
    "category": "Pepco",
    "formatted_address": "4,7(80)",
    "phone_number": "",
    "source_url": "https://www.google.com/maps/place/Pepco/data=!4m7!3m6!1s0x4704b5b7d2b3dd21:0xf561dfe0da9d579e!8m2!3d52.3712243!4d18.1773235!16s%2Fg%2F11q22x87bn!19sChIJId2z0re1BEcRnled2uDfYfU?authuser=0&hl=tr&rclk=1",
    "website_url": "",
    "rating_text": "4,7",
    "stars": null,
    "number_of_reviews": null,
    "price_level": "",
    "open_hours": "",
    "extraction_timestamp": "2025-06-07T17:43:57.343Z",
    "source_name": "google",
    "source_query": "Irrigation Equipment",
    "source_country": "PL",
    "country": "Poland",
    "state": "Greater Poland Voivodeship",
    "city": "Kleczew"
  },
  {
    "source_id": "ChIJ20MVw2K1BEcRoL20XrlRKfs",
    "name": "Phu Węglobud",
    "category": "Phu Węglobud",
    "formatted_address": "4,3(3)",
    "phone_number": "+48695980798",
    "source_url": "https://www.google.com/maps/place/Phu+W%C4%99globud/data=!4m7!3m6!1s0x4704b562c31543db:0xfb2951b95eb4bda0!8m2!3d52.3575012!4d18.1928843!16s%2Fg%2F11jn4w071l!19sChIJ20MVw2K1BEcRoL20XrlRKfs?authuser=0&hl=tr&rclk=1",
    "website_url": "",
    "rating_text": "4,3",
    "stars": null,
    "number_of_reviews": null,
    "price_level": "",
    "open_hours": "",
    "extraction_timestamp": "2025-06-07T17:43:57.343Z",
    "source_name": "google",
    "source_query": "Irrigation Equipment",
    "source_country": "PL",
    "country": "Poland",
    "state": "Greater Poland Voivodeship",
    "city": "Kleczew"
  },
  {
    "source_id": "ChIJya5UiiW1BEcRZK8KyndpwPg",
    "name": "Twój Market",
    "category": "Twój Market",
    "formatted_address": "4,2(160)",
    "phone_number": "+48801555559",
    "source_url": "https://www.google.com/maps/place/Tw%C3%B3j+Market/data=!4m7!3m6!1s0x4704b5258a54aec9:0xf8c06977ca0aaf64!8m2!3d52.3633711!4d18.1859213!16s%2Fg%2F11ggr33qw_!19sChIJya5UiiW1BEcRZK8KyndpwPg?authuser=0&hl=tr&rclk=1",
    "website_url": "",
    "rating_text": "4,2",
    "stars": null,
    "number_of_reviews": null,
    "price_level": "",
    "open_hours": "",
    "extraction_timestamp": "2025-06-07T17:43:57.343Z",
    "source_name": "google",
    "source_query": "Irrigation Equipment",
    "source_country": "PL",
    "country": "Poland",
    "state": "Greater Poland Voivodeship",
    "city": "Kleczew"
  },
  {
    "source_id": "ChIJrwDXeAC1BEcRq0UWw6o66ks",
    "name": "Drogeria Rossmann",
    "category": "Drogeria Rossmann",
    "formatted_address": "4,5(11)",
    "phone_number": "+48609499939",
    "source_url": "https://www.google.com/maps/place/Drogeria+Rossmann/data=!4m7!3m6!1s0x4704b50078d700af:0x4bea3aaac31645ab!8m2!3d52.3678311!4d18.1821709!16s%2Fg%2F11vxy6jx41!19sChIJrwDXeAC1BEcRq0UWw6o66ks?authuser=0&hl=tr&rclk=1",
    "website_url": "",
    "rating_text": "4,5",
    "stars": null,
    "number_of_reviews": null,
    "price_level": "",
    "open_hours": "",
    "extraction_timestamp": "2025-06-07T17:43:57.344Z",
    "source_name": "google",
    "source_query": "Irrigation Equipment",
    "source_country": "PL",
    "country": "Poland",
    "state": "Greater Poland Voivodeship",
    "city": "Kleczew"
  },
  {
    "source_id": "ChIJk5LG1za1BEcR0JcTrvz2CCU",
    "name": "Biedronka",
    "category": "Biedronka",
    "formatted_address": "4,2(269)",
    "phone_number": "+48800080010",
    "source_url": "https://www.google.com/maps/place/Biedronka/data=!4m7!3m6!1s0x4704b536d7c69293:0x2508f6fcae1397d0!8m2!3d52.367774!4d18.1824998!16s%2Fg%2F11rk2d9mzs!19sChIJk5LG1za1BEcR0JcTrvz2CCU?authuser=0&hl=tr&rclk=1",
    "website_url": "",
    "rating_text": "4,2",
    "stars": null,
    "number_of_reviews": null,
    "price_level": "",
    "open_hours": "",
    "extraction_timestamp": "2025-06-07T17:43:57.344Z",
    "source_name": "google",
    "source_query": "Irrigation Equipment",
    "source_country": "PL",
    "country": "Poland",
    "state": "Greater Poland Voivodeship",
    "city": "Kleczew"
  },
  {
    "source_id": "ChIJ-1rtaMG1BEcR5sTCHQrASZU",
    "name": "Dino",
    "category": "Dino",
    "formatted_address": "4,8(45)",
    "phone_number": "",
    "source_url": "https://www.google.com/maps/place/Dino/data=!4m7!3m6!1s0x4704b5c168ed5afb:0x9549c00a1dc2c4e6!8m2!3d52.3681457!4d18.1860777!16s%2Fg%2F11t7hk5vsk!19sChIJ-1rtaMG1BEcR5sTCHQrASZU?authuser=0&hl=tr&rclk=1",
    "website_url": "",
    "rating_text": "4,8",
    "stars": null,
    "number_of_reviews": null,
    "price_level": "",
    "open_hours": "",
    "extraction_timestamp": "2025-06-07T17:43:57.344Z",
    "source_name": "google",
    "source_query": "Irrigation Equipment",
    "source_country": "PL",
    "country": "Poland",
    "state": "Greater Poland Voivodeship",
    "city": "Kleczew"
  }
]
