[
  {
    "source_id": "ChIJ4zc6v4hZBEcRKah1mzKBwPg",
    "name": "PHU \"ADVISER\" - Systemy nawadniania",
    "category": "PHU \"ADVISER\" - Systemy nawadniania",
    "formatted_address": "4,8(123)",
    "phone_number": "+48618798700",
    "source_url": "https://www.google.com/maps/place/PHU+%22ADVISER%22+-+Systemy+nawadniania/data=!4m7!3m6!1s0x47045988bf3a37e3:0xf8c081329b75a829!8m2!3d52.3434333!4d17.0287055!16s%2Fg%2F1w3459w5!19sChIJ4zc6v4hZBEcRKah1mzKBwPg?authuser=0&hl=tr&rclk=1",
    "website_url": "http://www.phu-adviser.pl/",
    "rating_text": "4,8",
    "stars": null,
    "number_of_reviews": null,
    "price_level": "",
    "open_hours": "",
    "extraction_timestamp": "2025-06-07T17:13:50.467Z",
    "source_name": "google",
    "source_query": "Irrigation Equipment",
    "source_country": "PL",
    "country": "Poland",
    "state": "Greater Poland Voivodeship",
    "city": "Kleszczewo"
  },
  {
    "source_id": "ChIJFVCITOVPBEcRG-lA_g1qlqk",
    "name": "Technika Wody",
    "category": "Technika Wody",
    "formatted_address": "4,6(288)",
    "phone_number": "+48502506622",
    "source_url": "https://www.google.com/maps/place/Technika+Wody/data=!4m7!3m6!1s0x47044fe54c885015:0xa9966a0dfe40e91b!8m2!3d52.3740842!4d16.819808!16s%2Fg%2F11b7vsdjf5!19sChIJFVCITOVPBEcRG-lA_g1qlqk?authuser=0&hl=tr&rclk=1",
    "website_url": "http://technikawody.pl/",
    "rating_text": "4,6",
    "stars": null,
    "number_of_reviews": null,
    "price_level": "",
    "open_hours": "",
    "extraction_timestamp": "2025-06-07T17:13:50.467Z",
    "source_name": "google",
    "source_query": "Irrigation Equipment",
    "source_country": "PL",
    "country": "Poland",
    "state": "Greater Poland Voivodeship",
    "city": "Kleszczewo"
  },
  {
    "source_id": "ChIJ1fH8twRdBEcRWGX6D1tc3ZA",
    "name": "Kardoliński Zbigniew. Pompy głębinowe, hydroforowe, ściekowe",
    "category": "Kardoliński Zbigniew. Pompy głębinowe, hydroforowe, ściekowe",
    "formatted_address": "Kardoliński Zbigniew. Pompy głębinowe, hydroforowe, ściekowe",
    "phone_number": "",
    "source_url": "https://www.google.com/maps/place/Kardoli%C5%84ski+Zbigniew.+Pompy+g%C5%82%C4%99binowe,+hydroforowe,+%C5%9Bciekowe/data=!4m7!3m6!1s0x47045d04b7fcf1d5:0x90dd5c5b0ffa6558!8m2!3d52.4712374!4d16.9991202!16s%2Fg%2F1tfwj1tc!19sChIJ1fH8twRdBEcRWGX6D1tc3ZA?authuser=0&hl=tr&rclk=1",
    "website_url": "http://www.pompykardolinski.pl/",
    "rating_text": "4,8",
    "stars": null,
    "number_of_reviews": null,
    "price_level": "",
    "open_hours": "",
    "extraction_timestamp": "2025-06-07T17:13:50.467Z",
    "source_name": "google",
    "source_query": "Irrigation Equipment",
    "source_country": "PL",
    "country": "Poland",
    "state": "Greater Poland Voivodeship",
    "city": "Kleszczewo"
  },
  {
    "source_id": "ChIJk0OekLz3BEcRMycau0XRkq8",
    "name": "Sklep",
    "category": "Sklep",
    "formatted_address": "2,9(33)",
    "phone_number": "",
    "source_url": "https://www.google.com/maps/place/Sklep/data=!4m7!3m6!1s0x4704f7bc909e4393:0xaf92d145bb1a2733!8m2!3d52.3339631!4d17.1708392!16s%2Fg%2F11dfr1q48p!19sChIJk0OekLz3BEcRMycau0XRkq8?authuser=0&hl=tr&rclk=1",
    "website_url": "https://mapa.targeo.pl/sklep-instalcenter-poznanska-27-63-005-kleszczewo~9958962/budownictwo-wyroby-budowlane/adres",
    "rating_text": "2,9",
    "stars": null,
    "number_of_reviews": null,
    "price_level": "",
    "open_hours": "",
    "extraction_timestamp": "2025-06-07T17:13:50.468Z",
    "source_name": "google",
    "source_query": "Irrigation Equipment",
    "source_country": "PL",
    "country": "Poland",
    "state": "Greater Poland Voivodeship",
    "city": "Kleszczewo"
  },
  {
    "source_id": "ChIJUfn2Ig35A0cREW9fZ4029UM",
    "name": "IMTechnika sp. z o.o.",
    "category": "IMTechnika sp. z o.o.",
    "formatted_address": "4,4(17)",
    "phone_number": "+48883820388",
    "source_url": "https://www.google.com/maps/place/IMTechnika+sp.+z+o.o./data=!4m7!3m6!1s0x4703f90d22f6f951:0x43f5368d675f6f11!8m2!3d52.9756271!4d16.657836!16s%2Fg%2F11bw48_6mg!19sChIJUfn2Ig35A0cREW9fZ4029UM?authuser=0&hl=tr&rclk=1",
    "website_url": "http://imtechnika.pl/",
    "rating_text": "4,4",
    "stars": null,
    "number_of_reviews": null,
    "price_level": "",
    "open_hours": "",
    "extraction_timestamp": "2025-06-07T17:13:50.468Z",
    "source_name": "google",
    "source_query": "Irrigation Equipment",
    "source_country": "PL",
    "country": "Poland",
    "state": "Greater Poland Voivodeship",
    "city": "Kleszczewo"
  },
  {
    "source_id": "ChIJ6TigCPtbBEcRDr5Mlbvqz0s",
    "name": "REXEL",
    "category": "REXEL",
    "formatted_address": "3,2(11)",
    "phone_number": "+48618768946",
    "source_url": "https://www.google.com/maps/place/REXEL/data=!4m7!3m6!1s0x47045bfb08a038e9:0x4bcfeabb954cbe0e!8m2!3d52.4074751!4d17.0285672!16s%2Fg%2F1th0lll2!19sChIJ6TigCPtbBEcRDr5Mlbvqz0s?authuser=0&hl=tr&rclk=1",
    "website_url": "http://www.rexel.com.pl/",
    "rating_text": "3,2",
    "stars": null,
    "number_of_reviews": null,
    "price_level": "",
    "open_hours": "",
    "extraction_timestamp": "2025-06-07T17:13:50.468Z",
    "source_name": "google",
    "source_query": "Irrigation Equipment",
    "source_country": "PL",
    "country": "Poland",
    "state": "Greater Poland Voivodeship",
    "city": "Kleszczewo"
  },
  {
    "source_id": "ChIJB6y_v5J2HEcRlDfYx3xmc9M",
    "name": "Milex irrigation systems",
    "category": "Milex irrigation systems",
    "formatted_address": "4,6(37)",
    "phone_number": "+48242775222",
    "source_url": "https://www.google.com/maps/place/Milex+irrigation+systems/data=!4m7!3m6!1s0x471c7692bfbfac07:0xd373667cc7d83794!8m2!3d52.4690634!4d19.7520904!16s%2Fg%2F1w2yy67r!19sChIJB6y_v5J2HEcRlDfYx3xmc9M?authuser=0&hl=tr&rclk=1",
    "website_url": "https://www.milex.pl/",
    "rating_text": "4,6",
    "stars": null,
    "number_of_reviews": null,
    "price_level": "",
    "open_hours": "",
    "extraction_timestamp": "2025-06-07T17:13:50.468Z",
    "source_name": "google",
    "source_query": "Irrigation Equipment",
    "source_country": "PL",
    "country": "Poland",
    "state": "Greater Poland Voivodeship",
    "city": "Kleszczewo"
  },
  {
    "source_id": "ChIJVTV3W_PzBEcR6gY0xwQi2_E",
    "name": "Deszczownie.com",
    "category": "Deszczownie.com",
    "formatted_address": "",
    "phone_number": "+48726000030",
    "source_url": "https://www.google.com/maps/place/Deszczownie.com/data=!4m7!3m6!1s0x4704f3f35b773555:0xf1db2204c73406ea!8m2!3d52.3623948!4d17.4021087!16s%2Fg%2F11y3pv4rxr!19sChIJVTV3W_PzBEcR6gY0xwQi2_E?authuser=0&hl=tr&rclk=1",
    "website_url": "https://www.deszczownie.com/",
    "rating_text": "",
    "stars": null,
    "number_of_reviews": null,
    "price_level": "",
    "open_hours": "",
    "extraction_timestamp": "2025-06-07T17:13:50.469Z",
    "source_name": "google",
    "source_query": "Irrigation Equipment",
    "source_country": "PL",
    "country": "Poland",
    "state": "Greater Poland Voivodeship",
    "city": "Kleszczewo"
  }
]
