[
  {
    "source_id": "ChIJvyC8M71rBUcRz852XlVu1vs",
    "name": "INSTALL-ARMATURA GRZEWCZA I SANITARNA",
    "category": "INSTALL-ARMATURA GRZEWCZA I SANITARNA",
    "formatted_address": "5,0(1)",
    "phone_number": "+48573374871",
    "source_url": "https://www.google.com/maps/place/INSTALL-ARMATURA+GRZEWCZA+I+SANITARNA/data=!4m7!3m6!1s0x47056bbd33bc20bf:0xfbd66e555e76cecf!8m2!3d51.7162465!4d17.2223674!16s%2Fg%2F11vcwj2h9s!19sChIJvyC8M71rBUcRz852XlVu1vs?authuser=0&hl=tr&rclk=1",
    "website_url": "",
    "rating_text": "5,0",
    "stars": null,
    "number_of_reviews": null,
    "price_level": "",
    "open_hours": "",
    "extraction_timestamp": "2025-06-07T17:45:31.540Z",
    "source_name": "google",
    "source_query": "Irrigation Equipment",
    "source_country": "PL",
    "country": "Poland",
    "state": "Greater Poland Voivodeship",
    "city": "Kobylin"
  },
  {
    "source_id": "ChIJTZjnj2dqBUcRlE0AFnz-4v4",
    "name": "Zaopatrzenie Rolnictwa PIASNY",
    "category": "Zaopatrzenie Rolnictwa PIASNY",
    "formatted_address": "4,6(36)",
    "phone_number": "+48655482109",
    "source_url": "https://www.google.com/maps/place/Zaopatrzenie+Rolnictwa+PIASNY/data=!4m7!3m6!1s0x47056a678fe7984d:0xfee2fe7c16004d94!8m2!3d51.7205003!4d17.2245569!16s%2Fg%2F1tf7wf2p!19sChIJTZjnj2dqBUcRlE0AFnz-4v4?authuser=0&hl=tr&rclk=1",
    "website_url": "",
    "rating_text": "4,6",
    "stars": null,
    "number_of_reviews": null,
    "price_level": "",
    "open_hours": "",
    "extraction_timestamp": "2025-06-07T17:45:31.541Z",
    "source_name": "google",
    "source_query": "Irrigation Equipment",
    "source_country": "PL",
    "country": "Poland",
    "state": "Greater Poland Voivodeship",
    "city": "Kobylin"
  },
  {
    "source_id": "ChIJR5La7PxqBUcR5P5-FYhctQk",
    "name": "Mateusz Waleński M-Rol",
    "category": "Mateusz Waleński M-Rol",
    "formatted_address": "5,0(1)",
    "phone_number": "+48697561105",
    "source_url": "https://www.google.com/maps/place/Mateusz+Wale%C5%84ski+M-Rol/data=!4m7!3m6!1s0x47056afcecda9247:0x9b55c88157efee4!8m2!3d51.7258706!4d17.2238319!16s%2Fg%2F11gsyv5p6r!19sChIJR5La7PxqBUcR5P5-FYhctQk?authuser=0&hl=tr&rclk=1",
    "website_url": "",
    "rating_text": "5,0",
    "stars": null,
    "number_of_reviews": null,
    "price_level": "",
    "open_hours": "",
    "extraction_timestamp": "2025-06-07T17:45:31.542Z",
    "source_name": "google",
    "source_query": "Irrigation Equipment",
    "source_country": "PL",
    "country": "Poland",
    "state": "Greater Poland Voivodeship",
    "city": "Kobylin"
  },
  {
    "source_id": "ChIJh1Lmq2VqBUcR9KXJq9LvmrQ",
    "name": "Kwiatkiewicz Szymon. Usługi i handel",
    "category": "Kwiatkiewicz Szymon. Usługi i handel",
    "formatted_address": "5,0(3)",
    "phone_number": "+48693078333",
    "source_url": "https://www.google.com/maps/place/Kwiatkiewicz+Szymon.+Us%C5%82ugi+i+handel/data=!4m7!3m6!1s0x47056a65abe65287:0xb49aefd2abc9a5f4!8m2!3d51.7218323!4d17.2347536!16s%2Fg%2F1w0p49ys!19sChIJh1Lmq2VqBUcR9KXJq9LvmrQ?authuser=0&hl=tr&rclk=1",
    "website_url": "",
    "rating_text": "5,0",
    "stars": null,
    "number_of_reviews": null,
    "price_level": "",
    "open_hours": "",
    "extraction_timestamp": "2025-06-07T17:45:31.573Z",
    "source_name": "google",
    "source_query": "Irrigation Equipment",
    "source_country": "PL",
    "country": "Poland",
    "state": "Greater Poland Voivodeship",
    "city": "Kobylin"
  },
  {
    "source_id": "ChIJl-BbDMtrBUcR_OFDQLyD_Ao",
    "name": "Rynek miasta Kobylin",
    "category": "Rynek miasta Kobylin",
    "formatted_address": "4,3(70)",
    "phone_number": "+48731956240",
    "source_url": "https://www.google.com/maps/place/Rynek+miasta+Kobylin/data=!4m7!3m6!1s0x47056bcb0c5be097:0xafc83bc4043e1fc!8m2!3d51.7132424!4d17.225845!16s%2Fg%2F11h53kg3j6!19sChIJl-BbDMtrBUcR_OFDQLyD_Ao?authuser=0&hl=tr&rclk=1",
    "website_url": "",
    "rating_text": "4,3",
    "stars": null,
    "number_of_reviews": null,
    "price_level": "",
    "open_hours": "",
    "extraction_timestamp": "2025-06-07T17:45:31.574Z",
    "source_name": "google",
    "source_query": "Irrigation Equipment",
    "source_country": "PL",
    "country": "Poland",
    "state": "Greater Poland Voivodeship",
    "city": "Kobylin"
  },
  {
    "source_id": "ChIJl5vvly5rBUcR1cOghve3BlU",
    "name": "Suples Coffe & Juice Bar",
    "category": "Suples Coffe & Juice Bar",
    "formatted_address": "5,0(4)",
    "phone_number": "+48602439164",
    "source_url": "https://www.google.com/maps/place/Suples+Coffe+%26+Juice+Bar/data=!4m7!3m6!1s0x47056b2e97ef9b97:0x5506b7f786a0c3d5!8m2!3d51.7149037!4d17.2222249!16s%2Fg%2F11y3_ycxv1!19sChIJl5vvly5rBUcR1cOghve3BlU?authuser=0&hl=tr&rclk=1",
    "website_url": "",
    "rating_text": "5,0",
    "stars": null,
    "number_of_reviews": null,
    "price_level": "",
    "open_hours": "",
    "extraction_timestamp": "2025-06-07T17:45:31.576Z",
    "source_name": "google",
    "source_query": "Irrigation Equipment",
    "source_country": "PL",
    "country": "Poland",
    "state": "Greater Poland Voivodeship",
    "city": "Kobylin"
  },
  {
    "source_id": "ChIJ25lEXAxrBUcRdl7LXHmvAu8",
    "name": "Drogeria ASPI GRZEŚKOWIAK",
    "category": "Drogeria ASPI GRZEŚKOWIAK",
    "formatted_address": "5,0(2)",
    "phone_number": "",
    "source_url": "https://www.google.com/maps/place/Drogeria+ASPI+GRZE%C5%9AKOWIAK/data=!4m7!3m6!1s0x47056b0c5c4499db:0xef02af795ccb5e76!8m2!3d51.7154339!4d17.226864!16s%2Fg%2F11gjnbdp63!19sChIJ25lEXAxrBUcRdl7LXHmvAu8?authuser=0&hl=tr&rclk=1",
    "website_url": "",
    "rating_text": "5,0",
    "stars": null,
    "number_of_reviews": null,
    "price_level": "",
    "open_hours": "",
    "extraction_timestamp": "2025-06-07T17:45:31.576Z",
    "source_name": "google",
    "source_query": "Irrigation Equipment",
    "source_country": "PL",
    "country": "Poland",
    "state": "Greater Poland Voivodeship",
    "city": "Kobylin"
  },
  {
    "source_id": "ChIJvbG_2oFrBUcRJJ-5llB2xk8",
    "name": "Dino",
    "category": "Dino",
    "formatted_address": "4,5(118)",
    "phone_number": "",
    "source_url": "https://www.google.com/maps/place/Dino/data=!4m7!3m6!1s0x47056b81dabfb1bd:0x4fc6765096b99f24!8m2!3d51.7237297!4d17.223402!16s%2Fg%2F11h0t127m9!19sChIJvbG_2oFrBUcRJJ-5llB2xk8?authuser=0&hl=tr&rclk=1",
    "website_url": "",
    "rating_text": "4,5",
    "stars": null,
    "number_of_reviews": null,
    "price_level": "",
    "open_hours": "",
    "extraction_timestamp": "2025-06-07T17:45:31.577Z",
    "source_name": "google",
    "source_query": "Irrigation Equipment",
    "source_country": "PL",
    "country": "Poland",
    "state": "Greater Poland Voivodeship",
    "city": "Kobylin"
  },
  {
    "source_id": "ChIJDWvC8WhqBUcRJOFhu4C-xw4",
    "name": "Biedronka",
    "category": "Biedronka",
    "formatted_address": "4,2(493)",
    "phone_number": "+48800080010",
    "source_url": "https://www.google.com/maps/place/Biedronka/data=!4m7!3m6!1s0x47056a68f1c26b0d:0xec7be80bb61e124!8m2!3d51.7190385!4d17.2250772!16s%2Fg%2F11b5wkq_bg!19sChIJDWvC8WhqBUcRJOFhu4C-xw4?authuser=0&hl=tr&rclk=1",
    "website_url": "",
    "rating_text": "4,2",
    "stars": null,
    "number_of_reviews": null,
    "price_level": "",
    "open_hours": "",
    "extraction_timestamp": "2025-06-07T17:45:31.578Z",
    "source_name": "google",
    "source_query": "Irrigation Equipment",
    "source_country": "PL",
    "country": "Poland",
    "state": "Greater Poland Voivodeship",
    "city": "Kobylin"
  }
]
