[
  {
    "source_id": "ChIJdYXUNIheBEcRCQ0Jer6g8uA",
    "name": "Geo-Aqua Wojciech Książkiewicz",
    "category": "Geo-Aqua Wojciech Książkiewicz",
    "formatted_address": "5,0(11)",
    "phone_number": "+48694085712",
    "source_url": "https://www.google.com/maps/place/Geo-Aqua+Wojciech+Ksi%C4%85%C5%BCkiewicz/data=!4m7!3m6!1s0x47045e8834d48575:0xe0f2a0be7a090d09!8m2!3d52.4499587!4d17.0886344!16s%2Fg%2F11c45jq7qq!19sChIJdYXUNIheBEcRCQ0Jer6g8uA?authuser=0&hl=tr&rclk=1",
    "website_url": "http://www.geo-aqua.pl/",
    "rating_text": "5,0",
    "stars": null,
    "number_of_reviews": null,
    "price_level": "",
    "open_hours": "",
    "extraction_timestamp": "2025-06-07T17:53:49.923Z",
    "source_name": "google",
    "source_query": "Irrigation Equipment",
    "source_country": "PL",
    "country": "Poland",
    "state": "Greater Poland Voivodeship",
    "city": "Kobylnica"
  },
  {
    "source_id": "ChIJnwCl9opeBEcRC4EbZW5blfo",
    "name": "APA Polska Sp.z o.o. Sp.K.",
    "category": "APA Polska Sp.z o.o. Sp.K.",
    "formatted_address": "4,9(79)",
    "phone_number": "+48618150881",
    "source_url": "https://www.google.com/maps/place/APA+Polska+Sp.z+o.o.+Sp.K./data=!4m7!3m6!1s0x47045e8af6a5009f:0xfa955b6e651b810b!8m2!3d52.4485266!4d17.095056!16s%2Fg%2F11h0291z4!19sChIJnwCl9opeBEcRC4EbZW5blfo?authuser=0&hl=tr&rclk=1",
    "website_url": "http://www.apapolska.pl/",
    "rating_text": "4,9",
    "stars": null,
    "number_of_reviews": null,
    "price_level": "",
    "open_hours": "",
    "extraction_timestamp": "2025-06-07T17:53:49.924Z",
    "source_name": "google",
    "source_query": "Irrigation Equipment",
    "source_country": "PL",
    "country": "Poland",
    "state": "Greater Poland Voivodeship",
    "city": "Kobylnica"
  },
  {
    "source_id": "ChIJASAGQIFbBEcRg5o4DGaMvP0",
    "name": "KTB - Pompy i Armatura",
    "category": "KTB - Pompy i Armatura",
    "formatted_address": "5,0(5)",
    "phone_number": "+48501034404",
    "source_url": "https://www.google.com/maps/place/KTB+-+Pompy+i+Armatura/data=!4m7!3m6!1s0x47045b8140062001:0xfdbc8c660c389a83!8m2!3d52.4499321!4d17.0886924!16s%2Fg%2F11b7j9xtzd!19sChIJASAGQIFbBEcRg5o4DGaMvP0?authuser=0&hl=tr&rclk=1",
    "website_url": "https://www.ktb.net.pl/",
    "rating_text": "5,0",
    "stars": null,
    "number_of_reviews": null,
    "price_level": "",
    "open_hours": "",
    "extraction_timestamp": "2025-06-07T17:53:49.926Z",
    "source_name": "google",
    "source_query": "Irrigation Equipment",
    "source_country": "PL",
    "country": "Poland",
    "state": "Greater Poland Voivodeship",
    "city": "Kobylnica"
  },
  {
    "source_id": "ChIJQ4OTB4ZeBEcRe_Wj4tVnyIM",
    "name": "Nowa. FH. Kruszyńska K.",
    "category": "Nowa. FH. Kruszyńska K.",
    "formatted_address": "5,0(1)",
    "phone_number": "+48618150175",
    "source_url": "https://www.google.com/maps/place/Nowa.+FH.+Kruszy%C5%84ska+K./data=!4m7!3m6!1s0x47045e8607938343:0x83c867d5e2a3f57b!8m2!3d52.446948!4d17.080482!16s%2Fg%2F1w4f6tcv!19sChIJQ4OTB4ZeBEcRe_Wj4tVnyIM?authuser=0&hl=tr&rclk=1",
    "website_url": "",
    "rating_text": "5,0",
    "stars": null,
    "number_of_reviews": null,
    "price_level": "",
    "open_hours": "",
    "extraction_timestamp": "2025-06-07T17:53:49.927Z",
    "source_name": "google",
    "source_query": "Irrigation Equipment",
    "source_country": "PL",
    "country": "Poland",
    "state": "Greater Poland Voivodeship",
    "city": "Kobylnica"
  },
  {
    "source_id": "ChIJc2EMX71eBEcR-Hx5Pqyl_zw",
    "name": "Yardsystem PPUH",
    "category": "Yardsystem PPUH",
    "formatted_address": "5,0(1)",
    "phone_number": "+48504244291",
    "source_url": "https://www.google.com/maps/place/Yardsystem+PPUH/data=!4m7!3m6!1s0x47045ebd5f0c6173:0x3cffa5ac3e797cf8!8m2!3d52.4080264!4d17.0775388!16s%2Fg%2F11gbk4vcph!19sChIJc2EMX71eBEcR-Hx5Pqyl_zw?authuser=0&hl=tr&rclk=1",
    "website_url": "",
    "rating_text": "5,0",
    "stars": null,
    "number_of_reviews": null,
    "price_level": "",
    "open_hours": "",
    "extraction_timestamp": "2025-06-07T17:53:49.929Z",
    "source_name": "google",
    "source_query": "Irrigation Equipment",
    "source_country": "PL",
    "country": "Poland",
    "state": "Greater Poland Voivodeship",
    "city": "Kobylnica"
  },
  {
    "source_id": "ChIJnRj9xoleBEcR_lJv2VwE6U8",
    "name": "Pompy wielostopniowe pionowe, głębinowe, przetwornice do pomp",
    "category": "Pompy wielostopniowe pionowe, głębinowe, przetwornice do pomp",
    "formatted_address": "Pompy wielostopniowe pionowe, głębinowe, przetwornice do pomp",
    "phone_number": "+48485010344",
    "source_url": "https://www.google.com/maps/place/Pompy+wielostopniowe+pionowe,+g%C5%82%C4%99binowe,+przetwornice+do+pomp/data=!4m7!3m6!1s0x47045e89c6fd189d:0x4fe9045cd96f52fe!8m2!3d52.449936!4d17.0886675!16s%2Fg%2F11hyxn85c8!19sChIJnRj9xoleBEcR_lJv2VwE6U8?authuser=0&hl=tr&rclk=1",
    "website_url": "https://www.ktb.com.pl/",
    "rating_text": "",
    "stars": null,
    "number_of_reviews": null,
    "price_level": "",
    "open_hours": "",
    "extraction_timestamp": "2025-06-07T17:53:49.929Z",
    "source_name": "google",
    "source_query": "Irrigation Equipment",
    "source_country": "PL",
    "country": "Poland",
    "state": "Greater Poland Voivodeship",
    "city": "Kobylnica"
  }
]
