[
  {
    "source_id": "ChIJK7BzbyJFBEcRGDI7vl5IvSY",
    "name": "HYDROMIL",
    "category": "HYDROMIL",
    "formatted_address": "4,6(11)",
    "phone_number": "+48605578387",
    "source_url": "https://www.google.com/maps/place/HYDROMIL/data=!4m7!3m6!1s0x470445226f73b02b:0x26bd485ebe3b3218!8m2!3d52.3384345!4d16.792845!16s%2Fg%2F11g8b5yn79!19sChIJK7BzbyJFBEcRGDI7vl5IvSY?authuser=0&hl=tr&rclk=1",
    "website_url": "",
    "rating_text": "4,6",
    "stars": null,
    "number_of_reviews": null,
    "price_level": "",
    "open_hours": "",
    "extraction_timestamp": "2025-06-07T17:22:04.913Z",
    "source_name": "google",
    "source_query": "Irrigation Equipment",
    "source_country": "PL",
    "country": "Poland",
    "state": "Greater Poland Voivodeship",
    "city": "Komorniki"
  },
  {
    "source_id": "ChIJFVCITOVPBEcRG-lA_g1qlqk",
    "name": "Technika Wody",
    "category": "Technika Wody",
    "formatted_address": "4,6(288)",
    "phone_number": "+48502506622",
    "source_url": "https://www.google.com/maps/place/Technika+Wody/data=!4m7!3m6!1s0x47044fe54c885015:0xa9966a0dfe40e91b!8m2!3d52.3740842!4d16.819808!16s%2Fg%2F11b7vsdjf5!19sChIJFVCITOVPBEcRG-lA_g1qlqk?authuser=0&hl=tr&rclk=1",
    "website_url": "",
    "rating_text": "4,6",
    "stars": null,
    "number_of_reviews": null,
    "price_level": "",
    "open_hours": "",
    "extraction_timestamp": "2025-06-07T17:22:04.914Z",
    "source_name": "google",
    "source_query": "Irrigation Equipment",
    "source_country": "PL",
    "country": "Poland",
    "state": "Greater Poland Voivodeship",
    "city": "Komorniki"
  },
  {
    "source_id": "ChIJ16vohqBPBEcR-8J1GXt02RY",
    "name": "Aqua Service Dystrubucja s.c.",
    "category": "Aqua Service Dystrubucja s.c.",
    "formatted_address": "5,0(14)",
    "phone_number": "+48618106553",
    "source_url": "https://www.google.com/maps/place/Aqua+Service+Dystrubucja+s.c./data=!4m7!3m6!1s0x47044fa086e8abd7:0x16d9747b1975c2fb!8m2!3d52.3373551!4d16.799025!16s%2Fg%2F1tj49585!19sChIJ16vohqBPBEcR-8J1GXt02RY?authuser=0&hl=tr&rclk=1",
    "website_url": "",
    "rating_text": "5,0",
    "stars": null,
    "number_of_reviews": null,
    "price_level": "",
    "open_hours": "",
    "extraction_timestamp": "2025-06-07T17:22:04.914Z",
    "source_name": "google",
    "source_query": "Irrigation Equipment",
    "source_country": "PL",
    "country": "Poland",
    "state": "Greater Poland Voivodeship",
    "city": "Komorniki"
  },
  {
    "source_id": "ChIJ43zRIApPBEcRNqvuBFRBEIk",
    "name": "Eleston",
    "category": "Eleston",
    "formatted_address": "4,5(40)",
    "phone_number": "+48666388725",
    "source_url": "https://www.google.com/maps/place/Eleston/data=!4m7!3m6!1s0x47044f0a20d17ce3:0x8910415404eeab36!8m2!3d52.3376088!4d16.7987469!16s%2Fg%2F11c72km4ng!19sChIJ43zRIApPBEcRNqvuBFRBEIk?authuser=0&hl=tr&rclk=1",
    "website_url": "",
    "rating_text": "4,5",
    "stars": null,
    "number_of_reviews": null,
    "price_level": "",
    "open_hours": "",
    "extraction_timestamp": "2025-06-07T17:22:04.914Z",
    "source_name": "google",
    "source_query": "Irrigation Equipment",
    "source_country": "PL",
    "country": "Poland",
    "state": "Greater Poland Voivodeship",
    "city": "Komorniki"
  },
  {
    "source_id": "ChIJB955d4NPBEcRDuf8Axtqvco",
    "name": "Waterspec",
    "category": "Waterspec",
    "formatted_address": "4,8(26)",
    "phone_number": "+48605481600",
    "source_url": "https://www.google.com/maps/place/Waterspec/data=!4m7!3m6!1s0x47044f837779de07:0xcabd6a1b03fce70e!8m2!3d51.953761!4d19.1343692!16s%2Fg%2F11gxhqvvj1!19sChIJB955d4NPBEcRDuf8Axtqvco?authuser=0&hl=tr&rclk=1",
    "website_url": "",
    "rating_text": "4,8",
    "stars": null,
    "number_of_reviews": null,
    "price_level": "",
    "open_hours": "",
    "extraction_timestamp": "2025-06-07T17:22:04.914Z",
    "source_name": "google",
    "source_query": "Irrigation Equipment",
    "source_country": "PL",
    "country": "Poland",
    "state": "Greater Poland Voivodeship",
    "city": "Komorniki"
  },
  {
    "source_id": "ChIJT4YK4otPBEcRVW3I5xIKQXs",
    "name": "Leroy Merlin",
    "category": "Leroy Merlin",
    "formatted_address": "4,2(4.788)",
    "phone_number": "+48618998800",
    "source_url": "https://www.google.com/maps/place/Leroy+Merlin/data=!4m7!3m6!1s0x47044f8be20a864f:0x7b410a12e7c86d55!8m2!3d52.3520819!4d16.833652!16s%2Fg%2F1tf1mj64!19sChIJT4YK4otPBEcRVW3I5xIKQXs?authuser=0&hl=tr&rclk=1",
    "website_url": "",
    "rating_text": "4,2",
    "stars": null,
    "number_of_reviews": null,
    "price_level": "",
    "open_hours": "",
    "extraction_timestamp": "2025-06-07T17:22:04.915Z",
    "source_name": "google",
    "source_query": "Irrigation Equipment",
    "source_country": "PL",
    "country": "Poland",
    "state": "Greater Poland Voivodeship",
    "city": "Komorniki"
  },
  {
    "source_id": "ChIJqfkoPGBFBEcRMcStW1CpLKM",
    "name": "Castorama",
    "category": "Castorama",
    "formatted_address": "4,4(6.394)",
    "phone_number": "+48618348100",
    "source_url": "https://www.google.com/maps/place/Castorama/data=!4m7!3m6!1s0x470445603c28f9a9:0xa32ca9505badc431!8m2!3d52.3567987!4d16.8435038!16s%2Fg%2F11fzvm6wkq!19sChIJqfkoPGBFBEcRMcStW1CpLKM?authuser=0&hl=tr&rclk=1",
    "website_url": "",
    "rating_text": "4,4",
    "stars": null,
    "number_of_reviews": null,
    "price_level": "",
    "open_hours": "",
    "extraction_timestamp": "2025-06-07T17:22:04.916Z",
    "source_name": "google",
    "source_query": "Irrigation Equipment",
    "source_country": "PL",
    "country": "Poland",
    "state": "Greater Poland Voivodeship",
    "city": "Komorniki"
  },
  {
    "source_id": "ChIJXdg82B5FBEcRy2KG0y9S6Qk",
    "name": "Technika Spawalnicza Sp. z o.o.",
    "category": "Technika Spawalnicza Sp. z o.o.",
    "formatted_address": "4,8(65)",
    "phone_number": "+48618628161",
    "source_url": "https://www.google.com/maps/place/Technika+Spawalnicza+Sp.+z+o.o./data=!4m7!3m6!1s0x4704451ed83cd85d:0x9e9522fd38662cb!8m2!3d52.3516399!4d16.829983!16s%2Fg%2F1w2ysl2k!19sChIJXdg82B5FBEcRy2KG0y9S6Qk?authuser=0&hl=tr&rclk=1",
    "website_url": "",
    "rating_text": "4,8",
    "stars": null,
    "number_of_reviews": null,
    "price_level": "",
    "open_hours": "",
    "extraction_timestamp": "2025-06-07T17:22:04.916Z",
    "source_name": "google",
    "source_query": "Irrigation Equipment",
    "source_country": "PL",
    "country": "Poland",
    "state": "Greater Poland Voivodeship",
    "city": "Komorniki"
  },
  {
    "source_id": "ChIJ3dtTSp9PBEcRNYm1kXvKhag",
    "name": "Hurtownia PE TECHNIKA",
    "category": "Hurtownia PE TECHNIKA",
    "formatted_address": "5,0(3)",
    "phone_number": "+48508340022",
    "source_url": "https://www.google.com/maps/place/Hurtownia+PE+TECHNIKA/data=!4m7!3m6!1s0x47044f9f4a53dbdd:0xa885ca7b91b58935!8m2!3d52.2875778!4d16.8602565!16s%2Fg%2F11bbrhd1y_!19sChIJ3dtTSp9PBEcRNYm1kXvKhag?authuser=0&hl=tr&rclk=1",
    "website_url": "",
    "rating_text": "5,0",
    "stars": null,
    "number_of_reviews": null,
    "price_level": "",
    "open_hours": "",
    "extraction_timestamp": "2025-06-07T17:22:04.917Z",
    "source_name": "google",
    "source_query": "Irrigation Equipment",
    "source_country": "PL",
    "country": "Poland",
    "state": "Greater Poland Voivodeship",
    "city": "Komorniki"
  },
  {
    "source_id": "ChIJEYNh9BVbBEcRU46FivUtBqk",
    "name": "BONITA Systemy Nawadniania HUNTER, RAINBIRD, RIVULIS, zraszacze, sterowniki, elektrozawory.",
    "category": "BONITA Systemy Nawadniania HUNTER, RAINBIRD, RIVULIS, zraszacze, sterowniki, elektrozawory.",
    "formatted_address": "BONITA Systemy Nawadniania HUNTER, RAINBIRD, RIVULIS, zraszacze, sterowniki, elektrozawory.",
    "phone_number": "+48661888350",
    "source_url": "https://www.google.com/maps/place/BONITA+Systemy+Nawadniania+HUNTER,+RAINBIRD,+RIVULIS,+zraszacze,+sterowniki,+elektrozawory./data=!4m7!3m6!1s0x47045b15f4618311:0xa9062df58a858e53!8m2!3d52.3518922!4d16.9011694!16s%2Fg%2F11j4m4n340!19sChIJEYNh9BVbBEcRU46FivUtBqk?authuser=0&hl=tr&rclk=1",
    "website_url": "",
    "rating_text": "4,9",
    "stars": null,
    "number_of_reviews": null,
    "price_level": "",
    "open_hours": "",
    "extraction_timestamp": "2025-06-07T17:22:04.917Z",
    "source_name": "google",
    "source_query": "Irrigation Equipment",
    "source_country": "PL",
    "country": "Poland",
    "state": "Greater Poland Voivodeship",
    "city": "Komorniki"
  },
  {
    "source_id": "ChIJ4zc6v4hZBEcRKah1mzKBwPg",
    "name": "PHU \"ADVISER\" - Systemy nawadniania",
    "category": "PHU \"ADVISER\" - Systemy nawadniania",
    "formatted_address": "4,8(123)",
    "phone_number": "+48618798700",
    "source_url": "https://www.google.com/maps/place/PHU+%22ADVISER%22+-+Systemy+nawadniania/data=!4m7!3m6!1s0x47045988bf3a37e3:0xf8c081329b75a829!8m2!3d52.3434333!4d17.0287055!16s%2Fg%2F1w3459w5!19sChIJ4zc6v4hZBEcRKah1mzKBwPg?authuser=0&hl=tr&rclk=1",
    "website_url": "",
    "rating_text": "4,8",
    "stars": null,
    "number_of_reviews": null,
    "price_level": "",
    "open_hours": "",
    "extraction_timestamp": "2025-06-07T17:22:04.917Z",
    "source_name": "google",
    "source_query": "Irrigation Equipment",
    "source_country": "PL",
    "country": "Poland",
    "state": "Greater Poland Voivodeship",
    "city": "Komorniki"
  },
  {
    "source_id": "ChIJ59gkLIpPBEcR6ECaT5BpUoM",
    "name": "Decathlon Poznań Komorniki",
    "category": "Decathlon Poznań Komorniki",
    "formatted_address": "4,5(3.625)",
    "phone_number": "+48616300100",
    "source_url": "https://www.google.com/maps/place/Decathlon+Pozna%C5%84+Komorniki/data=!4m7!3m6!1s0x47044f8a2c24d8e7:0x835269904f9a40e8!8m2!3d52.3530217!4d16.8311429!16s%2Fg%2F11b5qt9wpz!19sChIJ59gkLIpPBEcR6ECaT5BpUoM?authuser=0&hl=tr&rclk=1",
    "website_url": "",
    "rating_text": "4,5",
    "stars": null,
    "number_of_reviews": null,
    "price_level": "",
    "open_hours": "",
    "extraction_timestamp": "2025-06-07T17:22:04.918Z",
    "source_name": "google",
    "source_query": "Irrigation Equipment",
    "source_country": "PL",
    "country": "Poland",
    "state": "Greater Poland Voivodeship",
    "city": "Komorniki"
  },
  {
    "source_id": "ChIJVVXFW_hPBEcRES0v9S76eLU",
    "name": "Elmar Sp. z o.o. Centrum Instalacji Grzewczych, Sanitarnych i Gazowych",
    "category": "Elmar Sp. z o.o. Centrum Instalacji Grzewczych, Sanitarnych i Gazowych",
    "formatted_address": "Elmar Sp. z o.o. Centrum Instalacji Grzewczych, Sanitarnych i Gazowych",
    "phone_number": "+48618995151",
    "source_url": "https://www.google.com/maps/place/Elmar+Sp.+z+o.o.+Centrum+Instalacji+Grzewczych,+Sanitarnych+i+Gazowych/data=!4m7!3m6!1s0x47044ff85bc55555:0xb578fa2ef52f2d11!8m2!3d52.3513427!4d16.8606793!16s%2Fg%2F1ptwxjs3_!19sChIJVVXFW_hPBEcRES0v9S76eLU?authuser=0&hl=tr&rclk=1",
    "website_url": "",
    "rating_text": "4,2",
    "stars": null,
    "number_of_reviews": null,
    "price_level": "",
    "open_hours": "",
    "extraction_timestamp": "2025-06-07T17:22:04.918Z",
    "source_name": "google",
    "source_query": "Irrigation Equipment",
    "source_country": "PL",
    "country": "Poland",
    "state": "Greater Poland Voivodeship",
    "city": "Komorniki"
  },
  {
    "source_id": "ChIJOUCXmXVFBEcRHye4nyRPKzY",
    "name": "PROTIMA Sp. z o.o.",
    "category": "PROTIMA Sp. z o.o.",
    "formatted_address": "4,5(15)",
    "phone_number": "+48612210400",
    "source_url": "https://www.google.com/maps/place/PROTIMA+Sp.+z+o.o./data=!4m7!3m6!1s0x4704457599974039:0x362b4f249fb8271f!8m2!3d52.3369335!4d16.8148022!16s%2Fg%2F11g9j57ld6!19sChIJOUCXmXVFBEcRHye4nyRPKzY?authuser=0&hl=tr&rclk=1",
    "website_url": "",
    "rating_text": "4,5",
    "stars": null,
    "number_of_reviews": null,
    "price_level": "",
    "open_hours": "",
    "extraction_timestamp": "2025-06-07T17:22:04.918Z",
    "source_name": "google",
    "source_query": "Irrigation Equipment",
    "source_country": "PL",
    "country": "Poland",
    "state": "Greater Poland Voivodeship",
    "city": "Komorniki"
  },
  {
    "source_id": "ChIJQZuTyi5PBEcRQPzy-8d79xg",
    "name": "koparki.pl - części do maszyn budowlanych",
    "category": "koparki.pl - części do maszyn budowlanych",
    "formatted_address": "5,0(1)",
    "phone_number": "+48607776174",
    "source_url": "https://www.google.com/maps/place/koparki.pl+-+cz%C4%99%C5%9Bci+do+maszyn+budowlanych/data=!4m7!3m6!1s0x47044f2eca939b41:0x18f77bc7fbf2fc40!8m2!3d52.344646!4d16.8276802!16s%2Fg%2F11tbdg7_m0!19sChIJQZuTyi5PBEcRQPzy-8d79xg?authuser=0&hl=tr&rclk=1",
    "website_url": "",
    "rating_text": "5,0",
    "stars": null,
    "number_of_reviews": null,
    "price_level": "",
    "open_hours": "",
    "extraction_timestamp": "2025-06-07T17:22:04.918Z",
    "source_name": "google",
    "source_query": "Irrigation Equipment",
    "source_country": "PL",
    "country": "Poland",
    "state": "Greater Poland Voivodeship",
    "city": "Komorniki"
  },
  {
    "source_id": "ChIJXbjOIZVPBEcRtF4lCO6Kh14",
    "name": "dpCraft - Dalprint Sp. o.o. Sp. k.",
    "category": "dpCraft - Dalprint Sp. o.o. Sp. k.",
    "formatted_address": "4,4(34)",
    "phone_number": "+48612223489",
    "source_url": "https://www.google.com/maps/place/dpCraft+-+Dalprint+Sp.+o.o.+Sp.+k./data=!4m7!3m6!1s0x47044f9521ceb85d:0x5e878aee08255eb4!8m2!3d52.3382159!4d16.830665!16s%2Fg%2F11clvrd7ct!19sChIJXbjOIZVPBEcRtF4lCO6Kh14?authuser=0&hl=tr&rclk=1",
    "website_url": "",
    "rating_text": "4,4",
    "stars": null,
    "number_of_reviews": null,
    "price_level": "",
    "open_hours": "",
    "extraction_timestamp": "2025-06-07T17:22:04.919Z",
    "source_name": "google",
    "source_query": "Irrigation Equipment",
    "source_country": "PL",
    "country": "Poland",
    "state": "Greater Poland Voivodeship",
    "city": "Komorniki"
  },
  {
    "source_id": "ChIJm5slT5pPBEcRjNBGw5E2VaQ",
    "name": "RESPOL Export - Import Sp. z o.o. Oddział Poznań",
    "category": "RESPOL Export - Import Sp. z o.o. Oddział Poznań",
    "formatted_address": "5,0(6)",
    "phone_number": "+48616280740",
    "source_url": "https://www.google.com/maps/place/RESPOL+Export+-+Import+Sp.+z+o.o.+Oddzia%C5%82+Pozna%C5%84/data=!4m7!3m6!1s0x47044f9a4f259b9b:0xa4553691c346d08c!8m2!3d52.3496727!4d16.8163564!16s%2Fg%2F11lp685v49!19sChIJm5slT5pPBEcRjNBGw5E2VaQ?authuser=0&hl=tr&rclk=1",
    "website_url": "",
    "rating_text": "5,0",
    "stars": null,
    "number_of_reviews": null,
    "price_level": "",
    "open_hours": "",
    "extraction_timestamp": "2025-06-07T17:22:04.919Z",
    "source_name": "google",
    "source_query": "Irrigation Equipment",
    "source_country": "PL",
    "country": "Poland",
    "state": "Greater Poland Voivodeship",
    "city": "Komorniki"
  }
]
