[
  {
    "source_id": "ChIJPbsDgg80G0cRPBYENgvzHyE",
    "name": "Przedsiębiorstwo \"Hydro-Tech\" Konin",
    "category": "Przedsiębiorstwo \"Hydro-Tech\" Konin",
    "formatted_address": "2,6(20)",
    "phone_number": "+48632453479",
    "source_url": "https://www.google.com/maps/place/Przedsi%C4%99biorstwo+%22Hydro-Tech%22+Konin/data=!4m7!3m6!1s0x471b340f8203bb3d:0x211ff30b3604163c!8m2!3d52.2389959!4d18.2345203!16s%2Fg%2F1tg59vq5!19sChIJPbsDgg80G0cRPBYENgvzHyE?authuser=0&hl=tr&rclk=1",
    "website_url": "",
    "rating_text": "2,6",
    "stars": null,
    "number_of_reviews": null,
    "price_level": "",
    "open_hours": "",
    "extraction_timestamp": "2025-06-07T17:44:45.212Z",
    "source_name": "google",
    "source_query": "Irrigation Equipment",
    "source_country": "PL",
    "country": "Poland",
    "state": "Greater Poland Voivodeship",
    "city": "Konin"
  },
  {
    "source_id": "ChIJL6WSECc3G0cR0cIZjFQOyyM",
    "name": "Laskowiec. Garden center",
    "category": "Laskowiec. Garden center",
    "formatted_address": "4,6(245)",
    "phone_number": "+48632479236",
    "source_url": "https://www.google.com/maps/place/Laskowiec.+Garden+center/data=!4m7!3m6!1s0x471b37271092a52f:0x23cb0e548c19c2d1!8m2!3d52.2317452!4d18.3177935!16s%2Fg%2F1wk6yj3q!19sChIJL6WSECc3G0cR0cIZjFQOyyM?authuser=0&hl=tr&rclk=1",
    "website_url": "",
    "rating_text": "4,6",
    "stars": null,
    "number_of_reviews": null,
    "price_level": "",
    "open_hours": "",
    "extraction_timestamp": "2025-06-07T17:44:45.213Z",
    "source_name": "google",
    "source_query": "Irrigation Equipment",
    "source_country": "PL",
    "country": "Poland",
    "state": "Greater Poland Voivodeship",
    "city": "Konin"
  },
  {
    "source_id": "ChIJYwGqQ0UxG0cR6G600ZJ7lwg",
    "name": "Hydro-Instal Konin Sp. z o.o.",
    "category": "Hydro-Instal Konin Sp. z o.o.",
    "formatted_address": "4,8(75)",
    "phone_number": "+48632429292",
    "source_url": "https://www.google.com/maps/place/Hydro-Instal+Konin+Sp.+z+o.o./data=!4m7!3m6!1s0x471b314543aa0163:0x8977b92d1b46ee8!8m2!3d52.2161777!4d18.2542151!16s%2Fg%2F1tvgt2cy!19sChIJYwGqQ0UxG0cR6G600ZJ7lwg?authuser=0&hl=tr&rclk=1",
    "website_url": "",
    "rating_text": "4,8",
    "stars": null,
    "number_of_reviews": null,
    "price_level": "",
    "open_hours": "",
    "extraction_timestamp": "2025-06-07T17:44:45.214Z",
    "source_name": "google",
    "source_query": "Irrigation Equipment",
    "source_country": "PL",
    "country": "Poland",
    "state": "Greater Poland Voivodeship",
    "city": "Konin"
  },
  {
    "source_id": "ChIJ8WjSDQQ0G0cRlurAMqQfSVc",
    "name": "Ferro Spółka z.o.o.",
    "category": "Ferro Spółka z.o.o.",
    "formatted_address": "4,6(9)",
    "phone_number": "+48632428819",
    "source_url": "https://www.google.com/maps/place/Ferro+Sp%C3%B3%C5%82ka+z.o.o./data=!4m7!3m6!1s0x471b34040dd268f1:0x57491fa432c0ea96!8m2!3d52.2362945!4d18.2407474!16s%2Fg%2F1tdbpmg7!19sChIJ8WjSDQQ0G0cRlurAMqQfSVc?authuser=0&hl=tr&rclk=1",
    "website_url": "",
    "rating_text": "4,6",
    "stars": null,
    "number_of_reviews": null,
    "price_level": "",
    "open_hours": "",
    "extraction_timestamp": "2025-06-07T17:44:45.215Z",
    "source_name": "google",
    "source_query": "Irrigation Equipment",
    "source_country": "PL",
    "country": "Poland",
    "state": "Greater Poland Voivodeship",
    "city": "Konin"
  },
  {
    "source_id": "ChIJhVwrcNAzG0cRjzUU0Yq_3CU",
    "name": "HYDROKON - Hydraulika Siłowa",
    "category": "HYDROKON - Hydraulika Siłowa",
    "formatted_address": "5,0(22)",
    "phone_number": "+48729888196",
    "source_url": "https://www.google.com/maps/place/HYDROKON+-+Hydraulika+Si%C5%82owa/data=!4m7!3m6!1s0x471b33d0702b5c85:0x25dcbf8ad114358f!8m2!3d52.2301251!4d18.2380595!16s%2Fg%2F11kt9hjhfg!19sChIJhVwrcNAzG0cRjzUU0Yq_3CU?authuser=0&hl=tr&rclk=1",
    "website_url": "",
    "rating_text": "5,0",
    "stars": null,
    "number_of_reviews": null,
    "price_level": "",
    "open_hours": "",
    "extraction_timestamp": "2025-06-07T17:44:45.216Z",
    "source_name": "google",
    "source_query": "Irrigation Equipment",
    "source_country": "PL",
    "country": "Poland",
    "state": "Greater Poland Voivodeship",
    "city": "Konin"
  },
  {
    "source_id": "ChIJJ4So7Ng2G0cR-pojczlIvRk",
    "name": "\" TERMO-TECHNIKA \" Technika grzewcza i instalacyjna",
    "category": "\" TERMO-TECHNIKA \" Technika grzewcza i instalacyjna",
    "formatted_address": "5,0(10)",
    "phone_number": "+48665531521",
    "source_url": "https://www.google.com/maps/place/%22+TERMO-TECHNIKA+%22+Technika+grzewcza+i+instalacyjna/data=!4m7!3m6!1s0x471b36d8eca88427:0x19bd483973239afa!8m2!3d52.2365745!4d18.2159209!16s%2Fg%2F1ptw96t32!19sChIJJ4So7Ng2G0cR-pojczlIvRk?authuser=0&hl=tr&rclk=1",
    "website_url": "",
    "rating_text": "5,0",
    "stars": null,
    "number_of_reviews": null,
    "price_level": "",
    "open_hours": "",
    "extraction_timestamp": "2025-06-07T17:44:45.216Z",
    "source_name": "google",
    "source_query": "Irrigation Equipment",
    "source_country": "PL",
    "country": "Poland",
    "state": "Greater Poland Voivodeship",
    "city": "Konin"
  },
  {
    "source_id": "ChIJOezOcEExG0cRTcniczjcqd8",
    "name": "Art-Metal Sp. o.o.",
    "category": "Art-Metal Sp. o.o.",
    "formatted_address": "4,6(141)",
    "phone_number": "+48632445277",
    "source_url": "https://www.google.com/maps/place/Art-Metal+Sp.+o.o./data=!4m7!3m6!1s0x471b314170ceec39:0xdfa9dc3873e2c94d!8m2!3d52.2081415!4d18.2572694!16s%2Fg%2F1tj954xz!19sChIJOezOcEExG0cRTcniczjcqd8?authuser=0&hl=tr&rclk=1",
    "website_url": "",
    "rating_text": "4,6",
    "stars": null,
    "number_of_reviews": null,
    "price_level": "",
    "open_hours": "",
    "extraction_timestamp": "2025-06-07T17:44:45.217Z",
    "source_name": "google",
    "source_query": "Irrigation Equipment",
    "source_country": "PL",
    "country": "Poland",
    "state": "Greater Poland Voivodeship",
    "city": "Konin"
  },
  {
    "source_id": "ChIJwcvZK48xG0cRsX6N4Rv2gTI",
    "name": "aleno.pl",
    "category": "aleno.pl",
    "formatted_address": "5,0(65)",
    "phone_number": "+48632441077",
    "source_url": "https://www.google.com/maps/place/aleno.pl/data=!4m7!3m6!1s0x471b318f2bd9cbc1:0x3281f61be18d7eb1!8m2!3d52.2081521!4d18.2572266!16s%2Fg%2F11wq7lm7q0!19sChIJwcvZK48xG0cRsX6N4Rv2gTI?authuser=0&hl=tr&rclk=1",
    "website_url": "",
    "rating_text": "5,0",
    "stars": null,
    "number_of_reviews": null,
    "price_level": "",
    "open_hours": "",
    "extraction_timestamp": "2025-06-07T17:44:45.218Z",
    "source_name": "google",
    "source_query": "Irrigation Equipment",
    "source_country": "PL",
    "country": "Poland",
    "state": "Greater Poland Voivodeship",
    "city": "Konin"
  },
  {
    "source_id": "ChIJMxysyRo1G0cRBxdQ1HKRxOo",
    "name": "REISAN Instalacje Gaz, wod-kan",
    "category": "REISAN Instalacje Gaz, wod-kan",
    "formatted_address": "REISAN Instalacje Gaz, wod-kan",
    "phone_number": "+48605133737",
    "source_url": "https://www.google.com/maps/place/REISAN+Instalacje+Gaz,+wod-kan/data=!4m7!3m6!1s0x471b351ac9ac1c33:0xeac49172d4501707!8m2!3d52.2376806!4d18.2112126!16s%2Fg%2F11y5611d4n!19sChIJMxysyRo1G0cRBxdQ1HKRxOo?authuser=0&hl=tr&rclk=1",
    "website_url": "",
    "rating_text": "5,0",
    "stars": null,
    "number_of_reviews": null,
    "price_level": "",
    "open_hours": "",
    "extraction_timestamp": "2025-06-07T17:44:45.219Z",
    "source_name": "google",
    "source_query": "Irrigation Equipment",
    "source_country": "PL",
    "country": "Poland",
    "state": "Greater Poland Voivodeship",
    "city": "Konin"
  },
  {
    "source_id": "ChIJmfZRRKpXAkcR1MoaeRxNjr0",
    "name": "Rolmet-Plus - Hydraulika Siłowa Punkt odbioru zamówień Konin",
    "category": "Rolmet-Plus - Hydraulika Siłowa Punkt odbioru zamówień Konin",
    "formatted_address": "4,8(9)",
    "phone_number": "+48516131594",
    "source_url": "https://www.google.com/maps/place/Rolmet-Plus+-+Hydraulika+Si%C5%82owa+Punkt+odbioru+zam%C3%B3wie%C5%84+Konin/data=!4m7!3m6!1s0x470257aa4451f699:0xbd8e4d1c791acad4!8m2!3d52.2301776!4d18.2380751!16s%2Fg%2F119v9_st0!19sChIJmfZRRKpXAkcR1MoaeRxNjr0?authuser=0&hl=tr&rclk=1",
    "website_url": "",
    "rating_text": "4,8",
    "stars": null,
    "number_of_reviews": null,
    "price_level": "",
    "open_hours": "",
    "extraction_timestamp": "2025-06-07T17:44:45.220Z",
    "source_name": "google",
    "source_query": "Irrigation Equipment",
    "source_country": "PL",
    "country": "Poland",
    "state": "Greater Poland Voivodeship",
    "city": "Konin"
  },
  {
    "source_id": "ChIJ5_GcFAg0G0cRfjxuPe0rWY0",
    "name": "Leroy Merlin",
    "category": "Leroy Merlin",
    "formatted_address": "4,3(2.004)",
    "phone_number": "+48632494800",
    "source_url": "https://www.google.com/maps/place/Leroy+Merlin/data=!4m7!3m6!1s0x471b3408149cf1e7:0x8d592bed3d6e3c7e!8m2!3d52.233029!4d18.2312178!16s%2Fg%2F11cmsyg1bg!19sChIJ5_GcFAg0G0cRfjxuPe0rWY0?authuser=0&hl=tr&rclk=1",
    "website_url": "",
    "rating_text": "4,3",
    "stars": null,
    "number_of_reviews": null,
    "price_level": "",
    "open_hours": "",
    "extraction_timestamp": "2025-06-07T17:44:45.222Z",
    "source_name": "google",
    "source_query": "Irrigation Equipment",
    "source_country": "PL",
    "country": "Poland",
    "state": "Greater Poland Voivodeship",
    "city": "Konin"
  },
  {
    "source_id": "ChIJvZRbqYozG0cRj9USGBaOKfI",
    "name": "AQUA - RUR PHU Barbara Januszkiewicz",
    "category": "AQUA - RUR PHU Barbara Januszkiewicz",
    "formatted_address": "5,0(1)",
    "phone_number": "+48632457110",
    "source_url": "https://www.google.com/maps/place/AQUA+-+RUR+PHU+Barbara+Januszkiewicz/data=!4m7!3m6!1s0x471b338aa95b94bd:0xf2298e161812d58f!8m2!3d52.2337903!4d18.2261613!16s%2Fg%2F1ts1ld5w!19sChIJvZRbqYozG0cRj9USGBaOKfI?authuser=0&hl=tr&rclk=1",
    "website_url": "",
    "rating_text": "5,0",
    "stars": null,
    "number_of_reviews": null,
    "price_level": "",
    "open_hours": "",
    "extraction_timestamp": "2025-06-07T17:44:45.223Z",
    "source_name": "google",
    "source_query": "Irrigation Equipment",
    "source_country": "PL",
    "country": "Poland",
    "state": "Greater Poland Voivodeship",
    "city": "Konin"
  },
  {
    "source_id": "ChIJLb2lBkAxG0cRKvXsL49IQBQ",
    "name": "Studnie Głębinowe Konin WLKW",
    "category": "Studnie Głębinowe Konin WLKW",
    "formatted_address": "4,5(45)",
    "phone_number": "+48727648576",
    "source_url": "https://www.google.com/maps/place/Studnie+G%C5%82%C4%99binowe+Konin+WLKW/data=!4m7!3m6!1s0x471b314006a5bd2d:0x1440488f2fecf52a!8m2!3d52.1877727!4d18.2759017!16s%2Fg%2F11cmj3s039!19sChIJLb2lBkAxG0cRKvXsL49IQBQ?authuser=0&hl=tr&rclk=1",
    "website_url": "",
    "rating_text": "4,5",
    "stars": null,
    "number_of_reviews": null,
    "price_level": "",
    "open_hours": "",
    "extraction_timestamp": "2025-06-07T17:44:45.223Z",
    "source_name": "google",
    "source_query": "Irrigation Equipment",
    "source_country": "PL",
    "country": "Poland",
    "state": "Greater Poland Voivodeship",
    "city": "Konin"
  },
  {
    "source_id": "ChIJD9YagltLG0cRKh10_Bhw4-Y",
    "name": "ArtDOM - Pompy Ciepła, Klimatyzacja, Wentylacja",
    "category": "ArtDOM - Pompy Ciepła, Klimatyzacja, Wentylacja",
    "formatted_address": "ArtDOM - Pompy Ciepła, Klimatyzacja, Wentylacja",
    "phone_number": "+48632703907",
    "source_url": "https://www.google.com/maps/place/ArtDOM+-+Pompy+Ciep%C5%82a,+Klimatyzacja,+Wentylacja/data=!4m7!3m6!1s0x471b4b5b821ad60f:0xe6e37018fc741d2a!8m2!3d52.307592!4d18.2616605!16s%2Fg%2F11r6b8np8m!19sChIJD9YagltLG0cRKh10_Bhw4-Y?authuser=0&hl=tr&rclk=1",
    "website_url": "",
    "rating_text": "4,9",
    "stars": null,
    "number_of_reviews": null,
    "price_level": "",
    "open_hours": "",
    "extraction_timestamp": "2025-06-07T17:44:45.225Z",
    "source_name": "google",
    "source_query": "Irrigation Equipment",
    "source_country": "PL",
    "country": "Poland",
    "state": "Greater Poland Voivodeship",
    "city": "Konin"
  },
  {
    "source_id": "ChIJ8UYNhVExG0cRVyVgOk9bOMU",
    "name": "Ciepłownia geotermalna",
    "category": "Ciepłownia geotermalna",
    "formatted_address": "4,0(6)",
    "phone_number": "",
    "source_url": "https://www.google.com/maps/place/Ciep%C5%82ownia+geotermalna/data=!4m7!3m6!1s0x471b3151850d46f1:0xc5385b4f3a602557!8m2!3d52.2190531!4d18.2572529!16s%2Fg%2F11rj02m88s!19sChIJ8UYNhVExG0cRVyVgOk9bOMU?authuser=0&hl=tr&rclk=1",
    "website_url": "",
    "rating_text": "4,0",
    "stars": null,
    "number_of_reviews": null,
    "price_level": "",
    "open_hours": "",
    "extraction_timestamp": "2025-06-07T17:44:45.226Z",
    "source_name": "google",
    "source_query": "Irrigation Equipment",
    "source_country": "PL",
    "country": "Poland",
    "state": "Greater Poland Voivodeship",
    "city": "Konin"
  },
  {
    "source_id": "ChIJ60u0JFs3G0cR_jpFnX6y7Ss",
    "name": "KLAJS - Fotowoltaika / Pompy ciepła / Klimatyzacja / Instalacje elektryczne, hydrauliczne",
    "category": "KLAJS - Fotowoltaika / Pompy ciepła / Klimatyzacja / Instalacje elektryczne, hydrauliczne",
    "formatted_address": "KLAJS - Fotowoltaika / Pompy ciepła / Klimatyzacja / Instalacje elektryczne, hydrauliczne",
    "phone_number": "+48693367166",
    "source_url": "https://www.google.com/maps/place/KLAJS+-+Fotowoltaika+%2F+Pompy+ciep%C5%82a+%2F+Klimatyzacja+%2F+Instalacje+elektryczne,+hydrauliczne/data=!4m7!3m6!1s0x471b375b24b44beb:0x2bedb27e9d453afe!8m2!3d52.2596108!4d18.3400905!16s%2Fg%2F11pvg9msk2!19sChIJ60u0JFs3G0cR_jpFnX6y7Ss?authuser=0&hl=tr&rclk=1",
    "website_url": "",
    "rating_text": "4,9",
    "stars": null,
    "number_of_reviews": null,
    "price_level": "",
    "open_hours": "",
    "extraction_timestamp": "2025-06-07T17:44:45.227Z",
    "source_name": "google",
    "source_query": "Irrigation Equipment",
    "source_country": "PL",
    "country": "Poland",
    "state": "Greater Poland Voivodeship",
    "city": "Konin"
  },
  {
    "source_id": "ChIJx_IgRzkzG0cROxXcLd-Qoeg",
    "name": "Ekosystemy - Kompleksowe usługi ogrodnicze",
    "category": "Ekosystemy - Kompleksowe usługi ogrodnicze",
    "formatted_address": "5,0(3)",
    "phone_number": "+48601764697",
    "source_url": "https://www.google.com/maps/place/Ekosystemy+-+Kompleksowe+us%C5%82ugi+ogrodnicze/data=!4m7!3m6!1s0x471b33394720f2c7:0xe8a190df2ddc153b!8m2!3d52.2517812!4d18.1518541!16s%2Fg%2F11sgl1jyz6!19sChIJx_IgRzkzG0cROxXcLd-Qoeg?authuser=0&hl=tr&rclk=1",
    "website_url": "",
    "rating_text": "5,0",
    "stars": null,
    "number_of_reviews": null,
    "price_level": "",
    "open_hours": "",
    "extraction_timestamp": "2025-06-07T17:44:45.228Z",
    "source_name": "google",
    "source_query": "Irrigation Equipment",
    "source_country": "PL",
    "country": "Poland",
    "state": "Greater Poland Voivodeship",
    "city": "Konin"
  },
  {
    "source_id": "ChIJAUit9xExG0cRRDmaJtAJ-kY",
    "name": "Firma: Raszewski & Syn - Serwis sygnalizacji świetlnych, Podnośniki koszowe, HDS, Maszyny budowlane|Wynajem, sprzedaż|",
    "category": "Firma: Raszewski & Syn - Serwis sygnalizacji świetlnych, Podnośniki koszowe, HDS, Maszyny budowlane|Wynajem, sprzedaż|",
    "formatted_address": "Firma: Raszewski & Syn - Serwis sygnalizacji świetlnych, Podnośniki koszowe, HDS, Maszyny budowlane|Wynajem, sprzedaż|",
    "phone_number": "+48632443319",
    "source_url": "https://www.google.com/maps/place/Firma:+Raszewski+%26+Syn+-+Serwis+sygnalizacji+%C5%9Bwietlnych,+Podno%C5%9Bniki+koszowe,+HDS,+Maszyny+budowlane%7CWynajem,+sprzeda%C5%BC%7C/data=!4m7!3m6!1s0x471b3111f7ad4801:0x46fa09d0269a3944!8m2!3d52.1939673!4d18.2629235!16s%2Fg%2F1tqyd7ck!19sChIJAUit9xExG0cRRDmaJtAJ-kY?authuser=0&hl=tr&rclk=1",
    "website_url": "",
    "rating_text": "5,0",
    "stars": null,
    "number_of_reviews": null,
    "price_level": "",
    "open_hours": "",
    "extraction_timestamp": "2025-06-07T17:44:45.229Z",
    "source_name": "google",
    "source_query": "Irrigation Equipment",
    "source_country": "PL",
    "country": "Poland",
    "state": "Greater Poland Voivodeship",
    "city": "Konin"
  },
  {
    "source_id": "ChIJUdr6DBUxG0cRgyMTKjvOr4s",
    "name": "Hydrad. Hydraulika siłowa",
    "category": "Hydrad. Hydraulika siłowa",
    "formatted_address": "5,0(11)",
    "phone_number": "+48661121022",
    "source_url": "https://www.google.com/maps/place/Hydrad.+Hydraulika+si%C5%82owa/data=!4m7!3m6!1s0x471b31150cfada51:0x8bafce3b2a132383!8m2!3d52.2160415!4d18.2489218!16s%2Fg%2F11p7393slj!19sChIJUdr6DBUxG0cRgyMTKjvOr4s?authuser=0&hl=tr&rclk=1",
    "website_url": "",
    "rating_text": "5,0",
    "stars": null,
    "number_of_reviews": null,
    "price_level": "",
    "open_hours": "",
    "extraction_timestamp": "2025-06-07T17:44:45.230Z",
    "source_name": "google",
    "source_query": "Irrigation Equipment",
    "source_country": "PL",
    "country": "Poland",
    "state": "Greater Poland Voivodeship",
    "city": "Konin"
  },
  {
    "source_id": "ChIJp0w7lf8zG0cRjQbReuud1Ow",
    "name": "Castorama",
    "category": "Castorama",
    "formatted_address": "4,3(3.118)",
    "phone_number": "+48632707100",
    "source_url": "https://www.google.com/maps/place/Castorama/data=!4m7!3m6!1s0x471b33ff953b4ca7:0xecd49deb7ad1068d!8m2!3d52.1847672!4d18.2299092!16s%2Fg%2F1tmqdz62!19sChIJp0w7lf8zG0cRjQbReuud1Ow?authuser=0&hl=tr&rclk=1",
    "website_url": "",
    "rating_text": "4,3",
    "stars": null,
    "number_of_reviews": null,
    "price_level": "",
    "open_hours": "",
    "extraction_timestamp": "2025-06-07T17:44:45.232Z",
    "source_name": "google",
    "source_query": "Irrigation Equipment",
    "source_country": "PL",
    "country": "Poland",
    "state": "Greater Poland Voivodeship",
    "city": "Konin"
  },
  {
    "source_id": "ChIJlTlS7DY3G0cRwh-TA3nu7-o",
    "name": "Sklep SFD Konin",
    "category": "Sklep SFD Konin",
    "formatted_address": "5,0(256)",
    "phone_number": "+48690665769",
    "source_url": "https://www.google.com/maps/place/Sklep+SFD+Konin/data=!4m7!3m6!1s0x471b3736ec523995:0xeaefee7903931fc2!8m2!3d52.2318192!4d18.2397837!16s%2Fg%2F11h53z7xrl!19sChIJlTlS7DY3G0cRwh-TA3nu7-o?authuser=0&hl=tr&rclk=1",
    "website_url": "",
    "rating_text": "5,0",
    "stars": null,
    "number_of_reviews": null,
    "price_level": "",
    "open_hours": "",
    "extraction_timestamp": "2025-06-07T17:44:45.233Z",
    "source_name": "google",
    "source_query": "Irrigation Equipment",
    "source_country": "PL",
    "country": "Poland",
    "state": "Greater Poland Voivodeship",
    "city": "Konin"
  },
  {
    "source_id": "ChIJVVXFIaw2G0cR4wTOfHCZ2fc",
    "name": "CTS-SEMIKON",
    "category": "CTS-SEMIKON",
    "formatted_address": "",
    "phone_number": "+48632458049",
    "source_url": "https://www.google.com/maps/place/CTS-SEMIKON/data=!4m7!3m6!1s0x471b36ac21c55555:0xf7d999707cce04e3!8m2!3d52.2293059!4d18.2294995!16s%2Fg%2F11hy_8zzp0!19sChIJVVXFIaw2G0cR4wTOfHCZ2fc?authuser=0&hl=tr&rclk=1",
    "website_url": "",
    "rating_text": "",
    "stars": null,
    "number_of_reviews": null,
    "price_level": "",
    "open_hours": "",
    "extraction_timestamp": "2025-06-07T17:44:45.234Z",
    "source_name": "google",
    "source_query": "Irrigation Equipment",
    "source_country": "PL",
    "country": "Poland",
    "state": "Greater Poland Voivodeship",
    "city": "Konin"
  },
  {
    "source_id": "ChIJq6pW8P8zG0cRt36w1oz5XjM",
    "name": "Systemy Grzewcze",
    "category": "Systemy Grzewcze",
    "formatted_address": "",
    "phone_number": "+48501316286",
    "source_url": "https://www.google.com/maps/place/Systemy+Grzewcze/data=!4m7!3m6!1s0x471b33fff056aaab:0x335ef98cd6b07eb7!8m2!3d52.2287585!4d18.2434828!16s%2Fg%2F11h231jv4j!19sChIJq6pW8P8zG0cRt36w1oz5XjM?authuser=0&hl=tr&rclk=1",
    "website_url": "",
    "rating_text": "",
    "stars": null,
    "number_of_reviews": null,
    "price_level": "",
    "open_hours": "",
    "extraction_timestamp": "2025-06-07T17:44:45.235Z",
    "source_name": "google",
    "source_query": "Irrigation Equipment",
    "source_country": "PL",
    "country": "Poland",
    "state": "Greater Poland Voivodeship",
    "city": "Konin"
  },
  {
    "source_id": "ChIJQUDcewQ0G0cRwfPFBb0kvQc",
    "name": "GRODNO S.A. Hurtownia Elektryczna",
    "category": "GRODNO S.A. Hurtownia Elektryczna",
    "formatted_address": "4,6(14)",
    "phone_number": "+48504839976",
    "source_url": "https://www.google.com/maps/place/GRODNO+S.A.+Hurtownia+Elektryczna/data=!4m7!3m6!1s0x471b34047bdc4041:0x7bd24bd05c5f3c1!8m2!3d52.2376196!4d18.2389549!16s%2Fg%2F11gb3t9v5g!19sChIJQUDcewQ0G0cRwfPFBb0kvQc?authuser=0&hl=tr&rclk=1",
    "website_url": "",
    "rating_text": "4,6",
    "stars": null,
    "number_of_reviews": null,
    "price_level": "",
    "open_hours": "",
    "extraction_timestamp": "2025-06-07T17:44:45.235Z",
    "source_name": "google",
    "source_query": "Irrigation Equipment",
    "source_country": "PL",
    "country": "Poland",
    "state": "Greater Poland Voivodeship",
    "city": "Konin"
  },
  {
    "source_id": "ChIJ7UOickQxG0cRIHQ3KMVxFGQ",
    "name": "Ex-Wal. Hurtownia papierosów",
    "category": "Ex-Wal. Hurtownia papierosów",
    "formatted_address": "4,5(14)",
    "phone_number": "+48632429516",
    "source_url": "https://www.google.com/maps/place/Ex-Wal.+Hurtownia+papieros%C3%B3w/data=!4m7!3m6!1s0x471b314472a243ed:0x641471c528377420!8m2!3d52.2099605!4d18.2557719!16s%2Fg%2F1thwz5mb!19sChIJ7UOickQxG0cRIHQ3KMVxFGQ?authuser=0&hl=tr&rclk=1",
    "website_url": "",
    "rating_text": "4,5",
    "stars": null,
    "number_of_reviews": null,
    "price_level": "",
    "open_hours": "",
    "extraction_timestamp": "2025-06-07T17:44:45.236Z",
    "source_name": "google",
    "source_query": "Irrigation Equipment",
    "source_country": "PL",
    "country": "Poland",
    "state": "Greater Poland Voivodeship",
    "city": "Konin"
  },
  {
    "source_id": "ChIJdyfehk8xG0cRQC_GP378mrQ",
    "name": "Giełda towarowo - samochodowa",
    "category": "Giełda towarowo - samochodowa",
    "formatted_address": "3,9(350)",
    "phone_number": "",
    "source_url": "https://www.google.com/maps/place/Gie%C5%82da+towarowo+-+samochodowa/data=!4m7!3m6!1s0x471b314f86de2777:0xb49afc7e3fc62f40!8m2!3d52.2164128!4d18.2565122!16s%2Fg%2F11fz9y714t!19sChIJdyfehk8xG0cRQC_GP378mrQ?authuser=0&hl=tr&rclk=1",
    "website_url": "",
    "rating_text": "3,9",
    "stars": null,
    "number_of_reviews": null,
    "price_level": "",
    "open_hours": "",
    "extraction_timestamp": "2025-06-07T17:44:45.237Z",
    "source_name": "google",
    "source_query": "Irrigation Equipment",
    "source_country": "PL",
    "country": "Poland",
    "state": "Greater Poland Voivodeship",
    "city": "Konin"
  },
  {
    "source_id": "ChIJgfXqHYY3G0cRRDzqBvdtzgo",
    "name": "POLOmarket",
    "category": "POLOmarket",
    "formatted_address": "4,2(83)",
    "phone_number": "",
    "source_url": "https://www.google.com/maps/place/POLOmarket/data=!4m7!3m6!1s0x471b37861deaf581:0xace6df706ea3c44!8m2!3d52.234304!4d18.253219!16s%2Fg%2F11p3h4d_vn!19sChIJgfXqHYY3G0cRRDzqBvdtzgo?authuser=0&hl=tr&rclk=1",
    "website_url": "",
    "rating_text": "4,2",
    "stars": null,
    "number_of_reviews": null,
    "price_level": "",
    "open_hours": "",
    "extraction_timestamp": "2025-06-07T17:44:45.237Z",
    "source_name": "google",
    "source_query": "Irrigation Equipment",
    "source_country": "PL",
    "country": "Poland",
    "state": "Greater Poland Voivodeship",
    "city": "Konin"
  }
]
