[
  {
    "source_id": "ChIJ0-iVfpX1BEcRsF6FfLjwz-c",
    "name": "Probiko-Aqua Sp. z o.o.",
    "category": "Probiko-Aqua Sp. z o.o.",
    "formatted_address": "4,7(12)",
    "phone_number": "+48616509580",
    "source_url": "https://www.google.com/maps/place/Probiko-Aqua+Sp.+z+o.o./data=!4m7!3m6!1s0x4704f5957e95e8d3:0xe7cff0b87c855eb0!8m2!3d52.401727!4d17.215864!16s%2Fg%2F1ptyw3b9m!19sChIJ0-iVfpX1BEcRsF6FfLjwz-c?authuser=0&hl=tr&rclk=1",
    "website_url": "",
    "rating_text": "4,7",
    "stars": null,
    "number_of_reviews": null,
    "price_level": "",
    "open_hours": "",
    "extraction_timestamp": "2025-06-07T17:31:37.526Z",
    "source_name": "google",
    "source_query": "Irrigation Equipment",
    "source_country": "PL",
    "country": "Poland",
    "state": "Greater Poland Voivodeship",
    "city": "Kostrzyn"
  },
  {
    "source_id": "ChIJs77nBs_1BEcRKSEa2wONXag",
    "name": "PCI Membranes Sp. z o.o.",
    "category": "PCI Membranes Sp. z o.o.",
    "formatted_address": "4,2(9)",
    "phone_number": "+48612255108",
    "source_url": "https://www.google.com/maps/place/PCI+Membranes+Sp.+z+o.o./data=!4m7!3m6!1s0x4704f5cf06e7beb3:0xa85d8d03db1a2129!8m2!3d52.4013137!4d17.2199192!16s%2Fg%2F1vmr02f2!19sChIJs77nBs_1BEcRKSEa2wONXag?authuser=0&hl=tr&rclk=1",
    "website_url": "",
    "rating_text": "4,2",
    "stars": null,
    "number_of_reviews": null,
    "price_level": "",
    "open_hours": "",
    "extraction_timestamp": "2025-06-07T17:31:37.527Z",
    "source_name": "google",
    "source_query": "Irrigation Equipment",
    "source_country": "PL",
    "country": "Poland",
    "state": "Greater Poland Voivodeship",
    "city": "Kostrzyn"
  },
  {
    "source_id": "ChIJUdQbu9H1BEcRS-HFulbHG0E",
    "name": "Inert Plus Wytwórnia osprzętu antenowego",
    "category": "Inert Plus Wytwórnia osprzętu antenowego",
    "formatted_address": "4,8(4)",
    "phone_number": "+48618188228",
    "source_url": "https://www.google.com/maps/place/Inert+Plus+Wytw%C3%B3rnia+osprz%C4%99tu+antenowego/data=!4m7!3m6!1s0x4704f5d1bb1bd451:0x411bc756bac5e14b!8m2!3d52.3967939!4d17.2190184!16s%2Fg%2F1tdyph4b!19sChIJUdQbu9H1BEcRS-HFulbHG0E?authuser=0&hl=tr&rclk=1",
    "website_url": "",
    "rating_text": "4,8",
    "stars": null,
    "number_of_reviews": null,
    "price_level": "",
    "open_hours": "",
    "extraction_timestamp": "2025-06-07T17:31:37.529Z",
    "source_name": "google",
    "source_query": "Irrigation Equipment",
    "source_country": "PL",
    "country": "Poland",
    "state": "Greater Poland Voivodeship",
    "city": "Kostrzyn"
  },
  {
    "source_id": "ChIJZ48x5yz0BEcRpbzLN56HQgY",
    "name": "Naprawa silników elektrycznych i elektronarzędzi Zbigniew Garczyk",
    "category": "Naprawa silników elektrycznych i elektronarzędzi Zbigniew Garczyk",
    "formatted_address": "4,9(19)",
    "phone_number": "+48609474044",
    "source_url": "https://www.google.com/maps/place/Naprawa+silnik%C3%B3w+elektrycznych+i+elektronarz%C4%99dzi+Zbigniew+Garczyk/data=!4m7!3m6!1s0x4704f42ce7318f67:0x642879e37cbbca5!8m2!3d52.3938384!4d17.2325415!16s%2Fg%2F1tj7zp22!19sChIJZ48x5yz0BEcRpbzLN56HQgY?authuser=0&hl=tr&rclk=1",
    "website_url": "",
    "rating_text": "4,9",
    "stars": null,
    "number_of_reviews": null,
    "price_level": "",
    "open_hours": "",
    "extraction_timestamp": "2025-06-07T17:31:37.530Z",
    "source_name": "google",
    "source_query": "Irrigation Equipment",
    "source_country": "PL",
    "country": "Poland",
    "state": "Greater Poland Voivodeship",
    "city": "Kostrzyn"
  },
  {
    "source_id": "ChIJ547xFtz1BEcRoJPTeEnzWhs",
    "name": "Hydro-Star",
    "category": "Hydro-Star",
    "formatted_address": "3,9(7)",
    "phone_number": "+48618750750",
    "source_url": "https://www.google.com/maps/place/Hydro-Star/data=!4m7!3m6!1s0x4704f5dc16f18ee7:0x1b5af34978d393a0!8m2!3d52.4038239!4d17.2280389!16s%2Fg%2F11b73qnt9s!19sChIJ547xFtz1BEcRoJPTeEnzWhs?authuser=0&hl=tr&rclk=1",
    "website_url": "",
    "rating_text": "3,9",
    "stars": null,
    "number_of_reviews": null,
    "price_level": "",
    "open_hours": "",
    "extraction_timestamp": "2025-06-07T17:31:37.531Z",
    "source_name": "google",
    "source_query": "Irrigation Equipment",
    "source_country": "PL",
    "country": "Poland",
    "state": "Greater Poland Voivodeship",
    "city": "Kostrzyn"
  },
  {
    "source_id": "ChIJW_yiyIf1BEcRIfP4PrMD2qc",
    "name": "Drop Service s.c.",
    "category": "Drop Service s.c.",
    "formatted_address": "4,7(6)",
    "phone_number": "+48604508024",
    "source_url": "https://www.google.com/maps/place/Drop+Service+s.c./data=!4m7!3m6!1s0x4704f587c8a2fc5b:0xa7da03b33ef8f321!8m2!3d52.396269!4d17.204334!16s%2Fg%2F11h0z8hw44!19sChIJW_yiyIf1BEcRIfP4PrMD2qc?authuser=0&hl=tr&rclk=1",
    "website_url": "",
    "rating_text": "4,7",
    "stars": null,
    "number_of_reviews": null,
    "price_level": "",
    "open_hours": "",
    "extraction_timestamp": "2025-06-07T17:31:37.533Z",
    "source_name": "google",
    "source_query": "Irrigation Equipment",
    "source_country": "PL",
    "country": "Poland",
    "state": "Greater Poland Voivodeship",
    "city": "Kostrzyn"
  },
  {
    "source_id": "ChIJ60k6pFVzB0cRX5AEO_ODhzU",
    "name": "EkoDRIP",
    "category": "EkoDRIP",
    "formatted_address": "5,0(10)",
    "phone_number": "+48607287878",
    "source_url": "https://www.google.com/maps/place/EkoDRIP/data=!4m7!3m6!1s0x47077355a43a49eb:0x358783f33b04905f!8m2!3d52.5987901!4d14.6541273!16s%2Fg%2F11v9yr5w5j!19sChIJ60k6pFVzB0cRX5AEO_ODhzU?authuser=0&hl=tr&rclk=1",
    "website_url": "",
    "rating_text": "5,0",
    "stars": null,
    "number_of_reviews": null,
    "price_level": "",
    "open_hours": "",
    "extraction_timestamp": "2025-06-07T17:31:37.533Z",
    "source_name": "google",
    "source_query": "Irrigation Equipment",
    "source_country": "PL",
    "country": "Poland",
    "state": "Greater Poland Voivodeship",
    "city": "Kostrzyn"
  },
  {
    "source_id": "ChIJUanDW9z1BEcRgJEcHMyKiMQ",
    "name": "Basen Pool Świta sp. z o.o. sp.k. Budowa i serwis basenów. Chemia basenowa",
    "category": "Basen Pool Świta sp. z o.o. sp.k. Budowa i serwis basenów. Chemia basenowa",
    "formatted_address": "4,7(55)",
    "phone_number": "+48618178491",
    "source_url": "https://www.google.com/maps/place/Basen+Pool+%C5%9Awita+sp.+z+o.o.+sp.k.+Budowa+i+serwis+basen%C3%B3w.+Chemia+basenowa/data=!4m7!3m6!1s0x4704f5dc5bc3a951:0xc4888acc1c1c9180!8m2!3d52.3981011!4d17.1972537!16s%2Fg%2F11h0f1181!19sChIJUanDW9z1BEcRgJEcHMyKiMQ?authuser=0&hl=tr&rclk=1",
    "website_url": "",
    "rating_text": "4,7",
    "stars": null,
    "number_of_reviews": null,
    "price_level": "",
    "open_hours": "",
    "extraction_timestamp": "2025-06-07T17:31:37.535Z",
    "source_name": "google",
    "source_query": "Irrigation Equipment",
    "source_country": "PL",
    "country": "Poland",
    "state": "Greater Poland Voivodeship",
    "city": "Kostrzyn"
  },
  {
    "source_id": "ChIJKZK3eET1BEcRCUs1CRaXtP0",
    "name": "Anpol",
    "category": "Anpol",
    "formatted_address": "",
    "phone_number": "+48516310105",
    "source_url": "https://www.google.com/maps/place/Anpol/data=!4m7!3m6!1s0x4704f54478b79229:0xfdb4971609354b09!8m2!3d52.3959694!4d17.2208657!16s%2Fg%2F11s8hh5wjk!19sChIJKZK3eET1BEcRCUs1CRaXtP0?authuser=0&hl=tr&rclk=1",
    "website_url": "",
    "rating_text": "",
    "stars": null,
    "number_of_reviews": null,
    "price_level": "",
    "open_hours": "",
    "extraction_timestamp": "2025-06-07T17:31:37.536Z",
    "source_name": "google",
    "source_query": "Irrigation Equipment",
    "source_country": "PL",
    "country": "Poland",
    "state": "Greater Poland Voivodeship",
    "city": "Kostrzyn"
  },
  {
    "source_id": "ChIJ7R0Z6NH1BEcRQFJ8akDy0Ug",
    "name": "Jana. Sklep spożywczy Średzkiej Spółdzielni Mleczarskiej",
    "category": "Jana. Sklep spożywczy Średzkiej Spółdzielni Mleczarskiej",
    "formatted_address": "4,3(230)",
    "phone_number": "+48618188566",
    "source_url": "https://www.google.com/maps/place/Jana.+Sklep+spo%C5%BCywczy+%C5%9Aredzkiej+Sp%C3%B3%C5%82dzielni+Mleczarskiej/data=!4m7!3m6!1s0x4704f5d1e8191ded:0x48d1f2406a7c5240!8m2!3d52.39773!4d17.2204391!16s%2Fg%2F1tkd_nrx!19sChIJ7R0Z6NH1BEcRQFJ8akDy0Ug?authuser=0&hl=tr&rclk=1",
    "website_url": "",
    "rating_text": "4,3",
    "stars": null,
    "number_of_reviews": null,
    "price_level": "",
    "open_hours": "",
    "extraction_timestamp": "2025-06-07T17:31:37.537Z",
    "source_name": "google",
    "source_query": "Irrigation Equipment",
    "source_country": "PL",
    "country": "Poland",
    "state": "Greater Poland Voivodeship",
    "city": "Kostrzyn"
  },
  {
    "source_id": "ChIJST8vGND1BEcR6YjoOFRocrQ",
    "name": "LIDMAR",
    "category": "LIDMAR",
    "formatted_address": "4,9(52)",
    "phone_number": "+48609038055",
    "source_url": "https://www.google.com/maps/place/LIDMAR/data=!4m7!3m6!1s0x4704f5d0182f3f49:0xb472685438e888e9!8m2!3d52.3984341!4d17.2166467!16s%2Fg%2F1hhkp3kgb!19sChIJST8vGND1BEcR6YjoOFRocrQ?authuser=0&hl=tr&rclk=1",
    "website_url": "",
    "rating_text": "4,9",
    "stars": null,
    "number_of_reviews": null,
    "price_level": "",
    "open_hours": "",
    "extraction_timestamp": "2025-06-07T17:31:37.538Z",
    "source_name": "google",
    "source_query": "Irrigation Equipment",
    "source_country": "PL",
    "country": "Poland",
    "state": "Greater Poland Voivodeship",
    "city": "Kostrzyn"
  },
  {
    "source_id": "ChIJ48JNk3_1BEcR_Q0Uodd2nsY",
    "name": "Sklep alkoholowy Mojito",
    "category": "Sklep alkoholowy Mojito",
    "formatted_address": "4,3(56)",
    "phone_number": "+48575991455",
    "source_url": "https://www.google.com/maps/place/Sklep+alkoholowy+Mojito/data=!4m7!3m6!1s0x4704f57f934dc2e3:0xc69e76d7a1140dfd!8m2!3d52.3978155!4d17.2276827!16s%2Fg%2F11f6csh63z!19sChIJ48JNk3_1BEcR_Q0Uodd2nsY?authuser=0&hl=tr&rclk=1",
    "website_url": "",
    "rating_text": "4,3",
    "stars": null,
    "number_of_reviews": null,
    "price_level": "",
    "open_hours": "",
    "extraction_timestamp": "2025-06-07T17:31:37.540Z",
    "source_name": "google",
    "source_query": "Irrigation Equipment",
    "source_country": "PL",
    "country": "Poland",
    "state": "Greater Poland Voivodeship",
    "city": "Kostrzyn"
  },
  {
    "source_id": "ChIJeVpextH1BEcRyKHTPOmIE-s",
    "name": "BENGAL SKLEP ZOOLOGICZNO WĘDKARSKI",
    "category": "BENGAL SKLEP ZOOLOGICZNO WĘDKARSKI",
    "formatted_address": "4,5(92)",
    "phone_number": "+48517817384",
    "source_url": "https://www.google.com/maps/place/BENGAL+SKLEP+ZOOLOGICZNO+W%C4%98DKARSKI/data=!4m7!3m6!1s0x4704f5d1c65e5a79:0xeb1388e93cd3a1c8!8m2!3d52.3976367!4d17.2193402!16s%2Fg%2F1ts1lbrd!19sChIJeVpextH1BEcRyKHTPOmIE-s?authuser=0&hl=tr&rclk=1",
    "website_url": "",
    "rating_text": "4,5",
    "stars": null,
    "number_of_reviews": null,
    "price_level": "",
    "open_hours": "",
    "extraction_timestamp": "2025-06-07T17:31:37.541Z",
    "source_name": "google",
    "source_query": "Irrigation Equipment",
    "source_country": "PL",
    "country": "Poland",
    "state": "Greater Poland Voivodeship",
    "city": "Kostrzyn"
  },
  {
    "source_id": "ChIJ_VBextH1BEcRO6RUYKlYO8o",
    "name": "Chata Polska",
    "category": "Chata Polska",
    "formatted_address": "4,0(653)",
    "phone_number": "+48616500360",
    "source_url": "https://www.google.com/maps/place/Chata+Polska/data=!4m7!3m6!1s0x4704f5d1c65e50fd:0xca3b58a96054a43b!8m2!3d52.3976456!4d17.2194581!16s%2Fg%2F11clytp489!19sChIJ_VBextH1BEcRO6RUYKlYO8o?authuser=0&hl=tr&rclk=1",
    "website_url": "",
    "rating_text": "4,0",
    "stars": null,
    "number_of_reviews": null,
    "price_level": "",
    "open_hours": "",
    "extraction_timestamp": "2025-06-07T17:31:37.542Z",
    "source_name": "google",
    "source_query": "Irrigation Equipment",
    "source_country": "PL",
    "country": "Poland",
    "state": "Greater Poland Voivodeship",
    "city": "Kostrzyn"
  },
  {
    "source_id": "ChIJK6bUFDP1BEcRm15R1i4HnBQ",
    "name": "Max Elektro",
    "category": "Max Elektro",
    "formatted_address": "4,9(25)",
    "phone_number": "+48517933341",
    "source_url": "https://www.google.com/maps/place/Max+Elektro/data=!4m7!3m6!1s0x4704f53314d4a62b:0x149c072ed6515e9b!8m2!3d52.398443!4d17.2218091!16s%2Fg%2F11p6h6pf2_!19sChIJK6bUFDP1BEcRm15R1i4HnBQ?authuser=0&hl=tr&rclk=1",
    "website_url": "",
    "rating_text": "4,9",
    "stars": null,
    "number_of_reviews": null,
    "price_level": "",
    "open_hours": "",
    "extraction_timestamp": "2025-06-07T17:31:37.544Z",
    "source_name": "google",
    "source_query": "Irrigation Equipment",
    "source_country": "PL",
    "country": "Poland",
    "state": "Greater Poland Voivodeship",
    "city": "Kostrzyn"
  },
  {
    "source_id": "ChIJAQAAtGD2BEcR7oCSxKzzueE",
    "name": "MOP Siekierki",
    "category": "MOP Siekierki",
    "formatted_address": "4,5(87)",
    "phone_number": "",
    "source_url": "https://www.google.com/maps/place/MOP+Siekierki/data=!4m7!3m6!1s0x4704f660b4000001:0xe1b9f3acc49280ee!8m2!3d52.370052!4d17.2069006!16s%2Fg%2F11txv1svvk!19sChIJAQAAtGD2BEcR7oCSxKzzueE?authuser=0&hl=tr&rclk=1",
    "website_url": "",
    "rating_text": "4,5",
    "stars": null,
    "number_of_reviews": null,
    "price_level": "",
    "open_hours": "",
    "extraction_timestamp": "2025-06-07T17:31:37.545Z",
    "source_name": "google",
    "source_query": "Irrigation Equipment",
    "source_country": "PL",
    "country": "Poland",
    "state": "Greater Poland Voivodeship",
    "city": "Kostrzyn"
  },
  {
    "source_id": "ChIJJROcqj31BEcRn8Ht9kRDjTw",
    "name": "Drogeria Rossmann",
    "category": "Drogeria Rossmann",
    "formatted_address": "4,5(306)",
    "phone_number": "+48426139700",
    "source_url": "https://www.google.com/maps/place/Drogeria+Rossmann/data=!4m7!3m6!1s0x4704f53daa9c1325:0x3c8d4344f6edc19f!8m2!3d52.393768!4d17.223541!16s%2Fg%2F11f9y1ytkk!19sChIJJROcqj31BEcRn8Ht9kRDjTw?authuser=0&hl=tr&rclk=1",
    "website_url": "",
    "rating_text": "4,5",
    "stars": null,
    "number_of_reviews": null,
    "price_level": "",
    "open_hours": "",
    "extraction_timestamp": "2025-06-07T17:31:37.546Z",
    "source_name": "google",
    "source_query": "Irrigation Equipment",
    "source_country": "PL",
    "country": "Poland",
    "state": "Greater Poland Voivodeship",
    "city": "Kostrzyn"
  },
  {
    "source_id": "ChIJ_yv3tBb1BEcRtpI7VtCE5hw",
    "name": "Biedronka",
    "category": "Biedronka",
    "formatted_address": "4,3(1.188)",
    "phone_number": "+48800080010",
    "source_url": "https://www.google.com/maps/place/Biedronka/data=!4m7!3m6!1s0x4704f516b4f72bff:0x1ce684d0563b92b6!8m2!3d52.3981907!4d17.209906!16s%2Fg%2F11gtbsgt9w!19sChIJ_yv3tBb1BEcRtpI7VtCE5hw?authuser=0&hl=tr&rclk=1",
    "website_url": "",
    "rating_text": "4,3",
    "stars": null,
    "number_of_reviews": null,
    "price_level": "",
    "open_hours": "",
    "extraction_timestamp": "2025-06-07T17:31:37.549Z",
    "source_name": "google",
    "source_query": "Irrigation Equipment",
    "source_country": "PL",
    "country": "Poland",
    "state": "Greater Poland Voivodeship",
    "city": "Kostrzyn"
  },
  {
    "source_id": "ChIJUfn2Ig35A0cREW9fZ4029UM",
    "name": "IMTechnika sp. z o.o.",
    "category": "IMTechnika sp. z o.o.",
    "formatted_address": "4,4(17)",
    "phone_number": "+48883820388",
    "source_url": "https://www.google.com/maps/place/IMTechnika+sp.+z+o.o./data=!4m7!3m6!1s0x4703f90d22f6f951:0x43f5368d675f6f11!8m2!3d52.9756271!4d16.657836!16s%2Fg%2F11bw48_6mg!19sChIJUfn2Ig35A0cREW9fZ4029UM?authuser=0&hl=tr&rclk=1",
    "website_url": "",
    "rating_text": "4,4",
    "stars": null,
    "number_of_reviews": null,
    "price_level": "",
    "open_hours": "",
    "extraction_timestamp": "2025-06-07T17:31:37.550Z",
    "source_name": "google",
    "source_query": "Irrigation Equipment",
    "source_country": "PL",
    "country": "Poland",
    "state": "Greater Poland Voivodeship",
    "city": "Kostrzyn"
  },
  {
    "source_id": "ChIJ2d4-0cpGBEcRTya15XLl9W0",
    "name": "POLGAR Garniewicz Wełniak spółka komandytowa",
    "category": "POLGAR Garniewicz Wełniak spółka komandytowa",
    "formatted_address": "4,5(23)",
    "phone_number": "+48618160631",
    "source_url": "https://www.google.com/maps/place/POLGAR+Garniewicz+We%C5%82niak+sp%C3%B3%C5%82ka+komandytowa/data=!4m7!3m6!1s0x470446cad13eded9:0x6df5e572e5b5264f!8m2!3d52.4535218!4d16.7706987!16s%2Fg%2F1tlzywfq!19sChIJ2d4-0cpGBEcRTya15XLl9W0?authuser=0&hl=tr&rclk=1",
    "website_url": "",
    "rating_text": "4,5",
    "stars": null,
    "number_of_reviews": null,
    "price_level": "",
    "open_hours": "",
    "extraction_timestamp": "2025-06-07T17:31:37.551Z",
    "source_name": "google",
    "source_query": "Irrigation Equipment",
    "source_country": "PL",
    "country": "Poland",
    "state": "Greater Poland Voivodeship",
    "city": "Kostrzyn"
  },
  {
    "source_id": "ChIJYaz-oZpfBEcRvcAcHFY7oQc",
    "name": "Aqua-System Technologie Uzdatniania Wody",
    "category": "Aqua-System Technologie Uzdatniania Wody",
    "formatted_address": "5,0(2)",
    "phone_number": "+48787586234",
    "source_url": "https://www.google.com/maps/place/Aqua-System+Technologie+Uzdatniania+Wody/data=!4m7!3m6!1s0x47045f9aa1feac61:0x7a13b561c1cc0bd!8m2!3d52.3982448!4d17.164388!16s%2Fg%2F11rnfcvf58!19sChIJYaz-oZpfBEcRvcAcHFY7oQc?authuser=0&hl=tr&rclk=1",
    "website_url": "",
    "rating_text": "5,0",
    "stars": null,
    "number_of_reviews": null,
    "price_level": "",
    "open_hours": "",
    "extraction_timestamp": "2025-06-07T17:31:37.552Z",
    "source_name": "google",
    "source_query": "Irrigation Equipment",
    "source_country": "PL",
    "country": "Poland",
    "state": "Greater Poland Voivodeship",
    "city": "Kostrzyn"
  },
  {
    "source_id": "ChIJwxC1X09EBEcRLzaLJfk4rD8",
    "name": "OASE - Oczko Wodne Polski Autoryzowany Sklep internetowy Złoty Przedstawiciel Nawadnianie Podlewanie Hunter, Raibird,Rossi",
    "category": "OASE - Oczko Wodne Polski Autoryzowany Sklep internetowy Złoty Przedstawiciel Nawadnianie Podlewanie Hunter, Raibird,Rossi",
    "formatted_address": "OASE - Oczko Wodne Polski Autoryzowany Sklep internetowy Złoty Przedstawiciel Nawadnianie Podlewanie Hunter, Raibird,Rossi",
    "phone_number": "+48618842498",
    "source_url": "https://www.google.com/maps/place/OASE+-+Oczko+Wodne+Polski+Autoryzowany+Sklep+internetowy+Z%C5%82oty+Przedstawiciel+Nawadnianie+Podlewanie+Hunter,+Raibird,Rossi/data=!4m7!3m6!1s0x4704444f5fb510c3:0x3fac38f9258b362f!8m2!3d52.4364533!4d16.8327227!16s%2Fg%2F1hc96cvd0!19sChIJwxC1X09EBEcRLzaLJfk4rD8?authuser=0&hl=tr&rclk=1",
    "website_url": "",
    "rating_text": "4,6",
    "stars": null,
    "number_of_reviews": null,
    "price_level": "",
    "open_hours": "",
    "extraction_timestamp": "2025-06-07T17:31:37.553Z",
    "source_name": "google",
    "source_query": "Irrigation Equipment",
    "source_country": "PL",
    "country": "Poland",
    "state": "Greater Poland Voivodeship",
    "city": "Kostrzyn"
  },
  {
    "source_id": "ChIJHTxQj6ZZBEcRFcFpQwGhP9c",
    "name": "Hydrobud A",
    "category": "Hydrobud A",
    "formatted_address": "5,0(1)",
    "phone_number": "+48502121245",
    "source_url": "https://www.google.com/maps/place/Hydrobud+A/data=!4m7!3m6!1s0x470459a68f503c1d:0xd73fa1014369c115!8m2!3d52.3750156!4d17.0698329!16s%2Fg%2F11wvjndft6!19sChIJHTxQj6ZZBEcRFcFpQwGhP9c?authuser=0&hl=tr&rclk=1",
    "website_url": "",
    "rating_text": "5,0",
    "stars": null,
    "number_of_reviews": null,
    "price_level": "",
    "open_hours": "",
    "extraction_timestamp": "2025-06-07T17:31:37.554Z",
    "source_name": "google",
    "source_query": "Irrigation Equipment",
    "source_country": "PL",
    "country": "Poland",
    "state": "Greater Poland Voivodeship",
    "city": "Kostrzyn"
  },
  {
    "source_id": "ChIJY9wCcAlXBEcRvKXvN3Wjnqw",
    "name": "SUCHA POSADZKA - Osuszanie budynków | Wynajem osuszaczy",
    "category": "SUCHA POSADZKA - Osuszanie budynków | Wynajem osuszaczy",
    "formatted_address": "5,0(70)",
    "phone_number": "+48534326870",
    "source_url": "https://www.google.com/maps/place/SUCHA+POSADZKA+-+Osuszanie+budynk%C3%B3w+%7C+Wynajem+osuszaczy/data=!4m7!3m6!1s0x470457097002dc63:0xac9ea37537efa5bc!8m2!3d52.2552332!4d17.0639886!16s%2Fg%2F11r6vhn4l1!19sChIJY9wCcAlXBEcRvKXvN3Wjnqw?authuser=0&hl=tr&rclk=1",
    "website_url": "",
    "rating_text": "5,0",
    "stars": null,
    "number_of_reviews": null,
    "price_level": "",
    "open_hours": "",
    "extraction_timestamp": "2025-06-07T17:31:37.555Z",
    "source_name": "google",
    "source_query": "Irrigation Equipment",
    "source_country": "PL",
    "country": "Poland",
    "state": "Greater Poland Voivodeship",
    "city": "Kostrzyn"
  },
  {
    "source_id": "ChIJbfw_EaNXBEcR_4WcJdE-X0w",
    "name": "P.H.P.U. ROMGAZ Roman Sobczak",
    "category": "P.H.P.U. ROMGAZ Roman Sobczak",
    "formatted_address": "4,4(7)",
    "phone_number": "+48616675475",
    "source_url": "https://www.google.com/maps/place/P.H.P.U.+ROMGAZ+Roman+Sobczak/data=!4m7!3m6!1s0x470457a3113ffc6d:0x4c5f3ed1259c85ff!8m2!3d52.2994135!4d17.050767!16s%2Fg%2F1tdl4v7y!19sChIJbfw_EaNXBEcR_4WcJdE-X0w?authuser=0&hl=tr&rclk=1",
    "website_url": "",
    "rating_text": "4,4",
    "stars": null,
    "number_of_reviews": null,
    "price_level": "",
    "open_hours": "",
    "extraction_timestamp": "2025-06-07T17:31:37.556Z",
    "source_name": "google",
    "source_query": "Irrigation Equipment",
    "source_country": "PL",
    "country": "Poland",
    "state": "Greater Poland Voivodeship",
    "city": "Kostrzyn"
  },
  {
    "source_id": "ChIJH0tpQaD7BEcRYQQ-PETrOIQ",
    "name": "ASW TECHNIK",
    "category": "ASW TECHNIK",
    "formatted_address": "4,8(46)",
    "phone_number": "+48577887997",
    "source_url": "https://www.google.com/maps/place/ASW+TECHNIK/data=!4m7!3m6!1s0x4704fba041694b1f:0x8438eb443c3e0461!8m2!3d52.2275708!4d17.2607921!16s%2Fg%2F11h_sld0sr!19sChIJH0tpQaD7BEcRYQQ-PETrOIQ?authuser=0&hl=tr&rclk=1",
    "website_url": "",
    "rating_text": "4,8",
    "stars": null,
    "number_of_reviews": null,
    "price_level": "",
    "open_hours": "",
    "extraction_timestamp": "2025-06-07T17:31:37.557Z",
    "source_name": "google",
    "source_query": "Irrigation Equipment",
    "source_country": "PL",
    "country": "Poland",
    "state": "Greater Poland Voivodeship",
    "city": "Kostrzyn"
  },
  {
    "source_id": "ChIJw1z7yZtzB0cRcituaGCAWzE",
    "name": "Tech -System Mariusz Pakirski",
    "category": "Tech -System Mariusz Pakirski",
    "formatted_address": "4,8(5)",
    "phone_number": "+48720806266",
    "source_url": "https://www.google.com/maps/place/Tech+-System+Mariusz+Pakirski/data=!4m7!3m6!1s0x4707739bc9fb5cc3:0x315b8060686e2b72!8m2!3d52.5978434!4d14.6604148!16s%2Fg%2F11k01b206w!19sChIJw1z7yZtzB0cRcituaGCAWzE?authuser=0&hl=tr&rclk=1",
    "website_url": "",
    "rating_text": "4,8",
    "stars": null,
    "number_of_reviews": null,
    "price_level": "",
    "open_hours": "",
    "extraction_timestamp": "2025-06-07T17:31:37.557Z",
    "source_name": "google",
    "source_query": "Irrigation Equipment",
    "source_country": "PL",
    "country": "Poland",
    "state": "Greater Poland Voivodeship",
    "city": "Kostrzyn"
  },
  {
    "source_id": "ChIJDbBJTxNzB0cRd45uOVCN-XY",
    "name": "Insbudsc. Montaż Sprzedaż. Nowoczesne instalacje w Twoim domu",
    "category": "Insbudsc. Montaż Sprzedaż. Nowoczesne instalacje w Twoim domu",
    "formatted_address": "4,5(24)",
    "phone_number": "+48793488404",
    "source_url": "https://www.google.com/maps/place/Insbudsc.+Monta%C5%BC+Sprzeda%C5%BC.+Nowoczesne+instalacje+w+Twoim+domu/data=!4m7!3m6!1s0x470773134f49b00d:0x76f98d50396e8e77!8m2!3d52.5931396!4d14.6658752!16s%2Fg%2F1th1bdz1!19sChIJDbBJTxNzB0cRd45uOVCN-XY?authuser=0&hl=tr&rclk=1",
    "website_url": "",
    "rating_text": "4,5",
    "stars": null,
    "number_of_reviews": null,
    "price_level": "",
    "open_hours": "",
    "extraction_timestamp": "2025-06-07T17:31:37.558Z",
    "source_name": "google",
    "source_query": "Irrigation Equipment",
    "source_country": "PL",
    "country": "Poland",
    "state": "Greater Poland Voivodeship",
    "city": "Kostrzyn"
  },
  {
    "source_id": "ChIJQaAR7D37BEcRBa5PF0ULYcE",
    "name": "TEST Łukasz i Grzegorz Kiełbowicz sp. j",
    "category": "TEST Łukasz i Grzegorz Kiełbowicz sp. j",
    "formatted_address": "4,9(75)",
    "phone_number": "+48508635200",
    "source_url": "https://www.google.com/maps/place/TEST+%C5%81ukasz+i+Grzegorz+Kie%C5%82bowicz+sp.+j/data=!4m7!3m6!1s0x4704fb3dec11a041:0xc1610b45174fae05!8m2!3d52.5658269!4d17.6143399!16s%2Fg%2F1twyy791!19sChIJQaAR7D37BEcRBa5PF0ULYcE?authuser=0&hl=tr&rclk=1",
    "website_url": "",
    "rating_text": "4,9",
    "stars": null,
    "number_of_reviews": null,
    "price_level": "",
    "open_hours": "",
    "extraction_timestamp": "2025-06-07T17:31:37.559Z",
    "source_name": "google",
    "source_query": "Irrigation Equipment",
    "source_country": "PL",
    "country": "Poland",
    "state": "Greater Poland Voivodeship",
    "city": "Kostrzyn"
  },
  {
    "source_id": "ChIJLYhEm6xDBEcRyx2zr8tDWH0",
    "name": "Rafamarina Centrum Morsów",
    "category": "Rafamarina Centrum Morsów",
    "formatted_address": "4,7(137)",
    "phone_number": "+48508907032",
    "source_url": "https://www.google.com/maps/place/Rafamarina+Centrum+Mors%C3%B3w/data=!4m7!3m6!1s0x470443ac9b44882d:0x7d5843cbafb31dcb!8m2!3d52.463029!4d16.8258449!16s%2Fg%2F11h2l8fqp8!19sChIJLYhEm6xDBEcRyx2zr8tDWH0?authuser=0&hl=tr&rclk=1",
    "website_url": "",
    "rating_text": "4,7",
    "stars": null,
    "number_of_reviews": null,
    "price_level": "",
    "open_hours": "",
    "extraction_timestamp": "2025-06-07T17:31:37.560Z",
    "source_name": "google",
    "source_query": "Irrigation Equipment",
    "source_country": "PL",
    "country": "Poland",
    "state": "Greater Poland Voivodeship",
    "city": "Kostrzyn"
  },
  {
    "source_id": "ChIJUfoHRcxaBEcR5tyIxYf5wDE",
    "name": "Radaway",
    "category": "Radaway",
    "formatted_address": "4,1(211)",
    "phone_number": "+48618357510",
    "source_url": "https://www.google.com/maps/place/Radaway/data=!4m7!3m6!1s0x47045acc4507fa51:0x31c0f987c588dce6!8m2!3d52.3982828!4d17.1187731!16s%2Fg%2F1ptvzgk8b!19sChIJUfoHRcxaBEcR5tyIxYf5wDE?authuser=0&hl=tr&rclk=1",
    "website_url": "",
    "rating_text": "4,1",
    "stars": null,
    "number_of_reviews": null,
    "price_level": "",
    "open_hours": "",
    "extraction_timestamp": "2025-06-07T17:31:37.561Z",
    "source_name": "google",
    "source_query": "Irrigation Equipment",
    "source_country": "PL",
    "country": "Poland",
    "state": "Greater Poland Voivodeship",
    "city": "Kostrzyn"
  }
]
