[
  {
    "source_id": "ChIJE-d7By8vBUcRzg-G3SPgnYo",
    "name": "Q-Water X-Power",
    "category": "Q-Water X-Power",
    "formatted_address": "5,0(6)",
    "phone_number": "+48665700855",
    "source_url": "https://www.google.com/maps/place/Q-Water+X-Power/data=!4m7!3m6!1s0x47052f2f077be713:0x8a9de023dd860fce!8m2!3d51.915334!4d17.6485966!16s%2Fg%2F11thp5jf8h!19sChIJE-d7By8vBUcRzg-G3SPgnYo?authuser=0&hl=tr&rclk=1",
    "website_url": "",
    "rating_text": "5,0",
    "stars": null,
    "number_of_reviews": null,
    "price_level": "",
    "open_hours": "",
    "extraction_timestamp": "2025-06-07T17:35:03.787Z",
    "source_name": "google",
    "source_query": "Irrigation Equipment",
    "source_country": "PL",
    "country": "Poland",
    "state": "Greater Poland Voivodeship",
    "city": "Kotlin"
  },
  {
    "source_id": "ChIJezE5OogvBUcRnuU1VqGE3OI",
    "name": "Al Max Studzienki wodomierzowe Hurtownia Instalacyjna",
    "category": "Al Max Studzienki wodomierzowe Hurtownia Instalacyjna",
    "formatted_address": "4,6(10)",
    "phone_number": "+48690928899",
    "source_url": "https://www.google.com/maps/place/Al+Max+Studzienki+wodomierzowe+Hurtownia+Instalacyjna/data=!4m7!3m6!1s0x47052f883a39317b:0xe2dc84a15635e59e!8m2!3d51.910722!4d17.653473!16s%2Fg%2F11f04k2__0!19sChIJezE5OogvBUcRnuU1VqGE3OI?authuser=0&hl=tr&rclk=1",
    "website_url": "",
    "rating_text": "4,6",
    "stars": null,
    "number_of_reviews": null,
    "price_level": "",
    "open_hours": "",
    "extraction_timestamp": "2025-06-07T17:35:03.819Z",
    "source_name": "google",
    "source_query": "Irrigation Equipment",
    "source_country": "PL",
    "country": "Poland",
    "state": "Greater Poland Voivodeship",
    "city": "Kotlin"
  },
  {
    "source_id": "ChIJ6WzX9YYvBUcRFGOCuwjL0m4",
    "name": "Agro-Efekt sp. z o.o. Kotlin",
    "category": "Agro-Efekt sp. z o.o. Kotlin",
    "formatted_address": "4,8(4)",
    "phone_number": "+48627406956",
    "source_url": "https://www.google.com/maps/place/Agro-Efekt+sp.+z+o.o.+Kotlin/data=!4m7!3m6!1s0x47052f86f5d76ce9:0x6ed2cb08bb826314!8m2!3d51.92664!4d17.651998!16s%2Fg%2F1tfdxk89!19sChIJ6WzX9YYvBUcRFGOCuwjL0m4?authuser=0&hl=tr&rclk=1",
    "website_url": "",
    "rating_text": "4,8",
    "stars": null,
    "number_of_reviews": null,
    "price_level": "",
    "open_hours": "",
    "extraction_timestamp": "2025-06-07T17:35:03.820Z",
    "source_name": "google",
    "source_query": "Irrigation Equipment",
    "source_country": "PL",
    "country": "Poland",
    "state": "Greater Poland Voivodeship",
    "city": "Kotlin"
  },
  {
    "source_id": "ChIJqcdw_JEvBUcRIbf_D2UB2Fo",
    "name": "ROLBUD- Kotlin",
    "category": "ROLBUD- Kotlin",
    "formatted_address": "4,7(39)",
    "phone_number": "+48627405422",
    "source_url": "https://www.google.com/maps/place/ROLBUD-+Kotlin/data=!4m7!3m6!1s0x47052f91fc70c7a9:0x5ad801650fffb721!8m2!3d51.9116985!4d17.653932!16s%2Fg%2F11csr5r0xh!19sChIJqcdw_JEvBUcRIbf_D2UB2Fo?authuser=0&hl=tr&rclk=1",
    "website_url": "",
    "rating_text": "4,7",
    "stars": null,
    "number_of_reviews": null,
    "price_level": "",
    "open_hours": "",
    "extraction_timestamp": "2025-06-07T17:35:03.821Z",
    "source_name": "google",
    "source_query": "Irrigation Equipment",
    "source_country": "PL",
    "country": "Poland",
    "state": "Greater Poland Voivodeship",
    "city": "Kotlin"
  },
  {
    "source_id": "ChIJTykbXncuBUcRyK5F6n2LMSM",
    "name": "Sklep Firmowy ZPOW KOTLIN",
    "category": "Sklep Firmowy ZPOW KOTLIN",
    "formatted_address": "4,6(112)",
    "phone_number": "+48627405134",
    "source_url": "https://www.google.com/maps/place/Sklep+Firmowy+ZPOW+KOTLIN/data=!4m7!3m6!1s0x47052e775e1b294f:0x23318b7dea45aec8!8m2!3d51.9220049!4d17.6394752!16s%2Fg%2F11h1hczk2!19sChIJTykbXncuBUcRyK5F6n2LMSM?authuser=0&hl=tr&rclk=1",
    "website_url": "",
    "rating_text": "4,6",
    "stars": null,
    "number_of_reviews": null,
    "price_level": "",
    "open_hours": "",
    "extraction_timestamp": "2025-06-07T17:35:03.822Z",
    "source_name": "google",
    "source_query": "Irrigation Equipment",
    "source_country": "PL",
    "country": "Poland",
    "state": "Greater Poland Voivodeship",
    "city": "Kotlin"
  },
  {
    "source_id": "ChIJn10V9p0jBUcRvLl-QrH4Fvs",
    "name": "ITT - Filtracja",
    "category": "ITT - Filtracja",
    "formatted_address": "5,0(4)",
    "phone_number": "+48627409042",
    "source_url": "https://www.google.com/maps/place/ITT+-+Filtracja/data=!4m7!3m6!1s0x4705239df6155d9f:0xfb16f8b1427eb9bc!8m2!3d51.9622227!4d17.5063423!16s%2Fg%2F11h7bgvvdn!19sChIJn10V9p0jBUcRvLl-QrH4Fvs?authuser=0&hl=tr&rclk=1",
    "website_url": "",
    "rating_text": "5,0",
    "stars": null,
    "number_of_reviews": null,
    "price_level": "",
    "open_hours": "",
    "extraction_timestamp": "2025-06-07T17:35:03.823Z",
    "source_name": "google",
    "source_query": "Irrigation Equipment",
    "source_country": "PL",
    "country": "Poland",
    "state": "Greater Poland Voivodeship",
    "city": "Kotlin"
  },
  {
    "source_id": "ChIJyx3oHYYvBUcRlo2L4XS_DHQ",
    "name": "$knerusek & Market Ajan",
    "category": "$knerusek & Market Ajan",
    "formatted_address": "4,7(37)",
    "phone_number": "",
    "source_url": "https://www.google.com/maps/place/$knerusek+%26+Market+Ajan/data=!4m7!3m6!1s0x47052f861de81dcb:0x740cbf74e18b8d96!8m2!3d51.9162609!4d17.6476909!16s%2Fg%2F11f3jy9ffn!19sChIJyx3oHYYvBUcRlo2L4XS_DHQ?authuser=0&hl=tr&rclk=1",
    "website_url": "",
    "rating_text": "4,7",
    "stars": null,
    "number_of_reviews": null,
    "price_level": "",
    "open_hours": "",
    "extraction_timestamp": "2025-06-07T17:35:03.823Z",
    "source_name": "google",
    "source_query": "Irrigation Equipment",
    "source_country": "PL",
    "country": "Poland",
    "state": "Greater Poland Voivodeship",
    "city": "Kotlin"
  },
  {
    "source_id": "ChIJLQ2wMM8lBUcRyuA1dmut_B0",
    "name": "Nowim - przyczepy gastronomiczne, do koni, budowlane, furgony, inne, producent",
    "category": "Nowim - przyczepy gastronomiczne, do koni, budowlane, furgony, inne, producent",
    "formatted_address": "Nowim - przyczepy gastronomiczne, do koni, budowlane, furgony, inne, producent",
    "phone_number": "+48730751730",
    "source_url": "https://www.google.com/maps/place/Nowim+-+przyczepy+gastronomiczne,+do+koni,+budowlane,+furgony,+inne,+producent/data=!4m7!3m6!1s0x470525cf30b00d2d:0x1dfcad6b7635e0ca!8m2!3d51.9231246!4d17.6368627!16s%2Fg%2F11h4xl95b1!19sChIJLQ2wMM8lBUcRyuA1dmut_B0?authuser=0&hl=tr&rclk=1",
    "website_url": "",
    "rating_text": "3,9",
    "stars": null,
    "number_of_reviews": null,
    "price_level": "",
    "open_hours": "",
    "extraction_timestamp": "2025-06-07T17:35:03.824Z",
    "source_name": "google",
    "source_query": "Irrigation Equipment",
    "source_country": "PL",
    "country": "Poland",
    "state": "Greater Poland Voivodeship",
    "city": "Kotlin"
  },
  {
    "source_id": "ChIJCS7cObHcr2cR9_CL8zXrAOo",
    "name": "Z-WATER POLSKA Sp z.oo",
    "category": "Z-WATER POLSKA Sp z.oo",
    "formatted_address": "",
    "phone_number": "+48697989505",
    "source_url": "https://www.google.com/maps/place/Z-WATER+POLSKA+Sp+z.oo/data=!4m7!3m6!1s0x67afdcb139dc2e09:0xea00eb35f38bf0f7!8m2!3d51.953761!4d19.1343692!16s%2Fg%2F11t1n92_9l!19sChIJCS7cObHcr2cR9_CL8zXrAOo?authuser=0&hl=tr&rclk=1",
    "website_url": "",
    "rating_text": "",
    "stars": null,
    "number_of_reviews": null,
    "price_level": "",
    "open_hours": "",
    "extraction_timestamp": "2025-06-07T17:35:03.825Z",
    "source_name": "google",
    "source_query": "Irrigation Equipment",
    "source_country": "PL",
    "country": "Poland",
    "state": "Greater Poland Voivodeship",
    "city": "Kotlin"
  },
  {
    "source_id": "ChIJE207sTklBUcRwNdT3Ljo2Wo",
    "name": "Sklep Ogrodniczy - Biesiada Józef, Kotlin",
    "category": "Sklep Ogrodniczy - Biesiada Józef, Kotlin",
    "formatted_address": "Sklep Ogrodniczy - Biesiada Józef, Kotlin",
    "phone_number": "+48695805108",
    "source_url": "https://www.google.com/maps/place/Sklep+Ogrodniczy+-+Biesiada+J%C3%B3zef,+Kotlin/data=!4m7!3m6!1s0x47052539b13b6d13:0x6ad9e8b8dc53d7c0!8m2!3d51.919927!4d17.6423352!16s%2Fg%2F11ksnw1svn!19sChIJE207sTklBUcRwNdT3Ljo2Wo?authuser=0&hl=tr&rclk=1",
    "website_url": "",
    "rating_text": "5,0",
    "stars": null,
    "number_of_reviews": null,
    "price_level": "",
    "open_hours": "",
    "extraction_timestamp": "2025-06-07T17:35:03.826Z",
    "source_name": "google",
    "source_query": "Irrigation Equipment",
    "source_country": "PL",
    "country": "Poland",
    "state": "Greater Poland Voivodeship",
    "city": "Kotlin"
  },
  {
    "source_id": "ChIJSQPDpUwvBUcR3-N0vOLhxqg",
    "name": "Dino",
    "category": "Dino",
    "formatted_address": "4,4(127)",
    "phone_number": "",
    "source_url": "https://www.google.com/maps/place/Dino/data=!4m7!3m6!1s0x47052f4ca5c30349:0xa8c6e1e2bc74e3df!8m2!3d51.9158819!4d17.6593601!16s%2Fg%2F11h6s22h_l!19sChIJSQPDpUwvBUcR3-N0vOLhxqg?authuser=0&hl=tr&rclk=1",
    "website_url": "",
    "rating_text": "4,4",
    "stars": null,
    "number_of_reviews": null,
    "price_level": "",
    "open_hours": "",
    "extraction_timestamp": "2025-06-07T17:35:03.826Z",
    "source_name": "google",
    "source_query": "Irrigation Equipment",
    "source_country": "PL",
    "country": "Poland",
    "state": "Greater Poland Voivodeship",
    "city": "Kotlin"
  },
  {
    "source_id": "ChIJmyrDfpsvBUcRAQhpfs_hGdI",
    "name": "Glinianki Staw pzw",
    "category": "Glinianki Staw pzw",
    "formatted_address": "4,3(11)",
    "phone_number": "+48691869819",
    "source_url": "https://www.google.com/maps/place/Glinianki+Staw+pzw/data=!4m7!3m6!1s0x47052f9b7ec32a9b:0xd219e1cf7e690801!8m2!3d51.9078733!4d17.666424!16s%2Fg%2F11jv47jmgp!19sChIJmyrDfpsvBUcRAQhpfs_hGdI?authuser=0&hl=tr&rclk=1",
    "website_url": "",
    "rating_text": "4,3",
    "stars": null,
    "number_of_reviews": null,
    "price_level": "",
    "open_hours": "",
    "extraction_timestamp": "2025-06-07T17:35:03.827Z",
    "source_name": "google",
    "source_query": "Irrigation Equipment",
    "source_country": "PL",
    "country": "Poland",
    "state": "Greater Poland Voivodeship",
    "city": "Kotlin"
  },
  {
    "source_id": "ChIJwRRlhYcvBUcRV9kurSFsRtY",
    "name": "Biedronka",
    "category": "Biedronka",
    "formatted_address": "4,2(775)",
    "phone_number": "+48800080010",
    "source_url": "https://www.google.com/maps/place/Biedronka/data=!4m7!3m6!1s0x47052f87856514c1:0xd6466c21ad2ed957!8m2!3d51.9202778!4d17.6436111!16s%2Fg%2F11c2pg2fdk!19sChIJwRRlhYcvBUcRV9kurSFsRtY?authuser=0&hl=tr&rclk=1",
    "website_url": "",
    "rating_text": "4,2",
    "stars": null,
    "number_of_reviews": null,
    "price_level": "",
    "open_hours": "",
    "extraction_timestamp": "2025-06-07T17:35:03.828Z",
    "source_name": "google",
    "source_query": "Irrigation Equipment",
    "source_country": "PL",
    "country": "Poland",
    "state": "Greater Poland Voivodeship",
    "city": "Kotlin"
  },
  {
    "source_id": "ChIJB6y_v5J2HEcRlDfYx3xmc9M",
    "name": "Milex irrigation systems",
    "category": "Milex irrigation systems",
    "formatted_address": "4,6(37)",
    "phone_number": "+48242775222",
    "source_url": "https://www.google.com/maps/place/Milex+irrigation+systems/data=!4m7!3m6!1s0x471c7692bfbfac07:0xd373667cc7d83794!8m2!3d52.4690634!4d19.7520904!16s%2Fg%2F1w2yy67r!19sChIJB6y_v5J2HEcRlDfYx3xmc9M?authuser=0&hl=tr&rclk=1",
    "website_url": "",
    "rating_text": "4,6",
    "stars": null,
    "number_of_reviews": null,
    "price_level": "",
    "open_hours": "",
    "extraction_timestamp": "2025-06-07T17:35:03.829Z",
    "source_name": "google",
    "source_query": "Irrigation Equipment",
    "source_country": "PL",
    "country": "Poland",
    "state": "Greater Poland Voivodeship",
    "city": "Kotlin"
  },
  {
    "source_id": "ChIJI3jS9YYvBUcRfS1c8nltJI8",
    "name": "Groszek. Sklep spożywczo - przemysłowy",
    "category": "Groszek. Sklep spożywczo - przemysłowy",
    "formatted_address": "4,6(11)",
    "phone_number": "",
    "source_url": "https://www.google.com/maps/place/Groszek.+Sklep+spo%C5%BCywczo+-+przemys%C5%82owy/data=!4m7!3m6!1s0x47052f86f5d27823:0x8f246d79f25c2d7d!8m2!3d51.9232572!4d17.6500387!16s%2Fg%2F1tz74pcy!19sChIJI3jS9YYvBUcRfS1c8nltJI8?authuser=0&hl=tr&rclk=1",
    "website_url": "",
    "rating_text": "4,6",
    "stars": null,
    "number_of_reviews": null,
    "price_level": "",
    "open_hours": "",
    "extraction_timestamp": "2025-06-07T17:35:03.829Z",
    "source_name": "google",
    "source_query": "Irrigation Equipment",
    "source_country": "PL",
    "country": "Poland",
    "state": "Greater Poland Voivodeship",
    "city": "Kotlin"
  },
  {
    "source_id": "ChIJT738lcgjBUcRRTr16KOh0l4",
    "name": "Szkolenia z hydrografiki WaterDesign",
    "category": "Szkolenia z hydrografiki WaterDesign",
    "formatted_address": "",
    "phone_number": "+48888457277",
    "source_url": "https://www.google.com/maps/place/Szkolenia+z+hydrografiki+WaterDesign/data=!4m7!3m6!1s0x470523c895fcbd4f:0x5ed2a1a3e8f53a45!8m2!3d51.977434!4d17.4999495!16s%2Fg%2F11bwkz8_bn!19sChIJT738lcgjBUcRRTr16KOh0l4?authuser=0&hl=tr&rclk=1",
    "website_url": "",
    "rating_text": "",
    "stars": null,
    "number_of_reviews": null,
    "price_level": "",
    "open_hours": "",
    "extraction_timestamp": "2025-06-07T17:35:03.831Z",
    "source_name": "google",
    "source_query": "Irrigation Equipment",
    "source_country": "PL",
    "country": "Poland",
    "state": "Greater Poland Voivodeship",
    "city": "Kotlin"
  },
  {
    "source_id": "ChIJX78WPoYvBUcR-MohJ8nKzPA",
    "name": "Lewiatan",
    "category": "Lewiatan",
    "formatted_address": "4,1(100)",
    "phone_number": "",
    "source_url": "https://www.google.com/maps/place/Lewiatan/data=!4m7!3m6!1s0x47052f863e16bf5f:0xf0cccac92721caf8!8m2!3d51.9187359!4d17.6477679!16s%2Fg%2F11c2jzxyk2!19sChIJX78WPoYvBUcR-MohJ8nKzPA?authuser=0&hl=tr&rclk=1",
    "website_url": "",
    "rating_text": "4,1",
    "stars": null,
    "number_of_reviews": null,
    "price_level": "",
    "open_hours": "",
    "extraction_timestamp": "2025-06-07T17:35:03.831Z",
    "source_name": "google",
    "source_query": "Irrigation Equipment",
    "source_country": "PL",
    "country": "Poland",
    "state": "Greater Poland Voivodeship",
    "city": "Kotlin"
  }
]
