[
  {
    "source_id": "ChIJ5fJHp94VG0cRKWeqwhC83xY",
    "name": "SPAWMEX Gazy Techniczne",
    "category": "SPAWMEX Gazy Techniczne",
    "formatted_address": "4,9(11)",
    "phone_number": "+48502176441",
    "source_url": "https://www.google.com/maps/place/SPAWMEX+Gazy+Techniczne/data=!4m7!3m6!1s0x471b15dea747f2e5:0x16dfbc10c2aa6729!8m2!3d52.2019505!4d18.6404062!16s%2Fg%2F11gsn3qx1p!19sChIJ5fJHp94VG0cRKWeqwhC83xY?authuser=0&hl=tr&rclk=1",
    "website_url": "",
    "rating_text": "4,9",
    "stars": null,
    "number_of_reviews": null,
    "price_level": "",
    "open_hours": "",
    "extraction_timestamp": "2025-06-07T17:29:16.812Z",
    "source_name": "google",
    "source_query": "Irrigation Equipment",
    "source_country": "PL",
    "country": "Poland",
    "state": "Greater Poland Voivodeship",
    "city": "Koło"
  },
  {
    "source_id": "ChIJ9TilOCw-G0cRiu9zyMaVcnI",
    "name": "Instalkran. Art. instalacyjne, ceramika łazienkowa, wod. - kan.",
    "category": "Instalkran. Art. instalacyjne, ceramika łazienkowa, wod. - kan.",
    "formatted_address": "Instalkran. Art. instalacyjne, ceramika łazienkowa, wod. - kan.",
    "phone_number": "+48632610442",
    "source_url": "https://www.google.com/maps/place/Instalkran.+Art.+instalacyjne,+ceramika+%C5%82azienkowa,+wod.+-+kan./data=!4m7!3m6!1s0x471b3e2c38a538f5:0x727295c6c873ef8a!8m2!3d52.208267!4d18.620523!16s%2Fg%2F1tgllnd0!19sChIJ9TilOCw-G0cRiu9zyMaVcnI?authuser=0&hl=tr&rclk=1",
    "website_url": "",
    "rating_text": "4,7",
    "stars": null,
    "number_of_reviews": null,
    "price_level": "",
    "open_hours": "",
    "extraction_timestamp": "2025-06-07T17:29:16.814Z",
    "source_name": "google",
    "source_query": "Irrigation Equipment",
    "source_country": "PL",
    "country": "Poland",
    "state": "Greater Poland Voivodeship",
    "city": "Koło"
  },
  {
    "source_id": "ChIJkXCP2ZoVG0cRF9kpnBgj_RU",
    "name": "Hydra-Grupa SBS",
    "category": "Hydra-Grupa SBS",
    "formatted_address": "4,7(101)",
    "phone_number": "+48632610029",
    "source_url": "https://www.google.com/maps/place/Hydra-Grupa+SBS/data=!4m7!3m6!1s0x471b159ad98f7091:0x15fd23189c29d917!8m2!3d52.1998033!4d18.6448023!16s%2Fg%2F1td9tw0r!19sChIJkXCP2ZoVG0cRF9kpnBgj_RU?authuser=0&hl=tr&rclk=1",
    "website_url": "",
    "rating_text": "4,7",
    "stars": null,
    "number_of_reviews": null,
    "price_level": "",
    "open_hours": "",
    "extraction_timestamp": "2025-06-07T17:29:16.815Z",
    "source_name": "google",
    "source_query": "Irrigation Equipment",
    "source_country": "PL",
    "country": "Poland",
    "state": "Greater Poland Voivodeship",
    "city": "Koło"
  },
  {
    "source_id": "ChIJ6ZNLC_EVG0cRuMc0OE6i4xo",
    "name": "GEOTERMA",
    "category": "GEOTERMA",
    "formatted_address": "5,0(4)",
    "phone_number": "+48510899238",
    "source_url": "https://www.google.com/maps/place/GEOTERMA/data=!4m7!3m6!1s0x471b15f10b4b93e9:0x1ae3a24e3834c7b8!8m2!3d52.1844768!4d18.6077805!16s%2Fg%2F11gh_wmm7r!19sChIJ6ZNLC_EVG0cRuMc0OE6i4xo?authuser=0&hl=tr&rclk=1",
    "website_url": "",
    "rating_text": "5,0",
    "stars": null,
    "number_of_reviews": null,
    "price_level": "",
    "open_hours": "",
    "extraction_timestamp": "2025-06-07T17:29:16.815Z",
    "source_name": "google",
    "source_query": "Irrigation Equipment",
    "source_country": "PL",
    "country": "Poland",
    "state": "Greater Poland Voivodeship",
    "city": "Koło"
  },
  {
    "source_id": "ChIJB6y_v5J2HEcRlDfYx3xmc9M",
    "name": "Milex irrigation systems",
    "category": "Milex irrigation systems",
    "formatted_address": "4,6(37)",
    "phone_number": "+48242775222",
    "source_url": "https://www.google.com/maps/place/Milex+irrigation+systems/data=!4m7!3m6!1s0x471c7692bfbfac07:0xd373667cc7d83794!8m2!3d52.4690634!4d19.7520904!16s%2Fg%2F1w2yy67r!19sChIJB6y_v5J2HEcRlDfYx3xmc9M?authuser=0&hl=tr&rclk=1",
    "website_url": "",
    "rating_text": "4,6",
    "stars": null,
    "number_of_reviews": null,
    "price_level": "",
    "open_hours": "",
    "extraction_timestamp": "2025-06-07T17:29:16.816Z",
    "source_name": "google",
    "source_query": "Irrigation Equipment",
    "source_country": "PL",
    "country": "Poland",
    "state": "Greater Poland Voivodeship",
    "city": "Koło"
  },
  {
    "source_id": "ChIJO31XhoQVG0cRV7QE1VP9qZ8",
    "name": "Urbański Zbigniew - Hydraulik",
    "category": "Urbański Zbigniew - Hydraulik",
    "formatted_address": "4,8(6)",
    "phone_number": "+48502669053",
    "source_url": "https://www.google.com/maps/place/Urba%C5%84ski+Zbigniew+-+Hydraulik/data=!4m7!3m6!1s0x471b158486577d3b:0x9fa9fd53d504b457!8m2!3d52.203079!4d18.640873!16s%2Fg%2F1tfcxk7z!19sChIJO31XhoQVG0cRV7QE1VP9qZ8?authuser=0&hl=tr&rclk=1",
    "website_url": "",
    "rating_text": "4,8",
    "stars": null,
    "number_of_reviews": null,
    "price_level": "",
    "open_hours": "",
    "extraction_timestamp": "2025-06-07T17:29:16.817Z",
    "source_name": "google",
    "source_query": "Irrigation Equipment",
    "source_country": "PL",
    "country": "Poland",
    "state": "Greater Poland Voivodeship",
    "city": "Koło"
  },
  {
    "source_id": "ChIJ5SgaeCYVG0cRt-EX6kuy0vU",
    "name": "Zakład usługowy WOD-KAN i C.O Tomasik Piotr",
    "category": "Zakład usługowy WOD-KAN i C.O Tomasik Piotr",
    "formatted_address": "5,0(16)",
    "phone_number": "+48504122913",
    "source_url": "https://www.google.com/maps/place/Zak%C5%82ad+us%C5%82ugowy+WOD-KAN+i+C.O+Tomasik+Piotr/data=!4m7!3m6!1s0x471b1526781a28e5:0xf5d2b24bea17e1b7!8m2!3d52.1963389!4d18.6440876!16s%2Fg%2F11pznzvlgs!19sChIJ5SgaeCYVG0cRt-EX6kuy0vU?authuser=0&hl=tr&rclk=1",
    "website_url": "",
    "rating_text": "5,0",
    "stars": null,
    "number_of_reviews": null,
    "price_level": "",
    "open_hours": "",
    "extraction_timestamp": "2025-06-07T17:29:16.818Z",
    "source_name": "google",
    "source_query": "Irrigation Equipment",
    "source_country": "PL",
    "country": "Poland",
    "state": "Greater Poland Voivodeship",
    "city": "Koło"
  },
  {
    "source_id": "ChIJ2_Q_yqFNXi4R2pMZG5zvgJg",
    "name": "fhu hydro-mil",
    "category": "fhu hydro-mil",
    "formatted_address": "1,0(1)",
    "phone_number": "",
    "source_url": "https://www.google.com/maps/place/fhu+hydro-mil/data=!4m7!3m6!1s0x2e5e4da1ca3ff4db:0x9880ef9c1b1993da!8m2!3d52.1983783!4d18.6357451!16s%2Fg%2F11y625zrv4!19sChIJ2_Q_yqFNXi4R2pMZG5zvgJg?authuser=0&hl=tr&rclk=1",
    "website_url": "",
    "rating_text": "1,0",
    "stars": null,
    "number_of_reviews": null,
    "price_level": "",
    "open_hours": "",
    "extraction_timestamp": "2025-06-07T17:29:16.818Z",
    "source_name": "google",
    "source_query": "Irrigation Equipment",
    "source_country": "PL",
    "country": "Poland",
    "state": "Greater Poland Voivodeship",
    "city": "Koło"
  },
  {
    "source_id": "ChIJm0Fy5-wVG0cRXnSMsvAg_JE",
    "name": "Idrante - usługi przeciwpożarowe",
    "category": "Idrante - usługi przeciwpożarowe",
    "formatted_address": "5,0(2)",
    "phone_number": "+48509365685",
    "source_url": "https://www.google.com/maps/place/Idrante+-+us%C5%82ugi+przeciwpo%C5%BCarowe/data=!4m7!3m6!1s0x471b15ece772419b:0x91fc20f0b28c745e!8m2!3d52.2001098!4d18.645056!16s%2Fg%2F11ybw5rrt3!19sChIJm0Fy5-wVG0cRXnSMsvAg_JE?authuser=0&hl=tr&rclk=1",
    "website_url": "",
    "rating_text": "5,0",
    "stars": null,
    "number_of_reviews": null,
    "price_level": "",
    "open_hours": "",
    "extraction_timestamp": "2025-06-07T17:29:16.819Z",
    "source_name": "google",
    "source_query": "Irrigation Equipment",
    "source_country": "PL",
    "country": "Poland",
    "state": "Greater Poland Voivodeship",
    "city": "Koło"
  },
  {
    "source_id": "ChIJhzIPFJMVG0cRjsaKWiDhhTw",
    "name": "Action Koło",
    "category": "Action Koło",
    "formatted_address": "4,5(325)",
    "phone_number": "+48326305898",
    "source_url": "https://www.google.com/maps/place/Action+Ko%C5%82o/data=!4m7!3m6!1s0x471b1593140f3287:0x3c85e1205a8ac68e!8m2!3d52.1989352!4d18.6366035!16s%2Fg%2F11jm9cx39d!19sChIJhzIPFJMVG0cRjsaKWiDhhTw?authuser=0&hl=tr&rclk=1",
    "website_url": "",
    "rating_text": "4,5",
    "stars": null,
    "number_of_reviews": null,
    "price_level": "",
    "open_hours": "",
    "extraction_timestamp": "2025-06-07T17:29:16.820Z",
    "source_name": "google",
    "source_query": "Irrigation Equipment",
    "source_country": "PL",
    "country": "Poland",
    "state": "Greater Poland Voivodeship",
    "city": "Koło"
  },
  {
    "source_id": "ChIJrw4giiAVG0cR3ScoSSAROC0",
    "name": "GREEN TREE Marcin Jaskólski usługi ogrodnicze",
    "category": "GREEN TREE Marcin Jaskólski usługi ogrodnicze",
    "formatted_address": "4,7(12)",
    "phone_number": "+48693149971",
    "source_url": "https://www.google.com/maps/place/GREEN+TREE+Marcin+Jask%C3%B3lski+us%C5%82ugi+ogrodnicze/data=!4m7!3m6!1s0x471b15208a200eaf:0x2d381120492827dd!8m2!3d52.2032166!4d18.6420692!16s%2Fg%2F11h_9j1gm4!19sChIJrw4giiAVG0cR3ScoSSAROC0?authuser=0&hl=tr&rclk=1",
    "website_url": "",
    "rating_text": "4,7",
    "stars": null,
    "number_of_reviews": null,
    "price_level": "",
    "open_hours": "",
    "extraction_timestamp": "2025-06-07T17:29:16.821Z",
    "source_name": "google",
    "source_query": "Irrigation Equipment",
    "source_country": "PL",
    "country": "Poland",
    "state": "Greater Poland Voivodeship",
    "city": "Koło"
  },
  {
    "source_id": "ChIJ33A2_5kVG0cRRw68kKCe8w4",
    "name": "Shop Marcin Kotleszka",
    "category": "Shop Marcin Kotleszka",
    "formatted_address": "4,5(122)",
    "phone_number": "+48606911968",
    "source_url": "https://www.google.com/maps/place/Shop+Marcin+Kotleszka/data=!4m7!3m6!1s0x471b1599ff3670df:0xef39ea090bc0e47!8m2!3d52.1970678!4d18.6491546!16s%2Fg%2F1w_vm089!19sChIJ33A2_5kVG0cRRw68kKCe8w4?authuser=0&hl=tr&rclk=1",
    "website_url": "",
    "rating_text": "4,5",
    "stars": null,
    "number_of_reviews": null,
    "price_level": "",
    "open_hours": "",
    "extraction_timestamp": "2025-06-07T17:29:16.821Z",
    "source_name": "google",
    "source_query": "Irrigation Equipment",
    "source_country": "PL",
    "country": "Poland",
    "state": "Greater Poland Voivodeship",
    "city": "Koło"
  },
  {
    "source_id": "ChIJR_qmm-AVG0cRPa5yMa8Ks24",
    "name": "Małgosia. FHU. Sklep spożywczo - przemysłowy. Dopierała M.",
    "category": "Małgosia. FHU. Sklep spożywczo - przemysłowy. Dopierała M.",
    "formatted_address": "4,7(49)",
    "phone_number": "+48632621545",
    "source_url": "https://www.google.com/maps/place/Ma%C5%82gosia.+FHU.+Sklep+spo%C5%BCywczo+-+przemys%C5%82owy.+Dopiera%C5%82a+M./data=!4m7!3m6!1s0x471b15e09ba6fa47:0x6eb30aaf3172ae3d!8m2!3d52.169325!4d18.637274!16s%2Fg%2F1trqfzdm!19sChIJR_qmm-AVG0cRPa5yMa8Ks24?authuser=0&hl=tr&rclk=1",
    "website_url": "",
    "rating_text": "4,7",
    "stars": null,
    "number_of_reviews": null,
    "price_level": "",
    "open_hours": "",
    "extraction_timestamp": "2025-06-07T17:29:16.822Z",
    "source_name": "google",
    "source_query": "Irrigation Equipment",
    "source_country": "PL",
    "country": "Poland",
    "state": "Greater Poland Voivodeship",
    "city": "Koło"
  },
  {
    "source_id": "ChIJBbsD7YQVG0cRBrZcS-ViJy0",
    "name": "Bila. Sklep firmowy Okręgowej Spółdzielni Mleczarskiej",
    "category": "Bila. Sklep firmowy Okręgowej Spółdzielni Mleczarskiej",
    "formatted_address": "4,6(53)",
    "phone_number": "+48632721232",
    "source_url": "https://www.google.com/maps/place/Bila.+Sklep+firmowy+Okr%C4%99gowej+Sp%C3%B3%C5%82dzielni+Mleczarskiej/data=!4m7!3m6!1s0x471b1584ed03bb05:0x2d2762e54b5cb606!8m2!3d52.2023651!4d18.6412619!16s%2Fg%2F1tdqygsl!19sChIJBbsD7YQVG0cRBrZcS-ViJy0?authuser=0&hl=tr&rclk=1",
    "website_url": "",
    "rating_text": "4,6",
    "stars": null,
    "number_of_reviews": null,
    "price_level": "",
    "open_hours": "",
    "extraction_timestamp": "2025-06-07T17:29:16.823Z",
    "source_name": "google",
    "source_query": "Irrigation Equipment",
    "source_country": "PL",
    "country": "Poland",
    "state": "Greater Poland Voivodeship",
    "city": "Koło"
  },
  {
    "source_id": "ChIJfR33JJ0VG0cR2rWwru_4PYY",
    "name": "General store",
    "category": "General store",
    "formatted_address": "4,4(25)",
    "phone_number": "",
    "source_url": "https://www.google.com/maps/place/General+store/data=!4m7!3m6!1s0x471b159d24f71d7d:0x863df8efaeb0b5da!8m2!3d52.2057279!4d18.6479723!16s%2Fg%2F11cltb1fk7!19sChIJfR33JJ0VG0cR2rWwru_4PYY?authuser=0&hl=tr&rclk=1",
    "website_url": "",
    "rating_text": "4,4",
    "stars": null,
    "number_of_reviews": null,
    "price_level": "",
    "open_hours": "",
    "extraction_timestamp": "2025-06-07T17:29:16.823Z",
    "source_name": "google",
    "source_query": "Irrigation Equipment",
    "source_country": "PL",
    "country": "Poland",
    "state": "Greater Poland Voivodeship",
    "city": "Koło"
  },
  {
    "source_id": "ChIJebt-85kVAEcRc63ToKSKAco",
    "name": "Drinks",
    "category": "Drinks",
    "formatted_address": "3,4(10)",
    "phone_number": "+48575954529",
    "source_url": "https://www.google.com/maps/place/Drinks/data=!4m7!3m6!1s0x47001599f37ebb79:0xca018aa4a0d3ad73!8m2!3d52.1997741!4d18.6422103!16s%2Fg%2F11h4nbr7mn!19sChIJebt-85kVAEcRc63ToKSKAco?authuser=0&hl=tr&rclk=1",
    "website_url": "",
    "rating_text": "3,4",
    "stars": null,
    "number_of_reviews": null,
    "price_level": "",
    "open_hours": "",
    "extraction_timestamp": "2025-06-07T17:29:16.824Z",
    "source_name": "google",
    "source_query": "Irrigation Equipment",
    "source_country": "PL",
    "country": "Poland",
    "state": "Greater Poland Voivodeship",
    "city": "Koło"
  },
  {
    "source_id": "ChIJzWJcALc_G0cRi3ffnNrTLKg",
    "name": "Hemar",
    "category": "Hemar",
    "formatted_address": "4,4(10)",
    "phone_number": "+48695363306",
    "source_url": "https://www.google.com/maps/place/Hemar/data=!4m7!3m6!1s0x471b3fb7005c62cd:0xa82cd3da9cdf778b!8m2!3d52.2216939!4d18.6056793!16s%2Fg%2F1tmkjql3!19sChIJzWJcALc_G0cRi3ffnNrTLKg?authuser=0&hl=tr&rclk=1",
    "website_url": "",
    "rating_text": "4,4",
    "stars": null,
    "number_of_reviews": null,
    "price_level": "",
    "open_hours": "",
    "extraction_timestamp": "2025-06-07T17:29:16.825Z",
    "source_name": "google",
    "source_query": "Irrigation Equipment",
    "source_country": "PL",
    "country": "Poland",
    "state": "Greater Poland Voivodeship",
    "city": "Koło"
  },
  {
    "source_id": "ChIJESo_Ly8VG0cRMsKwBHHsuD8",
    "name": "PHU Carmen Łukasz Kubiak",
    "category": "PHU Carmen Łukasz Kubiak",
    "formatted_address": "4,1(38)",
    "phone_number": "+48576727000",
    "source_url": "https://www.google.com/maps/place/PHU+Carmen+%C5%81ukasz+Kubiak/data=!4m7!3m6!1s0x471b152f2f3f2a11:0x3fb8ec7104b0c232!8m2!3d52.1965019!4d18.6429618!16s%2Fg%2F11rscn3snm!19sChIJESo_Ly8VG0cRMsKwBHHsuD8?authuser=0&hl=tr&rclk=1",
    "website_url": "",
    "rating_text": "4,1",
    "stars": null,
    "number_of_reviews": null,
    "price_level": "",
    "open_hours": "",
    "extraction_timestamp": "2025-06-07T17:29:16.825Z",
    "source_name": "google",
    "source_query": "Irrigation Equipment",
    "source_country": "PL",
    "country": "Poland",
    "state": "Greater Poland Voivodeship",
    "city": "Koło"
  },
  {
    "source_id": "ChIJtXlixfIVG0cRFwhvepgg9ek",
    "name": "Galeria Alkoholi Carmen",
    "category": "Galeria Alkoholi Carmen",
    "formatted_address": "4,3(186)",
    "phone_number": "+48884883289",
    "source_url": "https://www.google.com/maps/place/Galeria+Alkoholi+Carmen/data=!4m7!3m6!1s0x471b15f2c56279b5:0xe9f520987a6f0817!8m2!3d52.1880391!4d18.6312252!16s%2Fg%2F11fx7p4x1r!19sChIJtXlixfIVG0cRFwhvepgg9ek?authuser=0&hl=tr&rclk=1",
    "website_url": "",
    "rating_text": "4,3",
    "stars": null,
    "number_of_reviews": null,
    "price_level": "",
    "open_hours": "",
    "extraction_timestamp": "2025-06-07T17:29:16.826Z",
    "source_name": "google",
    "source_query": "Irrigation Equipment",
    "source_country": "PL",
    "country": "Poland",
    "state": "Greater Poland Voivodeship",
    "city": "Koło"
  },
  {
    "source_id": "ChIJNzv190EVG0cRleQ8M5GR_Mw",
    "name": "Velo A Bike - SKLEP i SERWIS ROWEROWY | BIKE FITTING | KOŁO",
    "category": "Velo A Bike - SKLEP i SERWIS ROWEROWY | BIKE FITTING | KOŁO",
    "formatted_address": "4,9(55)",
    "phone_number": "+48737886977",
    "source_url": "https://www.google.com/maps/place/Velo+A+Bike+-+SKLEP+i+SERWIS+ROWEROWY+%7C+BIKE+FITTING+%7C+KO%C5%81O/data=!4m7!3m6!1s0x471b1541f7f53b37:0xccfc9191333ce495!8m2!3d52.1966591!4d18.6463031!16s%2Fg%2F11t0m6r77r!19sChIJNzv190EVG0cRleQ8M5GR_Mw?authuser=0&hl=tr&rclk=1",
    "website_url": "",
    "rating_text": "4,9",
    "stars": null,
    "number_of_reviews": null,
    "price_level": "",
    "open_hours": "",
    "extraction_timestamp": "2025-06-07T17:29:16.827Z",
    "source_name": "google",
    "source_query": "Irrigation Equipment",
    "source_country": "PL",
    "country": "Poland",
    "state": "Greater Poland Voivodeship",
    "city": "Koło"
  },
  {
    "source_id": "ChIJqdLLBUuAHEcR9vFJaDaJpMI",
    "name": "Plaża",
    "category": "Plaża",
    "formatted_address": "4,6(127)",
    "phone_number": "",
    "source_url": "https://www.google.com/maps/place/Pla%C5%BCa/data=!4m7!3m6!1s0x471c804b05cbd2a9:0xc2a489366849f1f6!8m2!3d52.5174854!4d19.3291123!16s%2Fg%2F11f4jy0whr!19sChIJqdLLBUuAHEcR9vFJaDaJpMI?authuser=0&hl=tr&rclk=1",
    "website_url": "",
    "rating_text": "4,6",
    "stars": null,
    "number_of_reviews": null,
    "price_level": "",
    "open_hours": "",
    "extraction_timestamp": "2025-06-07T17:29:16.827Z",
    "source_name": "google",
    "source_query": "Irrigation Equipment",
    "source_country": "PL",
    "country": "Poland",
    "state": "Greater Poland Voivodeship",
    "city": "Koło"
  },
  {
    "source_id": "ChIJdb1jAq9FG0cRq36RuslXCwQ",
    "name": "Hurtownia Hydrauliczna Angelika Andrzejewska",
    "category": "Hurtownia Hydrauliczna Angelika Andrzejewska",
    "formatted_address": "",
    "phone_number": "+48727181432",
    "source_url": "https://www.google.com/maps/place/Hurtownia+Hydrauliczna+Angelika+Andrzejewska/data=!4m7!3m6!1s0x471b45af0263bd75:0x40b57c9ba917eab!8m2!3d52.3873292!4d18.5042911!16s%2Fg%2F11xdwz417z!19sChIJdb1jAq9FG0cRq36RuslXCwQ?authuser=0&hl=tr&rclk=1",
    "website_url": "",
    "rating_text": "",
    "stars": null,
    "number_of_reviews": null,
    "price_level": "",
    "open_hours": "",
    "extraction_timestamp": "2025-06-07T17:29:16.828Z",
    "source_name": "google",
    "source_query": "Irrigation Equipment",
    "source_country": "PL",
    "country": "Poland",
    "state": "Greater Poland Voivodeship",
    "city": "Koło"
  },
  {
    "source_id": "ChIJn-x5r7ppG0cRq7XCQw7DMvo",
    "name": "Michał Kwiatkowski Instalacje Grzewcze i Wodno-kanalizacyjne hydraulik Izbica Kujawska",
    "category": "Michał Kwiatkowski Instalacje Grzewcze i Wodno-kanalizacyjne hydraulik Izbica Kujawska",
    "formatted_address": "5,0(25)",
    "phone_number": "+48573453288",
    "source_url": "https://www.google.com/maps/place/Micha%C5%82+Kwiatkowski+Instalacje+Grzewcze+i+Wodno-kanalizacyjne+hydraulik+Izbica+Kujawska/data=!4m7!3m6!1s0x471b69baaf79ec9f:0xfa32c30e43c2b5ab!8m2!3d52.3827203!4d18.7764671!16s%2Fg%2F11tmf_ly74!19sChIJn-x5r7ppG0cRq7XCQw7DMvo?authuser=0&hl=tr&rclk=1",
    "website_url": "",
    "rating_text": "5,0",
    "stars": null,
    "number_of_reviews": null,
    "price_level": "",
    "open_hours": "",
    "extraction_timestamp": "2025-06-07T17:29:16.829Z",
    "source_name": "google",
    "source_query": "Irrigation Equipment",
    "source_country": "PL",
    "country": "Poland",
    "state": "Greater Poland Voivodeship",
    "city": "Koło"
  },
  {
    "source_id": "ChIJ8cU-lNd3G0cRKQSK65gFW7o",
    "name": "Serwis Domowy Inżynier Piotr Główczyński",
    "category": "Serwis Domowy Inżynier Piotr Główczyński",
    "formatted_address": "4,4(16)",
    "phone_number": "+48669103234",
    "source_url": "https://www.google.com/maps/place/Serwis+Domowy+In%C5%BCynier+Piotr+G%C5%82%C3%B3wczy%C5%84ski/data=!4m7!3m6!1s0x471b77d7943ec5f1:0xba5b0598eb8a0429!8m2!3d52.2979715!4d19.2255653!16s%2Fg%2F11_szy5fs!19sChIJ8cU-lNd3G0cRKQSK65gFW7o?authuser=0&hl=tr&rclk=1",
    "website_url": "",
    "rating_text": "4,4",
    "stars": null,
    "number_of_reviews": null,
    "price_level": "",
    "open_hours": "",
    "extraction_timestamp": "2025-06-07T17:29:16.829Z",
    "source_name": "google",
    "source_query": "Irrigation Equipment",
    "source_country": "PL",
    "country": "Poland",
    "state": "Greater Poland Voivodeship",
    "city": "Koło"
  },
  {
    "source_id": "ChIJO6IE14h2HEcRqwVewm2QatA",
    "name": "Józef Milewski Milex",
    "category": "Józef Milewski Milex",
    "formatted_address": "4,0(1)",
    "phone_number": "",
    "source_url": "https://www.google.com/maps/place/J%C3%B3zef+Milewski+Milex/data=!4m7!3m6!1s0x471c7688d704a23b:0xd06a906dc25e05ab!8m2!3d52.4693309!4d19.7492681!16s%2Fg%2F11h0vqcf69!19sChIJO6IE14h2HEcRqwVewm2QatA?authuser=0&hl=tr&rclk=1",
    "website_url": "",
    "rating_text": "4,0",
    "stars": null,
    "number_of_reviews": null,
    "price_level": "",
    "open_hours": "",
    "extraction_timestamp": "2025-06-07T17:29:16.830Z",
    "source_name": "google",
    "source_query": "Irrigation Equipment",
    "source_country": "PL",
    "country": "Poland",
    "state": "Greater Poland Voivodeship",
    "city": "Koło"
  },
  {
    "source_id": "ChIJKzT5FcVJG0cRaOEftRx1XrI",
    "name": "Plaża Licheń",
    "category": "Plaża Licheń",
    "formatted_address": "4,4(440)",
    "phone_number": "",
    "source_url": "https://www.google.com/maps/place/Pla%C5%BCa+Liche%C5%84/data=!4m7!3m6!1s0x471b49c515f9342b:0xb25e751cb51fe168!8m2!3d52.3126814!4d18.3495889!16s%2Fg%2F11fxy0hv3h!19sChIJKzT5FcVJG0cRaOEftRx1XrI?authuser=0&hl=tr&rclk=1",
    "website_url": "",
    "rating_text": "4,4",
    "stars": null,
    "number_of_reviews": null,
    "price_level": "",
    "open_hours": "",
    "extraction_timestamp": "2025-06-07T17:29:16.830Z",
    "source_name": "google",
    "source_query": "Irrigation Equipment",
    "source_country": "PL",
    "country": "Poland",
    "state": "Greater Poland Voivodeship",
    "city": "Koło"
  },
  {
    "source_id": "ChIJu09NS-GbG0cRKh3cxdRe8SE",
    "name": "GALA BUDOWLANA",
    "category": "GALA BUDOWLANA",
    "formatted_address": "4,5(143)",
    "phone_number": "+48243559010",
    "source_url": "https://www.google.com/maps/place/GALA+BUDOWLANA/data=!4m7!3m6!1s0x471b9be14b4d4fbb:0x21f15ed4c5dc1d2a!8m2!3d52.2268658!4d19.3949553!16s%2Fg%2F1w04hvw4!19sChIJu09NS-GbG0cRKh3cxdRe8SE?authuser=0&hl=tr&rclk=1",
    "website_url": "",
    "rating_text": "4,5",
    "stars": null,
    "number_of_reviews": null,
    "price_level": "",
    "open_hours": "",
    "extraction_timestamp": "2025-06-07T17:29:16.831Z",
    "source_name": "google",
    "source_query": "Irrigation Equipment",
    "source_country": "PL",
    "country": "Poland",
    "state": "Greater Poland Voivodeship",
    "city": "Koło"
  },
  {
    "source_id": "ChIJNQNePbhLG0cRyM7FbcUhU4Y",
    "name": "P.P.H.U. \"In Joseph\" Macyszyn Józef",
    "category": "P.P.H.U. \"In Joseph\" Macyszyn Józef",
    "formatted_address": "4,6(63)",
    "phone_number": "+48504934119",
    "source_url": "https://www.google.com/maps/place/P.P.H.U.+%22In+Joseph%22+Macyszyn+J%C3%B3zef/data=!4m7!3m6!1s0x471b4bb83d5e0335:0x865321c56dc5cec8!8m2!3d52.3636741!4d18.3009605!16s%2Fg%2F11xl66qx0!19sChIJNQNePbhLG0cRyM7FbcUhU4Y?authuser=0&hl=tr&rclk=1",
    "website_url": "",
    "rating_text": "4,6",
    "stars": null,
    "number_of_reviews": null,
    "price_level": "",
    "open_hours": "",
    "extraction_timestamp": "2025-06-07T17:29:16.832Z",
    "source_name": "google",
    "source_query": "Irrigation Equipment",
    "source_country": "PL",
    "country": "Poland",
    "state": "Greater Poland Voivodeship",
    "city": "Koło"
  }
]
