[
  {
    "source_id": "ChIJgZOjMVzdGkcRuKKl9UWRmGw",
    "name": "Sklep z artykułami hydraulicznymi Hydro-Term",
    "category": "Sklep z artykułami hydraulicznymi Hydro-Term",
    "formatted_address": "4,9(16)",
    "phone_number": "+48509517580",
    "source_url": "https://www.google.com/maps/place/Sklep+z+artyku%C5%82ami+hydraulicznymi+Hydro-Term/data=!4m7!3m6!1s0x471add5c31a39381:0x6c989145f5a5a2b8!8m2!3d51.8004912!4d18.3339497!16s%2Fg%2F1tlgwq5_!19sChIJgZOjMVzdGkcRuKKl9UWRmGw?authuser=0&hl=tr&rclk=1",
    "website_url": "",
    "rating_text": "4,9",
    "stars": null,
    "number_of_reviews": null,
    "price_level": "",
    "open_hours": "",
    "extraction_timestamp": "2025-06-07T17:21:45.296Z",
    "source_name": "google",
    "source_query": "Irrigation Equipment",
    "source_country": "PL",
    "country": "Poland",
    "state": "Greater Poland Voivodeship",
    "city": "Koźminek"
  },
  {
    "source_id": "ChIJFyo6ulzdGkcRT-3CRqMeQXk",
    "name": "P-KA Solar",
    "category": "P-KA Solar",
    "formatted_address": "5,0(23)",
    "phone_number": "+48666152605",
    "source_url": "https://www.google.com/maps/place/P-KA+Solar/data=!4m7!3m6!1s0x471add5cba3a2a17:0x79411ea346c2ed4f!8m2!3d51.8013427!4d18.3260952!16s%2Fg%2F11mwzhksgb!19sChIJFyo6ulzdGkcRT-3CRqMeQXk?authuser=0&hl=tr&rclk=1",
    "website_url": "",
    "rating_text": "5,0",
    "stars": null,
    "number_of_reviews": null,
    "price_level": "",
    "open_hours": "",
    "extraction_timestamp": "2025-06-07T17:21:45.296Z",
    "source_name": "google",
    "source_query": "Irrigation Equipment",
    "source_country": "PL",
    "country": "Poland",
    "state": "Greater Poland Voivodeship",
    "city": "Koźminek"
  },
  {
    "source_id": "ChIJqXQC41vdGkcRFFhsDCbtbiI",
    "name": "Hurtownia elektryczna Instal Team",
    "category": "Hurtownia elektryczna Instal Team",
    "formatted_address": "5,0(8)",
    "phone_number": "+48572245320",
    "source_url": "https://www.google.com/maps/place/Hurtownia+elektryczna+Instal+Team/data=!4m7!3m6!1s0x471add5be30274a9:0x226eed260c6c5814!8m2!3d51.8019966!4d18.3252586!16s%2Fg%2F11fsmcw8_k!19sChIJqXQC41vdGkcRFFhsDCbtbiI?authuser=0&hl=tr&rclk=1",
    "website_url": "",
    "rating_text": "5,0",
    "stars": null,
    "number_of_reviews": null,
    "price_level": "",
    "open_hours": "",
    "extraction_timestamp": "2025-06-07T17:21:45.296Z",
    "source_name": "google",
    "source_query": "Irrigation Equipment",
    "source_country": "PL",
    "country": "Poland",
    "state": "Greater Poland Voivodeship",
    "city": "Koźminek"
  },
  {
    "source_id": "ChIJ6QuxvWndGkcRcXOdi656fpM",
    "name": "Targowisko",
    "category": "Targowisko",
    "formatted_address": "4,3(107)",
    "phone_number": "",
    "source_url": "https://www.google.com/maps/place/Targowisko/data=!4m7!3m6!1s0x471add69bdb10be9:0x937e7aae8b9d7371!8m2!3d51.8011829!4d18.3285213!16s%2Fg%2F12hlzs_tb!19sChIJ6QuxvWndGkcRcXOdi656fpM?authuser=0&hl=tr&rclk=1",
    "website_url": "",
    "rating_text": "4,3",
    "stars": null,
    "number_of_reviews": null,
    "price_level": "",
    "open_hours": "",
    "extraction_timestamp": "2025-06-07T17:21:45.297Z",
    "source_name": "google",
    "source_query": "Irrigation Equipment",
    "source_country": "PL",
    "country": "Poland",
    "state": "Greater Poland Voivodeship",
    "city": "Koźminek"
  },
  {
    "source_id": "ChIJB6y_v5J2HEcRlDfYx3xmc9M",
    "name": "Milex irrigation systems",
    "category": "Milex irrigation systems",
    "formatted_address": "4,6(37)",
    "phone_number": "+48242775222",
    "source_url": "https://www.google.com/maps/place/Milex+irrigation+systems/data=!4m7!3m6!1s0x471c7692bfbfac07:0xd373667cc7d83794!8m2!3d52.4690634!4d19.7520904!16s%2Fg%2F1w2yy67r!19sChIJB6y_v5J2HEcRlDfYx3xmc9M?authuser=0&hl=tr&rclk=1",
    "website_url": "",
    "rating_text": "4,6",
    "stars": null,
    "number_of_reviews": null,
    "price_level": "",
    "open_hours": "",
    "extraction_timestamp": "2025-06-07T17:21:45.297Z",
    "source_name": "google",
    "source_query": "Irrigation Equipment",
    "source_country": "PL",
    "country": "Poland",
    "state": "Greater Poland Voivodeship",
    "city": "Koźminek"
  },
  {
    "source_id": "ChIJI_ew7mH4FkcRYXslSWRwRD8",
    "name": "Lewiatan",
    "category": "Lewiatan",
    "formatted_address": "4,0(220)",
    "phone_number": "+48798983340",
    "source_url": "https://www.google.com/maps/place/Lewiatan/data=!4m7!3m6!1s0x4716f861eeb0f723:0x3f44706449257b61!8m2!3d51.7951894!4d18.3298748!16s%2Fg%2F11csq5p3wc!19sChIJI_ew7mH4FkcRYXslSWRwRD8?authuser=0&hl=tr&rclk=1",
    "website_url": "",
    "rating_text": "4,0",
    "stars": null,
    "number_of_reviews": null,
    "price_level": "",
    "open_hours": "",
    "extraction_timestamp": "2025-06-07T17:21:45.297Z",
    "source_name": "google",
    "source_query": "Irrigation Equipment",
    "source_country": "PL",
    "country": "Poland",
    "state": "Greater Poland Voivodeship",
    "city": "Koźminek"
  },
  {
    "source_id": "ChIJuy0PTGjdGkcR7K27K8LlDrw",
    "name": "Dino",
    "category": "Dino",
    "formatted_address": "4,3(176)",
    "phone_number": "",
    "source_url": "https://www.google.com/maps/place/Dino/data=!4m7!3m6!1s0x471add684c0f2dbb:0xbc0ee5c22bbbadec!8m2!3d51.8004931!4d18.3307087!16s%2Fg%2F11dymr7wh2!19sChIJuy0PTGjdGkcR7K27K8LlDrw?authuser=0&hl=tr&rclk=1",
    "website_url": "",
    "rating_text": "4,3",
    "stars": null,
    "number_of_reviews": null,
    "price_level": "",
    "open_hours": "",
    "extraction_timestamp": "2025-06-07T17:21:45.298Z",
    "source_name": "google",
    "source_query": "Irrigation Equipment",
    "source_country": "PL",
    "country": "Poland",
    "state": "Greater Poland Voivodeship",
    "city": "Koźminek"
  },
  {
    "source_id": "ChIJwU2zL4rdGkcROES8CLi73E8",
    "name": "Biedronka",
    "category": "Biedronka",
    "formatted_address": "4,2(142)",
    "phone_number": "+48800080010",
    "source_url": "https://www.google.com/maps/place/Biedronka/data=!4m7!3m6!1s0x471add8a2fb34dc1:0x4fdcbbb808bc4438!8m2!3d51.7923782!4d18.3333781!16s%2Fg%2F11sdskhb9d!19sChIJwU2zL4rdGkcROES8CLi73E8?authuser=0&hl=tr&rclk=1",
    "website_url": "",
    "rating_text": "4,2",
    "stars": null,
    "number_of_reviews": null,
    "price_level": "",
    "open_hours": "",
    "extraction_timestamp": "2025-06-07T17:21:45.298Z",
    "source_name": "google",
    "source_query": "Irrigation Equipment",
    "source_country": "PL",
    "country": "Poland",
    "state": "Greater Poland Voivodeship",
    "city": "Koźminek"
  }
]
