[
  {
    "source_id": "ChIJ89EhSVM5BUcRispTC97akZY",
    "name": "\"SŁAWA\" Zaopatrzenie Ogrodniczo - Rolne Środki Ochrony Roślin Materiał Siewny Sławomira Nabzdyk",
    "category": "\"SŁAWA\" Zaopatrzenie Ogrodniczo - Rolne Środki Ochrony Roślin Materiał Siewny Sławomira Nabzdyk",
    "formatted_address": "4,8(57)",
    "phone_number": "",
    "source_url": "https://www.google.com/maps/place/%22S%C5%81AWA%22+Zaopatrzenie+Ogrodniczo+-+Rolne+%C5%9Arodki+Ochrony+Ro%C5%9Blin+Materia%C5%82+Siewny+S%C5%82awomira+Nabzdyk/data=!4m7!3m6!1s0x470539534921d1f3:0x9691dade0b53ca8a!8m2!3d51.82151!4d17.4490518!16s%2Fg%2F1tpf5vhw!19sChIJ89EhSVM5BUcRispTC97akZY?authuser=0&hl=tr&rclk=1",
    "website_url": "",
    "rating_text": "4,8",
    "stars": null,
    "number_of_reviews": null,
    "price_level": "",
    "open_hours": "",
    "extraction_timestamp": "2025-06-07T18:01:47.986Z",
    "source_name": "google",
    "source_query": "Irrigation Equipment",
    "source_country": "PL",
    "country": "Poland",
    "state": "Greater Poland Voivodeship",
    "city": "Koźmin Wielkopolski"
  },
  {
    "source_id": "ChIJn2G14v87BUcRCRLyGzfET44",
    "name": "San Metrol. Młotowski J.",
    "category": "San Metrol. Młotowski J.",
    "formatted_address": "4,8(6)",
    "phone_number": "+48627216173",
    "source_url": "https://www.google.com/maps/place/San+Metrol.+M%C5%82otowski+J./data=!4m7!3m6!1s0x47053bffe2b5619f:0x8e4fc4371bf21209!8m2!3d51.8276672!4d17.4534682!16s%2Fg%2F1tl_kdv2!19sChIJn2G14v87BUcRCRLyGzfET44?authuser=0&hl=tr&rclk=1",
    "website_url": "",
    "rating_text": "4,8",
    "stars": null,
    "number_of_reviews": null,
    "price_level": "",
    "open_hours": "",
    "extraction_timestamp": "2025-06-07T18:01:47.987Z",
    "source_name": "google",
    "source_query": "Irrigation Equipment",
    "source_country": "PL",
    "country": "Poland",
    "state": "Greater Poland Voivodeship",
    "city": "Koźmin Wielkopolski"
  },
  {
    "source_id": "ChIJGWA9pVU5BUcRBeW5VAaGACo",
    "name": "Wyduba Z. Instalacje wodne",
    "category": "Wyduba Z. Instalacje wodne",
    "formatted_address": "4,8(4)",
    "phone_number": "+48627219270",
    "source_url": "https://www.google.com/maps/place/Wyduba+Z.+Instalacje+wodne/data=!4m7!3m6!1s0x47053955a53d6019:0x2a00860654b9e505!8m2!3d51.82531!4d17.4555151!16s%2Fg%2F1wg5wq93!19sChIJGWA9pVU5BUcRBeW5VAaGACo?authuser=0&hl=tr&rclk=1",
    "website_url": "",
    "rating_text": "4,8",
    "stars": null,
    "number_of_reviews": null,
    "price_level": "",
    "open_hours": "",
    "extraction_timestamp": "2025-06-07T18:01:47.988Z",
    "source_name": "google",
    "source_query": "Irrigation Equipment",
    "source_country": "PL",
    "country": "Poland",
    "state": "Greater Poland Voivodeship",
    "city": "Koźmin Wielkopolski"
  },
  {
    "source_id": "ChIJTZe6d-o9BUcRehJpwNIAGig",
    "name": "Polwire Waknor Sp. z o.o. sp.k.",
    "category": "Polwire Waknor Sp. z o.o. sp.k.",
    "formatted_address": "5,0(4)",
    "phone_number": "+48627216905",
    "source_url": "https://www.google.com/maps/place/Polwire+Waknor+Sp.+z+o.o.+sp.k./data=!4m7!3m6!1s0x47053dea77ba974d:0x281a00d2c069127a!8m2!3d51.8327789!4d17.4430811!16s%2Fg%2F1hc7xqv26!19sChIJTZe6d-o9BUcRehJpwNIAGig?authuser=0&hl=tr&rclk=1",
    "website_url": "",
    "rating_text": "5,0",
    "stars": null,
    "number_of_reviews": null,
    "price_level": "",
    "open_hours": "",
    "extraction_timestamp": "2025-06-07T18:01:47.989Z",
    "source_name": "google",
    "source_query": "Irrigation Equipment",
    "source_country": "PL",
    "country": "Poland",
    "state": "Greater Poland Voivodeship",
    "city": "Koźmin Wielkopolski"
  },
  {
    "source_id": "ChIJdcGECh08BUcRSqobcOplR6Q",
    "name": "Mech-Rol-Plast sp. z o.o.",
    "category": "Mech-Rol-Plast sp. z o.o.",
    "formatted_address": "4,4(20)",
    "phone_number": "+48627216023",
    "source_url": "https://www.google.com/maps/place/Mech-Rol-Plast+sp.+z+o.o./data=!4m7!3m6!1s0x47053c1d0a84c175:0xa44765ea701baa4a!8m2!3d51.831939!4d17.434573!16s%2Fg%2F1tznl1m1!19sChIJdcGECh08BUcRSqobcOplR6Q?authuser=0&hl=tr&rclk=1",
    "website_url": "",
    "rating_text": "4,4",
    "stars": null,
    "number_of_reviews": null,
    "price_level": "",
    "open_hours": "",
    "extraction_timestamp": "2025-06-07T18:01:47.990Z",
    "source_name": "google",
    "source_query": "Irrigation Equipment",
    "source_country": "PL",
    "country": "Poland",
    "state": "Greater Poland Voivodeship",
    "city": "Koźmin Wielkopolski"
  },
  {
    "source_id": "ChIJN4n-twM8BUcRvqK4PV2UsZo",
    "name": "Kabiny ciągnikowe - Jarosław Rejek",
    "category": "Kabiny ciągnikowe - Jarosław Rejek",
    "formatted_address": "3,8(12)",
    "phone_number": "+48606927223",
    "source_url": "https://www.google.com/maps/place/Kabiny+ci%C4%85gnikowe+-+Jaros%C5%82aw+Rejek/data=!4m7!3m6!1s0x47053c03b7fe8937:0x9ab1945d3db8a2be!8m2!3d51.83226!4d17.4448749!16s%2Fg%2F1ptxqnnb4!19sChIJN4n-twM8BUcRvqK4PV2UsZo?authuser=0&hl=tr&rclk=1",
    "website_url": "",
    "rating_text": "3,8",
    "stars": null,
    "number_of_reviews": null,
    "price_level": "",
    "open_hours": "",
    "extraction_timestamp": "2025-06-07T18:01:47.991Z",
    "source_name": "google",
    "source_query": "Irrigation Equipment",
    "source_country": "PL",
    "country": "Poland",
    "state": "Greater Poland Voivodeship",
    "city": "Koźmin Wielkopolski"
  },
  {
    "source_id": "ChIJc5RmigI8BUcROS3Gh0l_0N8",
    "name": "GAWPRO",
    "category": "GAWPRO",
    "formatted_address": "5,0(3)",
    "phone_number": "+48627208016",
    "source_url": "https://www.google.com/maps/place/GAWPRO/data=!4m7!3m6!1s0x47053c028a669473:0xdfd07f4987c62d39!8m2!3d51.8326089!4d17.4398915!16s%2Fg%2F11c1g62b3d!19sChIJc5RmigI8BUcROS3Gh0l_0N8?authuser=0&hl=tr&rclk=1",
    "website_url": "",
    "rating_text": "5,0",
    "stars": null,
    "number_of_reviews": null,
    "price_level": "",
    "open_hours": "",
    "extraction_timestamp": "2025-06-07T18:01:47.992Z",
    "source_name": "google",
    "source_query": "Irrigation Equipment",
    "source_country": "PL",
    "country": "Poland",
    "state": "Greater Poland Voivodeship",
    "city": "Koźmin Wielkopolski"
  },
  {
    "source_id": "ChIJbzNpBwI8BUcR-RzZpYf7yP4",
    "name": "Pro-Met sp.j.",
    "category": "Pro-Met sp.j.",
    "formatted_address": "4,6(5)",
    "phone_number": "+48627210801",
    "source_url": "https://www.google.com/maps/place/Pro-Met+sp.j./data=!4m7!3m6!1s0x47053c020769336f:0xfec8fb87a5d91cf9!8m2!3d51.8284823!4d17.442164!16s%2Fg%2F1vg4hhk2!19sChIJbzNpBwI8BUcR-RzZpYf7yP4?authuser=0&hl=tr&rclk=1",
    "website_url": "",
    "rating_text": "4,6",
    "stars": null,
    "number_of_reviews": null,
    "price_level": "",
    "open_hours": "",
    "extraction_timestamp": "2025-06-07T18:01:47.992Z",
    "source_name": "google",
    "source_query": "Irrigation Equipment",
    "source_country": "PL",
    "country": "Poland",
    "state": "Greater Poland Voivodeship",
    "city": "Koźmin Wielkopolski"
  },
  {
    "source_id": "ChIJ81yb3FM5BUcR30xDOa-_-5I",
    "name": "PREVENT-SYSTEM WYBIERAŁA TOMASZ",
    "category": "PREVENT-SYSTEM WYBIERAŁA TOMASZ",
    "formatted_address": "4,2(5)",
    "phone_number": "+48607877567",
    "source_url": "https://www.google.com/maps/place/PREVENT-SYSTEM+WYBIERA%C5%81A+TOMASZ/data=!4m7!3m6!1s0x47053953dc9b5cf3:0x92fbbfaf39434cdf!8m2!3d51.82018!4d17.4546085!16s%2Fg%2F11bz0b6x_4!19sChIJ81yb3FM5BUcR30xDOa-_-5I?authuser=0&hl=tr&rclk=1",
    "website_url": "",
    "rating_text": "4,2",
    "stars": null,
    "number_of_reviews": null,
    "price_level": "",
    "open_hours": "",
    "extraction_timestamp": "2025-06-07T18:01:47.993Z",
    "source_name": "google",
    "source_query": "Irrigation Equipment",
    "source_country": "PL",
    "country": "Poland",
    "state": "Greater Poland Voivodeship",
    "city": "Koźmin Wielkopolski"
  },
  {
    "source_id": "ChIJ01a5YaU5BUcRpSnTu0QrrZE",
    "name": "Toito Tomasz Pietrowski | Artykuły papiernicze, zabawki, Balony z helem, Punkt Orlen Paczka",
    "category": "Toito Tomasz Pietrowski | Artykuły papiernicze, zabawki, Balony z helem, Punkt Orlen Paczka",
    "formatted_address": "Toito Tomasz Pietrowski | Artykuły papiernicze, zabawki, Balony z helem, Punkt Orlen Paczka",
    "phone_number": "+48506057848",
    "source_url": "https://www.google.com/maps/place/Toito+Tomasz+Pietrowski+%7C+Artyku%C5%82y+papiernicze,+zabawki,+Balony+z+helem,+Punkt+Orlen+Paczka/data=!4m7!3m6!1s0x470539a561b956d3:0x91ad2b44bbd329a5!8m2!3d51.8253013!4d17.4545917!16s%2Fg%2F11wqyfg_y9!19sChIJ01a5YaU5BUcRpSnTu0QrrZE?authuser=0&hl=tr&rclk=1",
    "website_url": "",
    "rating_text": "4,7",
    "stars": null,
    "number_of_reviews": null,
    "price_level": "",
    "open_hours": "",
    "extraction_timestamp": "2025-06-07T18:01:47.994Z",
    "source_name": "google",
    "source_query": "Irrigation Equipment",
    "source_country": "PL",
    "country": "Poland",
    "state": "Greater Poland Voivodeship",
    "city": "Koźmin Wielkopolski"
  },
  {
    "source_id": "ChIJ2aK3QLU9BUcRPfQ0XnLmfi0",
    "name": "Furmix Waknor Sp. z o.o., sp. k.",
    "category": "Furmix Waknor Sp. z o.o., sp. k.",
    "formatted_address": "Furmix Waknor Sp. z o.o., sp. k.",
    "phone_number": "+48795507192",
    "source_url": "https://www.google.com/maps/place/Furmix+Waknor+Sp.+z+o.o.,+sp.+k./data=!4m7!3m6!1s0x47053db540b7a2d9:0x2d7ee6725e34f43d!8m2!3d51.8580066!4d17.4051115!16s%2Fg%2F11hczl3ft5!19sChIJ2aK3QLU9BUcRPfQ0XnLmfi0?authuser=0&hl=tr&rclk=1",
    "website_url": "",
    "rating_text": "3,9",
    "stars": null,
    "number_of_reviews": null,
    "price_level": "",
    "open_hours": "",
    "extraction_timestamp": "2025-06-07T18:01:47.995Z",
    "source_name": "google",
    "source_query": "Irrigation Equipment",
    "source_country": "PL",
    "country": "Poland",
    "state": "Greater Poland Voivodeship",
    "city": "Koźmin Wielkopolski"
  },
  {
    "source_id": "ChIJY9VNqlU5BUcRPNbtkkGa0zc",
    "name": "Skalar. FHU. Szaramowicz T.",
    "category": "Skalar. FHU. Szaramowicz T.",
    "formatted_address": "4,8(67)",
    "phone_number": "+48726794413",
    "source_url": "https://www.google.com/maps/place/Skalar.+FHU.+Szaramowicz+T./data=!4m7!3m6!1s0x47053955aa4dd563:0x37d39a4192edd63c!8m2!3d51.8304571!4d17.4523483!16s%2Fg%2F11b_00_byk!19sChIJY9VNqlU5BUcRPNbtkkGa0zc?authuser=0&hl=tr&rclk=1",
    "website_url": "",
    "rating_text": "4,8",
    "stars": null,
    "number_of_reviews": null,
    "price_level": "",
    "open_hours": "",
    "extraction_timestamp": "2025-06-07T18:01:47.996Z",
    "source_name": "google",
    "source_query": "Irrigation Equipment",
    "source_country": "PL",
    "country": "Poland",
    "state": "Greater Poland Voivodeship",
    "city": "Koźmin Wielkopolski"
  },
  {
    "source_id": "ChIJ85CVuf87BUcRGN3Ieysn6FA",
    "name": "Nad Stawem s.c. Zespół lekarzy. Stawowa-Maleszka E., Maleszka J.",
    "category": "Nad Stawem s.c. Zespół lekarzy. Stawowa-Maleszka E., Maleszka J.",
    "formatted_address": "Nad Stawem s.c. Zespół lekarzy. Stawowa-Maleszka E., Maleszka J.",
    "phone_number": "+48602179275",
    "source_url": "https://www.google.com/maps/place/Nad+Stawem+s.c.+Zesp%C3%B3%C5%82+lekarzy.+Stawowa-Maleszka+E.,+Maleszka+J./data=!4m7!3m6!1s0x47053bffb99590f3:0x50e8272b7bc8dd18!8m2!3d51.830513!4d17.4528827!16s%2Fg%2F1tnhx0sk!19sChIJ85CVuf87BUcRGN3Ieysn6FA?authuser=0&hl=tr&rclk=1",
    "website_url": "",
    "rating_text": "4,2",
    "stars": null,
    "number_of_reviews": null,
    "price_level": "",
    "open_hours": "",
    "extraction_timestamp": "2025-06-07T18:01:47.997Z",
    "source_name": "google",
    "source_query": "Irrigation Equipment",
    "source_country": "PL",
    "country": "Poland",
    "state": "Greater Poland Voivodeship",
    "city": "Koźmin Wielkopolski"
  },
  {
    "source_id": "ChIJn9lf3_87BUcRNZxTkMAK7S4",
    "name": "SPAR Express",
    "category": "SPAR Express",
    "formatted_address": "4,1(135)",
    "phone_number": "+48517540850",
    "source_url": "https://www.google.com/maps/place/SPAR+Express/data=!4m7!3m6!1s0x47053bffdf5fd99f:0x2eed0ac090539c35!8m2!3d51.8275057!4d17.4545294!16s%2Fg%2F11b6hwcyk1!19sChIJn9lf3_87BUcRNZxTkMAK7S4?authuser=0&hl=tr&rclk=1",
    "website_url": "",
    "rating_text": "4,1",
    "stars": null,
    "number_of_reviews": null,
    "price_level": "",
    "open_hours": "",
    "extraction_timestamp": "2025-06-07T18:01:47.998Z",
    "source_name": "google",
    "source_query": "Irrigation Equipment",
    "source_country": "PL",
    "country": "Poland",
    "state": "Greater Poland Voivodeship",
    "city": "Koźmin Wielkopolski"
  },
  {
    "source_id": "ChIJkwrXPtfQ6wUR5YHfd4dhYWw",
    "name": "Aqua Pro Bartosz Chmielarczyk",
    "category": "Aqua Pro Bartosz Chmielarczyk",
    "formatted_address": "",
    "phone_number": "+48884855589",
    "source_url": "https://www.google.com/maps/place/Aqua+Pro+Bartosz+Chmielarczyk/data=!4m7!3m6!1s0x5ebd0d73ed70a93:0x6c61618777df81e5!8m2!3d51.7452533!4d17.3558139!16s%2Fg%2F11t6zbc2lt!19sChIJkwrXPtfQ6wUR5YHfd4dhYWw?authuser=0&hl=tr&rclk=1",
    "website_url": "",
    "rating_text": "",
    "stars": null,
    "number_of_reviews": null,
    "price_level": "",
    "open_hours": "",
    "extraction_timestamp": "2025-06-07T18:01:47.999Z",
    "source_name": "google",
    "source_query": "Irrigation Equipment",
    "source_country": "PL",
    "country": "Poland",
    "state": "Greater Poland Voivodeship",
    "city": "Koźmin Wielkopolski"
  },
  {
    "source_id": "ChIJKXF41lM5BUcRyXFacM9UmMQ",
    "name": "Stępniak Edward. Sklep spożywczo - przemysłowy",
    "category": "Stępniak Edward. Sklep spożywczo - przemysłowy",
    "formatted_address": "3,5(11)",
    "phone_number": "+48627219970",
    "source_url": "https://www.google.com/maps/place/St%C4%99pniak+Edward.+Sklep+spo%C5%BCywczo+-+przemys%C5%82owy/data=!4m7!3m6!1s0x47053953d6787129:0xc49854cf705a71c9!8m2!3d51.8194995!4d17.4555016!16s%2Fg%2F1td6qyj6!19sChIJKXF41lM5BUcRyXFacM9UmMQ?authuser=0&hl=tr&rclk=1",
    "website_url": "",
    "rating_text": "3,5",
    "stars": null,
    "number_of_reviews": null,
    "price_level": "",
    "open_hours": "",
    "extraction_timestamp": "2025-06-07T18:01:48.000Z",
    "source_name": "google",
    "source_query": "Irrigation Equipment",
    "source_country": "PL",
    "country": "Poland",
    "state": "Greater Poland Voivodeship",
    "city": "Koźmin Wielkopolski"
  },
  {
    "source_id": "ChIJF3IbqFU5BUcRpIX7UsCyZuA",
    "name": "Danpex. Sklep z zabawkami i art. papierniczymi. Żuraszek P.",
    "category": "Danpex. Sklep z zabawkami i art. papierniczymi. Żuraszek P.",
    "formatted_address": "4,3(14)",
    "phone_number": "+48627216101",
    "source_url": "https://www.google.com/maps/place/Danpex.+Sklep+z+zabawkami+i+art.+papierniczymi.+%C5%BBuraszek+P./data=!4m7!3m6!1s0x47053955a81b7217:0xe066b2c052fb85a4!8m2!3d51.8252688!4d17.4545984!16s%2Fg%2F1tdnvlr8!19sChIJF3IbqFU5BUcRpIX7UsCyZuA?authuser=0&hl=tr&rclk=1",
    "website_url": "",
    "rating_text": "4,3",
    "stars": null,
    "number_of_reviews": null,
    "price_level": "",
    "open_hours": "",
    "extraction_timestamp": "2025-06-07T18:01:48.001Z",
    "source_name": "google",
    "source_query": "Irrigation Equipment",
    "source_country": "PL",
    "country": "Poland",
    "state": "Greater Poland Voivodeship",
    "city": "Koźmin Wielkopolski"
  },
  {
    "source_id": "ChIJZ_RmPlU5BUcRXM0GBf64t-I",
    "name": "Drogeria Vica",
    "category": "Drogeria Vica",
    "formatted_address": "3,7(13)",
    "phone_number": "+48691109896",
    "source_url": "https://www.google.com/maps/place/Drogeria+Vica/data=!4m7!3m6!1s0x470539553e66f467:0xe2b7b8fe0506cd5c!8m2!3d51.826055!4d17.45297!16s%2Fg%2F11g8bv66m5!19sChIJZ_RmPlU5BUcRXM0GBf64t-I?authuser=0&hl=tr&rclk=1",
    "website_url": "",
    "rating_text": "3,7",
    "stars": null,
    "number_of_reviews": null,
    "price_level": "",
    "open_hours": "",
    "extraction_timestamp": "2025-06-07T18:01:48.002Z",
    "source_name": "google",
    "source_query": "Irrigation Equipment",
    "source_country": "PL",
    "country": "Poland",
    "state": "Greater Poland Voivodeship",
    "city": "Koźmin Wielkopolski"
  },
  {
    "source_id": "ChIJq36C_v87BUcRPA8KGrrtTfk",
    "name": "Biedronka",
    "category": "Biedronka",
    "formatted_address": "4,2(453)",
    "phone_number": "+48800080010",
    "source_url": "https://www.google.com/maps/place/Biedronka/data=!4m7!3m6!1s0x47053bfffe827eab:0xf94dedba1a0a0f3c!8m2!3d51.8277681!4d17.4523405!16s%2Fg%2F11b5wq7d4d!19sChIJq36C_v87BUcRPA8KGrrtTfk?authuser=0&hl=tr&rclk=1",
    "website_url": "",
    "rating_text": "4,2",
    "stars": null,
    "number_of_reviews": null,
    "price_level": "",
    "open_hours": "",
    "extraction_timestamp": "2025-06-07T18:01:48.003Z",
    "source_name": "google",
    "source_query": "Irrigation Equipment",
    "source_country": "PL",
    "country": "Poland",
    "state": "Greater Poland Voivodeship",
    "city": "Koźmin Wielkopolski"
  },
  {
    "source_id": "ChIJMccmHFU5BUcRs4ABigmkARY",
    "name": "Sierszulska Emilia. PHU. Drogeria",
    "category": "Sierszulska Emilia. PHU. Drogeria",
    "formatted_address": "5,0(1)",
    "phone_number": "+48504224648",
    "source_url": "https://www.google.com/maps/place/Sierszulska+Emilia.+PHU.+Drogeria/data=!4m7!3m6!1s0x470539551c26c731:0x1601a4098a0180b3!8m2!3d51.8251814!4d17.4530808!16s%2Fg%2F1v1tlsxn!19sChIJMccmHFU5BUcRs4ABigmkARY?authuser=0&hl=tr&rclk=1",
    "website_url": "",
    "rating_text": "5,0",
    "stars": null,
    "number_of_reviews": null,
    "price_level": "",
    "open_hours": "",
    "extraction_timestamp": "2025-06-07T18:01:48.004Z",
    "source_name": "google",
    "source_query": "Irrigation Equipment",
    "source_country": "PL",
    "country": "Poland",
    "state": "Greater Poland Voivodeship",
    "city": "Koźmin Wielkopolski"
  },
  {
    "source_id": "ChIJ0TCGVuRGBUcRhfRIQR6p630",
    "name": "Marlin Krotoszyn — Hurtownia techniki grzewczej i sanitarnej, Salon łazienek, Centrum Pomp Ciepła",
    "category": "Marlin Krotoszyn — Hurtownia techniki grzewczej i sanitarnej, Salon łazienek, Centrum Pomp Ciepła",
    "formatted_address": "Marlin Krotoszyn — Hurtownia techniki grzewczej i sanitarnej, Salon łazienek, Centrum Pomp Ciepła",
    "phone_number": "+48533341195",
    "source_url": "https://www.google.com/maps/place/Marlin+Krotoszyn+%E2%80%94+Hurtownia+techniki+grzewczej+i+sanitarnej,+Salon+%C5%82azienek,+Centrum+Pomp+Ciep%C5%82a/data=!4m7!3m6!1s0x470546e4568630d1:0x7deba91e4148f485!8m2!3d51.6953125!4d17.4148915!16s%2Fg%2F1tj7291t!19sChIJ0TCGVuRGBUcRhfRIQR6p630?authuser=0&hl=tr&rclk=1",
    "website_url": "",
    "rating_text": "4,5",
    "stars": null,
    "number_of_reviews": null,
    "price_level": "",
    "open_hours": "",
    "extraction_timestamp": "2025-06-07T18:01:48.005Z",
    "source_name": "google",
    "source_query": "Irrigation Equipment",
    "source_country": "PL",
    "country": "Poland",
    "state": "Greater Poland Voivodeship",
    "city": "Koźmin Wielkopolski"
  },
  {
    "source_id": "ChIJzQA5L_7FGkcRFAFyseCJgfs",
    "name": "Semi Sp. o.o. Wholesale Art. gardening",
    "category": "Semi Sp. o.o. Wholesale Art. gardening",
    "formatted_address": "4,6(13)",
    "phone_number": "+48517233193",
    "source_url": "https://www.google.com/maps/place/Semi+Sp.+o.o.+Wholesale+Art.+gardening/data=!4m7!3m6!1s0x471ac5fe2f3900cd:0xfb8189e0b1720114!8m2!3d51.7353499!4d18.0486079!16s%2Fg%2F1pty0g1_z!19sChIJzQA5L_7FGkcRFAFyseCJgfs?authuser=0&hl=tr&rclk=1",
    "website_url": "",
    "rating_text": "4,6",
    "stars": null,
    "number_of_reviews": null,
    "price_level": "",
    "open_hours": "",
    "extraction_timestamp": "2025-06-07T18:01:48.005Z",
    "source_name": "google",
    "source_query": "Irrigation Equipment",
    "source_country": "PL",
    "country": "Poland",
    "state": "Greater Poland Voivodeship",
    "city": "Koźmin Wielkopolski"
  },
  {
    "source_id": "ChIJ1WvNQKq4GkcR1Qnl3ArzBJ0",
    "name": "P.W. Acer s.c. M. Przybył, A. Przybył, Ł. Przybył",
    "category": "P.W. Acer s.c. M. Przybył, A. Przybył, Ł. Przybył",
    "formatted_address": "P.W. Acer s.c. M. Przybył, A. Przybył, Ł. Przybył",
    "phone_number": "+48627610591",
    "source_url": "https://www.google.com/maps/place/P.W.+Acer+s.c.+M.+Przyby%C5%82,+A.+Przyby%C5%82,+%C5%81.+Przyby%C5%82/data=!4m7!3m6!1s0x471ab8aa40cd6bd5:0x9d04f30adce509d5!8m2!3d51.630987!4d18.1132091!16s%2Fg%2F1tg14h0j!19sChIJ1WvNQKq4GkcR1Qnl3ArzBJ0?authuser=0&hl=tr&rclk=1",
    "website_url": "",
    "rating_text": "4,9",
    "stars": null,
    "number_of_reviews": null,
    "price_level": "",
    "open_hours": "",
    "extraction_timestamp": "2025-06-07T18:01:48.006Z",
    "source_name": "google",
    "source_query": "Irrigation Equipment",
    "source_country": "PL",
    "country": "Poland",
    "state": "Greater Poland Voivodeship",
    "city": "Koźmin Wielkopolski"
  },
  {
    "source_id": "ChIJe4YPHdK1GkcRx7agDZMj4rs",
    "name": "Sanpol Ostrów Wlkp. - hurtownia instalacyjna, hydrauliczna, sanitarna",
    "category": "Sanpol Ostrów Wlkp. - hurtownia instalacyjna, hydrauliczna, sanitarna",
    "formatted_address": "Sanpol Ostrów Wlkp. - hurtownia instalacyjna, hydrauliczna, sanitarna",
    "phone_number": "+48627369631",
    "source_url": "https://www.google.com/maps/place/Sanpol+Ostr%C3%B3w+Wlkp.+-+hurtownia+instalacyjna,+hydrauliczna,+sanitarna/data=!4m7!3m6!1s0x471ab5d21d0f867b:0xbbe223930da0b6c7!8m2!3d51.6391299!4d17.8364589!16s%2Fg%2F11gzcvrzh!19sChIJe4YPHdK1GkcRx7agDZMj4rs?authuser=0&hl=tr&rclk=1",
    "website_url": "",
    "rating_text": "4,9",
    "stars": null,
    "number_of_reviews": null,
    "price_level": "",
    "open_hours": "",
    "extraction_timestamp": "2025-06-07T18:01:48.007Z",
    "source_name": "google",
    "source_query": "Irrigation Equipment",
    "source_country": "PL",
    "country": "Poland",
    "state": "Greater Poland Voivodeship",
    "city": "Koźmin Wielkopolski"
  },
  {
    "source_id": "ChIJLwUZFVwUBUcRa7LbIQ6KkgA",
    "name": "Agro Centnas Ryszard Woltmann i Synowie",
    "category": "Agro Centnas Ryszard Woltmann i Synowie",
    "formatted_address": "4,9(14)",
    "phone_number": "+48508223815",
    "source_url": "https://www.google.com/maps/place/Agro+Centnas+Ryszard+Woltmann+i+Synowie/data=!4m7!3m6!1s0x4705145c1519052f:0x928a0e21dbb26b!8m2!3d51.8246266!4d17.2278031!16s%2Fg%2F1tj7zp2j!19sChIJLwUZFVwUBUcRa7LbIQ6KkgA?authuser=0&hl=tr&rclk=1",
    "website_url": "",
    "rating_text": "4,9",
    "stars": null,
    "number_of_reviews": null,
    "price_level": "",
    "open_hours": "",
    "extraction_timestamp": "2025-06-07T18:01:48.008Z",
    "source_name": "google",
    "source_query": "Irrigation Equipment",
    "source_country": "PL",
    "country": "Poland",
    "state": "Greater Poland Voivodeship",
    "city": "Koźmin Wielkopolski"
  },
  {
    "source_id": "ChIJ__-DouVvBUcRXufXWuxliOk",
    "name": "Plantet",
    "category": "Plantet",
    "formatted_address": "4,9(110)",
    "phone_number": "+48693000090",
    "source_url": "https://www.google.com/maps/place/Plantet/data=!4m7!3m6!1s0x47056fe5a283ffff:0xe98865ec5ad7e75e!8m2!3d51.6958956!4d17.4119917!16s%2Fg%2F11h7zf6r0r!19sChIJ__-DouVvBUcRXufXWuxliOk?authuser=0&hl=tr&rclk=1",
    "website_url": "",
    "rating_text": "4,9",
    "stars": null,
    "number_of_reviews": null,
    "price_level": "",
    "open_hours": "",
    "extraction_timestamp": "2025-06-07T18:01:48.009Z",
    "source_name": "google",
    "source_query": "Irrigation Equipment",
    "source_country": "PL",
    "country": "Poland",
    "state": "Greater Poland Voivodeship",
    "city": "Koźmin Wielkopolski"
  },
  {
    "source_id": "ChIJFXDU5fooBUcRQA2M2F7Hk94",
    "name": "P.P.H.U 'FOKUS' Producent kotłów i piecy Radosław Fibner, Waldemar Staszak",
    "category": "P.P.H.U 'FOKUS' Producent kotłów i piecy Radosław Fibner, Waldemar Staszak",
    "formatted_address": "P.P.H.U 'FOKUS' Producent kotłów i piecy Radosław Fibner, Waldemar Staszak",
    "phone_number": "+48627416735",
    "source_url": "https://www.google.com/maps/place/P.P.H.U+%27FOKUS%27+Producent+kot%C5%82%C3%B3w+i+piecy+Rados%C5%82aw+Fibner,+Waldemar+Staszak/data=!4m7!3m6!1s0x470528fae5d47015:0xde93c75ed88c0d40!8m2!3d51.995631!4d17.745461!16s%2Fg%2F1ptwkcqlz!19sChIJFXDU5fooBUcRQA2M2F7Hk94?authuser=0&hl=tr&rclk=1",
    "website_url": "",
    "rating_text": "4,8",
    "stars": null,
    "number_of_reviews": null,
    "price_level": "",
    "open_hours": "",
    "extraction_timestamp": "2025-06-07T18:01:48.010Z",
    "source_name": "google",
    "source_query": "Irrigation Equipment",
    "source_country": "PL",
    "country": "Poland",
    "state": "Greater Poland Voivodeship",
    "city": "Koźmin Wielkopolski"
  },
  {
    "source_id": "ChIJmWsVyByYBUcRhRWU_Dkehew",
    "name": "GRENE",
    "category": "GRENE",
    "formatted_address": "4,5(71)",
    "phone_number": "+48655299455",
    "source_url": "https://www.google.com/maps/place/GRENE/data=!4m7!3m6!1s0x4705981cc8156b99:0xec851e39fc941585!8m2!3d51.8485053!4d16.5691067!16s%2Fg%2F1tgn89sx!19sChIJmWsVyByYBUcRhRWU_Dkehew?authuser=0&hl=tr&rclk=1",
    "website_url": "",
    "rating_text": "4,5",
    "stars": null,
    "number_of_reviews": null,
    "price_level": "",
    "open_hours": "",
    "extraction_timestamp": "2025-06-07T18:01:48.011Z",
    "source_name": "google",
    "source_query": "Irrigation Equipment",
    "source_country": "PL",
    "country": "Poland",
    "state": "Greater Poland Voivodeship",
    "city": "Koźmin Wielkopolski"
  },
  {
    "source_id": "ChIJb7NAEcctBUcRPELeJt-5CmM",
    "name": "PHU AKAJ PLUS Tomasz Moliński Hurt-Detal",
    "category": "PHU AKAJ PLUS Tomasz Moliński Hurt-Detal",
    "formatted_address": "5,0(6)",
    "phone_number": "+48570150805",
    "source_url": "https://www.google.com/maps/place/PHU+AKAJ+PLUS+Tomasz+Moli%C5%84ski+Hurt-Detal/data=!4m7!3m6!1s0x47052dc71140b36f:0x630ab9df26de423c!8m2!3d51.8926208!4d17.785424!16s%2Fg%2F1pty9khrx!19sChIJb7NAEcctBUcRPELeJt-5CmM?authuser=0&hl=tr&rclk=1",
    "website_url": "",
    "rating_text": "5,0",
    "stars": null,
    "number_of_reviews": null,
    "price_level": "",
    "open_hours": "",
    "extraction_timestamp": "2025-06-07T18:01:48.011Z",
    "source_name": "google",
    "source_query": "Irrigation Equipment",
    "source_country": "PL",
    "country": "Poland",
    "state": "Greater Poland Voivodeship",
    "city": "Koźmin Wielkopolski"
  },
  {
    "source_id": "ChIJ2bK4P9MABUcRhp7lI4WUDfE",
    "name": "Kąpielisko Miejskie Śrem",
    "category": "Kąpielisko Miejskie Śrem",
    "formatted_address": "4,3(899)",
    "phone_number": "",
    "source_url": "https://www.google.com/maps/place/K%C4%85pielisko+Miejskie+%C5%9Arem/data=!4m7!3m6!1s0x470500d33fb8b2d9:0xf10d948523e59e86!8m2!3d52.070966!4d17.0097007!16s%2Fg%2F1tggmbp7!19sChIJ2bK4P9MABUcRhp7lI4WUDfE?authuser=0&hl=tr&rclk=1",
    "website_url": "",
    "rating_text": "4,3",
    "stars": null,
    "number_of_reviews": null,
    "price_level": "",
    "open_hours": "",
    "extraction_timestamp": "2025-06-07T18:01:48.012Z",
    "source_name": "google",
    "source_query": "Irrigation Equipment",
    "source_country": "PL",
    "country": "Poland",
    "state": "Greater Poland Voivodeship",
    "city": "Koźmin Wielkopolski"
  }
]
