[
  {
    "source_id": "ChIJTy4jOm7DA0cRjYSsgdE6m-8",
    "name": "Andmar sklep budowlany",
    "category": "Andmar sklep budowlany",
    "formatted_address": "4,7(52)",
    "phone_number": "+48672638880",
    "source_url": "https://www.google.com/maps/place/Andmar+sklep+budowlany/data=!4m7!3m6!1s0x4703c36e3a232e4f:0xef9b3ad181ac848d!8m2!3d53.2908679!4d16.9854155!16s%2Fg%2F11cmds4t4g!19sChIJTy4jOm7DA0cRjYSsgdE6m-8?authuser=0&hl=tr&rclk=1",
    "website_url": "",
    "rating_text": "4,7",
    "stars": null,
    "number_of_reviews": null,
    "price_level": "",
    "open_hours": "",
    "extraction_timestamp": "2025-06-07T18:00:49.948Z",
    "source_name": "google",
    "source_query": "Irrigation Equipment",
    "source_country": "PL",
    "country": "Poland",
    "state": "Greater Poland Voivodeship",
    "city": "Krajenka"
  },
  {
    "source_id": "ChIJiwXtUnrDA0cRnzxzEO2uAj0",
    "name": "Livio",
    "category": "Livio",
    "formatted_address": "4,5(44)",
    "phone_number": "+48793694830",
    "source_url": "https://www.google.com/maps/place/Livio/data=!4m7!3m6!1s0x4703c37a52ed058b:0x3d02aeed10733c9f!8m2!3d53.2956514!4d16.9954859!16s%2Fg%2F11y0hnh0s!19sChIJiwXtUnrDA0cRnzxzEO2uAj0?authuser=0&hl=tr&rclk=1",
    "website_url": "",
    "rating_text": "4,5",
    "stars": null,
    "number_of_reviews": null,
    "price_level": "",
    "open_hours": "",
    "extraction_timestamp": "2025-06-07T18:00:49.949Z",
    "source_name": "google",
    "source_query": "Irrigation Equipment",
    "source_country": "PL",
    "country": "Poland",
    "state": "Greater Poland Voivodeship",
    "city": "Krajenka"
  },
  {
    "source_id": "ChIJUfn2Ig35A0cREW9fZ4029UM",
    "name": "IMTechnika sp. z o.o.",
    "category": "IMTechnika sp. z o.o.",
    "formatted_address": "4,4(17)",
    "phone_number": "+48883820388",
    "source_url": "https://www.google.com/maps/place/IMTechnika+sp.+z+o.o./data=!4m7!3m6!1s0x4703f90d22f6f951:0x43f5368d675f6f11!8m2!3d52.9756271!4d16.657836!16s%2Fg%2F11bw48_6mg!19sChIJUfn2Ig35A0cREW9fZ4029UM?authuser=0&hl=tr&rclk=1",
    "website_url": "",
    "rating_text": "4,4",
    "stars": null,
    "number_of_reviews": null,
    "price_level": "",
    "open_hours": "",
    "extraction_timestamp": "2025-06-07T18:00:49.950Z",
    "source_name": "google",
    "source_query": "Irrigation Equipment",
    "source_country": "PL",
    "country": "Poland",
    "state": "Greater Poland Voivodeship",
    "city": "Krajenka"
  },
  {
    "source_id": "ChIJBaojdm7DA0cRe2XLRd_sN8I",
    "name": "Dino",
    "category": "Dino",
    "formatted_address": "4,3(332)",
    "phone_number": "",
    "source_url": "https://www.google.com/maps/place/Dino/data=!4m7!3m6!1s0x4703c36e7623aa05:0xc237ecdf45cb657b!8m2!3d53.2892921!4d16.983024!16s%2Fg%2F11crzv35rj!19sChIJBaojdm7DA0cRe2XLRd_sN8I?authuser=0&hl=tr&rclk=1",
    "website_url": "",
    "rating_text": "4,3",
    "stars": null,
    "number_of_reviews": null,
    "price_level": "",
    "open_hours": "",
    "extraction_timestamp": "2025-06-07T18:00:49.951Z",
    "source_name": "google",
    "source_query": "Irrigation Equipment",
    "source_country": "PL",
    "country": "Poland",
    "state": "Greater Poland Voivodeship",
    "city": "Krajenka"
  },
  {
    "source_id": "ChIJZQs0OHvDA0cRRbYxWQxPBjU",
    "name": "Sylwia Bis. FH",
    "category": "Sylwia Bis. FH",
    "formatted_address": "5,0(1)",
    "phone_number": "+48672638327",
    "source_url": "https://www.google.com/maps/place/Sylwia+Bis.+FH/data=!4m7!3m6!1s0x4703c37b38340b65:0x35064f0c5931b645!8m2!3d53.2974606!4d16.9923317!16s%2Fg%2F1tfb0pqh!19sChIJZQs0OHvDA0cRRbYxWQxPBjU?authuser=0&hl=tr&rclk=1",
    "website_url": "",
    "rating_text": "5,0",
    "stars": null,
    "number_of_reviews": null,
    "price_level": "",
    "open_hours": "",
    "extraction_timestamp": "2025-06-07T18:00:49.951Z",
    "source_name": "google",
    "source_query": "Irrigation Equipment",
    "source_country": "PL",
    "country": "Poland",
    "state": "Greater Poland Voivodeship",
    "city": "Krajenka"
  },
  {
    "source_id": "ChIJA-rDK3HDA0cRVuLNaKhEW1g",
    "name": "Lewiatan",
    "category": "Lewiatan",
    "formatted_address": "4,1(37)",
    "phone_number": "",
    "source_url": "https://www.google.com/maps/place/Lewiatan/data=!4m7!3m6!1s0x4703c3712bc3ea03:0x585b44a868cde256!8m2!3d53.2913946!4d16.9919869!16s%2Fg%2F11c2jv9ts9!19sChIJA-rDK3HDA0cRVuLNaKhEW1g?authuser=0&hl=tr&rclk=1",
    "website_url": "",
    "rating_text": "4,1",
    "stars": null,
    "number_of_reviews": null,
    "price_level": "",
    "open_hours": "",
    "extraction_timestamp": "2025-06-07T18:00:49.952Z",
    "source_name": "google",
    "source_query": "Irrigation Equipment",
    "source_country": "PL",
    "country": "Poland",
    "state": "Greater Poland Voivodeship",
    "city": "Krajenka"
  },
  {
    "source_id": "ChIJt_0tKXvDA0cR47R2eodC67Q",
    "name": "Sklep spożywczy \"Stogrosik\"",
    "category": "Sklep spożywczy \"Stogrosik\"",
    "formatted_address": "4,7(7)",
    "phone_number": "+48672638467",
    "source_url": "https://www.google.com/maps/place/Sklep+spo%C5%BCywczy+%22Stogrosik%22/data=!4m7!3m6!1s0x4703c37b292dfdb7:0xb4eb42877a76b4e3!8m2!3d53.2966807!4d16.9912973!16s%2Fg%2F1hc737q3h!19sChIJt_0tKXvDA0cR47R2eodC67Q?authuser=0&hl=tr&rclk=1",
    "website_url": "",
    "rating_text": "4,7",
    "stars": null,
    "number_of_reviews": null,
    "price_level": "",
    "open_hours": "",
    "extraction_timestamp": "2025-06-07T18:00:49.953Z",
    "source_name": "google",
    "source_query": "Irrigation Equipment",
    "source_country": "PL",
    "country": "Poland",
    "state": "Greater Poland Voivodeship",
    "city": "Krajenka"
  },
  {
    "source_id": "ChIJ821oSXvDA0cRr2Hc3fAzscQ",
    "name": "Jantar. Kiosk",
    "category": "Jantar. Kiosk",
    "formatted_address": "4,8(6)",
    "phone_number": "",
    "source_url": "https://www.google.com/maps/place/Jantar.+Kiosk/data=!4m7!3m6!1s0x4703c37b49686df3:0xc4b133f0dddc61af!8m2!3d53.2976357!4d16.9918976!16s%2Fg%2F11h0vqkwtp!19sChIJ821oSXvDA0cRr2Hc3fAzscQ?authuser=0&hl=tr&rclk=1",
    "website_url": "",
    "rating_text": "4,8",
    "stars": null,
    "number_of_reviews": null,
    "price_level": "",
    "open_hours": "",
    "extraction_timestamp": "2025-06-07T18:00:49.953Z",
    "source_name": "google",
    "source_query": "Irrigation Equipment",
    "source_country": "PL",
    "country": "Poland",
    "state": "Greater Poland Voivodeship",
    "city": "Krajenka"
  },
  {
    "source_id": "ChIJB6y_v5J2HEcRlDfYx3xmc9M",
    "name": "Milex irrigation systems",
    "category": "Milex irrigation systems",
    "formatted_address": "4,6(37)",
    "phone_number": "+48242775222",
    "source_url": "https://www.google.com/maps/place/Milex+irrigation+systems/data=!4m7!3m6!1s0x471c7692bfbfac07:0xd373667cc7d83794!8m2!3d52.4690634!4d19.7520904!16s%2Fg%2F1w2yy67r!19sChIJB6y_v5J2HEcRlDfYx3xmc9M?authuser=0&hl=tr&rclk=1",
    "website_url": "",
    "rating_text": "4,6",
    "stars": null,
    "number_of_reviews": null,
    "price_level": "",
    "open_hours": "",
    "extraction_timestamp": "2025-06-07T18:00:49.954Z",
    "source_name": "google",
    "source_query": "Irrigation Equipment",
    "source_country": "PL",
    "country": "Poland",
    "state": "Greater Poland Voivodeship",
    "city": "Krajenka"
  },
  {
    "source_id": "ChIJ5VpuF2XDA0cRAI1vCsJyyFA",
    "name": "Verbena",
    "category": "Verbena",
    "formatted_address": "3,9(12)",
    "phone_number": "+48501247108",
    "source_url": "https://www.google.com/maps/place/Verbena/data=!4m7!3m6!1s0x4703c365176e5ae5:0x50c872c20a6f8d00!8m2!3d53.294979!4d16.988319!16s%2Fg%2F1pty4_074!19sChIJ5VpuF2XDA0cRAI1vCsJyyFA?authuser=0&hl=tr&rclk=1",
    "website_url": "",
    "rating_text": "3,9",
    "stars": null,
    "number_of_reviews": null,
    "price_level": "",
    "open_hours": "",
    "extraction_timestamp": "2025-06-07T18:00:49.956Z",
    "source_name": "google",
    "source_query": "Irrigation Equipment",
    "source_country": "PL",
    "country": "Poland",
    "state": "Greater Poland Voivodeship",
    "city": "Krajenka"
  },
  {
    "source_id": "ChIJAVbkLKTDA0cR_F8jxfhjqsc",
    "name": "Biedronka",
    "category": "Biedronka",
    "formatted_address": "4,2(451)",
    "phone_number": "+48800080010",
    "source_url": "https://www.google.com/maps/place/Biedronka/data=!4m7!3m6!1s0x4703c3a42ce45601:0xc7aa63f8c5235ffc!8m2!3d53.2973953!4d16.9896473!16s%2Fg%2F1w3w1rq4!19sChIJAVbkLKTDA0cR_F8jxfhjqsc?authuser=0&hl=tr&rclk=1",
    "website_url": "",
    "rating_text": "4,2",
    "stars": null,
    "number_of_reviews": null,
    "price_level": "",
    "open_hours": "",
    "extraction_timestamp": "2025-06-07T18:00:49.957Z",
    "source_name": "google",
    "source_query": "Irrigation Equipment",
    "source_country": "PL",
    "country": "Poland",
    "state": "Greater Poland Voivodeship",
    "city": "Krajenka"
  },
  {
    "source_id": "ChIJdRnGeDBaBEcRpyx7M8s1JkQ",
    "name": "Wirtgen Polska Sp. z o.o.",
    "category": "Wirtgen Polska Sp. z o.o.",
    "formatted_address": "4,4(31)",
    "phone_number": "+48618982100",
    "source_url": "https://www.google.com/maps/place/Wirtgen+Polska+Sp.+z+o.o./data=!4m7!3m6!1s0x47045a3078c61975:0x442635cb337b2ca7!8m2!3d52.3665338!4d16.9940075!16s%2Fg%2F1pv043rwn!19sChIJdRnGeDBaBEcRpyx7M8s1JkQ?authuser=0&hl=tr&rclk=1",
    "website_url": "",
    "rating_text": "4,4",
    "stars": null,
    "number_of_reviews": null,
    "price_level": "",
    "open_hours": "",
    "extraction_timestamp": "2025-06-07T18:00:49.957Z",
    "source_name": "google",
    "source_query": "Irrigation Equipment",
    "source_country": "PL",
    "country": "Poland",
    "state": "Greater Poland Voivodeship",
    "city": "Krajenka"
  },
  {
    "source_id": "ChIJa1s4IU7DA0cRp0on7rZma5M",
    "name": "Carrefour Express",
    "category": "Carrefour Express",
    "formatted_address": "",
    "phone_number": "+48801200000",
    "source_url": "https://www.google.com/maps/place/Carrefour+Express/data=!4m7!3m6!1s0x4703c34e21385b6b:0x936b66b6ee274aa7!8m2!3d53.303115!4d16.989108!16s%2Fg%2F11pbb212n3!19sChIJa1s4IU7DA0cRp0on7rZma5M?authuser=0&hl=tr&rclk=1",
    "website_url": "",
    "rating_text": "",
    "stars": null,
    "number_of_reviews": null,
    "price_level": "",
    "open_hours": "",
    "extraction_timestamp": "2025-06-07T18:00:49.959Z",
    "source_name": "google",
    "source_query": "Irrigation Equipment",
    "source_country": "PL",
    "country": "Poland",
    "state": "Greater Poland Voivodeship",
    "city": "Krajenka"
  }
]
