[
  {
    "source_id": "ChIJn596U3s3G0cR2symaMBIWf8",
    "name": "ERKAM - Hydraulika Siłowa, Iwona Grochocińska",
    "category": "ERKAM - Hydraulika Siłowa, Iwona Grochocińska",
    "formatted_address": "ERKAM - Hydraulika Siłowa, Iwona Grochocińska",
    "phone_number": "+48603121118",
    "source_url": "https://www.google.com/maps/place/ERKAM+-+Hydraulika+Si%C5%82owa,+Iwona+Grochoci%C5%84ska/data=!4m7!3m6!1s0x471b377b537a9f9f:0xff5948c068a6ccda!8m2!3d52.2409431!4d18.3775475!16s%2Fg%2F11_rn1dtz!19sChIJn596U3s3G0cR2symaMBIWf8?authuser=0&hl=tr&rclk=1",
    "website_url": "",
    "rating_text": "5,0",
    "stars": null,
    "number_of_reviews": null,
    "price_level": "",
    "open_hours": "",
    "extraction_timestamp": "2025-06-07T17:11:56.356Z",
    "source_name": "google",
    "source_query": "Irrigation Equipment",
    "source_country": "PL",
    "country": "Poland",
    "state": "Greater Poland Voivodeship",
    "city": "Kramsk"
  },
  {
    "source_id": "ChIJNewaLTQ5G0cRBeKYO3lJyw0",
    "name": "Usługi Hydrauliczne Maciej Strużyński",
    "category": "Usługi Hydrauliczne Maciej Strużyński",
    "formatted_address": "4,3(3)",
    "phone_number": "+48608702734",
    "source_url": "https://www.google.com/maps/place/Us%C5%82ugi+Hydrauliczne+Maciej+Stru%C5%BCy%C5%84ski/data=!4m7!3m6!1s0x471b39342d1aec35:0xdcb49793b98e205!8m2!3d52.2690613!4d18.4459816!16s%2Fg%2F11swzk5bzb!19sChIJNewaLTQ5G0cRBeKYO3lJyw0?authuser=0&hl=tr&rclk=1",
    "website_url": "",
    "rating_text": "4,3",
    "stars": null,
    "number_of_reviews": null,
    "price_level": "",
    "open_hours": "",
    "extraction_timestamp": "2025-06-07T17:11:56.357Z",
    "source_name": "google",
    "source_query": "Irrigation Equipment",
    "source_country": "PL",
    "country": "Poland",
    "state": "Greater Poland Voivodeship",
    "city": "Kramsk"
  },
  {
    "source_id": "ChIJ4wqq8Ts4G0cR5geYevoZE7w",
    "name": "POLOmarket",
    "category": "POLOmarket",
    "formatted_address": "4,1(252)",
    "phone_number": "+48523599000",
    "source_url": "https://www.google.com/maps/place/POLOmarket/data=!4m7!3m6!1s0x471b383bf1aa0ae3:0xbc1319fa7a9807e6!8m2!3d52.2607072!4d18.4212318!16s%2Fg%2F11b5yqsr3k!19sChIJ4wqq8Ts4G0cR5geYevoZE7w?authuser=0&hl=tr&rclk=1",
    "website_url": "",
    "rating_text": "4,1",
    "stars": null,
    "number_of_reviews": null,
    "price_level": "",
    "open_hours": "",
    "extraction_timestamp": "2025-06-07T17:11:56.357Z",
    "source_name": "google",
    "source_query": "Irrigation Equipment",
    "source_country": "PL",
    "country": "Poland",
    "state": "Greater Poland Voivodeship",
    "city": "Kramsk"
  },
  {
    "source_id": "ChIJJVGEXgw5G0cRWwRXis3vjWY",
    "name": "TUJA Krystian Krenc",
    "category": "TUJA Krystian Krenc",
    "formatted_address": "",
    "phone_number": "+48605240122",
    "source_url": "https://www.google.com/maps/place/TUJA+Krystian+Krenc/data=!4m7!3m6!1s0x471b390c5e845125:0x668defcd8a57045b!8m2!3d52.2708921!4d18.4241208!16s%2Fg%2F11m5g4nn7x!19sChIJJVGEXgw5G0cRWwRXis3vjWY?authuser=0&hl=tr&rclk=1",
    "website_url": "",
    "rating_text": "",
    "stars": null,
    "number_of_reviews": null,
    "price_level": "",
    "open_hours": "",
    "extraction_timestamp": "2025-06-07T17:11:56.358Z",
    "source_name": "google",
    "source_query": "Irrigation Equipment",
    "source_country": "PL",
    "country": "Poland",
    "state": "Greater Poland Voivodeship",
    "city": "Kramsk"
  },
  {
    "source_id": "ChIJAwlZOJo5G0cRd6a7aKZ7Z-k",
    "name": "Sklep i Piekarnia \"EMKO\" Sp. z. o. o",
    "category": "Sklep i Piekarnia \"EMKO\" Sp. z. o. o",
    "formatted_address": "4,6(99)",
    "phone_number": "",
    "source_url": "https://www.google.com/maps/place/Sklep+i+Piekarnia+%22EMKO%22+Sp.+z.+o.+o/data=!4m7!3m6!1s0x471b399a38590903:0xe9677ba668bba677!8m2!3d52.2664595!4d18.4295168!16s%2Fg%2F11h4qj5p11!19sChIJAwlZOJo5G0cRd6a7aKZ7Z-k?authuser=0&hl=tr&rclk=1",
    "website_url": "",
    "rating_text": "4,6",
    "stars": null,
    "number_of_reviews": null,
    "price_level": "",
    "open_hours": "",
    "extraction_timestamp": "2025-06-07T17:11:56.358Z",
    "source_name": "google",
    "source_query": "Irrigation Equipment",
    "source_country": "PL",
    "country": "Poland",
    "state": "Greater Poland Voivodeship",
    "city": "Kramsk"
  },
  {
    "source_id": "ChIJfxRJeT04G0cReFG3Ydiod_4",
    "name": "Twój Market",
    "category": "Twój Market",
    "formatted_address": "4,4(160)",
    "phone_number": "",
    "source_url": "https://www.google.com/maps/place/Tw%C3%B3j+Market/data=!4m7!3m6!1s0x471b383d7949147f:0xfe77a8d861b75178!8m2!3d52.2658475!4d18.4244678!16s%2Fg%2F11gb3m9cvd!19sChIJfxRJeT04G0cReFG3Ydiod_4?authuser=0&hl=tr&rclk=1",
    "website_url": "",
    "rating_text": "4,4",
    "stars": null,
    "number_of_reviews": null,
    "price_level": "",
    "open_hours": "",
    "extraction_timestamp": "2025-06-07T17:11:56.358Z",
    "source_name": "google",
    "source_query": "Irrigation Equipment",
    "source_country": "PL",
    "country": "Poland",
    "state": "Greater Poland Voivodeship",
    "city": "Kramsk"
  },
  {
    "source_id": "ChIJ88cNsVM5G0cRzURm9T9DkZc",
    "name": "Dino",
    "category": "Dino",
    "formatted_address": "4,3(32)",
    "phone_number": "",
    "source_url": "https://www.google.com/maps/place/Dino/data=!4m7!3m6!1s0x471b3953b10dc7f3:0x9791433ff56644cd!8m2!3d52.2715716!4d18.4277901!16s%2Fg%2F11pz11f5xl!19sChIJ88cNsVM5G0cRzURm9T9DkZc?authuser=0&hl=tr&rclk=1",
    "website_url": "",
    "rating_text": "4,3",
    "stars": null,
    "number_of_reviews": null,
    "price_level": "",
    "open_hours": "",
    "extraction_timestamp": "2025-06-07T17:11:56.359Z",
    "source_name": "google",
    "source_query": "Irrigation Equipment",
    "source_country": "PL",
    "country": "Poland",
    "state": "Greater Poland Voivodeship",
    "city": "Kramsk"
  },
  {
    "source_id": "ChIJJzwvKhY4G0cRxUDXXtyCi0Q",
    "name": "Sam. Sklep spożywczy",
    "category": "Sam. Sklep spożywczy",
    "formatted_address": "4,4(43)",
    "phone_number": "+48632462114",
    "source_url": "https://www.google.com/maps/place/Sam.+Sklep+spo%C5%BCywczy/data=!4m7!3m6!1s0x471b38162a2f3c27:0x448b82dc5ed740c5!8m2!3d52.2660089!4d18.4282559!16s%2Fg%2F1wf37bt3!19sChIJJzwvKhY4G0cRxUDXXtyCi0Q?authuser=0&hl=tr&rclk=1",
    "website_url": "",
    "rating_text": "4,4",
    "stars": null,
    "number_of_reviews": null,
    "price_level": "",
    "open_hours": "",
    "extraction_timestamp": "2025-06-07T17:11:56.359Z",
    "source_name": "google",
    "source_query": "Irrigation Equipment",
    "source_country": "PL",
    "country": "Poland",
    "state": "Greater Poland Voivodeship",
    "city": "Kramsk"
  },
  {
    "source_id": "ChIJB6y_v5J2HEcRlDfYx3xmc9M",
    "name": "Milex irrigation systems",
    "category": "Milex irrigation systems",
    "formatted_address": "4,6(37)",
    "phone_number": "+48242775222",
    "source_url": "https://www.google.com/maps/place/Milex+irrigation+systems/data=!4m7!3m6!1s0x471c7692bfbfac07:0xd373667cc7d83794!8m2!3d52.4690634!4d19.7520904!16s%2Fg%2F1w2yy67r!19sChIJB6y_v5J2HEcRlDfYx3xmc9M?authuser=0&hl=tr&rclk=1",
    "website_url": "",
    "rating_text": "4,6",
    "stars": null,
    "number_of_reviews": null,
    "price_level": "",
    "open_hours": "",
    "extraction_timestamp": "2025-06-07T17:11:56.359Z",
    "source_name": "google",
    "source_query": "Irrigation Equipment",
    "source_country": "PL",
    "country": "Poland",
    "state": "Greater Poland Voivodeship",
    "city": "Kramsk"
  },
  {
    "source_id": "ChIJPfG_Ajs4G0cR-xLxXOZsolI",
    "name": "Auto Częsci",
    "category": "Auto Częsci",
    "formatted_address": "5,0(9)",
    "phone_number": "",
    "source_url": "https://www.google.com/maps/place/Auto+Cz%C4%99sci/data=!4m7!3m6!1s0x471b383b02bff13d:0x52a26ce65cf112fb!8m2!3d52.2589686!4d18.4188764!16s%2Fg%2F11j1j6r6rz!19sChIJPfG_Ajs4G0cR-xLxXOZsolI?authuser=0&hl=tr&rclk=1",
    "website_url": "",
    "rating_text": "5,0",
    "stars": null,
    "number_of_reviews": null,
    "price_level": "",
    "open_hours": "",
    "extraction_timestamp": "2025-06-07T17:11:56.360Z",
    "source_name": "google",
    "source_query": "Irrigation Equipment",
    "source_country": "PL",
    "country": "Poland",
    "state": "Greater Poland Voivodeship",
    "city": "Kramsk"
  },
  {
    "source_id": "ChIJVTV3W_PzBEcR6gY0xwQi2_E",
    "name": "Deszczownie.com",
    "category": "Deszczownie.com",
    "formatted_address": "",
    "phone_number": "+48726000030",
    "source_url": "https://www.google.com/maps/place/Deszczownie.com/data=!4m7!3m6!1s0x4704f3f35b773555:0xf1db2204c73406ea!8m2!3d52.3623948!4d17.4021087!16s%2Fg%2F11y3pv4rxr!19sChIJVTV3W_PzBEcR6gY0xwQi2_E?authuser=0&hl=tr&rclk=1",
    "website_url": "",
    "rating_text": "",
    "stars": null,
    "number_of_reviews": null,
    "price_level": "",
    "open_hours": "",
    "extraction_timestamp": "2025-06-07T17:11:56.360Z",
    "source_name": "google",
    "source_query": "Irrigation Equipment",
    "source_country": "PL",
    "country": "Poland",
    "state": "Greater Poland Voivodeship",
    "city": "Kramsk"
  }
]
