[
  {
    "source_id": "ChIJvxoHz-iXGkcRPzGtjnYyNzY",
    "name": "Instalator Krzysztof Pietras",
    "category": "Instalator Krzysztof Pietras",
    "formatted_address": "5,0(16)",
    "phone_number": "+48722239050",
    "source_url": "https://www.google.com/maps/place/Instalator+Krzysztof+Pietras/data=!4m7!3m6!1s0x471a97e8cf071abf:0x363732768ead313f!8m2!3d51.518141!4d18.2201468!16s%2Fg%2F11nldznfyr!19sChIJvxoHz-iXGkcRPzGtjnYyNzY?authuser=0&hl=tr&rclk=1",
    "website_url": "",
    "rating_text": "5,0",
    "stars": null,
    "number_of_reviews": null,
    "price_level": "",
    "open_hours": "",
    "extraction_timestamp": "2025-06-07T17:22:45.055Z",
    "source_name": "google",
    "source_query": "Irrigation Equipment",
    "source_country": "PL",
    "country": "Poland",
    "state": "Greater Poland Voivodeship",
    "city": "Kraszewice"
  },
  {
    "source_id": "ChIJC7RwOIqWGkcRH5NVWb3deiQ",
    "name": "PSB Mrówka",
    "category": "PSB Mrówka",
    "formatted_address": "4,4(54)",
    "phone_number": "+48627312465",
    "source_url": "https://www.google.com/maps/place/PSB+Mr%C3%B3wka/data=!4m7!3m6!1s0x471a968a3870b40b:0x247addbd5955931f!8m2!3d51.5155829!4d18.225094!16s%2Fg%2F11fk8zc1vd!19sChIJC7RwOIqWGkcRH5NVWb3deiQ?authuser=0&hl=tr&rclk=1",
    "website_url": "",
    "rating_text": "4,4",
    "stars": null,
    "number_of_reviews": null,
    "price_level": "",
    "open_hours": "",
    "extraction_timestamp": "2025-06-07T17:22:45.057Z",
    "source_name": "google",
    "source_query": "Irrigation Equipment",
    "source_country": "PL",
    "country": "Poland",
    "state": "Greater Poland Voivodeship",
    "city": "Kraszewice"
  },
  {
    "source_id": "ChIJw5ONzhuXGkcRUf8wq-iW_Ms",
    "name": "ZUH KUBA - sklep hydrauliczny",
    "category": "ZUH KUBA - sklep hydrauliczny",
    "formatted_address": "4,2(6)",
    "phone_number": "+48600680232",
    "source_url": "https://www.google.com/maps/place/ZUH+KUBA+-+sklep+hydrauliczny/data=!4m7!3m6!1s0x471a971bce8d93c3:0xcbfc96e8ab30ff51!8m2!3d51.510563!4d18.16125!16s%2Fg%2F11pz3s_h1y!19sChIJw5ONzhuXGkcRUf8wq-iW_Ms?authuser=0&hl=tr&rclk=1",
    "website_url": "",
    "rating_text": "4,2",
    "stars": null,
    "number_of_reviews": null,
    "price_level": "",
    "open_hours": "",
    "extraction_timestamp": "2025-06-07T17:22:45.058Z",
    "source_name": "google",
    "source_query": "Irrigation Equipment",
    "source_country": "PL",
    "country": "Poland",
    "state": "Greater Poland Voivodeship",
    "city": "Kraszewice"
  },
  {
    "source_id": "ChIJB6y_v5J2HEcRlDfYx3xmc9M",
    "name": "Milex irrigation systems",
    "category": "Milex irrigation systems",
    "formatted_address": "4,6(37)",
    "phone_number": "+48242775222",
    "source_url": "https://www.google.com/maps/place/Milex+irrigation+systems/data=!4m7!3m6!1s0x471c7692bfbfac07:0xd373667cc7d83794!8m2!3d52.4690634!4d19.7520904!16s%2Fg%2F1w2yy67r!19sChIJB6y_v5J2HEcRlDfYx3xmc9M?authuser=0&hl=tr&rclk=1",
    "website_url": "",
    "rating_text": "4,6",
    "stars": null,
    "number_of_reviews": null,
    "price_level": "",
    "open_hours": "",
    "extraction_timestamp": "2025-06-07T17:22:45.058Z",
    "source_name": "google",
    "source_query": "Irrigation Equipment",
    "source_country": "PL",
    "country": "Poland",
    "state": "Greater Poland Voivodeship",
    "city": "Kraszewice"
  },
  {
    "source_id": "ChIJB3AhdGKWGkcRCuk1jE4gsIk",
    "name": "Lewiatan",
    "category": "Lewiatan",
    "formatted_address": "4,2(24)",
    "phone_number": "",
    "source_url": "https://www.google.com/maps/place/Lewiatan/data=!4m7!3m6!1s0x471a966274217007:0x89b0204e8c35e90a!8m2!3d51.5175878!4d18.2233484!16s%2Fg%2F11c2p9tc7h!19sChIJB3AhdGKWGkcRCuk1jE4gsIk?authuser=0&hl=tr&rclk=1",
    "website_url": "",
    "rating_text": "4,2",
    "stars": null,
    "number_of_reviews": null,
    "price_level": "",
    "open_hours": "",
    "extraction_timestamp": "2025-06-07T17:22:45.059Z",
    "source_name": "google",
    "source_query": "Irrigation Equipment",
    "source_country": "PL",
    "country": "Poland",
    "state": "Greater Poland Voivodeship",
    "city": "Kraszewice"
  },
  {
    "source_id": "ChIJMbI0vWyXGkcRr2yjTK-ECA4",
    "name": "Dino",
    "category": "Dino",
    "formatted_address": "4,3(121)",
    "phone_number": "",
    "source_url": "https://www.google.com/maps/place/Dino/data=!4m7!3m6!1s0x471a976cbd34b231:0xe0884af4ca36caf!8m2!3d51.5143692!4d18.2278712!16s%2Fg%2F11f5tbq5bp!19sChIJMbI0vWyXGkcRr2yjTK-ECA4?authuser=0&hl=tr&rclk=1",
    "website_url": "",
    "rating_text": "4,3",
    "stars": null,
    "number_of_reviews": null,
    "price_level": "",
    "open_hours": "",
    "extraction_timestamp": "2025-06-07T17:22:45.059Z",
    "source_name": "google",
    "source_query": "Irrigation Equipment",
    "source_country": "PL",
    "country": "Poland",
    "state": "Greater Poland Voivodeship",
    "city": "Kraszewice"
  },
  {
    "source_id": "ChIJMxC3GuaXGkcRN8A5lx6zO-U",
    "name": "Biedronka",
    "category": "Biedronka",
    "formatted_address": "4,2(39)",
    "phone_number": "+48800080010",
    "source_url": "https://www.google.com/maps/place/Biedronka/data=!4m7!3m6!1s0x471a97e61ab71033:0xe53bb31e9739c037!8m2!3d51.5135967!4d18.229!16s%2Fg%2F11vk2tf868!19sChIJMxC3GuaXGkcRN8A5lx6zO-U?authuser=0&hl=tr&rclk=1",
    "website_url": "",
    "rating_text": "4,2",
    "stars": null,
    "number_of_reviews": null,
    "price_level": "",
    "open_hours": "",
    "extraction_timestamp": "2025-06-07T17:22:45.060Z",
    "source_name": "google",
    "source_query": "Irrigation Equipment",
    "source_country": "PL",
    "country": "Poland",
    "state": "Greater Poland Voivodeship",
    "city": "Kraszewice"
  },
  {
    "source_id": "ChIJl7Xg2ZiXGkcRPpIi9eZd4t4",
    "name": "Koniczynka Sklep",
    "category": "Koniczynka Sklep",
    "formatted_address": "4,2(31)",
    "phone_number": "",
    "source_url": "https://www.google.com/maps/place/Koniczynka+Sklep/data=!4m7!3m6!1s0x471a9798d9e0b597:0xdee25de6f522923e!8m2!3d51.5039913!4d18.2690775!16s%2Fg%2F11fpfrtrp8!19sChIJl7Xg2ZiXGkcRPpIi9eZd4t4?authuser=0&hl=tr&rclk=1",
    "website_url": "",
    "rating_text": "4,2",
    "stars": null,
    "number_of_reviews": null,
    "price_level": "",
    "open_hours": "",
    "extraction_timestamp": "2025-06-07T17:22:45.060Z",
    "source_name": "google",
    "source_query": "Irrigation Equipment",
    "source_country": "PL",
    "country": "Poland",
    "state": "Greater Poland Voivodeship",
    "city": "Kraszewice"
  },
  {
    "source_id": "ChIJd9d4qrWWGkcRqNWzr7TqaE4",
    "name": "Kowalczyk Ryszard. Sklep spożywczy",
    "category": "Kowalczyk Ryszard. Sklep spożywczy",
    "formatted_address": "",
    "phone_number": "+48627312103",
    "source_url": "https://www.google.com/maps/place/Kowalczyk+Ryszard.+Sklep+spo%C5%BCywczy/data=!4m7!3m6!1s0x471a96b5aa78d777:0x4e68eab4afb3d5a8!8m2!3d51.5152815!4d18.2257803!16s%2Fg%2F1hc1gf8jk!19sChIJd9d4qrWWGkcRqNWzr7TqaE4?authuser=0&hl=tr&rclk=1",
    "website_url": "",
    "rating_text": "",
    "stars": null,
    "number_of_reviews": null,
    "price_level": "",
    "open_hours": "",
    "extraction_timestamp": "2025-06-07T17:22:45.060Z",
    "source_name": "google",
    "source_query": "Irrigation Equipment",
    "source_country": "PL",
    "country": "Poland",
    "state": "Greater Poland Voivodeship",
    "city": "Kraszewice"
  },
  {
    "source_id": "ChIJ76WAmPBgGUcRnx47bXjXTwU",
    "name": "Agrofim Poland Sp. z o.o.",
    "category": "Agrofim Poland Sp. z o.o.",
    "formatted_address": "3,8(6)",
    "phone_number": "+48468332266",
    "source_url": "https://www.google.com/maps/place/Agrofim+Poland+Sp.+z+o.o./data=!4m7!3m6!1s0x471960f09880a5ef:0x54fd7786d3b1e9f!8m2!3d51.9616303!4d20.1543898!16s%2Fg%2F1tdnjw7b!19sChIJ76WAmPBgGUcRnx47bXjXTwU?authuser=0&hl=tr&rclk=1",
    "website_url": "",
    "rating_text": "3,8",
    "stars": null,
    "number_of_reviews": null,
    "price_level": "",
    "open_hours": "",
    "extraction_timestamp": "2025-06-07T17:22:45.061Z",
    "source_name": "google",
    "source_query": "Irrigation Equipment",
    "source_country": "PL",
    "country": "Poland",
    "state": "Greater Poland Voivodeship",
    "city": "Kraszewice"
  }
]
