[
  {
    "source_id": "ChIJLSex-ApzBUcRCpj8De0_1NY",
    "name": "Agritech Techniczne Wyposażenie Rolnictwa",
    "category": "Agritech Techniczne Wyposażenie Rolnictwa",
    "formatted_address": "5,0(59)",
    "phone_number": "+48669738934",
    "source_url": "https://www.google.com/maps/place/Agritech+Techniczne+Wyposa%C5%BCenie+Rolnictwa/data=!4m7!3m6!1s0x4705730af8b1272d:0xd6d43fed0dfc980a!8m2!3d51.7740263!4d16.9777365!16s%2Fg%2F11h08qlbkb!19sChIJLSex-ApzBUcRCpj8De0_1NY?authuser=0&hl=tr&rclk=1",
    "website_url": "https://agritech24.pl/",
    "rating_text": "5,0",
    "stars": null,
    "number_of_reviews": null,
    "price_level": "",
    "open_hours": "",
    "extraction_timestamp": "2025-06-07T17:19:35.580Z",
    "source_name": "google",
    "source_query": "Irrigation Equipment",
    "source_country": "PL",
    "country": "Poland",
    "state": "Greater Poland Voivodeship",
    "city": "Krobia"
  },
  {
    "source_id": "ChIJ8QdYDIBzBUcRLirZGsAgwqM",
    "name": "Elthermo",
    "category": "Elthermo",
    "formatted_address": "4,8(16)",
    "phone_number": "+48602356303",
    "source_url": "https://www.google.com/maps/place/Elthermo/data=!4m7!3m6!1s0x470573800c5807f1:0xa3c220c01ad92a2e!8m2!3d51.767523!4d16.986842!16s%2Fg%2F11jh94s7sn!19sChIJ8QdYDIBzBUcRLirZGsAgwqM?authuser=0&hl=tr&rclk=1",
    "website_url": "http://elthermo.pl/",
    "rating_text": "4,8",
    "stars": null,
    "number_of_reviews": null,
    "price_level": "",
    "open_hours": "",
    "extraction_timestamp": "2025-06-07T17:19:35.580Z",
    "source_name": "google",
    "source_query": "Irrigation Equipment",
    "source_country": "PL",
    "country": "Poland",
    "state": "Greater Poland Voivodeship",
    "city": "Krobia"
  },
  {
    "source_id": "ChIJsRpwEpVzBUcR9qJ53ETOynU",
    "name": "TECH-FARM Przemysław Olejniczak",
    "category": "TECH-FARM Przemysław Olejniczak",
    "formatted_address": "4,0(5)",
    "phone_number": "+48663317689",
    "source_url": "https://www.google.com/maps/place/TECH-FARM+Przemys%C5%82aw+Olejniczak/data=!4m7!3m6!1s0x4705739512701ab1:0x75cace44dc79a2f6!8m2!3d51.7612804!4d16.9670054!16s%2Fg%2F11j7yvq025!19sChIJsRpwEpVzBUcR9qJ53ETOynU?authuser=0&hl=tr&rclk=1",
    "website_url": "",
    "rating_text": "4,0",
    "stars": null,
    "number_of_reviews": null,
    "price_level": "",
    "open_hours": "",
    "extraction_timestamp": "2025-06-07T17:19:35.581Z",
    "source_name": "google",
    "source_query": "Irrigation Equipment",
    "source_country": "PL",
    "country": "Poland",
    "state": "Greater Poland Voivodeship",
    "city": "Krobia"
  },
  {
    "source_id": "ChIJTVFB9_RyBUcR1KQwqSbHfAY",
    "name": "Agro-Instal",
    "category": "Agro-Instal",
    "formatted_address": "4,5(14)",
    "phone_number": "+48655711284",
    "source_url": "https://www.google.com/maps/place/Agro-Instal/data=!4m7!3m6!1s0x470572f4f741514d:0x67cc726a930a4d4!8m2!3d51.8596076!4d16.8422251!16s%2Fg%2F1tglxpk0!19sChIJTVFB9_RyBUcR1KQwqSbHfAY?authuser=0&hl=tr&rclk=1",
    "website_url": "http://www.agroinstal.com.pl/",
    "rating_text": "4,5",
    "stars": null,
    "number_of_reviews": null,
    "price_level": "",
    "open_hours": "",
    "extraction_timestamp": "2025-06-07T17:19:35.581Z",
    "source_name": "google",
    "source_query": "Irrigation Equipment",
    "source_country": "PL",
    "country": "Poland",
    "state": "Greater Poland Voivodeship",
    "city": "Krobia"
  },
  {
    "source_id": "ChIJKbPvF8ZzBUcRUunmcIDT9YA",
    "name": "Instalatorstwo sanitarne c.o. wod- kan i gazowe usługi hydrauliczne",
    "category": "Instalatorstwo sanitarne c.o. wod- kan i gazowe usługi hydrauliczne",
    "formatted_address": "3,0(2)",
    "phone_number": "+48607380033",
    "source_url": "https://www.google.com/maps/place/Instalatorstwo+sanitarne+c.o.+wod-+kan+i+gazowe+us%C5%82ugi+hydrauliczne/data=!4m7!3m6!1s0x470573c617efb329:0x80f5d38070e6e952!8m2!3d51.773913!4d16.981163!16s%2Fg%2F11jgcq0_22!19sChIJKbPvF8ZzBUcRUunmcIDT9YA?authuser=0&hl=tr&rclk=1",
    "website_url": "",
    "rating_text": "3,0",
    "stars": null,
    "number_of_reviews": null,
    "price_level": "",
    "open_hours": "",
    "extraction_timestamp": "2025-06-07T17:19:35.582Z",
    "source_name": "google",
    "source_query": "Irrigation Equipment",
    "source_country": "PL",
    "country": "Poland",
    "state": "Greater Poland Voivodeship",
    "city": "Krobia"
  },
  {
    "source_id": "ChIJiyBzo6dzBUcR3-mdrsaJCfs",
    "name": "Brecha Instal Kompleksowe Uslugi Instalacyjne",
    "category": "Brecha Instal Kompleksowe Uslugi Instalacyjne",
    "formatted_address": "5,0(7)",
    "phone_number": "+48723886270",
    "source_url": "https://www.google.com/maps/place/Brecha+Instal+Kompleksowe+Uslugi+Instalacyjne/data=!4m7!3m6!1s0x470573a7a373208b:0xfb0989c6ae9de9df!8m2!3d51.7739236!4d16.9811744!16s%2Fg%2F11wvn214bv!19sChIJiyBzo6dzBUcR3-mdrsaJCfs?authuser=0&hl=tr&rclk=1",
    "website_url": "",
    "rating_text": "5,0",
    "stars": null,
    "number_of_reviews": null,
    "price_level": "",
    "open_hours": "",
    "extraction_timestamp": "2025-06-07T17:19:35.582Z",
    "source_name": "google",
    "source_query": "Irrigation Equipment",
    "source_country": "PL",
    "country": "Poland",
    "state": "Greater Poland Voivodeship",
    "city": "Krobia"
  }
]
