[
  {
    "source_id": "ChIJJUPKRtK2BkcRosl5upRD0FU",
    "name": "Targowisko Miejskie",
    "category": "Targowisko Miejskie",
    "formatted_address": "4,2(66)",
    "phone_number": "",
    "source_url": "https://www.google.com/maps/place/Targowisko+Miejskie/data=!4m7!3m6!1s0x4706b6d246ca4325:0x55d04394ba79c9a2!8m2!3d52.8782139!4d16.0137887!16s%2Fg%2F1q5byq6fv!19sChIJJUPKRtK2BkcRosl5upRD0FU?authuser=0&hl=tr&rclk=1",
    "website_url": "",
    "rating_text": "4,2",
    "stars": null,
    "number_of_reviews": null,
    "price_level": "",
    "open_hours": "",
    "extraction_timestamp": "2025-06-07T17:47:23.707Z",
    "source_name": "google",
    "source_query": "Irrigation Equipment",
    "source_country": "PL",
    "country": "Poland",
    "state": "Greater Poland Voivodeship",
    "city": "Krzyż Wielkopolski"
  },
  {
    "source_id": "ChIJb3pfdLW3BkcRZKUIZ2taLGQ",
    "name": "Hydraulika Sylwester Przybylski",
    "category": "Hydraulika Sylwester Przybylski",
    "formatted_address": "5,0(4)",
    "phone_number": "+48661242099",
    "source_url": "https://www.google.com/maps/place/Hydraulika+Sylwester+Przybylski/data=!4m7!3m6!1s0x4706b7b5745f7a6f:0x642c5a6b6708a564!8m2!3d52.888653!4d16.016687!16s%2Fg%2F11r5s1ftq6!19sChIJb3pfdLW3BkcRZKUIZ2taLGQ?authuser=0&hl=tr&rclk=1",
    "website_url": "",
    "rating_text": "5,0",
    "stars": null,
    "number_of_reviews": null,
    "price_level": "",
    "open_hours": "",
    "extraction_timestamp": "2025-06-07T17:47:23.712Z",
    "source_name": "google",
    "source_query": "Irrigation Equipment",
    "source_country": "PL",
    "country": "Poland",
    "state": "Greater Poland Voivodeship",
    "city": "Krzyż Wielkopolski"
  },
  {
    "source_id": "ChIJY1Xtrdu2BkcRYpCo-I3enlY",
    "name": "PSB Mrówka",
    "category": "PSB Mrówka",
    "formatted_address": "4,1(280)",
    "phone_number": "+48672552153",
    "source_url": "https://www.google.com/maps/place/PSB+Mr%C3%B3wka/data=!4m7!3m6!1s0x4706b6dbaded5563:0x569ede8df8a89062!8m2!3d52.8777385!4d15.9980601!16s%2Fg%2F1tjhwcb2!19sChIJY1Xtrdu2BkcRYpCo-I3enlY?authuser=0&hl=tr&rclk=1",
    "website_url": "",
    "rating_text": "4,1",
    "stars": null,
    "number_of_reviews": null,
    "price_level": "",
    "open_hours": "",
    "extraction_timestamp": "2025-06-07T17:47:23.714Z",
    "source_name": "google",
    "source_query": "Irrigation Equipment",
    "source_country": "PL",
    "country": "Poland",
    "state": "Greater Poland Voivodeship",
    "city": "Krzyż Wielkopolski"
  },
  {
    "source_id": "ChIJm-fsD9K2BkcR2TVDRAoiztw",
    "name": "Sklep ogrodniczy",
    "category": "Sklep ogrodniczy",
    "formatted_address": "3,8(12)",
    "phone_number": "+48672564342",
    "source_url": "https://www.google.com/maps/place/Sklep+ogrodniczy/data=!4m7!3m6!1s0x4706b6d20fece79b:0xdcce220a444335d9!8m2!3d52.8794655!4d16.0130145!16s%2Fg%2F1txnn4w7!19sChIJm-fsD9K2BkcR2TVDRAoiztw?authuser=0&hl=tr&rclk=1",
    "website_url": "",
    "rating_text": "3,8",
    "stars": null,
    "number_of_reviews": null,
    "price_level": "",
    "open_hours": "",
    "extraction_timestamp": "2025-06-07T17:47:23.715Z",
    "source_name": "google",
    "source_query": "Irrigation Equipment",
    "source_country": "PL",
    "country": "Poland",
    "state": "Greater Poland Voivodeship",
    "city": "Krzyż Wielkopolski"
  },
  {
    "source_id": "ChIJ63QNE9q2BkcRLAgrwYHcVx8",
    "name": "Sklep Polski",
    "category": "Sklep Polski",
    "formatted_address": "4,9(17)",
    "phone_number": "+48723973888",
    "source_url": "https://www.google.com/maps/place/Sklep+Polski/data=!4m7!3m6!1s0x4706b6da130d74eb:0x1f57dc81c12b082c!8m2!3d52.8774587!4d16.0011586!16s%2Fg%2F11jsb8dx1t!19sChIJ63QNE9q2BkcRLAgrwYHcVx8?authuser=0&hl=tr&rclk=1",
    "website_url": "",
    "rating_text": "4,9",
    "stars": null,
    "number_of_reviews": null,
    "price_level": "",
    "open_hours": "",
    "extraction_timestamp": "2025-06-07T17:47:23.717Z",
    "source_name": "google",
    "source_query": "Irrigation Equipment",
    "source_country": "PL",
    "country": "Poland",
    "state": "Greater Poland Voivodeship",
    "city": "Krzyż Wielkopolski"
  },
  {
    "source_id": "ChIJE2AiMMG3BkcRJ9ugPGKfD70",
    "name": "Sklep Wielobranżowy Marzena Burzyńska",
    "category": "Sklep Wielobranżowy Marzena Burzyńska",
    "formatted_address": "3,3(12)",
    "phone_number": "+48601311814",
    "source_url": "https://www.google.com/maps/place/Sklep+Wielobran%C5%BCowy+Marzena+Burzy%C5%84ska/data=!4m7!3m6!1s0x4706b7c130226013:0xbd0f9f623ca0db27!8m2!3d52.8849995!4d16.0136036!16s%2Fg%2F11v0tkynwv!19sChIJE2AiMMG3BkcRJ9ugPGKfD70?authuser=0&hl=tr&rclk=1",
    "website_url": "",
    "rating_text": "3,3",
    "stars": null,
    "number_of_reviews": null,
    "price_level": "",
    "open_hours": "",
    "extraction_timestamp": "2025-06-07T17:47:23.718Z",
    "source_name": "google",
    "source_query": "Irrigation Equipment",
    "source_country": "PL",
    "country": "Poland",
    "state": "Greater Poland Voivodeship",
    "city": "Krzyż Wielkopolski"
  },
  {
    "source_id": "ChIJizR5lc22BkcRHXWy-PnTgZo",
    "name": "Max ELEKTRO - DOMEL Sp.J ZYDOR",
    "category": "Max ELEKTRO - DOMEL Sp.J ZYDOR",
    "formatted_address": "4,5(11)",
    "phone_number": "+48672565621",
    "source_url": "https://www.google.com/maps/place/Max+ELEKTRO+-+DOMEL+Sp.J+ZYDOR/data=!4m7!3m6!1s0x4706b6cd9579348b:0x9a81d3f9f8b2751d!8m2!3d52.8788632!4d16.0138133!16s%2Fg%2F1tdwz7b8!19sChIJizR5lc22BkcRHXWy-PnTgZo?authuser=0&hl=tr&rclk=1",
    "website_url": "",
    "rating_text": "4,5",
    "stars": null,
    "number_of_reviews": null,
    "price_level": "",
    "open_hours": "",
    "extraction_timestamp": "2025-06-07T17:47:23.720Z",
    "source_name": "google",
    "source_query": "Irrigation Equipment",
    "source_country": "PL",
    "country": "Poland",
    "state": "Greater Poland Voivodeship",
    "city": "Krzyż Wielkopolski"
  },
  {
    "source_id": "ChIJL9oAZCa3BkcRazQp-zCcej8",
    "name": "Odido \"Kacper\" Edyta Poznaniak- Helak",
    "category": "Odido \"Kacper\" Edyta Poznaniak- Helak",
    "formatted_address": "3,7(10)",
    "phone_number": "",
    "source_url": "https://www.google.com/maps/place/Odido+%22Kacper%22+Edyta+Poznaniak-+Helak/data=!4m7!3m6!1s0x4706b7266400da2f:0x3f7a9c30fb29346b!8m2!3d52.879567!4d16.0024519!16s%2Fg%2F11hnwnrqw1!19sChIJL9oAZCa3BkcRazQp-zCcej8?authuser=0&hl=tr&rclk=1",
    "website_url": "",
    "rating_text": "3,7",
    "stars": null,
    "number_of_reviews": null,
    "price_level": "",
    "open_hours": "",
    "extraction_timestamp": "2025-06-07T17:47:23.721Z",
    "source_name": "google",
    "source_query": "Irrigation Equipment",
    "source_country": "PL",
    "country": "Poland",
    "state": "Greater Poland Voivodeship",
    "city": "Krzyż Wielkopolski"
  },
  {
    "source_id": "ChIJd2pCDti2BkcRUod-4H5EZtA",
    "name": "Wilk Tours. Wilk-Gapińska J.",
    "category": "Wilk Tours. Wilk-Gapińska J.",
    "formatted_address": "4,2(6)",
    "phone_number": "+48607623275",
    "source_url": "https://www.google.com/maps/place/Wilk+Tours.+Wilk-Gapi%C5%84ska+J./data=!4m7!3m6!1s0x4706b6d80e426a77:0xd066447ee07e8752!8m2!3d52.8695996!4d15.9992549!16s%2Fg%2F1hc5287ck!19sChIJd2pCDti2BkcRUod-4H5EZtA?authuser=0&hl=tr&rclk=1",
    "website_url": "",
    "rating_text": "4,2",
    "stars": null,
    "number_of_reviews": null,
    "price_level": "",
    "open_hours": "",
    "extraction_timestamp": "2025-06-07T17:47:23.723Z",
    "source_name": "google",
    "source_query": "Irrigation Equipment",
    "source_country": "PL",
    "country": "Poland",
    "state": "Greater Poland Voivodeship",
    "city": "Krzyż Wielkopolski"
  },
  {
    "source_id": "ChIJUfn2Ig35A0cREW9fZ4029UM",
    "name": "IMTechnika sp. z o.o.",
    "category": "IMTechnika sp. z o.o.",
    "formatted_address": "4,4(17)",
    "phone_number": "+48883820388",
    "source_url": "https://www.google.com/maps/place/IMTechnika+sp.+z+o.o./data=!4m7!3m6!1s0x4703f90d22f6f951:0x43f5368d675f6f11!8m2!3d52.9756271!4d16.657836!16s%2Fg%2F11bw48_6mg!19sChIJUfn2Ig35A0cREW9fZ4029UM?authuser=0&hl=tr&rclk=1",
    "website_url": "",
    "rating_text": "4,4",
    "stars": null,
    "number_of_reviews": null,
    "price_level": "",
    "open_hours": "",
    "extraction_timestamp": "2025-06-07T17:47:23.724Z",
    "source_name": "google",
    "source_query": "Irrigation Equipment",
    "source_country": "PL",
    "country": "Poland",
    "state": "Greater Poland Voivodeship",
    "city": "Krzyż Wielkopolski"
  },
  {
    "source_id": "ChIJ8ZGBZNK2BkcRuagUBk71Lbg",
    "name": "Odido Skrzypiec",
    "category": "Odido Skrzypiec",
    "formatted_address": "3,9(21)",
    "phone_number": "+48672564038",
    "source_url": "https://www.google.com/maps/place/Odido+Skrzypiec/data=!4m7!3m6!1s0x4706b6d2648191f1:0xb82df54e0614a8b9!8m2!3d52.878851!4d16.0151803!16s%2Fg%2F1tgpr9vq!19sChIJ8ZGBZNK2BkcRuagUBk71Lbg?authuser=0&hl=tr&rclk=1",
    "website_url": "",
    "rating_text": "3,9",
    "stars": null,
    "number_of_reviews": null,
    "price_level": "",
    "open_hours": "",
    "extraction_timestamp": "2025-06-07T17:47:23.725Z",
    "source_name": "google",
    "source_query": "Irrigation Equipment",
    "source_country": "PL",
    "country": "Poland",
    "state": "Greater Poland Voivodeship",
    "city": "Krzyż Wielkopolski"
  },
  {
    "source_id": "ChIJXZsOsSa3BkcRnn5POy0WUck",
    "name": "Pepco",
    "category": "Pepco",
    "formatted_address": "4,6(140)",
    "phone_number": "",
    "source_url": "https://www.google.com/maps/place/Pepco/data=!4m7!3m6!1s0x4706b726b10e9b5d:0xc951162d3b4f7e9e!8m2!3d52.8795341!4d16.0156836!16s%2Fg%2F11j48l44q9!19sChIJXZsOsSa3BkcRnn5POy0WUck?authuser=0&hl=tr&rclk=1",
    "website_url": "",
    "rating_text": "4,6",
    "stars": null,
    "number_of_reviews": null,
    "price_level": "",
    "open_hours": "",
    "extraction_timestamp": "2025-06-07T17:47:23.726Z",
    "source_name": "google",
    "source_query": "Irrigation Equipment",
    "source_country": "PL",
    "country": "Poland",
    "state": "Greater Poland Voivodeship",
    "city": "Krzyż Wielkopolski"
  },
  {
    "source_id": "ChIJY7gH_lS3BkcRnT3txmkQiTc",
    "name": "Hydrom - Usługi hydrauliczne i instalacje grzewcze",
    "category": "Hydrom - Usługi hydrauliczne i instalacje grzewcze",
    "formatted_address": "5,0(2)",
    "phone_number": "+48663736224",
    "source_url": "https://www.google.com/maps/place/Hydrom+-+Us%C5%82ugi+hydrauliczne+i+instalacje+grzewcze/data=!4m7!3m6!1s0x4706b754fe07b863:0x37891069c6ed3d9d!8m2!3d52.8654719!4d15.983172!16s%2Fg%2F11rdcfyvfs!19sChIJY7gH_lS3BkcRnT3txmkQiTc?authuser=0&hl=tr&rclk=1",
    "website_url": "",
    "rating_text": "5,0",
    "stars": null,
    "number_of_reviews": null,
    "price_level": "",
    "open_hours": "",
    "extraction_timestamp": "2025-06-07T17:47:23.727Z",
    "source_name": "google",
    "source_query": "Irrigation Equipment",
    "source_country": "PL",
    "country": "Poland",
    "state": "Greater Poland Voivodeship",
    "city": "Krzyż Wielkopolski"
  },
  {
    "source_id": "ChIJXYSf4XK3BkcRZVDVJCVuJdY",
    "name": "Dino",
    "category": "Dino",
    "formatted_address": "4,4(323)",
    "phone_number": "",
    "source_url": "https://www.google.com/maps/place/Dino/data=!4m7!3m6!1s0x4706b772e19f845d:0xd6256e2524d55065!8m2!3d52.8823587!4d16.0089171!16s%2Fg%2F11ghft0cbb!19sChIJXYSf4XK3BkcRZVDVJCVuJdY?authuser=0&hl=tr&rclk=1",
    "website_url": "",
    "rating_text": "4,4",
    "stars": null,
    "number_of_reviews": null,
    "price_level": "",
    "open_hours": "",
    "extraction_timestamp": "2025-06-07T17:47:23.729Z",
    "source_name": "google",
    "source_query": "Irrigation Equipment",
    "source_country": "PL",
    "country": "Poland",
    "state": "Greater Poland Voivodeship",
    "city": "Krzyż Wielkopolski"
  },
  {
    "source_id": "ChIJK4y1bs62BkcRe_TOjPEelvg",
    "name": "Sklep spożywczo-warzywny, Mitulski Zenon",
    "category": "Sklep spożywczo-warzywny, Mitulski Zenon",
    "formatted_address": "Sklep spożywczo-warzywny, Mitulski Zenon",
    "phone_number": "+48672564452",
    "source_url": "https://www.google.com/maps/place/Sklep+spo%C5%BCywczo-warzywny,+Mitulski+Zenon/data=!4m7!3m6!1s0x4706b6ce6eb58c2b:0xf8961ef18ccef47b!8m2!3d52.8808782!4d16.011446!16s%2Fg%2F1tyzxpst!19sChIJK4y1bs62BkcRe_TOjPEelvg?authuser=0&hl=tr&rclk=1",
    "website_url": "",
    "rating_text": "4,3",
    "stars": null,
    "number_of_reviews": null,
    "price_level": "",
    "open_hours": "",
    "extraction_timestamp": "2025-06-07T17:47:23.730Z",
    "source_name": "google",
    "source_query": "Irrigation Equipment",
    "source_country": "PL",
    "country": "Poland",
    "state": "Greater Poland Voivodeship",
    "city": "Krzyż Wielkopolski"
  },
  {
    "source_id": "ChIJm0hpatK2BkcR6ukOLBwZzoQ",
    "name": "Biedronka",
    "category": "Biedronka",
    "formatted_address": "3,8(761)",
    "phone_number": "+48800080010",
    "source_url": "https://www.google.com/maps/place/Biedronka/data=!4m7!3m6!1s0x4706b6d26a69489b:0x84ce191c2c0ee9ea!8m2!3d52.878559!4d16.013987!16s%2Fg%2F1jky6p0lg!19sChIJm0hpatK2BkcR6ukOLBwZzoQ?authuser=0&hl=tr&rclk=1",
    "website_url": "",
    "rating_text": "3,8",
    "stars": null,
    "number_of_reviews": null,
    "price_level": "",
    "open_hours": "",
    "extraction_timestamp": "2025-06-07T17:47:23.731Z",
    "source_name": "google",
    "source_query": "Irrigation Equipment",
    "source_country": "PL",
    "country": "Poland",
    "state": "Greater Poland Voivodeship",
    "city": "Krzyż Wielkopolski"
  },
  {
    "source_id": "ChIJlbX92Mu3BkcRlv60Bgy6Ors",
    "name": "Drogeria JAWA",
    "category": "Drogeria JAWA",
    "formatted_address": "4,7(17)",
    "phone_number": "",
    "source_url": "https://www.google.com/maps/place/Drogeria+JAWA/data=!4m7!3m6!1s0x4706b7cbd8fdb595:0xbb3aba0c06b4fe96!8m2!3d52.8795817!4d16.0154368!16s%2Fg%2F11k7crbshl!19sChIJlbX92Mu3BkcRlv60Bgy6Ors?authuser=0&hl=tr&rclk=1",
    "website_url": "",
    "rating_text": "4,7",
    "stars": null,
    "number_of_reviews": null,
    "price_level": "",
    "open_hours": "",
    "extraction_timestamp": "2025-06-07T17:47:23.732Z",
    "source_name": "google",
    "source_query": "Irrigation Equipment",
    "source_country": "PL",
    "country": "Poland",
    "state": "Greater Poland Voivodeship",
    "city": "Krzyż Wielkopolski"
  },
  {
    "source_id": "ChIJnzUu3Ke3BkcRL5Ofnc7xBZQ",
    "name": "Drogeria Rossmann",
    "category": "Drogeria Rossmann",
    "formatted_address": "4,5(55)",
    "phone_number": "+48426139700",
    "source_url": "https://www.google.com/maps/place/Drogeria+Rossmann/data=!4m7!3m6!1s0x4706b7a7dc2e359f:0x9405f1ce9d9f932f!8m2!3d52.878934!4d16.013475!16s%2Fg%2F11fqqbpfyw!19sChIJnzUu3Ke3BkcRL5Ofnc7xBZQ?authuser=0&hl=tr&rclk=1",
    "website_url": "",
    "rating_text": "4,5",
    "stars": null,
    "number_of_reviews": null,
    "price_level": "",
    "open_hours": "",
    "extraction_timestamp": "2025-06-07T17:47:23.733Z",
    "source_name": "google",
    "source_query": "Irrigation Equipment",
    "source_country": "PL",
    "country": "Poland",
    "state": "Greater Poland Voivodeship",
    "city": "Krzyż Wielkopolski"
  },
  {
    "source_id": "ChIJc5hMjs22BkcRlRO1AXDL7IQ",
    "name": "Delikatesy Centrum",
    "category": "Delikatesy Centrum",
    "formatted_address": "4,1(257) · ₺₺",
    "phone_number": "+48571404042",
    "source_url": "https://www.google.com/maps/place/Delikatesy+Centrum/data=!4m7!3m6!1s0x4706b6cd8e4c9873:0x84eccb7001b51395!8m2!3d52.8802778!4d16.0152779!16s%2Fg%2F11dxdz053g!19sChIJc5hMjs22BkcRlRO1AXDL7IQ?authuser=0&hl=tr&rclk=1",
    "website_url": "",
    "rating_text": "4,1",
    "stars": null,
    "number_of_reviews": null,
    "price_level": "",
    "open_hours": "",
    "extraction_timestamp": "2025-06-07T17:47:23.735Z",
    "source_name": "google",
    "source_query": "Irrigation Equipment",
    "source_country": "PL",
    "country": "Poland",
    "state": "Greater Poland Voivodeship",
    "city": "Krzyż Wielkopolski"
  },
  {
    "source_id": "ChIJ2z9Cjc63BkcRJskiLiEevRw",
    "name": "Lodziarnia Irys",
    "category": "Lodziarnia Irys",
    "formatted_address": "4,8(181) · zł 1–20",
    "phone_number": "",
    "source_url": "https://www.google.com/maps/place/Lodziarnia+Irys/data=!4m7!3m6!1s0x4706b7ce8d423fdb:0x1cbd1e212e22c926!8m2!3d52.8785489!4d16.0154748!16s%2Fg%2F11g2xdvy53!19sChIJ2z9Cjc63BkcRJskiLiEevRw?authuser=0&hl=tr&rclk=1",
    "website_url": "",
    "rating_text": "4,8",
    "stars": null,
    "number_of_reviews": null,
    "price_level": "",
    "open_hours": "",
    "extraction_timestamp": "2025-06-07T17:47:23.737Z",
    "source_name": "google",
    "source_query": "Irrigation Equipment",
    "source_country": "PL",
    "country": "Poland",
    "state": "Greater Poland Voivodeship",
    "city": "Krzyż Wielkopolski"
  },
  {
    "source_id": "ChIJZc6kGQfBGawRO6LJusF2Cog",
    "name": "JMEnergia - Fotowoltaika i Magazyny energii",
    "category": "JMEnergia - Fotowoltaika i Magazyny energii",
    "formatted_address": "5,0(11)",
    "phone_number": "+48888259385",
    "source_url": "https://www.google.com/maps/place/JMEnergia+-+Fotowoltaika+i+Magazyny+energii/data=!4m7!3m6!1s0xac19c10719a4ce65:0x880a76c1bac9a23b!8m2!3d52.961947!4d16.48217!16s%2Fg%2F11k3vv8nxp!19sChIJZc6kGQfBGawRO6LJusF2Cog?authuser=0&hl=tr&rclk=1",
    "website_url": "",
    "rating_text": "5,0",
    "stars": null,
    "number_of_reviews": null,
    "price_level": "",
    "open_hours": "",
    "extraction_timestamp": "2025-06-07T17:47:23.738Z",
    "source_name": "google",
    "source_query": "Irrigation Equipment",
    "source_country": "PL",
    "country": "Poland",
    "state": "Greater Poland Voivodeship",
    "city": "Krzyż Wielkopolski"
  },
  {
    "source_id": "ChIJ1zwogH-5BkcRSFeZEKTqbEs",
    "name": "STIMASZ Stanisław Purzycki",
    "category": "STIMASZ Stanisław Purzycki",
    "formatted_address": "5,0(6)",
    "phone_number": "+48601829052",
    "source_url": "https://www.google.com/maps/place/STIMASZ+Stanis%C5%82aw+Purzycki/data=!4m7!3m6!1s0x4706b97f80283cd7:0x4b6ceaa410995748!8m2!3d52.8208996!4d15.9493562!16s%2Fg%2F11nt0fyrpz!19sChIJ1zwogH-5BkcRSFeZEKTqbEs?authuser=0&hl=tr&rclk=1",
    "website_url": "",
    "rating_text": "5,0",
    "stars": null,
    "number_of_reviews": null,
    "price_level": "",
    "open_hours": "",
    "extraction_timestamp": "2025-06-07T17:47:23.739Z",
    "source_name": "google",
    "source_query": "Irrigation Equipment",
    "source_country": "PL",
    "country": "Poland",
    "state": "Greater Poland Voivodeship",
    "city": "Krzyż Wielkopolski"
  },
  {
    "source_id": "ChIJzwAivt76A0cRBawpYQms8zM",
    "name": "Pontex-Poniccy sp.j.",
    "category": "Pontex-Poniccy sp.j.",
    "formatted_address": "4,5(61)",
    "phone_number": "+48672840052",
    "source_url": "https://www.google.com/maps/place/Pontex-Poniccy+sp.j./data=!4m7!3m6!1s0x4703fadebe2200cf:0x33f3ac096129ac05!8m2!3d53.0586219!4d16.7305301!16s%2Fg%2F1tfrfgd0!19sChIJzwAivt76A0cRBawpYQms8zM?authuser=0&hl=tr&rclk=1",
    "website_url": "",
    "rating_text": "4,5",
    "stars": null,
    "number_of_reviews": null,
    "price_level": "",
    "open_hours": "",
    "extraction_timestamp": "2025-06-07T17:47:23.740Z",
    "source_name": "google",
    "source_query": "Irrigation Equipment",
    "source_country": "PL",
    "country": "Poland",
    "state": "Greater Poland Voivodeship",
    "city": "Krzyż Wielkopolski"
  },
  {
    "source_id": "ChIJaQc4RucIBEcRrrfb0ifVLZI",
    "name": "NextStepPools Budowa basenów",
    "category": "NextStepPools Budowa basenów",
    "formatted_address": "4,4(9)",
    "phone_number": "+48513335659",
    "source_url": "https://www.google.com/maps/place/NextStepPools+Budowa+basen%C3%B3w/data=!4m7!3m6!1s0x470408e746380769:0x922dd527d2dbb7ae!8m2!3d52.837974!4d16.7083478!16s%2Fg%2F11h1hp3nh8!19sChIJaQc4RucIBEcRrrfb0ifVLZI?authuser=0&hl=tr&rclk=1",
    "website_url": "",
    "rating_text": "4,4",
    "stars": null,
    "number_of_reviews": null,
    "price_level": "",
    "open_hours": "",
    "extraction_timestamp": "2025-06-07T17:47:23.741Z",
    "source_name": "google",
    "source_query": "Irrigation Equipment",
    "source_country": "PL",
    "country": "Poland",
    "state": "Greater Poland Voivodeship",
    "city": "Krzyż Wielkopolski"
  },
  {
    "source_id": "ChIJm4psMixXAUcResN4BHw6idY",
    "name": "Professor Usługi Ziemne",
    "category": "Professor Usługi Ziemne",
    "formatted_address": "5,0(43)",
    "phone_number": "+48666636668",
    "source_url": "https://www.google.com/maps/place/Professor+Us%C5%82ugi+Ziemne/data=!4m7!3m6!1s0x4701572c326c8a9b:0xd6893a7c0478c37a!8m2!3d53.0496625!4d16.4658055!16s%2Fg%2F11mvnh0dy1!19sChIJm4psMixXAUcResN4BHw6idY?authuser=0&hl=tr&rclk=1",
    "website_url": "",
    "rating_text": "5,0",
    "stars": null,
    "number_of_reviews": null,
    "price_level": "",
    "open_hours": "",
    "extraction_timestamp": "2025-06-07T17:47:23.742Z",
    "source_name": "google",
    "source_query": "Irrigation Equipment",
    "source_country": "PL",
    "country": "Poland",
    "state": "Greater Poland Voivodeship",
    "city": "Krzyż Wielkopolski"
  },
  {
    "source_id": "ChIJ5YhboWNXAUcRc5ZEhn_qApI",
    "name": "Action Trzcianka",
    "category": "Action Trzcianka",
    "formatted_address": "4,5(39)",
    "phone_number": "+48326305898",
    "source_url": "https://www.google.com/maps/place/Action+Trzcianka/data=!4m7!3m6!1s0x47015763a15b88e5:0x9202ea7f86449673!8m2!3d53.0408522!4d16.4657931!16s%2Fg%2F11jyy_5zvy!19sChIJ5YhboWNXAUcRc5ZEhn_qApI?authuser=0&hl=tr&rclk=1",
    "website_url": "",
    "rating_text": "4,5",
    "stars": null,
    "number_of_reviews": null,
    "price_level": "",
    "open_hours": "",
    "extraction_timestamp": "2025-06-07T17:47:23.743Z",
    "source_name": "google",
    "source_query": "Irrigation Equipment",
    "source_country": "PL",
    "country": "Poland",
    "state": "Greater Poland Voivodeship",
    "city": "Krzyż Wielkopolski"
  }
]
