[
  {
    "source_id": "ChIJM8632fSfBUcRxb6JiOtd8pU",
    "name": "J.M.D Partner Serwis Pomp",
    "category": "J.M.D Partner Serwis Pomp",
    "formatted_address": "5,0(3)",
    "phone_number": "+48728310887",
    "source_url": "https://www.google.com/maps/place/J.M.D+Partner+Serwis+Pomp/data=!4m7!3m6!1s0x47059ff4d9b7ce33:0x95f25deb8889bec5!8m2!3d51.9725571!4d16.8275812!16s%2Fg%2F11sbl2ngqc!19sChIJM8632fSfBUcRxb6JiOtd8pU?authuser=0&hl=tr&rclk=1",
    "website_url": "",
    "rating_text": "5,0",
    "stars": null,
    "number_of_reviews": null,
    "price_level": "",
    "open_hours": "",
    "extraction_timestamp": "2025-06-07T17:57:58.546Z",
    "source_name": "google",
    "source_query": "Irrigation Equipment",
    "source_country": "PL",
    "country": "Poland",
    "state": "Greater Poland Voivodeship",
    "city": "Krzywiń"
  },
  {
    "source_id": "ChIJpSbXGcqnBUcRbr5JGfsdSMo",
    "name": "PSB Mrówka",
    "category": "PSB Mrówka",
    "formatted_address": "4,5(82)",
    "phone_number": "+48500830870",
    "source_url": "https://www.google.com/maps/place/PSB+Mr%C3%B3wka/data=!4m7!3m6!1s0x4705a7ca19d726a5:0xca481dfb1949be6e!8m2!3d51.960998!4d16.8181787!16s%2Fg%2F11n78m7xkl!19sChIJpSbXGcqnBUcRbr5JGfsdSMo?authuser=0&hl=tr&rclk=1",
    "website_url": "",
    "rating_text": "4,5",
    "stars": null,
    "number_of_reviews": null,
    "price_level": "",
    "open_hours": "",
    "extraction_timestamp": "2025-06-07T17:57:58.559Z",
    "source_name": "google",
    "source_query": "Irrigation Equipment",
    "source_country": "PL",
    "country": "Poland",
    "state": "Greater Poland Voivodeship",
    "city": "Krzywiń"
  },
  {
    "source_id": "ChIJLSex-ApzBUcRCpj8De0_1NY",
    "name": "Agritech Techniczne Wyposażenie Rolnictwa",
    "category": "Agritech Techniczne Wyposażenie Rolnictwa",
    "formatted_address": "5,0(59)",
    "phone_number": "+48669738934",
    "source_url": "https://www.google.com/maps/place/Agritech+Techniczne+Wyposa%C5%BCenie+Rolnictwa/data=!4m7!3m6!1s0x4705730af8b1272d:0xd6d43fed0dfc980a!8m2!3d51.7740263!4d16.9777365!16s%2Fg%2F11h08qlbkb!19sChIJLSex-ApzBUcRCpj8De0_1NY?authuser=0&hl=tr&rclk=1",
    "website_url": "",
    "rating_text": "5,0",
    "stars": null,
    "number_of_reviews": null,
    "price_level": "",
    "open_hours": "",
    "extraction_timestamp": "2025-06-07T17:57:58.560Z",
    "source_name": "google",
    "source_query": "Irrigation Equipment",
    "source_country": "PL",
    "country": "Poland",
    "state": "Greater Poland Voivodeship",
    "city": "Krzywiń"
  },
  {
    "source_id": "ChIJJX4kdP6oBUcRgBCQ2j4_m7g",
    "name": "INSTAL-FILTER SA Industrial Systems Air Protection",
    "category": "INSTAL-FILTER SA Industrial Systems Air Protection",
    "formatted_address": "3,3(10)",
    "phone_number": "+48655351200",
    "source_url": "https://www.google.com/maps/place/INSTAL-FILTER+SA+Industrial+Systems+Air+Protection/data=!4m7!3m6!1s0x4705a8fe74247e25:0xb89b3f3eda901080!8m2!3d52.0898624!4d16.6636458!16s%2Fg%2F11c52ybp21!19sChIJJX4kdP6oBUcRgBCQ2j4_m7g?authuser=0&hl=tr&rclk=1",
    "website_url": "",
    "rating_text": "3,3",
    "stars": null,
    "number_of_reviews": null,
    "price_level": "",
    "open_hours": "",
    "extraction_timestamp": "2025-06-07T17:57:58.561Z",
    "source_name": "google",
    "source_query": "Irrigation Equipment",
    "source_country": "PL",
    "country": "Poland",
    "state": "Greater Poland Voivodeship",
    "city": "Krzywiń"
  },
  {
    "source_id": "ChIJB6y_v5J2HEcRlDfYx3xmc9M",
    "name": "Milex irrigation systems",
    "category": "Milex irrigation systems",
    "formatted_address": "4,6(37)",
    "phone_number": "+48242775222",
    "source_url": "https://www.google.com/maps/place/Milex+irrigation+systems/data=!4m7!3m6!1s0x471c7692bfbfac07:0xd373667cc7d83794!8m2!3d52.4690634!4d19.7520904!16s%2Fg%2F1w2yy67r!19sChIJB6y_v5J2HEcRlDfYx3xmc9M?authuser=0&hl=tr&rclk=1",
    "website_url": "",
    "rating_text": "4,6",
    "stars": null,
    "number_of_reviews": null,
    "price_level": "",
    "open_hours": "",
    "extraction_timestamp": "2025-06-07T17:57:58.562Z",
    "source_name": "google",
    "source_query": "Irrigation Equipment",
    "source_country": "PL",
    "country": "Poland",
    "state": "Greater Poland Voivodeship",
    "city": "Krzywiń"
  },
  {
    "source_id": "ChIJp5rJ3KSnBUcR9o_8CMzutOU",
    "name": "Alkohole Konesera",
    "category": "Alkohole Konesera",
    "formatted_address": "4,6(23)",
    "phone_number": "+48660780561",
    "source_url": "https://www.google.com/maps/place/Alkohole+Konesera/data=!4m7!3m6!1s0x4705a7a4dcc99aa7:0xe5b4eecc08fc8ff6!8m2!3d51.961373!4d16.8188245!16s%2Fg%2F11h4tpw_sz!19sChIJp5rJ3KSnBUcR9o_8CMzutOU?authuser=0&hl=tr&rclk=1",
    "website_url": "",
    "rating_text": "4,6",
    "stars": null,
    "number_of_reviews": null,
    "price_level": "",
    "open_hours": "",
    "extraction_timestamp": "2025-06-07T17:57:58.563Z",
    "source_name": "google",
    "source_query": "Irrigation Equipment",
    "source_country": "PL",
    "country": "Poland",
    "state": "Greater Poland Voivodeship",
    "city": "Krzywiń"
  },
  {
    "source_id": "ChIJAf0CKjVTBEcRDQ_IkjLPGKY",
    "name": "caniLOVE - centrum zaopatrzenia hodowców psów",
    "category": "caniLOVE - centrum zaopatrzenia hodowców psów",
    "formatted_address": "4,0(72)",
    "phone_number": "+48600189631",
    "source_url": "https://www.google.com/maps/place/caniLOVE+-+centrum+zaopatrzenia+hodowc%C3%B3w+ps%C3%B3w/data=!4m7!3m6!1s0x470453352a02fd01:0xa618cf3292c80f0d!8m2!3d51.9558843!4d16.8251071!16s%2Fg%2F11h6rrzfrw!19sChIJAf0CKjVTBEcRDQ_IkjLPGKY?authuser=0&hl=tr&rclk=1",
    "website_url": "",
    "rating_text": "4,0",
    "stars": null,
    "number_of_reviews": null,
    "price_level": "",
    "open_hours": "",
    "extraction_timestamp": "2025-06-07T17:57:58.564Z",
    "source_name": "google",
    "source_query": "Irrigation Equipment",
    "source_country": "PL",
    "country": "Poland",
    "state": "Greater Poland Voivodeship",
    "city": "Krzywiń"
  },
  {
    "source_id": "ChIJKasctIS5BUcReGZjmggxnME",
    "name": "Firma Handlowa RYNMAR Tadeusz Cichoszewski",
    "category": "Firma Handlowa RYNMAR Tadeusz Cichoszewski",
    "formatted_address": "4,8(4)",
    "phone_number": "+48655180598",
    "source_url": "https://www.google.com/maps/place/Firma+Handlowa+RYNMAR+Tadeusz+Cichoszewski/data=!4m7!3m6!1s0x4705b984b41cab29:0xc19c31089a636678!8m2!3d52.0159304!4d16.5205747!16s%2Fg%2F1tlc6s5w!19sChIJKasctIS5BUcReGZjmggxnME?authuser=0&hl=tr&rclk=1",
    "website_url": "",
    "rating_text": "4,8",
    "stars": null,
    "number_of_reviews": null,
    "price_level": "",
    "open_hours": "",
    "extraction_timestamp": "2025-06-07T17:57:58.566Z",
    "source_name": "google",
    "source_query": "Irrigation Equipment",
    "source_country": "PL",
    "country": "Poland",
    "state": "Greater Poland Voivodeship",
    "city": "Krzywiń"
  },
  {
    "source_id": "ChIJ8aUjHvymBUcR259rBon-17k",
    "name": "Biedronka",
    "category": "Biedronka",
    "formatted_address": "4,1(389)",
    "phone_number": "+48800080010",
    "source_url": "https://www.google.com/maps/place/Biedronka/data=!4m7!3m6!1s0x4705a6fc1e23a5f1:0xb9d7fe89066b9fdb!8m2!3d51.9611444!4d16.8167329!16s%2Fg%2F11b5wcsz1n!19sChIJ8aUjHvymBUcR259rBon-17k?authuser=0&hl=tr&rclk=1",
    "website_url": "",
    "rating_text": "4,1",
    "stars": null,
    "number_of_reviews": null,
    "price_level": "",
    "open_hours": "",
    "extraction_timestamp": "2025-06-07T17:57:58.567Z",
    "source_name": "google",
    "source_query": "Irrigation Equipment",
    "source_country": "PL",
    "country": "Poland",
    "state": "Greater Poland Voivodeship",
    "city": "Krzywiń"
  },
  {
    "source_id": "ChIJUdwhqgOYBUcR3jwtTyYHSx4",
    "name": "Hydro-Partner Sp. z o.o.",
    "category": "Hydro-Partner Sp. z o.o.",
    "formatted_address": "4,6(40)",
    "phone_number": "+48655252850",
    "source_url": "https://www.google.com/maps/place/Hydro-Partner+Sp.+z+o.o./data=!4m7!3m6!1s0x47059803aa21dc51:0x1e4b07264f2d3cde!8m2!3d51.8630159!4d16.5752719!16s%2Fg%2F1vgw7b90!19sChIJUdwhqgOYBUcR3jwtTyYHSx4?authuser=0&hl=tr&rclk=1",
    "website_url": "",
    "rating_text": "4,6",
    "stars": null,
    "number_of_reviews": null,
    "price_level": "",
    "open_hours": "",
    "extraction_timestamp": "2025-06-07T17:57:58.568Z",
    "source_name": "google",
    "source_query": "Irrigation Equipment",
    "source_country": "PL",
    "country": "Poland",
    "state": "Greater Poland Voivodeship",
    "city": "Krzywiń"
  },
  {
    "source_id": "ChIJCQD6J6GnBUcRLkb__vQlisQ",
    "name": "Plaża w Krzywiniu",
    "category": "Plaża w Krzywiniu",
    "formatted_address": "4,5(39)",
    "phone_number": "",
    "source_url": "https://www.google.com/maps/place/Pla%C5%BCa+w+Krzywiniu/data=!4m7!3m6!1s0x4705a7a127fa0009:0xc48a25f4feff462e!8m2!3d51.9680399!4d16.823749!16s%2Fg%2F11gjs_gjtr!19sChIJCQD6J6GnBUcRLkb__vQlisQ?authuser=0&hl=tr&rclk=1",
    "website_url": "",
    "rating_text": "4,5",
    "stars": null,
    "number_of_reviews": null,
    "price_level": "",
    "open_hours": "",
    "extraction_timestamp": "2025-06-07T17:57:58.569Z",
    "source_name": "google",
    "source_query": "Irrigation Equipment",
    "source_country": "PL",
    "country": "Poland",
    "state": "Greater Poland Voivodeship",
    "city": "Krzywiń"
  },
  {
    "source_id": "ChIJN_H8ToanBUcR99C00aNPVaU",
    "name": "Pet Market sklep zoologiczno-wędkarski",
    "category": "Pet Market sklep zoologiczno-wędkarski",
    "formatted_address": "4,7(6)",
    "phone_number": "+48605254882",
    "source_url": "https://www.google.com/maps/place/Pet+Market+sklep+zoologiczno-w%C4%99dkarski/data=!4m7!3m6!1s0x4705a7864efcf137:0xa5554fa3d1b4d0f7!8m2!3d51.9612079!4d16.8185384!16s%2Fg%2F11s4rnkf71!19sChIJN_H8ToanBUcR99C00aNPVaU?authuser=0&hl=tr&rclk=1",
    "website_url": "",
    "rating_text": "4,7",
    "stars": null,
    "number_of_reviews": null,
    "price_level": "",
    "open_hours": "",
    "extraction_timestamp": "2025-06-07T17:57:58.570Z",
    "source_name": "google",
    "source_query": "Irrigation Equipment",
    "source_country": "PL",
    "country": "Poland",
    "state": "Greater Poland Voivodeship",
    "city": "Krzywiń"
  },
  {
    "source_id": "ChIJcTrGKACnBUcRHPzg3m1G9Ww",
    "name": "Dino",
    "category": "Dino",
    "formatted_address": "4,3(199)",
    "phone_number": "",
    "source_url": "https://www.google.com/maps/place/Dino/data=!4m7!3m6!1s0x4705a70028c63a71:0x6cf5466ddee0fc1c!8m2!3d51.962143!4d16.821949!16s%2Fg%2F1tgfvb3b!19sChIJcTrGKACnBUcRHPzg3m1G9Ww?authuser=0&hl=tr&rclk=1",
    "website_url": "",
    "rating_text": "4,3",
    "stars": null,
    "number_of_reviews": null,
    "price_level": "",
    "open_hours": "",
    "extraction_timestamp": "2025-06-07T17:57:58.571Z",
    "source_name": "google",
    "source_query": "Irrigation Equipment",
    "source_country": "PL",
    "country": "Poland",
    "state": "Greater Poland Voivodeship",
    "city": "Krzywiń"
  },
  {
    "source_id": "ChIJFQ98okYBBUcRE-Vdl2blaY4",
    "name": "RAINDROP Profesjonalne systemy nawadniające",
    "category": "RAINDROP Profesjonalne systemy nawadniające",
    "formatted_address": "",
    "phone_number": "+48791006753",
    "source_url": "https://www.google.com/maps/place/RAINDROP+Profesjonalne+systemy+nawadniaj%C4%85ce/data=!4m7!3m6!1s0x47050146a27c0f15:0x8e69e566975de513!8m2!3d51.953761!4d19.1343692!16s%2Fg%2F11gl0hczny!19sChIJFQ98okYBBUcRE-Vdl2blaY4?authuser=0&hl=tr&rclk=1",
    "website_url": "",
    "rating_text": "",
    "stars": null,
    "number_of_reviews": null,
    "price_level": "",
    "open_hours": "",
    "extraction_timestamp": "2025-06-07T17:57:58.572Z",
    "source_name": "google",
    "source_query": "Irrigation Equipment",
    "source_country": "PL",
    "country": "Poland",
    "state": "Greater Poland Voivodeship",
    "city": "Krzywiń"
  },
  {
    "source_id": "ChIJ1RARyFWmBUcRG_H9SzqkMiU",
    "name": "Autoland. PW. Nadolna A.",
    "category": "Autoland. PW. Nadolna A.",
    "formatted_address": "5,0(4)",
    "phone_number": "+48655170850",
    "source_url": "https://www.google.com/maps/place/Autoland.+PW.+Nadolna+A./data=!4m7!3m6!1s0x4705a655c81110d5:0x2532a43a4bfdf11b!8m2!3d51.9635173!4d16.8195815!16s%2Fg%2F1pt_f2r_s!19sChIJ1RARyFWmBUcRG_H9SzqkMiU?authuser=0&hl=tr&rclk=1",
    "website_url": "",
    "rating_text": "5,0",
    "stars": null,
    "number_of_reviews": null,
    "price_level": "",
    "open_hours": "",
    "extraction_timestamp": "2025-06-07T17:57:58.573Z",
    "source_name": "google",
    "source_query": "Irrigation Equipment",
    "source_country": "PL",
    "country": "Poland",
    "state": "Greater Poland Voivodeship",
    "city": "Krzywiń"
  },
  {
    "source_id": "ChIJb_gePHtbBEcR9Whjqsbdb3Y",
    "name": "Krzys-Pol Sp. z o.o.",
    "category": "Krzys-Pol Sp. z o.o.",
    "formatted_address": "4,7(32)",
    "phone_number": "+48618724368",
    "source_url": "https://www.google.com/maps/place/Krzys-Pol+Sp.+z+o.o./data=!4m7!3m6!1s0x47045b7b3c1ef86f:0x766fddc6aa6368f5!8m2!3d52.418157!4d16.964649!16s%2Fg%2F1tmk75wr!19sChIJb_gePHtbBEcR9Whjqsbdb3Y?authuser=0&hl=tr&rclk=1",
    "website_url": "",
    "rating_text": "4,7",
    "stars": null,
    "number_of_reviews": null,
    "price_level": "",
    "open_hours": "",
    "extraction_timestamp": "2025-06-07T17:57:58.574Z",
    "source_name": "google",
    "source_query": "Irrigation Equipment",
    "source_country": "PL",
    "country": "Poland",
    "state": "Greater Poland Voivodeship",
    "city": "Krzywiń"
  },
  {
    "source_id": "ChIJq6BIPTmVBUcRVCEmK-n4hmc",
    "name": "HYDRAINSTAL | Kompleksowe Instalacje Hydrauliczne | Jakub Nędzyk",
    "category": "HYDRAINSTAL | Kompleksowe Instalacje Hydrauliczne | Jakub Nędzyk",
    "formatted_address": "5,0(11)",
    "phone_number": "+48795581988",
    "source_url": "https://www.google.com/maps/place/HYDRAINSTAL+%7C+Kompleksowe+Instalacje+Hydrauliczne+%7C+Jakub+N%C4%99dzyk/data=!4m7!3m6!1s0x470595393d48a0ab:0x6786f8e92b262154!8m2!3d51.8781175!4d16.3636586!16s%2Fg%2F11x7b_57fm!19sChIJq6BIPTmVBUcRVCEmK-n4hmc?authuser=0&hl=tr&rclk=1",
    "website_url": "",
    "rating_text": "5,0",
    "stars": null,
    "number_of_reviews": null,
    "price_level": "",
    "open_hours": "",
    "extraction_timestamp": "2025-06-07T17:57:58.576Z",
    "source_name": "google",
    "source_query": "Irrigation Equipment",
    "source_country": "PL",
    "country": "Poland",
    "state": "Greater Poland Voivodeship",
    "city": "Krzywiń"
  },
  {
    "source_id": "ChIJ57Vy1tGxBUcRuUsapK-qfLM",
    "name": "Krzys-Pol (Wentylacja)",
    "category": "Krzys-Pol (Wentylacja)",
    "formatted_address": "4,9(13)",
    "phone_number": "+48798748704",
    "source_url": "https://www.google.com/maps/place/Krzys-Pol+%28Wentylacja%29/data=!4m7!3m6!1s0x4705b1d1d672b5e7:0xb37caaafa41a4bb9!8m2!3d52.0867129!4d16.6562482!16s%2Fg%2F11f6drph11!19sChIJ57Vy1tGxBUcRuUsapK-qfLM?authuser=0&hl=tr&rclk=1",
    "website_url": "",
    "rating_text": "4,9",
    "stars": null,
    "number_of_reviews": null,
    "price_level": "",
    "open_hours": "",
    "extraction_timestamp": "2025-06-07T17:57:58.577Z",
    "source_name": "google",
    "source_query": "Irrigation Equipment",
    "source_country": "PL",
    "country": "Poland",
    "state": "Greater Poland Voivodeship",
    "city": "Krzywiń"
  },
  {
    "source_id": "ChIJxbSTv_6mBUcR_oq4_1Q2bKw",
    "name": "Sklep spożywczy",
    "category": "Sklep spożywczy",
    "formatted_address": "4,3(7)",
    "phone_number": "+48607270955",
    "source_url": "https://www.google.com/maps/place/Sklep+spo%C5%BCywczy/data=!4m7!3m6!1s0x4705a6febf93b4c5:0xac6c3654ffb88afe!8m2!3d51.9635217!4d16.8198909!16s%2Fg%2F1tgbzghv!19sChIJxbSTv_6mBUcR_oq4_1Q2bKw?authuser=0&hl=tr&rclk=1",
    "website_url": "",
    "rating_text": "4,3",
    "stars": null,
    "number_of_reviews": null,
    "price_level": "",
    "open_hours": "",
    "extraction_timestamp": "2025-06-07T17:57:58.578Z",
    "source_name": "google",
    "source_query": "Irrigation Equipment",
    "source_country": "PL",
    "country": "Poland",
    "state": "Greater Poland Voivodeship",
    "city": "Krzywiń"
  },
  {
    "source_id": "ChIJxbSTv_6mBUcRUY6OFAFWxsA",
    "name": "Mirmap. Sklep spożywczy",
    "category": "Mirmap. Sklep spożywczy",
    "formatted_address": "5,0(1)",
    "phone_number": "+48655170650",
    "source_url": "https://www.google.com/maps/place/Mirmap.+Sklep+spo%C5%BCywczy/data=!4m7!3m6!1s0x4705a6febf93b4c5:0xc0c65601148e8e51!8m2!3d51.9615181!4d16.818463!16s%2Fg%2F1xgrln7h!19sChIJxbSTv_6mBUcRUY6OFAFWxsA?authuser=0&hl=tr&rclk=1",
    "website_url": "",
    "rating_text": "5,0",
    "stars": null,
    "number_of_reviews": null,
    "price_level": "",
    "open_hours": "",
    "extraction_timestamp": "2025-06-07T17:57:58.579Z",
    "source_name": "google",
    "source_query": "Irrigation Equipment",
    "source_country": "PL",
    "country": "Poland",
    "state": "Greater Poland Voivodeship",
    "city": "Krzywiń"
  }
]
