[
  {
    "source_id": "ChIJOb0HccEcBUcRVQZl38o-2Kw",
    "name": "Książ-Rol Sp. z o.o.",
    "category": "Książ-Rol Sp. z o.o.",
    "formatted_address": "5,0(4)",
    "phone_number": "+48612822177",
    "source_url": "https://www.google.com/maps/place/Ksi%C4%85%C5%BC-Rol+Sp.+z+o.o./data=!4m7!3m6!1s0x47051cc17107bd39:0xacd83ecadf650655!8m2!3d52.0145875!4d17.2315939!16s%2Fg%2F1th85v0n!19sChIJOb0HccEcBUcRVQZl38o-2Kw?authuser=0&hl=tr&rclk=1",
    "website_url": "",
    "rating_text": "5,0",
    "stars": null,
    "number_of_reviews": null,
    "price_level": "",
    "open_hours": "",
    "extraction_timestamp": "2025-06-07T17:13:31.543Z",
    "source_name": "google",
    "source_query": "Irrigation Equipment",
    "source_country": "PL",
    "country": "Poland",
    "state": "Greater Poland Voivodeship",
    "city": "Książ Wielkopolski"
  },
  {
    "source_id": "ChIJj-axjcEcBUcRuqsK9D1Oi8w",
    "name": "Agro Bazar. Adamczak L.",
    "category": "Agro Bazar. Adamczak L.",
    "formatted_address": "4,7(3)",
    "phone_number": "+48612822211",
    "source_url": "https://www.google.com/maps/place/Agro+Bazar.+Adamczak+L./data=!4m7!3m6!1s0x47051cc18db1e68f:0xcc8b4e3df40aabba!8m2!3d52.060819!4d17.241402!16s%2Fg%2F1hc5bg_dk!19sChIJj-axjcEcBUcRuqsK9D1Oi8w?authuser=0&hl=tr&rclk=1",
    "website_url": "",
    "rating_text": "4,7",
    "stars": null,
    "number_of_reviews": null,
    "price_level": "",
    "open_hours": "",
    "extraction_timestamp": "2025-06-07T17:13:31.543Z",
    "source_name": "google",
    "source_query": "Irrigation Equipment",
    "source_country": "PL",
    "country": "Poland",
    "state": "Greater Poland Voivodeship",
    "city": "Książ Wielkopolski"
  },
  {
    "source_id": "ChIJvaV7o8EcBUcRhIuz8Uxz2ec",
    "name": "Firma handlowo-usługowa Paweł i Włodzimierz Wiśniewscy",
    "category": "Firma handlowo-usługowa Paweł i Włodzimierz Wiśniewscy",
    "formatted_address": "4,3(6)",
    "phone_number": "+48612822122",
    "source_url": "https://www.google.com/maps/place/Firma+handlowo-us%C5%82ugowa+Pawe%C5%82+i+W%C5%82odzimierz+Wi%C5%9Bniewscy/data=!4m7!3m6!1s0x47051cc1a37ba5bd:0xe7d9734cf1b38b84!8m2!3d52.0596784!4d17.2404857!16s%2Fg%2F1vqtfhgg!19sChIJvaV7o8EcBUcRhIuz8Uxz2ec?authuser=0&hl=tr&rclk=1",
    "website_url": "",
    "rating_text": "4,3",
    "stars": null,
    "number_of_reviews": null,
    "price_level": "",
    "open_hours": "",
    "extraction_timestamp": "2025-06-07T17:13:31.543Z",
    "source_name": "google",
    "source_query": "Irrigation Equipment",
    "source_country": "PL",
    "country": "Poland",
    "state": "Greater Poland Voivodeship",
    "city": "Książ Wielkopolski"
  },
  {
    "source_id": "ChIJvaV7o8EcBUcRVVmWpXgZQpE",
    "name": "Lida Market",
    "category": "Lida Market",
    "formatted_address": "4,5(113)",
    "phone_number": "+48612822464",
    "source_url": "https://www.google.com/maps/place/Lida+Market/data=!4m7!3m6!1s0x47051cc1a37ba5bd:0x91421978a5965955!8m2!3d52.0596695!4d17.2396819!16s%2Fg%2F1tk6z5w8!19sChIJvaV7o8EcBUcRVVmWpXgZQpE?authuser=0&hl=tr&rclk=1",
    "website_url": "",
    "rating_text": "4,5",
    "stars": null,
    "number_of_reviews": null,
    "price_level": "",
    "open_hours": "",
    "extraction_timestamp": "2025-06-07T17:13:31.544Z",
    "source_name": "google",
    "source_query": "Irrigation Equipment",
    "source_country": "PL",
    "country": "Poland",
    "state": "Greater Poland Voivodeship",
    "city": "Książ Wielkopolski"
  },
  {
    "source_id": "ChIJz1x8JMEcBUcRT3OKT6lSmfE",
    "name": "Market Ada",
    "category": "Market Ada",
    "formatted_address": "4,4(132)",
    "phone_number": "+48612822396",
    "source_url": "https://www.google.com/maps/place/Market+Ada/data=!4m7!3m6!1s0x47051cc1247c5ccf:0xf19952a94f8a734f!8m2!3d52.0598447!4d17.2384614!16s%2Fg%2F1tq4pt04!19sChIJz1x8JMEcBUcRT3OKT6lSmfE?authuser=0&hl=tr&rclk=1",
    "website_url": "",
    "rating_text": "4,4",
    "stars": null,
    "number_of_reviews": null,
    "price_level": "",
    "open_hours": "",
    "extraction_timestamp": "2025-06-07T17:13:31.544Z",
    "source_name": "google",
    "source_query": "Irrigation Equipment",
    "source_country": "PL",
    "country": "Poland",
    "state": "Greater Poland Voivodeship",
    "city": "Książ Wielkopolski"
  },
  {
    "source_id": "ChIJbYv83MEcBUcR8Xl8LXBWEiE",
    "name": "ALL-INSTAL Jakub Wajnert",
    "category": "ALL-INSTAL Jakub Wajnert",
    "formatted_address": "",
    "phone_number": "+48606225858",
    "source_url": "https://www.google.com/maps/place/ALL-INSTAL+Jakub+Wajnert/data=!4m7!3m6!1s0x47051cc1dcfc8b6d:0x211256702d7c79f1!8m2!3d52.0597918!4d17.2427971!16s%2Fg%2F1tdhcqmw!19sChIJbYv83MEcBUcR8Xl8LXBWEiE?authuser=0&hl=tr&rclk=1",
    "website_url": "",
    "rating_text": "",
    "stars": null,
    "number_of_reviews": null,
    "price_level": "",
    "open_hours": "",
    "extraction_timestamp": "2025-06-07T17:13:31.544Z",
    "source_name": "google",
    "source_query": "Irrigation Equipment",
    "source_country": "PL",
    "country": "Poland",
    "state": "Greater Poland Voivodeship",
    "city": "Książ Wielkopolski"
  },
  {
    "source_id": "ChIJS74Y7nL9BEcRATf6fAXnzHo",
    "name": "ROLKA - trawniki i nawadniania - Trawa z rolki Poznań",
    "category": "ROLKA - trawniki i nawadniania - Trawa z rolki Poznań",
    "formatted_address": "4,8(25)",
    "phone_number": "+48730311000",
    "source_url": "https://www.google.com/maps/place/ROLKA+-+trawniki+i+nawadniania+-+Trawa+z+rolki+Pozna%C5%84/data=!4m7!3m6!1s0x4704fd72ee18be4b:0x7acce7057cfa3701!8m2!3d52.2468105!4d17.4843038!16s%2Fg%2F11xs837pl!19sChIJS74Y7nL9BEcRATf6fAXnzHo?authuser=0&hl=tr&rclk=1",
    "website_url": "",
    "rating_text": "4,8",
    "stars": null,
    "number_of_reviews": null,
    "price_level": "",
    "open_hours": "",
    "extraction_timestamp": "2025-06-07T17:13:31.545Z",
    "source_name": "google",
    "source_query": "Irrigation Equipment",
    "source_country": "PL",
    "country": "Poland",
    "state": "Greater Poland Voivodeship",
    "city": "Książ Wielkopolski"
  },
  {
    "source_id": "ChIJVfpOSfIcBUcRI-CFUhfo34Y",
    "name": "Biedronka",
    "category": "Biedronka",
    "formatted_address": "4,3(539)",
    "phone_number": "+48800080010",
    "source_url": "https://www.google.com/maps/place/Biedronka/data=!4m7!3m6!1s0x47051cf2494efa55:0x86dfe8175285e023!8m2!3d52.0572369!4d17.2609989!16s%2Fg%2F11b5wk4kpb!19sChIJVfpOSfIcBUcRI-CFUhfo34Y?authuser=0&hl=tr&rclk=1",
    "website_url": "",
    "rating_text": "4,3",
    "stars": null,
    "number_of_reviews": null,
    "price_level": "",
    "open_hours": "",
    "extraction_timestamp": "2025-06-07T17:13:31.545Z",
    "source_name": "google",
    "source_query": "Irrigation Equipment",
    "source_country": "PL",
    "country": "Poland",
    "state": "Greater Poland Voivodeship",
    "city": "Książ Wielkopolski"
  },
  {
    "source_id": "ChIJvaV7o8EcBUcRxvahNeQGJxs",
    "name": "Dino",
    "category": "Dino",
    "formatted_address": "4,3(167)",
    "phone_number": "",
    "source_url": "https://www.google.com/maps/place/Dino/data=!4m7!3m6!1s0x47051cc1a37ba5bd:0x1b2706e435a1f6c6!8m2!3d52.0601322!4d17.2404909!16s%2Fg%2F1tfvrnk5!19sChIJvaV7o8EcBUcRxvahNeQGJxs?authuser=0&hl=tr&rclk=1",
    "website_url": "",
    "rating_text": "4,3",
    "stars": null,
    "number_of_reviews": null,
    "price_level": "",
    "open_hours": "",
    "extraction_timestamp": "2025-06-07T17:13:31.545Z",
    "source_name": "google",
    "source_query": "Irrigation Equipment",
    "source_country": "PL",
    "country": "Poland",
    "state": "Greater Poland Voivodeship",
    "city": "Książ Wielkopolski"
  },
  {
    "source_id": "ChIJc1C7DuocBUcRhhDcxhROH1w",
    "name": "Dino",
    "category": "Dino",
    "formatted_address": "4,3(215)",
    "phone_number": "",
    "source_url": "https://www.google.com/maps/place/Dino/data=!4m7!3m6!1s0x47051cea0ebb5073:0x5c1f4e14c6dc1086!8m2!3d52.0599851!4d17.2450631!16s%2Fg%2F11c6crbgww!19sChIJc1C7DuocBUcRhhDcxhROH1w?authuser=0&hl=tr&rclk=1",
    "website_url": "",
    "rating_text": "4,3",
    "stars": null,
    "number_of_reviews": null,
    "price_level": "",
    "open_hours": "",
    "extraction_timestamp": "2025-06-07T17:13:31.545Z",
    "source_name": "google",
    "source_query": "Irrigation Equipment",
    "source_country": "PL",
    "country": "Poland",
    "state": "Greater Poland Voivodeship",
    "city": "Książ Wielkopolski"
  },
  {
    "source_id": "ChIJB6y_v5J2HEcRlDfYx3xmc9M",
    "name": "Milex irrigation systems",
    "category": "Milex irrigation systems",
    "formatted_address": "4,6(37)",
    "phone_number": "+48242775222",
    "source_url": "https://www.google.com/maps/place/Milex+irrigation+systems/data=!4m7!3m6!1s0x471c7692bfbfac07:0xd373667cc7d83794!8m2!3d52.4690634!4d19.7520904!16s%2Fg%2F1w2yy67r!19sChIJB6y_v5J2HEcRlDfYx3xmc9M?authuser=0&hl=tr&rclk=1",
    "website_url": "",
    "rating_text": "4,6",
    "stars": null,
    "number_of_reviews": null,
    "price_level": "",
    "open_hours": "",
    "extraction_timestamp": "2025-06-07T17:13:31.545Z",
    "source_name": "google",
    "source_query": "Irrigation Equipment",
    "source_country": "PL",
    "country": "Poland",
    "state": "Greater Poland Voivodeship",
    "city": "Książ Wielkopolski"
  },
  {
    "source_id": "ChIJdXxaDLQdBUcRM21P1ZQWr8c",
    "name": "Clinic Pump Regeneracja pomp napowietrzających maszyn do lodów",
    "category": "Clinic Pump Regeneracja pomp napowietrzających maszyn do lodów",
    "formatted_address": "",
    "phone_number": "+48720800310",
    "source_url": "https://www.google.com/maps/place/Clinic+Pump+Regeneracja+pomp+napowietrzaj%C4%85cych+maszyn+do+lod%C3%B3w/data=!4m7!3m6!1s0x47051db40c5a7c75:0xc7af1694d54f6d33!8m2!3d49.3504672!4d17.8223712!16s%2Fg%2F11pqcswf_j!19sChIJdXxaDLQdBUcRM21P1ZQWr8c?authuser=0&hl=tr&rclk=1",
    "website_url": "",
    "rating_text": "",
    "stars": null,
    "number_of_reviews": null,
    "price_level": "",
    "open_hours": "",
    "extraction_timestamp": "2025-06-07T17:13:31.546Z",
    "source_name": "google",
    "source_query": "Irrigation Equipment",
    "source_country": "PL",
    "country": "Poland",
    "state": "Greater Poland Voivodeship",
    "city": "Książ Wielkopolski"
  },
  {
    "source_id": "ChIJU4ivCY8dBUcRQe_xic8NC2c",
    "name": "Pączkownia Książ Wielkopolski",
    "category": "Pączkownia Książ Wielkopolski",
    "formatted_address": "5,0(6)",
    "phone_number": "+48570660190",
    "source_url": "https://www.google.com/maps/place/P%C4%85czkownia+Ksi%C4%85%C5%BC+Wielkopolski/data=!4m7!3m6!1s0x47051d8f09af8853:0x670b0dcf89f1ef41!8m2!3d52.0599044!4d17.2393716!16s%2Fg%2F11vyfftqsz!19sChIJU4ivCY8dBUcRQe_xic8NC2c?authuser=0&hl=tr&rclk=1",
    "website_url": "",
    "rating_text": "5,0",
    "stars": null,
    "number_of_reviews": null,
    "price_level": "",
    "open_hours": "",
    "extraction_timestamp": "2025-06-07T17:13:31.546Z",
    "source_name": "google",
    "source_query": "Irrigation Equipment",
    "source_country": "PL",
    "country": "Poland",
    "state": "Greater Poland Voivodeship",
    "city": "Książ Wielkopolski"
  },
  {
    "source_id": "ChIJ2S-rXYsdBUcRygrlUayfO80",
    "name": "Alkohole Konesera",
    "category": "Alkohole Konesera",
    "formatted_address": "",
    "phone_number": "+48537432116",
    "source_url": "https://www.google.com/maps/place/Alkohole+Konesera/data=!4m7!3m6!1s0x47051d8b5dab2fd9:0xcd3b9fac51e50aca!8m2!3d52.060008!4d17.236968!16s%2Fg%2F11x0w_jd2d!19sChIJ2S-rXYsdBUcRygrlUayfO80?authuser=0&hl=tr&rclk=1",
    "website_url": "",
    "rating_text": "",
    "stars": null,
    "number_of_reviews": null,
    "price_level": "",
    "open_hours": "",
    "extraction_timestamp": "2025-06-07T17:13:31.546Z",
    "source_name": "google",
    "source_query": "Irrigation Equipment",
    "source_country": "PL",
    "country": "Poland",
    "state": "Greater Poland Voivodeship",
    "city": "Książ Wielkopolski"
  },
  {
    "source_id": "ChIJ3RjXCcsdBUcRlqVIMsOypbQ",
    "name": "Lody Lida Książ Wielkopolski",
    "category": "Lody Lida Książ Wielkopolski",
    "formatted_address": "4,1(65)",
    "phone_number": "",
    "source_url": "https://www.google.com/maps/place/Lody+Lida+Ksi%C4%85%C5%BC+Wielkopolski/data=!4m7!3m6!1s0x47051dcb09d718dd:0xb4a5b2c33248a596!8m2!3d52.0597086!4d17.2396634!16s%2Fg%2F11k0tn98xc!19sChIJ3RjXCcsdBUcRlqVIMsOypbQ?authuser=0&hl=tr&rclk=1",
    "website_url": "",
    "rating_text": "4,1",
    "stars": null,
    "number_of_reviews": null,
    "price_level": "",
    "open_hours": "",
    "extraction_timestamp": "2025-06-07T17:13:31.546Z",
    "source_name": "google",
    "source_query": "Irrigation Equipment",
    "source_country": "PL",
    "country": "Poland",
    "state": "Greater Poland Voivodeship",
    "city": "Książ Wielkopolski"
  },
  {
    "source_id": "ChIJeynqQDMdBUcR8d_GDsvz2A0",
    "name": "Piekarnia - Cukiernia ŁOBZA",
    "category": "Piekarnia - Cukiernia ŁOBZA",
    "formatted_address": "4,8(6) · ₺₺",
    "phone_number": "+48534677223",
    "source_url": "https://www.google.com/maps/place/Piekarnia+-+Cukiernia+%C5%81OBZA/data=!4m7!3m6!1s0x47051d3340ea297b:0xdd8f3cb0ec6dff1!8m2!3d52.0598512!4d17.2388018!16s%2Fg%2F11p3q674cq!19sChIJeynqQDMdBUcR8d_GDsvz2A0?authuser=0&hl=tr&rclk=1",
    "website_url": "",
    "rating_text": "4,8",
    "stars": null,
    "number_of_reviews": null,
    "price_level": "",
    "open_hours": "",
    "extraction_timestamp": "2025-06-07T17:13:31.547Z",
    "source_name": "google",
    "source_query": "Irrigation Equipment",
    "source_country": "PL",
    "country": "Poland",
    "state": "Greater Poland Voivodeship",
    "city": "Książ Wielkopolski"
  },
  {
    "source_id": "ChIJ3xXNpcgcBUcRq2QLHHnscg0",
    "name": "Apteka św. Damiana",
    "category": "Apteka św. Damiana",
    "formatted_address": "4,7(3)",
    "phone_number": "+48612822990",
    "source_url": "https://www.google.com/maps/place/Apteka+%C5%9Bw.+Damiana/data=!4m7!3m6!1s0x47051cc8a5cd15df:0xd72ec791c0b64ab!8m2!3d52.061696!4d17.2310963!16s%2Fg%2F1tgnvy4x!19sChIJ3xXNpcgcBUcRq2QLHHnscg0?authuser=0&hl=tr&rclk=1",
    "website_url": "",
    "rating_text": "4,7",
    "stars": null,
    "number_of_reviews": null,
    "price_level": "",
    "open_hours": "",
    "extraction_timestamp": "2025-06-07T17:13:31.547Z",
    "source_name": "google",
    "source_query": "Irrigation Equipment",
    "source_country": "PL",
    "country": "Poland",
    "state": "Greater Poland Voivodeship",
    "city": "Książ Wielkopolski"
  },
  {
    "source_id": "ChIJR1Gy6FdHBEcRxLXa4mu3HY8",
    "name": "Fargo PW Centrum Ogrodnicze - Sklep Ogrodniczy i Rolniczy",
    "category": "Fargo PW Centrum Ogrodnicze - Sklep Ogrodniczy i Rolniczy",
    "formatted_address": "4,8(387)",
    "phone_number": "+48618146334",
    "source_url": "https://www.google.com/maps/place/Fargo+PW+Centrum+Ogrodnicze+-+Sklep+Ogrodniczy+i+Rolniczy/data=!4m7!3m6!1s0x47044757e8b25147:0x8f1db76be2dab5c4!8m2!3d52.4575027!4d16.6792707!16s%2Fg%2F1ptwzycf8!19sChIJR1Gy6FdHBEcRxLXa4mu3HY8?authuser=0&hl=tr&rclk=1",
    "website_url": "",
    "rating_text": "4,8",
    "stars": null,
    "number_of_reviews": null,
    "price_level": "",
    "open_hours": "",
    "extraction_timestamp": "2025-06-07T17:13:31.547Z",
    "source_name": "google",
    "source_query": "Irrigation Equipment",
    "source_country": "PL",
    "country": "Poland",
    "state": "Greater Poland Voivodeship",
    "city": "Książ Wielkopolski"
  },
  {
    "source_id": "ChIJmW6iYi8eBUcRl2pHgp-4HAw",
    "name": "Instal-Met",
    "category": "Instal-Met",
    "formatted_address": "4,6(134) · ₺₺",
    "phone_number": "+48612874455",
    "source_url": "https://www.google.com/maps/place/Instal-Met/data=!4m7!3m6!1s0x47051e2f62a26e99:0xc1cb89f82476a97!8m2!3d52.087736!4d17.406122!16s%2Fg%2F1w4vhmn2!19sChIJmW6iYi8eBUcRl2pHgp-4HAw?authuser=0&hl=tr&rclk=1",
    "website_url": "",
    "rating_text": "4,6",
    "stars": null,
    "number_of_reviews": null,
    "price_level": "",
    "open_hours": "",
    "extraction_timestamp": "2025-06-07T17:13:31.548Z",
    "source_name": "google",
    "source_query": "Irrigation Equipment",
    "source_country": "PL",
    "country": "Poland",
    "state": "Greater Poland Voivodeship",
    "city": "Książ Wielkopolski"
  },
  {
    "source_id": "ChIJUSGWQVrpBEcRLccfSz-unUU",
    "name": "EFLI GROUP Spółka z ograniczoną odpowiedzialnością Spółka komandytowa Oddział Września",
    "category": "EFLI GROUP Spółka z ograniczoną odpowiedzialnością Spółka komandytowa Oddział Września",
    "formatted_address": "5,0(8)",
    "phone_number": "+48690033779",
    "source_url": "https://www.google.com/maps/place/EFLI+GROUP+Sp%C3%B3%C5%82ka+z+ograniczon%C4%85+odpowiedzialno%C5%9Bci%C4%85+Sp%C3%B3%C5%82ka+komandytowa+Oddzia%C5%82+Wrze%C5%9Bnia/data=!4m7!3m6!1s0x4704e95a41962151:0x459dae3f4b1fc72d!8m2!3d52.3242893!4d17.5736504!16s%2Fg%2F11h06l2xl1!19sChIJUSGWQVrpBEcRLccfSz-unUU?authuser=0&hl=tr&rclk=1",
    "website_url": "",
    "rating_text": "5,0",
    "stars": null,
    "number_of_reviews": null,
    "price_level": "",
    "open_hours": "",
    "extraction_timestamp": "2025-06-07T17:13:31.548Z",
    "source_name": "google",
    "source_query": "Irrigation Equipment",
    "source_country": "PL",
    "country": "Poland",
    "state": "Greater Poland Voivodeship",
    "city": "Książ Wielkopolski"
  },
  {
    "source_id": "ChIJJcs52bPKBUcRWL49DJ4Qru8",
    "name": "GRENE",
    "category": "GRENE",
    "formatted_address": "4,2(23)",
    "phone_number": "+48614472025",
    "source_url": "https://www.google.com/maps/place/GRENE/data=!4m7!3m6!1s0x4705cab3d939cb25:0xefae109e0c3dbe58!8m2!3d52.2234909!4d16.512436!16s%2Fg%2F11df6hyhm5!19sChIJJcs52bPKBUcRWL49DJ4Qru8?authuser=0&hl=tr&rclk=1",
    "website_url": "",
    "rating_text": "4,2",
    "stars": null,
    "number_of_reviews": null,
    "price_level": "",
    "open_hours": "",
    "extraction_timestamp": "2025-06-07T17:13:31.548Z",
    "source_name": "google",
    "source_query": "Irrigation Equipment",
    "source_country": "PL",
    "country": "Poland",
    "state": "Greater Poland Voivodeship",
    "city": "Książ Wielkopolski"
  },
  {
    "source_id": "ChIJL6WSECc3G0cR0cIZjFQOyyM",
    "name": "Laskowiec. Garden center",
    "category": "Laskowiec. Garden center",
    "formatted_address": "4,6(245)",
    "phone_number": "+48632479236",
    "source_url": "https://www.google.com/maps/place/Laskowiec.+Garden+center/data=!4m7!3m6!1s0x471b37271092a52f:0x23cb0e548c19c2d1!8m2!3d52.2317452!4d18.3177935!16s%2Fg%2F1wk6yj3q!19sChIJL6WSECc3G0cR0cIZjFQOyyM?authuser=0&hl=tr&rclk=1",
    "website_url": "",
    "rating_text": "4,6",
    "stars": null,
    "number_of_reviews": null,
    "price_level": "",
    "open_hours": "",
    "extraction_timestamp": "2025-06-07T17:13:31.549Z",
    "source_name": "google",
    "source_query": "Irrigation Equipment",
    "source_country": "PL",
    "country": "Poland",
    "state": "Greater Poland Voivodeship",
    "city": "Książ Wielkopolski"
  },
  {
    "source_id": "ChIJBVnjAp0ABUcRFWrER_0PBAg",
    "name": "Studzienki",
    "category": "Studzienki",
    "formatted_address": "4,6(9)",
    "phone_number": "+48795977712",
    "source_url": "https://www.google.com/maps/place/Studzienki/data=!4m7!3m6!1s0x4705009d02e35905:0x8040ffd47c46a15!8m2!3d52.0691871!4d17.0394171!16s%2Fg%2F11fmmdybt8!19sChIJBVnjAp0ABUcRFWrER_0PBAg?authuser=0&hl=tr&rclk=1",
    "website_url": "",
    "rating_text": "4,6",
    "stars": null,
    "number_of_reviews": null,
    "price_level": "",
    "open_hours": "",
    "extraction_timestamp": "2025-06-07T17:13:31.549Z",
    "source_name": "google",
    "source_query": "Irrigation Equipment",
    "source_country": "PL",
    "country": "Poland",
    "state": "Greater Poland Voivodeship",
    "city": "Książ Wielkopolski"
  },
  {
    "source_id": "ChIJQYZYU_daBEcRrc4mt6dBBko",
    "name": "HYDROGLOBAL - Przemyślane rozwiązania dla ujęć wody",
    "category": "HYDROGLOBAL - Przemyślane rozwiązania dla ujęć wody",
    "formatted_address": "4,5(8)",
    "phone_number": "+48612785475",
    "source_url": "https://www.google.com/maps/place/HYDROGLOBAL+-+Przemy%C5%9Blane+rozwi%C4%85zania+dla+uj%C4%99%C4%87+wody/data=!4m7!3m6!1s0x47045af753588641:0x4a0641a7b726cead!8m2!3d52.4872791!4d16.8563292!16s%2Fg%2F1wzt11_h!19sChIJQYZYU_daBEcRrc4mt6dBBko?authuser=0&hl=tr&rclk=1",
    "website_url": "",
    "rating_text": "4,5",
    "stars": null,
    "number_of_reviews": null,
    "price_level": "",
    "open_hours": "",
    "extraction_timestamp": "2025-06-07T17:13:31.549Z",
    "source_name": "google",
    "source_query": "Irrigation Equipment",
    "source_country": "PL",
    "country": "Poland",
    "state": "Greater Poland Voivodeship",
    "city": "Książ Wielkopolski"
  },
  {
    "source_id": "ChIJudci_QJQBEcRlVnpAtMYNlk",
    "name": "Garden Center Straczkowscy",
    "category": "Garden Center Straczkowscy",
    "formatted_address": "4,4(308)",
    "phone_number": "",
    "source_url": "https://www.google.com/maps/place/Garden+Center+Straczkowscy/data=!4m7!3m6!1s0x47045002fd22d7b9:0x593618d302e95995!8m2!3d52.342706!4d16.871955!16s%2Fg%2F1v8y2r64!19sChIJudci_QJQBEcRlVnpAtMYNlk?authuser=0&hl=tr&rclk=1",
    "website_url": "",
    "rating_text": "4,4",
    "stars": null,
    "number_of_reviews": null,
    "price_level": "",
    "open_hours": "",
    "extraction_timestamp": "2025-06-07T17:13:31.549Z",
    "source_name": "google",
    "source_query": "Irrigation Equipment",
    "source_country": "PL",
    "country": "Poland",
    "state": "Greater Poland Voivodeship",
    "city": "Książ Wielkopolski"
  },
  {
    "source_id": "ChIJ2bK4P9MABUcRhp7lI4WUDfE",
    "name": "Kąpielisko Miejskie Śrem",
    "category": "Kąpielisko Miejskie Śrem",
    "formatted_address": "4,3(899)",
    "phone_number": "",
    "source_url": "https://www.google.com/maps/place/K%C4%85pielisko+Miejskie+%C5%9Arem/data=!4m7!3m6!1s0x470500d33fb8b2d9:0xf10d948523e59e86!8m2!3d52.070966!4d17.0097007!16s%2Fg%2F1tggmbp7!19sChIJ2bK4P9MABUcRhp7lI4WUDfE?authuser=0&hl=tr&rclk=1",
    "website_url": "",
    "rating_text": "4,3",
    "stars": null,
    "number_of_reviews": null,
    "price_level": "",
    "open_hours": "",
    "extraction_timestamp": "2025-06-07T17:13:31.549Z",
    "source_name": "google",
    "source_query": "Irrigation Equipment",
    "source_country": "PL",
    "country": "Poland",
    "state": "Greater Poland Voivodeship",
    "city": "Książ Wielkopolski"
  },
  {
    "source_id": "ChIJbfw_EaNXBEcR_4WcJdE-X0w",
    "name": "P.H.P.U. ROMGAZ Roman Sobczak",
    "category": "P.H.P.U. ROMGAZ Roman Sobczak",
    "formatted_address": "4,4(7)",
    "phone_number": "+48616675475",
    "source_url": "https://www.google.com/maps/place/P.H.P.U.+ROMGAZ+Roman+Sobczak/data=!4m7!3m6!1s0x470457a3113ffc6d:0x4c5f3ed1259c85ff!8m2!3d52.2994135!4d17.050767!16s%2Fg%2F1tdl4v7y!19sChIJbfw_EaNXBEcR_4WcJdE-X0w?authuser=0&hl=tr&rclk=1",
    "website_url": "",
    "rating_text": "4,4",
    "stars": null,
    "number_of_reviews": null,
    "price_level": "",
    "open_hours": "",
    "extraction_timestamp": "2025-06-07T17:13:31.550Z",
    "source_name": "google",
    "source_query": "Irrigation Equipment",
    "source_country": "PL",
    "country": "Poland",
    "state": "Greater Poland Voivodeship",
    "city": "Książ Wielkopolski"
  },
  {
    "source_id": "ChIJbz65xq-iBEcR6_DsQT9o3Z8",
    "name": "GRENE",
    "category": "GRENE",
    "formatted_address": "4,6(37)",
    "phone_number": "+48502898750",
    "source_url": "https://www.google.com/maps/place/GRENE/data=!4m7!3m6!1s0x4704a2afc6b93e6f:0x9fdd683f41ecf0eb!8m2!3d52.5695327!4d17.8220716!16s%2Fg%2F11c2nc5jw6!19sChIJbz65xq-iBEcR6_DsQT9o3Z8?authuser=0&hl=tr&rclk=1",
    "website_url": "",
    "rating_text": "4,6",
    "stars": null,
    "number_of_reviews": null,
    "price_level": "",
    "open_hours": "",
    "extraction_timestamp": "2025-06-07T17:13:31.550Z",
    "source_name": "google",
    "source_query": "Irrigation Equipment",
    "source_country": "PL",
    "country": "Poland",
    "state": "Greater Poland Voivodeship",
    "city": "Książ Wielkopolski"
  }
]
