[
  {
    "source_id": "ChIJacQsJBH7BEcR-0QN9_gHa6w",
    "name": "Efli Group sp. Z o. o. Sp. K.",
    "category": "Efli Group sp. Z o. o. Sp. K.",
    "formatted_address": "4,7(34)",
    "phone_number": "+48607500345",
    "source_url": "https://www.google.com/maps/place/Efli+Group+sp.+Z+o.+o.+Sp.+K./data=!4m7!3m6!1s0x4704fb11242cc469:0xac6b07f8f70d44fb!8m2!3d52.234769!4d17.0951971!16s%2Fg%2F11g8_v2s4l!19sChIJacQsJBH7BEcR-0QN9_gHa6w?authuser=0&hl=tr&rclk=1",
    "website_url": "",
    "rating_text": "4,7",
    "stars": null,
    "number_of_reviews": null,
    "price_level": "",
    "open_hours": "",
    "extraction_timestamp": "2025-06-07T17:26:16.120Z",
    "source_name": "google",
    "source_query": "Irrigation Equipment",
    "source_country": "PL",
    "country": "Poland",
    "state": "Greater Poland Voivodeship",
    "city": "Kórnik"
  },
  {
    "source_id": "ChIJoYbRszf_BEcRKf5eL4URxlo",
    "name": "\"Stimi\" Kórnik",
    "category": "\"Stimi\" Kórnik",
    "formatted_address": "4,8(80)",
    "phone_number": "+48618980795",
    "source_url": "https://www.google.com/maps/place/%22Stimi%22+K%C3%B3rnik/data=!4m7!3m6!1s0x4704ff37b3d186a1:0x5ac611852f5efe29!8m2!3d52.2232792!4d17.0894195!16s%2Fg%2F1tdc8hj7!19sChIJoYbRszf_BEcRKf5eL4URxlo?authuser=0&hl=tr&rclk=1",
    "website_url": "",
    "rating_text": "4,8",
    "stars": null,
    "number_of_reviews": null,
    "price_level": "",
    "open_hours": "",
    "extraction_timestamp": "2025-06-07T17:26:16.121Z",
    "source_name": "google",
    "source_query": "Irrigation Equipment",
    "source_country": "PL",
    "country": "Poland",
    "state": "Greater Poland Voivodeship",
    "city": "Kórnik"
  },
  {
    "source_id": "ChIJtU73JtX5BEcRHTZkQLf7ZVQ",
    "name": "Staleo Energy",
    "category": "Staleo Energy",
    "formatted_address": "5,0(22)",
    "phone_number": "+48515657131",
    "source_url": "https://www.google.com/maps/place/Staleo+Energy/data=!4m7!3m6!1s0x4704f9d526f74eb5:0x5465fbb74064361d!8m2!3d52.253855!4d17.084981!16s%2Fg%2F11w58rktrz!19sChIJtU73JtX5BEcRHTZkQLf7ZVQ?authuser=0&hl=tr&rclk=1",
    "website_url": "https://staleoenergy.pl/",
    "rating_text": "5,0",
    "stars": null,
    "number_of_reviews": null,
    "price_level": "",
    "open_hours": "",
    "extraction_timestamp": "2025-06-07T17:26:16.123Z",
    "source_name": "google",
    "source_query": "Irrigation Equipment",
    "source_country": "PL",
    "country": "Poland",
    "state": "Greater Poland Voivodeship",
    "city": "Kórnik"
  },
  {
    "source_id": "ChIJwzzRwYH_BEcRXDQnU-2ohXo",
    "name": "Instalacje hydrauliczne i klimatyzacyjne - MM System",
    "category": "Instalacje hydrauliczne i klimatyzacyjne - MM System",
    "formatted_address": "5,0(24)",
    "phone_number": "+48783749988",
    "source_url": "https://www.google.com/maps/place/Instalacje+hydrauliczne+i+klimatyzacyjne+-+MM+System/data=!4m7!3m6!1s0x4704ff81c1d13cc3:0x7a85a8ed5327345c!8m2!3d52.2238324!4d17.0866944!16s%2Fg%2F11j4_3kyn2!19sChIJwzzRwYH_BEcRXDQnU-2ohXo?authuser=0&hl=tr&rclk=1",
    "website_url": "",
    "rating_text": "5,0",
    "stars": null,
    "number_of_reviews": null,
    "price_level": "",
    "open_hours": "",
    "extraction_timestamp": "2025-06-07T17:26:16.124Z",
    "source_name": "google",
    "source_query": "Irrigation Equipment",
    "source_country": "PL",
    "country": "Poland",
    "state": "Greater Poland Voivodeship",
    "city": "Kórnik"
  },
  {
    "source_id": "ChIJ4zc6v4hZBEcRKah1mzKBwPg",
    "name": "PHU \"ADVISER\" - Systemy nawadniania",
    "category": "PHU \"ADVISER\" - Systemy nawadniania",
    "formatted_address": "4,8(123)",
    "phone_number": "+48618798700",
    "source_url": "https://www.google.com/maps/place/PHU+%22ADVISER%22+-+Systemy+nawadniania/data=!4m7!3m6!1s0x47045988bf3a37e3:0xf8c081329b75a829!8m2!3d52.3434333!4d17.0287055!16s%2Fg%2F1w3459w5!19sChIJ4zc6v4hZBEcRKah1mzKBwPg?authuser=0&hl=tr&rclk=1",
    "website_url": "http://www.phu-adviser.pl/",
    "rating_text": "4,8",
    "stars": null,
    "number_of_reviews": null,
    "price_level": "",
    "open_hours": "",
    "extraction_timestamp": "2025-06-07T17:26:16.126Z",
    "source_name": "google",
    "source_query": "Irrigation Equipment",
    "source_country": "PL",
    "country": "Poland",
    "state": "Greater Poland Voivodeship",
    "city": "Kórnik"
  },
  {
    "source_id": "ChIJY9wCcAlXBEcRvKXvN3Wjnqw",
    "name": "SUCHA POSADZKA - Osuszanie budynków | Wynajem osuszaczy",
    "category": "SUCHA POSADZKA - Osuszanie budynków | Wynajem osuszaczy",
    "formatted_address": "5,0(70)",
    "phone_number": "+48534326870",
    "source_url": "https://www.google.com/maps/place/SUCHA+POSADZKA+-+Osuszanie+budynk%C3%B3w+%7C+Wynajem+osuszaczy/data=!4m7!3m6!1s0x470457097002dc63:0xac9ea37537efa5bc!8m2!3d52.2552332!4d17.0639886!16s%2Fg%2F11r6vhn4l1!19sChIJY9wCcAlXBEcRvKXvN3Wjnqw?authuser=0&hl=tr&rclk=1",
    "website_url": "https://suchaposadzka.pl/",
    "rating_text": "5,0",
    "stars": null,
    "number_of_reviews": null,
    "price_level": "",
    "open_hours": "",
    "extraction_timestamp": "2025-06-07T17:26:16.128Z",
    "source_name": "google",
    "source_query": "Irrigation Equipment",
    "source_country": "PL",
    "country": "Poland",
    "state": "Greater Poland Voivodeship",
    "city": "Kórnik"
  },
  {
    "source_id": "ChIJ-98lUQD5BEcRu3TM_QIYVVU",
    "name": "Wodna Przystań - wypożyczalnia sprzętu wodnego",
    "category": "Wodna Przystań - wypożyczalnia sprzętu wodnego",
    "formatted_address": "4,1(13)",
    "phone_number": "+48602390221",
    "source_url": "https://www.google.com/maps/place/Wodna+Przysta%C5%84+-+wypo%C5%BCyczalnia+sprz%C4%99tu+wodnego/data=!4m7!3m6!1s0x4704f9005125dffb:0x55551802fdcc74bb!8m2!3d52.2500402!4d17.0788395!16s%2Fg%2F11y546fw_r!19sChIJ-98lUQD5BEcRu3TM_QIYVVU?authuser=0&hl=tr&rclk=1",
    "website_url": "",
    "rating_text": "4,1",
    "stars": null,
    "number_of_reviews": null,
    "price_level": "",
    "open_hours": "",
    "extraction_timestamp": "2025-06-07T17:26:16.130Z",
    "source_name": "google",
    "source_query": "Irrigation Equipment",
    "source_country": "PL",
    "country": "Poland",
    "state": "Greater Poland Voivodeship",
    "city": "Kórnik"
  },
  {
    "source_id": "ChIJFVCITOVPBEcRG-lA_g1qlqk",
    "name": "Technika Wody",
    "category": "Technika Wody",
    "formatted_address": "4,6(288)",
    "phone_number": "+48502506622",
    "source_url": "https://www.google.com/maps/place/Technika+Wody/data=!4m7!3m6!1s0x47044fe54c885015:0xa9966a0dfe40e91b!8m2!3d52.3740842!4d16.819808!16s%2Fg%2F11b7vsdjf5!19sChIJFVCITOVPBEcRG-lA_g1qlqk?authuser=0&hl=tr&rclk=1",
    "website_url": "http://technikawody.pl/",
    "rating_text": "4,6",
    "stars": null,
    "number_of_reviews": null,
    "price_level": "",
    "open_hours": "",
    "extraction_timestamp": "2025-06-07T17:26:16.132Z",
    "source_name": "google",
    "source_query": "Irrigation Equipment",
    "source_country": "PL",
    "country": "Poland",
    "state": "Greater Poland Voivodeship",
    "city": "Kórnik"
  },
  {
    "source_id": "ChIJLbz7J8j4BEcRXr5x7oFVo9U",
    "name": "Sklep Ogrodniczy Magnolia",
    "category": "Sklep Ogrodniczy Magnolia",
    "formatted_address": "4,7(119)",
    "phone_number": "+48602467654",
    "source_url": "https://www.google.com/maps/place/Sklep+Ogrodniczy+Magnolia/data=!4m7!3m6!1s0x4704f8c827fbbc2d:0xd5a35581ee71be5e!8m2!3d52.2393627!4d17.0967377!16s%2Fg%2F1tcxnch_!19sChIJLbz7J8j4BEcRXr5x7oFVo9U?authuser=0&hl=tr&rclk=1",
    "website_url": "http://www.magnolia.org.pl/",
    "rating_text": "4,7",
    "stars": null,
    "number_of_reviews": null,
    "price_level": "",
    "open_hours": "",
    "extraction_timestamp": "2025-06-07T17:26:16.133Z",
    "source_name": "google",
    "source_query": "Irrigation Equipment",
    "source_country": "PL",
    "country": "Poland",
    "state": "Greater Poland Voivodeship",
    "city": "Kórnik"
  },
  {
    "source_id": "ChIJvZ2prS3_BEcR347DAwNNAI0",
    "name": "Hydro Works S.C.",
    "category": "Hydro Works S.C.",
    "formatted_address": "5,0(8)",
    "phone_number": "+48531313321",
    "source_url": "https://www.google.com/maps/place/Hydro+Works+S.C./data=!4m7!3m6!1s0x4704ff2dada99dbd:0x8d004d0303c38edf!8m2!3d52.2256744!4d17.1082136!16s%2Fg%2F11cs3v3qgm!19sChIJvZ2prS3_BEcR347DAwNNAI0?authuser=0&hl=tr&rclk=1",
    "website_url": "http://www.hydroworks.pl/",
    "rating_text": "5,0",
    "stars": null,
    "number_of_reviews": null,
    "price_level": "",
    "open_hours": "",
    "extraction_timestamp": "2025-06-07T17:26:16.135Z",
    "source_name": "google",
    "source_query": "Irrigation Equipment",
    "source_country": "PL",
    "country": "Poland",
    "state": "Greater Poland Voivodeship",
    "city": "Kórnik"
  },
  {
    "source_id": "ChIJt4pGL734BEcRZXhFdXKWRR4",
    "name": "Eko-rozwiązania Sp. z o.o. sp.k",
    "category": "Eko-rozwiązania Sp. z o.o. sp.k",
    "formatted_address": "4,8(5)",
    "phone_number": "+48501303029",
    "source_url": "https://www.google.com/maps/place/Eko-rozwi%C4%85zania+Sp.+z+o.o.+sp.k/data=!4m7!3m6!1s0x4704f8bd2f468ab7:0x1e45967275457865!8m2!3d52.2514043!4d17.0890827!16s%2Fg%2F11c7t81wvv!19sChIJt4pGL734BEcRZXhFdXKWRR4?authuser=0&hl=tr&rclk=1",
    "website_url": "http://www.eko-rozwiazania.pl/",
    "rating_text": "4,8",
    "stars": null,
    "number_of_reviews": null,
    "price_level": "",
    "open_hours": "",
    "extraction_timestamp": "2025-06-07T17:26:16.137Z",
    "source_name": "google",
    "source_query": "Irrigation Equipment",
    "source_country": "PL",
    "country": "Poland",
    "state": "Greater Poland Voivodeship",
    "city": "Kórnik"
  },
  {
    "source_id": "ChIJecTaJsj4BEcRgFUWnOVqjmo",
    "name": "DOBRY OGRÓD",
    "category": "DOBRY OGRÓD",
    "formatted_address": "5,0(9)",
    "phone_number": "+48664465203",
    "source_url": "https://www.google.com/maps/place/DOBRY+OGR%C3%93D/data=!4m7!3m6!1s0x4704f8c826dac479:0x6a8e6ae59c165580!8m2!3d52.2398938!4d17.0974657!16s%2Fg%2F1tj7crmh!19sChIJecTaJsj4BEcRgFUWnOVqjmo?authuser=0&hl=tr&rclk=1",
    "website_url": "http://www.dobry-ogrod.pl/",
    "rating_text": "5,0",
    "stars": null,
    "number_of_reviews": null,
    "price_level": "",
    "open_hours": "",
    "extraction_timestamp": "2025-06-07T17:26:16.138Z",
    "source_name": "google",
    "source_query": "Irrigation Equipment",
    "source_country": "PL",
    "country": "Poland",
    "state": "Greater Poland Voivodeship",
    "city": "Kórnik"
  },
  {
    "source_id": "ChIJXRs5mwVQBEcR9g4YTDKz2to",
    "name": "Instalacje Sanitarne - Sanit Projekt",
    "category": "Instalacje Sanitarne - Sanit Projekt",
    "formatted_address": "",
    "phone_number": "+48605061771",
    "source_url": "https://www.google.com/maps/place/Instalacje+Sanitarne+-+Sanit+Projekt/data=!4m7!3m6!1s0x470450059b391b5d:0xdadab3324c180ef6!8m2!3d52.2492628!4d17.0553885!16s%2Fg%2F11g1llk_gj!19sChIJXRs5mwVQBEcR9g4YTDKz2to?authuser=0&hl=tr&rclk=1",
    "website_url": "http://www.sanitprojekt.com.pl/",
    "rating_text": "",
    "stars": null,
    "number_of_reviews": null,
    "price_level": "",
    "open_hours": "",
    "extraction_timestamp": "2025-06-07T17:26:16.140Z",
    "source_name": "google",
    "source_query": "Irrigation Equipment",
    "source_country": "PL",
    "country": "Poland",
    "state": "Greater Poland Voivodeship",
    "city": "Kórnik"
  },
  {
    "source_id": "ChIJ2d4-0cpGBEcRTya15XLl9W0",
    "name": "POLGAR Garniewicz Wełniak spółka komandytowa",
    "category": "POLGAR Garniewicz Wełniak spółka komandytowa",
    "formatted_address": "4,5(23)",
    "phone_number": "+48618160631",
    "source_url": "https://www.google.com/maps/place/POLGAR+Garniewicz+We%C5%82niak+sp%C3%B3%C5%82ka+komandytowa/data=!4m7!3m6!1s0x470446cad13eded9:0x6df5e572e5b5264f!8m2!3d52.4535218!4d16.7706987!16s%2Fg%2F1tlzywfq!19sChIJ2d4-0cpGBEcRTya15XLl9W0?authuser=0&hl=tr&rclk=1",
    "website_url": "http://polgar.com.pl/",
    "rating_text": "4,5",
    "stars": null,
    "number_of_reviews": null,
    "price_level": "",
    "open_hours": "",
    "extraction_timestamp": "2025-06-07T17:26:16.159Z",
    "source_name": "google",
    "source_query": "Irrigation Equipment",
    "source_country": "PL",
    "country": "Poland",
    "state": "Greater Poland Voivodeship",
    "city": "Kórnik"
  },
  {
    "source_id": "ChIJB6y_v5J2HEcRlDfYx3xmc9M",
    "name": "Milex irrigation systems",
    "category": "Milex irrigation systems",
    "formatted_address": "4,6(37)",
    "phone_number": "+48242775222",
    "source_url": "https://www.google.com/maps/place/Milex+irrigation+systems/data=!4m7!3m6!1s0x471c7692bfbfac07:0xd373667cc7d83794!8m2!3d52.4690634!4d19.7520904!16s%2Fg%2F1w2yy67r!19sChIJB6y_v5J2HEcRlDfYx3xmc9M?authuser=0&hl=tr&rclk=1",
    "website_url": "https://www.milex.pl/",
    "rating_text": "4,6",
    "stars": null,
    "number_of_reviews": null,
    "price_level": "",
    "open_hours": "",
    "extraction_timestamp": "2025-06-07T17:26:16.161Z",
    "source_name": "google",
    "source_query": "Irrigation Equipment",
    "source_country": "PL",
    "country": "Poland",
    "state": "Greater Poland Voivodeship",
    "city": "Kórnik"
  },
  {
    "source_id": "ChIJn0a4erv4BEcRNcQZ15h0ves",
    "name": "Fountain",
    "category": "Fountain",
    "formatted_address": "4,6(203)",
    "phone_number": "",
    "source_url": "https://www.google.com/maps/place/Fountain/data=!4m7!3m6!1s0x4704f8bb7ab8469f:0xebbd7498d719c435!8m2!3d52.2476919!4d17.0889508!16s%2Fg%2F11hcz1nd8r!19sChIJn0a4erv4BEcRNcQZ15h0ves?authuser=0&hl=tr&rclk=1",
    "website_url": "",
    "rating_text": "4,6",
    "stars": null,
    "number_of_reviews": null,
    "price_level": "",
    "open_hours": "",
    "extraction_timestamp": "2025-06-07T17:26:16.162Z",
    "source_name": "google",
    "source_query": "Irrigation Equipment",
    "source_country": "PL",
    "country": "Poland",
    "state": "Greater Poland Voivodeship",
    "city": "Kórnik"
  },
  {
    "source_id": "ChIJWQF-nLv4BEcRdToSg2jTtCs",
    "name": "RADEMENES Zoologia-Wędkarstwo Waldemar Poprawski",
    "category": "RADEMENES Zoologia-Wędkarstwo Waldemar Poprawski",
    "formatted_address": "4,4(210)",
    "phone_number": "+48501167969",
    "source_url": "https://www.google.com/maps/place/RADEMENES+Zoologia-W%C4%99dkarstwo+Waldemar+Poprawski/data=!4m7!3m6!1s0x4704f8bb9c7e0159:0x2bb4d36883123a75!8m2!3d52.2473427!4d17.0905545!16s%2Fg%2F1ptwf8t2t!19sChIJWQF-nLv4BEcRdToSg2jTtCs?authuser=0&hl=tr&rclk=1",
    "website_url": "",
    "rating_text": "4,4",
    "stars": null,
    "number_of_reviews": null,
    "price_level": "",
    "open_hours": "",
    "extraction_timestamp": "2025-06-07T17:26:16.163Z",
    "source_name": "google",
    "source_query": "Irrigation Equipment",
    "source_country": "PL",
    "country": "Poland",
    "state": "Greater Poland Voivodeship",
    "city": "Kórnik"
  },
  {
    "source_id": "ChIJfZTqnnP5BEcRKgZI6TV7ZJY",
    "name": "P.u.h.\"Bartex\" Bartosz Żyto",
    "category": "P.u.h.\"Bartex\" Bartosz Żyto",
    "formatted_address": "",
    "phone_number": "+48601426455",
    "source_url": "https://www.google.com/maps/place/P.u.h.%22Bartex%22+Bartosz+%C5%BByto/data=!4m7!3m6!1s0x4704f9739eea947d:0x96647b35e948062a!8m2!3d52.239781!4d17.096907!16s%2Fg%2F11q9z_mfgc!19sChIJfZTqnnP5BEcRKgZI6TV7ZJY?authuser=0&hl=tr&rclk=1",
    "website_url": "http://bartexuslugi.pl/",
    "rating_text": "",
    "stars": null,
    "number_of_reviews": null,
    "price_level": "",
    "open_hours": "",
    "extraction_timestamp": "2025-06-07T17:26:16.165Z",
    "source_name": "google",
    "source_query": "Irrigation Equipment",
    "source_country": "PL",
    "country": "Poland",
    "state": "Greater Poland Voivodeship",
    "city": "Kórnik"
  },
  {
    "source_id": "ChIJP16aIMj4BEcRxS3K_XbJjp4",
    "name": "A.M.S. Centrum Sławomir Łasiński",
    "category": "A.M.S. Centrum Sławomir Łasiński",
    "formatted_address": "4,7(171)",
    "phone_number": "+48618190118",
    "source_url": "https://www.google.com/maps/place/A.M.S.+Centrum+S%C5%82awomir+%C5%81asi%C5%84ski/data=!4m7!3m6!1s0x4704f8c8209a5e3f:0x9e8ec976fdca2dc5!8m2!3d52.2401869!4d17.0979585!16s%2Fg%2F1tft_7fs!19sChIJP16aIMj4BEcRxS3K_XbJjp4?authuser=0&hl=tr&rclk=1",
    "website_url": "http://www.amscentrum.pl/",
    "rating_text": "4,7",
    "stars": null,
    "number_of_reviews": null,
    "price_level": "",
    "open_hours": "",
    "extraction_timestamp": "2025-06-07T17:26:16.167Z",
    "source_name": "google",
    "source_query": "Irrigation Equipment",
    "source_country": "PL",
    "country": "Poland",
    "state": "Greater Poland Voivodeship",
    "city": "Kórnik"
  },
  {
    "source_id": "ChIJFbLpyzf_BEcRZmXIEgNsYF8",
    "name": "Lasek-Kujawa Danuta. Art. spożywcze",
    "category": "Lasek-Kujawa Danuta. Art. spożywcze",
    "formatted_address": "4,0(4)",
    "phone_number": "+48618170777",
    "source_url": "https://www.google.com/maps/place/Lasek-Kujawa+Danuta.+Art.+spo%C5%BCywcze/data=!4m7!3m6!1s0x4704ff37cbe9b215:0x5f606c0312c86566!8m2!3d52.223505!4d17.088476!16s%2Fg%2F1thw0w9w!19sChIJFbLpyzf_BEcRZmXIEgNsYF8?authuser=0&hl=tr&rclk=1",
    "website_url": "",
    "rating_text": "4,0",
    "stars": null,
    "number_of_reviews": null,
    "price_level": "",
    "open_hours": "",
    "extraction_timestamp": "2025-06-07T17:26:16.168Z",
    "source_name": "google",
    "source_query": "Irrigation Equipment",
    "source_country": "PL",
    "country": "Poland",
    "state": "Greater Poland Voivodeship",
    "city": "Kórnik"
  },
  {
    "source_id": "ChIJ29gdnFUqcqQRMt-fTaFbgmo",
    "name": "Błysk Hydraulik 24h Pogotowie wod-kan 24h Pranie tapicerki kanap",
    "category": "Błysk Hydraulik 24h Pogotowie wod-kan 24h Pranie tapicerki kanap",
    "formatted_address": "5,0(3)",
    "phone_number": "+48510618908",
    "source_url": "https://www.google.com/maps/place/B%C5%82ysk+Hydraulik+24h+Pogotowie+wod-kan+24h+Pranie+tapicerki+kanap/data=!4m7!3m6!1s0xa4722a559c1dd8db:0x6a825ba14d9fdf32!8m2!3d52.3422287!4d16.8834239!16s%2Fg%2F11scrb49p0!19sChIJ29gdnFUqcqQRMt-fTaFbgmo?authuser=0&hl=tr&rclk=1",
    "website_url": "",
    "rating_text": "5,0",
    "stars": null,
    "number_of_reviews": null,
    "price_level": "",
    "open_hours": "",
    "extraction_timestamp": "2025-06-07T17:26:16.169Z",
    "source_name": "google",
    "source_query": "Irrigation Equipment",
    "source_country": "PL",
    "country": "Poland",
    "state": "Greater Poland Voivodeship",
    "city": "Kórnik"
  },
  {
    "source_id": "ChIJx9dLaaM-BEcR0BMvflVq1Po",
    "name": "GRASSLAND FARMS",
    "category": "GRASSLAND FARMS",
    "formatted_address": "4,4(103)",
    "phone_number": "+48602382601",
    "source_url": "https://www.google.com/maps/place/GRASSLAND+FARMS/data=!4m7!3m6!1s0x47043ea3694bd7c7:0xfad46a557e2f13d0!8m2!3d52.5034131!4d16.5908032!16s%2Fg%2F1tlczwnb!19sChIJx9dLaaM-BEcR0BMvflVq1Po?authuser=0&hl=tr&rclk=1",
    "website_url": "http://www.grasslandfarms.pl/",
    "rating_text": "4,4",
    "stars": null,
    "number_of_reviews": null,
    "price_level": "",
    "open_hours": "",
    "extraction_timestamp": "2025-06-07T17:26:16.170Z",
    "source_name": "google",
    "source_query": "Irrigation Equipment",
    "source_country": "PL",
    "country": "Poland",
    "state": "Greater Poland Voivodeship",
    "city": "Kórnik"
  },
  {
    "source_id": "ChIJR1Gy6FdHBEcRxLXa4mu3HY8",
    "name": "Fargo PW Centrum Ogrodnicze - Sklep Ogrodniczy i Rolniczy",
    "category": "Fargo PW Centrum Ogrodnicze - Sklep Ogrodniczy i Rolniczy",
    "formatted_address": "4,8(387)",
    "phone_number": "+48618146334",
    "source_url": "https://www.google.com/maps/place/Fargo+PW+Centrum+Ogrodnicze+-+Sklep+Ogrodniczy+i+Rolniczy/data=!4m7!3m6!1s0x47044757e8b25147:0x8f1db76be2dab5c4!8m2!3d52.4575027!4d16.6792707!16s%2Fg%2F1ptwzycf8!19sChIJR1Gy6FdHBEcRxLXa4mu3HY8?authuser=0&hl=tr&rclk=1",
    "website_url": "https://fargotarnowo.pl/",
    "rating_text": "4,8",
    "stars": null,
    "number_of_reviews": null,
    "price_level": "",
    "open_hours": "",
    "extraction_timestamp": "2025-06-07T17:26:16.171Z",
    "source_name": "google",
    "source_query": "Irrigation Equipment",
    "source_country": "PL",
    "country": "Poland",
    "state": "Greater Poland Voivodeship",
    "city": "Kórnik"
  },
  {
    "source_id": "ChIJEcFieyNaBEcRXPtIc9eaIL0",
    "name": "M&M-BUD",
    "category": "M&M-BUD",
    "formatted_address": "5,0(110)",
    "phone_number": "+48609187655",
    "source_url": "https://www.google.com/maps/place/M%26M-BUD/data=!4m7!3m6!1s0x47045a237b62c111:0xbd209ad77348fb5c!8m2!3d52.360194!4d16.99677!16s%2Fg%2F11f_vfg5qx!19sChIJEcFieyNaBEcRXPtIc9eaIL0?authuser=0&hl=tr&rclk=1",
    "website_url": "http://osuszanie-poznan.pl/",
    "rating_text": "5,0",
    "stars": null,
    "number_of_reviews": null,
    "price_level": "",
    "open_hours": "",
    "extraction_timestamp": "2025-06-07T17:26:16.172Z",
    "source_name": "google",
    "source_query": "Irrigation Equipment",
    "source_country": "PL",
    "country": "Poland",
    "state": "Greater Poland Voivodeship",
    "city": "Kórnik"
  },
  {
    "source_id": "ChIJBVnjAp0ABUcRFWrER_0PBAg",
    "name": "Studzienki",
    "category": "Studzienki",
    "formatted_address": "4,6(9)",
    "phone_number": "+48795977712",
    "source_url": "https://www.google.com/maps/place/Studzienki/data=!4m7!3m6!1s0x4705009d02e35905:0x8040ffd47c46a15!8m2!3d52.0691871!4d17.0394171!16s%2Fg%2F11fmmdybt8!19sChIJBVnjAp0ABUcRFWrER_0PBAg?authuser=0&hl=tr&rclk=1",
    "website_url": "https://studzienki.pl/",
    "rating_text": "4,6",
    "stars": null,
    "number_of_reviews": null,
    "price_level": "",
    "open_hours": "",
    "extraction_timestamp": "2025-06-07T17:26:16.173Z",
    "source_name": "google",
    "source_query": "Irrigation Equipment",
    "source_country": "PL",
    "country": "Poland",
    "state": "Greater Poland Voivodeship",
    "city": "Kórnik"
  },
  {
    "source_id": "ChIJ9RGassn8PG4RQVvaDmQ9beI",
    "name": "Ogrody Perfecto Jakub Pawlak",
    "category": "Ogrody Perfecto Jakub Pawlak",
    "formatted_address": "5,0(4)",
    "phone_number": "+48884884394",
    "source_url": "https://www.google.com/maps/place/Ogrody+Perfecto+Jakub+Pawlak/data=!4m7!3m6!1s0x6e3cfcc9b29a11f5:0xe26d3d640eda5b41!8m2!3d52.4006266!4d16.8551548!16s%2Fg%2F11x1gz74b3!19sChIJ9RGassn8PG4RQVvaDmQ9beI?authuser=0&hl=tr&rclk=1",
    "website_url": "",
    "rating_text": "5,0",
    "stars": null,
    "number_of_reviews": null,
    "price_level": "",
    "open_hours": "",
    "extraction_timestamp": "2025-06-07T17:26:16.174Z",
    "source_name": "google",
    "source_query": "Irrigation Equipment",
    "source_country": "PL",
    "country": "Poland",
    "state": "Greater Poland Voivodeship",
    "city": "Kórnik"
  },
  {
    "source_id": "ChIJQ9Wcp9laBEcRgVdx1f9fOZ8",
    "name": "Mikas Instalacje",
    "category": "Mikas Instalacje",
    "formatted_address": "4,7(58)",
    "phone_number": "+48616497070",
    "source_url": "https://www.google.com/maps/place/Mikas+Instalacje/data=!4m7!3m6!1s0x47045ad9a79cd543:0x9f395fffd5715781!8m2!3d52.3856728!4d16.9154114!16s%2Fg%2F1vn9msv6!19sChIJQ9Wcp9laBEcRgVdx1f9fOZ8?authuser=0&hl=tr&rclk=1",
    "website_url": "https://e-mikas.com.pl/",
    "rating_text": "4,7",
    "stars": null,
    "number_of_reviews": null,
    "price_level": "",
    "open_hours": "",
    "extraction_timestamp": "2025-06-07T17:26:16.175Z",
    "source_name": "google",
    "source_query": "Irrigation Equipment",
    "source_country": "PL",
    "country": "Poland",
    "state": "Greater Poland Voivodeship",
    "city": "Kórnik"
  },
  {
    "source_id": "ChIJ2WaF3qBEBEcRkh3RiSlpbG8",
    "name": "Dankar Usługi Budowlane WOD-KAN I C.O. Kosztorysowanie Danuta Pyssa Pogotowie 24H Usuwanie awarii wodociągowych",
    "category": "Dankar Usługi Budowlane WOD-KAN I C.O. Kosztorysowanie Danuta Pyssa Pogotowie 24H Usuwanie awarii wodociągowych",
    "formatted_address": "3,8(5)",
    "phone_number": "+48606261146",
    "source_url": "https://www.google.com/maps/place/Dankar+Us%C5%82ugi+Budowlane+WOD-KAN+I+C.O.+Kosztorysowanie+Danuta+Pyssa+Pogotowie+24H+Usuwanie+awarii+wodoci%C4%85gowych/data=!4m7!3m6!1s0x470444a0de8566d9:0x6f6c692989d11d92!8m2!3d52.4340201!4d16.8965348!16s%2Fg%2F1tm__y40!19sChIJ2WaF3qBEBEcRkh3RiSlpbG8?authuser=0&hl=tr&rclk=1",
    "website_url": "http://www.dankar.biz/",
    "rating_text": "3,8",
    "stars": null,
    "number_of_reviews": null,
    "price_level": "",
    "open_hours": "",
    "extraction_timestamp": "2025-06-07T17:26:16.176Z",
    "source_name": "google",
    "source_query": "Irrigation Equipment",
    "source_country": "PL",
    "country": "Poland",
    "state": "Greater Poland Voivodeship",
    "city": "Kórnik"
  },
  {
    "source_id": "ChIJbfw_EaNXBEcR_4WcJdE-X0w",
    "name": "P.H.P.U. ROMGAZ Roman Sobczak",
    "category": "P.H.P.U. ROMGAZ Roman Sobczak",
    "formatted_address": "4,4(7)",
    "phone_number": "+48616675475",
    "source_url": "https://www.google.com/maps/place/P.H.P.U.+ROMGAZ+Roman+Sobczak/data=!4m7!3m6!1s0x470457a3113ffc6d:0x4c5f3ed1259c85ff!8m2!3d52.2994135!4d17.050767!16s%2Fg%2F1tdl4v7y!19sChIJbfw_EaNXBEcR_4WcJdE-X0w?authuser=0&hl=tr&rclk=1",
    "website_url": "http://www.romgaz.net/",
    "rating_text": "4,4",
    "stars": null,
    "number_of_reviews": null,
    "price_level": "",
    "open_hours": "",
    "extraction_timestamp": "2025-06-07T17:26:16.177Z",
    "source_name": "google",
    "source_query": "Irrigation Equipment",
    "source_country": "PL",
    "country": "Poland",
    "state": "Greater Poland Voivodeship",
    "city": "Kórnik"
  },
  {
    "source_id": "ChIJA0aoFFVaBEcRUDG0cZBTfKA",
    "name": "PROFITANK",
    "category": "PROFITANK",
    "formatted_address": "5,0(3)",
    "phone_number": "+48793003330",
    "source_url": "https://www.google.com/maps/place/PROFITANK/data=!4m7!3m6!1s0x47045a5514a84603:0xa07c539071b43150!8m2!3d52.3672361!4d16.9806108!16s%2Fg%2F11hyxnkjjg!19sChIJA0aoFFVaBEcRUDG0cZBTfKA?authuser=0&hl=tr&rclk=1",
    "website_url": "https://profitank.pl/kontakt/",
    "rating_text": "5,0",
    "stars": null,
    "number_of_reviews": null,
    "price_level": "",
    "open_hours": "",
    "extraction_timestamp": "2025-06-07T17:26:16.177Z",
    "source_name": "google",
    "source_query": "Irrigation Equipment",
    "source_country": "PL",
    "country": "Poland",
    "state": "Greater Poland Voivodeship",
    "city": "Kórnik"
  },
  {
    "source_id": "ChIJhxpPzOUABUcRHOUzDpfcpjU",
    "name": "KT-24 Sklep z kosiarkami, myjkami ciśnieniowymi, klimatyzacje",
    "category": "KT-24 Sklep z kosiarkami, myjkami ciśnieniowymi, klimatyzacje",
    "formatted_address": "KT-24 Sklep z kosiarkami, myjkami ciśnieniowymi, klimatyzacje",
    "phone_number": "+48570977712",
    "source_url": "https://www.google.com/maps/place/KT-24+Sklep+z+kosiarkami,+myjkami+ci%C5%9Bnieniowymi,+klimatyzacje/data=!4m7!3m6!1s0x470500e5cc4f1a87:0x35a6dc970e33e51c!8m2!3d52.1034655!4d16.9821456!16s%2Fg%2F1pv1ntphw!19sChIJhxpPzOUABUcRHOUzDpfcpjU?authuser=0&hl=tr&rclk=1",
    "website_url": "https://kt-24.eu/",
    "rating_text": "3,8",
    "stars": null,
    "number_of_reviews": null,
    "price_level": "",
    "open_hours": "",
    "extraction_timestamp": "2025-06-07T17:26:16.178Z",
    "source_name": "google",
    "source_query": "Irrigation Equipment",
    "source_country": "PL",
    "country": "Poland",
    "state": "Greater Poland Voivodeship",
    "city": "Kórnik"
  },
  {
    "source_id": "ChIJLYhEm6xDBEcRyx2zr8tDWH0",
    "name": "Rafamarina Centrum Morsów",
    "category": "Rafamarina Centrum Morsów",
    "formatted_address": "4,7(137)",
    "phone_number": "+48508907032",
    "source_url": "https://www.google.com/maps/place/Rafamarina+Centrum+Mors%C3%B3w/data=!4m7!3m6!1s0x470443ac9b44882d:0x7d5843cbafb31dcb!8m2!3d52.463029!4d16.8258449!16s%2Fg%2F11h2l8fqp8!19sChIJLYhEm6xDBEcRyx2zr8tDWH0?authuser=0&hl=tr&rclk=1",
    "website_url": "",
    "rating_text": "4,7",
    "stars": null,
    "number_of_reviews": null,
    "price_level": "",
    "open_hours": "",
    "extraction_timestamp": "2025-06-07T17:26:16.179Z",
    "source_name": "google",
    "source_query": "Irrigation Equipment",
    "source_country": "PL",
    "country": "Poland",
    "state": "Greater Poland Voivodeship",
    "city": "Kórnik"
  },
  {
    "source_id": "ChIJDTYSciJaBEcRMKxd7OEiRnQ",
    "name": "Marlin Poznań — Hurtownia techniki grzewczej i sanitarnej, Centrum Pomp Ciepła",
    "category": "Marlin Poznań — Hurtownia techniki grzewczej i sanitarnej, Centrum Pomp Ciepła",
    "formatted_address": "Marlin Poznań — Hurtownia techniki grzewczej i sanitarnej, Centrum Pomp Ciepła",
    "phone_number": "+48533336135",
    "source_url": "https://www.google.com/maps/place/Marlin+Pozna%C5%84+%E2%80%94+Hurtownia+techniki+grzewczej+i+sanitarnej,+Centrum+Pomp+Ciep%C5%82a/data=!4m7!3m6!1s0x47045a227212360d:0x744622e1ec5dac30!8m2!3d52.355804!4d16.996456!16s%2Fg%2F11b6dcyvbs!19sChIJDTYSciJaBEcRMKxd7OEiRnQ?authuser=0&hl=tr&rclk=1",
    "website_url": "http://www.marlin.com.pl/",
    "rating_text": "5,0",
    "stars": null,
    "number_of_reviews": null,
    "price_level": "",
    "open_hours": "",
    "extraction_timestamp": "2025-06-07T17:26:16.180Z",
    "source_name": "google",
    "source_query": "Irrigation Equipment",
    "source_country": "PL",
    "country": "Poland",
    "state": "Greater Poland Voivodeship",
    "city": "Kórnik"
  }
]
