[
  {
    "source_id": "ChIJnWY89LIKEEcRotPKkxP4A2I",
    "name": "Air Products",
    "category": "Air Products",
    "formatted_address": "5,0(4)",
    "phone_number": "",
    "source_url": "https://www.google.com/maps/place/Air+Products/data=!4m7!3m6!1s0x47100ab2f43c669d:0x6203f81393cad3a2!8m2!3d51.294676!4d18.005707!16s%2Fg%2F11j7d9vwf3!19sChIJnWY89LIKEEcRotPKkxP4A2I?authuser=0&hl=tr&rclk=1",
    "website_url": "",
    "rating_text": "5,0",
    "stars": null,
    "number_of_reviews": null,
    "price_level": "",
    "open_hours": "",
    "extraction_timestamp": "2025-06-07T17:22:36.726Z",
    "source_name": "google",
    "source_query": "Irrigation Equipment",
    "source_country": "PL",
    "country": "Poland",
    "state": "Greater Poland Voivodeship",
    "city": "Kępno"
  },
  {
    "source_id": "ChIJt-fmBJ8LEEcRcWDvKhf7n5o",
    "name": "AVERD",
    "category": "AVERD",
    "formatted_address": "5,0(5)",
    "phone_number": "+48536843707",
    "source_url": "https://www.google.com/maps/place/AVERD/data=!4m7!3m6!1s0x47100b9f04e6e7b7:0x9a9ffb172aef6071!8m2!3d51.2808999!4d17.9770751!16s%2Fg%2F11h3kfjz2q!19sChIJt-fmBJ8LEEcRcWDvKhf7n5o?authuser=0&hl=tr&rclk=1",
    "website_url": "",
    "rating_text": "5,0",
    "stars": null,
    "number_of_reviews": null,
    "price_level": "",
    "open_hours": "",
    "extraction_timestamp": "2025-06-07T17:22:36.727Z",
    "source_name": "google",
    "source_query": "Irrigation Equipment",
    "source_country": "PL",
    "country": "Poland",
    "state": "Greater Poland Voivodeship",
    "city": "Kępno"
  },
  {
    "source_id": "ChIJx0fc_NMKEEcRWWNW2iGqxG0",
    "name": "Artykuły Sanitarne - Bud-Rol",
    "category": "Artykuły Sanitarne - Bud-Rol",
    "formatted_address": "4,6(28)",
    "phone_number": "+48627820103",
    "source_url": "https://www.google.com/maps/place/Artyku%C5%82y+Sanitarne+-+Bud-Rol/data=!4m7!3m6!1s0x47100ad3fcdc47c7:0x6dc4aa21da566359!8m2!3d51.272925!4d17.986146!16s%2Fg%2F1tf6ky4f!19sChIJx0fc_NMKEEcRWWNW2iGqxG0?authuser=0&hl=tr&rclk=1",
    "website_url": "",
    "rating_text": "4,6",
    "stars": null,
    "number_of_reviews": null,
    "price_level": "",
    "open_hours": "",
    "extraction_timestamp": "2025-06-07T17:22:36.728Z",
    "source_name": "google",
    "source_query": "Irrigation Equipment",
    "source_country": "PL",
    "country": "Poland",
    "state": "Greater Poland Voivodeship",
    "city": "Kępno"
  },
  {
    "source_id": "ChIJz9BYyc4KEEcR8zobPbVcAQE",
    "name": "Bud-Met. Sklep z art. instalacyjno - hydraulicznymi. Sopart R.M.W.",
    "category": "Bud-Met. Sklep z art. instalacyjno - hydraulicznymi. Sopart R.M.W.",
    "formatted_address": "4,8(76)",
    "phone_number": "+48451562905",
    "source_url": "https://www.google.com/maps/place/Bud-Met.+Sklep+z+art.+instalacyjno+-+hydraulicznymi.+Sopart+R.M.W./data=!4m7!3m6!1s0x47100acec958d0cf:0x1015cb53d1b3af3!8m2!3d51.2816416!4d17.9885993!16s%2Fg%2F1th7x20v!19sChIJz9BYyc4KEEcR8zobPbVcAQE?authuser=0&hl=tr&rclk=1",
    "website_url": "",
    "rating_text": "4,8",
    "stars": null,
    "number_of_reviews": null,
    "price_level": "",
    "open_hours": "",
    "extraction_timestamp": "2025-06-07T17:22:36.729Z",
    "source_name": "google",
    "source_query": "Irrigation Equipment",
    "source_country": "PL",
    "country": "Poland",
    "state": "Greater Poland Voivodeship",
    "city": "Kępno"
  },
  {
    "source_id": "ChIJ1a-BvdMLEEcRH1FRSV9Kk00",
    "name": "Hydro INSTAL Usługi Hydrauliczne Hydraulik Kępno",
    "category": "Hydro INSTAL Usługi Hydrauliczne Hydraulik Kępno",
    "formatted_address": "5,0(6)",
    "phone_number": "+48536843707",
    "source_url": "https://www.google.com/maps/place/Hydro+INSTAL+Us%C5%82ugi+Hydrauliczne+Hydraulik+K%C4%99pno/data=!4m7!3m6!1s0x47100bd3bd81afd5:0x4d934a5f4951511f!8m2!3d51.280272!4d17.9773528!16s%2Fg%2F11shddrfm1!19sChIJ1a-BvdMLEEcRH1FRSV9Kk00?authuser=0&hl=tr&rclk=1",
    "website_url": "",
    "rating_text": "5,0",
    "stars": null,
    "number_of_reviews": null,
    "price_level": "",
    "open_hours": "",
    "extraction_timestamp": "2025-06-07T17:22:36.730Z",
    "source_name": "google",
    "source_query": "Irrigation Equipment",
    "source_country": "PL",
    "country": "Poland",
    "state": "Greater Poland Voivodeship",
    "city": "Kępno"
  },
  {
    "source_id": "ChIJR4t27MIKEEcR8Ys_sVM3Ssc",
    "name": "Maszyny do cięcia pianki CNC Kępno",
    "category": "Maszyny do cięcia pianki CNC Kępno",
    "formatted_address": "4,8(8)",
    "phone_number": "+48723882783",
    "source_url": "https://www.google.com/maps/place/Maszyny+do+ci%C4%99cia+pianki+CNC+K%C4%99pno/data=!4m7!3m6!1s0x47100ac2ec768b47:0xc74a3753b13f8bf1!8m2!3d51.2819409!4d17.971004!16s%2Fg%2F1tfj1xb5!19sChIJR4t27MIKEEcR8Ys_sVM3Ssc?authuser=0&hl=tr&rclk=1",
    "website_url": "",
    "rating_text": "4,8",
    "stars": null,
    "number_of_reviews": null,
    "price_level": "",
    "open_hours": "",
    "extraction_timestamp": "2025-06-07T17:22:36.731Z",
    "source_name": "google",
    "source_query": "Irrigation Equipment",
    "source_country": "PL",
    "country": "Poland",
    "state": "Greater Poland Voivodeship",
    "city": "Kępno"
  },
  {
    "source_id": "ChIJ0RAXFL8KEEcRxiKlmMV09ug",
    "name": "Polserwis Wojciech Liebner",
    "category": "Polserwis Wojciech Liebner",
    "formatted_address": "4,5(15)",
    "phone_number": "+48627810000",
    "source_url": "https://www.google.com/maps/place/Polserwis+Wojciech+Liebner/data=!4m7!3m6!1s0x47100abf141710d1:0xe8f674c598a522c6!8m2!3d51.2913087!4d17.9807577!16s%2Fg%2F1vknn2rw!19sChIJ0RAXFL8KEEcRxiKlmMV09ug?authuser=0&hl=tr&rclk=1",
    "website_url": "",
    "rating_text": "4,5",
    "stars": null,
    "number_of_reviews": null,
    "price_level": "",
    "open_hours": "",
    "extraction_timestamp": "2025-06-07T17:22:36.732Z",
    "source_name": "google",
    "source_query": "Irrigation Equipment",
    "source_country": "PL",
    "country": "Poland",
    "state": "Greater Poland Voivodeship",
    "city": "Kępno"
  },
  {
    "source_id": "ChIJB3lg7UZ1EEcRKF8pTutMLYA",
    "name": "Voltero - | Fotowoltaika | Pompy ciepła | Klimatyzacje |",
    "category": "Voltero - | Fotowoltaika | Pompy ciepła | Klimatyzacje |",
    "formatted_address": "5,0(26)",
    "phone_number": "+48601743766",
    "source_url": "https://www.google.com/maps/place/Voltero+-+%7C+Fotowoltaika+%7C+Pompy+ciep%C5%82a+%7C+Klimatyzacje+%7C/data=!4m7!3m6!1s0x47107546ed607907:0x802d4ceb4e295f28!8m2!3d51.2671407!4d18.0020656!16s%2Fg%2F11j9ctctn4!19sChIJB3lg7UZ1EEcRKF8pTutMLYA?authuser=0&hl=tr&rclk=1",
    "website_url": "",
    "rating_text": "5,0",
    "stars": null,
    "number_of_reviews": null,
    "price_level": "",
    "open_hours": "",
    "extraction_timestamp": "2025-06-07T17:22:36.733Z",
    "source_name": "google",
    "source_query": "Irrigation Equipment",
    "source_country": "PL",
    "country": "Poland",
    "state": "Greater Poland Voivodeship",
    "city": "Kępno"
  },
  {
    "source_id": "ChIJYWYs_c0KEEcRD529D_y1Mec",
    "name": "Usługi Hydrauliczne Hydro-Pol",
    "category": "Usługi Hydrauliczne Hydro-Pol",
    "formatted_address": "3,0(2)",
    "phone_number": "+48606830688",
    "source_url": "https://www.google.com/maps/place/Us%C5%82ugi+Hydrauliczne+Hydro-Pol/data=!4m7!3m6!1s0x47100acdfd2c6661:0xe731b5fc0fbd9d0f!8m2!3d51.277814!4d17.9904712!16s%2Fg%2F11j7xs629h!19sChIJYWYs_c0KEEcRD529D_y1Mec?authuser=0&hl=tr&rclk=1",
    "website_url": "",
    "rating_text": "3,0",
    "stars": null,
    "number_of_reviews": null,
    "price_level": "",
    "open_hours": "",
    "extraction_timestamp": "2025-06-07T17:22:36.733Z",
    "source_name": "google",
    "source_query": "Irrigation Equipment",
    "source_country": "PL",
    "country": "Poland",
    "state": "Greater Poland Voivodeship",
    "city": "Kępno"
  },
  {
    "source_id": "ChIJ-zyCy4cLEEcR2K32G1F1FT0",
    "name": "HYDRO-MAT Uslugi Hydrauliczne Hydraulik Kępno Ostrzeszów Kobyla Góra",
    "category": "HYDRO-MAT Uslugi Hydrauliczne Hydraulik Kępno Ostrzeszów Kobyla Góra",
    "formatted_address": "5,0(5)",
    "phone_number": "+48725448854",
    "source_url": "https://www.google.com/maps/place/HYDRO-MAT+Uslugi+Hydrauliczne+Hydraulik+K%C4%99pno+Ostrzesz%C3%B3w+Kobyla+G%C3%B3ra/data=!4m7!3m6!1s0x47100b87cb823cfb:0x3d1575511bf6add8!8m2!3d51.2990293!4d18.0064259!16s%2Fg%2F11y31lrhx1!19sChIJ-zyCy4cLEEcR2K32G1F1FT0?authuser=0&hl=tr&rclk=1",
    "website_url": "",
    "rating_text": "5,0",
    "stars": null,
    "number_of_reviews": null,
    "price_level": "",
    "open_hours": "",
    "extraction_timestamp": "2025-06-07T17:22:36.734Z",
    "source_name": "google",
    "source_query": "Irrigation Equipment",
    "source_country": "PL",
    "country": "Poland",
    "state": "Greater Poland Voivodeship",
    "city": "Kępno"
  },
  {
    "source_id": "ChIJk0jz9_gLEEcRpy5Qr_iyUyc",
    "name": "Na Ziarnku",
    "category": "Na Ziarnku",
    "formatted_address": "4,7(7)",
    "phone_number": "+48663074963",
    "source_url": "https://www.google.com/maps/place/Na+Ziarnku/data=!4m7!3m6!1s0x47100bf8f7f34893:0x2753b2f8af502ea7!8m2!3d51.2725836!4d17.9847754!16s%2Fg%2F11swmqvm65!19sChIJk0jz9_gLEEcRpy5Qr_iyUyc?authuser=0&hl=tr&rclk=1",
    "website_url": "",
    "rating_text": "4,7",
    "stars": null,
    "number_of_reviews": null,
    "price_level": "",
    "open_hours": "",
    "extraction_timestamp": "2025-06-07T17:22:36.735Z",
    "source_name": "google",
    "source_query": "Irrigation Equipment",
    "source_country": "PL",
    "country": "Poland",
    "state": "Greater Poland Voivodeship",
    "city": "Kępno"
  },
  {
    "source_id": "ChIJl4YdtdYKEEcRZPiQangnZEA",
    "name": "HYDROEKSPERT. Hydraulik Kępno. Usługi Hydrauliczne",
    "category": "HYDROEKSPERT. Hydraulik Kępno. Usługi Hydrauliczne",
    "formatted_address": "5,0(1)",
    "phone_number": "+48607986338",
    "source_url": "https://www.google.com/maps/place/HYDROEKSPERT.+Hydraulik+K%C4%99pno.+Us%C5%82ugi+Hydrauliczne/data=!4m7!3m6!1s0x47100ad6b51d8697:0x406427786a90f864!8m2!3d51.3052438!4d18.0008121!16s%2Fg%2F11fy4v9kt1!19sChIJl4YdtdYKEEcRZPiQangnZEA?authuser=0&hl=tr&rclk=1",
    "website_url": "",
    "rating_text": "5,0",
    "stars": null,
    "number_of_reviews": null,
    "price_level": "",
    "open_hours": "",
    "extraction_timestamp": "2025-06-07T17:22:36.736Z",
    "source_name": "google",
    "source_query": "Irrigation Equipment",
    "source_country": "PL",
    "country": "Poland",
    "state": "Greater Poland Voivodeship",
    "city": "Kępno"
  },
  {
    "source_id": "ChIJ6XcJqgYLEEcRs-dQTfRFDLo",
    "name": "Action Kepno",
    "category": "Action Kepno",
    "formatted_address": "4,6(396)",
    "phone_number": "+48326305898",
    "source_url": "https://www.google.com/maps/place/Action+Kepno/data=!4m7!3m6!1s0x47100b06aa0977e9:0xba0c45f44d50e7b3!8m2!3d51.2784744!4d17.9923422!16s%2Fg%2F11mvvgpt5b!19sChIJ6XcJqgYLEEcRs-dQTfRFDLo?authuser=0&hl=tr&rclk=1",
    "website_url": "",
    "rating_text": "4,6",
    "stars": null,
    "number_of_reviews": null,
    "price_level": "",
    "open_hours": "",
    "extraction_timestamp": "2025-06-07T17:22:36.736Z",
    "source_name": "google",
    "source_query": "Irrigation Equipment",
    "source_country": "PL",
    "country": "Poland",
    "state": "Greater Poland Voivodeship",
    "city": "Kępno"
  },
  {
    "source_id": "ChIJAfA_FM8KEEcRqNqHKBmMwkY",
    "name": "Felona Sp. z o.o.",
    "category": "Felona Sp. z o.o.",
    "formatted_address": "4,0(2)",
    "phone_number": "+48625830732",
    "source_url": "https://www.google.com/maps/place/Felona+Sp.+z+o.o./data=!4m7!3m6!1s0x47100acf143ff001:0x46c28c192887daa8!8m2!3d51.281526!4d17.986914!16s%2Fg%2F1w6643sw!19sChIJAfA_FM8KEEcRqNqHKBmMwkY?authuser=0&hl=tr&rclk=1",
    "website_url": "",
    "rating_text": "4,0",
    "stars": null,
    "number_of_reviews": null,
    "price_level": "",
    "open_hours": "",
    "extraction_timestamp": "2025-06-07T17:22:36.737Z",
    "source_name": "google",
    "source_query": "Irrigation Equipment",
    "source_country": "PL",
    "country": "Poland",
    "state": "Greater Poland Voivodeship",
    "city": "Kępno"
  },
  {
    "source_id": "ChIJa3WWisUKEEcReq09RNNGuB0",
    "name": "Bricomarché",
    "category": "Bricomarché",
    "formatted_address": "4,1(1.428)",
    "phone_number": "+48625830074",
    "source_url": "https://www.google.com/maps/place/Bricomarch%C3%A9/data=!4m7!3m6!1s0x47100ac58a96756b:0x1db846d3443dad7a!8m2!3d51.2823206!4d17.9864406!16s%2Fg%2F1ty72_cg!19sChIJa3WWisUKEEcReq09RNNGuB0?authuser=0&hl=tr&rclk=1",
    "website_url": "",
    "rating_text": "4,1",
    "stars": null,
    "number_of_reviews": null,
    "price_level": "",
    "open_hours": "",
    "extraction_timestamp": "2025-06-07T17:22:36.739Z",
    "source_name": "google",
    "source_query": "Irrigation Equipment",
    "source_country": "PL",
    "country": "Poland",
    "state": "Greater Poland Voivodeship",
    "city": "Kępno"
  },
  {
    "source_id": "ChIJq3kG0osLEEcRbC9knkcbHMQ",
    "name": "ZOO-PT",
    "category": "ZOO-PT",
    "formatted_address": "5,0(7)",
    "phone_number": "+48736161069",
    "source_url": "https://www.google.com/maps/place/ZOO-PT/data=!4m7!3m6!1s0x47100b8bd20679ab:0xc41c1b479e642f6c!8m2!3d51.284781!4d17.9934307!16s%2Fg%2F11mcwddb5l!19sChIJq3kG0osLEEcRbC9knkcbHMQ?authuser=0&hl=tr&rclk=1",
    "website_url": "",
    "rating_text": "5,0",
    "stars": null,
    "number_of_reviews": null,
    "price_level": "",
    "open_hours": "",
    "extraction_timestamp": "2025-06-07T17:22:36.740Z",
    "source_name": "google",
    "source_query": "Irrigation Equipment",
    "source_country": "PL",
    "country": "Poland",
    "state": "Greater Poland Voivodeship",
    "city": "Kępno"
  },
  {
    "source_id": "ChIJH9xnfc0KEEcRgovf9W59a5k",
    "name": "Targowisko Kępno",
    "category": "Targowisko Kępno",
    "formatted_address": "3,9(88)",
    "phone_number": "",
    "source_url": "https://www.google.com/maps/place/Targowisko+K%C4%99pno/data=!4m7!3m6!1s0x47100acd7d67dc1f:0x996b7d6ef5df8b82!8m2!3d51.2766019!4d17.9942184!16s%2Fg%2F11hbr0b_k6!19sChIJH9xnfc0KEEcRgovf9W59a5k?authuser=0&hl=tr&rclk=1",
    "website_url": "",
    "rating_text": "3,9",
    "stars": null,
    "number_of_reviews": null,
    "price_level": "",
    "open_hours": "",
    "extraction_timestamp": "2025-06-07T17:22:36.740Z",
    "source_name": "google",
    "source_query": "Irrigation Equipment",
    "source_country": "PL",
    "country": "Poland",
    "state": "Greater Poland Voivodeship",
    "city": "Kępno"
  },
  {
    "source_id": "ChIJ9crULswKEEcRKUG0rrPPdy4",
    "name": "INSTAL-SYSTEM PHU",
    "category": "INSTAL-SYSTEM PHU",
    "formatted_address": "2,5(4)",
    "phone_number": "+48627819379",
    "source_url": "https://www.google.com/maps/place/INSTAL-SYSTEM+PHU/data=!4m7!3m6!1s0x47100acc2ed4caf5:0x2e77cfb3aeb44129!8m2!3d51.2800772!4d17.9921553!16s%2Fg%2F11h35pcp4r!19sChIJ9crULswKEEcRKUG0rrPPdy4?authuser=0&hl=tr&rclk=1",
    "website_url": "",
    "rating_text": "2,5",
    "stars": null,
    "number_of_reviews": null,
    "price_level": "",
    "open_hours": "",
    "extraction_timestamp": "2025-06-07T17:22:36.741Z",
    "source_name": "google",
    "source_query": "Irrigation Equipment",
    "source_country": "PL",
    "country": "Poland",
    "state": "Greater Poland Voivodeship",
    "city": "Kępno"
  },
  {
    "source_id": "ChIJE-QyOLsKEEcRZ6tgm72YMCg",
    "name": "Włókno Poliestrowe Sili Kępno",
    "category": "Włókno Poliestrowe Sili Kępno",
    "formatted_address": "4,8(12)",
    "phone_number": "+48627812990",
    "source_url": "https://www.google.com/maps/place/W%C5%82%C3%B3kno+Poliestrowe+Sili+K%C4%99pno/data=!4m7!3m6!1s0x47100abb3832e413:0x283098bd9b60ab67!8m2!3d51.2931619!4d17.8498431!16s%2Fg%2F1w3w1sh7!19sChIJE-QyOLsKEEcRZ6tgm72YMCg?authuser=0&hl=tr&rclk=1",
    "website_url": "",
    "rating_text": "4,8",
    "stars": null,
    "number_of_reviews": null,
    "price_level": "",
    "open_hours": "",
    "extraction_timestamp": "2025-06-07T17:22:36.742Z",
    "source_name": "google",
    "source_query": "Irrigation Equipment",
    "source_country": "PL",
    "country": "Poland",
    "state": "Greater Poland Voivodeship",
    "city": "Kępno"
  },
  {
    "source_id": "ChIJBUjM7LLIfSQRhmYThqi2KDU",
    "name": "INSTALACJE Tomasz Jański",
    "category": "INSTALACJE Tomasz Jański",
    "formatted_address": "",
    "phone_number": "+48602263501",
    "source_url": "https://www.google.com/maps/place/INSTALACJE+Tomasz+Ja%C5%84ski/data=!4m7!3m6!1s0x247dc8b2eccc4805:0x3528b6a886136686!8m2!3d51.2854726!4d17.9868357!16s%2Fg%2F11xcnnx82g!19sChIJBUjM7LLIfSQRhmYThqi2KDU?authuser=0&hl=tr&rclk=1",
    "website_url": "",
    "rating_text": "",
    "stars": null,
    "number_of_reviews": null,
    "price_level": "",
    "open_hours": "",
    "extraction_timestamp": "2025-06-07T17:22:36.743Z",
    "source_name": "google",
    "source_query": "Irrigation Equipment",
    "source_country": "PL",
    "country": "Poland",
    "state": "Greater Poland Voivodeship",
    "city": "Kępno"
  },
  {
    "source_id": "ChIJq3yiK8wKEEcRxKpOZFv59HA",
    "name": "Społem. Powszechna Spółdzielnia Spożywców",
    "category": "Społem. Powszechna Spółdzielnia Spożywców",
    "formatted_address": "5,0(1)",
    "phone_number": "+48627822841",
    "source_url": "https://www.google.com/maps/place/Spo%C5%82em.+Powszechna+Sp%C3%B3%C5%82dzielnia+Spo%C5%BCywc%C3%B3w/data=!4m7!3m6!1s0x47100acc2ba27cab:0x70f4f95b644eaac4!8m2!3d51.2800456!4d17.9921112!16s%2Fg%2F1tcyd5tb!19sChIJq3yiK8wKEEcRxKpOZFv59HA?authuser=0&hl=tr&rclk=1",
    "website_url": "",
    "rating_text": "5,0",
    "stars": null,
    "number_of_reviews": null,
    "price_level": "",
    "open_hours": "",
    "extraction_timestamp": "2025-06-07T17:22:36.744Z",
    "source_name": "google",
    "source_query": "Irrigation Equipment",
    "source_country": "PL",
    "country": "Poland",
    "state": "Greater Poland Voivodeship",
    "city": "Kępno"
  },
  {
    "source_id": "ChIJtSOKw1cKEEcRZFfCCfpDsXU",
    "name": "Bajkoland Chojecin",
    "category": "Bajkoland Chojecin",
    "formatted_address": "4,3(216)",
    "phone_number": "+48530668666",
    "source_url": "https://www.google.com/maps/place/Bajkoland+Chojecin/data=!4m7!3m6!1s0x47100a57c38a23b5:0x75b143fa09c25764!8m2!3d51.2840106!4d17.9364239!16s%2Fg%2F11d_bsqg3x!19sChIJtSOKw1cKEEcRZFfCCfpDsXU?authuser=0&hl=tr&rclk=1",
    "website_url": "",
    "rating_text": "4,3",
    "stars": null,
    "number_of_reviews": null,
    "price_level": "",
    "open_hours": "",
    "extraction_timestamp": "2025-06-07T17:22:36.745Z",
    "source_name": "google",
    "source_query": "Irrigation Equipment",
    "source_country": "PL",
    "country": "Poland",
    "state": "Greater Poland Voivodeship",
    "city": "Kępno"
  },
  {
    "source_id": "ChIJL8D1HMUKEEcRh1mP1Zgw9vM",
    "name": "POLOmarket",
    "category": "POLOmarket",
    "formatted_address": "4,1(533)",
    "phone_number": "+48518011157",
    "source_url": "https://www.google.com/maps/place/POLOmarket/data=!4m7!3m6!1s0x47100ac51cf5c02f:0xf3f63098d58f5987!8m2!3d51.2807316!4d17.9805415!16s%2Fg%2F11c1_vld_1!19sChIJL8D1HMUKEEcRh1mP1Zgw9vM?authuser=0&hl=tr&rclk=1",
    "website_url": "",
    "rating_text": "4,1",
    "stars": null,
    "number_of_reviews": null,
    "price_level": "",
    "open_hours": "",
    "extraction_timestamp": "2025-06-07T17:22:36.746Z",
    "source_name": "google",
    "source_query": "Irrigation Equipment",
    "source_country": "PL",
    "country": "Poland",
    "state": "Greater Poland Voivodeship",
    "city": "Kępno"
  },
  {
    "source_id": "ChIJ48Ni9HMLEEcRxPzCUSISEzM",
    "name": "U Sąsiada",
    "category": "U Sąsiada",
    "formatted_address": "4,9(33)",
    "phone_number": "",
    "source_url": "https://www.google.com/maps/place/U+S%C4%85siada/data=!4m7!3m6!1s0x47100b73f462c3e3:0x3313122251c2fcc4!8m2!3d51.279071!4d17.9879275!16s%2Fg%2F11sjwsq__9!19sChIJ48Ni9HMLEEcRxPzCUSISEzM?authuser=0&hl=tr&rclk=1",
    "website_url": "",
    "rating_text": "4,9",
    "stars": null,
    "number_of_reviews": null,
    "price_level": "",
    "open_hours": "",
    "extraction_timestamp": "2025-06-07T17:22:36.746Z",
    "source_name": "google",
    "source_query": "Irrigation Equipment",
    "source_country": "PL",
    "country": "Poland",
    "state": "Greater Poland Voivodeship",
    "city": "Kępno"
  },
  {
    "source_id": "ChIJceD4AJd1EEcRh27ryXhyUhI",
    "name": "PSB Mrówka",
    "category": "PSB Mrówka",
    "formatted_address": "4,4(788)",
    "phone_number": "+48625065002",
    "source_url": "https://www.google.com/maps/place/PSB+Mr%C3%B3wka/data=!4m7!3m6!1s0x4710759700f8e071:0x12527278c9eb6e87!8m2!3d51.2653941!4d17.9987508!16s%2Fg%2F11h0hjk7m2!19sChIJceD4AJd1EEcRh27ryXhyUhI?authuser=0&hl=tr&rclk=1",
    "website_url": "",
    "rating_text": "4,4",
    "stars": null,
    "number_of_reviews": null,
    "price_level": "",
    "open_hours": "",
    "extraction_timestamp": "2025-06-07T17:22:36.747Z",
    "source_name": "google",
    "source_query": "Irrigation Equipment",
    "source_country": "PL",
    "country": "Poland",
    "state": "Greater Poland Voivodeship",
    "city": "Kępno"
  },
  {
    "source_id": "ChIJiYSXNQB1EEcR9diSZwu6ZGA",
    "name": "HYDRO-MONT DARIUSZ WOŹNY",
    "category": "HYDRO-MONT DARIUSZ WOŹNY",
    "formatted_address": "5,0(1)",
    "phone_number": "+48883434966",
    "source_url": "https://www.google.com/maps/place/HYDRO-MONT+DARIUSZ+WO%C5%B9NY/data=!4m7!3m6!1s0x4710750035978489:0x6064ba0b6792d8f5!8m2!3d51.2623844!4d18.0261855!16s%2Fg%2F11ybvjl72h!19sChIJiYSXNQB1EEcR9diSZwu6ZGA?authuser=0&hl=tr&rclk=1",
    "website_url": "",
    "rating_text": "5,0",
    "stars": null,
    "number_of_reviews": null,
    "price_level": "",
    "open_hours": "",
    "extraction_timestamp": "2025-06-07T17:22:36.748Z",
    "source_name": "google",
    "source_query": "Irrigation Equipment",
    "source_country": "PL",
    "country": "Poland",
    "state": "Greater Poland Voivodeship",
    "city": "Kępno"
  },
  {
    "source_id": "ChIJ4yFH0M0KEEcR-0JqwitfnWo",
    "name": "Biedronka",
    "category": "Biedronka",
    "formatted_address": "4,1(1.518)",
    "phone_number": "+48800080010",
    "source_url": "https://www.google.com/maps/place/Biedronka/data=!4m7!3m6!1s0x47100acdd04721e3:0x6a9d5f2bc26a42fb!8m2!3d51.2807247!4d17.9925853!16s%2Fg%2F1tkd_pj6!19sChIJ4yFH0M0KEEcR-0JqwitfnWo?authuser=0&hl=tr&rclk=1",
    "website_url": "",
    "rating_text": "4,1",
    "stars": null,
    "number_of_reviews": null,
    "price_level": "",
    "open_hours": "",
    "extraction_timestamp": "2025-06-07T17:22:36.750Z",
    "source_name": "google",
    "source_query": "Irrigation Equipment",
    "source_country": "PL",
    "country": "Poland",
    "state": "Greater Poland Voivodeship",
    "city": "Kępno"
  },
  {
    "source_id": "ChIJry1BZtAKEEcRiGbgjy96Aec",
    "name": "The world of toys - eswiatzabawek.pl",
    "category": "The world of toys - eswiatzabawek.pl",
    "formatted_address": "4,5(186)",
    "phone_number": "+48124198001",
    "source_url": "https://www.google.com/maps/place/The+world+of+toys+-+eswiatzabawek.pl/data=!4m7!3m6!1s0x47100ad066412daf:0xe7017a2f8fe06688!8m2!3d51.2764025!4d17.9826814!16s%2Fg%2F1w345bjy!19sChIJry1BZtAKEEcRiGbgjy96Aec?authuser=0&hl=tr&rclk=1",
    "website_url": "",
    "rating_text": "4,5",
    "stars": null,
    "number_of_reviews": null,
    "price_level": "",
    "open_hours": "",
    "extraction_timestamp": "2025-06-07T17:22:36.751Z",
    "source_name": "google",
    "source_query": "Irrigation Equipment",
    "source_country": "PL",
    "country": "Poland",
    "state": "Greater Poland Voivodeship",
    "city": "Kępno"
  }
]
