[
  {
    "source_id": "ChIJeZgY1xqRBEcRpcLMUkxBkfI",
    "name": "Ha-Two-O Paweł Filipiak",
    "category": "Ha-Two-O Paweł Filipiak",
    "formatted_address": "4,8(101)",
    "phone_number": "+48575579000",
    "source_url": "https://www.google.com/maps/place/Ha-Two-O+Pawe%C5%82+Filipiak/data=!4m7!3m6!1s0x4704911ad7189879:0xf291414c52ccc2a5!8m2!3d52.5491138!4d17.555824!16s%2Fg%2F1x6q0ggt!19sChIJeZgY1xqRBEcRpcLMUkxBkfI?authuser=0&hl=tr&rclk=1",
    "website_url": "",
    "rating_text": "4,8",
    "stars": null,
    "number_of_reviews": null,
    "price_level": "",
    "open_hours": "",
    "extraction_timestamp": "2025-06-07T18:01:56.844Z",
    "source_name": "google",
    "source_query": "Irrigation Equipment",
    "source_country": "PL",
    "country": "Poland",
    "state": "Greater Poland Voivodeship",
    "city": "Kłecko"
  },
  {
    "source_id": "ChIJ17S9BhuGBEcRMNO83OJTGqo",
    "name": "BUNKIER Kłecko Sklep Spożywczo - Przemysłowy Anna Wawrzyniak - Łukaszewska",
    "category": "BUNKIER Kłecko Sklep Spożywczo - Przemysłowy Anna Wawrzyniak - Łukaszewska",
    "formatted_address": "4,7(133)",
    "phone_number": "+48502217629",
    "source_url": "https://www.google.com/maps/place/BUNKIER+K%C5%82ecko+Sklep+Spo%C5%BCywczo+-+Przemys%C5%82owy+Anna+Wawrzyniak+-+%C5%81ukaszewska/data=!4m7!3m6!1s0x4704861b06bdb4d7:0xaa1a53e2dcbcd330!8m2!3d52.6274484!4d17.4259188!16s%2Fg%2F1tgjj_9d!19sChIJ17S9BhuGBEcRMNO83OJTGqo?authuser=0&hl=tr&rclk=1",
    "website_url": "",
    "rating_text": "4,7",
    "stars": null,
    "number_of_reviews": null,
    "price_level": "",
    "open_hours": "",
    "extraction_timestamp": "2025-06-07T18:01:56.845Z",
    "source_name": "google",
    "source_query": "Irrigation Equipment",
    "source_country": "PL",
    "country": "Poland",
    "state": "Greater Poland Voivodeship",
    "city": "Kłecko"
  },
  {
    "source_id": "ChIJWwXtcamHBEcR9Iwb47J0Rik",
    "name": "Sklep Polski \"Pod Dębem\"",
    "category": "Sklep Polski \"Pod Dębem\"",
    "formatted_address": "4,5(10)",
    "phone_number": "+48696947819",
    "source_url": "https://www.google.com/maps/place/Sklep+Polski+%22Pod+D%C4%99bem%22/data=!4m7!3m6!1s0x470487a971ed055b:0x294674b2e31b8cf4!8m2!3d52.6314485!4d17.4310539!16s%2Fg%2F11rr5ks9h1!19sChIJWwXtcamHBEcR9Iwb47J0Rik?authuser=0&hl=tr&rclk=1",
    "website_url": "",
    "rating_text": "4,5",
    "stars": null,
    "number_of_reviews": null,
    "price_level": "",
    "open_hours": "",
    "extraction_timestamp": "2025-06-07T18:01:56.846Z",
    "source_name": "google",
    "source_query": "Irrigation Equipment",
    "source_country": "PL",
    "country": "Poland",
    "state": "Greater Poland Voivodeship",
    "city": "Kłecko"
  },
  {
    "source_id": "ChIJ-wzGXwOGBEcR-tXSM-eEtNM",
    "name": "Najlepsi usługodawcy",
    "category": "Najlepsi usługodawcy",
    "formatted_address": "",
    "phone_number": "+48614270780",
    "source_url": "https://www.google.com/maps/place/Najlepsi+us%C5%82ugodawcy/data=!4m7!3m6!1s0x470486035fc60cfb:0xd3b484e733d2d5fa!8m2!3d52.625352!4d17.4294201!16s%2Fg%2F11h4vn6ys5!19sChIJ-wzGXwOGBEcR-tXSM-eEtNM?authuser=0&hl=tr&rclk=1",
    "website_url": "",
    "rating_text": "",
    "stars": null,
    "number_of_reviews": null,
    "price_level": "",
    "open_hours": "",
    "extraction_timestamp": "2025-06-07T18:01:56.847Z",
    "source_name": "google",
    "source_query": "Irrigation Equipment",
    "source_country": "PL",
    "country": "Poland",
    "state": "Greater Poland Voivodeship",
    "city": "Kłecko"
  },
  {
    "source_id": "ChIJS8g2wKaHBEcRnFR-fPCiMPE",
    "name": "Dino",
    "category": "Dino",
    "formatted_address": "4,4(173)",
    "phone_number": "",
    "source_url": "https://www.google.com/maps/place/Dino/data=!4m7!3m6!1s0x470487a6c036c84b:0xf130a2f07c7e549c!8m2!3d52.6282278!4d17.4342919!16s%2Fg%2F11fq7hwwlf!19sChIJS8g2wKaHBEcRnFR-fPCiMPE?authuser=0&hl=tr&rclk=1",
    "website_url": "",
    "rating_text": "4,4",
    "stars": null,
    "number_of_reviews": null,
    "price_level": "",
    "open_hours": "",
    "extraction_timestamp": "2025-06-07T18:01:56.847Z",
    "source_name": "google",
    "source_query": "Irrigation Equipment",
    "source_country": "PL",
    "country": "Poland",
    "state": "Greater Poland Voivodeship",
    "city": "Kłecko"
  },
  {
    "source_id": "ChIJjXbzxxqGBEcRbLdUVhk8XfU",
    "name": "Biedronka",
    "category": "Biedronka",
    "formatted_address": "4,1(454)",
    "phone_number": "+48800080010",
    "source_url": "https://www.google.com/maps/place/Biedronka/data=!4m7!3m6!1s0x4704861ac7f3768d:0xf55d3c195654b76c!8m2!3d52.6298854!4d17.4289959!16s%2Fg%2F11b5wqcqs0!19sChIJjXbzxxqGBEcRbLdUVhk8XfU?authuser=0&hl=tr&rclk=1",
    "website_url": "",
    "rating_text": "4,1",
    "stars": null,
    "number_of_reviews": null,
    "price_level": "",
    "open_hours": "",
    "extraction_timestamp": "2025-06-07T18:01:56.848Z",
    "source_name": "google",
    "source_query": "Irrigation Equipment",
    "source_country": "PL",
    "country": "Poland",
    "state": "Greater Poland Voivodeship",
    "city": "Kłecko"
  },
  {
    "source_id": "ChIJs689wwmHBEcRYPBQQJ6oJjY",
    "name": "Rafał Chmielewski AR PRO",
    "category": "Rafał Chmielewski AR PRO",
    "formatted_address": "5,0(5)",
    "phone_number": "+48666360555",
    "source_url": "https://www.google.com/maps/place/Rafa%C5%82+Chmielewski+AR+PRO/data=!4m7!3m6!1s0x47048709c33dafb3:0x3626a89e4050f060!8m2!3d52.6296814!4d17.4266687!16s%2Fg%2F11qp17p9sf!19sChIJs689wwmHBEcRYPBQQJ6oJjY?authuser=0&hl=tr&rclk=1",
    "website_url": "",
    "rating_text": "5,0",
    "stars": null,
    "number_of_reviews": null,
    "price_level": "",
    "open_hours": "",
    "extraction_timestamp": "2025-06-07T18:01:56.849Z",
    "source_name": "google",
    "source_query": "Irrigation Equipment",
    "source_country": "PL",
    "country": "Poland",
    "state": "Greater Poland Voivodeship",
    "city": "Kłecko"
  },
  {
    "source_id": "ChIJoXTuXxCGBEcRkFSFpa1Vd28",
    "name": "Bukowska Hanna. Sklep spożywczo - przemysłowy",
    "category": "Bukowska Hanna. Sklep spożywczo - przemysłowy",
    "formatted_address": "5,0(2)",
    "phone_number": "+48614270065",
    "source_url": "https://www.google.com/maps/place/Bukowska+Hanna.+Sklep+spo%C5%BCywczo+-+przemys%C5%82owy/data=!4m7!3m6!1s0x470486105fee74a1:0x6f7755ada5855490!8m2!3d52.6321219!4d17.4281199!16s%2Fg%2F1xgrln65!19sChIJoXTuXxCGBEcRkFSFpa1Vd28?authuser=0&hl=tr&rclk=1",
    "website_url": "",
    "rating_text": "5,0",
    "stars": null,
    "number_of_reviews": null,
    "price_level": "",
    "open_hours": "",
    "extraction_timestamp": "2025-06-07T18:01:56.850Z",
    "source_name": "google",
    "source_query": "Irrigation Equipment",
    "source_country": "PL",
    "country": "Poland",
    "state": "Greater Poland Voivodeship",
    "city": "Kłecko"
  },
  {
    "source_id": "ChIJ17S9BhuGBEcRn6ORFzX22wU",
    "name": "Dino",
    "category": "Dino",
    "formatted_address": "4,0(253)",
    "phone_number": "",
    "source_url": "https://www.google.com/maps/place/Dino/data=!4m7!3m6!1s0x4704861b06bdb4d7:0x5dbf6351791a39f!8m2!3d52.6294861!4d17.4264232!16s%2Fg%2F11h0fh131!19sChIJ17S9BhuGBEcRn6ORFzX22wU?authuser=0&hl=tr&rclk=1",
    "website_url": "",
    "rating_text": "4,0",
    "stars": null,
    "number_of_reviews": null,
    "price_level": "",
    "open_hours": "",
    "extraction_timestamp": "2025-06-07T18:01:56.850Z",
    "source_name": "google",
    "source_query": "Irrigation Equipment",
    "source_country": "PL",
    "country": "Poland",
    "state": "Greater Poland Voivodeship",
    "city": "Kłecko"
  },
  {
    "source_id": "ChIJ6d8iExCGBEcRBVL47B3GY0U",
    "name": "Woźna H. Sklep wielobranżowy",
    "category": "Woźna H. Sklep wielobranżowy",
    "formatted_address": "",
    "phone_number": "+48614270025",
    "source_url": "https://www.google.com/maps/place/Wo%C5%BAna+H.+Sklep+wielobran%C5%BCowy/data=!4m7!3m6!1s0x470486101322dfe9:0x4563c61decf85205!8m2!3d52.6318917!4d17.4297125!16s%2Fg%2F1tf27cq3!19sChIJ6d8iExCGBEcRBVL47B3GY0U?authuser=0&hl=tr&rclk=1",
    "website_url": "",
    "rating_text": "",
    "stars": null,
    "number_of_reviews": null,
    "price_level": "",
    "open_hours": "",
    "extraction_timestamp": "2025-06-07T18:01:56.852Z",
    "source_name": "google",
    "source_query": "Irrigation Equipment",
    "source_country": "PL",
    "country": "Poland",
    "state": "Greater Poland Voivodeship",
    "city": "Kłecko"
  },
  {
    "source_id": "ChIJB6y_v5J2HEcRlDfYx3xmc9M",
    "name": "Milex irrigation systems",
    "category": "Milex irrigation systems",
    "formatted_address": "4,6(37)",
    "phone_number": "+48242775222",
    "source_url": "https://www.google.com/maps/place/Milex+irrigation+systems/data=!4m7!3m6!1s0x471c7692bfbfac07:0xd373667cc7d83794!8m2!3d52.4690634!4d19.7520904!16s%2Fg%2F1w2yy67r!19sChIJB6y_v5J2HEcRlDfYx3xmc9M?authuser=0&hl=tr&rclk=1",
    "website_url": "",
    "rating_text": "4,6",
    "stars": null,
    "number_of_reviews": null,
    "price_level": "",
    "open_hours": "",
    "extraction_timestamp": "2025-06-07T18:01:56.853Z",
    "source_name": "google",
    "source_query": "Irrigation Equipment",
    "source_country": "PL",
    "country": "Poland",
    "state": "Greater Poland Voivodeship",
    "city": "Kłecko"
  },
  {
    "source_id": "ChIJVTV3W_PzBEcR6gY0xwQi2_E",
    "name": "Deszczownie.com",
    "category": "Deszczownie.com",
    "formatted_address": "",
    "phone_number": "+48726000030",
    "source_url": "https://www.google.com/maps/place/Deszczownie.com/data=!4m7!3m6!1s0x4704f3f35b773555:0xf1db2204c73406ea!8m2!3d52.3623948!4d17.4021087!16s%2Fg%2F11y3pv4rxr!19sChIJVTV3W_PzBEcR6gY0xwQi2_E?authuser=0&hl=tr&rclk=1",
    "website_url": "",
    "rating_text": "",
    "stars": null,
    "number_of_reviews": null,
    "price_level": "",
    "open_hours": "",
    "extraction_timestamp": "2025-06-07T18:01:56.854Z",
    "source_name": "google",
    "source_query": "Irrigation Equipment",
    "source_country": "PL",
    "country": "Poland",
    "state": "Greater Poland Voivodeship",
    "city": "Kłecko"
  }
]
