[
  {
    "source_id": "ChIJtV7_vZ5tG0cRrKactsuensI",
    "name": "GRENE",
    "category": "GRENE",
    "formatted_address": "4,4(79)",
    "phone_number": "+48632730879",
    "source_url": "https://www.google.com/maps/place/GRENE/data=!4m7!3m6!1s0x471b6d9ebdff5eb5:0xc29e9ecbb69ca6ac!8m2!3d52.2573209!4d18.907975!16s%2Fg%2F1tdp_wnh!19sChIJtV7_vZ5tG0cRrKactsuensI?authuser=0&hl=tr&rclk=1",
    "website_url": "",
    "rating_text": "4,4",
    "stars": null,
    "number_of_reviews": null,
    "price_level": "",
    "open_hours": "",
    "extraction_timestamp": "2025-06-07T17:37:13.311Z",
    "source_name": "google",
    "source_query": "Irrigation Equipment",
    "source_country": "PL",
    "country": "Poland",
    "state": "Greater Poland Voivodeship",
    "city": "Kłodawa"
  },
  {
    "source_id": "ChIJ-1I6b51tG0cRGMqtjgPcPa4",
    "name": "Hydra, Centrum Grzewcze I Sanitarne",
    "category": "Hydra, Centrum Grzewcze I Sanitarne",
    "formatted_address": "Hydra, Centrum Grzewcze I Sanitarne",
    "phone_number": "+48696010268",
    "source_url": "https://www.google.com/maps/place/Hydra,+Centrum+Grzewcze+I+Sanitarne/data=!4m7!3m6!1s0x471b6d9d6f3a52fb:0xae3ddc038eadca18!8m2!3d52.2532793!4d18.9125843!16s%2Fg%2F11c4bdkvnb!19sChIJ-1I6b51tG0cRGMqtjgPcPa4?authuser=0&hl=tr&rclk=1",
    "website_url": "",
    "rating_text": "4,1",
    "stars": null,
    "number_of_reviews": null,
    "price_level": "",
    "open_hours": "",
    "extraction_timestamp": "2025-06-07T17:37:13.313Z",
    "source_name": "google",
    "source_query": "Irrigation Equipment",
    "source_country": "PL",
    "country": "Poland",
    "state": "Greater Poland Voivodeship",
    "city": "Kłodawa"
  },
  {
    "source_id": "ChIJ0-q9dndtG0cRkI8-BvN7kWU",
    "name": "Instalkran. Jakubowska A.",
    "category": "Instalkran. Jakubowska A.",
    "formatted_address": "5,0(6)",
    "phone_number": "+48632730355",
    "source_url": "https://www.google.com/maps/place/Instalkran.+Jakubowska+A./data=!4m7!3m6!1s0x471b6d7776bdead3:0x65917bf3063e8f90!8m2!3d52.2499205!4d18.9114557!16s%2Fg%2F1tgpwytc!19sChIJ0-q9dndtG0cRkI8-BvN7kWU?authuser=0&hl=tr&rclk=1",
    "website_url": "",
    "rating_text": "5,0",
    "stars": null,
    "number_of_reviews": null,
    "price_level": "",
    "open_hours": "",
    "extraction_timestamp": "2025-06-07T17:37:13.314Z",
    "source_name": "google",
    "source_query": "Irrigation Equipment",
    "source_country": "PL",
    "country": "Poland",
    "state": "Greater Poland Voivodeship",
    "city": "Kłodawa"
  },
  {
    "source_id": "ChIJccK6xHltG0cRO6gw4g2hQ-I",
    "name": "Marciniak Wiesław. Firma Handlowo-Usługowa",
    "category": "Marciniak Wiesław. Firma Handlowo-Usługowa",
    "formatted_address": "3,7(3)",
    "phone_number": "+48696982170",
    "source_url": "https://www.google.com/maps/place/Marciniak+Wies%C5%82aw.+Firma+Handlowo-Us%C5%82ugowa/data=!4m7!3m6!1s0x471b6d79c4bac271:0xe243a10de230a83b!8m2!3d52.2486586!4d18.9131384!16s%2Fg%2F1hc1dt2k5!19sChIJccK6xHltG0cRO6gw4g2hQ-I?authuser=0&hl=tr&rclk=1",
    "website_url": "",
    "rating_text": "3,7",
    "stars": null,
    "number_of_reviews": null,
    "price_level": "",
    "open_hours": "",
    "extraction_timestamp": "2025-06-07T17:37:13.316Z",
    "source_name": "google",
    "source_query": "Irrigation Equipment",
    "source_country": "PL",
    "country": "Poland",
    "state": "Greater Poland Voivodeship",
    "city": "Kłodawa"
  },
  {
    "source_id": "ChIJszfUyZxtG0cRx4WFiwnWA6k",
    "name": "Wielkopolskie Przedsiębiorstwo Usługowo-Handlowe KDK- Pak Sp.z o.o.",
    "category": "Wielkopolskie Przedsiębiorstwo Usługowo-Handlowe KDK- Pak Sp.z o.o.",
    "formatted_address": "5,0(2)",
    "phone_number": "+48632732015",
    "source_url": "https://www.google.com/maps/place/Wielkopolskie+Przedsi%C4%99biorstwo+Us%C5%82ugowo-Handlowe+KDK-+Pak+Sp.z+o.o./data=!4m7!3m6!1s0x471b6d9cc9d437b3:0xa903d6098b8585c7!8m2!3d52.2960217!4d18.8208672!16s%2Fg%2F1tgkg0pl!19sChIJszfUyZxtG0cRx4WFiwnWA6k?authuser=0&hl=tr&rclk=1",
    "website_url": "",
    "rating_text": "5,0",
    "stars": null,
    "number_of_reviews": null,
    "price_level": "",
    "open_hours": "",
    "extraction_timestamp": "2025-06-07T17:37:13.317Z",
    "source_name": "google",
    "source_query": "Irrigation Equipment",
    "source_country": "PL",
    "country": "Poland",
    "state": "Greater Poland Voivodeship",
    "city": "Kłodawa"
  },
  {
    "source_id": "ChIJWcxed3dtG0cRHBT4NjM4LUA",
    "name": "POLOmarket",
    "category": "POLOmarket",
    "formatted_address": "3,9(222)",
    "phone_number": "+48632730401",
    "source_url": "https://www.google.com/maps/place/POLOmarket/data=!4m7!3m6!1s0x471b6d77775ecc59:0x402d383336f8141c!8m2!3d52.2496001!4d18.9117068!16s%2Fg%2F1hc1wwwpy!19sChIJWcxed3dtG0cRHBT4NjM4LUA?authuser=0&hl=tr&rclk=1",
    "website_url": "",
    "rating_text": "3,9",
    "stars": null,
    "number_of_reviews": null,
    "price_level": "",
    "open_hours": "",
    "extraction_timestamp": "2025-06-07T17:37:13.318Z",
    "source_name": "google",
    "source_query": "Irrigation Equipment",
    "source_country": "PL",
    "country": "Poland",
    "state": "Greater Poland Voivodeship",
    "city": "Kłodawa"
  },
  {
    "source_id": "ChIJ7Z8A8PhtG0cRbljo-A2uyGM",
    "name": "Kocham Zabawki",
    "category": "Kocham Zabawki",
    "formatted_address": "4,7(136)",
    "phone_number": "+48667698334",
    "source_url": "https://www.google.com/maps/place/Kocham+Zabawki/data=!4m7!3m6!1s0x471b6df8f0009fed:0x63c8ae0df8e8586e!8m2!3d52.2543403!4d18.9227465!16s%2Fg%2F11gk96mmxz!19sChIJ7Z8A8PhtG0cRbljo-A2uyGM?authuser=0&hl=tr&rclk=1",
    "website_url": "",
    "rating_text": "4,7",
    "stars": null,
    "number_of_reviews": null,
    "price_level": "",
    "open_hours": "",
    "extraction_timestamp": "2025-06-07T17:37:13.320Z",
    "source_name": "google",
    "source_query": "Irrigation Equipment",
    "source_country": "PL",
    "country": "Poland",
    "state": "Greater Poland Voivodeship",
    "city": "Kłodawa"
  },
  {
    "source_id": "ChIJH9QyTs5tG0cRtDINZzizwO0",
    "name": "Sklep Spożywczo-Przemysłowy",
    "category": "Sklep Spożywczo-Przemysłowy",
    "formatted_address": "4,5(12)",
    "phone_number": "+48632730041",
    "source_url": "https://www.google.com/maps/place/Sklep+Spo%C5%BCywczo-Przemys%C5%82owy/data=!4m7!3m6!1s0x471b6dce4e32d41f:0xedc0b338670d32b4!8m2!3d52.256227!4d18.912941!16s%2Fg%2F11fm7knn12!19sChIJH9QyTs5tG0cRtDINZzizwO0?authuser=0&hl=tr&rclk=1",
    "website_url": "",
    "rating_text": "4,5",
    "stars": null,
    "number_of_reviews": null,
    "price_level": "",
    "open_hours": "",
    "extraction_timestamp": "2025-06-07T17:37:13.321Z",
    "source_name": "google",
    "source_query": "Irrigation Equipment",
    "source_country": "PL",
    "country": "Poland",
    "state": "Greater Poland Voivodeship",
    "city": "Kłodawa"
  },
  {
    "source_id": "ChIJB6y_v5J2HEcRlDfYx3xmc9M",
    "name": "Milex irrigation systems",
    "category": "Milex irrigation systems",
    "formatted_address": "4,6(37)",
    "phone_number": "+48242775222",
    "source_url": "https://www.google.com/maps/place/Milex+irrigation+systems/data=!4m7!3m6!1s0x471c7692bfbfac07:0xd373667cc7d83794!8m2!3d52.4690634!4d19.7520904!16s%2Fg%2F1w2yy67r!19sChIJB6y_v5J2HEcRlDfYx3xmc9M?authuser=0&hl=tr&rclk=1",
    "website_url": "",
    "rating_text": "4,6",
    "stars": null,
    "number_of_reviews": null,
    "price_level": "",
    "open_hours": "",
    "extraction_timestamp": "2025-06-07T17:37:13.323Z",
    "source_name": "google",
    "source_query": "Irrigation Equipment",
    "source_country": "PL",
    "country": "Poland",
    "state": "Greater Poland Voivodeship",
    "city": "Kłodawa"
  },
  {
    "source_id": "ChIJBdI1XJ1tG0cR_XnaylHUqP0",
    "name": "MyCenter",
    "category": "MyCenter",
    "formatted_address": "4,6(24)",
    "phone_number": "+48632724879",
    "source_url": "https://www.google.com/maps/place/MyCenter/data=!4m7!3m6!1s0x471b6d9d5c35d205:0xfda8d451cada79fd!8m2!3d52.2525723!4d18.9128991!16s%2Fg%2F11btvlg07s!19sChIJBdI1XJ1tG0cR_XnaylHUqP0?authuser=0&hl=tr&rclk=1",
    "website_url": "",
    "rating_text": "4,6",
    "stars": null,
    "number_of_reviews": null,
    "price_level": "",
    "open_hours": "",
    "extraction_timestamp": "2025-06-07T17:37:13.324Z",
    "source_name": "google",
    "source_query": "Irrigation Equipment",
    "source_country": "PL",
    "country": "Poland",
    "state": "Greater Poland Voivodeship",
    "city": "Kłodawa"
  },
  {
    "source_id": "ChIJgQolh3dtG0cRUf1-HWP73cU",
    "name": "DELIKATESY DAMMAR . MACIEJEWSKA MARIA",
    "category": "DELIKATESY DAMMAR . MACIEJEWSKA MARIA",
    "formatted_address": "4,5(35)",
    "phone_number": "+48509014899",
    "source_url": "https://www.google.com/maps/place/DELIKATESY+DAMMAR+.+MACIEJEWSKA+MARIA/data=!4m7!3m6!1s0x471b6d7787250a81:0xc5ddfb631d7efd51!8m2!3d52.2496737!4d18.911115!16s%2Fg%2F1tdg1zhq!19sChIJgQolh3dtG0cRUf1-HWP73cU?authuser=0&hl=tr&rclk=1",
    "website_url": "",
    "rating_text": "4,5",
    "stars": null,
    "number_of_reviews": null,
    "price_level": "",
    "open_hours": "",
    "extraction_timestamp": "2025-06-07T17:37:13.325Z",
    "source_name": "google",
    "source_query": "Irrigation Equipment",
    "source_country": "PL",
    "country": "Poland",
    "state": "Greater Poland Voivodeship",
    "city": "Kłodawa"
  },
  {
    "source_id": "ChIJbX6Gg3dtG0cR2gIaJinMImM",
    "name": "Donata. Sklep spożywczy",
    "category": "Donata. Sklep spożywczy",
    "formatted_address": "4,7(21)",
    "phone_number": "+48632730500",
    "source_url": "https://www.google.com/maps/place/Donata.+Sklep+spo%C5%BCywczy/data=!4m7!3m6!1s0x471b6d7783867e6d:0x6322cc29261a02da!8m2!3d52.25013!4d18.9123134!16s%2Fg%2F1tcwvgly!19sChIJbX6Gg3dtG0cR2gIaJinMImM?authuser=0&hl=tr&rclk=1",
    "website_url": "",
    "rating_text": "4,7",
    "stars": null,
    "number_of_reviews": null,
    "price_level": "",
    "open_hours": "",
    "extraction_timestamp": "2025-06-07T17:37:13.327Z",
    "source_name": "google",
    "source_query": "Irrigation Equipment",
    "source_country": "PL",
    "country": "Poland",
    "state": "Greater Poland Voivodeship",
    "city": "Kłodawa"
  },
  {
    "source_id": "ChIJA2DGcXdtG0cRJnoLM5Uucmk",
    "name": "Dino",
    "category": "Dino",
    "formatted_address": "4,3(353)",
    "phone_number": "",
    "source_url": "https://www.google.com/maps/place/Dino/data=!4m7!3m6!1s0x471b6d7771c66003:0x69722e95330b7a26!8m2!3d52.2487641!4d18.9103235!16s%2Fg%2F1trqfzdx!19sChIJA2DGcXdtG0cRJnoLM5Uucmk?authuser=0&hl=tr&rclk=1",
    "website_url": "",
    "rating_text": "4,3",
    "stars": null,
    "number_of_reviews": null,
    "price_level": "",
    "open_hours": "",
    "extraction_timestamp": "2025-06-07T17:37:13.328Z",
    "source_name": "google",
    "source_query": "Irrigation Equipment",
    "source_country": "PL",
    "country": "Poland",
    "state": "Greater Poland Voivodeship",
    "city": "Kłodawa"
  },
  {
    "source_id": "ChIJG7R5OZxtG0cR1kgifZf65GQ",
    "name": "Drogeria Jawa",
    "category": "Drogeria Jawa",
    "formatted_address": "4,7(89)",
    "phone_number": "+48223977632",
    "source_url": "https://www.google.com/maps/place/Drogeria+Jawa/data=!4m7!3m6!1s0x471b6d9c3979b41b:0x64e4fa977d2248d6!8m2!3d52.255195!4d18.9109113!16s%2Fg%2F11fyls83v1!19sChIJG7R5OZxtG0cR1kgifZf65GQ?authuser=0&hl=tr&rclk=1",
    "website_url": "",
    "rating_text": "4,7",
    "stars": null,
    "number_of_reviews": null,
    "price_level": "",
    "open_hours": "",
    "extraction_timestamp": "2025-06-07T17:37:13.329Z",
    "source_name": "google",
    "source_query": "Irrigation Equipment",
    "source_country": "PL",
    "country": "Poland",
    "state": "Greater Poland Voivodeship",
    "city": "Kłodawa"
  },
  {
    "source_id": "ChIJqz_yMSttG0cRco_pWdjWFak",
    "name": "Drogeria Rossmann",
    "category": "Drogeria Rossmann",
    "formatted_address": "4,6(138)",
    "phone_number": "+48426139700",
    "source_url": "https://www.google.com/maps/place/Drogeria+Rossmann/data=!4m7!3m6!1s0x471b6d2b31f23fab:0xa915d6d859e98f72!8m2!3d52.2510489!4d18.9123073!16s%2Fg%2F11h7jwdrnn!19sChIJqz_yMSttG0cRco_pWdjWFak?authuser=0&hl=tr&rclk=1",
    "website_url": "",
    "rating_text": "4,6",
    "stars": null,
    "number_of_reviews": null,
    "price_level": "",
    "open_hours": "",
    "extraction_timestamp": "2025-06-07T17:37:13.331Z",
    "source_name": "google",
    "source_query": "Irrigation Equipment",
    "source_country": "PL",
    "country": "Poland",
    "state": "Greater Poland Voivodeship",
    "city": "Kłodawa"
  },
  {
    "source_id": "ChIJ8_H2bUltG0cRcYVEe2MUoJw",
    "name": "Biedronka",
    "category": "Biedronka",
    "formatted_address": "4,0(699)",
    "phone_number": "+48800080010",
    "source_url": "https://www.google.com/maps/place/Biedronka/data=!4m7!3m6!1s0x471b6d496df6f1f3:0x9ca014637b448571!8m2!3d52.2549001!4d18.9107067!16s%2Fg%2F11qlwyzzp8!19sChIJ8_H2bUltG0cRcYVEe2MUoJw?authuser=0&hl=tr&rclk=1",
    "website_url": "",
    "rating_text": "4,0",
    "stars": null,
    "number_of_reviews": null,
    "price_level": "",
    "open_hours": "",
    "extraction_timestamp": "2025-06-07T17:37:13.332Z",
    "source_name": "google",
    "source_query": "Irrigation Equipment",
    "source_country": "PL",
    "country": "Poland",
    "state": "Greater Poland Voivodeship",
    "city": "Kłodawa"
  },
  {
    "source_id": "ChIJf0kz3pxtG0cRUKpBb9phZ_0",
    "name": "Wiśniewski Tomasz. FHU. Sklep spożywczy",
    "category": "Wiśniewski Tomasz. FHU. Sklep spożywczy",
    "formatted_address": "5,0(1)",
    "phone_number": "",
    "source_url": "https://www.google.com/maps/place/Wi%C5%9Bniewski+Tomasz.+FHU.+Sklep+spo%C5%BCywczy/data=!4m7!3m6!1s0x471b6d9cde33497f:0xfd6761da6f41aa50!8m2!3d52.255119!4d18.9144417!16s%2Fg%2F1ptwh88l8!19sChIJf0kz3pxtG0cRUKpBb9phZ_0?authuser=0&hl=tr&rclk=1",
    "website_url": "",
    "rating_text": "5,0",
    "stars": null,
    "number_of_reviews": null,
    "price_level": "",
    "open_hours": "",
    "extraction_timestamp": "2025-06-07T17:37:13.332Z",
    "source_name": "google",
    "source_query": "Irrigation Equipment",
    "source_country": "PL",
    "country": "Poland",
    "state": "Greater Poland Voivodeship",
    "city": "Kłodawa"
  },
  {
    "source_id": "ChIJ88Bo2QxtG0cRsgzdt60wvx8",
    "name": "Dino",
    "category": "Dino",
    "formatted_address": "4,7(23)",
    "phone_number": "",
    "source_url": "https://www.google.com/maps/place/Dino/data=!4m7!3m6!1s0x471b6d0cd968c0f3:0x1fbf30adb7dd0cb2!8m2!3d52.2576848!4d18.9047866!16s%2Fg%2F11tszcj459!19sChIJ88Bo2QxtG0cRsgzdt60wvx8?authuser=0&hl=tr&rclk=1",
    "website_url": "",
    "rating_text": "4,7",
    "stars": null,
    "number_of_reviews": null,
    "price_level": "",
    "open_hours": "",
    "extraction_timestamp": "2025-06-07T17:37:13.333Z",
    "source_name": "google",
    "source_query": "Irrigation Equipment",
    "source_country": "PL",
    "country": "Poland",
    "state": "Greater Poland Voivodeship",
    "city": "Kłodawa"
  },
  {
    "source_id": "ChIJ08k5VJxtG0cRm77AG2BrvAg",
    "name": "Hurtownia Chemiczna Ariel & Drogeria Jasmin Kłodawa",
    "category": "Hurtownia Chemiczna Ariel & Drogeria Jasmin Kłodawa",
    "formatted_address": "3,5(4)",
    "phone_number": "",
    "source_url": "https://www.google.com/maps/place/Hurtownia+Chemiczna+Ariel+%26+Drogeria+Jasmin+K%C5%82odawa/data=!4m7!3m6!1s0x471b6d9c5439c9d3:0x8bc6b601bc0be9b!8m2!3d52.255536!4d18.9123622!16s%2Fg%2F11vhqf7r8k!19sChIJ08k5VJxtG0cRm77AG2BrvAg?authuser=0&hl=tr&rclk=1",
    "website_url": "",
    "rating_text": "3,5",
    "stars": null,
    "number_of_reviews": null,
    "price_level": "",
    "open_hours": "",
    "extraction_timestamp": "2025-06-07T17:37:13.333Z",
    "source_name": "google",
    "source_query": "Irrigation Equipment",
    "source_country": "PL",
    "country": "Poland",
    "state": "Greater Poland Voivodeship",
    "city": "Kłodawa"
  },
  {
    "source_id": "ChIJQyCFXCJtG0cRbiETQJINIzA",
    "name": "Pepco",
    "category": "Pepco",
    "formatted_address": "4,5(182)",
    "phone_number": "",
    "source_url": "https://www.google.com/maps/place/Pepco/data=!4m7!3m6!1s0x471b6d225c852043:0x30230d924013216e!8m2!3d52.2512041!4d18.9124562!16s%2Fg%2F11flgdgqrz!19sChIJQyCFXCJtG0cRbiETQJINIzA?authuser=0&hl=tr&rclk=1",
    "website_url": "",
    "rating_text": "4,5",
    "stars": null,
    "number_of_reviews": null,
    "price_level": "",
    "open_hours": "",
    "extraction_timestamp": "2025-06-07T17:37:13.334Z",
    "source_name": "google",
    "source_query": "Irrigation Equipment",
    "source_country": "PL",
    "country": "Poland",
    "state": "Greater Poland Voivodeship",
    "city": "Kłodawa"
  },
  {
    "source_id": "ChIJ_Yqq7LSBHEcRam8rB4O5Xe8",
    "name": "Plaża",
    "category": "Plaża",
    "formatted_address": "4,4(360)",
    "phone_number": "",
    "source_url": "https://www.google.com/maps/place/Pla%C5%BCa/data=!4m7!3m6!1s0x471c81b4ecaa8afd:0xef5db983072b6f6a!8m2!3d52.5250923!4d19.3225211!16s%2Fg%2F11hzd6d4b2!19sChIJ_Yqq7LSBHEcRam8rB4O5Xe8?authuser=0&hl=tr&rclk=1",
    "website_url": "",
    "rating_text": "4,4",
    "stars": null,
    "number_of_reviews": null,
    "price_level": "",
    "open_hours": "",
    "extraction_timestamp": "2025-06-07T17:37:13.335Z",
    "source_name": "google",
    "source_query": "Irrigation Equipment",
    "source_country": "PL",
    "country": "Poland",
    "state": "Greater Poland Voivodeship",
    "city": "Kłodawa"
  },
  {
    "source_id": "ChIJ695KermbG0cRHGhM43Y8zy4",
    "name": "Aquapark Kutno",
    "category": "Aquapark Kutno",
    "formatted_address": "4,4(3.034)",
    "phone_number": "+48243575600",
    "source_url": "https://www.google.com/maps/place/Aquapark+Kutno/data=!4m7!3m6!1s0x471b9bb97a4adeeb:0x2ecf3c76e34c681c!8m2!3d52.244749!4d19.3781611!16s%2Fg%2F11g_zj2m_!19sChIJ695KermbG0cRHGhM43Y8zy4?authuser=0&hl=tr&rclk=1",
    "website_url": "",
    "rating_text": "4,4",
    "stars": null,
    "number_of_reviews": null,
    "price_level": "",
    "open_hours": "",
    "extraction_timestamp": "2025-06-07T17:37:13.337Z",
    "source_name": "google",
    "source_query": "Irrigation Equipment",
    "source_country": "PL",
    "country": "Poland",
    "state": "Greater Poland Voivodeship",
    "city": "Kłodawa"
  },
  {
    "source_id": "ChIJqS6R56ulG0cRrHUgQxnSvho",
    "name": "Seban",
    "category": "Seban",
    "formatted_address": "5,0(24)",
    "phone_number": "+48533933965",
    "source_url": "https://www.google.com/maps/place/Seban/data=!4m7!3m6!1s0x471ba5abe7912ea9:0x1abed219432075ac!8m2!3d52.0610873!4d19.2034982!16s%2Fg%2F11f6mhh2ys!19sChIJqS6R56ulG0cRrHUgQxnSvho?authuser=0&hl=tr&rclk=1",
    "website_url": "",
    "rating_text": "5,0",
    "stars": null,
    "number_of_reviews": null,
    "price_level": "",
    "open_hours": "",
    "extraction_timestamp": "2025-06-07T17:37:13.338Z",
    "source_name": "google",
    "source_query": "Irrigation Equipment",
    "source_country": "PL",
    "country": "Poland",
    "state": "Greater Poland Voivodeship",
    "city": "Kłodawa"
  },
  {
    "source_id": "ChIJdb1jAq9FG0cRq36RuslXCwQ",
    "name": "Hurtownia Hydrauliczna Angelika Andrzejewska",
    "category": "Hurtownia Hydrauliczna Angelika Andrzejewska",
    "formatted_address": "",
    "phone_number": "+48727181432",
    "source_url": "https://www.google.com/maps/place/Hurtownia+Hydrauliczna+Angelika+Andrzejewska/data=!4m7!3m6!1s0x471b45af0263bd75:0x40b57c9ba917eab!8m2!3d52.3873292!4d18.5042911!16s%2Fg%2F11xdwz417z!19sChIJdb1jAq9FG0cRq36RuslXCwQ?authuser=0&hl=tr&rclk=1",
    "website_url": "",
    "rating_text": "",
    "stars": null,
    "number_of_reviews": null,
    "price_level": "",
    "open_hours": "",
    "extraction_timestamp": "2025-06-07T17:37:13.339Z",
    "source_name": "google",
    "source_query": "Irrigation Equipment",
    "source_country": "PL",
    "country": "Poland",
    "state": "Greater Poland Voivodeship",
    "city": "Kłodawa"
  },
  {
    "source_id": "ChIJFaSsQ7ZfG0cR403gjn7cVoM",
    "name": "GRENE",
    "category": "GRENE",
    "formatted_address": "4,2(20)",
    "phone_number": "+48542862318",
    "source_url": "https://www.google.com/maps/place/GRENE/data=!4m7!3m6!1s0x471b5fb643aca415:0x8356dc7e8ee04de3!8m2!3d52.5393815!4d18.8297264!16s%2Fg%2F1tht05_w!19sChIJFaSsQ7ZfG0cR403gjn7cVoM?authuser=0&hl=tr&rclk=1",
    "website_url": "",
    "rating_text": "4,2",
    "stars": null,
    "number_of_reviews": null,
    "price_level": "",
    "open_hours": "",
    "extraction_timestamp": "2025-06-07T17:37:13.340Z",
    "source_name": "google",
    "source_query": "Irrigation Equipment",
    "source_country": "PL",
    "country": "Poland",
    "state": "Greater Poland Voivodeship",
    "city": "Kłodawa"
  },
  {
    "source_id": "ChIJ0541LiptG0cRt-ysSxVh9L0",
    "name": "USŁUGI BHP Cezary Winiecki SZKOLENIA/NADZÓR/DORADZTWO",
    "category": "USŁUGI BHP Cezary Winiecki SZKOLENIA/NADZÓR/DORADZTWO",
    "formatted_address": "",
    "phone_number": "+48601281165",
    "source_url": "https://www.google.com/maps/place/US%C5%81UGI+BHP+Cezary+Winiecki+SZKOLENIA%2FNADZ%C3%93R%2FDORADZTWO/data=!4m7!3m6!1s0x471b6d2a2e359ed3:0xbdf461154bacecb7!8m2!3d52.258989!4d18.908502!16s%2Fg%2F11sq3mgkph!19sChIJ0541LiptG0cRt-ysSxVh9L0?authuser=0&hl=tr&rclk=1",
    "website_url": "",
    "rating_text": "",
    "stars": null,
    "number_of_reviews": null,
    "price_level": "",
    "open_hours": "",
    "extraction_timestamp": "2025-06-07T17:37:13.341Z",
    "source_name": "google",
    "source_query": "Irrigation Equipment",
    "source_country": "PL",
    "country": "Poland",
    "state": "Greater Poland Voivodeship",
    "city": "Kłodawa"
  },
  {
    "source_id": "ChIJqdLLBUuAHEcR9vFJaDaJpMI",
    "name": "Plaża",
    "category": "Plaża",
    "formatted_address": "4,6(127)",
    "phone_number": "",
    "source_url": "https://www.google.com/maps/place/Pla%C5%BCa/data=!4m7!3m6!1s0x471c804b05cbd2a9:0xc2a489366849f1f6!8m2!3d52.5174854!4d19.3291123!16s%2Fg%2F11f4jy0whr!19sChIJqdLLBUuAHEcR9vFJaDaJpMI?authuser=0&hl=tr&rclk=1",
    "website_url": "",
    "rating_text": "4,6",
    "stars": null,
    "number_of_reviews": null,
    "price_level": "",
    "open_hours": "",
    "extraction_timestamp": "2025-06-07T17:37:13.342Z",
    "source_name": "google",
    "source_query": "Irrigation Equipment",
    "source_country": "PL",
    "country": "Poland",
    "state": "Greater Poland Voivodeship",
    "city": "Kłodawa"
  },
  {
    "source_id": "ChIJBQJ1-BukG0cR0OfJ7LjNZ6E",
    "name": "Systemy Grzewcze - Augustowski",
    "category": "Systemy Grzewcze - Augustowski",
    "formatted_address": "4,3(19)",
    "phone_number": "+48609400087",
    "source_url": "https://www.google.com/maps/place/Systemy+Grzewcze+-+Augustowski/data=!4m7!3m6!1s0x471ba41bf8750205:0xa167cdb8ecc9e7d0!8m2!3d52.0573398!4d19.2030712!16s%2Fg%2F1wbfz4kp!19sChIJBQJ1-BukG0cR0OfJ7LjNZ6E?authuser=0&hl=tr&rclk=1",
    "website_url": "",
    "rating_text": "4,3",
    "stars": null,
    "number_of_reviews": null,
    "price_level": "",
    "open_hours": "",
    "extraction_timestamp": "2025-06-07T17:37:13.343Z",
    "source_name": "google",
    "source_query": "Irrigation Equipment",
    "source_country": "PL",
    "country": "Poland",
    "state": "Greater Poland Voivodeship",
    "city": "Kłodawa"
  },
  {
    "source_id": "ChIJGZOsiVpdG0cR0EXHNmE7rUM",
    "name": "Instalacje Grzewcze I Sanitarne",
    "category": "Instalacje Grzewcze I Sanitarne",
    "formatted_address": "4,5(19)",
    "phone_number": "+48661454973",
    "source_url": "https://www.google.com/maps/place/Instalacje+Grzewcze+I+Sanitarne/data=!4m7!3m6!1s0x471b5d5a89ac9319:0x43ad3b6136c745d0!8m2!3d52.420303!4d18.7670221!16s%2Fg%2F1ttp9164!19sChIJGZOsiVpdG0cR0EXHNmE7rUM?authuser=0&hl=tr&rclk=1",
    "website_url": "",
    "rating_text": "4,5",
    "stars": null,
    "number_of_reviews": null,
    "price_level": "",
    "open_hours": "",
    "extraction_timestamp": "2025-06-07T17:37:13.344Z",
    "source_name": "google",
    "source_query": "Irrigation Equipment",
    "source_country": "PL",
    "country": "Poland",
    "state": "Greater Poland Voivodeship",
    "city": "Kłodawa"
  }
]
