[
  {
    "source_id": "ChIJ1Z1Fj97nGkcReloSumBmOng",
    "name": "Stacja Zieleniak",
    "category": "Stacja Zieleniak",
    "formatted_address": "5,0(2)",
    "phone_number": "",
    "source_url": "https://www.google.com/maps/place/Stacja+Zieleniak/data=!4m7!3m6!1s0x471ae7de8f459dd5:0x783a6660ba125a7a!8m2!3d51.832272!4d18.3960983!16s%2Fg%2F11sgz3fgy4!19sChIJ1Z1Fj97nGkcReloSumBmOng?authuser=0&hl=tr&rclk=1",
    "website_url": "",
    "rating_text": "5,0",
    "stars": null,
    "number_of_reviews": null,
    "price_level": "",
    "open_hours": "",
    "extraction_timestamp": "2025-06-07T17:30:40.499Z",
    "source_name": "google",
    "source_query": "Irrigation Equipment",
    "source_country": "PL",
    "country": "Poland",
    "state": "Greater Poland Voivodeship",
    "city": "Lisków"
  },
  {
    "source_id": "ChIJISj8YEDnGkcRUcO5MnCxHDk",
    "name": "MARKET Gospodarz",
    "category": "MARKET Gospodarz",
    "formatted_address": "5,0(1)",
    "phone_number": "",
    "source_url": "https://www.google.com/maps/place/MARKET+Gospodarz/data=!4m7!3m6!1s0x471ae74060fc2821:0x391cb17032b9c351!8m2!3d51.8334233!4d18.4043822!16s%2Fg%2F11x0h2ptqp!19sChIJISj8YEDnGkcRUcO5MnCxHDk?authuser=0&hl=tr&rclk=1",
    "website_url": "",
    "rating_text": "5,0",
    "stars": null,
    "number_of_reviews": null,
    "price_level": "",
    "open_hours": "",
    "extraction_timestamp": "2025-06-07T17:30:40.500Z",
    "source_name": "google",
    "source_query": "Irrigation Equipment",
    "source_country": "PL",
    "country": "Poland",
    "state": "Greater Poland Voivodeship",
    "city": "Lisków"
  },
  {
    "source_id": "ChIJB6y_v5J2HEcRlDfYx3xmc9M",
    "name": "Milex irrigation systems",
    "category": "Milex irrigation systems",
    "formatted_address": "4,6(37)",
    "phone_number": "+48242775222",
    "source_url": "https://www.google.com/maps/place/Milex+irrigation+systems/data=!4m7!3m6!1s0x471c7692bfbfac07:0xd373667cc7d83794!8m2!3d52.4690634!4d19.7520904!16s%2Fg%2F1w2yy67r!19sChIJB6y_v5J2HEcRlDfYx3xmc9M?authuser=0&hl=tr&rclk=1",
    "website_url": "",
    "rating_text": "4,6",
    "stars": null,
    "number_of_reviews": null,
    "price_level": "",
    "open_hours": "",
    "extraction_timestamp": "2025-06-07T17:30:40.500Z",
    "source_name": "google",
    "source_query": "Irrigation Equipment",
    "source_country": "PL",
    "country": "Poland",
    "state": "Greater Poland Voivodeship",
    "city": "Lisków"
  },
  {
    "source_id": "ChIJ4Ztnr17nGkcRqGLFSZK_ZGY",
    "name": "Dino",
    "category": "Dino",
    "formatted_address": "4,3(28)",
    "phone_number": "",
    "source_url": "https://www.google.com/maps/place/Dino/data=!4m7!3m6!1s0x471ae75eaf679be1:0x6664bf9249c562a8!8m2!3d51.8308294!4d18.3841732!16s%2Fg%2F11jt5b_4vk!19sChIJ4Ztnr17nGkcRqGLFSZK_ZGY?authuser=0&hl=tr&rclk=1",
    "website_url": "",
    "rating_text": "4,3",
    "stars": null,
    "number_of_reviews": null,
    "price_level": "",
    "open_hours": "",
    "extraction_timestamp": "2025-06-07T17:30:40.500Z",
    "source_name": "google",
    "source_query": "Irrigation Equipment",
    "source_country": "PL",
    "country": "Poland",
    "state": "Greater Poland Voivodeship",
    "city": "Lisków"
  },
  {
    "source_id": "ChIJvz5G7ED7BEcRygcqJDDmokM",
    "name": "Alima Bis Sp. o.o.",
    "category": "Alima Bis Sp. o.o.",
    "formatted_address": "4,3(51)",
    "phone_number": "+48612853861",
    "source_url": "https://www.google.com/maps/place/Alima+Bis+Sp.+o.o./data=!4m7!3m6!1s0x4704fb40ec463ebf:0x43a2e630242a07ca!8m2!3d52.2229222!4d17.2889644!16s%2Fg%2F1ttp8_r0!19sChIJvz5G7ED7BEcRygcqJDDmokM?authuser=0&hl=tr&rclk=1",
    "website_url": "",
    "rating_text": "4,3",
    "stars": null,
    "number_of_reviews": null,
    "price_level": "",
    "open_hours": "",
    "extraction_timestamp": "2025-06-07T17:30:40.500Z",
    "source_name": "google",
    "source_query": "Irrigation Equipment",
    "source_country": "PL",
    "country": "Poland",
    "state": "Greater Poland Voivodeship",
    "city": "Lisków"
  },
  {
    "source_id": "ChIJHy5hdULnGkcR8fx8_efgWFw",
    "name": "CAROK.pl Kalisz. Car Spa",
    "category": "CAROK.pl Kalisz. Car Spa",
    "formatted_address": "4,6(86)",
    "phone_number": "+48623662002",
    "source_url": "https://www.google.com/maps/place/CAROK.pl+Kalisz.+Car+Spa/data=!4m7!3m6!1s0x471ae74275612e1f:0x5c58e0e7fd7cfcf1!8m2!3d51.8329218!4d18.3951403!16s%2Fg%2F11cfd4nwd!19sChIJHy5hdULnGkcR8fx8_efgWFw?authuser=0&hl=tr&rclk=1",
    "website_url": "",
    "rating_text": "4,6",
    "stars": null,
    "number_of_reviews": null,
    "price_level": "",
    "open_hours": "",
    "extraction_timestamp": "2025-06-07T17:30:40.501Z",
    "source_name": "google",
    "source_query": "Irrigation Equipment",
    "source_country": "PL",
    "country": "Poland",
    "state": "Greater Poland Voivodeship",
    "city": "Lisków"
  },
  {
    "source_id": "ChIJg6dG_0HnGkcRe42zxga0yrE",
    "name": "Lewiatan",
    "category": "Lewiatan",
    "formatted_address": "4,1(34)",
    "phone_number": "",
    "source_url": "https://www.google.com/maps/place/Lewiatan/data=!4m7!3m6!1s0x471ae741ff46a783:0xb1cab406c6b38d7b!8m2!3d51.8332575!4d18.3995795!16s%2Fg%2F1hc3p_y5f!19sChIJg6dG_0HnGkcRe42zxga0yrE?authuser=0&hl=tr&rclk=1",
    "website_url": "",
    "rating_text": "4,1",
    "stars": null,
    "number_of_reviews": null,
    "price_level": "",
    "open_hours": "",
    "extraction_timestamp": "2025-06-07T17:30:40.501Z",
    "source_name": "google",
    "source_query": "Irrigation Equipment",
    "source_country": "PL",
    "country": "Poland",
    "state": "Greater Poland Voivodeship",
    "city": "Lisków"
  },
  {
    "source_id": "ChIJnU9-Fy3nGkcRYxCL-MFsTAI",
    "name": "Groszek",
    "category": "Groszek",
    "formatted_address": "4,8(5)",
    "phone_number": "",
    "source_url": "https://www.google.com/maps/place/Groszek/data=!4m7!3m6!1s0x471ae72d177e4f9d:0x24c6cc1f88b1063!8m2!3d51.8332522!4d18.3995819!16s%2Fg%2F11gnrll156!19sChIJnU9-Fy3nGkcRYxCL-MFsTAI?authuser=0&hl=tr&rclk=1",
    "website_url": "",
    "rating_text": "4,8",
    "stars": null,
    "number_of_reviews": null,
    "price_level": "",
    "open_hours": "",
    "extraction_timestamp": "2025-06-07T17:30:40.501Z",
    "source_name": "google",
    "source_query": "Irrigation Equipment",
    "source_country": "PL",
    "country": "Poland",
    "state": "Greater Poland Voivodeship",
    "city": "Lisków"
  },
  {
    "source_id": "ChIJ4-A3LWjnGkcRwuWs6TOUoPo",
    "name": "Delikatesy Centrum",
    "category": "Delikatesy Centrum",
    "formatted_address": "4,2(168)",
    "phone_number": "+48667340667",
    "source_url": "https://www.google.com/maps/place/Delikatesy+Centrum/data=!4m7!3m6!1s0x471ae7682d37e0e3:0xfaa09433e9ace5c2!8m2!3d51.8319766!4d18.3922656!16s%2Fg%2F11b81t1_xq!19sChIJ4-A3LWjnGkcRwuWs6TOUoPo?authuser=0&hl=tr&rclk=1",
    "website_url": "",
    "rating_text": "4,2",
    "stars": null,
    "number_of_reviews": null,
    "price_level": "",
    "open_hours": "",
    "extraction_timestamp": "2025-06-07T17:30:40.501Z",
    "source_name": "google",
    "source_query": "Irrigation Equipment",
    "source_country": "PL",
    "country": "Poland",
    "state": "Greater Poland Voivodeship",
    "city": "Lisków"
  },
  {
    "source_id": "ChIJyyEpilrnGkcRPIo75JjjPoQ",
    "name": "Sklep Spożywczy.",
    "category": "Sklep Spożywczy.",
    "formatted_address": "5,0(12)",
    "phone_number": "",
    "source_url": "https://www.google.com/maps/place/Sklep+Spo%C5%BCywczy./data=!4m7!3m6!1s0x471ae75a8a2921cb:0x843ee398e43b8a3c!8m2!3d51.8241377!4d18.3853686!16s%2Fg%2F11f9zqs2x9!19sChIJyyEpilrnGkcRPIo75JjjPoQ?authuser=0&hl=tr&rclk=1",
    "website_url": "",
    "rating_text": "5,0",
    "stars": null,
    "number_of_reviews": null,
    "price_level": "",
    "open_hours": "",
    "extraction_timestamp": "2025-06-07T17:30:40.501Z",
    "source_name": "google",
    "source_query": "Irrigation Equipment",
    "source_country": "PL",
    "country": "Poland",
    "state": "Greater Poland Voivodeship",
    "city": "Lisków"
  }
]
