[
  {
    "source_id": "ChIJxaS7WRwBBEcRXFXc1O3A8LQ",
    "name": "AquaZiem Studniarstwo Bartosz Bardziński",
    "category": "AquaZiem Studniarstwo Bartosz Bardziński",
    "formatted_address": "4,8(23)",
    "phone_number": "+48602645820",
    "source_url": "https://www.google.com/maps/place/AquaZiem+Studniarstwo+Bartosz+Bardzi%C5%84ski/data=!4m7!3m6!1s0x4704011c59bba4c5:0xb4f0c0edd4dc555c!8m2!3d52.8842696!4d16.5040428!16s%2Fg%2F1tf5jbdh!19sChIJxaS7WRwBBEcRXFXc1O3A8LQ?authuser=0&hl=tr&rclk=1",
    "website_url": "",
    "rating_text": "4,8",
    "stars": null,
    "number_of_reviews": null,
    "price_level": "",
    "open_hours": "",
    "extraction_timestamp": "2025-06-07T17:18:08.572Z",
    "source_name": "google",
    "source_query": "Irrigation Equipment",
    "source_country": "PL",
    "country": "Poland",
    "state": "Greater Poland Voivodeship",
    "city": "Lubasz"
  },
  {
    "source_id": "ChIJUfn2Ig35A0cREW9fZ4029UM",
    "name": "IMTechnika sp. z o.o.",
    "category": "IMTechnika sp. z o.o.",
    "formatted_address": "4,4(17)",
    "phone_number": "+48883820388",
    "source_url": "https://www.google.com/maps/place/IMTechnika+sp.+z+o.o./data=!4m7!3m6!1s0x4703f90d22f6f951:0x43f5368d675f6f11!8m2!3d52.9756271!4d16.657836!16s%2Fg%2F11bw48_6mg!19sChIJUfn2Ig35A0cREW9fZ4029UM?authuser=0&hl=tr&rclk=1",
    "website_url": "",
    "rating_text": "4,4",
    "stars": null,
    "number_of_reviews": null,
    "price_level": "",
    "open_hours": "",
    "extraction_timestamp": "2025-06-07T17:18:08.573Z",
    "source_name": "google",
    "source_query": "Irrigation Equipment",
    "source_country": "PL",
    "country": "Poland",
    "state": "Greater Poland Voivodeship",
    "city": "Lubasz"
  },
  {
    "source_id": "ChIJ2bPJAQIEBEcRqL04dcuyPaY",
    "name": "Art. Spożywcze Monopolowe Przemysłowe",
    "category": "Art. Spożywcze Monopolowe Przemysłowe",
    "formatted_address": "4,7(12)",
    "phone_number": "",
    "source_url": "https://www.google.com/maps/place/Art.+Spo%C5%BCywcze+Monopolowe+Przemys%C5%82owe/data=!4m7!3m6!1s0x4704040201c9b3d9:0xa63db2cb7538bda8!8m2!3d52.8402838!4d16.5297539!16s%2Fg%2F11h9gf4w1v!19sChIJ2bPJAQIEBEcRqL04dcuyPaY?authuser=0&hl=tr&rclk=1",
    "website_url": "",
    "rating_text": "4,7",
    "stars": null,
    "number_of_reviews": null,
    "price_level": "",
    "open_hours": "",
    "extraction_timestamp": "2025-06-07T17:18:08.574Z",
    "source_name": "google",
    "source_query": "Irrigation Equipment",
    "source_country": "PL",
    "country": "Poland",
    "state": "Greater Poland Voivodeship",
    "city": "Lubasz"
  },
  {
    "source_id": "ChIJ6_r3WLIGBEcR6CCb0nhClBk",
    "name": "Plaża Jezioro Duże Lubasz",
    "category": "Plaża Jezioro Duże Lubasz",
    "formatted_address": "4,5(102)",
    "phone_number": "+48533514989",
    "source_url": "https://www.google.com/maps/place/Pla%C5%BCa+Jezioro+Du%C5%BCe+Lubasz/data=!4m7!3m6!1s0x470406b258f7faeb:0x19944278d29b20e8!8m2!3d52.8534704!4d16.5336892!16s%2Fg%2F11dftrp0cf!19sChIJ6_r3WLIGBEcR6CCb0nhClBk?authuser=0&hl=tr&rclk=1",
    "website_url": "",
    "rating_text": "4,5",
    "stars": null,
    "number_of_reviews": null,
    "price_level": "",
    "open_hours": "",
    "extraction_timestamp": "2025-06-07T17:18:08.574Z",
    "source_name": "google",
    "source_query": "Irrigation Equipment",
    "source_country": "PL",
    "country": "Poland",
    "state": "Greater Poland Voivodeship",
    "city": "Lubasz"
  },
  {
    "source_id": "ChIJx4nujFIBBEcRMPOOQvCfFx0",
    "name": "Zielonowo. PHU. Grocery store",
    "category": "Zielonowo. PHU. Grocery store",
    "formatted_address": "4,5(53)",
    "phone_number": "+48672556111",
    "source_url": "https://www.google.com/maps/place/Zielonowo.+PHU.+Grocery+store/data=!4m7!3m6!1s0x470401528cee89c7:0x1d179ff0428ef330!8m2!3d52.8540594!4d16.5203131!16s%2Fg%2F1wk7pknk!19sChIJx4nujFIBBEcRMPOOQvCfFx0?authuser=0&hl=tr&rclk=1",
    "website_url": "",
    "rating_text": "4,5",
    "stars": null,
    "number_of_reviews": null,
    "price_level": "",
    "open_hours": "",
    "extraction_timestamp": "2025-06-07T17:18:08.575Z",
    "source_name": "google",
    "source_query": "Irrigation Equipment",
    "source_country": "PL",
    "country": "Poland",
    "state": "Greater Poland Voivodeship",
    "city": "Lubasz"
  },
  {
    "source_id": "ChIJSSw-3uUDBEcRaUCOmPoQ0Dc",
    "name": "Wicher. FHU. Wicher Bogdan",
    "category": "Wicher. FHU. Wicher Bogdan",
    "formatted_address": "4,6(27)",
    "phone_number": "+48672556869",
    "source_url": "https://www.google.com/maps/place/Wicher.+FHU.+Wicher+Bogdan/data=!4m7!3m6!1s0x470403e5de3e2c49:0x37d010fa988e4069!8m2!3d52.8364998!4d16.4934105!16s%2Fg%2F1wrtbkcs!19sChIJSSw-3uUDBEcRaUCOmPoQ0Dc?authuser=0&hl=tr&rclk=1",
    "website_url": "",
    "rating_text": "4,6",
    "stars": null,
    "number_of_reviews": null,
    "price_level": "",
    "open_hours": "",
    "extraction_timestamp": "2025-06-07T17:18:08.576Z",
    "source_name": "google",
    "source_query": "Irrigation Equipment",
    "source_country": "PL",
    "country": "Poland",
    "state": "Greater Poland Voivodeship",
    "city": "Lubasz"
  },
  {
    "source_id": "ChIJQ1ohPQ8XBEcRWBg-baAh3OU",
    "name": "Hydromar",
    "category": "Hydromar",
    "formatted_address": "4,2(19)",
    "phone_number": "+48612921984",
    "source_url": "https://www.google.com/maps/place/Hydromar/data=!4m7!3m6!1s0x4704170f3d215a43:0xe5dc21a06d3e1858!8m2!3d52.620958!4d16.5665889!16s%2Fg%2F1tp06t6y!19sChIJQ1ohPQ8XBEcRWBg-baAh3OU?authuser=0&hl=tr&rclk=1",
    "website_url": "",
    "rating_text": "4,2",
    "stars": null,
    "number_of_reviews": null,
    "price_level": "",
    "open_hours": "",
    "extraction_timestamp": "2025-06-07T17:18:08.577Z",
    "source_name": "google",
    "source_query": "Irrigation Equipment",
    "source_country": "PL",
    "country": "Poland",
    "state": "Greater Poland Voivodeship",
    "city": "Lubasz"
  },
  {
    "source_id": "ChIJS0W51iZ1I0cRM9Dh_In5zmc",
    "name": "Lewiatan",
    "category": "Lewiatan",
    "formatted_address": "4,4(260)",
    "phone_number": "+48672556695",
    "source_url": "https://www.google.com/maps/place/Lewiatan/data=!4m7!3m6!1s0x47237526d6b9454b:0x67cef989fce1d033!8m2!3d52.8515818!4d16.5234375!16s%2Fg%2F11c2p84ql1!19sChIJS0W51iZ1I0cRM9Dh_In5zmc?authuser=0&hl=tr&rclk=1",
    "website_url": "",
    "rating_text": "4,4",
    "stars": null,
    "number_of_reviews": null,
    "price_level": "",
    "open_hours": "",
    "extraction_timestamp": "2025-06-07T17:18:08.578Z",
    "source_name": "google",
    "source_query": "Irrigation Equipment",
    "source_country": "PL",
    "country": "Poland",
    "state": "Greater Poland Voivodeship",
    "city": "Lubasz"
  },
  {
    "source_id": "ChIJNf-Y7wwBBEcRVsU8_hKZQrw",
    "name": "Maciejka - Centrum ogrodnicze",
    "category": "Maciejka - Centrum ogrodnicze",
    "formatted_address": "4,6(20)",
    "phone_number": "+48606329144",
    "source_url": "https://www.google.com/maps/place/Maciejka+-+Centrum+ogrodnicze/data=!4m7!3m6!1s0x4704010cef98ff35:0xbc429912fe3cc556!8m2!3d52.870835!4d16.485485!16s%2Fg%2F11g902l34_!19sChIJNf-Y7wwBBEcRVsU8_hKZQrw?authuser=0&hl=tr&rclk=1",
    "website_url": "",
    "rating_text": "4,6",
    "stars": null,
    "number_of_reviews": null,
    "price_level": "",
    "open_hours": "",
    "extraction_timestamp": "2025-06-07T17:18:08.579Z",
    "source_name": "google",
    "source_query": "Irrigation Equipment",
    "source_country": "PL",
    "country": "Poland",
    "state": "Greater Poland Voivodeship",
    "city": "Lubasz"
  },
  {
    "source_id": "ChIJ4wn2UVIBBEcR_FbqkbZ6asg",
    "name": "Odido",
    "category": "Odido",
    "formatted_address": "4,3(58)",
    "phone_number": "+48672556080",
    "source_url": "https://www.google.com/maps/place/Odido/data=!4m7!3m6!1s0x4704015251f609e3:0xc86a7ab691ea56fc!8m2!3d52.8499993!4d16.5225172!16s%2Fg%2F11b7cnsg_h!19sChIJ4wn2UVIBBEcR_FbqkbZ6asg?authuser=0&hl=tr&rclk=1",
    "website_url": "",
    "rating_text": "4,3",
    "stars": null,
    "number_of_reviews": null,
    "price_level": "",
    "open_hours": "",
    "extraction_timestamp": "2025-06-07T17:18:08.579Z",
    "source_name": "google",
    "source_query": "Irrigation Equipment",
    "source_country": "PL",
    "country": "Poland",
    "state": "Greater Poland Voivodeship",
    "city": "Lubasz"
  },
  {
    "source_id": "ChIJ2d4-0cpGBEcRTya15XLl9W0",
    "name": "POLGAR Garniewicz Wełniak spółka komandytowa",
    "category": "POLGAR Garniewicz Wełniak spółka komandytowa",
    "formatted_address": "4,5(23)",
    "phone_number": "+48618160631",
    "source_url": "https://www.google.com/maps/place/POLGAR+Garniewicz+We%C5%82niak+sp%C3%B3%C5%82ka+komandytowa/data=!4m7!3m6!1s0x470446cad13eded9:0x6df5e572e5b5264f!8m2!3d52.4535218!4d16.7706987!16s%2Fg%2F1tlzywfq!19sChIJ2d4-0cpGBEcRTya15XLl9W0?authuser=0&hl=tr&rclk=1",
    "website_url": "",
    "rating_text": "4,5",
    "stars": null,
    "number_of_reviews": null,
    "price_level": "",
    "open_hours": "",
    "extraction_timestamp": "2025-06-07T17:18:08.580Z",
    "source_name": "google",
    "source_query": "Irrigation Equipment",
    "source_country": "PL",
    "country": "Poland",
    "state": "Greater Poland Voivodeship",
    "city": "Lubasz"
  },
  {
    "source_id": "ChIJk6WtshwBBEcRNZ6TjbhDKKw",
    "name": "Abc",
    "category": "Abc",
    "formatted_address": "5,0(1)",
    "phone_number": "",
    "source_url": "https://www.google.com/maps/place/Abc/data=!4m7!3m6!1s0x4704011cb2ada593:0xac2843b88d939e35!8m2!3d52.884166!4d16.4990583!16s%2Fg%2F11j4clfv_c!19sChIJk6WtshwBBEcRNZ6TjbhDKKw?authuser=0&hl=tr&rclk=1",
    "website_url": "",
    "rating_text": "5,0",
    "stars": null,
    "number_of_reviews": null,
    "price_level": "",
    "open_hours": "",
    "extraction_timestamp": "2025-06-07T17:18:08.581Z",
    "source_name": "google",
    "source_query": "Irrigation Equipment",
    "source_country": "PL",
    "country": "Poland",
    "state": "Greater Poland Voivodeship",
    "city": "Lubasz"
  },
  {
    "source_id": "ChIJGSaOjFIBBEcR71KLBmJ4j-Q",
    "name": "Zmysłowski Zygmunt. Sklep motoryzacyjny",
    "category": "Zmysłowski Zygmunt. Sklep motoryzacyjny",
    "formatted_address": "4,8(14)",
    "phone_number": "+48672556155",
    "source_url": "https://www.google.com/maps/place/Zmys%C5%82owski+Zygmunt.+Sklep+motoryzacyjny/data=!4m7!3m6!1s0x470401528c8e2619:0xe48f7862068b52ef!8m2!3d52.8546613!4d16.5211491!16s%2Fg%2F1trxcd9g!19sChIJGSaOjFIBBEcR71KLBmJ4j-Q?authuser=0&hl=tr&rclk=1",
    "website_url": "",
    "rating_text": "4,8",
    "stars": null,
    "number_of_reviews": null,
    "price_level": "",
    "open_hours": "",
    "extraction_timestamp": "2025-06-07T17:18:08.582Z",
    "source_name": "google",
    "source_query": "Irrigation Equipment",
    "source_country": "PL",
    "country": "Poland",
    "state": "Greater Poland Voivodeship",
    "city": "Lubasz"
  },
  {
    "source_id": "ChIJB6y_v5J2HEcRlDfYx3xmc9M",
    "name": "Milex irrigation systems",
    "category": "Milex irrigation systems",
    "formatted_address": "4,6(37)",
    "phone_number": "+48242775222",
    "source_url": "https://www.google.com/maps/place/Milex+irrigation+systems/data=!4m7!3m6!1s0x471c7692bfbfac07:0xd373667cc7d83794!8m2!3d52.4690634!4d19.7520904!16s%2Fg%2F1w2yy67r!19sChIJB6y_v5J2HEcRlDfYx3xmc9M?authuser=0&hl=tr&rclk=1",
    "website_url": "",
    "rating_text": "4,6",
    "stars": null,
    "number_of_reviews": null,
    "price_level": "",
    "open_hours": "",
    "extraction_timestamp": "2025-06-07T17:18:08.582Z",
    "source_name": "google",
    "source_query": "Irrigation Equipment",
    "source_country": "PL",
    "country": "Poland",
    "state": "Greater Poland Voivodeship",
    "city": "Lubasz"
  },
  {
    "source_id": "ChIJLwGmXosFBEcR_UhXhb9NePo",
    "name": "Dino",
    "category": "Dino",
    "formatted_address": "4,6(30)",
    "phone_number": "",
    "source_url": "https://www.google.com/maps/place/Dino/data=!4m7!3m6!1s0x4704058b5ea6012f:0xfa784dbf855748fd!8m2!3d52.8298623!4d16.529615!16s%2Fg%2F11v6c01dfs!19sChIJLwGmXosFBEcR_UhXhb9NePo?authuser=0&hl=tr&rclk=1",
    "website_url": "",
    "rating_text": "4,6",
    "stars": null,
    "number_of_reviews": null,
    "price_level": "",
    "open_hours": "",
    "extraction_timestamp": "2025-06-07T17:18:08.583Z",
    "source_name": "google",
    "source_query": "Irrigation Equipment",
    "source_country": "PL",
    "country": "Poland",
    "state": "Greater Poland Voivodeship",
    "city": "Lubasz"
  },
  {
    "source_id": "ChIJM5VFVVIBBEcRIe0k45OW5Y0",
    "name": "Delikatesy Centrum",
    "category": "Delikatesy Centrum",
    "formatted_address": "3,5(360) · ₺₺",
    "phone_number": "+48571404186",
    "source_url": "https://www.google.com/maps/place/Delikatesy+Centrum/data=!4m7!3m6!1s0x4704015255459533:0x8de59693e324ed21!8m2!3d52.848787!4d16.5236064!16s%2Fg%2F11c6w04w4x!19sChIJM5VFVVIBBEcRIe0k45OW5Y0?authuser=0&hl=tr&rclk=1",
    "website_url": "",
    "rating_text": "3,5",
    "stars": null,
    "number_of_reviews": null,
    "price_level": "",
    "open_hours": "",
    "extraction_timestamp": "2025-06-07T17:18:08.584Z",
    "source_name": "google",
    "source_query": "Irrigation Equipment",
    "source_country": "PL",
    "country": "Poland",
    "state": "Greater Poland Voivodeship",
    "city": "Lubasz"
  },
  {
    "source_id": "ChIJJaUKWNl7G0cR7ntWKxioINo",
    "name": "Agricola Hydraulika Siłowa",
    "category": "Agricola Hydraulika Siłowa",
    "formatted_address": "4,6(239)",
    "phone_number": "+48542844000",
    "source_url": "https://www.google.com/maps/place/Agricola+Hydraulika+Si%C5%82owa/data=!4m7!3m6!1s0x471b7bd9580aa525:0xda20a8182b567bee!8m2!3d52.4025839!4d19.1676066!16s%2Fg%2F1tk8mbkz!19sChIJJaUKWNl7G0cR7ntWKxioINo?authuser=0&hl=tr&rclk=1",
    "website_url": "",
    "rating_text": "4,6",
    "stars": null,
    "number_of_reviews": null,
    "price_level": "",
    "open_hours": "",
    "extraction_timestamp": "2025-06-07T17:18:08.585Z",
    "source_name": "google",
    "source_query": "Irrigation Equipment",
    "source_country": "PL",
    "country": "Poland",
    "state": "Greater Poland Voivodeship",
    "city": "Lubasz"
  },
  {
    "source_id": "ChIJD0mLjFIBBEcRUjXDkDNhJa4",
    "name": "Sklep spożywczo - przemysłowy",
    "category": "Sklep spożywczo - przemysłowy",
    "formatted_address": "",
    "phone_number": "+48672556080",
    "source_url": "https://www.google.com/maps/place/Sklep+spo%C5%BCywczo+-+przemys%C5%82owy/data=!4m7!3m6!1s0x470401528c8b490f:0xae25613390c33552!8m2!3d52.8510262!4d16.5245844!16s%2Fg%2F1tf4cr0s!19sChIJD0mLjFIBBEcRUjXDkDNhJa4?authuser=0&hl=tr&rclk=1",
    "website_url": "",
    "rating_text": "",
    "stars": null,
    "number_of_reviews": null,
    "price_level": "",
    "open_hours": "",
    "extraction_timestamp": "2025-06-07T17:18:08.586Z",
    "source_name": "google",
    "source_query": "Irrigation Equipment",
    "source_country": "PL",
    "country": "Poland",
    "state": "Greater Poland Voivodeship",
    "city": "Lubasz"
  },
  {
    "source_id": "ChIJgUGy5WoBBEcRvqID7nsQrU8",
    "name": "Spożywczy Vera",
    "category": "Spożywczy Vera",
    "formatted_address": "5,0(2)",
    "phone_number": "",
    "source_url": "https://www.google.com/maps/place/Spo%C5%BCywczy+Vera/data=!4m7!3m6!1s0x4704016ae5b24181:0x4fad107bee03a2be!8m2!3d52.8648841!4d16.500325!16s%2Fg%2F11fqpc2nzg!19sChIJgUGy5WoBBEcRvqID7nsQrU8?authuser=0&hl=tr&rclk=1",
    "website_url": "",
    "rating_text": "5,0",
    "stars": null,
    "number_of_reviews": null,
    "price_level": "",
    "open_hours": "",
    "extraction_timestamp": "2025-06-07T17:18:08.586Z",
    "source_name": "google",
    "source_query": "Irrigation Equipment",
    "source_country": "PL",
    "country": "Poland",
    "state": "Greater Poland Voivodeship",
    "city": "Lubasz"
  },
  {
    "source_id": "ChIJgzWLVLwFBEcRbBjclGjy2OM",
    "name": "Sklep",
    "category": "Sklep",
    "formatted_address": "4,8(5)",
    "phone_number": "",
    "source_url": "https://www.google.com/maps/place/Sklep/data=!4m7!3m6!1s0x470405bc548b3583:0xe3d8f26894dc186c!8m2!3d52.8170276!4d16.5207075!16s%2Fg%2F11h4k9gdrf!19sChIJgzWLVLwFBEcRbBjclGjy2OM?authuser=0&hl=tr&rclk=1",
    "website_url": "",
    "rating_text": "4,8",
    "stars": null,
    "number_of_reviews": null,
    "price_level": "",
    "open_hours": "",
    "extraction_timestamp": "2025-06-07T17:18:08.587Z",
    "source_name": "google",
    "source_query": "Irrigation Equipment",
    "source_country": "PL",
    "country": "Poland",
    "state": "Greater Poland Voivodeship",
    "city": "Lubasz"
  },
  {
    "source_id": "ChIJt4upsbo4BEcRWkUl8Qt9ryw",
    "name": "Barenbrug Polska Sp. z o.o.",
    "category": "Barenbrug Polska Sp. z o.o.",
    "formatted_address": "4,2(9)",
    "phone_number": "+48618164133",
    "source_url": "https://www.google.com/maps/place/Barenbrug+Polska+Sp.+z+o.o./data=!4m7!3m6!1s0x470438bab1a98bb7:0x2caf7d0bf125455a!8m2!3d52.4567446!4d16.6538235!16s%2Fg%2F1w97t2lf!19sChIJt4upsbo4BEcRWkUl8Qt9ryw?authuser=0&hl=tr&rclk=1",
    "website_url": "",
    "rating_text": "4,2",
    "stars": null,
    "number_of_reviews": null,
    "price_level": "",
    "open_hours": "",
    "extraction_timestamp": "2025-06-07T17:18:08.588Z",
    "source_name": "google",
    "source_query": "Irrigation Equipment",
    "source_country": "PL",
    "country": "Poland",
    "state": "Greater Poland Voivodeship",
    "city": "Lubasz"
  },
  {
    "source_id": "ChIJR1Gy6FdHBEcRxLXa4mu3HY8",
    "name": "Fargo PW Centrum Ogrodnicze - Sklep Ogrodniczy i Rolniczy",
    "category": "Fargo PW Centrum Ogrodnicze - Sklep Ogrodniczy i Rolniczy",
    "formatted_address": "4,8(387)",
    "phone_number": "+48618146334",
    "source_url": "https://www.google.com/maps/place/Fargo+PW+Centrum+Ogrodnicze+-+Sklep+Ogrodniczy+i+Rolniczy/data=!4m7!3m6!1s0x47044757e8b25147:0x8f1db76be2dab5c4!8m2!3d52.4575027!4d16.6792707!16s%2Fg%2F1ptwzycf8!19sChIJR1Gy6FdHBEcRxLXa4mu3HY8?authuser=0&hl=tr&rclk=1",
    "website_url": "",
    "rating_text": "4,8",
    "stars": null,
    "number_of_reviews": null,
    "price_level": "",
    "open_hours": "",
    "extraction_timestamp": "2025-06-07T17:18:08.589Z",
    "source_name": "google",
    "source_query": "Irrigation Equipment",
    "source_country": "PL",
    "country": "Poland",
    "state": "Greater Poland Voivodeship",
    "city": "Lubasz"
  },
  {
    "source_id": "ChIJU3OjlcZsBEcRgZ-_uJA0U-E",
    "name": "SKLEP INSTALACYJNY W MŁYNIE S.C.JAWORSKI SZYMON,JAWORSKA MARTA",
    "category": "SKLEP INSTALACYJNY W MŁYNIE S.C.JAWORSKI SZYMON,JAWORSKA MARTA",
    "formatted_address": "SKLEP INSTALACYJNY W MŁYNIE S.C.JAWORSKI SZYMON,JAWORSKA MARTA",
    "phone_number": "+48501663902",
    "source_url": "https://www.google.com/maps/place/SKLEP+INSTALACYJNY+W+M%C5%81YNIE+S.C.JAWORSKI+SZYMON,JAWORSKA+MARTA/data=!4m7!3m6!1s0x47046cc695a37353:0xe1533490b8bf9f81!8m2!3d52.6375135!4d16.8138133!16s%2Fg%2F11c0xqk8ty!19sChIJU3OjlcZsBEcRgZ-_uJA0U-E?authuser=0&hl=tr&rclk=1",
    "website_url": "",
    "rating_text": "4,8",
    "stars": null,
    "number_of_reviews": null,
    "price_level": "",
    "open_hours": "",
    "extraction_timestamp": "2025-06-07T17:18:08.589Z",
    "source_name": "google",
    "source_query": "Irrigation Equipment",
    "source_country": "PL",
    "country": "Poland",
    "state": "Greater Poland Voivodeship",
    "city": "Lubasz"
  },
  {
    "source_id": "ChIJ3739v0AHBEcRDXG7O8P9IaE",
    "name": "Bricomarché Czarnków",
    "category": "Bricomarché Czarnków",
    "formatted_address": "4,7(15)",
    "phone_number": "+48502392468",
    "source_url": "https://www.google.com/maps/place/Bricomarch%C3%A9+Czarnk%C3%B3w/data=!4m7!3m6!1s0x47040740bffdbddf:0xa121fdc33bbb710d!8m2!3d52.9105881!4d16.5690897!16s%2Fg%2F11ycsjdc9y!19sChIJ3739v0AHBEcRDXG7O8P9IaE?authuser=0&hl=tr&rclk=1",
    "website_url": "",
    "rating_text": "4,7",
    "stars": null,
    "number_of_reviews": null,
    "price_level": "",
    "open_hours": "",
    "extraction_timestamp": "2025-06-07T17:18:08.590Z",
    "source_name": "google",
    "source_query": "Irrigation Equipment",
    "source_country": "PL",
    "country": "Poland",
    "state": "Greater Poland Voivodeship",
    "city": "Lubasz"
  },
  {
    "source_id": "ChIJ-ftLg7EXBEcRJrnqe3P14Hc",
    "name": "Stylowy Ogrodnik. Usługi ogrodnicze. Systemy nawadniające",
    "category": "Stylowy Ogrodnik. Usługi ogrodnicze. Systemy nawadniające",
    "formatted_address": "5,0(16)",
    "phone_number": "+48792772881",
    "source_url": "https://www.google.com/maps/place/Stylowy+Ogrodnik.+Us%C5%82ugi+ogrodnicze.+Systemy+nawadniaj%C4%85ce/data=!4m7!3m6!1s0x470417b1834bfbf9:0x77e0f5737beab926!8m2!3d52.5973027!4d16.6115318!16s%2Fg%2F11h0_9y4dl!19sChIJ-ftLg7EXBEcRJrnqe3P14Hc?authuser=0&hl=tr&rclk=1",
    "website_url": "",
    "rating_text": "5,0",
    "stars": null,
    "number_of_reviews": null,
    "price_level": "",
    "open_hours": "",
    "extraction_timestamp": "2025-06-07T17:18:08.591Z",
    "source_name": "google",
    "source_query": "Irrigation Equipment",
    "source_country": "PL",
    "country": "Poland",
    "state": "Greater Poland Voivodeship",
    "city": "Lubasz"
  },
  {
    "source_id": "ChIJwxC1X09EBEcRLzaLJfk4rD8",
    "name": "OASE - Oczko Wodne Polski Autoryzowany Sklep internetowy Złoty Przedstawiciel Nawadnianie Podlewanie Hunter, Raibird,Rossi",
    "category": "OASE - Oczko Wodne Polski Autoryzowany Sklep internetowy Złoty Przedstawiciel Nawadnianie Podlewanie Hunter, Raibird,Rossi",
    "formatted_address": "OASE - Oczko Wodne Polski Autoryzowany Sklep internetowy Złoty Przedstawiciel Nawadnianie Podlewanie Hunter, Raibird,Rossi",
    "phone_number": "+48618842498",
    "source_url": "https://www.google.com/maps/place/OASE+-+Oczko+Wodne+Polski+Autoryzowany+Sklep+internetowy+Z%C5%82oty+Przedstawiciel+Nawadnianie+Podlewanie+Hunter,+Raibird,Rossi/data=!4m7!3m6!1s0x4704444f5fb510c3:0x3fac38f9258b362f!8m2!3d52.4364533!4d16.8327227!16s%2Fg%2F1hc96cvd0!19sChIJwxC1X09EBEcRLzaLJfk4rD8?authuser=0&hl=tr&rclk=1",
    "website_url": "",
    "rating_text": "4,6",
    "stars": null,
    "number_of_reviews": null,
    "price_level": "",
    "open_hours": "",
    "extraction_timestamp": "2025-06-07T17:18:08.592Z",
    "source_name": "google",
    "source_query": "Irrigation Equipment",
    "source_country": "PL",
    "country": "Poland",
    "state": "Greater Poland Voivodeship",
    "city": "Lubasz"
  },
  {
    "source_id": "ChIJQYZYU_daBEcRrc4mt6dBBko",
    "name": "HYDROGLOBAL - Przemyślane rozwiązania dla ujęć wody",
    "category": "HYDROGLOBAL - Przemyślane rozwiązania dla ujęć wody",
    "formatted_address": "4,5(8)",
    "phone_number": "+48612785475",
    "source_url": "https://www.google.com/maps/place/HYDROGLOBAL+-+Przemy%C5%9Blane+rozwi%C4%85zania+dla+uj%C4%99%C4%87+wody/data=!4m7!3m6!1s0x47045af753588641:0x4a0641a7b726cead!8m2!3d52.4872791!4d16.8563292!16s%2Fg%2F1wzt11_h!19sChIJQYZYU_daBEcRrc4mt6dBBko?authuser=0&hl=tr&rclk=1",
    "website_url": "",
    "rating_text": "4,5",
    "stars": null,
    "number_of_reviews": null,
    "price_level": "",
    "open_hours": "",
    "extraction_timestamp": "2025-06-07T17:18:08.593Z",
    "source_name": "google",
    "source_query": "Irrigation Equipment",
    "source_country": "PL",
    "country": "Poland",
    "state": "Greater Poland Voivodeship",
    "city": "Lubasz"
  },
  {
    "source_id": "ChIJtWcFLp3pBEcRLsKDqolJIng",
    "name": "TEST INSTALACJE – Hurtownia instalacyjna Września",
    "category": "TEST INSTALACJE – Hurtownia instalacyjna Września",
    "formatted_address": "4,7(33)",
    "phone_number": "+48616394733",
    "source_url": "https://www.google.com/maps/place/TEST+INSTALACJE+%E2%80%93+Hurtownia+instalacyjna+Wrze%C5%9Bnia/data=!4m7!3m6!1s0x4704e99d2e0567b5:0x78224989aa83c22e!8m2!3d52.3216706!4d17.5802512!16s%2Fg%2F11c50569y3!19sChIJtWcFLp3pBEcRLsKDqolJIng?authuser=0&hl=tr&rclk=1",
    "website_url": "",
    "rating_text": "4,7",
    "stars": null,
    "number_of_reviews": null,
    "price_level": "",
    "open_hours": "",
    "extraction_timestamp": "2025-06-07T17:18:08.593Z",
    "source_name": "google",
    "source_query": "Irrigation Equipment",
    "source_country": "PL",
    "country": "Poland",
    "state": "Greater Poland Voivodeship",
    "city": "Lubasz"
  },
  {
    "source_id": "ChIJMXpRhTrNBkcR-uXPOC2MQuQ",
    "name": "Zespół Kempingowo- Namiotowy Osiek",
    "category": "Zespół Kempingowo- Namiotowy Osiek",
    "formatted_address": "4,4(56)",
    "phone_number": "+48957611541",
    "source_url": "https://www.google.com/maps/place/Zesp%C3%B3%C5%82+Kempingowo-+Namiotowy+Osiek/data=!4m7!3m6!1s0x4706cd3a85517a31:0xe4428c2d38cfe5fa!8m2!3d52.9707718!4d15.6994205!16s%2Fg%2F11fhkgqy38!19sChIJMXpRhTrNBkcR-uXPOC2MQuQ?authuser=0&hl=tr&rclk=1",
    "website_url": "",
    "rating_text": "4,4",
    "stars": null,
    "number_of_reviews": null,
    "price_level": "",
    "open_hours": "",
    "extraction_timestamp": "2025-06-07T17:18:08.594Z",
    "source_name": "google",
    "source_query": "Irrigation Equipment",
    "source_country": "PL",
    "country": "Poland",
    "state": "Greater Poland Voivodeship",
    "city": "Lubasz"
  }
]
