[
  {
    "source_id": "ChIJEYNh9BVbBEcRU46FivUtBqk",
    "name": "BONITA Systemy Nawadniania HUNTER, RAINBIRD, RIVULIS, zraszacze, sterowniki, elektrozawory.",
    "category": "BONITA Systemy Nawadniania HUNTER, RAINBIRD, RIVULIS, zraszacze, sterowniki, elektrozawory.",
    "formatted_address": "BONITA Systemy Nawadniania HUNTER, RAINBIRD, RIVULIS, zraszacze, sterowniki, elektrozawory.",
    "phone_number": "+48661888350",
    "source_url": "https://www.google.com/maps/place/BONITA+Systemy+Nawadniania+HUNTER,+RAINBIRD,+RIVULIS,+zraszacze,+sterowniki,+elektrozawory./data=!4m7!3m6!1s0x47045b15f4618311:0xa9062df58a858e53!8m2!3d52.3518922!4d16.9011694!16s%2Fg%2F11j4m4n340!19sChIJEYNh9BVbBEcRU46FivUtBqk?authuser=0&hl=tr&rclk=1",
    "website_url": "http://bonita.net.pl/",
    "rating_text": "4,9",
    "stars": null,
    "number_of_reviews": null,
    "price_level": "",
    "open_hours": "",
    "extraction_timestamp": "2025-06-07T17:13:10.118Z",
    "source_name": "google",
    "source_query": "Irrigation Equipment",
    "source_country": "PL",
    "country": "Poland",
    "state": "Greater Poland Voivodeship",
    "city": "Luboń"
  },
  {
    "source_id": "ChIJVVXFW_hPBEcRES0v9S76eLU",
    "name": "Elmar Sp. z o.o. Centrum Instalacji Grzewczych, Sanitarnych i Gazowych",
    "category": "Elmar Sp. z o.o. Centrum Instalacji Grzewczych, Sanitarnych i Gazowych",
    "formatted_address": "Elmar Sp. z o.o. Centrum Instalacji Grzewczych, Sanitarnych i Gazowych",
    "phone_number": "+48618995151",
    "source_url": "https://www.google.com/maps/place/Elmar+Sp.+z+o.o.+Centrum+Instalacji+Grzewczych,+Sanitarnych+i+Gazowych/data=!4m7!3m6!1s0x47044ff85bc55555:0xb578fa2ef52f2d11!8m2!3d52.3513427!4d16.8606793!16s%2Fg%2F1ptwxjs3_!19sChIJVVXFW_hPBEcRES0v9S76eLU?authuser=0&hl=tr&rclk=1",
    "website_url": "http://www.elmar.poznan.pl/",
    "rating_text": "4,2",
    "stars": null,
    "number_of_reviews": null,
    "price_level": "",
    "open_hours": "",
    "extraction_timestamp": "2025-06-07T17:13:10.119Z",
    "source_name": "google",
    "source_query": "Irrigation Equipment",
    "source_country": "PL",
    "country": "Poland",
    "state": "Greater Poland Voivodeship",
    "city": "Luboń"
  },
  {
    "source_id": "ChIJySNUMQBQBEcRQSLcwEOA6HI",
    "name": "Kowalewski Piotr. Art. instalacyjne",
    "category": "Kowalewski Piotr. Art. instalacyjne",
    "formatted_address": "4,8(24)",
    "phone_number": "+48501868716",
    "source_url": "https://www.google.com/maps/place/Kowalewski+Piotr.+Art.+instalacyjne/data=!4m7!3m6!1s0x47045000315423c9:0x72e88043c0dc2241!8m2!3d52.349138!4d16.8741754!16s%2Fg%2F1tkml7bz!19sChIJySNUMQBQBEcRQSLcwEOA6HI?authuser=0&hl=tr&rclk=1",
    "website_url": "",
    "rating_text": "4,8",
    "stars": null,
    "number_of_reviews": null,
    "price_level": "",
    "open_hours": "",
    "extraction_timestamp": "2025-06-07T17:13:10.120Z",
    "source_name": "google",
    "source_query": "Irrigation Equipment",
    "source_country": "PL",
    "country": "Poland",
    "state": "Greater Poland Voivodeship",
    "city": "Luboń"
  },
  {
    "source_id": "ChIJudci_QJQBEcRlVnpAtMYNlk",
    "name": "Garden Center Straczkowscy",
    "category": "Garden Center Straczkowscy",
    "formatted_address": "4,4(308)",
    "phone_number": "",
    "source_url": "https://www.google.com/maps/place/Garden+Center+Straczkowscy/data=!4m7!3m6!1s0x47045002fd22d7b9:0x593618d302e95995!8m2!3d52.342706!4d16.871955!16s%2Fg%2F1v8y2r64!19sChIJudci_QJQBEcRlVnpAtMYNlk?authuser=0&hl=tr&rclk=1",
    "website_url": "http://www.straczkowscy.pl/",
    "rating_text": "4,4",
    "stars": null,
    "number_of_reviews": null,
    "price_level": "",
    "open_hours": "",
    "extraction_timestamp": "2025-06-07T17:13:10.120Z",
    "source_name": "google",
    "source_query": "Irrigation Equipment",
    "source_country": "PL",
    "country": "Poland",
    "state": "Greater Poland Voivodeship",
    "city": "Luboń"
  },
  {
    "source_id": "ChIJj2ZyznRDBEcRrJledLqBHPs",
    "name": "Water Serwis",
    "category": "Water Serwis",
    "formatted_address": "4,9(7)",
    "phone_number": "+48501354383",
    "source_url": "https://www.google.com/maps/place/Water+Serwis/data=!4m7!3m6!1s0x47044374ce72668f:0xfb1c81ba745e99ac!8m2!3d52.3514712!4d16.8608327!16s%2Fg%2F1ptzgr_ch!19sChIJj2ZyznRDBEcRrJledLqBHPs?authuser=0&hl=tr&rclk=1",
    "website_url": "http://www.waterserwis.pl/",
    "rating_text": "4,9",
    "stars": null,
    "number_of_reviews": null,
    "price_level": "",
    "open_hours": "",
    "extraction_timestamp": "2025-06-07T17:13:10.121Z",
    "source_name": "google",
    "source_query": "Irrigation Equipment",
    "source_country": "PL",
    "country": "Poland",
    "state": "Greater Poland Voivodeship",
    "city": "Luboń"
  },
  {
    "source_id": "ChIJPyBVnKNaBEcR5p8NqvYTAig",
    "name": "GROBELNY Technika Chłodnicza",
    "category": "GROBELNY Technika Chłodnicza",
    "formatted_address": "4,5(19)",
    "phone_number": "+48618131500",
    "source_url": "https://www.google.com/maps/place/GROBELNY+Technika+Ch%C5%82odnicza/data=!4m7!3m6!1s0x47045aa39c55203f:0x280213f6aa0d9fe6!8m2!3d52.3550415!4d16.8993763!16s%2Fg%2F1w0p49wg!19sChIJPyBVnKNaBEcR5p8NqvYTAig?authuser=0&hl=tr&rclk=1",
    "website_url": "http://www.grobelny.com.pl/",
    "rating_text": "4,5",
    "stars": null,
    "number_of_reviews": null,
    "price_level": "",
    "open_hours": "",
    "extraction_timestamp": "2025-06-07T17:13:10.122Z",
    "source_name": "google",
    "source_query": "Irrigation Equipment",
    "source_country": "PL",
    "country": "Poland",
    "state": "Greater Poland Voivodeship",
    "city": "Luboń"
  },
  {
    "source_id": "ChIJu3NMc2xQBEcRHdycYxL9OO0",
    "name": "Investa Oddział Poznań - stal nierdzewna, aluminium, cięcie laserem, gięcie blach",
    "category": "Investa Oddział Poznań - stal nierdzewna, aluminium, cięcie laserem, gięcie blach",
    "formatted_address": "Investa Oddział Poznań - stal nierdzewna, aluminium, cięcie laserem, gięcie blach",
    "phone_number": "+48501981649",
    "source_url": "https://www.google.com/maps/place/Investa+Oddzia%C5%82+Pozna%C5%84+-+stal+nierdzewna,+aluminium,+ci%C4%99cie+laserem,+gi%C4%99cie+blach/data=!4m7!3m6!1s0x4704506c734c73bb:0xed38fd12639cdc1d!8m2!3d52.3301103!4d16.896217!16s%2Fg%2F1hc1snqsx!19sChIJu3NMc2xQBEcRHdycYxL9OO0?authuser=0&hl=tr&rclk=1",
    "website_url": "https://www.investa.pl/",
    "rating_text": "3,9",
    "stars": null,
    "number_of_reviews": null,
    "price_level": "",
    "open_hours": "",
    "extraction_timestamp": "2025-06-07T17:13:10.123Z",
    "source_name": "google",
    "source_query": "Irrigation Equipment",
    "source_country": "PL",
    "country": "Poland",
    "state": "Greater Poland Voivodeship",
    "city": "Luboń"
  },
  {
    "source_id": "ChIJFVCITOVPBEcRG-lA_g1qlqk",
    "name": "Technika Wody",
    "category": "Technika Wody",
    "formatted_address": "4,6(288)",
    "phone_number": "+48502506622",
    "source_url": "https://www.google.com/maps/place/Technika+Wody/data=!4m7!3m6!1s0x47044fe54c885015:0xa9966a0dfe40e91b!8m2!3d52.3740842!4d16.819808!16s%2Fg%2F11b7vsdjf5!19sChIJFVCITOVPBEcRG-lA_g1qlqk?authuser=0&hl=tr&rclk=1",
    "website_url": "http://technikawody.pl/",
    "rating_text": "4,6",
    "stars": null,
    "number_of_reviews": null,
    "price_level": "",
    "open_hours": "",
    "extraction_timestamp": "2025-06-07T17:13:10.124Z",
    "source_name": "google",
    "source_query": "Irrigation Equipment",
    "source_country": "PL",
    "country": "Poland",
    "state": "Greater Poland Voivodeship",
    "city": "Luboń"
  },
  {
    "source_id": "ChIJhf8LnYNFBEcRyBAsAUTgF24",
    "name": "Inlader Sp. z o.o.",
    "category": "Inlader Sp. z o.o.",
    "formatted_address": "5,0(3)",
    "phone_number": "+48618965578",
    "source_url": "https://www.google.com/maps/place/Inlader+Sp.+z+o.o./data=!4m7!3m6!1s0x470445839d0bff85:0x6e17e044012c10c8!8m2!3d52.3513559!4d16.9004823!16s%2Fg%2F11fkmy_sl1!19sChIJhf8LnYNFBEcRyBAsAUTgF24?authuser=0&hl=tr&rclk=1",
    "website_url": "https://inlader.pl/",
    "rating_text": "5,0",
    "stars": null,
    "number_of_reviews": null,
    "price_level": "",
    "open_hours": "",
    "extraction_timestamp": "2025-06-07T17:13:10.125Z",
    "source_name": "google",
    "source_query": "Irrigation Equipment",
    "source_country": "PL",
    "country": "Poland",
    "state": "Greater Poland Voivodeship",
    "city": "Luboń"
  },
  {
    "source_id": "ChIJ3witCANQBEcRroddfSXh-rk",
    "name": "Aquametr s.c. Owczarczak B., Krzyżanowski M.",
    "category": "Aquametr s.c. Owczarczak B., Krzyżanowski M.",
    "formatted_address": "Aquametr s.c. Owczarczak B., Krzyżanowski M.",
    "phone_number": "+48501101601",
    "source_url": "https://www.google.com/maps/place/Aquametr+s.c.+Owczarczak+B.,+Krzy%C5%BCanowski+M./data=!4m7!3m6!1s0x4704500308ad08df:0xb9fae1257d5d87ae!8m2!3d52.342844!4d16.8734956!16s%2Fg%2F1hcb0gtbg!19sChIJ3witCANQBEcRroddfSXh-rk?authuser=0&hl=tr&rclk=1",
    "website_url": "https://aquametr-poznan.pl/",
    "rating_text": "5,0",
    "stars": null,
    "number_of_reviews": null,
    "price_level": "",
    "open_hours": "",
    "extraction_timestamp": "2025-06-07T17:13:10.126Z",
    "source_name": "google",
    "source_query": "Irrigation Equipment",
    "source_country": "PL",
    "country": "Poland",
    "state": "Greater Poland Voivodeship",
    "city": "Luboń"
  },
  {
    "source_id": "ChIJ29gdnFUqcqQRMt-fTaFbgmo",
    "name": "Błysk Hydraulik 24h Pogotowie wod-kan 24h Pranie tapicerki kanap",
    "category": "Błysk Hydraulik 24h Pogotowie wod-kan 24h Pranie tapicerki kanap",
    "formatted_address": "5,0(3)",
    "phone_number": "+48510618908",
    "source_url": "https://www.google.com/maps/place/B%C5%82ysk+Hydraulik+24h+Pogotowie+wod-kan+24h+Pranie+tapicerki+kanap/data=!4m7!3m6!1s0xa4722a559c1dd8db:0x6a825ba14d9fdf32!8m2!3d52.3422287!4d16.8834239!16s%2Fg%2F11scrb49p0!19sChIJ29gdnFUqcqQRMt-fTaFbgmo?authuser=0&hl=tr&rclk=1",
    "website_url": "",
    "rating_text": "5,0",
    "stars": null,
    "number_of_reviews": null,
    "price_level": "",
    "open_hours": "",
    "extraction_timestamp": "2025-06-07T17:13:10.127Z",
    "source_name": "google",
    "source_query": "Irrigation Equipment",
    "source_country": "PL",
    "country": "Poland",
    "state": "Greater Poland Voivodeship",
    "city": "Luboń"
  },
  {
    "source_id": "ChIJS2jSTlrPg6MRoz--UE1s-10",
    "name": "INSTALIC - Hydraulik Poznań - Kompleksowe Usługi Instalacyjne",
    "category": "INSTALIC - Hydraulik Poznań - Kompleksowe Usługi Instalacyjne",
    "formatted_address": "5,0(33)",
    "phone_number": "+48739058837",
    "source_url": "https://www.google.com/maps/place/INSTALIC+-+Hydraulik+Pozna%C5%84+-+Kompleksowe+Us%C5%82ugi+Instalacyjne/data=!4m7!3m6!1s0xa383cf5a4ed2684b:0x5dfb6c4d50be3fa3!8m2!3d52.3507646!4d16.8720681!16s%2Fg%2F11t1mg80w_!19sChIJS2jSTlrPg6MRoz--UE1s-10?authuser=0&hl=tr&rclk=1",
    "website_url": "http://www.instalic.pl/",
    "rating_text": "5,0",
    "stars": null,
    "number_of_reviews": null,
    "price_level": "",
    "open_hours": "",
    "extraction_timestamp": "2025-06-07T17:13:10.128Z",
    "source_name": "google",
    "source_query": "Irrigation Equipment",
    "source_country": "PL",
    "country": "Poland",
    "state": "Greater Poland Voivodeship",
    "city": "Luboń"
  },
  {
    "source_id": "ChIJr4L756haBEcRiVvh24SH_Dw",
    "name": "ALPINE PRO",
    "category": "ALPINE PRO",
    "formatted_address": "4,6(21)",
    "phone_number": "+48510859887",
    "source_url": "https://www.google.com/maps/place/ALPINE+PRO/data=!4m7!3m6!1s0x47045aa8e7fb82af:0x3cfc8784dbe15b89!8m2!3d52.3532174!4d16.8880512!16s%2Fg%2F11h9k2mj5w!19sChIJr4L756haBEcRiVvh24SH_Dw?authuser=0&hl=tr&rclk=1",
    "website_url": "https://alpinepro.pl/",
    "rating_text": "4,6",
    "stars": null,
    "number_of_reviews": null,
    "price_level": "",
    "open_hours": "",
    "extraction_timestamp": "2025-06-07T17:13:10.129Z",
    "source_name": "google",
    "source_query": "Irrigation Equipment",
    "source_country": "PL",
    "country": "Poland",
    "state": "Greater Poland Voivodeship",
    "city": "Luboń"
  },
  {
    "source_id": "ChIJCYVKR-NPBEcR6FhI-zSD0T4",
    "name": "Rolka",
    "category": "Rolka",
    "formatted_address": "5,0(1)",
    "phone_number": "+48609760114",
    "source_url": "https://www.google.com/maps/place/Rolka/data=!4m7!3m6!1s0x47044fe3474a8509:0x3ed18334fb4858e8!8m2!3d52.3413461!4d16.8608589!16s%2Fg%2F1tf6fbbf!19sChIJCYVKR-NPBEcR6FhI-zSD0T4?authuser=0&hl=tr&rclk=1",
    "website_url": "http://rolkahurt.pl/kontakt/",
    "rating_text": "5,0",
    "stars": null,
    "number_of_reviews": null,
    "price_level": "",
    "open_hours": "",
    "extraction_timestamp": "2025-06-07T17:13:10.131Z",
    "source_name": "google",
    "source_query": "Irrigation Equipment",
    "source_country": "PL",
    "country": "Poland",
    "state": "Greater Poland Voivodeship",
    "city": "Luboń"
  },
  {
    "source_id": "ChIJ-f7d-gdQBEcRQyN7KuV0Z4A",
    "name": "DWD System Sp. z o.o.",
    "category": "DWD System Sp. z o.o.",
    "formatted_address": "",
    "phone_number": "+48612787600",
    "source_url": "https://www.google.com/maps/place/DWD+System+Sp.+z+o.o./data=!4m7!3m6!1s0x47045007faddfef9:0x806774e52a7b2343!8m2!3d52.3486719!4d16.887343!16s%2Fg%2F11fm162mmq!19sChIJ-f7d-gdQBEcRQyN7KuV0Z4A?authuser=0&hl=tr&rclk=1",
    "website_url": "https://dwdsystem.pl/",
    "rating_text": "",
    "stars": null,
    "number_of_reviews": null,
    "price_level": "",
    "open_hours": "",
    "extraction_timestamp": "2025-06-07T17:13:10.132Z",
    "source_name": "google",
    "source_query": "Irrigation Equipment",
    "source_country": "PL",
    "country": "Poland",
    "state": "Greater Poland Voivodeship",
    "city": "Luboń"
  },
  {
    "source_id": "ChIJt-sT9IxRBEcRZ98mC4XxdTk",
    "name": "Hydraulik 24h Wymiana kopciuchów Awarie Pompy ciepła Instalacje wod kan Ogrzewanie podłogowe",
    "category": "Hydraulik 24h Wymiana kopciuchów Awarie Pompy ciepła Instalacje wod kan Ogrzewanie podłogowe",
    "formatted_address": "Hydraulik 24h Wymiana kopciuchów Awarie Pompy ciepła Instalacje wod kan Ogrzewanie podłogowe",
    "phone_number": "+48502937020",
    "source_url": "https://www.google.com/maps/place/Hydraulik+24h+Wymiana+kopciuch%C3%B3w+Awarie+Pompy+ciep%C5%82a+Instalacje+wod+kan+Ogrzewanie+pod%C5%82ogowe/data=!4m7!3m6!1s0x4704518cf413ebb7:0x3975f1850b26df67!8m2!3d52.3270699!4d16.8784457!16s%2Fg%2F11j2y1x94n!19sChIJt-sT9IxRBEcRZ98mC4XxdTk?authuser=0&hl=tr&rclk=1",
    "website_url": "",
    "rating_text": "4,7",
    "stars": null,
    "number_of_reviews": null,
    "price_level": "",
    "open_hours": "",
    "extraction_timestamp": "2025-06-07T17:13:10.133Z",
    "source_name": "google",
    "source_query": "Irrigation Equipment",
    "source_country": "PL",
    "country": "Poland",
    "state": "Greater Poland Voivodeship",
    "city": "Luboń"
  },
  {
    "source_id": "ChIJM83VsR9RBEcR5i4b578p1iU",
    "name": "TERM-OS - badania termowizyjne, osuszanie i ozonowanie",
    "category": "TERM-OS - badania termowizyjne, osuszanie i ozonowanie",
    "formatted_address": "TERM-OS - badania termowizyjne, osuszanie i ozonowanie",
    "phone_number": "+48510000559",
    "source_url": "https://www.google.com/maps/place/TERM-OS+-+badania+termowizyjne,+osuszanie+i+ozonowanie/data=!4m7!3m6!1s0x4704511fb1d5cd33:0x25d629bfe71b2ee6!8m2!3d52.3305855!4d16.8855296!16s%2Fg%2F11fkclt67c!19sChIJM83VsR9RBEcR5i4b578p1iU?authuser=0&hl=tr&rclk=1",
    "website_url": "https://term-os.pl/",
    "rating_text": "5,0",
    "stars": null,
    "number_of_reviews": null,
    "price_level": "",
    "open_hours": "",
    "extraction_timestamp": "2025-06-07T17:13:10.134Z",
    "source_name": "google",
    "source_query": "Irrigation Equipment",
    "source_country": "PL",
    "country": "Poland",
    "state": "Greater Poland Voivodeship",
    "city": "Luboń"
  },
  {
    "source_id": "ChIJz2mQGAtFBEcRmKeaBejlx8U",
    "name": "Stejmeg",
    "category": "Stejmeg",
    "formatted_address": "4,1(29)",
    "phone_number": "+48618678248",
    "source_url": "https://www.google.com/maps/place/Stejmeg/data=!4m7!3m6!1s0x4704450b189069cf:0xc5c7e5e8059aa798!8m2!3d52.3809252!4d16.8315109!16s%2Fg%2F1pv0b_sxb!19sChIJz2mQGAtFBEcRmKeaBejlx8U?authuser=0&hl=tr&rclk=1",
    "website_url": "http://www.stejmeg.pl/",
    "rating_text": "4,1",
    "stars": null,
    "number_of_reviews": null,
    "price_level": "",
    "open_hours": "",
    "extraction_timestamp": "2025-06-07T17:13:10.135Z",
    "source_name": "google",
    "source_query": "Irrigation Equipment",
    "source_country": "PL",
    "country": "Poland",
    "state": "Greater Poland Voivodeship",
    "city": "Luboń"
  },
  {
    "source_id": "ChIJua5I11RbBEcRsRNLzH7uZJc",
    "name": "Serwis Adam Baniak - Agregaty Prądotwórcze",
    "category": "Serwis Adam Baniak - Agregaty Prądotwórcze",
    "formatted_address": "5,0(5)",
    "phone_number": "+48666317859",
    "source_url": "https://www.google.com/maps/place/Serwis+Adam+Baniak+-+Agregaty+Pr%C4%85dotw%C3%B3rcze/data=!4m7!3m6!1s0x47045b54d748aeb9:0x9764ee7ecc4b13b1!8m2!3d52.3499886!4d16.8932577!16s%2Fg%2F11ftfj94vj!19sChIJua5I11RbBEcRsRNLzH7uZJc?authuser=0&hl=tr&rclk=1",
    "website_url": "https://serwisagregatowpradotworczych.pl/",
    "rating_text": "5,0",
    "stars": null,
    "number_of_reviews": null,
    "price_level": "",
    "open_hours": "",
    "extraction_timestamp": "2025-06-07T17:13:10.135Z",
    "source_name": "google",
    "source_query": "Irrigation Equipment",
    "source_country": "PL",
    "country": "Poland",
    "state": "Greater Poland Voivodeship",
    "city": "Luboń"
  },
  {
    "source_id": "ChIJfVqjmXVRBEcR8ReCvqp-iMA",
    "name": "Wodnik Złota rączka Instalator Elektryk",
    "category": "Wodnik Złota rączka Instalator Elektryk",
    "formatted_address": "5,0(1)",
    "phone_number": "+48502937020",
    "source_url": "https://www.google.com/maps/place/Wodnik+Z%C5%82ota+r%C4%85czka+Instalator+Elektryk/data=!4m7!3m6!1s0x4704517599a35a7d:0xc0887eaabe8217f1!8m2!3d51.5452265!4d17.976726!16s%2Fg%2F11j8kw827j!19sChIJfVqjmXVRBEcR8ReCvqp-iMA?authuser=0&hl=tr&rclk=1",
    "website_url": "",
    "rating_text": "5,0",
    "stars": null,
    "number_of_reviews": null,
    "price_level": "",
    "open_hours": "",
    "extraction_timestamp": "2025-06-07T17:13:10.136Z",
    "source_name": "google",
    "source_query": "Irrigation Equipment",
    "source_country": "PL",
    "country": "Poland",
    "state": "Greater Poland Voivodeship",
    "city": "Luboń"
  },
  {
    "source_id": "ChIJnc398spaBEcRj7v-9AgLfjY",
    "name": "Alsi Serwis Sp. z o.o.",
    "category": "Alsi Serwis Sp. z o.o.",
    "formatted_address": "4,1(9)",
    "phone_number": "+48501081033",
    "source_url": "https://www.google.com/maps/place/Alsi+Serwis+Sp.+z+o.o./data=!4m7!3m6!1s0x47045acaf2fdcd9d:0x367e0b08f4febb8f!8m2!3d52.3721925!4d16.890079!16s%2Fg%2F1td68ky8!19sChIJnc398spaBEcRj7v-9AgLfjY?authuser=0&hl=tr&rclk=1",
    "website_url": "https://alsiserwis.pl/",
    "rating_text": "4,1",
    "stars": null,
    "number_of_reviews": null,
    "price_level": "",
    "open_hours": "",
    "extraction_timestamp": "2025-06-07T17:13:10.137Z",
    "source_name": "google",
    "source_query": "Irrigation Equipment",
    "source_country": "PL",
    "country": "Poland",
    "state": "Greater Poland Voivodeship",
    "city": "Luboń"
  },
  {
    "source_id": "ChIJQYZYU_daBEcRrc4mt6dBBko",
    "name": "HYDROGLOBAL - Przemyślane rozwiązania dla ujęć wody",
    "category": "HYDROGLOBAL - Przemyślane rozwiązania dla ujęć wody",
    "formatted_address": "4,5(8)",
    "phone_number": "+48612785475",
    "source_url": "https://www.google.com/maps/place/HYDROGLOBAL+-+Przemy%C5%9Blane+rozwi%C4%85zania+dla+uj%C4%99%C4%87+wody/data=!4m7!3m6!1s0x47045af753588641:0x4a0641a7b726cead!8m2!3d52.4872791!4d16.8563292!16s%2Fg%2F1wzt11_h!19sChIJQYZYU_daBEcRrc4mt6dBBko?authuser=0&hl=tr&rclk=1",
    "website_url": "http://www.hydroglobal.com/",
    "rating_text": "4,5",
    "stars": null,
    "number_of_reviews": null,
    "price_level": "",
    "open_hours": "",
    "extraction_timestamp": "2025-06-07T17:13:10.138Z",
    "source_name": "google",
    "source_query": "Irrigation Equipment",
    "source_country": "PL",
    "country": "Poland",
    "state": "Greater Poland Voivodeship",
    "city": "Luboń"
  },
  {
    "source_id": "ChIJfwFzbxBFBEcRn7xY2iu3RtU",
    "name": "Wielkopolski Ośrodek Doradztwa Rolniczego w Poznaniu",
    "category": "Wielkopolski Ośrodek Doradztwa Rolniczego w Poznaniu",
    "formatted_address": "3,9(20)",
    "phone_number": "+48618685272",
    "source_url": "https://www.google.com/maps/place/Wielkopolski+O%C5%9Brodek+Doradztwa+Rolniczego+w+Poznaniu/data=!4m7!3m6!1s0x470445106f73017f:0xd546b72bda58bc9f!8m2!3d52.3867242!4d16.8493122!16s%2Fg%2F1tj1qsdz!19sChIJfwFzbxBFBEcRn7xY2iu3RtU?authuser=0&hl=tr&rclk=1",
    "website_url": "http://www.wodr.poznan.pl/",
    "rating_text": "3,9",
    "stars": null,
    "number_of_reviews": null,
    "price_level": "",
    "open_hours": "",
    "extraction_timestamp": "2025-06-07T17:13:10.139Z",
    "source_name": "google",
    "source_query": "Irrigation Equipment",
    "source_country": "PL",
    "country": "Poland",
    "state": "Greater Poland Voivodeship",
    "city": "Luboń"
  },
  {
    "source_id": "ChIJOzIdtGNZBEcR4xhTX7c8MqM",
    "name": "Inspol Sp. z o.o.",
    "category": "Inspol Sp. z o.o.",
    "formatted_address": "4,9(22)",
    "phone_number": "+48602133946",
    "source_url": "https://www.google.com/maps/place/Inspol+Sp.+z+o.o./data=!4m7!3m6!1s0x47045963b41d323b:0xa3323cb75f5318e3!8m2!3d52.3873872!4d17.0232758!16s%2Fg%2F1tpb9pc2!19sChIJOzIdtGNZBEcR4xhTX7c8MqM?authuser=0&hl=tr&rclk=1",
    "website_url": "https://www.inspol.pl/",
    "rating_text": "4,9",
    "stars": null,
    "number_of_reviews": null,
    "price_level": "",
    "open_hours": "",
    "extraction_timestamp": "2025-06-07T17:13:10.139Z",
    "source_name": "google",
    "source_query": "Irrigation Equipment",
    "source_country": "PL",
    "country": "Poland",
    "state": "Greater Poland Voivodeship",
    "city": "Luboń"
  },
  {
    "source_id": "ChIJT_cnfmdRBEcRcxZ6nT3FeCo",
    "name": "Action Luboń",
    "category": "Action Luboń",
    "formatted_address": "4,5(330)",
    "phone_number": "+48326305898",
    "source_url": "https://www.google.com/maps/place/Action+Lubo%C5%84/data=!4m7!3m6!1s0x470451677e27f74f:0x2a78c53d9d7a1673!8m2!3d52.3500279!4d16.8804424!16s%2Fg%2F11q96mc19p!19sChIJT_cnfmdRBEcRcxZ6nT3FeCo?authuser=0&hl=tr&rclk=1",
    "website_url": "https://www.action.com/pl-pl/sklepy/lubo/?utm_campaign=localbusiness&utm_source=google&utm_medium=organic&utm_content=A099",
    "rating_text": "4,5",
    "stars": null,
    "number_of_reviews": null,
    "price_level": "",
    "open_hours": "",
    "extraction_timestamp": "2025-06-07T17:13:10.140Z",
    "source_name": "google",
    "source_query": "Irrigation Equipment",
    "source_country": "PL",
    "country": "Poland",
    "state": "Greater Poland Voivodeship",
    "city": "Luboń"
  },
  {
    "source_id": "ChIJi56vM2tbBEcRrYnmZzUWQ6s",
    "name": "Sklep Instalacyjny hydrauliczny Poznań – Doradca Energetyczny – pompy ciepła – kotły gazowe Poznań",
    "category": "Sklep Instalacyjny hydrauliczny Poznań – Doradca Energetyczny – pompy ciepła – kotły gazowe Poznań",
    "formatted_address": "5,0(25)",
    "phone_number": "+48509786200",
    "source_url": "https://www.google.com/maps/place/Sklep+Instalacyjny+hydrauliczny+Pozna%C5%84+%E2%80%93+Doradca+Energetyczny+%E2%80%93+pompy+ciep%C5%82a+%E2%80%93+kot%C5%82y+gazowe+Pozna%C5%84/data=!4m7!3m6!1s0x47045b6b33af9e8b:0xab43163567e689ad!8m2!3d52.3830683!4d16.9201901!16s%2Fg%2F11tdf74spl!19sChIJi56vM2tbBEcRrYnmZzUWQ6s?authuser=0&hl=tr&rclk=1",
    "website_url": "https://sklep-instalacyjny-hydrauliczny.localo.site/?utm_source=google_profile&utm_campaign=localo&utm_medium=mainlink",
    "rating_text": "5,0",
    "stars": null,
    "number_of_reviews": null,
    "price_level": "",
    "open_hours": "",
    "extraction_timestamp": "2025-06-07T17:13:10.141Z",
    "source_name": "google",
    "source_query": "Irrigation Equipment",
    "source_country": "PL",
    "country": "Poland",
    "state": "Greater Poland Voivodeship",
    "city": "Luboń"
  },
  {
    "source_id": "ChIJT49YEP9PBEcR0RM0IZAkWSw",
    "name": "TOOLING SYSTEMS gwintowniki REIME NORIS,frezy,narzędzia skrawające,narzędzia specjalne",
    "category": "TOOLING SYSTEMS gwintowniki REIME NORIS,frezy,narzędzia skrawające,narzędzia specjalne",
    "formatted_address": "TOOLING SYSTEMS gwintowniki REIME NORIS,frezy,narzędzia skrawające,narzędzia specjalne",
    "phone_number": "+48660507781",
    "source_url": "https://www.google.com/maps/place/TOOLING+SYSTEMS+gwintowniki+REIME+NORIS,frezy,narz%C4%99dzia+skrawaj%C4%85ce,narz%C4%99dzia+specjalne/data=!4m7!3m6!1s0x47044fff10588f4f:0x2c592490213413d1!8m2!3d52.3506919!4d16.8687628!16s%2Fg%2F11c1psp529!19sChIJT49YEP9PBEcR0RM0IZAkWSw?authuser=0&hl=tr&rclk=1",
    "website_url": "http://toolingsystems.pl/",
    "rating_text": "1,0",
    "stars": null,
    "number_of_reviews": null,
    "price_level": "",
    "open_hours": "",
    "extraction_timestamp": "2025-06-07T17:13:10.141Z",
    "source_name": "google",
    "source_query": "Irrigation Equipment",
    "source_country": "PL",
    "country": "Poland",
    "state": "Greater Poland Voivodeship",
    "city": "Luboń"
  },
  {
    "source_id": "ChIJdU0ANU1FBEcR2moWCHkgDNg",
    "name": "Granimex- Uzdatnianie wody, Technologia basenowa, Odwrócona osmoza, Kondycjonowanie wody",
    "category": "Granimex- Uzdatnianie wody, Technologia basenowa, Odwrócona osmoza, Kondycjonowanie wody",
    "formatted_address": "Granimex- Uzdatnianie wody, Technologia basenowa, Odwrócona osmoza, Kondycjonowanie wody",
    "phone_number": "+48618305685",
    "source_url": "https://www.google.com/maps/place/Granimex-+Uzdatnianie+wody,+Technologia+basenowa,+Odwr%C3%B3cona+osmoza,+Kondycjonowanie+wody/data=!4m7!3m6!1s0x4704454d35004d75:0xd80c207908166ada!8m2!3d52.3731194!4d16.8887854!16s%2Fg%2F1tcvsk8q!19sChIJdU0ANU1FBEcR2moWCHkgDNg?authuser=0&hl=tr&rclk=1",
    "website_url": "https://www.granimex.com.pl/",
    "rating_text": "5,0",
    "stars": null,
    "number_of_reviews": null,
    "price_level": "",
    "open_hours": "",
    "extraction_timestamp": "2025-06-07T17:13:10.142Z",
    "source_name": "google",
    "source_query": "Irrigation Equipment",
    "source_country": "PL",
    "country": "Poland",
    "state": "Greater Poland Voivodeship",
    "city": "Luboń"
  },
  {
    "source_id": "ChIJ9bftVyVbBEcR-Rly8QcbUJg",
    "name": "Autoryzowany Serwis Kotłów Gazowych i Pomp Ciepła Damian Urbański",
    "category": "Autoryzowany Serwis Kotłów Gazowych i Pomp Ciepła Damian Urbański",
    "formatted_address": "4,0(83)",
    "phone_number": "+48530383530",
    "source_url": "https://www.google.com/maps/place/Autoryzowany+Serwis+Kot%C5%82%C3%B3w+Gazowych+i+Pomp+Ciep%C5%82a+Damian+Urba%C5%84ski/data=!4m7!3m6!1s0x47045b2557edb7f5:0x98501b07f17219f9!8m2!3d52.3802254!4d16.9461192!16s%2Fg%2F11h4kwcf8f!19sChIJ9bftVyVbBEcR-Rly8QcbUJg?authuser=0&hl=tr&rclk=1",
    "website_url": "http://www.smartinstall.pl/",
    "rating_text": "4,0",
    "stars": null,
    "number_of_reviews": null,
    "price_level": "",
    "open_hours": "",
    "extraction_timestamp": "2025-06-07T17:13:10.143Z",
    "source_name": "google",
    "source_query": "Irrigation Equipment",
    "source_country": "PL",
    "country": "Poland",
    "state": "Greater Poland Voivodeship",
    "city": "Luboń"
  },
  {
    "source_id": "ChIJ1fLMWVJPBEcRJPhBeWYu2o0",
    "name": "Suszarnia24h.pl",
    "category": "Suszarnia24h.pl",
    "formatted_address": "4,8(18)",
    "phone_number": "+48881743107",
    "source_url": "https://www.google.com/maps/place/Suszarnia24h.pl/data=!4m7!3m6!1s0x47044f5259ccf2d5:0x8dda2e667941f824!8m2!3d52.3930371!4d16.8374908!16s%2Fg%2F11q8gb7f6g!19sChIJ1fLMWVJPBEcRJPhBeWYu2o0?authuser=0&hl=tr&rclk=1",
    "website_url": "https://www.suszarnia24h.pl/",
    "rating_text": "4,8",
    "stars": null,
    "number_of_reviews": null,
    "price_level": "",
    "open_hours": "",
    "extraction_timestamp": "2025-06-07T17:13:10.144Z",
    "source_name": "google",
    "source_query": "Irrigation Equipment",
    "source_country": "PL",
    "country": "Poland",
    "state": "Greater Poland Voivodeship",
    "city": "Luboń"
  },
  {
    "source_id": "ChIJB6y_v5J2HEcRlDfYx3xmc9M",
    "name": "Milex irrigation systems",
    "category": "Milex irrigation systems",
    "formatted_address": "4,6(37)",
    "phone_number": "+48242775222",
    "source_url": "https://www.google.com/maps/place/Milex+irrigation+systems/data=!4m7!3m6!1s0x471c7692bfbfac07:0xd373667cc7d83794!8m2!3d52.4690634!4d19.7520904!16s%2Fg%2F1w2yy67r!19sChIJB6y_v5J2HEcRlDfYx3xmc9M?authuser=0&hl=tr&rclk=1",
    "website_url": "https://www.milex.pl/",
    "rating_text": "4,6",
    "stars": null,
    "number_of_reviews": null,
    "price_level": "",
    "open_hours": "",
    "extraction_timestamp": "2025-06-07T17:13:10.144Z",
    "source_name": "google",
    "source_query": "Irrigation Equipment",
    "source_country": "PL",
    "country": "Poland",
    "state": "Greater Poland Voivodeship",
    "city": "Luboń"
  }
]
