[
  {
    "source_id": "ChIJKZhsQQooBEcRVV1bFJLcaqE",
    "name": "Majsterek. Sklep wielobranżowy. Nowak P.",
    "category": "Majsterek. Sklep wielobranżowy. Nowak P.",
    "formatted_address": "4,6(122)",
    "phone_number": "+48614414171",
    "source_url": "https://www.google.com/maps/place/Majsterek.+Sklep+wielobran%C5%BCowy.+Nowak+P./data=!4m7!3m6!1s0x4704280a416c9829:0xa16adc92145b5d55!8m2!3d52.447982!4d16.176847!16s%2Fg%2F1v3hypbb!19sChIJKZhsQQooBEcRVV1bFJLcaqE?authuser=0&hl=tr&rclk=1",
    "website_url": "",
    "rating_text": "4,6",
    "stars": null,
    "number_of_reviews": null,
    "price_level": "",
    "open_hours": "",
    "extraction_timestamp": "2025-06-07T17:37:58.068Z",
    "source_name": "google",
    "source_query": "Irrigation Equipment",
    "source_country": "PL",
    "country": "Poland",
    "state": "Greater Poland Voivodeship",
    "city": "Lwówek"
  },
  {
    "source_id": "ChIJL56F9EopBEcR-7pf0XTiRgI",
    "name": "ekoNawrocki",
    "category": "ekoNawrocki",
    "formatted_address": "5,0(23)",
    "phone_number": "+48882635188",
    "source_url": "https://www.google.com/maps/place/ekoNawrocki/data=!4m7!3m6!1s0x4704294af4859e2f:0x246e274d15fbafb!8m2!3d52.449894!4d16.1801575!16s%2Fg%2F11l819smv5!19sChIJL56F9EopBEcR-7pf0XTiRgI?authuser=0&hl=tr&rclk=1",
    "website_url": "",
    "rating_text": "5,0",
    "stars": null,
    "number_of_reviews": null,
    "price_level": "",
    "open_hours": "",
    "extraction_timestamp": "2025-06-07T17:37:58.070Z",
    "source_name": "google",
    "source_query": "Irrigation Equipment",
    "source_country": "PL",
    "country": "Poland",
    "state": "Greater Poland Voivodeship",
    "city": "Lwówek"
  },
  {
    "source_id": "ChIJS_y6ZA4oBEcRDXbKY0-1O5o",
    "name": "P.P.U.H. MAX-GUM Sławomir Gmiąt",
    "category": "P.P.U.H. MAX-GUM Sławomir Gmiąt",
    "formatted_address": "4,5(76)",
    "phone_number": "+48600265422",
    "source_url": "https://www.google.com/maps/place/P.P.U.H.+MAX-GUM+S%C5%82awomir+Gmi%C4%85t/data=!4m7!3m6!1s0x4704280e64bafc4b:0x9a3bb54f63ca760d!8m2!3d52.4429312!4d16.1741959!16s%2Fg%2F1tcvsk7l!19sChIJS_y6ZA4oBEcRDXbKY0-1O5o?authuser=0&hl=tr&rclk=1",
    "website_url": "",
    "rating_text": "4,5",
    "stars": null,
    "number_of_reviews": null,
    "price_level": "",
    "open_hours": "",
    "extraction_timestamp": "2025-06-07T17:37:58.071Z",
    "source_name": "google",
    "source_query": "Irrigation Equipment",
    "source_country": "PL",
    "country": "Poland",
    "state": "Greater Poland Voivodeship",
    "city": "Lwówek"
  },
  {
    "source_id": "ChIJu2mQcF8pBEcRnC6Zufw_yE4",
    "name": "WEBER HOME & GARDEN",
    "category": "WEBER HOME & GARDEN",
    "formatted_address": "5,0(2)",
    "phone_number": "+48667246620",
    "source_url": "https://www.google.com/maps/place/WEBER+HOME+%26+GARDEN/data=!4m7!3m6!1s0x4704295f709069bb:0x4ec83ffcb9992e9c!8m2!3d52.4507692!4d16.1793026!16s%2Fg%2F11twh0yjfs!19sChIJu2mQcF8pBEcRnC6Zufw_yE4?authuser=0&hl=tr&rclk=1",
    "website_url": "",
    "rating_text": "5,0",
    "stars": null,
    "number_of_reviews": null,
    "price_level": "",
    "open_hours": "",
    "extraction_timestamp": "2025-06-07T17:37:58.073Z",
    "source_name": "google",
    "source_query": "Irrigation Equipment",
    "source_country": "PL",
    "country": "Poland",
    "state": "Greater Poland Voivodeship",
    "city": "Lwówek"
  },
  {
    "source_id": "ChIJRwpAh9kpBEcRlQPiLQhUfUg",
    "name": "Targowisko",
    "category": "Targowisko",
    "formatted_address": "4,8(17)",
    "phone_number": "",
    "source_url": "https://www.google.com/maps/place/Targowisko/data=!4m7!3m6!1s0x470429d987400a47:0x487d54082de20395!8m2!3d52.4483584!4d16.1846697!16s%2Fg%2F11smtzr82g!19sChIJRwpAh9kpBEcRlQPiLQhUfUg?authuser=0&hl=tr&rclk=1",
    "website_url": "",
    "rating_text": "4,8",
    "stars": null,
    "number_of_reviews": null,
    "price_level": "",
    "open_hours": "",
    "extraction_timestamp": "2025-06-07T17:37:58.073Z",
    "source_name": "google",
    "source_query": "Irrigation Equipment",
    "source_country": "PL",
    "country": "Poland",
    "state": "Greater Poland Voivodeship",
    "city": "Lwówek"
  },
  {
    "source_id": "ChIJ64G1X98nBEcRjbnaJ9LNKXs",
    "name": "GS Lwówek",
    "category": "GS Lwówek",
    "formatted_address": "4,1(47)",
    "phone_number": "",
    "source_url": "https://www.google.com/maps/place/GS+Lw%C3%B3wek/data=!4m7!3m6!1s0x470427df5fb581eb:0x7b29cdd227dab98d!8m2!3d52.4492786!4d16.1919835!16s%2Fg%2F11g7p3n31m!19sChIJ64G1X98nBEcRjbnaJ9LNKXs?authuser=0&hl=tr&rclk=1",
    "website_url": "",
    "rating_text": "4,1",
    "stars": null,
    "number_of_reviews": null,
    "price_level": "",
    "open_hours": "",
    "extraction_timestamp": "2025-06-07T17:37:58.073Z",
    "source_name": "google",
    "source_query": "Irrigation Equipment",
    "source_country": "PL",
    "country": "Poland",
    "state": "Greater Poland Voivodeship",
    "city": "Lwówek"
  },
  {
    "source_id": "ChIJMb3ViAooBEcRu4KbVdSk174",
    "name": "AGD RTV PIECHOCKI",
    "category": "AGD RTV PIECHOCKI",
    "formatted_address": "5,0(44)",
    "phone_number": "+48614414128",
    "source_url": "https://www.google.com/maps/place/AGD+RTV+PIECHOCKI/data=!4m7!3m6!1s0x4704280a88d5bd31:0xbed7a4d4559b82bb!8m2!3d52.449606!4d16.182185!16s%2Fg%2F11btyl3yts!19sChIJMb3ViAooBEcRu4KbVdSk174?authuser=0&hl=tr&rclk=1",
    "website_url": "",
    "rating_text": "5,0",
    "stars": null,
    "number_of_reviews": null,
    "price_level": "",
    "open_hours": "",
    "extraction_timestamp": "2025-06-07T17:37:58.075Z",
    "source_name": "google",
    "source_query": "Irrigation Equipment",
    "source_country": "PL",
    "country": "Poland",
    "state": "Greater Poland Voivodeship",
    "city": "Lwówek"
  },
  {
    "source_id": "ChIJ573kBXYoBEcRTsh3le3yUZw",
    "name": "Chwirot Kazimierz. Działalność usługowo - handlowa",
    "category": "Chwirot Kazimierz. Działalność usługowo - handlowa",
    "formatted_address": "4,5(2)",
    "phone_number": "+48614414327",
    "source_url": "https://www.google.com/maps/place/Chwirot+Kazimierz.+Dzia%C5%82alno%C5%9B%C4%87+us%C5%82ugowo+-+handlowa/data=!4m7!3m6!1s0x4704287605e4bde7:0x9c51f2ed9577c84e!8m2!3d52.4480099!4d16.194102!16s%2Fg%2F1hc30nb1l!19sChIJ573kBXYoBEcRTsh3le3yUZw?authuser=0&hl=tr&rclk=1",
    "website_url": "",
    "rating_text": "4,5",
    "stars": null,
    "number_of_reviews": null,
    "price_level": "",
    "open_hours": "",
    "extraction_timestamp": "2025-06-07T17:37:58.076Z",
    "source_name": "google",
    "source_query": "Irrigation Equipment",
    "source_country": "PL",
    "country": "Poland",
    "state": "Greater Poland Voivodeship",
    "city": "Lwówek"
  },
  {
    "source_id": "ChIJbeE8QQooBEcRsRPw0UEJcX8",
    "name": "Chata Polska",
    "category": "Chata Polska",
    "formatted_address": "4,2(178)",
    "phone_number": "+48725454028",
    "source_url": "https://www.google.com/maps/place/Chata+Polska/data=!4m7!3m6!1s0x4704280a413ce16d:0x7f710941d1f013b1!8m2!3d52.4491993!4d16.1797385!16s%2Fg%2F11c5_w0ply!19sChIJbeE8QQooBEcRsRPw0UEJcX8?authuser=0&hl=tr&rclk=1",
    "website_url": "",
    "rating_text": "4,2",
    "stars": null,
    "number_of_reviews": null,
    "price_level": "",
    "open_hours": "",
    "extraction_timestamp": "2025-06-07T17:37:58.077Z",
    "source_name": "google",
    "source_query": "Irrigation Equipment",
    "source_country": "PL",
    "country": "Poland",
    "state": "Greater Poland Voivodeship",
    "city": "Lwówek"
  },
  {
    "source_id": "ChIJ5zEdmeAnBEcRPjmE7WrcgF8",
    "name": "Dino",
    "category": "Dino",
    "formatted_address": "4,3(229)",
    "phone_number": "",
    "source_url": "https://www.google.com/maps/place/Dino/data=!4m7!3m6!1s0x470427e0991d31e7:0x5f80dc6aed84393e!8m2!3d52.452737!4d16.187268!16s%2Fg%2F12q4rqh5c!19sChIJ5zEdmeAnBEcRPjmE7WrcgF8?authuser=0&hl=tr&rclk=1",
    "website_url": "",
    "rating_text": "4,3",
    "stars": null,
    "number_of_reviews": null,
    "price_level": "",
    "open_hours": "",
    "extraction_timestamp": "2025-06-07T17:37:58.078Z",
    "source_name": "google",
    "source_query": "Irrigation Equipment",
    "source_country": "PL",
    "country": "Poland",
    "state": "Greater Poland Voivodeship",
    "city": "Lwówek"
  },
  {
    "source_id": "ChIJiXgih_0pBEcRxPXjs6b2HPw",
    "name": "Dino",
    "category": "Dino",
    "formatted_address": "4,3(167)",
    "phone_number": "",
    "source_url": "https://www.google.com/maps/place/Dino/data=!4m7!3m6!1s0x470429fd87227889:0xfc1cf6a6b3e3f5c4!8m2!3d52.4430695!4d16.1732119!16s%2Fg%2F11gxnpyhb5!19sChIJiXgih_0pBEcRxPXjs6b2HPw?authuser=0&hl=tr&rclk=1",
    "website_url": "",
    "rating_text": "4,3",
    "stars": null,
    "number_of_reviews": null,
    "price_level": "",
    "open_hours": "",
    "extraction_timestamp": "2025-06-07T17:37:58.078Z",
    "source_name": "google",
    "source_query": "Irrigation Equipment",
    "source_country": "PL",
    "country": "Poland",
    "state": "Greater Poland Voivodeship",
    "city": "Lwówek"
  },
  {
    "source_id": "ChIJbdzJOt4nBEcR7mEEz7Nw-Wc",
    "name": "Biedronka",
    "category": "Biedronka",
    "formatted_address": "4,2(510)",
    "phone_number": "+48800080010",
    "source_url": "https://www.google.com/maps/place/Biedronka/data=!4m7!3m6!1s0x470427de3ac9dc6d:0x67f970b3cf0461ee!8m2!3d52.4531319!4d16.188643!16s%2Fg%2F11f3mbx9kr!19sChIJbdzJOt4nBEcR7mEEz7Nw-Wc?authuser=0&hl=tr&rclk=1",
    "website_url": "",
    "rating_text": "4,2",
    "stars": null,
    "number_of_reviews": null,
    "price_level": "",
    "open_hours": "",
    "extraction_timestamp": "2025-06-07T17:37:58.079Z",
    "source_name": "google",
    "source_query": "Irrigation Equipment",
    "source_country": "PL",
    "country": "Poland",
    "state": "Greater Poland Voivodeship",
    "city": "Lwówek"
  },
  {
    "source_id": "ChIJ76uzaDQpBEcR80kVtlCNpME",
    "name": "Kawiarnia Pod Zegarem",
    "category": "Kawiarnia Pod Zegarem",
    "formatted_address": "4,7(66) · zł 1–20",
    "phone_number": "",
    "source_url": "https://www.google.com/maps/place/Kawiarnia+Pod+Zegarem/data=!4m7!3m6!1s0x4704293468b3abef:0xc1a48d50b61549f3!8m2!3d52.4490794!4d16.1808549!16s%2Fg%2F11rsqql03q!19sChIJ76uzaDQpBEcR80kVtlCNpME?authuser=0&hl=tr&rclk=1",
    "website_url": "",
    "rating_text": "4,7",
    "stars": null,
    "number_of_reviews": null,
    "price_level": "",
    "open_hours": "",
    "extraction_timestamp": "2025-06-07T17:37:58.080Z",
    "source_name": "google",
    "source_query": "Irrigation Equipment",
    "source_country": "PL",
    "country": "Poland",
    "state": "Greater Poland Voivodeship",
    "city": "Lwówek"
  },
  {
    "source_id": "ChIJB6y_v5J2HEcRlDfYx3xmc9M",
    "name": "Milex irrigation systems",
    "category": "Milex irrigation systems",
    "formatted_address": "4,6(37)",
    "phone_number": "+48242775222",
    "source_url": "https://www.google.com/maps/place/Milex+irrigation+systems/data=!4m7!3m6!1s0x471c7692bfbfac07:0xd373667cc7d83794!8m2!3d52.4690634!4d19.7520904!16s%2Fg%2F1w2yy67r!19sChIJB6y_v5J2HEcRlDfYx3xmc9M?authuser=0&hl=tr&rclk=1",
    "website_url": "",
    "rating_text": "4,6",
    "stars": null,
    "number_of_reviews": null,
    "price_level": "",
    "open_hours": "",
    "extraction_timestamp": "2025-06-07T17:37:58.081Z",
    "source_name": "google",
    "source_query": "Irrigation Equipment",
    "source_country": "PL",
    "country": "Poland",
    "state": "Greater Poland Voivodeship",
    "city": "Lwówek"
  },
  {
    "source_id": "ChIJrxFVBwwoBEcRjMmZ0qWwvs8",
    "name": "Sklep Spożywczy ABC",
    "category": "Sklep Spożywczy ABC",
    "formatted_address": "4,6(16)",
    "phone_number": "",
    "source_url": "https://www.google.com/maps/place/Sklep+Spo%C5%BCywczy+ABC/data=!4m7!3m6!1s0x4704280c075511af:0xcfbeb0a5d299c98c!8m2!3d52.4459186!4d16.1759358!16s%2Fg%2F11gnnm8zkw!19sChIJrxFVBwwoBEcRjMmZ0qWwvs8?authuser=0&hl=tr&rclk=1",
    "website_url": "",
    "rating_text": "4,6",
    "stars": null,
    "number_of_reviews": null,
    "price_level": "",
    "open_hours": "",
    "extraction_timestamp": "2025-06-07T17:37:58.081Z",
    "source_name": "google",
    "source_query": "Irrigation Equipment",
    "source_country": "PL",
    "country": "Poland",
    "state": "Greater Poland Voivodeship",
    "city": "Lwówek"
  },
  {
    "source_id": "ChIJvab493UoBEcRE2z0yQy-wB4",
    "name": "Auto Truck S.C.",
    "category": "Auto Truck S.C.",
    "formatted_address": "4,9(48)",
    "phone_number": "+48501988722",
    "source_url": "https://www.google.com/maps/place/Auto+Truck+S.C./data=!4m7!3m6!1s0x47042875f7f8a6bd:0x1ec0be0cc9f46c13!8m2!3d52.4489402!4d16.1922487!16s%2Fg%2F11g8vxhpgb!19sChIJvab493UoBEcRE2z0yQy-wB4?authuser=0&hl=tr&rclk=1",
    "website_url": "",
    "rating_text": "4,9",
    "stars": null,
    "number_of_reviews": null,
    "price_level": "",
    "open_hours": "",
    "extraction_timestamp": "2025-06-07T17:37:58.082Z",
    "source_name": "google",
    "source_query": "Irrigation Equipment",
    "source_country": "PL",
    "country": "Poland",
    "state": "Greater Poland Voivodeship",
    "city": "Lwówek"
  },
  {
    "source_id": "ChIJaTgcCyEpBEcRRfAW1T8Si1c",
    "name": "Alsen",
    "category": "Alsen",
    "formatted_address": "",
    "phone_number": "+48602552789",
    "source_url": "https://www.google.com/maps/place/Alsen/data=!4m7!3m6!1s0x470429210b1c3869:0x578b123fd516f045!8m2!3d52.4495999!4d16.1813001!16s%2Fg%2F11g0dvb3wd!19sChIJaTgcCyEpBEcRRfAW1T8Si1c?authuser=0&hl=tr&rclk=1",
    "website_url": "",
    "rating_text": "",
    "stars": null,
    "number_of_reviews": null,
    "price_level": "",
    "open_hours": "",
    "extraction_timestamp": "2025-06-07T17:37:58.083Z",
    "source_name": "google",
    "source_query": "Irrigation Equipment",
    "source_country": "PL",
    "country": "Poland",
    "state": "Greater Poland Voivodeship",
    "city": "Lwówek"
  },
  {
    "source_id": "ChIJJ00lWt8nBEcRZhWwZahurso",
    "name": "Sklep wielobranżowy GS Samopomoc Chłopska",
    "category": "Sklep wielobranżowy GS Samopomoc Chłopska",
    "formatted_address": "",
    "phone_number": "+48614414457",
    "source_url": "https://www.google.com/maps/place/Sklep+wielobran%C5%BCowy+GS+Samopomoc+Ch%C5%82opska/data=!4m7!3m6!1s0x470427df5a254d27:0xcaae6ea865b01566!8m2!3d52.4498121!4d16.1923068!16s%2Fg%2F1ts1qydl!19sChIJJ00lWt8nBEcRZhWwZahurso?authuser=0&hl=tr&rclk=1",
    "website_url": "",
    "rating_text": "",
    "stars": null,
    "number_of_reviews": null,
    "price_level": "",
    "open_hours": "",
    "extraction_timestamp": "2025-06-07T17:37:58.084Z",
    "source_name": "google",
    "source_query": "Irrigation Equipment",
    "source_country": "PL",
    "country": "Poland",
    "state": "Greater Poland Voivodeship",
    "city": "Lwówek"
  },
  {
    "source_id": "ChIJdzS6FqcpBEcR4UrjBrXDE2A",
    "name": "ZooJa sklep zoologiczno-wędkarski",
    "category": "ZooJa sklep zoologiczno-wędkarski",
    "formatted_address": "5,0(2)",
    "phone_number": "+48666313897",
    "source_url": "https://www.google.com/maps/place/ZooJa+sklep+zoologiczno-w%C4%99dkarski/data=!4m7!3m6!1s0x470429a716ba3477:0x6013c3b506e34ae1!8m2!3d52.44952!4d16.181826!16s%2Fg%2F11l23s33gh!19sChIJdzS6FqcpBEcR4UrjBrXDE2A?authuser=0&hl=tr&rclk=1",
    "website_url": "",
    "rating_text": "5,0",
    "stars": null,
    "number_of_reviews": null,
    "price_level": "",
    "open_hours": "",
    "extraction_timestamp": "2025-06-07T17:37:58.085Z",
    "source_name": "google",
    "source_query": "Irrigation Equipment",
    "source_country": "PL",
    "country": "Poland",
    "state": "Greater Poland Voivodeship",
    "city": "Lwówek"
  },
  {
    "source_id": "ChIJe4CTQgooBEcROg9yai8wp5E",
    "name": "Sarrazin Wiesław. Sklep wielobranżowy",
    "category": "Sarrazin Wiesław. Sklep wielobranżowy",
    "formatted_address": "",
    "phone_number": "+48614414143",
    "source_url": "https://www.google.com/maps/place/Sarrazin+Wies%C5%82aw.+Sklep+wielobran%C5%BCowy/data=!4m7!3m6!1s0x4704280a4293807b:0x91a7302f6a720f3a!8m2!3d52.449064!4d16.179242!16s%2Fg%2F1tkd_np3!19sChIJe4CTQgooBEcROg9yai8wp5E?authuser=0&hl=tr&rclk=1",
    "website_url": "",
    "rating_text": "",
    "stars": null,
    "number_of_reviews": null,
    "price_level": "",
    "open_hours": "",
    "extraction_timestamp": "2025-06-07T17:37:58.085Z",
    "source_name": "google",
    "source_query": "Irrigation Equipment",
    "source_country": "PL",
    "country": "Poland",
    "state": "Greater Poland Voivodeship",
    "city": "Lwówek"
  },
  {
    "source_id": "ChIJ7XiBPeuWBkcRfFvSMPXhG0Q",
    "name": "Laufpompa",
    "category": "Laufpompa",
    "formatted_address": "4,6(257)",
    "phone_number": "",
    "source_url": "https://www.google.com/maps/place/Laufpompa/data=!4m7!3m6!1s0x470696eb3d8178ed:0x441be1f530d25b7c!8m2!3d52.6053153!4d15.8959682!16s%2Fg%2F122kcq53!19sChIJ7XiBPeuWBkcRfFvSMPXhG0Q?authuser=0&hl=tr&rclk=1",
    "website_url": "",
    "rating_text": "4,6",
    "stars": null,
    "number_of_reviews": null,
    "price_level": "",
    "open_hours": "",
    "extraction_timestamp": "2025-06-07T17:37:58.086Z",
    "source_name": "google",
    "source_query": "Irrigation Equipment",
    "source_country": "PL",
    "country": "Poland",
    "state": "Greater Poland Voivodeship",
    "city": "Lwówek"
  },
  {
    "source_id": "ChIJORLIoHpnD0cRjp0VrSfLxyE",
    "name": "Sound Garden",
    "category": "Sound Garden",
    "formatted_address": "5,0(11)",
    "phone_number": "+48502110479",
    "source_url": "https://www.google.com/maps/place/Sound+Garden/data=!4m7!3m6!1s0x470f677aa0c81239:0x21c7cb27ad159d8e!8m2!3d51.4208357!4d16.1280794!16s%2Fg%2F11ybxdqwly!19sChIJORLIoHpnD0cRjp0VrSfLxyE?authuser=0&hl=tr&rclk=1",
    "website_url": "",
    "rating_text": "5,0",
    "stars": null,
    "number_of_reviews": null,
    "price_level": "",
    "open_hours": "",
    "extraction_timestamp": "2025-06-07T17:37:58.087Z",
    "source_name": "google",
    "source_query": "Irrigation Equipment",
    "source_country": "PL",
    "country": "Poland",
    "state": "Greater Poland Voivodeship",
    "city": "Lwówek"
  },
  {
    "source_id": "ChIJeZgY1xqRBEcRpcLMUkxBkfI",
    "name": "Ha-Two-O Paweł Filipiak",
    "category": "Ha-Two-O Paweł Filipiak",
    "formatted_address": "4,8(101)",
    "phone_number": "+48575579000",
    "source_url": "https://www.google.com/maps/place/Ha-Two-O+Pawe%C5%82+Filipiak/data=!4m7!3m6!1s0x4704911ad7189879:0xf291414c52ccc2a5!8m2!3d52.5491138!4d17.555824!16s%2Fg%2F1x6q0ggt!19sChIJeZgY1xqRBEcRpcLMUkxBkfI?authuser=0&hl=tr&rclk=1",
    "website_url": "",
    "rating_text": "4,8",
    "stars": null,
    "number_of_reviews": null,
    "price_level": "",
    "open_hours": "",
    "extraction_timestamp": "2025-06-07T17:37:58.088Z",
    "source_name": "google",
    "source_query": "Irrigation Equipment",
    "source_country": "PL",
    "country": "Poland",
    "state": "Greater Poland Voivodeship",
    "city": "Lwówek"
  },
  {
    "source_id": "ChIJQYZYU_daBEcRrc4mt6dBBko",
    "name": "HYDROGLOBAL - Przemyślane rozwiązania dla ujęć wody",
    "category": "HYDROGLOBAL - Przemyślane rozwiązania dla ujęć wody",
    "formatted_address": "4,5(8)",
    "phone_number": "+48612785475",
    "source_url": "https://www.google.com/maps/place/HYDROGLOBAL+-+Przemy%C5%9Blane+rozwi%C4%85zania+dla+uj%C4%99%C4%87+wody/data=!4m7!3m6!1s0x47045af753588641:0x4a0641a7b726cead!8m2!3d52.4872791!4d16.8563292!16s%2Fg%2F1wzt11_h!19sChIJQYZYU_daBEcRrc4mt6dBBko?authuser=0&hl=tr&rclk=1",
    "website_url": "",
    "rating_text": "4,5",
    "stars": null,
    "number_of_reviews": null,
    "price_level": "",
    "open_hours": "",
    "extraction_timestamp": "2025-06-07T17:37:58.089Z",
    "source_name": "google",
    "source_query": "Irrigation Equipment",
    "source_country": "PL",
    "country": "Poland",
    "state": "Greater Poland Voivodeship",
    "city": "Lwówek"
  },
  {
    "source_id": "ChIJtWcFLp3pBEcRLsKDqolJIng",
    "name": "TEST INSTALACJE – Hurtownia instalacyjna Września",
    "category": "TEST INSTALACJE – Hurtownia instalacyjna Września",
    "formatted_address": "4,7(33)",
    "phone_number": "+48616394733",
    "source_url": "https://www.google.com/maps/place/TEST+INSTALACJE+%E2%80%93+Hurtownia+instalacyjna+Wrze%C5%9Bnia/data=!4m7!3m6!1s0x4704e99d2e0567b5:0x78224989aa83c22e!8m2!3d52.3216706!4d17.5802512!16s%2Fg%2F11c50569y3!19sChIJtWcFLp3pBEcRLsKDqolJIng?authuser=0&hl=tr&rclk=1",
    "website_url": "",
    "rating_text": "4,7",
    "stars": null,
    "number_of_reviews": null,
    "price_level": "",
    "open_hours": "",
    "extraction_timestamp": "2025-06-07T17:37:58.090Z",
    "source_name": "google",
    "source_query": "Irrigation Equipment",
    "source_country": "PL",
    "country": "Poland",
    "state": "Greater Poland Voivodeship",
    "city": "Lwówek"
  },
  {
    "source_id": "ChIJUQow7dhEBEcROIEBsyxOuHE",
    "name": "Domowa Uprawa",
    "category": "Domowa Uprawa",
    "formatted_address": "4,4(63)",
    "phone_number": "+48788516592",
    "source_url": "https://www.google.com/maps/place/Domowa+Uprawa/data=!4m7!3m6!1s0x470444d8ed300a51:0x71b84e2cb3018138!8m2!3d52.3955619!4d16.8794529!16s%2Fg%2F12hk1kgtr!19sChIJUQow7dhEBEcROIEBsyxOuHE?authuser=0&hl=tr&rclk=1",
    "website_url": "",
    "rating_text": "4,4",
    "stars": null,
    "number_of_reviews": null,
    "price_level": "",
    "open_hours": "",
    "extraction_timestamp": "2025-06-07T17:37:58.091Z",
    "source_name": "google",
    "source_query": "Irrigation Equipment",
    "source_country": "PL",
    "country": "Poland",
    "state": "Greater Poland Voivodeship",
    "city": "Lwówek"
  },
  {
    "source_id": "ChIJ32Hw4yjNBUcRN1A1QsAN8Qw",
    "name": "Sunrise Energy - Instalacje Fotowoltaiczne Nowy Tomyśl",
    "category": "Sunrise Energy - Instalacje Fotowoltaiczne Nowy Tomyśl",
    "formatted_address": "4,4(55)",
    "phone_number": "+48728105424",
    "source_url": "https://www.google.com/maps/place/Sunrise+Energy+-+Instalacje+Fotowoltaiczne+Nowy+Tomy%C5%9Bl/data=!4m7!3m6!1s0x4705cd28e3f061df:0xcf10dc042355037!8m2!3d52.3038678!4d16.1246078!16s%2Fg%2F11fnxvktbk!19sChIJ32Hw4yjNBUcRN1A1QsAN8Qw?authuser=0&hl=tr&rclk=1",
    "website_url": "",
    "rating_text": "4,4",
    "stars": null,
    "number_of_reviews": null,
    "price_level": "",
    "open_hours": "",
    "extraction_timestamp": "2025-06-07T17:37:58.092Z",
    "source_name": "google",
    "source_query": "Irrigation Equipment",
    "source_country": "PL",
    "country": "Poland",
    "state": "Greater Poland Voivodeship",
    "city": "Lwówek"
  },
  {
    "source_id": "ChIJkz69UzyZHEcRr1B7tzGqzdE",
    "name": "Drzewonauta - wycinka i pielęgnacja drzew, ogrody (zakładanie i renowacja), czyszczenie działek pod inwestycje, nawodnienie",
    "category": "Drzewonauta - wycinka i pielęgnacja drzew, ogrody (zakładanie i renowacja), czyszczenie działek pod inwestycje, nawodnienie",
    "formatted_address": "Drzewonauta - wycinka i pielęgnacja drzew, ogrody (zakładanie i renowacja), czyszczenie działek pod inwestycje, nawodnienie",
    "phone_number": "+48577486359",
    "source_url": "https://www.google.com/maps/place/Drzewonauta+-+wycinka+i+piel%C4%99gnacja+drzew,+ogrody+%28zak%C5%82adanie+i+renowacja%29,+czyszczenie+dzia%C5%82ek+pod+inwestycje,+nawodnienie/data=!4m7!3m6!1s0x471c993c53bd3e93:0xd1cdaa31b77b50af!8m2!3d52.6525868!4d19.1257985!16s%2Fg%2F11qs0tmndh!19sChIJkz69UzyZHEcRr1B7tzGqzdE?authuser=0&hl=tr&rclk=1",
    "website_url": "",
    "rating_text": "4,9",
    "stars": null,
    "number_of_reviews": null,
    "price_level": "",
    "open_hours": "",
    "extraction_timestamp": "2025-06-07T17:37:58.092Z",
    "source_name": "google",
    "source_query": "Irrigation Equipment",
    "source_country": "PL",
    "country": "Poland",
    "state": "Greater Poland Voivodeship",
    "city": "Lwówek"
  },
  {
    "source_id": "ChIJxZTSQBWhBEcRF4aeNWXNi-w",
    "name": "Gardenbaum - Kompleksowe usługi ogrodnicze",
    "category": "Gardenbaum - Kompleksowe usługi ogrodnicze",
    "formatted_address": "5,0(7)",
    "phone_number": "+48575437261",
    "source_url": "https://www.google.com/maps/place/Gardenbaum+-+Kompleksowe+us%C5%82ugi+ogrodnicze/data=!4m7!3m6!1s0x4704a11540d294c5:0xec8bcd65359e8617!8m2!3d52.668365!4d17.9625112!16s%2Fg%2F11mwyx6wz6!19sChIJxZTSQBWhBEcRF4aeNWXNi-w?authuser=0&hl=tr&rclk=1",
    "website_url": "",
    "rating_text": "5,0",
    "stars": null,
    "number_of_reviews": null,
    "price_level": "",
    "open_hours": "",
    "extraction_timestamp": "2025-06-07T17:37:58.093Z",
    "source_name": "google",
    "source_query": "Irrigation Equipment",
    "source_country": "PL",
    "country": "Poland",
    "state": "Greater Poland Voivodeship",
    "city": "Lwówek"
  },
  {
    "source_id": "ChIJo-OyfKKYBkcRGjdJChCQqXg",
    "name": "Plaża nad Jeziorem Jaroszewskim",
    "category": "Plaża nad Jeziorem Jaroszewskim",
    "formatted_address": "4,5(931)",
    "phone_number": "",
    "source_url": "https://www.google.com/maps/place/Pla%C5%BCa+nad+Jeziorem+Jaroszewskim/data=!4m7!3m6!1s0x470698a27cb2e3a3:0x78a990100a49371a!8m2!3d52.6293408!4d16.0998869!16s%2Fg%2F11c46dtn3w!19sChIJo-OyfKKYBkcRGjdJChCQqXg?authuser=0&hl=tr&rclk=1",
    "website_url": "",
    "rating_text": "4,5",
    "stars": null,
    "number_of_reviews": null,
    "price_level": "",
    "open_hours": "",
    "extraction_timestamp": "2025-06-07T17:37:58.093Z",
    "source_name": "google",
    "source_query": "Irrigation Equipment",
    "source_country": "PL",
    "country": "Poland",
    "state": "Greater Poland Voivodeship",
    "city": "Lwówek"
  },
  {
    "source_id": "ChIJY2fepL-5BEcRG1kSBhnBJeY",
    "name": "Czarter jachtów Powidz, łódki turystyczne Boatski",
    "category": "Czarter jachtów Powidz, łódki turystyczne Boatski",
    "formatted_address": "Czarter jachtów Powidz, łódki turystyczne Boatski",
    "phone_number": "+48664432840",
    "source_url": "https://www.google.com/maps/place/Czarter+jacht%C3%B3w+Powidz,+%C5%82%C3%B3dki+turystyczne+Boatski/data=!4m7!3m6!1s0x4704b9bfa4de6763:0xe625c1190612591b!8m2!3d52.4277876!4d17.9338994!16s%2Fg%2F11n0ny4h33!19sChIJY2fepL-5BEcRG1kSBhnBJeY?authuser=0&hl=tr&rclk=1",
    "website_url": "",
    "rating_text": "5,0",
    "stars": null,
    "number_of_reviews": null,
    "price_level": "",
    "open_hours": "",
    "extraction_timestamp": "2025-06-07T17:37:58.095Z",
    "source_name": "google",
    "source_query": "Irrigation Equipment",
    "source_country": "PL",
    "country": "Poland",
    "state": "Greater Poland Voivodeship",
    "city": "Lwówek"
  }
]
