[
  {
    "source_id": "ChIJwcsSLX0gG0cRR395rOu53oQ",
    "name": "Ogrodowczyk",
    "category": "Ogrodowczyk",
    "formatted_address": "4,4(242)",
    "phone_number": "",
    "source_url": "https://www.google.com/maps/place/Ogrodowczyk/data=!4m7!3m6!1s0x471b207d2d12cbc1:0x84deb9ebac797f47!8m2!3d51.9527889!4d18.3921105!16s%2Fg%2F11f25kzhtp!19sChIJwcsSLX0gG0cRR395rOu53oQ?authuser=0&hl=tr&rclk=1",
    "website_url": "",
    "rating_text": "4,4",
    "stars": null,
    "number_of_reviews": null,
    "price_level": "",
    "open_hours": "",
    "extraction_timestamp": "2025-06-07T17:29:35.100Z",
    "source_name": "google",
    "source_query": "Irrigation Equipment",
    "source_country": "PL",
    "country": "Poland",
    "state": "Greater Poland Voivodeship",
    "city": "Malanów"
  },
  {
    "source_id": "ChIJZ_IeMn0gG0cRsgfjUe76ick",
    "name": "Kubacki Jerzy. PPHU. Piekarnia. Usługi transportowe",
    "category": "Kubacki Jerzy. PPHU. Piekarnia. Usługi transportowe",
    "formatted_address": "4,7(166) · ₺",
    "phone_number": "+48632883384",
    "source_url": "https://www.google.com/maps/place/Kubacki+Jerzy.+PPHU.+Piekarnia.+Us%C5%82ugi+transportowe/data=!4m7!3m6!1s0x471b207d321ef267:0xc989faee51e307b2!8m2!3d51.9533703!4d18.3993093!16s%2Fg%2F1tgz46s9!19sChIJZ_IeMn0gG0cRsgfjUe76ick?authuser=0&hl=tr&rclk=1",
    "website_url": "",
    "rating_text": "4,7",
    "stars": null,
    "number_of_reviews": null,
    "price_level": "",
    "open_hours": "",
    "extraction_timestamp": "2025-06-07T17:29:35.100Z",
    "source_name": "google",
    "source_query": "Irrigation Equipment",
    "source_country": "PL",
    "country": "Poland",
    "state": "Greater Poland Voivodeship",
    "city": "Malanów"
  },
  {
    "source_id": "ChIJB6y_v5J2HEcRlDfYx3xmc9M",
    "name": "Milex irrigation systems",
    "category": "Milex irrigation systems",
    "formatted_address": "4,6(37)",
    "phone_number": "+48242775222",
    "source_url": "https://www.google.com/maps/place/Milex+irrigation+systems/data=!4m7!3m6!1s0x471c7692bfbfac07:0xd373667cc7d83794!8m2!3d52.4690634!4d19.7520904!16s%2Fg%2F1w2yy67r!19sChIJB6y_v5J2HEcRlDfYx3xmc9M?authuser=0&hl=tr&rclk=1",
    "website_url": "",
    "rating_text": "4,6",
    "stars": null,
    "number_of_reviews": null,
    "price_level": "",
    "open_hours": "",
    "extraction_timestamp": "2025-06-07T17:29:35.100Z",
    "source_name": "google",
    "source_query": "Irrigation Equipment",
    "source_country": "PL",
    "country": "Poland",
    "state": "Greater Poland Voivodeship",
    "city": "Malanów"
  },
  {
    "source_id": "ChIJlWeFf80hG0cRg2NyXWdLK2o",
    "name": "Auchan Malanów",
    "category": "Auchan Malanów",
    "formatted_address": "4,1(69)",
    "phone_number": "+48693339365",
    "source_url": "https://www.google.com/maps/place/Auchan+Malan%C3%B3w/data=!4m7!3m6!1s0x471b21cd7f856795:0x6a2b4b675d726383!8m2!3d51.9545093!4d18.3936658!16s%2Fg%2F11kbtf02rt!19sChIJlWeFf80hG0cRg2NyXWdLK2o?authuser=0&hl=tr&rclk=1",
    "website_url": "",
    "rating_text": "4,1",
    "stars": null,
    "number_of_reviews": null,
    "price_level": "",
    "open_hours": "",
    "extraction_timestamp": "2025-06-07T17:29:35.101Z",
    "source_name": "google",
    "source_query": "Irrigation Equipment",
    "source_country": "PL",
    "country": "Poland",
    "state": "Greater Poland Voivodeship",
    "city": "Malanów"
  },
  {
    "source_id": "ChIJ69j0H30gG0cReSH6PZf82NI",
    "name": "Lewiatan",
    "category": "Lewiatan",
    "formatted_address": "4,3(71)",
    "phone_number": "",
    "source_url": "https://www.google.com/maps/place/Lewiatan/data=!4m7!3m6!1s0x471b207d1ff4d8eb:0xd2d8fc973dfa2179!8m2!3d51.9517973!4d18.3918761!16s%2Fg%2F11c2jx8vsr!19sChIJ69j0H30gG0cReSH6PZf82NI?authuser=0&hl=tr&rclk=1",
    "website_url": "",
    "rating_text": "4,3",
    "stars": null,
    "number_of_reviews": null,
    "price_level": "",
    "open_hours": "",
    "extraction_timestamp": "2025-06-07T17:29:35.101Z",
    "source_name": "google",
    "source_query": "Irrigation Equipment",
    "source_country": "PL",
    "country": "Poland",
    "state": "Greater Poland Voivodeship",
    "city": "Malanów"
  },
  {
    "source_id": "ChIJ8UVpTJkhG0cR4p-zfQoggfs",
    "name": "Sklep U Janickich",
    "category": "Sklep U Janickich",
    "formatted_address": "3,7(3)",
    "phone_number": "",
    "source_url": "https://www.google.com/maps/place/Sklep+U+Janickich/data=!4m7!3m6!1s0x471b21994c6945f1:0xfb81200a7db39fe2!8m2!3d51.9531541!4d18.3903421!16s%2Fg%2F11fd6ln3gt!19sChIJ8UVpTJkhG0cR4p-zfQoggfs?authuser=0&hl=tr&rclk=1",
    "website_url": "",
    "rating_text": "3,7",
    "stars": null,
    "number_of_reviews": null,
    "price_level": "",
    "open_hours": "",
    "extraction_timestamp": "2025-06-07T17:29:35.101Z",
    "source_name": "google",
    "source_query": "Irrigation Equipment",
    "source_country": "PL",
    "country": "Poland",
    "state": "Greater Poland Voivodeship",
    "city": "Malanów"
  },
  {
    "source_id": "ChIJRWJ0XGYgG0cRNAzKMkB4teI",
    "name": "Dopieralski C. Sklep spożywczy",
    "category": "Dopieralski C. Sklep spożywczy",
    "formatted_address": "2,8(5)",
    "phone_number": "+48632883573",
    "source_url": "https://www.google.com/maps/place/Dopieralski+C.+Sklep+spo%C5%BCywczy/data=!4m7!3m6!1s0x471b20665c746245:0xe2b5784032ca0c34!8m2!3d51.9538262!4d18.3935887!16s%2Fg%2F1tq4pvj6!19sChIJRWJ0XGYgG0cRNAzKMkB4teI?authuser=0&hl=tr&rclk=1",
    "website_url": "",
    "rating_text": "2,8",
    "stars": null,
    "number_of_reviews": null,
    "price_level": "",
    "open_hours": "",
    "extraction_timestamp": "2025-06-07T17:29:35.101Z",
    "source_name": "google",
    "source_query": "Irrigation Equipment",
    "source_country": "PL",
    "country": "Poland",
    "state": "Greater Poland Voivodeship",
    "city": "Malanów"
  },
  {
    "source_id": "ChIJRWJ0XGYgG0cRoas_WhjHr38",
    "name": "Dopieralski D. Piekarnia. Handel art. spożywczo - przemysłowymi",
    "category": "Dopieralski D. Piekarnia. Handel art. spożywczo - przemysłowymi",
    "formatted_address": "3,7(25) · ₺₺",
    "phone_number": "+48632883067",
    "source_url": "https://www.google.com/maps/place/Dopieralski+D.+Piekarnia.+Handel+art.+spo%C5%BCywczo+-+przemys%C5%82owymi/data=!4m7!3m6!1s0x471b20665c746245:0x7fafc7185a3faba1!8m2!3d51.9539333!4d18.3934816!16s%2Fg%2F1tfcrznl!19sChIJRWJ0XGYgG0cRoas_WhjHr38?authuser=0&hl=tr&rclk=1",
    "website_url": "",
    "rating_text": "3,7",
    "stars": null,
    "number_of_reviews": null,
    "price_level": "",
    "open_hours": "",
    "extraction_timestamp": "2025-06-07T17:29:35.102Z",
    "source_name": "google",
    "source_query": "Irrigation Equipment",
    "source_country": "PL",
    "country": "Poland",
    "state": "Greater Poland Voivodeship",
    "city": "Malanów"
  },
  {
    "source_id": "ChIJi3-85ZshG0cRReOH6luoNSs",
    "name": "Delikatesy",
    "category": "Delikatesy",
    "formatted_address": "4,4(120)",
    "phone_number": "",
    "source_url": "https://www.google.com/maps/place/Delikatesy/data=!4m7!3m6!1s0x471b219be5bc7f8b:0x2b35a85bea87e345!8m2!3d51.956372!4d18.4001621!16s%2Fg%2F11g1mkhk7w!19sChIJi3-85ZshG0cRReOH6luoNSs?authuser=0&hl=tr&rclk=1",
    "website_url": "",
    "rating_text": "4,4",
    "stars": null,
    "number_of_reviews": null,
    "price_level": "",
    "open_hours": "",
    "extraction_timestamp": "2025-06-07T17:29:35.102Z",
    "source_name": "google",
    "source_query": "Irrigation Equipment",
    "source_country": "PL",
    "country": "Poland",
    "state": "Greater Poland Voivodeship",
    "city": "Malanów"
  }
]
