[
  {
    "source_id": "ChIJIdhEvDSMA0cRhl_3iW7tjAQ",
    "name": "P.W.S.C. WIGROPIL-TECH",
    "category": "P.W.S.C. WIGROPIL-TECH",
    "formatted_address": "4,7(54)",
    "phone_number": "+48667370118",
    "source_url": "https://www.google.com/maps/place/P.W.S.C.+WIGROPIL-TECH/data=!4m7!3m6!1s0x47038c34bc44d821:0x48ced6e89f75f86!8m2!3d52.9756008!4d17.1113402!16s%2Fg%2F11dymqtg6y!19sChIJIdhEvDSMA0cRhl_3iW7tjAQ?authuser=0&hl=tr&rclk=1",
    "website_url": "",
    "rating_text": "4,7",
    "stars": null,
    "number_of_reviews": null,
    "price_level": "",
    "open_hours": "",
    "extraction_timestamp": "2025-06-07T17:14:37.127Z",
    "source_name": "google",
    "source_query": "Irrigation Equipment",
    "source_country": "PL",
    "country": "Poland",
    "state": "Greater Poland Voivodeship",
    "city": "Margonin"
  },
  {
    "source_id": "ChIJUwXqv1mNA0cRGVSdOBYbgcg",
    "name": "PSB Mrówka Mardom",
    "category": "PSB Mrówka Mardom",
    "formatted_address": "5,0(14)",
    "phone_number": "+48572810238",
    "source_url": "https://www.google.com/maps/place/PSB+Mr%C3%B3wka+Mardom/data=!4m7!3m6!1s0x47038d59bfea0553:0xc8811b16389d5419!8m2!3d52.9757435!4d17.1115859!16s%2Fg%2F11h_spz8v6!19sChIJUwXqv1mNA0cRGVSdOBYbgcg?authuser=0&hl=tr&rclk=1",
    "website_url": "",
    "rating_text": "5,0",
    "stars": null,
    "number_of_reviews": null,
    "price_level": "",
    "open_hours": "",
    "extraction_timestamp": "2025-06-07T17:14:37.128Z",
    "source_name": "google",
    "source_query": "Irrigation Equipment",
    "source_country": "PL",
    "country": "Poland",
    "state": "Greater Poland Voivodeship",
    "city": "Margonin"
  },
  {
    "source_id": "ChIJqUm8g1uMA0cRRN5ProrrWvI",
    "name": "Wypożyczalnia Sprzętu Wodnego \"Wodnik\" Margonin",
    "category": "Wypożyczalnia Sprzętu Wodnego \"Wodnik\" Margonin",
    "formatted_address": "4,6(24)",
    "phone_number": "+48785502464",
    "source_url": "https://www.google.com/maps/place/Wypo%C5%BCyczalnia+Sprz%C4%99tu+Wodnego+%22Wodnik%22+Margonin/data=!4m7!3m6!1s0x47038c5b83bc49a9:0xf25aeb8aae4fde44!8m2!3d52.9686463!4d17.0772272!16s%2Fg%2F1v6wm___!19sChIJqUm8g1uMA0cRRN5ProrrWvI?authuser=0&hl=tr&rclk=1",
    "website_url": "",
    "rating_text": "4,6",
    "stars": null,
    "number_of_reviews": null,
    "price_level": "",
    "open_hours": "",
    "extraction_timestamp": "2025-06-07T17:14:37.130Z",
    "source_name": "google",
    "source_query": "Irrigation Equipment",
    "source_country": "PL",
    "country": "Poland",
    "state": "Greater Poland Voivodeship",
    "city": "Margonin"
  },
  {
    "source_id": "ChIJ9Rsw30SMA0cRaxcN8moMHR8",
    "name": "Wake Park Margonin",
    "category": "Wake Park Margonin",
    "formatted_address": "4,6(174)",
    "phone_number": "",
    "source_url": "https://www.google.com/maps/place/Wake+Park+Margonin/data=!4m7!3m6!1s0x47038c44df301bf5:0x1f1d0c6af20d176b!8m2!3d52.9669026!4d17.0832306!16s%2Fg%2F11b6sh2j0y!19sChIJ9Rsw30SMA0cRaxcN8moMHR8?authuser=0&hl=tr&rclk=1",
    "website_url": "",
    "rating_text": "4,6",
    "stars": null,
    "number_of_reviews": null,
    "price_level": "",
    "open_hours": "",
    "extraction_timestamp": "2025-06-07T17:14:37.132Z",
    "source_name": "google",
    "source_query": "Irrigation Equipment",
    "source_country": "PL",
    "country": "Poland",
    "state": "Greater Poland Voivodeship",
    "city": "Margonin"
  },
  {
    "source_id": "ChIJASEN_1GMA0cRegxi4YfQAHY",
    "name": "MARGOSTAL - Rewolińscy Sp. o.o. limited partnership",
    "category": "MARGOSTAL - Rewolińscy Sp. o.o. limited partnership",
    "formatted_address": "4,7(21)",
    "phone_number": "+48672846520",
    "source_url": "https://www.google.com/maps/place/MARGOSTAL+-+Rewoli%C5%84scy+Sp.+o.o.+limited+partnership/data=!4m7!3m6!1s0x47038c51ff0d2101:0x7600d087e1620c7a!8m2!3d52.97538!4d17.084672!16s%2Fg%2F1thp_dyn!19sChIJASEN_1GMA0cRegxi4YfQAHY?authuser=0&hl=tr&rclk=1",
    "website_url": "",
    "rating_text": "4,7",
    "stars": null,
    "number_of_reviews": null,
    "price_level": "",
    "open_hours": "",
    "extraction_timestamp": "2025-06-07T17:14:37.134Z",
    "source_name": "google",
    "source_query": "Irrigation Equipment",
    "source_country": "PL",
    "country": "Poland",
    "state": "Greater Poland Voivodeship",
    "city": "Margonin"
  },
  {
    "source_id": "ChIJUfn2Ig35A0cREW9fZ4029UM",
    "name": "IMTechnika sp. z o.o.",
    "category": "IMTechnika sp. z o.o.",
    "formatted_address": "4,4(17)",
    "phone_number": "+48883820388",
    "source_url": "https://www.google.com/maps/place/IMTechnika+sp.+z+o.o./data=!4m7!3m6!1s0x4703f90d22f6f951:0x43f5368d675f6f11!8m2!3d52.9756271!4d16.657836!16s%2Fg%2F11bw48_6mg!19sChIJUfn2Ig35A0cREW9fZ4029UM?authuser=0&hl=tr&rclk=1",
    "website_url": "",
    "rating_text": "4,4",
    "stars": null,
    "number_of_reviews": null,
    "price_level": "",
    "open_hours": "",
    "extraction_timestamp": "2025-06-07T17:14:37.135Z",
    "source_name": "google",
    "source_query": "Irrigation Equipment",
    "source_country": "PL",
    "country": "Poland",
    "state": "Greater Poland Voivodeship",
    "city": "Margonin"
  },
  {
    "source_id": "ChIJ97RyeFGMA0cR9OmsodgnYuI",
    "name": "Hit. Sklep spożywczo - monopolowy",
    "category": "Hit. Sklep spożywczo - monopolowy",
    "formatted_address": "4,8(52)",
    "phone_number": "+48672846829",
    "source_url": "https://www.google.com/maps/place/Hit.+Sklep+spo%C5%BCywczo+-+monopolowy/data=!4m7!3m6!1s0x47038c517872b4f7:0xe26227d8a1ace9f4!8m2!3d52.9749718!4d17.0818395!16s%2Fg%2F1tgdgpl_!19sChIJ97RyeFGMA0cR9OmsodgnYuI?authuser=0&hl=tr&rclk=1",
    "website_url": "",
    "rating_text": "4,8",
    "stars": null,
    "number_of_reviews": null,
    "price_level": "",
    "open_hours": "",
    "extraction_timestamp": "2025-06-07T17:14:37.136Z",
    "source_name": "google",
    "source_query": "Irrigation Equipment",
    "source_country": "PL",
    "country": "Poland",
    "state": "Greater Poland Voivodeship",
    "city": "Margonin"
  },
  {
    "source_id": "ChIJB6y_v5J2HEcRlDfYx3xmc9M",
    "name": "Milex irrigation systems",
    "category": "Milex irrigation systems",
    "formatted_address": "4,6(37)",
    "phone_number": "+48242775222",
    "source_url": "https://www.google.com/maps/place/Milex+irrigation+systems/data=!4m7!3m6!1s0x471c7692bfbfac07:0xd373667cc7d83794!8m2!3d52.4690634!4d19.7520904!16s%2Fg%2F1w2yy67r!19sChIJB6y_v5J2HEcRlDfYx3xmc9M?authuser=0&hl=tr&rclk=1",
    "website_url": "",
    "rating_text": "4,6",
    "stars": null,
    "number_of_reviews": null,
    "price_level": "",
    "open_hours": "",
    "extraction_timestamp": "2025-06-07T17:14:37.138Z",
    "source_name": "google",
    "source_query": "Irrigation Equipment",
    "source_country": "PL",
    "country": "Poland",
    "state": "Greater Poland Voivodeship",
    "city": "Margonin"
  },
  {
    "source_id": "ChIJwU5Rk0mMA0cRMOgr1CJhM_I",
    "name": "Panda",
    "category": "Panda",
    "formatted_address": "4,8(20)",
    "phone_number": "+48664344416",
    "source_url": "https://www.google.com/maps/place/Panda/data=!4m7!3m6!1s0x47038c4993514ec1:0xf2336122d42be830!8m2!3d52.9718702!4d17.0994195!16s%2Fg%2F11b7gs_k4y!19sChIJwU5Rk0mMA0cRMOgr1CJhM_I?authuser=0&hl=tr&rclk=1",
    "website_url": "",
    "rating_text": "4,8",
    "stars": null,
    "number_of_reviews": null,
    "price_level": "",
    "open_hours": "",
    "extraction_timestamp": "2025-06-07T17:14:37.139Z",
    "source_name": "google",
    "source_query": "Irrigation Equipment",
    "source_country": "PL",
    "country": "Poland",
    "state": "Greater Poland Voivodeship",
    "city": "Margonin"
  },
  {
    "source_id": "ChIJv9X1fE6MA0cRMXS6Q3wudMg",
    "name": "Biedronka",
    "category": "Biedronka",
    "formatted_address": "4,3(452)",
    "phone_number": "+48800080010",
    "source_url": "https://www.google.com/maps/place/Biedronka/data=!4m7!3m6!1s0x47038c4e7cf5d5bf:0xc8742e7c43ba7431!8m2!3d52.9734592!4d17.0896599!16s%2Fg%2F11b5wm4jv4!19sChIJv9X1fE6MA0cRMXS6Q3wudMg?authuser=0&hl=tr&rclk=1",
    "website_url": "",
    "rating_text": "4,3",
    "stars": null,
    "number_of_reviews": null,
    "price_level": "",
    "open_hours": "",
    "extraction_timestamp": "2025-06-07T17:14:37.140Z",
    "source_name": "google",
    "source_query": "Irrigation Equipment",
    "source_country": "PL",
    "country": "Poland",
    "state": "Greater Poland Voivodeship",
    "city": "Margonin"
  },
  {
    "source_id": "ChIJabWPYpZ5BEcRisVubkM-sNA",
    "name": "Wyrównaj.pl",
    "category": "Wyrównaj.pl",
    "formatted_address": "5,0(2)",
    "phone_number": "+48667180400",
    "source_url": "https://www.google.com/maps/place/Wyr%C3%B3wnaj.pl/data=!4m7!3m6!1s0x47047996628fb569:0xd0b03e436e6ec58a!8m2!3d52.8242396!4d17.2313956!16s%2Fg%2F11qq9s8g9y!19sChIJabWPYpZ5BEcRisVubkM-sNA?authuser=0&hl=tr&rclk=1",
    "website_url": "",
    "rating_text": "5,0",
    "stars": null,
    "number_of_reviews": null,
    "price_level": "",
    "open_hours": "",
    "extraction_timestamp": "2025-06-07T17:14:37.142Z",
    "source_name": "google",
    "source_query": "Irrigation Equipment",
    "source_country": "PL",
    "country": "Poland",
    "state": "Greater Poland Voivodeship",
    "city": "Margonin"
  },
  {
    "source_id": "ChIJxxRjdfFUHEcRGx6Zzo_T16o",
    "name": "Lewiatan",
    "category": "Lewiatan",
    "formatted_address": "4,4(204)",
    "phone_number": "+48503995477",
    "source_url": "https://www.google.com/maps/place/Lewiatan/data=!4m7!3m6!1s0x471c54f1756314c7:0xaad7d38fce991e1b!8m2!3d52.9756491!4d17.1112929!16s%2Fg%2F11bzslzrk9!19sChIJxxRjdfFUHEcRGx6Zzo_T16o?authuser=0&hl=tr&rclk=1",
    "website_url": "",
    "rating_text": "4,4",
    "stars": null,
    "number_of_reviews": null,
    "price_level": "",
    "open_hours": "",
    "extraction_timestamp": "2025-06-07T17:14:37.143Z",
    "source_name": "google",
    "source_query": "Irrigation Equipment",
    "source_country": "PL",
    "country": "Poland",
    "state": "Greater Poland Voivodeship",
    "city": "Margonin"
  },
  {
    "source_id": "ChIJdRnGeDBaBEcRpyx7M8s1JkQ",
    "name": "Wirtgen Polska Sp. z o.o.",
    "category": "Wirtgen Polska Sp. z o.o.",
    "formatted_address": "4,4(31)",
    "phone_number": "+48618982100",
    "source_url": "https://www.google.com/maps/place/Wirtgen+Polska+Sp.+z+o.o./data=!4m7!3m6!1s0x47045a3078c61975:0x442635cb337b2ca7!8m2!3d52.3665338!4d16.9940075!16s%2Fg%2F1pv043rwn!19sChIJdRnGeDBaBEcRpyx7M8s1JkQ?authuser=0&hl=tr&rclk=1",
    "website_url": "",
    "rating_text": "4,4",
    "stars": null,
    "number_of_reviews": null,
    "price_level": "",
    "open_hours": "",
    "extraction_timestamp": "2025-06-07T17:14:37.144Z",
    "source_name": "google",
    "source_query": "Irrigation Equipment",
    "source_country": "PL",
    "country": "Poland",
    "state": "Greater Poland Voivodeship",
    "city": "Margonin"
  },
  {
    "source_id": "ChIJF0rSlEmMA0cRT6Tv0_Mj-IY",
    "name": "Livio",
    "category": "Livio",
    "formatted_address": "5,0(1)",
    "phone_number": "",
    "source_url": "https://www.google.com/maps/place/Livio/data=!4m7!3m6!1s0x47038c4994d24a17:0x86f823f3d3efa44f!8m2!3d52.9718269!4d17.099525!16s%2Fg%2F11fkmzm4_r!19sChIJF0rSlEmMA0cRT6Tv0_Mj-IY?authuser=0&hl=tr&rclk=1",
    "website_url": "",
    "rating_text": "5,0",
    "stars": null,
    "number_of_reviews": null,
    "price_level": "",
    "open_hours": "",
    "extraction_timestamp": "2025-06-07T17:14:37.145Z",
    "source_name": "google",
    "source_query": "Irrigation Equipment",
    "source_country": "PL",
    "country": "Poland",
    "state": "Greater Poland Voivodeship",
    "city": "Margonin"
  },
  {
    "source_id": "ChIJhdq_RUmMA0cRUqe-4FKAeuA",
    "name": "Chata Polska",
    "category": "Chata Polska",
    "formatted_address": "3,9(15)",
    "phone_number": "+48516084863",
    "source_url": "https://www.google.com/maps/place/Chata+Polska/data=!4m7!3m6!1s0x47038c4945bfda85:0xe07a8052e0bea752!8m2!3d52.9725118!4d17.0952168!16s%2Fg%2F12hv4wcn1!19sChIJhdq_RUmMA0cRUqe-4FKAeuA?authuser=0&hl=tr&rclk=1",
    "website_url": "",
    "rating_text": "3,9",
    "stars": null,
    "number_of_reviews": null,
    "price_level": "",
    "open_hours": "",
    "extraction_timestamp": "2025-06-07T17:14:37.146Z",
    "source_name": "google",
    "source_query": "Irrigation Equipment",
    "source_country": "PL",
    "country": "Poland",
    "state": "Greater Poland Voivodeship",
    "city": "Margonin"
  },
  {
    "source_id": "ChIJ6TUELoiNA0cREhYj6jv-suc",
    "name": "CarpRide",
    "category": "CarpRide",
    "formatted_address": "5,0(34)",
    "phone_number": "+48695208125",
    "source_url": "https://www.google.com/maps/place/CarpRide/data=!4m7!3m6!1s0x47038d882e0435e9:0xe7b2fe3bea231612!8m2!3d52.9773659!4d17.133221!16s%2Fg%2F11m420c9hx!19sChIJ6TUELoiNA0cREhYj6jv-suc?authuser=0&hl=tr&rclk=1",
    "website_url": "",
    "rating_text": "5,0",
    "stars": null,
    "number_of_reviews": null,
    "price_level": "",
    "open_hours": "",
    "extraction_timestamp": "2025-06-07T17:14:37.148Z",
    "source_name": "google",
    "source_query": "Irrigation Equipment",
    "source_country": "PL",
    "country": "Poland",
    "state": "Greater Poland Voivodeship",
    "city": "Margonin"
  },
  {
    "source_id": "ChIJaS363UuMA0cRlrn0DTx4yLs",
    "name": "Dino",
    "category": "Dino",
    "formatted_address": "4,2(300)",
    "phone_number": "",
    "source_url": "https://www.google.com/maps/place/Dino/data=!4m7!3m6!1s0x47038c4bddfa2d69:0xbbc8783c0df4b996!8m2!3d52.9736882!4d17.0962801!16s%2Fg%2F11b6qlqdyq!19sChIJaS363UuMA0cRlrn0DTx4yLs?authuser=0&hl=tr&rclk=1",
    "website_url": "",
    "rating_text": "4,2",
    "stars": null,
    "number_of_reviews": null,
    "price_level": "",
    "open_hours": "",
    "extraction_timestamp": "2025-06-07T17:14:37.149Z",
    "source_name": "google",
    "source_query": "Irrigation Equipment",
    "source_country": "PL",
    "country": "Poland",
    "state": "Greater Poland Voivodeship",
    "city": "Margonin"
  },
  {
    "source_id": "ChIJ2YXrGU-MA0cRlXCfl9gxfl8",
    "name": "Motel Margonin",
    "category": "Motel Margonin",
    "formatted_address": "3,6(117)",
    "phone_number": "+48672846798",
    "source_url": "https://www.google.com/maps/place/Motel+Margonin/data=!4m10!3m9!1s0x47038c4f19eb85d9:0x5f7e31d8979f7095!5m2!4m1!1i2!8m2!3d52.9704469!4d17.0893515!16s%2Fg%2F1wb8sdg9!19sChIJ2YXrGU-MA0cRlXCfl9gxfl8?authuser=0&hl=tr&rclk=1",
    "website_url": "",
    "rating_text": "3,6",
    "stars": null,
    "number_of_reviews": null,
    "price_level": "",
    "open_hours": "",
    "extraction_timestamp": "2025-06-07T17:14:37.167Z",
    "source_name": "google",
    "source_query": "Irrigation Equipment",
    "source_country": "PL",
    "country": "Poland",
    "state": "Greater Poland Voivodeship",
    "city": "Margonin"
  },
  {
    "source_id": "ChIJL_kDtuiNA0cRaaq0M2yHWCc",
    "name": "Rezydencja Margonin",
    "category": "Rezydencja Margonin",
    "formatted_address": "4,5(81)",
    "phone_number": "+48509649254",
    "source_url": "https://www.google.com/maps/place/Rezydencja+Margonin/data=!4m10!3m9!1s0x47038de8b603f92f:0x2758876c33b4aa69!5m2!4m1!1i2!8m2!3d52.968956!4d17.083655!16s%2Fg%2F11q96gt75g!19sChIJL_kDtuiNA0cRaaq0M2yHWCc?authuser=0&hl=tr&rclk=1",
    "website_url": "",
    "rating_text": "4,5",
    "stars": null,
    "number_of_reviews": null,
    "price_level": "",
    "open_hours": "",
    "extraction_timestamp": "2025-06-07T17:14:37.168Z",
    "source_name": "google",
    "source_query": "Irrigation Equipment",
    "source_country": "PL",
    "country": "Poland",
    "state": "Greater Poland Voivodeship",
    "city": "Margonin"
  },
  {
    "source_id": "ChIJ2d4-0cpGBEcRTya15XLl9W0",
    "name": "POLGAR Garniewicz Wełniak spółka komandytowa",
    "category": "POLGAR Garniewicz Wełniak spółka komandytowa",
    "formatted_address": "4,5(23)",
    "phone_number": "+48618160631",
    "source_url": "https://www.google.com/maps/place/POLGAR+Garniewicz+We%C5%82niak+sp%C3%B3%C5%82ka+komandytowa/data=!4m7!3m6!1s0x470446cad13eded9:0x6df5e572e5b5264f!8m2!3d52.4535218!4d16.7706987!16s%2Fg%2F1tlzywfq!19sChIJ2d4-0cpGBEcRTya15XLl9W0?authuser=0&hl=tr&rclk=1",
    "website_url": "",
    "rating_text": "4,5",
    "stars": null,
    "number_of_reviews": null,
    "price_level": "",
    "open_hours": "",
    "extraction_timestamp": "2025-06-07T17:14:37.169Z",
    "source_name": "google",
    "source_query": "Irrigation Equipment",
    "source_country": "PL",
    "country": "Poland",
    "state": "Greater Poland Voivodeship",
    "city": "Margonin"
  },
  {
    "source_id": "ChIJY8cslk-LA0cRaOKNT4djDj0",
    "name": "Zakuwanie Węży Hydraulicznych Jędruś",
    "category": "Zakuwanie Węży Hydraulicznych Jędruś",
    "formatted_address": "5,0(11)",
    "phone_number": "+48603049940",
    "source_url": "https://www.google.com/maps/place/Zakuwanie+W%C4%99%C5%BCy+Hydraulicznych+J%C4%99dru%C5%9B/data=!4m7!3m6!1s0x47038b4f962cc763:0x3d0e63874f8de268!8m2!3d52.8964115!4d16.9791463!16s%2Fg%2F11y1sg_qm2!19sChIJY8cslk-LA0cRaOKNT4djDj0?authuser=0&hl=tr&rclk=1",
    "website_url": "",
    "rating_text": "5,0",
    "stars": null,
    "number_of_reviews": null,
    "price_level": "",
    "open_hours": "",
    "extraction_timestamp": "2025-06-07T17:14:37.170Z",
    "source_name": "google",
    "source_query": "Irrigation Equipment",
    "source_country": "PL",
    "country": "Poland",
    "state": "Greater Poland Voivodeship",
    "city": "Margonin"
  },
  {
    "source_id": "ChIJQyc-_qATA0cRA7M5DMwngEY",
    "name": "Sklep Zoologiczny Zwierzaczek",
    "category": "Sklep Zoologiczny Zwierzaczek",
    "formatted_address": "5,0(90)",
    "phone_number": "+48533321675",
    "source_url": "https://www.google.com/maps/place/Sklep+Zoologiczny+Zwierzaczek/data=!4m7!3m6!1s0x470313a0fe3e2743:0x468027cc0c39b303!8m2!3d53.1255648!4d18.0399515!16s%2Fg%2F11nwy3x4b9!19sChIJQyc-_qATA0cRA7M5DMwngEY?authuser=0&hl=tr&rclk=1",
    "website_url": "",
    "rating_text": "5,0",
    "stars": null,
    "number_of_reviews": null,
    "price_level": "",
    "open_hours": "",
    "extraction_timestamp": "2025-06-07T17:14:37.171Z",
    "source_name": "google",
    "source_query": "Irrigation Equipment",
    "source_country": "PL",
    "country": "Poland",
    "state": "Greater Poland Voivodeship",
    "city": "Margonin"
  },
  {
    "source_id": "ChIJ6ZwxDIlBBEcRQdkgYydfEhg",
    "name": "BZW Bruk Zieleń Woda - Dominik Rzepczyński",
    "category": "BZW Bruk Zieleń Woda - Dominik Rzepczyński",
    "formatted_address": "5,0(2)",
    "phone_number": "+48880670990",
    "source_url": "https://www.google.com/maps/place/BZW+Bruk+Ziele%C5%84+Woda+-+Dominik+Rzepczy%C5%84ski/data=!4m7!3m6!1s0x470441890c319ce9:0x18125f276320d941!8m2!3d52.5119822!4d16.7499267!16s%2Fg%2F11mcx3nslq!19sChIJ6ZwxDIlBBEcRQdkgYydfEhg?authuser=0&hl=tr&rclk=1",
    "website_url": "",
    "rating_text": "5,0",
    "stars": null,
    "number_of_reviews": null,
    "price_level": "",
    "open_hours": "",
    "extraction_timestamp": "2025-06-07T17:14:37.173Z",
    "source_name": "google",
    "source_query": "Irrigation Equipment",
    "source_country": "PL",
    "country": "Poland",
    "state": "Greater Poland Voivodeship",
    "city": "Margonin"
  },
  {
    "source_id": "ChIJW_gAhpjzA0cRRKK6Sfe-VYU",
    "name": "Hydraulik Chodzież.",
    "category": "Hydraulik Chodzież.",
    "formatted_address": "5,0(4)",
    "phone_number": "+48502002021",
    "source_url": "https://www.google.com/maps/place/Hydraulik+Chodzie%C5%BC./data=!4m7!3m6!1s0x4703f3988600f85b:0x8555bef749baa244!8m2!3d52.9999555!4d16.912017!16s%2Fg%2F11x7y_ppjr!19sChIJW_gAhpjzA0cRRKK6Sfe-VYU?authuser=0&hl=tr&rclk=1",
    "website_url": "",
    "rating_text": "5,0",
    "stars": null,
    "number_of_reviews": null,
    "price_level": "",
    "open_hours": "",
    "extraction_timestamp": "2025-06-07T17:14:37.174Z",
    "source_name": "google",
    "source_query": "Irrigation Equipment",
    "source_country": "PL",
    "country": "Poland",
    "state": "Greater Poland Voivodeship",
    "city": "Margonin"
  },
  {
    "source_id": "ChIJ3fvdV5FVA0cR5LHyPc0pf1s",
    "name": "Metal House S.C.",
    "category": "Metal House S.C.",
    "formatted_address": "4,7(50)",
    "phone_number": "+48523515975",
    "source_url": "https://www.google.com/maps/place/Metal+House+S.C./data=!4m7!3m6!1s0x4703559157ddfbdd:0x5b7f29cd3df2b1e4!8m2!3d52.673632!4d18.322488!16s%2Fg%2F1td08mrt!19sChIJ3fvdV5FVA0cR5LHyPc0pf1s?authuser=0&hl=tr&rclk=1",
    "website_url": "",
    "rating_text": "4,7",
    "stars": null,
    "number_of_reviews": null,
    "price_level": "",
    "open_hours": "",
    "extraction_timestamp": "2025-06-07T17:14:37.175Z",
    "source_name": "google",
    "source_query": "Irrigation Equipment",
    "source_country": "PL",
    "country": "Poland",
    "state": "Greater Poland Voivodeship",
    "city": "Margonin"
  },
  {
    "source_id": "ChIJ_T6uO4PmA0cRdGix0unxmq8",
    "name": "Sanpol Piła- hurtownia instalacyjna, hydrauliczna, sanitarna",
    "category": "Sanpol Piła- hurtownia instalacyjna, hydrauliczna, sanitarna",
    "formatted_address": "Sanpol Piła- hurtownia instalacyjna, hydrauliczna, sanitarna",
    "phone_number": "+48618746839",
    "source_url": "https://www.google.com/maps/place/Sanpol+Pi%C5%82a-+hurtownia+instalacyjna,+hydrauliczna,+sanitarna/data=!4m7!3m6!1s0x4703e6833bae3efd:0xaf9af1e9d2b16874!8m2!3d53.1622044!4d16.7706962!16s%2Fg%2F11g_609mv!19sChIJ_T6uO4PmA0cRdGix0unxmq8?authuser=0&hl=tr&rclk=1",
    "website_url": "",
    "rating_text": "4,9",
    "stars": null,
    "number_of_reviews": null,
    "price_level": "",
    "open_hours": "",
    "extraction_timestamp": "2025-06-07T17:14:37.176Z",
    "source_name": "google",
    "source_query": "Irrigation Equipment",
    "source_country": "PL",
    "country": "Poland",
    "state": "Greater Poland Voivodeship",
    "city": "Margonin"
  },
  {
    "source_id": "ChIJPxDnQTcWA0cR-V9VICcjtS4",
    "name": "Sklep Zoologiczno-Wędkarski \"Leszcz\" Bydgoszcz",
    "category": "Sklep Zoologiczno-Wędkarski \"Leszcz\" Bydgoszcz",
    "formatted_address": "4,5(171)",
    "phone_number": "+48523449299",
    "source_url": "https://www.google.com/maps/place/Sklep+Zoologiczno-W%C4%99dkarski+%22Leszcz%22+Bydgoszcz/data=!4m7!3m6!1s0x4703163741e7103f:0x2eb5232720555ff9!8m2!3d53.1589132!4d18.1749037!16s%2Fg%2F1tycvbnj!19sChIJPxDnQTcWA0cR-V9VICcjtS4?authuser=0&hl=tr&rclk=1",
    "website_url": "",
    "rating_text": "4,5",
    "stars": null,
    "number_of_reviews": null,
    "price_level": "",
    "open_hours": "",
    "extraction_timestamp": "2025-06-07T17:14:37.177Z",
    "source_name": "google",
    "source_query": "Irrigation Equipment",
    "source_country": "PL",
    "country": "Poland",
    "state": "Greater Poland Voivodeship",
    "city": "Margonin"
  },
  {
    "source_id": "ChIJxZTSQBWhBEcRF4aeNWXNi-w",
    "name": "Gardenbaum - Kompleksowe usługi ogrodnicze",
    "category": "Gardenbaum - Kompleksowe usługi ogrodnicze",
    "formatted_address": "5,0(7)",
    "phone_number": "+48575437261",
    "source_url": "https://www.google.com/maps/place/Gardenbaum+-+Kompleksowe+us%C5%82ugi+ogrodnicze/data=!4m7!3m6!1s0x4704a11540d294c5:0xec8bcd65359e8617!8m2!3d52.668365!4d17.9625112!16s%2Fg%2F11mwyx6wz6!19sChIJxZTSQBWhBEcRF4aeNWXNi-w?authuser=0&hl=tr&rclk=1",
    "website_url": "",
    "rating_text": "5,0",
    "stars": null,
    "number_of_reviews": null,
    "price_level": "",
    "open_hours": "",
    "extraction_timestamp": "2025-06-07T17:14:37.177Z",
    "source_name": "google",
    "source_query": "Irrigation Equipment",
    "source_country": "PL",
    "country": "Poland",
    "state": "Greater Poland Voivodeship",
    "city": "Margonin"
  },
  {
    "source_id": "ChIJmdhgu36SA0cRrzDyymieoWU",
    "name": "Plaża miejska",
    "category": "Plaża miejska",
    "formatted_address": "4,2(127)",
    "phone_number": "",
    "source_url": "https://www.google.com/maps/place/Pla%C5%BCa+miejska/data=!4m7!3m6!1s0x4703927ebb60d899:0x65a19e68caf230af!8m2!3d53.0263109!4d17.1096488!16s%2Fg%2F11bv5v2ckq!19sChIJmdhgu36SA0cRrzDyymieoWU?authuser=0&hl=tr&rclk=1",
    "website_url": "",
    "rating_text": "4,2",
    "stars": null,
    "number_of_reviews": null,
    "price_level": "",
    "open_hours": "",
    "extraction_timestamp": "2025-06-07T17:14:37.178Z",
    "source_name": "google",
    "source_query": "Irrigation Equipment",
    "source_country": "PL",
    "country": "Poland",
    "state": "Greater Poland Voivodeship",
    "city": "Margonin"
  },
  {
    "source_id": "ChIJR9gHk0mMA0cRkxp-equrPQA",
    "name": "Mini delikatesy",
    "category": "Mini delikatesy",
    "formatted_address": "5,0(14)",
    "phone_number": "",
    "source_url": "https://www.google.com/maps/place/Mini+delikatesy/data=!4m7!3m6!1s0x47038c499307d847:0x3dabab7a7e1a93!8m2!3d52.972069!4d17.0992041!16s%2Fg%2F11b6sj7b_n!19sChIJR9gHk0mMA0cRkxp-equrPQA?authuser=0&hl=tr&rclk=1",
    "website_url": "",
    "rating_text": "5,0",
    "stars": null,
    "number_of_reviews": null,
    "price_level": "",
    "open_hours": "",
    "extraction_timestamp": "2025-06-07T17:14:37.178Z",
    "source_name": "google",
    "source_query": "Irrigation Equipment",
    "source_country": "PL",
    "country": "Poland",
    "state": "Greater Poland Voivodeship",
    "city": "Margonin"
  }
]
