[
  {
    "source_id": "ChIJe_Tw8lzsA0cR2T5fDzjqUxk",
    "name": "Sklep Spożywczy ABC",
    "category": "Sklep Spożywczy ABC",
    "formatted_address": "4,2(75)",
    "phone_number": "+48672873114",
    "source_url": "https://www.google.com/maps/place/Sklep+Spo%C5%BCywczy+ABC/data=!4m7!3m6!1s0x4703ec5cf2f0f47b:0x1953ea380f5f3ed9!8m2!3d53.095085!4d17.010006!16s%2Fg%2F1tgh1p3z!19sChIJe_Tw8lzsA0cR2T5fDzjqUxk?authuser=0&hl=tr&rclk=1",
    "website_url": "",
    "rating_text": "4,2",
    "stars": null,
    "number_of_reviews": null,
    "price_level": "",
    "open_hours": "",
    "extraction_timestamp": "2025-06-07T17:50:28.823Z",
    "source_name": "google",
    "source_query": "Irrigation Equipment",
    "source_country": "PL",
    "country": "Poland",
    "state": "Greater Poland Voivodeship",
    "city": "Miasteczko Krajeńskie"
  },
  {
    "source_id": "ChIJB6y_v5J2HEcRlDfYx3xmc9M",
    "name": "Milex irrigation systems",
    "category": "Milex irrigation systems",
    "formatted_address": "4,6(37)",
    "phone_number": "+48242775222",
    "source_url": "https://www.google.com/maps/place/Milex+irrigation+systems/data=!4m7!3m6!1s0x471c7692bfbfac07:0xd373667cc7d83794!8m2!3d52.4690634!4d19.7520904!16s%2Fg%2F1w2yy67r!19sChIJB6y_v5J2HEcRlDfYx3xmc9M?authuser=0&hl=tr&rclk=1",
    "website_url": "https://www.milex.pl/",
    "rating_text": "4,6",
    "stars": null,
    "number_of_reviews": null,
    "price_level": "",
    "open_hours": "",
    "extraction_timestamp": "2025-06-07T17:50:28.823Z",
    "source_name": "google",
    "source_query": "Irrigation Equipment",
    "source_country": "PL",
    "country": "Poland",
    "state": "Greater Poland Voivodeship",
    "city": "Miasteczko Krajeńskie"
  },
  {
    "source_id": "ChIJUfn2Ig35A0cREW9fZ4029UM",
    "name": "IMTechnika sp. z o.o.",
    "category": "IMTechnika sp. z o.o.",
    "formatted_address": "4,4(17)",
    "phone_number": "+48883820388",
    "source_url": "https://www.google.com/maps/place/IMTechnika+sp.+z+o.o./data=!4m7!3m6!1s0x4703f90d22f6f951:0x43f5368d675f6f11!8m2!3d52.9756271!4d16.657836!16s%2Fg%2F11bw48_6mg!19sChIJUfn2Ig35A0cREW9fZ4029UM?authuser=0&hl=tr&rclk=1",
    "website_url": "http://imtechnika.pl/",
    "rating_text": "4,4",
    "stars": null,
    "number_of_reviews": null,
    "price_level": "",
    "open_hours": "",
    "extraction_timestamp": "2025-06-07T17:50:28.824Z",
    "source_name": "google",
    "source_query": "Irrigation Equipment",
    "source_country": "PL",
    "country": "Poland",
    "state": "Greater Poland Voivodeship",
    "city": "Miasteczko Krajeńskie"
  },
  {
    "source_id": "ChIJX4OZ9VjsA0cRJDo8vJBtPdY",
    "name": "Hania. Piekarnia",
    "category": "Hania. Piekarnia",
    "formatted_address": "5,0(10)",
    "phone_number": "+48672873231",
    "source_url": "https://www.google.com/maps/place/Hania.+Piekarnia/data=!4m7!3m6!1s0x4703ec58f599835f:0xd63d6d90bc3c3a24!8m2!3d53.101501!4d17.0095129!16s%2Fg%2F1thd5ct8!19sChIJX4OZ9VjsA0cRJDo8vJBtPdY?authuser=0&hl=tr&rclk=1",
    "website_url": "",
    "rating_text": "5,0",
    "stars": null,
    "number_of_reviews": null,
    "price_level": "",
    "open_hours": "",
    "extraction_timestamp": "2025-06-07T17:50:28.834Z",
    "source_name": "google",
    "source_query": "Irrigation Equipment",
    "source_country": "PL",
    "country": "Poland",
    "state": "Greater Poland Voivodeship",
    "city": "Miasteczko Krajeńskie"
  },
  {
    "source_id": "ChIJqSAm_W7tA0cRDnpw6287xaM",
    "name": "Dino",
    "category": "Dino",
    "formatted_address": "4,7(76)",
    "phone_number": "",
    "source_url": "https://www.google.com/maps/place/Dino/data=!4m7!3m6!1s0x4703ed6efd2620a9:0xa3c53b6feb707a0e!8m2!3d53.1088182!4d17.0081812!16s%2Fg%2F11qngq_5x4!19sChIJqSAm_W7tA0cRDnpw6287xaM?authuser=0&hl=tr&rclk=1",
    "website_url": "https://marketdino.pl/",
    "rating_text": "4,7",
    "stars": null,
    "number_of_reviews": null,
    "price_level": "",
    "open_hours": "",
    "extraction_timestamp": "2025-06-07T17:50:28.834Z",
    "source_name": "google",
    "source_query": "Irrigation Equipment",
    "source_country": "PL",
    "country": "Poland",
    "state": "Greater Poland Voivodeship",
    "city": "Miasteczko Krajeńskie"
  },
  {
    "source_id": "ChIJe_Tw8lzsA0cRcm3SwSrAJHE",
    "name": "Duda s.c.",
    "category": "Duda s.c.",
    "formatted_address": "",
    "phone_number": "+48672873393",
    "source_url": "https://www.google.com/maps/place/Duda+s.c./data=!4m7!3m6!1s0x4703ec5cf2f0f47b:0x7124c02ac1d26d72!8m2!3d53.0948747!4d17.0117642!16s%2Fg%2F1td70q5l!19sChIJe_Tw8lzsA0cRcm3SwSrAJHE?authuser=0&hl=tr&rclk=1",
    "website_url": "",
    "rating_text": "",
    "stars": null,
    "number_of_reviews": null,
    "price_level": "",
    "open_hours": "",
    "extraction_timestamp": "2025-06-07T17:50:28.834Z",
    "source_name": "google",
    "source_query": "Irrigation Equipment",
    "source_country": "PL",
    "country": "Poland",
    "state": "Greater Poland Voivodeship",
    "city": "Miasteczko Krajeńskie"
  }
]
