[
  {
    "source_id": "ChIJU6HXtHlxBUcR8zUBNuq_DEA",
    "name": "Gardenserwis Mirosław Tatarek",
    "category": "Gardenserwis Mirosław Tatarek",
    "formatted_address": "5,0(6)",
    "phone_number": "+48790339093",
    "source_url": "https://www.google.com/maps/place/Gardenserwis+Miros%C5%82aw+Tatarek/data=!4m7!3m6!1s0x47057179b4d7a153:0x400cbfea360135f3!8m2!3d51.6510831!4d16.9407964!16s%2Fg%2F11k0tbtzxr!19sChIJU6HXtHlxBUcR8zUBNuq_DEA?authuser=0&hl=tr&rclk=1",
    "website_url": "",
    "rating_text": "5,0",
    "stars": null,
    "number_of_reviews": null,
    "price_level": "",
    "open_hours": "",
    "extraction_timestamp": "2025-06-07T17:58:15.291Z",
    "source_name": "google",
    "source_query": "Irrigation Equipment",
    "source_country": "PL",
    "country": "Poland",
    "state": "Greater Poland Voivodeship",
    "city": "Miejska Górka"
  },
  {
    "source_id": "ChIJKwaRpOVvBUcRiaScjkSjyUE",
    "name": "Simer. Węże hydrauliczne",
    "category": "Simer. Węże hydrauliczne",
    "formatted_address": "4,7(9)",
    "phone_number": "+48655475406",
    "source_url": "https://www.google.com/maps/place/Simer.+W%C4%99%C5%BCe+hydrauliczne/data=!4m7!3m6!1s0x47056fe5a491062b:0x41c9a3448e9ca489!8m2!3d51.6539262!4d16.9681233!16s%2Fg%2F1hc4zlfm3!19sChIJKwaRpOVvBUcRiaScjkSjyUE?authuser=0&hl=tr&rclk=1",
    "website_url": "",
    "rating_text": "4,7",
    "stars": null,
    "number_of_reviews": null,
    "price_level": "",
    "open_hours": "",
    "extraction_timestamp": "2025-06-07T17:58:15.292Z",
    "source_name": "google",
    "source_query": "Irrigation Equipment",
    "source_country": "PL",
    "country": "Poland",
    "state": "Greater Poland Voivodeship",
    "city": "Miejska Górka"
  },
  {
    "source_id": "ChIJ-fFg8Y3bAgkRDhJ7lSpgofM",
    "name": "Usługi minikoparką, przyłącza wodne, przyłącza kanalizacyjne , szamba,oczyszczalnie ścieków, Przemysław Smektalski",
    "category": "Usługi minikoparką, przyłącza wodne, przyłącza kanalizacyjne , szamba,oczyszczalnie ścieków, Przemysław Smektalski",
    "formatted_address": "Usługi minikoparką, przyłącza wodne, przyłącza kanalizacyjne , szamba,oczyszczalnie ścieków, Przemysław Smektalski",
    "phone_number": "+48693567158",
    "source_url": "https://www.google.com/maps/place/Us%C5%82ugi+minikopark%C4%85,+przy%C5%82%C4%85cza+wodne,+przy%C5%82%C4%85cza+kanalizacyjne+,+szamba,oczyszczalnie+%C5%9Bciek%C3%B3w,+Przemys%C5%82aw+Smektalski/data=!4m7!3m6!1s0x902db8df160f1f9:0xf3a1602a957b120e!8m2!3d51.6559216!4d16.9570834!16s%2Fg%2F11ts3c29ld!19sChIJ-fFg8Y3bAgkRDhJ7lSpgofM?authuser=0&hl=tr&rclk=1",
    "website_url": "",
    "rating_text": "",
    "stars": null,
    "number_of_reviews": null,
    "price_level": "",
    "open_hours": "",
    "extraction_timestamp": "2025-06-07T17:58:15.293Z",
    "source_name": "google",
    "source_query": "Irrigation Equipment",
    "source_country": "PL",
    "country": "Poland",
    "state": "Greater Poland Voivodeship",
    "city": "Miejska Górka"
  },
  {
    "source_id": "ChIJ004sVKF-Tw4Ru7i3_Pr6zm8",
    "name": "HYD-RA instalacje",
    "category": "HYD-RA instalacje",
    "formatted_address": "",
    "phone_number": "+48669007291",
    "source_url": "https://www.google.com/maps/place/HYD-RA+instalacje/data=!4m7!3m6!1s0xe4f7ea1542c4ed3:0x6fcefafafcb7b8bb!8m2!3d51.6506154!4d16.9686473!16s%2Fg%2F11vsbjr5dj!19sChIJ004sVKF-Tw4Ru7i3_Pr6zm8?authuser=0&hl=tr&rclk=1",
    "website_url": "",
    "rating_text": "",
    "stars": null,
    "number_of_reviews": null,
    "price_level": "",
    "open_hours": "",
    "extraction_timestamp": "2025-06-07T17:58:15.294Z",
    "source_name": "google",
    "source_query": "Irrigation Equipment",
    "source_country": "PL",
    "country": "Poland",
    "state": "Greater Poland Voivodeship",
    "city": "Miejska Górka"
  },
  {
    "source_id": "ChIJv2_Qc-JvBUcRuCP4eb-KJo8",
    "name": "Magnolia s.c. Jaworscy A.W.",
    "category": "Magnolia s.c. Jaworscy A.W.",
    "formatted_address": "5,0(1)",
    "phone_number": "+48655474454",
    "source_url": "https://www.google.com/maps/place/Magnolia+s.c.+Jaworscy+A.W./data=!4m7!3m6!1s0x47056fe273d06fbf:0x8f268abf79f823b8!8m2!3d51.656129!4d16.956199!16s%2Fg%2F1thxpbqt!19sChIJv2_Qc-JvBUcRuCP4eb-KJo8?authuser=0&hl=tr&rclk=1",
    "website_url": "",
    "rating_text": "5,0",
    "stars": null,
    "number_of_reviews": null,
    "price_level": "",
    "open_hours": "",
    "extraction_timestamp": "2025-06-07T17:58:15.296Z",
    "source_name": "google",
    "source_query": "Irrigation Equipment",
    "source_country": "PL",
    "country": "Poland",
    "state": "Greater Poland Voivodeship",
    "city": "Miejska Górka"
  },
  {
    "source_id": "ChIJx_BqHeFvBUcRifw_bDeWM0c",
    "name": "Rybacki Sylwester. Instalacje i pomiary elektryczne",
    "category": "Rybacki Sylwester. Instalacje i pomiary elektryczne",
    "formatted_address": "Elektrikçi · 22 Stycznia 27+48 65 547 43 15",
    "phone_number": "+48655474315",
    "source_url": "https://www.google.com/maps/place/Rybacki+Sylwester.+Instalacje+i+pomiary+elektryczne/data=!4m7!3m6!1s0x47056fe11d6af0c7:0x473396376c3ffc89!8m2!3d51.6609599!4d16.962907!16s%2Fg%2F1tg_vsxw!19sChIJx_BqHeFvBUcRifw_bDeWM0c?authuser=0&hl=tr&rclk=1",
    "website_url": "",
    "rating_text": "",
    "stars": null,
    "number_of_reviews": null,
    "price_level": "",
    "open_hours": "",
    "extraction_timestamp": "2025-06-07T17:58:15.297Z",
    "source_name": "google",
    "source_query": "Irrigation Equipment",
    "source_country": "PL",
    "country": "Poland",
    "state": "Greater Poland Voivodeship",
    "city": "Miejska Górka"
  },
  {
    "source_id": "ChIJt8E3mORvBUcRBXOMQOCQSE0",
    "name": "Alpa. Sklep spożywczy",
    "category": "Alpa. Sklep spożywczy",
    "formatted_address": "4,0(5)",
    "phone_number": "+48655474247",
    "source_url": "https://www.google.com/maps/place/Alpa.+Sklep+spo%C5%BCywczy/data=!4m7!3m6!1s0x47056fe49837c1b7:0x4d4890e0408c7305!8m2!3d51.6531348!4d16.96282!16s%2Fg%2F1tfghjct!19sChIJt8E3mORvBUcRBXOMQOCQSE0?authuser=0&hl=tr&rclk=1",
    "website_url": "",
    "rating_text": "4,0",
    "stars": null,
    "number_of_reviews": null,
    "price_level": "",
    "open_hours": "",
    "extraction_timestamp": "2025-06-07T17:58:15.299Z",
    "source_name": "google",
    "source_query": "Irrigation Equipment",
    "source_country": "PL",
    "country": "Poland",
    "state": "Greater Poland Voivodeship",
    "city": "Miejska Górka"
  },
  {
    "source_id": "ChIJfbrEZh1wBUcR17PihfRXPvs",
    "name": "Biedronka",
    "category": "Biedronka",
    "formatted_address": "4,2(639)",
    "phone_number": "+48800080010",
    "source_url": "https://www.google.com/maps/place/Biedronka/data=!4m7!3m6!1s0x4705701d66c4ba7d:0xfb3e57f485e2b3d7!8m2!3d51.6547183!4d16.9538295!16s%2Fg%2F11b5wl8zxh!19sChIJfbrEZh1wBUcR17PihfRXPvs?authuser=0&hl=tr&rclk=1",
    "website_url": "",
    "rating_text": "4,2",
    "stars": null,
    "number_of_reviews": null,
    "price_level": "",
    "open_hours": "",
    "extraction_timestamp": "2025-06-07T17:58:15.301Z",
    "source_name": "google",
    "source_query": "Irrigation Equipment",
    "source_country": "PL",
    "country": "Poland",
    "state": "Greater Poland Voivodeship",
    "city": "Miejska Górka"
  },
  {
    "source_id": "ChIJFw_rYuJvBUcRmf0wlTrLlc0",
    "name": "Kajetańczyk Mariola. Sklep spożywczo - przemysłowy",
    "category": "Kajetańczyk Mariola. Sklep spożywczo - przemysłowy",
    "formatted_address": "4,0(6)",
    "phone_number": "+48655474447",
    "source_url": "https://www.google.com/maps/place/Kajeta%C5%84czyk+Mariola.+Sklep+spo%C5%BCywczo+-+przemys%C5%82owy/data=!4m7!3m6!1s0x47056fe262eb0f17:0xcd95cb3a9530fd99!8m2!3d51.6552328!4d16.9550351!16s%2Fg%2F1vpq5l08!19sChIJFw_rYuJvBUcRmf0wlTrLlc0?authuser=0&hl=tr&rclk=1",
    "website_url": "",
    "rating_text": "4,0",
    "stars": null,
    "number_of_reviews": null,
    "price_level": "",
    "open_hours": "",
    "extraction_timestamp": "2025-06-07T17:58:15.302Z",
    "source_name": "google",
    "source_query": "Irrigation Equipment",
    "source_country": "PL",
    "country": "Poland",
    "state": "Greater Poland Voivodeship",
    "city": "Miejska Górka"
  },
  {
    "source_id": "ChIJE6JQ4-ZvBUcRxTEfLL5Ex7k",
    "name": "Dino",
    "category": "Dino",
    "formatted_address": "4,3(217)",
    "phone_number": "",
    "source_url": "https://www.google.com/maps/place/Dino/data=!4m7!3m6!1s0x47056fe6e350a213:0xb9c744be2c1f31c5!8m2!3d51.6586863!4d16.9667533!16s%2Fg%2F1vbl68ls!19sChIJE6JQ4-ZvBUcRxTEfLL5Ex7k?authuser=0&hl=tr&rclk=1",
    "website_url": "",
    "rating_text": "4,3",
    "stars": null,
    "number_of_reviews": null,
    "price_level": "",
    "open_hours": "",
    "extraction_timestamp": "2025-06-07T17:58:15.303Z",
    "source_name": "google",
    "source_query": "Irrigation Equipment",
    "source_country": "PL",
    "country": "Poland",
    "state": "Greater Poland Voivodeship",
    "city": "Miejska Górka"
  },
  {
    "source_id": "ChIJjfkiS-NvBUcRG26YPEvDY2I",
    "name": "Zacisze. Sklep spożywczo - przemysłowy GS Samopomoc Chłopska",
    "category": "Zacisze. Sklep spożywczo - przemysłowy GS Samopomoc Chłopska",
    "formatted_address": "4,4(73)",
    "phone_number": "+48655474104",
    "source_url": "https://www.google.com/maps/place/Zacisze.+Sklep+spo%C5%BCywczo+-+przemys%C5%82owy+GS+Samopomoc+Ch%C5%82opska/data=!4m7!3m6!1s0x47056fe34b22f98d:0x6263c34b3c986e1b!8m2!3d51.6506916!4d16.9566878!16s%2Fg%2F1tfjzkjj!19sChIJjfkiS-NvBUcRG26YPEvDY2I?authuser=0&hl=tr&rclk=1",
    "website_url": "",
    "rating_text": "4,4",
    "stars": null,
    "number_of_reviews": null,
    "price_level": "",
    "open_hours": "",
    "extraction_timestamp": "2025-06-07T17:58:15.304Z",
    "source_name": "google",
    "source_query": "Irrigation Equipment",
    "source_country": "PL",
    "country": "Poland",
    "state": "Greater Poland Voivodeship",
    "city": "Miejska Górka"
  },
  {
    "source_id": "ChIJZUKybTBxBUcRz4nFdjRn4HU",
    "name": "Drogeria Rossmann",
    "category": "Drogeria Rossmann",
    "formatted_address": "4,3(6)",
    "phone_number": "+48426139700",
    "source_url": "https://www.google.com/maps/place/Drogeria+Rossmann/data=!4m7!3m6!1s0x470571306db24265:0x75e0673476c589cf!8m2!3d51.6548739!4d16.9537986!16s%2Fg%2F11twj22prz!19sChIJZUKybTBxBUcRz4nFdjRn4HU?authuser=0&hl=tr&rclk=1",
    "website_url": "",
    "rating_text": "4,3",
    "stars": null,
    "number_of_reviews": null,
    "price_level": "",
    "open_hours": "",
    "extraction_timestamp": "2025-06-07T17:58:15.306Z",
    "source_name": "google",
    "source_query": "Irrigation Equipment",
    "source_country": "PL",
    "country": "Poland",
    "state": "Greater Poland Voivodeship",
    "city": "Miejska Górka"
  },
  {
    "source_id": "ChIJVVgKhalxBUcRLX-cnbe9lHo",
    "name": "Świat Prasy",
    "category": "Świat Prasy",
    "formatted_address": "",
    "phone_number": "+48572775444",
    "source_url": "https://www.google.com/maps/place/%C5%9Awiat+Prasy/data=!4m7!3m6!1s0x470571a9850a5855:0x7a94bdb79d9c7f2d!8m2!3d51.6548739!4d16.9537986!16s%2Fg%2F11kpdc96m5!19sChIJVVgKhalxBUcRLX-cnbe9lHo?authuser=0&hl=tr&rclk=1",
    "website_url": "",
    "rating_text": "",
    "stars": null,
    "number_of_reviews": null,
    "price_level": "",
    "open_hours": "",
    "extraction_timestamp": "2025-06-07T17:58:15.307Z",
    "source_name": "google",
    "source_query": "Irrigation Equipment",
    "source_country": "PL",
    "country": "Poland",
    "state": "Greater Poland Voivodeship",
    "city": "Miejska Górka"
  },
  {
    "source_id": "ChIJhwyShuJvBUcReXDOycTcqZ0",
    "name": "Sklep Spożywczy ABC",
    "category": "Sklep Spożywczy ABC",
    "formatted_address": "4,6(25)",
    "phone_number": "",
    "source_url": "https://www.google.com/maps/place/Sklep+Spo%C5%BCywczy+ABC/data=!4m7!3m6!1s0x47056fe286920c87:0x9da9dcc4c9ce7079!8m2!3d51.65502!4d16.955483!16s%2Fg%2F11g8wj072s!19sChIJhwyShuJvBUcReXDOycTcqZ0?authuser=0&hl=tr&rclk=1",
    "website_url": "",
    "rating_text": "4,6",
    "stars": null,
    "number_of_reviews": null,
    "price_level": "",
    "open_hours": "",
    "extraction_timestamp": "2025-06-07T17:58:15.308Z",
    "source_name": "google",
    "source_query": "Irrigation Equipment",
    "source_country": "PL",
    "country": "Poland",
    "state": "Greater Poland Voivodeship",
    "city": "Miejska Górka"
  }
]
