[
  {
    "source_id": "ChIJ7a6oOFW6GkcRwAnQprB7IJQ",
    "name": "METAL PLUS Iwona Pawlak - Art. Metalowe i Ogrodnicze",
    "category": "METAL PLUS Iwona Pawlak - Art. Metalowe i Ogrodnicze",
    "formatted_address": "4,8(138)",
    "phone_number": "+48627310196",
    "source_url": "https://www.google.com/maps/place/METAL+PLUS+Iwona+Pawlak+-+Art.+Metalowe+i+Ogrodnicze/data=!4m7!3m6!1s0x471aba5538a8aeed:0x94207bb0a6d009c0!8m2!3d51.532958!4d17.980326!16s%2Fg%2F11b6gn2xvg!19sChIJ7a6oOFW6GkcRwAnQprB7IJQ?authuser=0&hl=tr&rclk=1",
    "website_url": "",
    "rating_text": "4,8",
    "stars": null,
    "number_of_reviews": null,
    "price_level": "",
    "open_hours": "",
    "extraction_timestamp": "2025-06-07T17:33:49.674Z",
    "source_name": "google",
    "source_query": "Irrigation Equipment",
    "source_country": "PL",
    "country": "Poland",
    "state": "Greater Poland Voivodeship",
    "city": "Mikstat"
  },
  {
    "source_id": "ChIJfbbYfqy7GkcRrPJ470gOyxo",
    "name": "AIW TURBO - Regeneracja Turbosprężarek",
    "category": "AIW TURBO - Regeneracja Turbosprężarek",
    "formatted_address": "4,4(37)",
    "phone_number": "+48723668318",
    "source_url": "https://www.google.com/maps/place/AIW+TURBO+-+Regeneracja+Turbospr%C4%99%C5%BCarek/data=!4m7!3m6!1s0x471abbac7ed8b67d:0x1acb0e48ef78f2ac!8m2!3d51.5339272!4d17.978498!16s%2Fg%2F11g6xf94p1!19sChIJfbbYfqy7GkcRrPJ470gOyxo?authuser=0&hl=tr&rclk=1",
    "website_url": "http://www.turbosprezarki-regeneracja.pl/",
    "rating_text": "4,4",
    "stars": null,
    "number_of_reviews": null,
    "price_level": "",
    "open_hours": "",
    "extraction_timestamp": "2025-06-07T17:33:49.675Z",
    "source_name": "google",
    "source_query": "Irrigation Equipment",
    "source_country": "PL",
    "country": "Poland",
    "state": "Greater Poland Voivodeship",
    "city": "Mikstat"
  },
  {
    "source_id": "ChIJxWm0I1y7GkcRu4PHY-URO7Y",
    "name": "Modest. Serafinowski Z.",
    "category": "Modest. Serafinowski Z.",
    "formatted_address": "4,4(47)",
    "phone_number": "+48627319458",
    "source_url": "https://www.google.com/maps/place/Modest.+Serafinowski+Z./data=!4m7!3m6!1s0x471abb5c23b469c5:0xb63b11e563c783bb!8m2!3d51.5064258!4d18.0189984!16s%2Fg%2F1tff1skg!19sChIJxWm0I1y7GkcRu4PHY-URO7Y?authuser=0&hl=tr&rclk=1",
    "website_url": "http://www.modest.pl/",
    "rating_text": "4,4",
    "stars": null,
    "number_of_reviews": null,
    "price_level": "",
    "open_hours": "",
    "extraction_timestamp": "2025-06-07T17:33:49.675Z",
    "source_name": "google",
    "source_query": "Irrigation Equipment",
    "source_country": "PL",
    "country": "Poland",
    "state": "Greater Poland Voivodeship",
    "city": "Mikstat"
  },
  {
    "source_id": "ChIJ3eZXRqq7GkcRllmumLbN328",
    "name": "Pacyna K. Zakład elektryczno - instalatorski",
    "category": "Pacyna K. Zakład elektryczno - instalatorski",
    "formatted_address": "5,0(6)",
    "phone_number": "+48627310370",
    "source_url": "https://www.google.com/maps/place/Pacyna+K.+Zak%C5%82ad+elektryczno+-+instalatorski/data=!4m7!3m6!1s0x471abbaa4657e6dd:0x6fdfcdb698ae5996!8m2!3d51.5302831!4d17.9794472!16s%2Fg%2F1tqnkc4b!19sChIJ3eZXRqq7GkcRllmumLbN328?authuser=0&hl=tr&rclk=1",
    "website_url": "",
    "rating_text": "5,0",
    "stars": null,
    "number_of_reviews": null,
    "price_level": "",
    "open_hours": "",
    "extraction_timestamp": "2025-06-07T17:33:49.675Z",
    "source_name": "google",
    "source_query": "Irrigation Equipment",
    "source_country": "PL",
    "country": "Poland",
    "state": "Greater Poland Voivodeship",
    "city": "Mikstat"
  },
  {
    "source_id": "ChIJBVALRFO6GkcRQyKpC6CMLjk",
    "name": "Ami market",
    "category": "Ami market",
    "formatted_address": "4,2(135)",
    "phone_number": "",
    "source_url": "https://www.google.com/maps/place/Ami+market/data=!4m7!3m6!1s0x471aba53440b5005:0x392e8ca00ba92243!8m2!3d51.53552!4d17.9738776!16s%2Fg%2F11gbl3bq1g!19sChIJBVALRFO6GkcRQyKpC6CMLjk?authuser=0&hl=tr&rclk=1",
    "website_url": "http://www.ami.com.pl/",
    "rating_text": "4,2",
    "stars": null,
    "number_of_reviews": null,
    "price_level": "",
    "open_hours": "",
    "extraction_timestamp": "2025-06-07T17:33:49.675Z",
    "source_name": "google",
    "source_query": "Irrigation Equipment",
    "source_country": "PL",
    "country": "Poland",
    "state": "Greater Poland Voivodeship",
    "city": "Mikstat"
  },
  {
    "source_id": "ChIJv3VWorS1GkcR91vUXcnWjAo",
    "name": "Systemy pneumatyki. Sprężarki, kompresory, narzędzia",
    "category": "Systemy pneumatyki. Sprężarki, kompresory, narzędzia",
    "formatted_address": "Systemy pneumatyki. Sprężarki, kompresory, narzędzia",
    "phone_number": "+48625910444",
    "source_url": "https://www.google.com/maps/place/Systemy+pneumatyki.+Spr%C4%99%C5%BCarki,+kompresory,+narz%C4%99dzia/data=!4m7!3m6!1s0x471ab5b4a25675bf:0xa8cd6c95dd45bf7!8m2!3d51.6301252!4d17.8127133!16s%2Fg%2F1vm_wmyy!19sChIJv3VWorS1GkcR91vUXcnWjAo?authuser=0&hl=tr&rclk=1",
    "website_url": "http://www.systemypneumatyki.pl/",
    "rating_text": "4,1",
    "stars": null,
    "number_of_reviews": null,
    "price_level": "",
    "open_hours": "",
    "extraction_timestamp": "2025-06-07T17:33:49.676Z",
    "source_name": "google",
    "source_query": "Irrigation Equipment",
    "source_country": "PL",
    "country": "Poland",
    "state": "Greater Poland Voivodeship",
    "city": "Mikstat"
  }
]
