[
  {
    "source_id": "ChIJPTYYWfrmBEcRTKQSdVX8hcU",
    "name": "Agroma S.A. w Poznaniu",
    "category": "Agroma S.A. w Poznaniu",
    "formatted_address": "4,6(27)",
    "phone_number": "+48505496785",
    "source_url": "https://www.google.com/maps/place/Agroma+S.A.+w+Poznaniu/data=!4m7!3m6!1s0x4704e6fa5918363d:0xc585fc557512a44c!8m2!3d52.2068696!4d17.488148!16s%2Fg%2F11f2r_n04y!19sChIJPTYYWfrmBEcRTKQSdVX8hcU?authuser=0&hl=tr&rclk=1",
    "website_url": "",
    "rating_text": "4,6",
    "stars": null,
    "number_of_reviews": null,
    "price_level": "",
    "open_hours": "",
    "extraction_timestamp": "2025-06-07T17:24:58.531Z",
    "source_name": "google",
    "source_query": "Irrigation Equipment",
    "source_country": "PL",
    "country": "Poland",
    "state": "Greater Poland Voivodeship",
    "city": "Miłosław"
  },
  {
    "source_id": "ChIJJchG6-TmBEcRjD8KnwnMgHc",
    "name": "Maro. Sklep spożywczo - monopolowy. Gruszczyński R.",
    "category": "Maro. Sklep spożywczo - monopolowy. Gruszczyński R.",
    "formatted_address": "4,4(38)",
    "phone_number": "+48614383621",
    "source_url": "https://www.google.com/maps/place/Maro.+Sklep+spo%C5%BCywczo+-+monopolowy.+Gruszczy%C5%84ski+R./data=!4m7!3m6!1s0x4704e6e4eb46c825:0x7780cc099f0a3f8c!8m2!3d52.2028021!4d17.489126!16s%2Fg%2F1vhq2dlr!19sChIJJchG6-TmBEcRjD8KnwnMgHc?authuser=0&hl=tr&rclk=1",
    "website_url": "",
    "rating_text": "4,4",
    "stars": null,
    "number_of_reviews": null,
    "price_level": "",
    "open_hours": "",
    "extraction_timestamp": "2025-06-07T17:24:58.532Z",
    "source_name": "google",
    "source_query": "Irrigation Equipment",
    "source_country": "PL",
    "country": "Poland",
    "state": "Greater Poland Voivodeship",
    "city": "Miłosław"
  },
  {
    "source_id": "ChIJOSyjY63nBEcRaJCto0tpiJw",
    "name": "PH Zięty sc",
    "category": "PH Zięty sc",
    "formatted_address": "5,0(2)",
    "phone_number": "",
    "source_url": "https://www.google.com/maps/place/PH+Zi%C4%99ty+sc/data=!4m7!3m6!1s0x4704e7ad63a32c39:0x9c88694ba3ad9068!8m2!3d52.2038456!4d17.4935537!16s%2Fg%2F11nmhf4gp_!19sChIJOSyjY63nBEcRaJCto0tpiJw?authuser=0&hl=tr&rclk=1",
    "website_url": "",
    "rating_text": "5,0",
    "stars": null,
    "number_of_reviews": null,
    "price_level": "",
    "open_hours": "",
    "extraction_timestamp": "2025-06-07T17:24:58.532Z",
    "source_name": "google",
    "source_query": "Irrigation Equipment",
    "source_country": "PL",
    "country": "Poland",
    "state": "Greater Poland Voivodeship",
    "city": "Miłosław"
  },
  {
    "source_id": "ChIJhXpKUvzmBEcRG-qna0XEk1M",
    "name": "INTEGRAPRO Wojciech Iglewski",
    "category": "INTEGRAPRO Wojciech Iglewski",
    "formatted_address": "5,0(1)",
    "phone_number": "+48506070157",
    "source_url": "https://www.google.com/maps/place/INTEGRAPRO+Wojciech+Iglewski/data=!4m7!3m6!1s0x4704e6fc524a7a85:0x5393c4456ba7ea1b!8m2!3d52.2044778!4d17.4863258!16s%2Fg%2F11h0vpvdt6!19sChIJhXpKUvzmBEcRG-qna0XEk1M?authuser=0&hl=tr&rclk=1",
    "website_url": "",
    "rating_text": "5,0",
    "stars": null,
    "number_of_reviews": null,
    "price_level": "",
    "open_hours": "",
    "extraction_timestamp": "2025-06-07T17:24:58.532Z",
    "source_name": "google",
    "source_query": "Irrigation Equipment",
    "source_country": "PL",
    "country": "Poland",
    "state": "Greater Poland Voivodeship",
    "city": "Miłosław"
  },
  {
    "source_id": "ChIJdTeHOr_nBEcRryWTy9RONjs",
    "name": "Z.U.H. Leszek Kwiatkowski Sklep Motoryzacyjny",
    "category": "Z.U.H. Leszek Kwiatkowski Sklep Motoryzacyjny",
    "formatted_address": "4,7(106)",
    "phone_number": "+48605063840",
    "source_url": "https://www.google.com/maps/place/Z.U.H.+Leszek+Kwiatkowski+Sklep+Motoryzacyjny/data=!4m7!3m6!1s0x4704e7bf3a873775:0x3b364ed4cb9325af!8m2!3d52.204594!4d17.4978043!16s%2Fg%2F11f6mlwfbd!19sChIJdTeHOr_nBEcRryWTy9RONjs?authuser=0&hl=tr&rclk=1",
    "website_url": "",
    "rating_text": "4,7",
    "stars": null,
    "number_of_reviews": null,
    "price_level": "",
    "open_hours": "",
    "extraction_timestamp": "2025-06-07T17:24:58.533Z",
    "source_name": "google",
    "source_query": "Irrigation Equipment",
    "source_country": "PL",
    "country": "Poland",
    "state": "Greater Poland Voivodeship",
    "city": "Miłosław"
  },
  {
    "source_id": "ChIJR-fqCubmBEcREl6RzleQ04g",
    "name": "Biedronka",
    "category": "Biedronka",
    "formatted_address": "4,2(623)",
    "phone_number": "+48800080010",
    "source_url": "https://www.google.com/maps/place/Biedronka/data=!4m7!3m6!1s0x4704e6e60aeae747:0x88d39057ce915e12!8m2!3d52.1997869!4d17.4827678!16s%2Fg%2F12hmzjmwh!19sChIJR-fqCubmBEcREl6RzleQ04g?authuser=0&hl=tr&rclk=1",
    "website_url": "",
    "rating_text": "4,2",
    "stars": null,
    "number_of_reviews": null,
    "price_level": "",
    "open_hours": "",
    "extraction_timestamp": "2025-06-07T17:24:58.533Z",
    "source_name": "google",
    "source_query": "Irrigation Equipment",
    "source_country": "PL",
    "country": "Poland",
    "state": "Greater Poland Voivodeship",
    "city": "Miłosław"
  },
  {
    "source_id": "ChIJ2aN-q_HmBEcR0I00B1d8sEc",
    "name": "Sklep Polski",
    "category": "Sklep Polski",
    "formatted_address": "4,5(30)",
    "phone_number": "+48504835954",
    "source_url": "https://www.google.com/maps/place/Sklep+Polski/data=!4m7!3m6!1s0x4704e6f1ab7ea3d9:0x47b07c5707348dd0!8m2!3d52.2067129!4d17.4831255!16s%2Fg%2F1wfvlc3b!19sChIJ2aN-q_HmBEcR0I00B1d8sEc?authuser=0&hl=tr&rclk=1",
    "website_url": "",
    "rating_text": "4,5",
    "stars": null,
    "number_of_reviews": null,
    "price_level": "",
    "open_hours": "",
    "extraction_timestamp": "2025-06-07T17:24:58.533Z",
    "source_name": "google",
    "source_query": "Irrigation Equipment",
    "source_country": "PL",
    "country": "Poland",
    "state": "Greater Poland Voivodeship",
    "city": "Miłosław"
  },
  {
    "source_id": "ChIJMeZM5PrmBEcREGG_-LWpUEE",
    "name": "Market Dino",
    "category": "Market Dino",
    "formatted_address": "4,0(264)",
    "phone_number": "",
    "source_url": "https://www.google.com/maps/place/Market+Dino/data=!4m7!3m6!1s0x4704e6fae44ce631:0x4150a9b5f8bf6110!8m2!3d52.2062573!4d17.4885027!16s%2Fg%2F11cjnn9cn4!19sChIJMeZM5PrmBEcREGG_-LWpUEE?authuser=0&hl=tr&rclk=1",
    "website_url": "",
    "rating_text": "4,0",
    "stars": null,
    "number_of_reviews": null,
    "price_level": "",
    "open_hours": "",
    "extraction_timestamp": "2025-06-07T17:24:58.534Z",
    "source_name": "google",
    "source_query": "Irrigation Equipment",
    "source_country": "PL",
    "country": "Poland",
    "state": "Greater Poland Voivodeship",
    "city": "Miłosław"
  },
  {
    "source_id": "ChIJhQlCheTmBEcR5IdO5M3asqM",
    "name": "Adams. Sklep spożywczy",
    "category": "Adams. Sklep spożywczy",
    "formatted_address": "4,6(31)",
    "phone_number": "+48614383396",
    "source_url": "https://www.google.com/maps/place/Adams.+Sklep+spo%C5%BCywczy/data=!4m7!3m6!1s0x4704e6e485420985:0xa3b2dacde44e87e4!8m2!3d52.2021729!4d17.489806!16s%2Fg%2F1tg_vsx9!19sChIJhQlCheTmBEcR5IdO5M3asqM?authuser=0&hl=tr&rclk=1",
    "website_url": "",
    "rating_text": "4,6",
    "stars": null,
    "number_of_reviews": null,
    "price_level": "",
    "open_hours": "",
    "extraction_timestamp": "2025-06-07T17:24:58.534Z",
    "source_name": "google",
    "source_query": "Irrigation Equipment",
    "source_country": "PL",
    "country": "Poland",
    "state": "Greater Poland Voivodeship",
    "city": "Miłosław"
  },
  {
    "source_id": "ChIJDaV3xkDnBEcRc-00kMVafe4",
    "name": "Lewiatan",
    "category": "Lewiatan",
    "formatted_address": "4,5(33)",
    "phone_number": "",
    "source_url": "https://www.google.com/maps/place/Lewiatan/data=!4m7!3m6!1s0x4704e740c677a50d:0xee7d5ac59034ed73!8m2!3d52.2072799!4d17.4832819!16s%2Fg%2F11fn0lk9mk!19sChIJDaV3xkDnBEcRc-00kMVafe4?authuser=0&hl=tr&rclk=1",
    "website_url": "",
    "rating_text": "4,5",
    "stars": null,
    "number_of_reviews": null,
    "price_level": "",
    "open_hours": "",
    "extraction_timestamp": "2025-06-07T17:24:58.534Z",
    "source_name": "google",
    "source_query": "Irrigation Equipment",
    "source_country": "PL",
    "country": "Poland",
    "state": "Greater Poland Voivodeship",
    "city": "Miłosław"
  },
  {
    "source_id": "ChIJf9hK5R_nBEcRpzIvXFqYPCk",
    "name": "SKLEP SPOŻYWCZY - MARO Gruszczyńscy SPÓŁKA JAWNA",
    "category": "SKLEP SPOŻYWCZY - MARO Gruszczyńscy SPÓŁKA JAWNA",
    "formatted_address": "4,3(39)",
    "phone_number": "+48882764691",
    "source_url": "https://www.google.com/maps/place/SKLEP+SPO%C5%BBYWCZY+-+MARO+Gruszczy%C5%84scy+SP%C3%93%C5%81KA+JAWNA/data=!4m7!3m6!1s0x4704e71fe54ad87f:0x293c985a5c2f32a7!8m2!3d52.1935555!4d17.4952928!16s%2Fg%2F1ptyz3gcw!19sChIJf9hK5R_nBEcRpzIvXFqYPCk?authuser=0&hl=tr&rclk=1",
    "website_url": "",
    "rating_text": "4,3",
    "stars": null,
    "number_of_reviews": null,
    "price_level": "",
    "open_hours": "",
    "extraction_timestamp": "2025-06-07T17:24:58.534Z",
    "source_name": "google",
    "source_query": "Irrigation Equipment",
    "source_country": "PL",
    "country": "Poland",
    "state": "Greater Poland Voivodeship",
    "city": "Miłosław"
  },
  {
    "source_id": "ChIJOzIdtGNZBEcR4xhTX7c8MqM",
    "name": "Inspol Sp. z o.o.",
    "category": "Inspol Sp. z o.o.",
    "formatted_address": "4,9(22)",
    "phone_number": "+48602133946",
    "source_url": "https://www.google.com/maps/place/Inspol+Sp.+z+o.o./data=!4m7!3m6!1s0x47045963b41d323b:0xa3323cb75f5318e3!8m2!3d52.3873872!4d17.0232758!16s%2Fg%2F1tpb9pc2!19sChIJOzIdtGNZBEcR4xhTX7c8MqM?authuser=0&hl=tr&rclk=1",
    "website_url": "",
    "rating_text": "4,9",
    "stars": null,
    "number_of_reviews": null,
    "price_level": "",
    "open_hours": "",
    "extraction_timestamp": "2025-06-07T17:24:58.535Z",
    "source_name": "google",
    "source_query": "Irrigation Equipment",
    "source_country": "PL",
    "country": "Poland",
    "state": "Greater Poland Voivodeship",
    "city": "Miłosław"
  },
  {
    "source_id": "ChIJYf13PgDnBEcRd0XKe_G1bZ8",
    "name": "Żabka",
    "category": "Żabka",
    "formatted_address": "4,1(53)",
    "phone_number": "",
    "source_url": "https://www.google.com/maps/place/%C5%BBabka/data=!4m7!3m6!1s0x4704e7003e77fd61:0x9f6db5f17bca4577!8m2!3d52.2067485!4d17.4850326!16s%2Fg%2F11vsnws4p7!19sChIJYf13PgDnBEcRd0XKe_G1bZ8?authuser=0&hl=tr&rclk=1",
    "website_url": "",
    "rating_text": "4,1",
    "stars": null,
    "number_of_reviews": null,
    "price_level": "",
    "open_hours": "",
    "extraction_timestamp": "2025-06-07T17:24:58.535Z",
    "source_name": "google",
    "source_query": "Irrigation Equipment",
    "source_country": "PL",
    "country": "Poland",
    "state": "Greater Poland Voivodeship",
    "city": "Miłosław"
  },
  {
    "source_id": "ChIJB6y_v5J2HEcRlDfYx3xmc9M",
    "name": "Milex irrigation systems",
    "category": "Milex irrigation systems",
    "formatted_address": "4,6(37)",
    "phone_number": "+48242775222",
    "source_url": "https://www.google.com/maps/place/Milex+irrigation+systems/data=!4m7!3m6!1s0x471c7692bfbfac07:0xd373667cc7d83794!8m2!3d52.4690634!4d19.7520904!16s%2Fg%2F1w2yy67r!19sChIJB6y_v5J2HEcRlDfYx3xmc9M?authuser=0&hl=tr&rclk=1",
    "website_url": "",
    "rating_text": "4,6",
    "stars": null,
    "number_of_reviews": null,
    "price_level": "",
    "open_hours": "",
    "extraction_timestamp": "2025-06-07T17:24:58.535Z",
    "source_name": "google",
    "source_query": "Irrigation Equipment",
    "source_country": "PL",
    "country": "Poland",
    "state": "Greater Poland Voivodeship",
    "city": "Miłosław"
  },
  {
    "source_id": "ChIJIe4bW6D7BEcRBcS-f2m6Gkg",
    "name": "Milltec Poznań Sp. z o.o.",
    "category": "Milltec Poznań Sp. z o.o.",
    "formatted_address": "4,4(8)",
    "phone_number": "+48616793258",
    "source_url": "https://www.google.com/maps/place/Milltec+Pozna%C5%84+Sp.+z+o.o./data=!4m7!3m6!1s0x4704fba05b1bee21:0x481aba697fbec405!8m2!3d52.2299421!4d17.250985!16s%2Fg%2F11bxc7k32t!19sChIJIe4bW6D7BEcRBcS-f2m6Gkg?authuser=0&hl=tr&rclk=1",
    "website_url": "",
    "rating_text": "4,4",
    "stars": null,
    "number_of_reviews": null,
    "price_level": "",
    "open_hours": "",
    "extraction_timestamp": "2025-06-07T17:24:58.535Z",
    "source_name": "google",
    "source_query": "Irrigation Equipment",
    "source_country": "PL",
    "country": "Poland",
    "state": "Greater Poland Voivodeship",
    "city": "Miłosław"
  },
  {
    "source_id": "ChIJVTV3W_PzBEcR6gY0xwQi2_E",
    "name": "Deszczownie.com",
    "category": "Deszczownie.com",
    "formatted_address": "",
    "phone_number": "+48726000030",
    "source_url": "https://www.google.com/maps/place/Deszczownie.com/data=!4m7!3m6!1s0x4704f3f35b773555:0xf1db2204c73406ea!8m2!3d52.3623948!4d17.4021087!16s%2Fg%2F11y3pv4rxr!19sChIJVTV3W_PzBEcR6gY0xwQi2_E?authuser=0&hl=tr&rclk=1",
    "website_url": "",
    "rating_text": "",
    "stars": null,
    "number_of_reviews": null,
    "price_level": "",
    "open_hours": "",
    "extraction_timestamp": "2025-06-07T17:24:58.536Z",
    "source_name": "google",
    "source_query": "Irrigation Equipment",
    "source_country": "PL",
    "country": "Poland",
    "state": "Greater Poland Voivodeship",
    "city": "Miłosław"
  }
]
