[
  {
    "source_id": "ChIJWUf4xVxSBEcR8WyeuM9mWLI",
    "name": "Bereta Technika | Hydraulik Mosina",
    "category": "Bereta Technika | Hydraulik Mosina",
    "formatted_address": "5,0(25)",
    "phone_number": "+48576500012",
    "source_url": "https://www.google.com/maps/place/Bereta+Technika+%7C+Hydraulik+Mosina/data=!4m7!3m6!1s0x4704525cc5f84759:0xb25866cfb89e6cf1!8m2!3d52.2352642!4d16.8389866!16s%2Fg%2F11h6g1bjk1!19sChIJWUf4xVxSBEcR8WyeuM9mWLI?authuser=0&hl=tr&rclk=1",
    "website_url": "https://www.beretatechnika.pl/",
    "rating_text": "5,0",
    "stars": null,
    "number_of_reviews": null,
    "price_level": "",
    "open_hours": "",
    "extraction_timestamp": "2025-06-07T17:43:38.242Z",
    "source_name": "google",
    "source_query": "Irrigation Equipment",
    "source_country": "PL",
    "country": "Poland",
    "state": "Greater Poland Voivodeship",
    "city": "Mosina"
  },
  {
    "source_id": "ChIJp8jg7jVSBEcR8nd_mXbIYOs",
    "name": "Aquanet S.A. Stacja Uzdatniania Wody w Mosinie",
    "category": "Aquanet S.A. Stacja Uzdatniania Wody w Mosinie",
    "formatted_address": "4,5(29)",
    "phone_number": "+48618359100",
    "source_url": "https://www.google.com/maps/place/Aquanet+S.A.+Stacja+Uzdatniania+Wody+w+Mosinie/data=!4m7!3m6!1s0x47045235eee0c8a7:0xeb60c876997f77f2!8m2!3d52.2416954!4d16.8686065!16s%2Fg%2F1td415r0!19sChIJp8jg7jVSBEcR8nd_mXbIYOs?authuser=0&hl=tr&rclk=1",
    "website_url": "http://www.aquanet.pl/",
    "rating_text": "4,5",
    "stars": null,
    "number_of_reviews": null,
    "price_level": "",
    "open_hours": "",
    "extraction_timestamp": "2025-06-07T17:43:38.243Z",
    "source_name": "google",
    "source_query": "Irrigation Equipment",
    "source_country": "PL",
    "country": "Poland",
    "state": "Greater Poland Voivodeship",
    "city": "Mosina"
  },
  {
    "source_id": "ChIJkw0_CDhSBEcR6y55jxUbSaM",
    "name": "Grupa Hydro",
    "category": "Grupa Hydro",
    "formatted_address": "4,5(2)",
    "phone_number": "+48618132209",
    "source_url": "https://www.google.com/maps/place/Grupa+Hydro/data=!4m7!3m6!1s0x47045238083f0d93:0xa3491b158f792eeb!8m2!3d52.244731!4d16.854441!16s%2Fg%2F1tg4k26t!19sChIJkw0_CDhSBEcR6y55jxUbSaM?authuser=0&hl=tr&rclk=1",
    "website_url": "http://www.placzabaw.com.pl/",
    "rating_text": "4,5",
    "stars": null,
    "number_of_reviews": null,
    "price_level": "",
    "open_hours": "",
    "extraction_timestamp": "2025-06-07T17:43:38.243Z",
    "source_name": "google",
    "source_query": "Irrigation Equipment",
    "source_country": "PL",
    "country": "Poland",
    "state": "Greater Poland Voivodeship",
    "city": "Mosina"
  },
  {
    "source_id": "ChIJx9anqc9TBEcRTHB0lEDnK8g",
    "name": "Hydrowiert Andrzej Kaptur",
    "category": "Hydrowiert Andrzej Kaptur",
    "formatted_address": "5,0(7)",
    "phone_number": "+48782685040",
    "source_url": "https://www.google.com/maps/place/Hydrowiert+Andrzej+Kaptur/data=!4m7!3m6!1s0x470453cfa9a7d6c7:0xc82be7409474704c!8m2!3d52.2457226!4d16.8442807!16s%2Fg%2F11kphjmq_p!19sChIJx9anqc9TBEcRTHB0lEDnK8g?authuser=0&hl=tr&rclk=1",
    "website_url": "",
    "rating_text": "5,0",
    "stars": null,
    "number_of_reviews": null,
    "price_level": "",
    "open_hours": "",
    "extraction_timestamp": "2025-06-07T17:43:38.244Z",
    "source_name": "google",
    "source_query": "Irrigation Equipment",
    "source_country": "PL",
    "country": "Poland",
    "state": "Greater Poland Voivodeship",
    "city": "Mosina"
  },
  {
    "source_id": "ChIJd7sz5T9SBEcRN22nxs2EEkw",
    "name": "Kampex Sp.J. Sprzedaż Art. Przemysłowych. Wróbel A. i Spółka",
    "category": "Kampex Sp.J. Sprzedaż Art. Przemysłowych. Wróbel A. i Spółka",
    "formatted_address": "4,7(41)",
    "phone_number": "+48607333358",
    "source_url": "https://www.google.com/maps/place/Kampex+Sp.J.+Sprzeda%C5%BC+Art.+Przemys%C5%82owych.+Wr%C3%B3bel+A.+i+Sp%C3%B3%C5%82ka/data=!4m7!3m6!1s0x4704523fe533bb77:0x4c1284cdc6a76d37!8m2!3d52.2355238!4d16.8516368!16s%2Fg%2F1ptz790x0!19sChIJd7sz5T9SBEcRN22nxs2EEkw?authuser=0&hl=tr&rclk=1",
    "website_url": "",
    "rating_text": "4,7",
    "stars": null,
    "number_of_reviews": null,
    "price_level": "",
    "open_hours": "",
    "extraction_timestamp": "2025-06-07T17:43:38.245Z",
    "source_name": "google",
    "source_query": "Irrigation Equipment",
    "source_country": "PL",
    "country": "Poland",
    "state": "Greater Poland Voivodeship",
    "city": "Mosina"
  },
  {
    "source_id": "ChIJI1TVS0ZSBEcRqJmOTCH1Dv8",
    "name": "SPLIT ENERGY - KLIMATYZACJE / WODMER WODOMIERZE, USŁUGI INSTALACYJNE",
    "category": "SPLIT ENERGY - KLIMATYZACJE / WODMER WODOMIERZE, USŁUGI INSTALACYJNE",
    "formatted_address": "SPLIT ENERGY - KLIMATYZACJE / WODMER WODOMIERZE, USŁUGI INSTALACYJNE",
    "phone_number": "+48732700614",
    "source_url": "https://www.google.com/maps/place/SPLIT+ENERGY+-+KLIMATYZACJE+%2F+WODMER+WODOMIERZE,+US%C5%81UGI+INSTALACYJNE/data=!4m7!3m6!1s0x470452464bd55423:0xff0ef5214c8e99a8!8m2!3d52.2455721!4d16.8367047!16s%2Fg%2F1vzv2ct9!19sChIJI1TVS0ZSBEcRqJmOTCH1Dv8?authuser=0&hl=tr&rclk=1",
    "website_url": "https://splitenergy.pl/",
    "rating_text": "5,0",
    "stars": null,
    "number_of_reviews": null,
    "price_level": "",
    "open_hours": "",
    "extraction_timestamp": "2025-06-07T17:43:38.246Z",
    "source_name": "google",
    "source_query": "Irrigation Equipment",
    "source_country": "PL",
    "country": "Poland",
    "state": "Greater Poland Voivodeship",
    "city": "Mosina"
  },
  {
    "source_id": "ChIJ95vOWxNTBEcR1FJjiMrXo7E",
    "name": "Systemy nawadniające Irjaza",
    "category": "Systemy nawadniające Irjaza",
    "formatted_address": "4,3(21)",
    "phone_number": "+48618132613",
    "source_url": "https://www.google.com/maps/place/Systemy+nawadniaj%C4%85ce+Irjaza/data=!4m7!3m6!1s0x470453135bce9bf7:0xb1a3d7ca886352d4!8m2!3d52.2064896!4d16.826904!16s%2Fg%2F11jfws4jnb!19sChIJ95vOWxNTBEcR1FJjiMrXo7E?authuser=0&hl=tr&rclk=1",
    "website_url": "http://www.irjaza.pl/",
    "rating_text": "4,3",
    "stars": null,
    "number_of_reviews": null,
    "price_level": "",
    "open_hours": "",
    "extraction_timestamp": "2025-06-07T17:43:38.246Z",
    "source_name": "google",
    "source_query": "Irrigation Equipment",
    "source_country": "PL",
    "country": "Poland",
    "state": "Greater Poland Voivodeship",
    "city": "Mosina"
  },
  {
    "source_id": "ChIJRagHfANTBEcROYPFqgQlaGo",
    "name": "h2o-instal Anna Baszkiewicz",
    "category": "h2o-instal Anna Baszkiewicz",
    "formatted_address": "h2o-instal Anna Baszkiewicz",
    "phone_number": "+48517543949",
    "source_url": "https://www.google.com/maps/place/h2o-instal+Anna+Baszkiewicz/data=!4m7!3m6!1s0x470453037c07a845:0x6a682504aac58339!8m2!3d52.2435155!4d16.8551901!16s%2Fg%2F11lcvkhrrt!19sChIJRagHfANTBEcROYPFqgQlaGo?authuser=0&hl=tr&rclk=1",
    "website_url": "",
    "rating_text": "5,0",
    "stars": null,
    "number_of_reviews": null,
    "price_level": "",
    "open_hours": "",
    "extraction_timestamp": "2025-06-07T17:43:38.247Z",
    "source_name": "google",
    "source_query": "Irrigation Equipment",
    "source_country": "PL",
    "country": "Poland",
    "state": "Greater Poland Voivodeship",
    "city": "Mosina"
  },
  {
    "source_id": "ChIJL2l4W0dSBEcRYYLVDPWdG7w",
    "name": "Orchidea - ogrody, tereny miejskie, pola golfowe, boiska piłkarskie. Nasze usługi oferujemy na terenie całej Polski.",
    "category": "Orchidea - ogrody, tereny miejskie, pola golfowe, boiska piłkarskie. Nasze usługi oferujemy na terenie całej Polski.",
    "formatted_address": "Orchidea - ogrody, tereny miejskie, pola golfowe, boiska piłkarskie. Nasze usługi oferujemy na terenie całej Polski.",
    "phone_number": "+48604633811",
    "source_url": "https://www.google.com/maps/place/Orchidea+-+ogrody,+tereny+miejskie,+pola+golfowe,+boiska+pi%C5%82karskie.+Nasze+us%C5%82ugi+oferujemy+na+terenie+ca%C5%82ej+Polski./data=!4m7!3m6!1s0x470452475b78692f:0xbc1b9df50cd58261!8m2!3d52.2297429!4d16.8055359!16s%2Fg%2F1wz51dw1!19sChIJL2l4W0dSBEcRYYLVDPWdG7w?authuser=0&hl=tr&rclk=1",
    "website_url": "http://ogrody-orchidea.pl/",
    "rating_text": "4,7",
    "stars": null,
    "number_of_reviews": null,
    "price_level": "",
    "open_hours": "",
    "extraction_timestamp": "2025-06-07T17:43:38.248Z",
    "source_name": "google",
    "source_query": "Irrigation Equipment",
    "source_country": "PL",
    "country": "Poland",
    "state": "Greater Poland Voivodeship",
    "city": "Mosina"
  },
  {
    "source_id": "ChIJm2kASl1SBEcRK9VX4L5_jV0",
    "name": "Bramy przemysłowe i rampy przeładunkowe - Proinvest",
    "category": "Bramy przemysłowe i rampy przeładunkowe - Proinvest",
    "formatted_address": "4,2(5)",
    "phone_number": "+48612827903",
    "source_url": "https://www.google.com/maps/place/Bramy+przemys%C5%82owe+i+rampy+prze%C5%82adunkowe+-+Proinvest/data=!4m7!3m6!1s0x4704525d4a00699b:0x5d8d7fbee057d52b!8m2!3d52.2333072!4d16.8286313!16s%2Fg%2F1ttq0tkq!19sChIJm2kASl1SBEcRK9VX4L5_jV0?authuser=0&hl=tr&rclk=1",
    "website_url": "http://proinvest.com.pl/",
    "rating_text": "4,2",
    "stars": null,
    "number_of_reviews": null,
    "price_level": "",
    "open_hours": "",
    "extraction_timestamp": "2025-06-07T17:43:38.249Z",
    "source_name": "google",
    "source_query": "Irrigation Equipment",
    "source_country": "PL",
    "country": "Poland",
    "state": "Greater Poland Voivodeship",
    "city": "Mosina"
  },
  {
    "source_id": "ChIJyTePBMVTBEcRPNeELJziELs",
    "name": "ŁUKASZ IDKOWIAK FISHER EXPERT",
    "category": "ŁUKASZ IDKOWIAK FISHER EXPERT",
    "formatted_address": "",
    "phone_number": "+48798768768",
    "source_url": "https://www.google.com/maps/place/%C5%81UKASZ+IDKOWIAK+FISHER+EXPERT/data=!4m7!3m6!1s0x470453c5048f37c9:0xbb10e29c2c84d73c!8m2!3d52.226868!4d16.836519!16s%2Fg%2F11vyp8jhyt!19sChIJyTePBMVTBEcRPNeELJziELs?authuser=0&hl=tr&rclk=1",
    "website_url": "https://www.oszczedneinstalacje.pl/",
    "rating_text": "",
    "stars": null,
    "number_of_reviews": null,
    "price_level": "",
    "open_hours": "",
    "extraction_timestamp": "2025-06-07T17:43:38.250Z",
    "source_name": "google",
    "source_query": "Irrigation Equipment",
    "source_country": "PL",
    "country": "Poland",
    "state": "Greater Poland Voivodeship",
    "city": "Mosina"
  },
  {
    "source_id": "ChIJxZbn9T9SBEcRpuB3Oyw1MDo",
    "name": "Centrum Ogrodnicze PLANTICO",
    "category": "Centrum Ogrodnicze PLANTICO",
    "formatted_address": "4,4(17)",
    "phone_number": "+48783173242",
    "source_url": "https://www.google.com/maps/place/Centrum+Ogrodnicze+PLANTICO/data=!4m7!3m6!1s0x4704523ff5e796c5:0x3a30352c3b77e0a6!8m2!3d52.2462308!4d16.8419934!16s%2Fg%2F11f1zl9p70!19sChIJxZbn9T9SBEcRpuB3Oyw1MDo?authuser=0&hl=tr&rclk=1",
    "website_url": "",
    "rating_text": "4,4",
    "stars": null,
    "number_of_reviews": null,
    "price_level": "",
    "open_hours": "",
    "extraction_timestamp": "2025-06-07T17:43:38.251Z",
    "source_name": "google",
    "source_query": "Irrigation Equipment",
    "source_country": "PL",
    "country": "Poland",
    "state": "Greater Poland Voivodeship",
    "city": "Mosina"
  },
  {
    "source_id": "ChIJK3otnEdSBEcRWgY-_s3VdXA",
    "name": "Targowisko Miejskie",
    "category": "Targowisko Miejskie",
    "formatted_address": "4,5(264)",
    "phone_number": "",
    "source_url": "https://www.google.com/maps/place/Targowisko+Miejskie/data=!4m7!3m6!1s0x470452479c2d7a2b:0x7075d5cdfe3e065a!8m2!3d52.2447414!4d16.8529301!16s%2Fg%2F11fmxys59w!19sChIJK3otnEdSBEcRWgY-_s3VdXA?authuser=0&hl=tr&rclk=1",
    "website_url": "",
    "rating_text": "4,5",
    "stars": null,
    "number_of_reviews": null,
    "price_level": "",
    "open_hours": "",
    "extraction_timestamp": "2025-06-07T17:43:38.252Z",
    "source_name": "google",
    "source_query": "Irrigation Equipment",
    "source_country": "PL",
    "country": "Poland",
    "state": "Greater Poland Voivodeship",
    "city": "Mosina"
  },
  {
    "source_id": "ChIJFVCITOVPBEcRG-lA_g1qlqk",
    "name": "Technika Wody",
    "category": "Technika Wody",
    "formatted_address": "4,6(288)",
    "phone_number": "+48502506622",
    "source_url": "https://www.google.com/maps/place/Technika+Wody/data=!4m7!3m6!1s0x47044fe54c885015:0xa9966a0dfe40e91b!8m2!3d52.3740842!4d16.819808!16s%2Fg%2F11b7vsdjf5!19sChIJFVCITOVPBEcRG-lA_g1qlqk?authuser=0&hl=tr&rclk=1",
    "website_url": "http://technikawody.pl/",
    "rating_text": "4,6",
    "stars": null,
    "number_of_reviews": null,
    "price_level": "",
    "open_hours": "",
    "extraction_timestamp": "2025-06-07T17:43:38.271Z",
    "source_name": "google",
    "source_query": "Irrigation Equipment",
    "source_country": "PL",
    "country": "Poland",
    "state": "Greater Poland Voivodeship",
    "city": "Mosina"
  },
  {
    "source_id": "ChIJoT3PlvVTBEcR5htvL1hWyqw",
    "name": "Waterworld akwarystyka słodkowodna",
    "category": "Waterworld akwarystyka słodkowodna",
    "formatted_address": "5,0(88)",
    "phone_number": "+48660501833",
    "source_url": "https://www.google.com/maps/place/Waterworld+akwarystyka+s%C5%82odkowodna/data=!4m7!3m6!1s0x470453f596cf3da1:0xacca56582f6f1be6!8m2!3d52.2232395!4d16.8313677!16s%2Fg%2F11f8cl0x0l!19sChIJoT3PlvVTBEcR5htvL1hWyqw?authuser=0&hl=tr&rclk=1",
    "website_url": "https://m.facebook.com/pages/category/Aquatic-Pet-Store/Waterworld-akwarystyka-s%C5%82odkowodna-1201890586495909/?locale2=pl_PL",
    "rating_text": "5,0",
    "stars": null,
    "number_of_reviews": null,
    "price_level": "",
    "open_hours": "",
    "extraction_timestamp": "2025-06-07T17:43:38.272Z",
    "source_name": "google",
    "source_query": "Irrigation Equipment",
    "source_country": "PL",
    "country": "Poland",
    "state": "Greater Poland Voivodeship",
    "city": "Mosina"
  },
  {
    "source_id": "ChIJj3ea8yJbBEcRY7_esBvqiDU",
    "name": "Kwadra System Sp z oo Sp k",
    "category": "Kwadra System Sp z oo Sp k",
    "formatted_address": "4,1(14)",
    "phone_number": "+48881287387",
    "source_url": "https://www.google.com/maps/place/Kwadra+System+Sp+z+oo+Sp+k/data=!4m7!3m6!1s0x47045b22f39a778f:0x3588ea1bb0debf63!8m2!3d52.2416102!4d16.8595968!16s%2Fg%2F113j93c1l!19sChIJj3ea8yJbBEcRY7_esBvqiDU?authuser=0&hl=tr&rclk=1",
    "website_url": "http://kwadra-system.pl/",
    "rating_text": "4,1",
    "stars": null,
    "number_of_reviews": null,
    "price_level": "",
    "open_hours": "",
    "extraction_timestamp": "2025-06-07T17:43:38.273Z",
    "source_name": "google",
    "source_query": "Irrigation Equipment",
    "source_country": "PL",
    "country": "Poland",
    "state": "Greater Poland Voivodeship",
    "city": "Mosina"
  },
  {
    "source_id": "ChIJg-RVsaRTBEcRpf_oKY9JhJg",
    "name": "SPRING EXPERT",
    "category": "SPRING EXPERT",
    "formatted_address": "5,0(2)",
    "phone_number": "",
    "source_url": "https://www.google.com/maps/place/SPRING+EXPERT/data=!4m7!3m6!1s0x470453a4b155e483:0x9884498f29e8ffa5!8m2!3d52.2364399!4d16.851115!16s%2Fg%2F11j6y7krwc!19sChIJg-RVsaRTBEcRpf_oKY9JhJg?authuser=0&hl=tr&rclk=1",
    "website_url": "https://springexpert.pl/",
    "rating_text": "5,0",
    "stars": null,
    "number_of_reviews": null,
    "price_level": "",
    "open_hours": "",
    "extraction_timestamp": "2025-06-07T17:43:38.274Z",
    "source_name": "google",
    "source_query": "Irrigation Equipment",
    "source_country": "PL",
    "country": "Poland",
    "state": "Greater Poland Voivodeship",
    "city": "Mosina"
  },
  {
    "source_id": "ChIJGzjSyEVSBEcR-ZZ7vfsgSyU",
    "name": "Chemart 2. Olszewski W.",
    "category": "Chemart 2. Olszewski W.",
    "formatted_address": "4,1(31)",
    "phone_number": "+48618192332",
    "source_url": "https://www.google.com/maps/place/Chemart+2.+Olszewski+W./data=!4m7!3m6!1s0x47045245c8d2381b:0x254b20fbbd7b96f9!8m2!3d52.245513!4d16.8499049!16s%2Fg%2F1th272nd!19sChIJGzjSyEVSBEcR-ZZ7vfsgSyU?authuser=0&hl=tr&rclk=1",
    "website_url": "",
    "rating_text": "4,1",
    "stars": null,
    "number_of_reviews": null,
    "price_level": "",
    "open_hours": "",
    "extraction_timestamp": "2025-06-07T17:43:38.275Z",
    "source_name": "google",
    "source_query": "Irrigation Equipment",
    "source_country": "PL",
    "country": "Poland",
    "state": "Greater Poland Voivodeship",
    "city": "Mosina"
  },
  {
    "source_id": "ChIJ3dtTSp9PBEcRNYm1kXvKhag",
    "name": "Hurtownia PE TECHNIKA",
    "category": "Hurtownia PE TECHNIKA",
    "formatted_address": "5,0(3)",
    "phone_number": "+48508340022",
    "source_url": "https://www.google.com/maps/place/Hurtownia+PE+TECHNIKA/data=!4m7!3m6!1s0x47044f9f4a53dbdd:0xa885ca7b91b58935!8m2!3d52.2875778!4d16.8602565!16s%2Fg%2F11bbrhd1y_!19sChIJ3dtTSp9PBEcRNYm1kXvKhag?authuser=0&hl=tr&rclk=1",
    "website_url": "http://petechnika.pl/",
    "rating_text": "5,0",
    "stars": null,
    "number_of_reviews": null,
    "price_level": "",
    "open_hours": "",
    "extraction_timestamp": "2025-06-07T17:43:38.275Z",
    "source_name": "google",
    "source_query": "Irrigation Equipment",
    "source_country": "PL",
    "country": "Poland",
    "state": "Greater Poland Voivodeship",
    "city": "Mosina"
  },
  {
    "source_id": "ChIJ61Q5hIxTBEcRF9jWWn-uKk8",
    "name": "DrillSystem. Geolog, Geotechnika, Hydrogeologia, Badania gruntu",
    "category": "DrillSystem. Geolog, Geotechnika, Hydrogeologia, Badania gruntu",
    "formatted_address": "DrillSystem. Geolog, Geotechnika, Hydrogeologia, Badania gruntu",
    "phone_number": "+48608299880",
    "source_url": "https://www.google.com/maps/place/DrillSystem.+Geolog,+Geotechnika,+Hydrogeologia,+Badania+gruntu/data=!4m7!3m6!1s0x4704538c843954eb:0x4f2aae7f5ad6d817!8m2!3d52.2282527!4d16.8233642!16s%2Fg%2F11x0ndjn53!19sChIJ61Q5hIxTBEcRF9jWWn-uKk8?authuser=0&hl=tr&rclk=1",
    "website_url": "http://drillsystem.pl/",
    "rating_text": "",
    "stars": null,
    "number_of_reviews": null,
    "price_level": "",
    "open_hours": "",
    "extraction_timestamp": "2025-06-07T17:43:38.276Z",
    "source_name": "google",
    "source_query": "Irrigation Equipment",
    "source_country": "PL",
    "country": "Poland",
    "state": "Greater Poland Voivodeship",
    "city": "Mosina"
  },
  {
    "source_id": "ChIJZTUkncv7BEcRsv-FuPvJd0E",
    "name": "TEST INSTALACJE – Hurtownia instalacyjna Środa Wielkopolska",
    "category": "TEST INSTALACJE – Hurtownia instalacyjna Środa Wielkopolska",
    "formatted_address": "4,1(20)",
    "phone_number": "+48612856282",
    "source_url": "https://www.google.com/maps/place/TEST+INSTALACJE+%E2%80%93+Hurtownia+instalacyjna+%C5%9Aroda+Wielkopolska/data=!4m7!3m6!1s0x4704fbcb9d243565:0x4177c9fbb885ffb2!8m2!3d52.2386542!4d17.2761103!16s%2Fg%2F11n0p8cszw!19sChIJZTUkncv7BEcRsv-FuPvJd0E?authuser=0&hl=tr&rclk=1",
    "website_url": "https://testinstalacje.pl/",
    "rating_text": "4,1",
    "stars": null,
    "number_of_reviews": null,
    "price_level": "",
    "open_hours": "",
    "extraction_timestamp": "2025-06-07T17:43:38.277Z",
    "source_name": "google",
    "source_query": "Irrigation Equipment",
    "source_country": "PL",
    "country": "Poland",
    "state": "Greater Poland Voivodeship",
    "city": "Mosina"
  },
  {
    "source_id": "ChIJ82fDPAv7BEcR0t557L9SvKI",
    "name": "Agro-Weld Arkadiusz Cegłowski",
    "category": "Agro-Weld Arkadiusz Cegłowski",
    "formatted_address": "5,0(15)",
    "phone_number": "+48725140257",
    "source_url": "https://www.google.com/maps/place/Agro-Weld+Arkadiusz+Ceg%C5%82owski/data=!4m7!3m6!1s0x4704fb0b3cc367f3:0xa2bc52bfec79ded2!8m2!3d52.2281481!4d17.2572359!16s%2Fg%2F11gbf9cdj_!19sChIJ82fDPAv7BEcR0t557L9SvKI?authuser=0&hl=tr&rclk=1",
    "website_url": "https://agro-weld.pl/",
    "rating_text": "5,0",
    "stars": null,
    "number_of_reviews": null,
    "price_level": "",
    "open_hours": "",
    "extraction_timestamp": "2025-06-07T17:43:38.278Z",
    "source_name": "google",
    "source_query": "Irrigation Equipment",
    "source_country": "PL",
    "country": "Poland",
    "state": "Greater Poland Voivodeship",
    "city": "Mosina"
  },
  {
    "source_id": "ChIJVVXFW_hPBEcRES0v9S76eLU",
    "name": "Elmar Sp. z o.o. Centrum Instalacji Grzewczych, Sanitarnych i Gazowych",
    "category": "Elmar Sp. z o.o. Centrum Instalacji Grzewczych, Sanitarnych i Gazowych",
    "formatted_address": "Elmar Sp. z o.o. Centrum Instalacji Grzewczych, Sanitarnych i Gazowych",
    "phone_number": "+48618995151",
    "source_url": "https://www.google.com/maps/place/Elmar+Sp.+z+o.o.+Centrum+Instalacji+Grzewczych,+Sanitarnych+i+Gazowych/data=!4m7!3m6!1s0x47044ff85bc55555:0xb578fa2ef52f2d11!8m2!3d52.3513427!4d16.8606793!16s%2Fg%2F1ptwxjs3_!19sChIJVVXFW_hPBEcRES0v9S76eLU?authuser=0&hl=tr&rclk=1",
    "website_url": "http://www.elmar.poznan.pl/",
    "rating_text": "4,2",
    "stars": null,
    "number_of_reviews": null,
    "price_level": "",
    "open_hours": "",
    "extraction_timestamp": "2025-06-07T17:43:38.279Z",
    "source_name": "google",
    "source_query": "Irrigation Equipment",
    "source_country": "PL",
    "country": "Poland",
    "state": "Greater Poland Voivodeship",
    "city": "Mosina"
  },
  {
    "source_id": "ChIJfwFzbxBFBEcRn7xY2iu3RtU",
    "name": "Wielkopolski Ośrodek Doradztwa Rolniczego w Poznaniu",
    "category": "Wielkopolski Ośrodek Doradztwa Rolniczego w Poznaniu",
    "formatted_address": "3,9(20)",
    "phone_number": "+48618685272",
    "source_url": "https://www.google.com/maps/place/Wielkopolski+O%C5%9Brodek+Doradztwa+Rolniczego+w+Poznaniu/data=!4m7!3m6!1s0x470445106f73017f:0xd546b72bda58bc9f!8m2!3d52.3867242!4d16.8493122!16s%2Fg%2F1tj1qsdz!19sChIJfwFzbxBFBEcRn7xY2iu3RtU?authuser=0&hl=tr&rclk=1",
    "website_url": "http://www.wodr.poznan.pl/",
    "rating_text": "3,9",
    "stars": null,
    "number_of_reviews": null,
    "price_level": "",
    "open_hours": "",
    "extraction_timestamp": "2025-06-07T17:43:38.280Z",
    "source_name": "google",
    "source_query": "Irrigation Equipment",
    "source_country": "PL",
    "country": "Poland",
    "state": "Greater Poland Voivodeship",
    "city": "Mosina"
  },
  {
    "source_id": "ChIJQ9Wcp9laBEcRgVdx1f9fOZ8",
    "name": "Mikas Instalacje",
    "category": "Mikas Instalacje",
    "formatted_address": "4,7(58)",
    "phone_number": "+48616497070",
    "source_url": "https://www.google.com/maps/place/Mikas+Instalacje/data=!4m7!3m6!1s0x47045ad9a79cd543:0x9f395fffd5715781!8m2!3d52.3856728!4d16.9154114!16s%2Fg%2F1vn9msv6!19sChIJQ9Wcp9laBEcRgVdx1f9fOZ8?authuser=0&hl=tr&rclk=1",
    "website_url": "https://e-mikas.com.pl/",
    "rating_text": "4,7",
    "stars": null,
    "number_of_reviews": null,
    "price_level": "",
    "open_hours": "",
    "extraction_timestamp": "2025-06-07T17:43:38.281Z",
    "source_name": "google",
    "source_query": "Irrigation Equipment",
    "source_country": "PL",
    "country": "Poland",
    "state": "Greater Poland Voivodeship",
    "city": "Mosina"
  },
  {
    "source_id": "ChIJL97K7GxUBEcRujUApKZmsck",
    "name": "Rolpima. Maszyny Rolnicze, Importer maszyn rolniczych.",
    "category": "Rolpima. Maszyny Rolnicze, Importer maszyn rolniczych.",
    "formatted_address": "Rolpima. Maszyny Rolnicze, Importer maszyn rolniczych.",
    "phone_number": "+48603864496",
    "source_url": "https://www.google.com/maps/place/Rolpima.+Maszyny+Rolnicze,+Importer+maszyn+rolniczych./data=!4m7!3m6!1s0x4704546ceccade2f:0xc9b166a6a40035ba!8m2!3d52.2289389!4d16.949359!16s%2Fg%2F11ggb3gjbf!19sChIJL97K7GxUBEcRujUApKZmsck?authuser=0&hl=tr&rclk=1",
    "website_url": "http://rolpima.pl/",
    "rating_text": "4,5",
    "stars": null,
    "number_of_reviews": null,
    "price_level": "",
    "open_hours": "",
    "extraction_timestamp": "2025-06-07T17:43:38.281Z",
    "source_name": "google",
    "source_query": "Irrigation Equipment",
    "source_country": "PL",
    "country": "Poland",
    "state": "Greater Poland Voivodeship",
    "city": "Mosina"
  },
  {
    "source_id": "ChIJ9f9R-QFTBEcRRvrDNYqzW9c",
    "name": "Action Mosina",
    "category": "Action Mosina",
    "formatted_address": "4,5(56)",
    "phone_number": "+48326305898",
    "source_url": "https://www.google.com/maps/place/Action+Mosina/data=!4m7!3m6!1s0x47045301f951fff5:0xd75bb38a35c3fa46!8m2!3d52.2454275!4d16.8540726!16s%2Fg%2F11tj12gzjd!19sChIJ9f9R-QFTBEcRRvrDNYqzW9c?authuser=0&hl=tr&rclk=1",
    "website_url": "https://www.action.com/pl-pl/sklepy/mosina/?utm_campaign=localbusiness&utm_source=google&utm_medium=organic&utm_content=A187",
    "rating_text": "4,5",
    "stars": null,
    "number_of_reviews": null,
    "price_level": "",
    "open_hours": "",
    "extraction_timestamp": "2025-06-07T17:43:38.282Z",
    "source_name": "google",
    "source_query": "Irrigation Equipment",
    "source_country": "PL",
    "country": "Poland",
    "state": "Greater Poland Voivodeship",
    "city": "Mosina"
  },
  {
    "source_id": "ChIJy9rqf0ZSBEcRaur3y4RdhA0",
    "name": "Elegant centrum handlowe",
    "category": "Elegant centrum handlowe",
    "formatted_address": "4,6(68)",
    "phone_number": "",
    "source_url": "https://www.google.com/maps/place/Elegant+centrum+handlowe/data=!4m7!3m6!1s0x470452467feadacb:0xd845d84cbf7ea6a!8m2!3d52.2400949!4d16.8487579!16s%2Fg%2F11dfr1sqkj!19sChIJy9rqf0ZSBEcRaur3y4RdhA0?authuser=0&hl=tr&rclk=1",
    "website_url": "",
    "rating_text": "4,6",
    "stars": null,
    "number_of_reviews": null,
    "price_level": "",
    "open_hours": "",
    "extraction_timestamp": "2025-06-07T17:43:38.283Z",
    "source_name": "google",
    "source_query": "Irrigation Equipment",
    "source_country": "PL",
    "country": "Poland",
    "state": "Greater Poland Voivodeship",
    "city": "Mosina"
  },
  {
    "source_id": "ChIJPWhf8NlQBEcRKh2Uub6l53Q",
    "name": "ProGarden Wojkiewicz Nawadnianie Automatyczne Trawniki z rolki Zakładanie ogrodów",
    "category": "ProGarden Wojkiewicz Nawadnianie Automatyczne Trawniki z rolki Zakładanie ogrodów",
    "formatted_address": "5,0(8)",
    "phone_number": "+48668802131",
    "source_url": "https://www.google.com/maps/place/ProGarden+Wojkiewicz+Nawadnianie+Automatyczne+Trawniki+z+rolki+Zak%C5%82adanie+ogrod%C3%B3w/data=!4m7!3m6!1s0x470450d9f05f683d:0x74e7a5beb9941d2a!8m2!3d52.3005159!4d16.954684!16s%2Fg%2F11hbvs81x8!19sChIJPWhf8NlQBEcRKh2Uub6l53Q?authuser=0&hl=tr&rclk=1",
    "website_url": "http://www.progarden-wojkiewicz.pl/",
    "rating_text": "5,0",
    "stars": null,
    "number_of_reviews": null,
    "price_level": "",
    "open_hours": "",
    "extraction_timestamp": "2025-06-07T17:43:38.284Z",
    "source_name": "google",
    "source_query": "Irrigation Equipment",
    "source_country": "PL",
    "country": "Poland",
    "state": "Greater Poland Voivodeship",
    "city": "Mosina"
  },
  {
    "source_id": "ChIJA0aoFFVaBEcRUDG0cZBTfKA",
    "name": "PROFITANK",
    "category": "PROFITANK",
    "formatted_address": "5,0(3)",
    "phone_number": "+48793003330",
    "source_url": "https://www.google.com/maps/place/PROFITANK/data=!4m7!3m6!1s0x47045a5514a84603:0xa07c539071b43150!8m2!3d52.3672361!4d16.9806108!16s%2Fg%2F11hyxnkjjg!19sChIJA0aoFFVaBEcRUDG0cZBTfKA?authuser=0&hl=tr&rclk=1",
    "website_url": "https://profitank.pl/kontakt/",
    "rating_text": "5,0",
    "stars": null,
    "number_of_reviews": null,
    "price_level": "",
    "open_hours": "",
    "extraction_timestamp": "2025-06-07T17:43:38.284Z",
    "source_name": "google",
    "source_query": "Irrigation Equipment",
    "source_country": "PL",
    "country": "Poland",
    "state": "Greater Poland Voivodeship",
    "city": "Mosina"
  },
  {
    "source_id": "ChIJI_eTsEDHZYQRnmMBO0dvc8I",
    "name": "BS-INSTAL Bartłomiej Szczepanik",
    "category": "BS-INSTAL Bartłomiej Szczepanik",
    "formatted_address": "5,0(11)",
    "phone_number": "+48798060569",
    "source_url": "https://www.google.com/maps/place/BS-INSTAL+Bart%C5%82omiej+Szczepanik/data=!4m7!3m6!1s0x8465c740b093f723:0xc2736f473b01639e!8m2!3d52.367226!4d16.9016469!16s%2Fg%2F11vm8kd3w9!19sChIJI_eTsEDHZYQRnmMBO0dvc8I?authuser=0&hl=tr&rclk=1",
    "website_url": "",
    "rating_text": "5,0",
    "stars": null,
    "number_of_reviews": null,
    "price_level": "",
    "open_hours": "",
    "extraction_timestamp": "2025-06-07T17:43:38.285Z",
    "source_name": "google",
    "source_query": "Irrigation Equipment",
    "source_country": "PL",
    "country": "Poland",
    "state": "Greater Poland Voivodeship",
    "city": "Mosina"
  },
  {
    "source_id": "ChIJZ6ze90dSBEcRuEuNsG8BE54",
    "name": "U Zenulka. Górecka R.",
    "category": "U Zenulka. Górecka R.",
    "formatted_address": "4,3(3)",
    "phone_number": "+48693547453",
    "source_url": "https://www.google.com/maps/place/U+Zenulka.+G%C3%B3recka+R./data=!4m7!3m6!1s0x47045247f7deac67:0x9e13016fb08d4bb8!8m2!3d52.2447035!4d16.8543798!16s%2Fg%2F1hc1yk8hx!19sChIJZ6ze90dSBEcRuEuNsG8BE54?authuser=0&hl=tr&rclk=1",
    "website_url": "",
    "rating_text": "4,3",
    "stars": null,
    "number_of_reviews": null,
    "price_level": "",
    "open_hours": "",
    "extraction_timestamp": "2025-06-07T17:43:38.286Z",
    "source_name": "google",
    "source_query": "Irrigation Equipment",
    "source_country": "PL",
    "country": "Poland",
    "state": "Greater Poland Voivodeship",
    "city": "Mosina"
  }
]
