[
  {
    "source_id": "ChIJrZns8htmBEcRp3dsbnvWfLE",
    "name": "Thermgaz",
    "category": "Thermgaz",
    "formatted_address": "5,0(3)",
    "phone_number": "+48662108568",
    "source_url": "https://www.google.com/maps/place/Thermgaz/data=!4m7!3m6!1s0x4704661bf2ec99ad:0xb17cd67b6e6c77a7!8m2!3d52.5766818!4d17.0299261!16s%2Fg%2F1ptyfp0r9!19sChIJrZns8htmBEcRp3dsbnvWfLE?authuser=0&hl=tr&rclk=1",
    "website_url": "",
    "rating_text": "5,0",
    "stars": null,
    "number_of_reviews": null,
    "price_level": "",
    "open_hours": "",
    "extraction_timestamp": "2025-06-07T17:16:24.895Z",
    "source_name": "google",
    "source_query": "Irrigation Equipment",
    "source_country": "PL",
    "country": "Poland",
    "state": "Greater Poland Voivodeship",
    "city": "Murowana Goślina"
  },
  {
    "source_id": "ChIJrZns8htmBEcRWkv1FjG95f4",
    "name": "Faerch",
    "category": "Faerch",
    "formatted_address": "3,4(146)",
    "phone_number": "+48612224100",
    "source_url": "https://www.google.com/maps/place/Faerch/data=!4m7!3m6!1s0x4704661bf2ec99ad:0xfee5bd3116f54b5a!8m2!3d52.5746974!4d17.0282023!16s%2Fg%2F1tvm1gg6!19sChIJrZns8htmBEcRWkv1FjG95f4?authuser=0&hl=tr&rclk=1",
    "website_url": "",
    "rating_text": "3,4",
    "stars": null,
    "number_of_reviews": null,
    "price_level": "",
    "open_hours": "",
    "extraction_timestamp": "2025-06-07T17:16:24.897Z",
    "source_name": "google",
    "source_query": "Irrigation Equipment",
    "source_country": "PL",
    "country": "Poland",
    "state": "Greater Poland Voivodeship",
    "city": "Murowana Goślina"
  },
  {
    "source_id": "ChIJyZ7XD0kgZUERzreVioXQcv0",
    "name": "Domino",
    "category": "Domino",
    "formatted_address": "4,5(36)",
    "phone_number": "+48511895133",
    "source_url": "https://www.google.com/maps/place/Domino/data=!4m7!3m6!1s0x416520490fd79ec9:0xfd72d0858a95b7ce!8m2!3d52.5734774!4d17.0102344!16s%2Fg%2F11b76kg1ks!19sChIJyZ7XD0kgZUERzreVioXQcv0?authuser=0&hl=tr&rclk=1",
    "website_url": "",
    "rating_text": "4,5",
    "stars": null,
    "number_of_reviews": null,
    "price_level": "",
    "open_hours": "",
    "extraction_timestamp": "2025-06-07T17:16:24.898Z",
    "source_name": "google",
    "source_query": "Irrigation Equipment",
    "source_country": "PL",
    "country": "Poland",
    "state": "Greater Poland Voivodeship",
    "city": "Murowana Goślina"
  },
  {
    "source_id": "ChIJ1fH8twRdBEcRWGX6D1tc3ZA",
    "name": "Kardoliński Zbigniew. Pompy głębinowe, hydroforowe, ściekowe",
    "category": "Kardoliński Zbigniew. Pompy głębinowe, hydroforowe, ściekowe",
    "formatted_address": "Kardoliński Zbigniew. Pompy głębinowe, hydroforowe, ściekowe",
    "phone_number": "",
    "source_url": "https://www.google.com/maps/place/Kardoli%C5%84ski+Zbigniew.+Pompy+g%C5%82%C4%99binowe,+hydroforowe,+%C5%9Bciekowe/data=!4m7!3m6!1s0x47045d04b7fcf1d5:0x90dd5c5b0ffa6558!8m2!3d52.4712374!4d16.9991202!16s%2Fg%2F1tfwj1tc!19sChIJ1fH8twRdBEcRWGX6D1tc3ZA?authuser=0&hl=tr&rclk=1",
    "website_url": "",
    "rating_text": "4,8",
    "stars": null,
    "number_of_reviews": null,
    "price_level": "",
    "open_hours": "",
    "extraction_timestamp": "2025-06-07T17:16:24.898Z",
    "source_name": "google",
    "source_query": "Irrigation Equipment",
    "source_country": "PL",
    "country": "Poland",
    "state": "Greater Poland Voivodeship",
    "city": "Murowana Goślina"
  },
  {
    "source_id": "ChIJyde2RZpoBEcR6mdFP49pihc",
    "name": "Peacock Eye",
    "category": "Peacock Eye",
    "formatted_address": "4,5(79)",
    "phone_number": "+48693722032",
    "source_url": "https://www.google.com/maps/place/Peacock+Eye/data=!4m7!3m6!1s0x4704689a45b6d7c9:0x178a698f3f4567ea!8m2!3d52.5674408!4d16.9960734!16s%2Fg%2F11c544y6v4!19sChIJyde2RZpoBEcR6mdFP49pihc?authuser=0&hl=tr&rclk=1",
    "website_url": "",
    "rating_text": "4,5",
    "stars": null,
    "number_of_reviews": null,
    "price_level": "",
    "open_hours": "",
    "extraction_timestamp": "2025-06-07T17:16:24.899Z",
    "source_name": "google",
    "source_query": "Irrigation Equipment",
    "source_country": "PL",
    "country": "Poland",
    "state": "Greater Poland Voivodeship",
    "city": "Murowana Goślina"
  },
  {
    "source_id": "ChIJI0mlp6FoBEcReydX0y4dSgo",
    "name": "Rakowski",
    "category": "Rakowski",
    "formatted_address": "4,7(10)",
    "phone_number": "",
    "source_url": "https://www.google.com/maps/place/Rakowski/data=!4m7!3m6!1s0x470468a1a7a54923:0xa4a1d2ed357277b!8m2!3d52.5753191!4d17.0094402!16s%2Fg%2F11f282hfd8!19sChIJI0mlp6FoBEcReydX0y4dSgo?authuser=0&hl=tr&rclk=1",
    "website_url": "",
    "rating_text": "4,7",
    "stars": null,
    "number_of_reviews": null,
    "price_level": "",
    "open_hours": "",
    "extraction_timestamp": "2025-06-07T17:16:24.900Z",
    "source_name": "google",
    "source_query": "Irrigation Equipment",
    "source_country": "PL",
    "country": "Poland",
    "state": "Greater Poland Voivodeship",
    "city": "Murowana Goślina"
  },
  {
    "source_id": "ChIJydyHBMdpBEcRIKCzbXBq8XQ",
    "name": "Martes Sport",
    "category": "Martes Sport",
    "formatted_address": "3,0(2)",
    "phone_number": "+48517801930",
    "source_url": "https://www.google.com/maps/place/Martes+Sport/data=!4m7!3m6!1s0x470469c70487dcc9:0x74f16a706db3a020!8m2!3d52.5610757!4d16.9858041!16s%2Fg%2F11x8p863fr!19sChIJydyHBMdpBEcRIKCzbXBq8XQ?authuser=0&hl=tr&rclk=1",
    "website_url": "",
    "rating_text": "3,0",
    "stars": null,
    "number_of_reviews": null,
    "price_level": "",
    "open_hours": "",
    "extraction_timestamp": "2025-06-07T17:16:24.901Z",
    "source_name": "google",
    "source_query": "Irrigation Equipment",
    "source_country": "PL",
    "country": "Poland",
    "state": "Greater Poland Voivodeship",
    "city": "Murowana Goślina"
  },
  {
    "source_id": "ChIJ_xKK_KdoBEcRdRPNaJiT6_Y",
    "name": "Olejniczak Anna. Biuro handlowo - usługowe",
    "category": "Olejniczak Anna. Biuro handlowo - usługowe",
    "formatted_address": "3,8(6)",
    "phone_number": "+48616635058",
    "source_url": "https://www.google.com/maps/place/Olejniczak+Anna.+Biuro+handlowo+-+us%C5%82ugowe/data=!4m7!3m6!1s0x470468a7fc8a12ff:0xf6eb939868cd1375!8m2!3d52.5748108!4d17.0145628!16s%2Fg%2F1hc7h4ksx!19sChIJ_xKK_KdoBEcRdRPNaJiT6_Y?authuser=0&hl=tr&rclk=1",
    "website_url": "",
    "rating_text": "3,8",
    "stars": null,
    "number_of_reviews": null,
    "price_level": "",
    "open_hours": "",
    "extraction_timestamp": "2025-06-07T17:16:24.902Z",
    "source_name": "google",
    "source_query": "Irrigation Equipment",
    "source_country": "PL",
    "country": "Poland",
    "state": "Greater Poland Voivodeship",
    "city": "Murowana Goślina"
  },
  {
    "source_id": "ChIJF48Xe51oBEcRWBy59t9NSKk",
    "name": "Hant",
    "category": "Hant",
    "formatted_address": "4,7(25)",
    "phone_number": "+48618118059",
    "source_url": "https://www.google.com/maps/place/Hant/data=!4m7!3m6!1s0x4704689d7b178f17:0xa9484ddff6b91c58!8m2!3d52.5641497!4d17.0067518!16s%2Fg%2F1th0lllf!19sChIJF48Xe51oBEcRWBy59t9NSKk?authuser=0&hl=tr&rclk=1",
    "website_url": "",
    "rating_text": "4,7",
    "stars": null,
    "number_of_reviews": null,
    "price_level": "",
    "open_hours": "",
    "extraction_timestamp": "2025-06-07T17:16:24.903Z",
    "source_name": "google",
    "source_query": "Irrigation Equipment",
    "source_country": "PL",
    "country": "Poland",
    "state": "Greater Poland Voivodeship",
    "city": "Murowana Goślina"
  },
  {
    "source_id": "ChIJRbDXiqFoBEcRipiD77EVg0Y",
    "name": "Garden Shop",
    "category": "Garden Shop",
    "formatted_address": "4,7(15)",
    "phone_number": "",
    "source_url": "https://www.google.com/maps/place/Garden+Shop/data=!4m7!3m6!1s0x470468a18ad7b045:0x468315b1ef83988a!8m2!3d52.5745938!4d17.0062721!16s%2Fg%2F11gd21f7cn!19sChIJRbDXiqFoBEcRipiD77EVg0Y?authuser=0&hl=tr&rclk=1",
    "website_url": "",
    "rating_text": "4,7",
    "stars": null,
    "number_of_reviews": null,
    "price_level": "",
    "open_hours": "",
    "extraction_timestamp": "2025-06-07T17:16:24.904Z",
    "source_name": "google",
    "source_query": "Irrigation Equipment",
    "source_country": "PL",
    "country": "Poland",
    "state": "Greater Poland Voivodeship",
    "city": "Murowana Goślina"
  },
  {
    "source_id": "ChIJs624w6ZoBEcRFtTRu2hqFW8",
    "name": "General store",
    "category": "General store",
    "formatted_address": "4,5(24)",
    "phone_number": "",
    "source_url": "https://www.google.com/maps/place/General+store/data=!4m7!3m6!1s0x470468a6c3b8adb3:0x6f156a68bbd1d416!8m2!3d52.579061!4d17.0114916!16s%2Fg%2F11fzyy7zdd!19sChIJs624w6ZoBEcRFtTRu2hqFW8?authuser=0&hl=tr&rclk=1",
    "website_url": "",
    "rating_text": "4,5",
    "stars": null,
    "number_of_reviews": null,
    "price_level": "",
    "open_hours": "",
    "extraction_timestamp": "2025-06-07T17:16:24.904Z",
    "source_name": "google",
    "source_query": "Irrigation Equipment",
    "source_country": "PL",
    "country": "Poland",
    "state": "Greater Poland Voivodeship",
    "city": "Murowana Goślina"
  },
  {
    "source_id": "ChIJefHfOaBoBEcRHEvvtrlW_fg",
    "name": "Rossmann",
    "category": "Rossmann",
    "formatted_address": "4,4(445)",
    "phone_number": "+48426139700",
    "source_url": "https://www.google.com/maps/place/Rossmann/data=!4m7!3m6!1s0x470468a039dff179:0xf8fd56b9b6ef4b1c!8m2!3d52.573798!4d17.010719!16s%2Fg%2F1z3tb06pj!19sChIJefHfOaBoBEcRHEvvtrlW_fg?authuser=0&hl=tr&rclk=1",
    "website_url": "",
    "rating_text": "4,4",
    "stars": null,
    "number_of_reviews": null,
    "price_level": "",
    "open_hours": "",
    "extraction_timestamp": "2025-06-07T17:16:24.905Z",
    "source_name": "google",
    "source_query": "Irrigation Equipment",
    "source_country": "PL",
    "country": "Poland",
    "state": "Greater Poland Voivodeship",
    "city": "Murowana Goślina"
  },
  {
    "source_id": "ChIJ5eT-OlppBEcR4NQ3J887ag4",
    "name": "Duży Ben",
    "category": "Duży Ben",
    "formatted_address": "4,6(128)",
    "phone_number": "+48734412987",
    "source_url": "https://www.google.com/maps/place/Du%C5%BCy+Ben/data=!4m7!3m6!1s0x4704695a3afee4e5:0xe6a3bcf2737d4e0!8m2!3d52.5676935!4d16.9943326!16s%2Fg%2F11fkz01qtj!19sChIJ5eT-OlppBEcR4NQ3J887ag4?authuser=0&hl=tr&rclk=1",
    "website_url": "",
    "rating_text": "4,6",
    "stars": null,
    "number_of_reviews": null,
    "price_level": "",
    "open_hours": "",
    "extraction_timestamp": "2025-06-07T17:16:24.906Z",
    "source_name": "google",
    "source_query": "Irrigation Equipment",
    "source_country": "PL",
    "country": "Poland",
    "state": "Greater Poland Voivodeship",
    "city": "Murowana Goślina"
  },
  {
    "source_id": "ChIJnTHgAqFoBEcRFrCoqTnvxXM",
    "name": "Livio",
    "category": "Livio",
    "formatted_address": "4,4(91)",
    "phone_number": "+48515914464",
    "source_url": "https://www.google.com/maps/place/Livio/data=!4m7!3m6!1s0x470468a102e0319d:0x73c5ef39a9a8b016!8m2!3d52.5758548!4d17.0106884!16s%2Fg%2F11gcx_kj6n!19sChIJnTHgAqFoBEcRFrCoqTnvxXM?authuser=0&hl=tr&rclk=1",
    "website_url": "",
    "rating_text": "4,4",
    "stars": null,
    "number_of_reviews": null,
    "price_level": "",
    "open_hours": "",
    "extraction_timestamp": "2025-06-07T17:16:24.906Z",
    "source_name": "google",
    "source_query": "Irrigation Equipment",
    "source_country": "PL",
    "country": "Poland",
    "state": "Greater Poland Voivodeship",
    "city": "Murowana Goślina"
  },
  {
    "source_id": "ChIJUfo2qqdoBEcR7jUsOZXP4oA",
    "name": "Max Elektro",
    "category": "Max Elektro",
    "formatted_address": "4,7(86)",
    "phone_number": "+48509200217",
    "source_url": "https://www.google.com/maps/place/Max+Elektro/data=!4m7!3m6!1s0x470468a7aa36fa51:0x80e2cf95392c35ee!8m2!3d52.5773915!4d17.0105334!16s%2Fg%2F11h18djgs!19sChIJUfo2qqdoBEcR7jUsOZXP4oA?authuser=0&hl=tr&rclk=1",
    "website_url": "",
    "rating_text": "4,7",
    "stars": null,
    "number_of_reviews": null,
    "price_level": "",
    "open_hours": "",
    "extraction_timestamp": "2025-06-07T17:16:24.907Z",
    "source_name": "google",
    "source_query": "Irrigation Equipment",
    "source_country": "PL",
    "country": "Poland",
    "state": "Greater Poland Voivodeship",
    "city": "Murowana Goślina"
  },
  {
    "source_id": "ChIJ6wTdnrhpBEcRqi2Uy_wwaV0",
    "name": "Action",
    "category": "Action",
    "formatted_address": "4,6(19)",
    "phone_number": "+48326305898",
    "source_url": "https://www.google.com/maps/place/Action/data=!4m7!3m6!1s0x470469b89edd04eb:0x5d6930fccb942daa!8m2!3d52.5612944!4d16.9865853!16s%2Fg%2F11lv8lb6tc!19sChIJ6wTdnrhpBEcRqi2Uy_wwaV0?authuser=0&hl=tr&rclk=1",
    "website_url": "",
    "rating_text": "4,6",
    "stars": null,
    "number_of_reviews": null,
    "price_level": "",
    "open_hours": "",
    "extraction_timestamp": "2025-06-07T17:16:24.908Z",
    "source_name": "google",
    "source_query": "Irrigation Equipment",
    "source_country": "PL",
    "country": "Poland",
    "state": "Greater Poland Voivodeship",
    "city": "Murowana Goślina"
  },
  {
    "source_id": "ChIJUXKPz6ZoBEcRu4Jne0sn0yw",
    "name": "Chinese market",
    "category": "Chinese market",
    "formatted_address": "4,0(185)",
    "phone_number": "",
    "source_url": "https://www.google.com/maps/place/Chinese+market/data=!4m7!3m6!1s0x470468a6cf8f7251:0x2cd3274b7b6782bb!8m2!3d52.5785551!4d17.0114997!16s%2Fg%2F11gcx_j_5k!19sChIJUXKPz6ZoBEcRu4Jne0sn0yw?authuser=0&hl=tr&rclk=1",
    "website_url": "",
    "rating_text": "4,0",
    "stars": null,
    "number_of_reviews": null,
    "price_level": "",
    "open_hours": "",
    "extraction_timestamp": "2025-06-07T17:16:24.909Z",
    "source_name": "google",
    "source_query": "Irrigation Equipment",
    "source_country": "PL",
    "country": "Poland",
    "state": "Greater Poland Voivodeship",
    "city": "Murowana Goślina"
  },
  {
    "source_id": "ChIJR5GlgSZpBEcRGciQAWPNU9k",
    "name": "Zoo on the Green",
    "category": "Zoo on the Green",
    "formatted_address": "4,8(31)",
    "phone_number": "+48513194103",
    "source_url": "https://www.google.com/maps/place/Zoo+on+the+Green/data=!4m7!3m6!1s0x4704692681a59147:0xd953cd630190c819!8m2!3d52.5682326!4d16.9950951!16s%2Fg%2F11r9m8p6t7!19sChIJR5GlgSZpBEcRGciQAWPNU9k?authuser=0&hl=tr&rclk=1",
    "website_url": "",
    "rating_text": "4,8",
    "stars": null,
    "number_of_reviews": null,
    "price_level": "",
    "open_hours": "",
    "extraction_timestamp": "2025-06-07T17:16:24.909Z",
    "source_name": "google",
    "source_query": "Irrigation Equipment",
    "source_country": "PL",
    "country": "Poland",
    "state": "Greater Poland Voivodeship",
    "city": "Murowana Goślina"
  },
  {
    "source_id": "ChIJUQMyS6BoBEcRp2gMbmA_a3c",
    "name": "Biedronka",
    "category": "Biedronka",
    "formatted_address": "3,8(1.253)",
    "phone_number": "+48800080010",
    "source_url": "https://www.google.com/maps/place/Biedronka/data=!4m7!3m6!1s0x470468a04b320351:0x776b3f606e0c68a7!8m2!3d52.5742388!4d17.0098598!16s%2Fg%2F1pty8sgzk!19sChIJUQMyS6BoBEcRp2gMbmA_a3c?authuser=0&hl=tr&rclk=1",
    "website_url": "",
    "rating_text": "3,8",
    "stars": null,
    "number_of_reviews": null,
    "price_level": "",
    "open_hours": "",
    "extraction_timestamp": "2025-06-07T17:16:24.911Z",
    "source_name": "google",
    "source_query": "Irrigation Equipment",
    "source_country": "PL",
    "country": "Poland",
    "state": "Greater Poland Voivodeship",
    "city": "Murowana Goślina"
  },
  {
    "source_id": "ChIJ46jjb29mBEcRtS5P1CeAY80",
    "name": "Tencza",
    "category": "Tencza",
    "formatted_address": "4,3(50)",
    "phone_number": "+48618113858",
    "source_url": "https://www.google.com/maps/place/Tencza/data=!4m7!3m6!1s0x4704666f6fe3a8e3:0xcd638027d44f2eb5!8m2!3d52.575443!4d17.0518671!16s%2Fg%2F1tgd56lt!19sChIJ46jjb29mBEcRtS5P1CeAY80?authuser=0&hl=tr&rclk=1",
    "website_url": "",
    "rating_text": "4,3",
    "stars": null,
    "number_of_reviews": null,
    "price_level": "",
    "open_hours": "",
    "extraction_timestamp": "2025-06-07T17:16:24.912Z",
    "source_name": "google",
    "source_query": "Irrigation Equipment",
    "source_country": "PL",
    "country": "Poland",
    "state": "Greater Poland Voivodeship",
    "city": "Murowana Goślina"
  },
  {
    "source_id": "ChIJwxC1X09EBEcRLzaLJfk4rD8",
    "name": "OASE - Oczko Wodne Polski Autoryzowany Sklep internetowy Złoty Przedstawiciel Nawadnianie Podlewanie Hunter, Raibird,Rossi",
    "category": "OASE - Oczko Wodne Polski Autoryzowany Sklep internetowy Złoty Przedstawiciel Nawadnianie Podlewanie Hunter, Raibird,Rossi",
    "formatted_address": "OASE - Oczko Wodne Polski Autoryzowany Sklep internetowy Złoty Przedstawiciel Nawadnianie Podlewanie Hunter, Raibird,Rossi",
    "phone_number": "+48618842498",
    "source_url": "https://www.google.com/maps/place/OASE+-+Oczko+Wodne+Polski+Autoryzowany+Sklep+internetowy+Z%C5%82oty+Przedstawiciel+Nawadnianie+Podlewanie+Hunter,+Raibird,Rossi/data=!4m7!3m6!1s0x4704444f5fb510c3:0x3fac38f9258b362f!8m2!3d52.4364533!4d16.8327227!16s%2Fg%2F1hc96cvd0!19sChIJwxC1X09EBEcRLzaLJfk4rD8?authuser=0&hl=tr&rclk=1",
    "website_url": "",
    "rating_text": "4,6",
    "stars": null,
    "number_of_reviews": null,
    "price_level": "",
    "open_hours": "",
    "extraction_timestamp": "2025-06-07T17:16:24.913Z",
    "source_name": "google",
    "source_query": "Irrigation Equipment",
    "source_country": "PL",
    "country": "Poland",
    "state": "Greater Poland Voivodeship",
    "city": "Murowana Goślina"
  },
  {
    "source_id": "ChIJsz9M_BNfBEcR6_44pqZu2V0",
    "name": "SAMURIO",
    "category": "SAMURIO",
    "formatted_address": "4,9(103)",
    "phone_number": "+48797796062",
    "source_url": "https://www.google.com/maps/place/SAMURIO/data=!4m7!3m6!1s0x47045f13fc4c3fb3:0x5dd96ea6a638feeb!8m2!3d52.4671989!4d16.9489626!16s%2Fg%2F11rctv7f14!19sChIJsz9M_BNfBEcR6_44pqZu2V0?authuser=0&hl=tr&rclk=1",
    "website_url": "",
    "rating_text": "4,9",
    "stars": null,
    "number_of_reviews": null,
    "price_level": "",
    "open_hours": "",
    "extraction_timestamp": "2025-06-07T17:16:24.913Z",
    "source_name": "google",
    "source_query": "Irrigation Equipment",
    "source_country": "PL",
    "country": "Poland",
    "state": "Greater Poland Voivodeship",
    "city": "Murowana Goślina"
  },
  {
    "source_id": "ChIJ0X4y0JFDBEcRU2QEj0VZ2XA",
    "name": "STG. Heating technology, installations, boilers",
    "category": "STG. Heating technology, installations, boilers",
    "formatted_address": "STG. Heating technology, installations, boilers",
    "phone_number": "+48618409401",
    "source_url": "https://www.google.com/maps/place/STG.+Heating+technology,+installations,+boilers/data=!4m7!3m6!1s0x47044391d0327ed1:0x70d959458f046453!8m2!3d52.4538394!4d16.8507099!16s%2Fg%2F1v_s4lvy!19sChIJ0X4y0JFDBEcRU2QEj0VZ2XA?authuser=0&hl=tr&rclk=1",
    "website_url": "",
    "rating_text": "4,7",
    "stars": null,
    "number_of_reviews": null,
    "price_level": "",
    "open_hours": "",
    "extraction_timestamp": "2025-06-07T17:16:24.915Z",
    "source_name": "google",
    "source_query": "Irrigation Equipment",
    "source_country": "PL",
    "country": "Poland",
    "state": "Greater Poland Voivodeship",
    "city": "Murowana Goślina"
  },
  {
    "source_id": "ChIJWfMtxqFoBEcRZ1mEmdoAHEk",
    "name": "Murowana Frajda",
    "category": "Murowana Frajda",
    "formatted_address": "4,7(97) · ₺₺",
    "phone_number": "+48697204936",
    "source_url": "https://www.google.com/maps/place/Murowana+Frajda/data=!4m7!3m6!1s0x470468a1c62df359:0x491c00da99845967!8m2!3d52.5740848!4d17.0087666!16s%2Fg%2F11fx7v75tm!19sChIJWfMtxqFoBEcRZ1mEmdoAHEk?authuser=0&hl=tr&rclk=1",
    "website_url": "",
    "rating_text": "4,7",
    "stars": null,
    "number_of_reviews": null,
    "price_level": "",
    "open_hours": "",
    "extraction_timestamp": "2025-06-07T17:16:24.916Z",
    "source_name": "google",
    "source_query": "Irrigation Equipment",
    "source_country": "PL",
    "country": "Poland",
    "state": "Greater Poland Voivodeship",
    "city": "Murowana Goślina"
  },
  {
    "source_id": "ChIJOyZNm-NqBEcR1yeK8rUP9dQ",
    "name": "Jusik Instalacje",
    "category": "Jusik Instalacje",
    "formatted_address": "5,0(74)",
    "phone_number": "+48724704777",
    "source_url": "https://www.google.com/maps/place/Jusik+Instalacje/data=!4m7!3m6!1s0x47046ae39b4d263b:0xd4f50fb5f28a27d7!8m2!3d52.577048!4d16.7972821!16s%2Fg%2F11b7y9f4g7!19sChIJOyZNm-NqBEcR1yeK8rUP9dQ?authuser=0&hl=tr&rclk=1",
    "website_url": "",
    "rating_text": "5,0",
    "stars": null,
    "number_of_reviews": null,
    "price_level": "",
    "open_hours": "",
    "extraction_timestamp": "2025-06-07T17:16:24.935Z",
    "source_name": "google",
    "source_query": "Irrigation Equipment",
    "source_country": "PL",
    "country": "Poland",
    "state": "Greater Poland Voivodeship",
    "city": "Murowana Goślina"
  }
]
