[
  {
    "source_id": "ChIJeZgY1xqRBEcRpcLMUkxBkfI",
    "name": "Ha-Two-O Paweł Filipiak",
    "category": "Ha-Two-O Paweł Filipiak",
    "formatted_address": "4,8(101)",
    "phone_number": "+48575579000",
    "source_url": "https://www.google.com/maps/place/Ha-Two-O+Pawe%C5%82+Filipiak/data=!4m7!3m6!1s0x4704911ad7189879:0xf291414c52ccc2a5!8m2!3d52.5491138!4d17.555824!16s%2Fg%2F1x6q0ggt!19sChIJeZgY1xqRBEcRpcLMUkxBkfI?authuser=0&hl=tr&rclk=1",
    "website_url": "",
    "rating_text": "4,8",
    "stars": null,
    "number_of_reviews": null,
    "price_level": "",
    "open_hours": "",
    "extraction_timestamp": "2025-06-07T17:56:12.447Z",
    "source_name": "google",
    "source_query": "Irrigation Equipment",
    "source_country": "PL",
    "country": "Poland",
    "state": "Greater Poland Voivodeship",
    "city": "Niechanowo"
  },
  {
    "source_id": "ChIJUYWQfraVBEcRA2SSNzYS5T0",
    "name": "Sklep \"Fabiszak\"",
    "category": "Sklep \"Fabiszak\"",
    "formatted_address": "4,5(90)",
    "phone_number": "",
    "source_url": "https://www.google.com/maps/place/Sklep+%22Fabiszak%22/data=!4m7!3m6!1s0x470495b67e908551:0x3de5123637926403!8m2!3d52.468691!4d17.682444!16s%2Fg%2F11dfqvfg9g!19sChIJUYWQfraVBEcRA2SSNzYS5T0?authuser=0&hl=tr&rclk=1",
    "website_url": "",
    "rating_text": "4,5",
    "stars": null,
    "number_of_reviews": null,
    "price_level": "",
    "open_hours": "",
    "extraction_timestamp": "2025-06-07T17:56:12.449Z",
    "source_name": "google",
    "source_query": "Irrigation Equipment",
    "source_country": "PL",
    "country": "Poland",
    "state": "Greater Poland Voivodeship",
    "city": "Niechanowo"
  },
  {
    "source_id": "ChIJUUAdy7aVBEcRITWVEOZOwdE",
    "name": "Pelikan SAM",
    "category": "Pelikan SAM",
    "formatted_address": "4,2(104)",
    "phone_number": "+48614272206",
    "source_url": "https://www.google.com/maps/place/Pelikan+SAM/data=!4m7!3m6!1s0x470495b6cb1d4051:0xd1c14ee610953521!8m2!3d52.4653696!4d17.6768591!16s%2Fg%2F1ptxq5257!19sChIJUUAdy7aVBEcRITWVEOZOwdE?authuser=0&hl=tr&rclk=1",
    "website_url": "",
    "rating_text": "4,2",
    "stars": null,
    "number_of_reviews": null,
    "price_level": "",
    "open_hours": "",
    "extraction_timestamp": "2025-06-07T17:56:12.451Z",
    "source_name": "google",
    "source_query": "Irrigation Equipment",
    "source_country": "PL",
    "country": "Poland",
    "state": "Greater Poland Voivodeship",
    "city": "Niechanowo"
  },
  {
    "source_id": "ChIJPa-cj6t3smkRll80_oImOEc",
    "name": "ZIELONY FYRTEL",
    "category": "ZIELONY FYRTEL",
    "formatted_address": "5,0(23)",
    "phone_number": "+48691928659",
    "source_url": "https://www.google.com/maps/place/ZIELONY+FYRTEL/data=!4m7!3m6!1s0x69b277ab8f9caf3d:0x47382682fe345f96!8m2!3d52.4796484!4d17.6148753!16s%2Fg%2F11q4k3320f!19sChIJPa-cj6t3smkRll80_oImOEc?authuser=0&hl=tr&rclk=1",
    "website_url": "",
    "rating_text": "5,0",
    "stars": null,
    "number_of_reviews": null,
    "price_level": "",
    "open_hours": "",
    "extraction_timestamp": "2025-06-07T17:56:12.453Z",
    "source_name": "google",
    "source_query": "Irrigation Equipment",
    "source_country": "PL",
    "country": "Poland",
    "state": "Greater Poland Voivodeship",
    "city": "Niechanowo"
  },
  {
    "source_id": "ChIJByirwFCVBEcR6Gb1atfVQ74",
    "name": "Sklep Czempion",
    "category": "Sklep Czempion",
    "formatted_address": "5,0(9)",
    "phone_number": "",
    "source_url": "https://www.google.com/maps/place/Sklep+Czempion/data=!4m7!3m6!1s0x47049550c0ab2807:0xbe43d5d76af566e8!8m2!3d52.46892!4d17.688709!16s%2Fg%2F11rvb5d6zp!19sChIJByirwFCVBEcR6Gb1atfVQ74?authuser=0&hl=tr&rclk=1",
    "website_url": "",
    "rating_text": "5,0",
    "stars": null,
    "number_of_reviews": null,
    "price_level": "",
    "open_hours": "",
    "extraction_timestamp": "2025-06-07T17:56:12.453Z",
    "source_name": "google",
    "source_query": "Irrigation Equipment",
    "source_country": "PL",
    "country": "Poland",
    "state": "Greater Poland Voivodeship",
    "city": "Niechanowo"
  },
  {
    "source_id": "ChIJB6y_v5J2HEcRlDfYx3xmc9M",
    "name": "Milex irrigation systems",
    "category": "Milex irrigation systems",
    "formatted_address": "4,6(37)",
    "phone_number": "+48242775222",
    "source_url": "https://www.google.com/maps/place/Milex+irrigation+systems/data=!4m7!3m6!1s0x471c7692bfbfac07:0xd373667cc7d83794!8m2!3d52.4690634!4d19.7520904!16s%2Fg%2F1w2yy67r!19sChIJB6y_v5J2HEcRlDfYx3xmc9M?authuser=0&hl=tr&rclk=1",
    "website_url": "",
    "rating_text": "4,6",
    "stars": null,
    "number_of_reviews": null,
    "price_level": "",
    "open_hours": "",
    "extraction_timestamp": "2025-06-07T17:56:12.455Z",
    "source_name": "google",
    "source_query": "Irrigation Equipment",
    "source_country": "PL",
    "country": "Poland",
    "state": "Greater Poland Voivodeship",
    "city": "Niechanowo"
  },
  {
    "source_id": "ChIJP6eQiLeVBEcRI2ncfWXl1QE",
    "name": "Dino",
    "category": "Dino",
    "formatted_address": "4,2(355)",
    "phone_number": "",
    "source_url": "https://www.google.com/maps/place/Dino/data=!4m7!3m6!1s0x470495b78890a73f:0x1d5e5657ddc6923!8m2!3d52.4676705!4d17.6901845!16s%2Fg%2F11c2pvzjxk!19sChIJP6eQiLeVBEcRI2ncfWXl1QE?authuser=0&hl=tr&rclk=1",
    "website_url": "",
    "rating_text": "4,2",
    "stars": null,
    "number_of_reviews": null,
    "price_level": "",
    "open_hours": "",
    "extraction_timestamp": "2025-06-07T17:56:12.456Z",
    "source_name": "google",
    "source_query": "Irrigation Equipment",
    "source_country": "PL",
    "country": "Poland",
    "state": "Greater Poland Voivodeship",
    "city": "Niechanowo"
  },
  {
    "source_id": "ChIJVTV3W_PzBEcR6gY0xwQi2_E",
    "name": "Deszczownie.com",
    "category": "Deszczownie.com",
    "formatted_address": "",
    "phone_number": "+48726000030",
    "source_url": "https://www.google.com/maps/place/Deszczownie.com/data=!4m7!3m6!1s0x4704f3f35b773555:0xf1db2204c73406ea!8m2!3d52.3623948!4d17.4021087!16s%2Fg%2F11y3pv4rxr!19sChIJVTV3W_PzBEcR6gY0xwQi2_E?authuser=0&hl=tr&rclk=1",
    "website_url": "",
    "rating_text": "",
    "stars": null,
    "number_of_reviews": null,
    "price_level": "",
    "open_hours": "",
    "extraction_timestamp": "2025-06-07T17:56:12.457Z",
    "source_name": "google",
    "source_query": "Irrigation Equipment",
    "source_country": "PL",
    "country": "Poland",
    "state": "Greater Poland Voivodeship",
    "city": "Niechanowo"
  }
]
