[
  {
    "source_id": "ChIJ8dcpi5jJGkcRZdU1aWdkQZA",
    "name": "Home & More Sp. z o.o. - Pompy Ciepła / Klimatyzacja / Fotowoltaika",
    "category": "Home & More Sp. z o.o. - Pompy Ciepła / Klimatyzacja / Fotowoltaika",
    "formatted_address": "5,0(16)",
    "phone_number": "+48504421516",
    "source_url": "https://www.google.com/maps/place/Home+%26+More+Sp.+z+o.o.+-+Pompy+Ciep%C5%82a+%2F+Klimatyzacja+%2F+Fotowoltaika/data=!4m7!3m6!1s0x471ac9988b29d7f1:0x904164676935d565!8m2!3d51.7072779!4d17.9942039!16s%2Fg%2F11tnvt_8_c!19sChIJ8dcpi5jJGkcRZdU1aWdkQZA?authuser=0&hl=tr&rclk=1",
    "website_url": "https://facebook.com/4home/",
    "rating_text": "5,0",
    "stars": null,
    "number_of_reviews": null,
    "price_level": "",
    "open_hours": "",
    "extraction_timestamp": "2025-06-07T17:48:57.483Z",
    "source_name": "google",
    "source_query": "Irrigation Equipment",
    "source_country": "PL",
    "country": "Poland",
    "state": "Greater Poland Voivodeship",
    "city": "Nowe Skalmierzyce"
  },
  {
    "source_id": "ChIJv3VWorS1GkcR91vUXcnWjAo",
    "name": "Systemy pneumatyki. Sprężarki, kompresory, narzędzia",
    "category": "Systemy pneumatyki. Sprężarki, kompresory, narzędzia",
    "formatted_address": "Systemy pneumatyki. Sprężarki, kompresory, narzędzia",
    "phone_number": "+48625910444",
    "source_url": "https://www.google.com/maps/place/Systemy+pneumatyki.+Spr%C4%99%C5%BCarki,+kompresory,+narz%C4%99dzia/data=!4m7!3m6!1s0x471ab5b4a25675bf:0xa8cd6c95dd45bf7!8m2!3d51.6301252!4d17.8127133!16s%2Fg%2F1vm_wmyy!19sChIJv3VWorS1GkcR91vUXcnWjAo?authuser=0&hl=tr&rclk=1",
    "website_url": "http://www.systemypneumatyki.pl/",
    "rating_text": "4,1",
    "stars": null,
    "number_of_reviews": null,
    "price_level": "",
    "open_hours": "",
    "extraction_timestamp": "2025-06-07T17:48:57.484Z",
    "source_name": "google",
    "source_query": "Irrigation Equipment",
    "source_country": "PL",
    "country": "Poland",
    "state": "Greater Poland Voivodeship",
    "city": "Nowe Skalmierzyce"
  },
  {
    "source_id": "ChIJJ5wCWe3IGkcRAvqi6pZr1jo",
    "name": "Walczak Andrzej",
    "category": "Walczak Andrzej",
    "formatted_address": "4,6(20)",
    "phone_number": "",
    "source_url": "https://www.google.com/maps/place/Walczak+Andrzej/data=!4m7!3m6!1s0x471ac8ed59029c27:0x3ad66b96eaa2fa02!8m2!3d51.7026894!4d17.9771888!16s%2Fg%2F11c3k4_rbh!19sChIJJ5wCWe3IGkcRAvqi6pZr1jo?authuser=0&hl=tr&rclk=1",
    "website_url": "",
    "rating_text": "4,6",
    "stars": null,
    "number_of_reviews": null,
    "price_level": "",
    "open_hours": "",
    "extraction_timestamp": "2025-06-07T17:48:57.485Z",
    "source_name": "google",
    "source_query": "Irrigation Equipment",
    "source_country": "PL",
    "country": "Poland",
    "state": "Greater Poland Voivodeship",
    "city": "Nowe Skalmierzyce"
  },
  {
    "source_id": "ChIJwzAt43vJGkcR64rkqwHyfjM",
    "name": "P.U.H. \" BRUCKI \" ADAM BRUCKI",
    "category": "P.U.H. \" BRUCKI \" ADAM BRUCKI",
    "formatted_address": "",
    "phone_number": "+48600320889",
    "source_url": "https://www.google.com/maps/place/P.U.H.+%22+BRUCKI+%22+ADAM+BRUCKI/data=!4m7!3m6!1s0x471ac97be32d30c3:0x337ef201abe48aeb!8m2!3d51.7059462!4d17.9891655!16s%2Fg%2F11lm2nstfv!19sChIJwzAt43vJGkcR64rkqwHyfjM?authuser=0&hl=tr&rclk=1",
    "website_url": "",
    "rating_text": "",
    "stars": null,
    "number_of_reviews": null,
    "price_level": "",
    "open_hours": "",
    "extraction_timestamp": "2025-06-07T17:48:57.486Z",
    "source_name": "google",
    "source_query": "Irrigation Equipment",
    "source_country": "PL",
    "country": "Poland",
    "state": "Greater Poland Voivodeship",
    "city": "Nowe Skalmierzyce"
  },
  {
    "source_id": "ChIJUx2cVJPIGkcRnotnBAKiltE",
    "name": "Biedronka",
    "category": "Biedronka",
    "formatted_address": "3,8(716)",
    "phone_number": "+48800080010",
    "source_url": "https://www.google.com/maps/place/Biedronka/data=!4m7!3m6!1s0x471ac893549c1d53:0xd196a20204678b9e!8m2!3d51.7157466!4d17.9978672!16s%2Fg%2F11bw_5h7wj!19sChIJUx2cVJPIGkcRnotnBAKiltE?authuser=0&hl=tr&rclk=1",
    "website_url": "https://www.biedronka.pl/pl?utm_source=gmb",
    "rating_text": "3,8",
    "stars": null,
    "number_of_reviews": null,
    "price_level": "",
    "open_hours": "",
    "extraction_timestamp": "2025-06-07T17:48:57.487Z",
    "source_name": "google",
    "source_query": "Irrigation Equipment",
    "source_country": "PL",
    "country": "Poland",
    "state": "Greater Poland Voivodeship",
    "city": "Nowe Skalmierzyce"
  },
  {
    "source_id": "ChIJr2nz7WTIGkcRvXG0MVSqf6E",
    "name": "ABC",
    "category": "ABC",
    "formatted_address": "4,5(8)",
    "phone_number": "",
    "source_url": "https://www.google.com/maps/place/ABC/data=!4m7!3m6!1s0x471ac864edf369af:0xa17faa5431b471bd!8m2!3d51.692618!4d17.99568!16s%2Fg%2F11gdlyv1c9!19sChIJr2nz7WTIGkcRvXG0MVSqf6E?authuser=0&hl=tr&rclk=1",
    "website_url": "",
    "rating_text": "4,5",
    "stars": null,
    "number_of_reviews": null,
    "price_level": "",
    "open_hours": "",
    "extraction_timestamp": "2025-06-07T17:48:57.487Z",
    "source_name": "google",
    "source_query": "Irrigation Equipment",
    "source_country": "PL",
    "country": "Poland",
    "state": "Greater Poland Voivodeship",
    "city": "Nowe Skalmierzyce"
  },
  {
    "source_id": "ChIJyybZ-27JGkcR5GCC3QpH3mo",
    "name": "Sklep zoologiczny miau-hau",
    "category": "Sklep zoologiczny miau-hau",
    "formatted_address": "4,7(15)",
    "phone_number": "+48665841400",
    "source_url": "https://www.google.com/maps/place/Sklep+zoologiczny+miau-hau/data=!4m7!3m6!1s0x471ac96efbd926cb:0x6ade470add8260e4!8m2!3d51.7088512!4d17.9913196!16s%2Fg%2F11px1xk812!19sChIJyybZ-27JGkcR5GCC3QpH3mo?authuser=0&hl=tr&rclk=1",
    "website_url": "https://www.facebook.com/profile.php?id=100063796494104",
    "rating_text": "4,7",
    "stars": null,
    "number_of_reviews": null,
    "price_level": "",
    "open_hours": "",
    "extraction_timestamp": "2025-06-07T17:48:57.488Z",
    "source_name": "google",
    "source_query": "Irrigation Equipment",
    "source_country": "PL",
    "country": "Poland",
    "state": "Greater Poland Voivodeship",
    "city": "Nowe Skalmierzyce"
  },
  {
    "source_id": "ChIJI3hospLIGkcRIjNDrdw5tVA",
    "name": "Supermarket \"Alf\" Społem PSS w Kaliszu",
    "category": "Supermarket \"Alf\" Społem PSS w Kaliszu",
    "formatted_address": "3,9(65)",
    "phone_number": "+48625804814",
    "source_url": "https://www.google.com/maps/place/Supermarket+%22Alf%22+Spo%C5%82em+PSS+w+Kaliszu/data=!4m7!3m6!1s0x471ac892b2687823:0x50b539dcad433322!8m2!3d51.7116663!4d17.9949092!16s%2Fg%2F11c4pzmwsm!19sChIJI3hospLIGkcRIjNDrdw5tVA?authuser=0&hl=tr&rclk=1",
    "website_url": "http://www.kalisz.spolem.org.pl/",
    "rating_text": "3,9",
    "stars": null,
    "number_of_reviews": null,
    "price_level": "",
    "open_hours": "",
    "extraction_timestamp": "2025-06-07T17:48:57.489Z",
    "source_name": "google",
    "source_query": "Irrigation Equipment",
    "source_country": "PL",
    "country": "Poland",
    "state": "Greater Poland Voivodeship",
    "city": "Nowe Skalmierzyce"
  },
  {
    "source_id": "ChIJsTJBqPLIGkcRL8IGpj-YdgI",
    "name": "Odido",
    "category": "Odido",
    "formatted_address": "4,1(15)",
    "phone_number": "+48501325988",
    "source_url": "https://www.google.com/maps/place/Odido/data=!4m7!3m6!1s0x471ac8f2a84132b1:0x276983fa606c22f!8m2!3d51.7109239!4d17.9937024!16s%2Fg%2F113h9d74s!19sChIJsTJBqPLIGkcRL8IGpj-YdgI?authuser=0&hl=tr&rclk=1",
    "website_url": "https://mapa.targeo.pl/odido-ul-pl-wolnosci-4-63-460-nowe-skalmierzyce~18532410/odido-sklep/adres",
    "rating_text": "4,1",
    "stars": null,
    "number_of_reviews": null,
    "price_level": "",
    "open_hours": "",
    "extraction_timestamp": "2025-06-07T17:48:57.490Z",
    "source_name": "google",
    "source_query": "Irrigation Equipment",
    "source_country": "PL",
    "country": "Poland",
    "state": "Greater Poland Voivodeship",
    "city": "Nowe Skalmierzyce"
  },
  {
    "source_id": "ChIJpxURUu3IGkcRzJ6QLd0gdY4",
    "name": "Sklep motoryzacyjny PH Mir-Mar",
    "category": "Sklep motoryzacyjny PH Mir-Mar",
    "formatted_address": "4,9(17)",
    "phone_number": "+48627621620",
    "source_url": "https://www.google.com/maps/place/Sklep+motoryzacyjny+PH+Mir-Mar/data=!4m7!3m6!1s0x471ac8ed521115a7:0x8e7520dd2d909ecc!8m2!3d51.7114291!4d17.9944929!16s%2Fg%2F1tczp32f!19sChIJpxURUu3IGkcRzJ6QLd0gdY4?authuser=0&hl=tr&rclk=1",
    "website_url": "",
    "rating_text": "4,9",
    "stars": null,
    "number_of_reviews": null,
    "price_level": "",
    "open_hours": "",
    "extraction_timestamp": "2025-06-07T17:48:57.491Z",
    "source_name": "google",
    "source_query": "Irrigation Equipment",
    "source_country": "PL",
    "country": "Poland",
    "state": "Greater Poland Voivodeship",
    "city": "Nowe Skalmierzyce"
  },
  {
    "source_id": "ChIJ69gNfAHJGkcROcXf08rjUMs",
    "name": "Dino",
    "category": "Dino",
    "formatted_address": "4,5(65)",
    "phone_number": "",
    "source_url": "https://www.google.com/maps/place/Dino/data=!4m7!3m6!1s0x471ac9017c0dd8eb:0xcb50e3cad3dfc539!8m2!3d51.700276!4d17.9846348!16s%2Fg%2F11rxsr6zt2!19sChIJ69gNfAHJGkcROcXf08rjUMs?authuser=0&hl=tr&rclk=1",
    "website_url": "https://marketdino.pl/",
    "rating_text": "4,5",
    "stars": null,
    "number_of_reviews": null,
    "price_level": "",
    "open_hours": "",
    "extraction_timestamp": "2025-06-07T17:48:57.491Z",
    "source_name": "google",
    "source_query": "Irrigation Equipment",
    "source_country": "PL",
    "country": "Poland",
    "state": "Greater Poland Voivodeship",
    "city": "Nowe Skalmierzyce"
  },
  {
    "source_id": "ChIJw-fPZ4PJGkcRswhdaBBXMRI",
    "name": "Sklep Spożywczy",
    "category": "Sklep Spożywczy",
    "formatted_address": "4,5(50)",
    "phone_number": "",
    "source_url": "https://www.google.com/maps/place/Sklep+Spo%C5%BCywczy/data=!4m7!3m6!1s0x471ac98367cfe7c3:0x12315710685d08b3!8m2!3d51.7065609!4d18.0002125!16s%2Fg%2F11f796wg_j!19sChIJw-fPZ4PJGkcRswhdaBBXMRI?authuser=0&hl=tr&rclk=1",
    "website_url": "",
    "rating_text": "4,5",
    "stars": null,
    "number_of_reviews": null,
    "price_level": "",
    "open_hours": "",
    "extraction_timestamp": "2025-06-07T17:48:57.492Z",
    "source_name": "google",
    "source_query": "Irrigation Equipment",
    "source_country": "PL",
    "country": "Poland",
    "state": "Greater Poland Voivodeship",
    "city": "Nowe Skalmierzyce"
  },
  {
    "source_id": "ChIJbTjNp_LIGkcRU4kKGJIdyus",
    "name": "Super Market. Sklep wielobranżowy",
    "category": "Super Market. Sklep wielobranżowy",
    "formatted_address": "3,7(3)",
    "phone_number": "+48627621545",
    "source_url": "https://www.google.com/maps/place/Super+Market.+Sklep+wielobran%C5%BCowy/data=!4m7!3m6!1s0x471ac8f2a7cd386d:0xebca1d92180a8953!8m2!3d51.7109011!4d17.9934305!16s%2Fg%2F1tfpyllw!19sChIJbTjNp_LIGkcRU4kKGJIdyus?authuser=0&hl=tr&rclk=1",
    "website_url": "",
    "rating_text": "3,7",
    "stars": null,
    "number_of_reviews": null,
    "price_level": "",
    "open_hours": "",
    "extraction_timestamp": "2025-06-07T17:48:57.493Z",
    "source_name": "google",
    "source_query": "Irrigation Equipment",
    "source_country": "PL",
    "country": "Poland",
    "state": "Greater Poland Voivodeship",
    "city": "Nowe Skalmierzyce"
  },
  {
    "source_id": "ChIJB6y_v5J2HEcRlDfYx3xmc9M",
    "name": "Milex irrigation systems",
    "category": "Milex irrigation systems",
    "formatted_address": "4,6(37)",
    "phone_number": "+48242775222",
    "source_url": "https://www.google.com/maps/place/Milex+irrigation+systems/data=!4m7!3m6!1s0x471c7692bfbfac07:0xd373667cc7d83794!8m2!3d52.4690634!4d19.7520904!16s%2Fg%2F1w2yy67r!19sChIJB6y_v5J2HEcRlDfYx3xmc9M?authuser=0&hl=tr&rclk=1",
    "website_url": "https://www.milex.pl/",
    "rating_text": "4,6",
    "stars": null,
    "number_of_reviews": null,
    "price_level": "",
    "open_hours": "",
    "extraction_timestamp": "2025-06-07T17:48:57.494Z",
    "source_name": "google",
    "source_query": "Irrigation Equipment",
    "source_country": "PL",
    "country": "Poland",
    "state": "Greater Poland Voivodeship",
    "city": "Nowe Skalmierzyce"
  },
  {
    "source_id": "ChIJZQDho_TIGkcREbEJvERcIRo",
    "name": "Vademecum",
    "category": "Vademecum",
    "formatted_address": "5,0(15)",
    "phone_number": "+48627621604",
    "source_url": "https://www.google.com/maps/place/Vademecum/data=!4m7!3m6!1s0x471ac8f4a3e10065:0x1a215c44bc09b111!8m2!3d51.7058116!4d17.9895123!16s%2Fg%2F1tfb59xd!19sChIJZQDho_TIGkcREbEJvERcIRo?authuser=0&hl=tr&rclk=1",
    "website_url": "",
    "rating_text": "5,0",
    "stars": null,
    "number_of_reviews": null,
    "price_level": "",
    "open_hours": "",
    "extraction_timestamp": "2025-06-07T17:48:57.494Z",
    "source_name": "google",
    "source_query": "Irrigation Equipment",
    "source_country": "PL",
    "country": "Poland",
    "state": "Greater Poland Voivodeship",
    "city": "Nowe Skalmierzyce"
  },
  {
    "source_id": "ChIJOfs9a4nIGkcRwFaQJqvX7y0",
    "name": "Sklep Spożywczy - Odido 🍅🍋🍉🍇🍌 🥦🍞🍰🍪🍬 🍹🍷🍾🥗🥩",
    "category": "Sklep Spożywczy - Odido 🍅🍋🍉🍇🍌 🥦🍞🍰🍪🍬 🍹🍷🍾🥗🥩",
    "formatted_address": "4,6(18)",
    "phone_number": "+48502434623",
    "source_url": "https://www.google.com/maps/place/Sklep+Spo%C5%BCywczy+-+Odido+%F0%9F%8D%85%F0%9F%8D%8B%F0%9F%8D%89%F0%9F%8D%87%F0%9F%8D%8C+%F0%9F%A5%A6%F0%9F%8D%9E%F0%9F%8D%B0%F0%9F%8D%AA%F0%9F%8D%AC+%F0%9F%8D%B9%F0%9F%8D%B7%F0%9F%8D%BE%F0%9F%A5%97%F0%9F%A5%A9/data=!4m7!3m6!1s0x471ac8896b3dfb39:0x2defd7ab269056c0!8m2!3d51.7030418!4d17.9993527!16s%2Fg%2F12qf52knb!19sChIJOfs9a4nIGkcRwFaQJqvX7y0?authuser=0&hl=tr&rclk=1",
    "website_url": "http://www.sklepy-odido.pl/nasze-sklepy/p-h-u-rzepczyk",
    "rating_text": "4,6",
    "stars": null,
    "number_of_reviews": null,
    "price_level": "",
    "open_hours": "",
    "extraction_timestamp": "2025-06-07T17:48:57.495Z",
    "source_name": "google",
    "source_query": "Irrigation Equipment",
    "source_country": "PL",
    "country": "Poland",
    "state": "Greater Poland Voivodeship",
    "city": "Nowe Skalmierzyce"
  },
  {
    "source_id": "ChIJt9WuNe3IGkcRU74PIgT4OAg",
    "name": "Sklep Spożywczy ABC",
    "category": "Sklep Spożywczy ABC",
    "formatted_address": "4,1(47)",
    "phone_number": "",
    "source_url": "https://www.google.com/maps/place/Sklep+Spo%C5%BCywczy+ABC/data=!4m7!3m6!1s0x471ac8ed35aed5b7:0x838f804220fbe53!8m2!3d51.7122256!4d17.9951447!16s%2Fg%2F11c4p_c7fh!19sChIJt9WuNe3IGkcRU74PIgT4OAg?authuser=0&hl=tr&rclk=1",
    "website_url": "",
    "rating_text": "4,1",
    "stars": null,
    "number_of_reviews": null,
    "price_level": "",
    "open_hours": "",
    "extraction_timestamp": "2025-06-07T17:48:57.496Z",
    "source_name": "google",
    "source_query": "Irrigation Equipment",
    "source_country": "PL",
    "country": "Poland",
    "state": "Greater Poland Voivodeship",
    "city": "Nowe Skalmierzyce"
  },
  {
    "source_id": "ChIJu6EBnJPJGkcR9QjwOqYikfU",
    "name": "Sklep Spożywczy ABC",
    "category": "Sklep Spożywczy ABC",
    "formatted_address": "4,7(15)",
    "phone_number": "",
    "source_url": "https://www.google.com/maps/place/Sklep+Spo%C5%BCywczy+ABC/data=!4m7!3m6!1s0x471ac9939c01a1bb:0xf59122a63af008f5!8m2!3d51.7088702!4d17.9935147!16s%2Fg%2F11j087_4t4!19sChIJu6EBnJPJGkcR9QjwOqYikfU?authuser=0&hl=tr&rclk=1",
    "website_url": "",
    "rating_text": "4,7",
    "stars": null,
    "number_of_reviews": null,
    "price_level": "",
    "open_hours": "",
    "extraction_timestamp": "2025-06-07T17:48:57.496Z",
    "source_name": "google",
    "source_query": "Irrigation Equipment",
    "source_country": "PL",
    "country": "Poland",
    "state": "Greater Poland Voivodeship",
    "city": "Nowe Skalmierzyce"
  },
  {
    "source_id": "ChIJ82e3pr7JGkcRqlDEAzol8fw",
    "name": "Caffe Gelato Park Nowe Skalmierzyce",
    "category": "Caffe Gelato Park Nowe Skalmierzyce",
    "formatted_address": "4,8(167)",
    "phone_number": "+48509908336",
    "source_url": "https://www.google.com/maps/place/Caffe+Gelato+Park+Nowe+Skalmierzyce/data=!4m7!3m6!1s0x471ac9bea6b767f3:0xfcf1253a03c450aa!8m2!3d51.7053943!4d17.9992503!16s%2Fg%2F11h7476m6b!19sChIJ82e3pr7JGkcRqlDEAzol8fw?authuser=0&hl=tr&rclk=1",
    "website_url": "https://www.facebook.com/pages/category/Ice-Cream-Shop/Producent-Lod%C3%B3w-Rzemie%C5%9Blniczych-Domar-Ice-430290807721163/",
    "rating_text": "4,8",
    "stars": null,
    "number_of_reviews": null,
    "price_level": "",
    "open_hours": "",
    "extraction_timestamp": "2025-06-07T17:48:57.497Z",
    "source_name": "google",
    "source_query": "Irrigation Equipment",
    "source_country": "PL",
    "country": "Poland",
    "state": "Greater Poland Voivodeship",
    "city": "Nowe Skalmierzyce"
  },
  {
    "source_id": "ChIJi4vQDwvJGkcRa5h0fugrA2U",
    "name": "Sklep spożywczy ABC",
    "category": "Sklep spożywczy ABC",
    "formatted_address": "4,9(8)",
    "phone_number": "",
    "source_url": "https://www.google.com/maps/place/Sklep+spo%C5%BCywczy+ABC/data=!4m7!3m6!1s0x471ac90b0fd08b8b:0x65032be87e74986b!8m2!3d51.7168188!4d17.9995155!16s%2Fg%2F11j3j8qssp!19sChIJi4vQDwvJGkcRa5h0fugrA2U?authuser=0&hl=tr&rclk=1",
    "website_url": "https://sklepyabc.pl/",
    "rating_text": "4,9",
    "stars": null,
    "number_of_reviews": null,
    "price_level": "",
    "open_hours": "",
    "extraction_timestamp": "2025-06-07T17:48:57.497Z",
    "source_name": "google",
    "source_query": "Irrigation Equipment",
    "source_country": "PL",
    "country": "Poland",
    "state": "Greater Poland Voivodeship",
    "city": "Nowe Skalmierzyce"
  },
  {
    "source_id": "ChIJvXuyk1O0GkcRrsQa7cAvO-U",
    "name": "Gazelle. Szafki gazowe, kształtki PE, armatura gazowa. Hurtownia instalacyjna i sprzedaż detaliczna.",
    "category": "Gazelle. Szafki gazowe, kształtki PE, armatura gazowa. Hurtownia instalacyjna i sprzedaż detaliczna.",
    "formatted_address": "Gazelle. Szafki gazowe, kształtki PE, armatura gazowa. Hurtownia instalacyjna i sprzedaż detaliczna.",
    "phone_number": "+48502154274",
    "source_url": "https://www.google.com/maps/place/Gazelle.+Szafki+gazowe,+kszta%C5%82tki+PE,+armatura+gazowa.+Hurtownia+instalacyjna+i+sprzeda%C5%BC+detaliczna./data=!4m7!3m6!1s0x471ab45393b27bbd:0xe53b2fc0ed1ac4ae!8m2!3d51.6405378!4d17.7944606!16s%2Fg%2F1tsjcdp1!19sChIJvXuyk1O0GkcRrsQa7cAvO-U?authuser=0&hl=tr&rclk=1",
    "website_url": "http://www.gazelle.com.pl/",
    "rating_text": "3,5",
    "stars": null,
    "number_of_reviews": null,
    "price_level": "",
    "open_hours": "",
    "extraction_timestamp": "2025-06-07T17:48:57.498Z",
    "source_name": "google",
    "source_query": "Irrigation Equipment",
    "source_country": "PL",
    "country": "Poland",
    "state": "Greater Poland Voivodeship",
    "city": "Nowe Skalmierzyce"
  },
  {
    "source_id": "ChIJP_RaJRVdBUcRJnNEonWqi1o",
    "name": "ECOLAND Waldemar Skotarek- Nawadnianie ogrodów",
    "category": "ECOLAND Waldemar Skotarek- Nawadnianie ogrodów",
    "formatted_address": "5,0(4)",
    "phone_number": "+48797895783",
    "source_url": "https://www.google.com/maps/place/ECOLAND+Waldemar+Skotarek-+Nawadnianie+ogrod%C3%B3w/data=!4m7!3m6!1s0x47055d15255af43f:0x5a8baa75a2447326!8m2!3d51.5516189!4d17.1677255!16s%2Fg%2F11p_5trb_c!19sChIJP_RaJRVdBUcRJnNEonWqi1o?authuser=0&hl=tr&rclk=1",
    "website_url": "",
    "rating_text": "5,0",
    "stars": null,
    "number_of_reviews": null,
    "price_level": "",
    "open_hours": "",
    "extraction_timestamp": "2025-06-07T17:48:57.499Z",
    "source_name": "google",
    "source_query": "Irrigation Equipment",
    "source_country": "PL",
    "country": "Poland",
    "state": "Greater Poland Voivodeship",
    "city": "Nowe Skalmierzyce"
  },
  {
    "source_id": "ChIJlc9HpiC0xiARzPXuwpcqjVs",
    "name": "Spółdzielnia Socjalna Zielony Kalisz – usługi ogrodnicze, nawadnianie, zakładanie ogrodów i prace porządkowe dla domów",
    "category": "Spółdzielnia Socjalna Zielony Kalisz – usługi ogrodnicze, nawadnianie, zakładanie ogrodów i prace porządkowe dla domów",
    "formatted_address": "Spółdzielnia Socjalna Zielony Kalisz – usługi ogrodnicze, nawadnianie, zakładanie ogrodów i prace porządkowe dla domów",
    "phone_number": "+48512133071",
    "source_url": "https://www.google.com/maps/place/Sp%C3%B3%C5%82dzielnia+Socjalna+Zielony+Kalisz+%E2%80%93+us%C5%82ugi+ogrodnicze,+nawadnianie,+zak%C5%82adanie+ogrod%C3%B3w+i+prace+porz%C4%85dkowe+dla+dom%C3%B3w/data=!4m7!3m6!1s0x20c6b420a647cf95:0x5b8d2a97c2eef5cc!8m2!3d51.7473188!4d18.0760581!16s%2Fg%2F11x163c59p!19sChIJlc9HpiC0xiARzPXuwpcqjVs?authuser=0&hl=tr&rclk=1",
    "website_url": "https://zielonykalisz.eu/",
    "rating_text": "5,0",
    "stars": null,
    "number_of_reviews": null,
    "price_level": "",
    "open_hours": "",
    "extraction_timestamp": "2025-06-07T17:48:57.500Z",
    "source_name": "google",
    "source_query": "Irrigation Equipment",
    "source_country": "PL",
    "country": "Poland",
    "state": "Greater Poland Voivodeship",
    "city": "Nowe Skalmierzyce"
  },
  {
    "source_id": "ChIJSYuOewW1GkcR_fJ7HyzyUZU",
    "name": "Du-San Technika Grzewcza i Sanitarna N. Dutkowska Sp.j.",
    "category": "Du-San Technika Grzewcza i Sanitarna N. Dutkowska Sp.j.",
    "formatted_address": "4,4(56)",
    "phone_number": "",
    "source_url": "https://www.google.com/maps/place/Du-San+Technika+Grzewcza+i+Sanitarna+N.+Dutkowska+Sp.j./data=!4m7!3m6!1s0x471ab5057b8e8b49:0x9551f22c1f7bf2fd!8m2!3d51.6566034!4d17.7824445!16s%2Fg%2F11h1j8dr7!19sChIJSYuOewW1GkcR_fJ7HyzyUZU?authuser=0&hl=tr&rclk=1",
    "website_url": "https://www.facebook.com/profile.php?id=100091953871113",
    "rating_text": "4,4",
    "stars": null,
    "number_of_reviews": null,
    "price_level": "",
    "open_hours": "",
    "extraction_timestamp": "2025-06-07T17:48:57.500Z",
    "source_name": "google",
    "source_query": "Irrigation Equipment",
    "source_country": "PL",
    "country": "Poland",
    "state": "Greater Poland Voivodeship",
    "city": "Nowe Skalmierzyce"
  },
  {
    "source_id": "ChIJcSJflMfHGkcR7ic2wQFGW1E",
    "name": "P.B DOBROCH Sp.z.o.o",
    "category": "P.B DOBROCH Sp.z.o.o",
    "formatted_address": "5,0(2)",
    "phone_number": "+48505136574",
    "source_url": "https://www.google.com/maps/place/P.B+DOBROCH+Sp.z.o.o/data=!4m7!3m6!1s0x471ac7c7945f2271:0x515b4601c13627ee!8m2!3d51.7142396!4d18.0821906!16s%2Fg%2F11pysf3s6t!19sChIJcSJflMfHGkcR7ic2wQFGW1E?authuser=0&hl=tr&rclk=1",
    "website_url": "http://www.dobroch.com/",
    "rating_text": "5,0",
    "stars": null,
    "number_of_reviews": null,
    "price_level": "",
    "open_hours": "",
    "extraction_timestamp": "2025-06-07T17:48:57.501Z",
    "source_name": "google",
    "source_query": "Irrigation Equipment",
    "source_country": "PL",
    "country": "Poland",
    "state": "Greater Poland Voivodeship",
    "city": "Nowe Skalmierzyce"
  },
  {
    "source_id": "ChIJSTBKD_K1GkcRKfreWQV6Tg0",
    "name": "SOLSTI - Odnawialne Źródła Energii",
    "category": "SOLSTI - Odnawialne Źródła Energii",
    "formatted_address": "5,0(33)",
    "phone_number": "+48798996827",
    "source_url": "https://www.google.com/maps/place/SOLSTI+-+Odnawialne+%C5%B9r%C3%B3d%C5%82a+Energii/data=!4m7!3m6!1s0x471ab5f20f4a3049:0xd4e7a0559defa29!8m2!3d51.6531187!4d17.8215543!16s%2Fg%2F11vbx5htq0!19sChIJSTBKD_K1GkcRKfreWQV6Tg0?authuser=0&hl=tr&rclk=1",
    "website_url": "http://www.solsti.pl/",
    "rating_text": "5,0",
    "stars": null,
    "number_of_reviews": null,
    "price_level": "",
    "open_hours": "",
    "extraction_timestamp": "2025-06-07T17:48:57.502Z",
    "source_name": "google",
    "source_query": "Irrigation Equipment",
    "source_country": "PL",
    "country": "Poland",
    "state": "Greater Poland Voivodeship",
    "city": "Nowe Skalmierzyce"
  },
  {
    "source_id": "ChIJ3e7qfGi1GkcR81eHRAXQlJc",
    "name": "Hydro Instal",
    "category": "Hydro Instal",
    "formatted_address": "5,0(2)",
    "phone_number": "+48669102271",
    "source_url": "https://www.google.com/maps/place/Hydro+Instal/data=!4m7!3m6!1s0x471ab5687ceaeedd:0x9794d005448757f3!8m2!3d51.632322!4d18.019068!16s%2Fg%2F11j7nsv3hz!19sChIJ3e7qfGi1GkcR81eHRAXQlJc?authuser=0&hl=tr&rclk=1",
    "website_url": "",
    "rating_text": "5,0",
    "stars": null,
    "number_of_reviews": null,
    "price_level": "",
    "open_hours": "",
    "extraction_timestamp": "2025-06-07T17:48:57.503Z",
    "source_name": "google",
    "source_query": "Irrigation Equipment",
    "source_country": "PL",
    "country": "Poland",
    "state": "Greater Poland Voivodeship",
    "city": "Nowe Skalmierzyce"
  },
  {
    "source_id": "ChIJk6zIVw_FGkcRlu4FAF0fHXs",
    "name": "KOKOS INSTALACJE hydraulik Kalisz",
    "category": "KOKOS INSTALACJE hydraulik Kalisz",
    "formatted_address": "5,0(52)",
    "phone_number": "+48731869869",
    "source_url": "https://www.google.com/maps/place/KOKOS+INSTALACJE+hydraulik+Kalisz/data=!4m7!3m6!1s0x471ac50f57c8ac93:0x7b1d1f5d0005ee96!8m2!3d51.7695497!4d17.9862631!16s%2Fg%2F11r9p_zr0k!19sChIJk6zIVw_FGkcRlu4FAF0fHXs?authuser=0&hl=tr&rclk=1",
    "website_url": "https://www.hydraulikkalisz.pl/",
    "rating_text": "5,0",
    "stars": null,
    "number_of_reviews": null,
    "price_level": "",
    "open_hours": "",
    "extraction_timestamp": "2025-06-07T17:48:57.504Z",
    "source_name": "google",
    "source_query": "Irrigation Equipment",
    "source_country": "PL",
    "country": "Poland",
    "state": "Greater Poland Voivodeship",
    "city": "Nowe Skalmierzyce"
  },
  {
    "source_id": "ChIJPxAOm5q1GkcRurokjr43GYU",
    "name": "Adventure Park Piaski Szczygliczka",
    "category": "Adventure Park Piaski Szczygliczka",
    "formatted_address": "4,6(1.140)",
    "phone_number": "",
    "source_url": "https://www.google.com/maps/place/Adventure+Park+Piaski+Szczygliczka/data=!4m7!3m6!1s0x471ab59a9b0e103f:0x851937be8e24baba!8m2!3d51.6692029!4d17.8156831!16s%2Fg%2F1q6jzg7nf!19sChIJPxAOm5q1GkcRurokjr43GYU?authuser=0&hl=tr&rclk=1",
    "website_url": "https://parkprzygod.ostrow.net.pl/",
    "rating_text": "4,6",
    "stars": null,
    "number_of_reviews": null,
    "price_level": "",
    "open_hours": "",
    "extraction_timestamp": "2025-06-07T17:48:57.505Z",
    "source_name": "google",
    "source_query": "Irrigation Equipment",
    "source_country": "PL",
    "country": "Poland",
    "state": "Greater Poland Voivodeship",
    "city": "Nowe Skalmierzyce"
  },
  {
    "source_id": "ChIJQTk7DJrFGkcRgHzDxxrCkso",
    "name": "Artbix",
    "category": "Artbix",
    "formatted_address": "4,8(30)",
    "phone_number": "+48625977562",
    "source_url": "https://www.google.com/maps/place/Artbix/data=!4m7!3m6!1s0x471ac59a0c3b3941:0xca92c21ac7c37c80!8m2!3d51.8135436!4d18.0476822!16s%2Fg%2F1v62gdj0!19sChIJQTk7DJrFGkcRgHzDxxrCkso?authuser=0&hl=tr&rclk=1",
    "website_url": "http://www.artbix.pl/",
    "rating_text": "4,8",
    "stars": null,
    "number_of_reviews": null,
    "price_level": "",
    "open_hours": "",
    "extraction_timestamp": "2025-06-07T17:48:57.506Z",
    "source_name": "google",
    "source_query": "Irrigation Equipment",
    "source_country": "PL",
    "country": "Poland",
    "state": "Greater Poland Voivodeship",
    "city": "Nowe Skalmierzyce"
  },
  {
    "source_id": "ChIJEUQSmmEAG0cRKnctjvqhKBM",
    "name": "PHU \"Szwedziński\" Grzegorz Szwedziński",
    "category": "PHU \"Szwedziński\" Grzegorz Szwedziński",
    "formatted_address": "4,4(12)",
    "phone_number": "+48603870692",
    "source_url": "https://www.google.com/maps/place/PHU+%22Szwedzi%C5%84ski%22+Grzegorz+Szwedzi%C5%84ski/data=!4m7!3m6!1s0x471b00619a124411:0x1328a1fa8e2d772a!8m2!3d51.8971523!4d18.921902!16s%2Fg%2F11c1qc0dp0!19sChIJEUQSmmEAG0cRKnctjvqhKBM?authuser=0&hl=tr&rclk=1",
    "website_url": "",
    "rating_text": "4,4",
    "stars": null,
    "number_of_reviews": null,
    "price_level": "",
    "open_hours": "",
    "extraction_timestamp": "2025-06-07T17:48:57.507Z",
    "source_name": "google",
    "source_query": "Irrigation Equipment",
    "source_country": "PL",
    "country": "Poland",
    "state": "Greater Poland Voivodeship",
    "city": "Nowe Skalmierzyce"
  },
  {
    "source_id": "ChIJASCJ43ohG0cR0FpINxy2VRU",
    "name": "Szukanie wody pod studnie głębinowe - Tomografia Elektrooporowa",
    "category": "Szukanie wody pod studnie głębinowe - Tomografia Elektrooporowa",
    "formatted_address": "4,3(15)",
    "phone_number": "+48601921922",
    "source_url": "https://www.google.com/maps/place/Szukanie+wody+pod+studnie+g%C5%82%C4%99binowe+-+Tomografia+Elektrooporowa/data=!4m7!3m6!1s0x471b217ae3892001:0x1555b61c37485ad0!8m2!3d52.0171712!4d18.4578366!16s%2Fg%2F11g0g_jhzs!19sChIJASCJ43ohG0cR0FpINxy2VRU?authuser=0&hl=tr&rclk=1",
    "website_url": "https://szukanie-wody.pl/",
    "rating_text": "4,3",
    "stars": null,
    "number_of_reviews": null,
    "price_level": "",
    "open_hours": "",
    "extraction_timestamp": "2025-06-07T17:48:57.508Z",
    "source_name": "google",
    "source_query": "Irrigation Equipment",
    "source_country": "PL",
    "country": "Poland",
    "state": "Greater Poland Voivodeship",
    "city": "Nowe Skalmierzyce"
  },
  {
    "source_id": "ChIJ5ce-Fau1GkcRJ0T8Dkj90j4",
    "name": "Trzciński Waldemar. Instalacje wod-kan. c.o",
    "category": "Trzciński Waldemar. Instalacje wod-kan. c.o",
    "formatted_address": "5,0(21)",
    "phone_number": "+48505817550",
    "source_url": "https://www.google.com/maps/place/Trzci%C5%84ski+Waldemar.+Instalacje+wod-kan.+c.o/data=!4m7!3m6!1s0x471ab5ab15bec7e5:0x3ed2fd480efc4427!8m2!3d51.6463976!4d17.7901223!16s%2Fg%2F1wb8sf_v!19sChIJ5ce-Fau1GkcRJ0T8Dkj90j4?authuser=0&hl=tr&rclk=1",
    "website_url": "",
    "rating_text": "5,0",
    "stars": null,
    "number_of_reviews": null,
    "price_level": "",
    "open_hours": "",
    "extraction_timestamp": "2025-06-07T17:48:57.508Z",
    "source_name": "google",
    "source_query": "Irrigation Equipment",
    "source_country": "PL",
    "country": "Poland",
    "state": "Greater Poland Voivodeship",
    "city": "Nowe Skalmierzyce"
  },
  {
    "source_id": "ChIJTWP5_7rPGkcRlkPtLg7rUHA",
    "name": "Usługi Hydrauliczne Kalisz- Hydraulik Kalisz",
    "category": "Usługi Hydrauliczne Kalisz- Hydraulik Kalisz",
    "formatted_address": "4,4(26)",
    "phone_number": "+48663228545",
    "source_url": "https://www.google.com/maps/place/Us%C5%82ugi+Hydrauliczne+Kalisz-+Hydraulik+Kalisz/data=!4m7!3m6!1s0x471acfbafff9634d:0x7050eb0e2eed4396!8m2!3d51.807862!4d18.04582!16s%2Fg%2F11j47n1bfc!19sChIJTWP5_7rPGkcRlkPtLg7rUHA?authuser=0&hl=tr&rclk=1",
    "website_url": "https://hydraulikkalisz.com/",
    "rating_text": "4,4",
    "stars": null,
    "number_of_reviews": null,
    "price_level": "",
    "open_hours": "",
    "extraction_timestamp": "2025-06-07T17:48:57.509Z",
    "source_name": "google",
    "source_query": "Irrigation Equipment",
    "source_country": "PL",
    "country": "Poland",
    "state": "Greater Poland Voivodeship",
    "city": "Nowe Skalmierzyce"
  },
  {
    "source_id": "ChIJL6WSECc3G0cR0cIZjFQOyyM",
    "name": "Laskowiec. Garden center",
    "category": "Laskowiec. Garden center",
    "formatted_address": "4,6(245)",
    "phone_number": "+48632479236",
    "source_url": "https://www.google.com/maps/place/Laskowiec.+Garden+center/data=!4m7!3m6!1s0x471b37271092a52f:0x23cb0e548c19c2d1!8m2!3d52.2317452!4d18.3177935!16s%2Fg%2F1wk6yj3q!19sChIJL6WSECc3G0cR0cIZjFQOyyM?authuser=0&hl=tr&rclk=1",
    "website_url": "https://www.facebook.com/profile.php?id=100054492758928",
    "rating_text": "4,6",
    "stars": null,
    "number_of_reviews": null,
    "price_level": "",
    "open_hours": "",
    "extraction_timestamp": "2025-06-07T17:48:57.510Z",
    "source_name": "google",
    "source_query": "Irrigation Equipment",
    "source_country": "PL",
    "country": "Poland",
    "state": "Greater Poland Voivodeship",
    "city": "Nowe Skalmierzyce"
  }
]
