[
  {
    "source_id": "ChIJmW6iYi8eBUcRl2pHgp-4HAw",
    "name": "Instal-Met",
    "category": "Instal-Met",
    "formatted_address": "4,6(134) · ₺₺",
    "phone_number": "+48612874455",
    "source_url": "https://www.google.com/maps/place/Instal-Met/data=!4m7!3m6!1s0x47051e2f62a26e99:0xc1cb89f82476a97!8m2!3d52.087736!4d17.406122!16s%2Fg%2F1w4vhmn2!19sChIJmW6iYi8eBUcRl2pHgp-4HAw?authuser=0&hl=tr&rclk=1",
    "website_url": "",
    "rating_text": "4,6",
    "stars": null,
    "number_of_reviews": null,
    "price_level": "",
    "open_hours": "",
    "extraction_timestamp": "2025-06-07T17:32:23.953Z",
    "source_name": "google",
    "source_query": "Irrigation Equipment",
    "source_country": "PL",
    "country": "Poland",
    "state": "Greater Poland Voivodeship",
    "city": "Nowe Miasto nad Wartą"
  },
  {
    "source_id": "ChIJaTa7Yi8eBUcRF_LQrJ5Znjc",
    "name": "Dino",
    "category": "Dino",
    "formatted_address": "4,2(457)",
    "phone_number": "",
    "source_url": "https://www.google.com/maps/place/Dino/data=!4m7!3m6!1s0x47051e2f62bb3669:0x379e599eacd0f217!8m2!3d52.0845894!4d17.3997437!16s%2Fg%2F1hc90fdm3!19sChIJaTa7Yi8eBUcRF_LQrJ5Znjc?authuser=0&hl=tr&rclk=1",
    "website_url": "",
    "rating_text": "4,2",
    "stars": null,
    "number_of_reviews": null,
    "price_level": "",
    "open_hours": "",
    "extraction_timestamp": "2025-06-07T17:32:23.955Z",
    "source_name": "google",
    "source_query": "Irrigation Equipment",
    "source_country": "PL",
    "country": "Poland",
    "state": "Greater Poland Voivodeship",
    "city": "Nowe Miasto nad Wartą"
  },
  {
    "source_id": "ChIJ5Xi7K58fBUcRLjePuhz1iuY",
    "name": "Rynek",
    "category": "Rynek",
    "formatted_address": "4,0(39)",
    "phone_number": "",
    "source_url": "https://www.google.com/maps/place/Rynek/data=!4m7!3m6!1s0x47051f9f2bbb78e5:0xe68af51cba8f372e!8m2!3d52.0900261!4d17.4114708!16s%2Fg%2F11frqqh5c1!19sChIJ5Xi7K58fBUcRLjePuhz1iuY?authuser=0&hl=tr&rclk=1",
    "website_url": "",
    "rating_text": "4,0",
    "stars": null,
    "number_of_reviews": null,
    "price_level": "",
    "open_hours": "",
    "extraction_timestamp": "2025-06-07T17:32:23.956Z",
    "source_name": "google",
    "source_query": "Irrigation Equipment",
    "source_country": "PL",
    "country": "Poland",
    "state": "Greater Poland Voivodeship",
    "city": "Nowe Miasto nad Wartą"
  },
  {
    "source_id": "ChIJB6y_v5J2HEcRlDfYx3xmc9M",
    "name": "Milex irrigation systems",
    "category": "Milex irrigation systems",
    "formatted_address": "4,6(37)",
    "phone_number": "+48242775222",
    "source_url": "https://www.google.com/maps/place/Milex+irrigation+systems/data=!4m7!3m6!1s0x471c7692bfbfac07:0xd373667cc7d83794!8m2!3d52.4690634!4d19.7520904!16s%2Fg%2F1w2yy67r!19sChIJB6y_v5J2HEcRlDfYx3xmc9M?authuser=0&hl=tr&rclk=1",
    "website_url": "",
    "rating_text": "4,6",
    "stars": null,
    "number_of_reviews": null,
    "price_level": "",
    "open_hours": "",
    "extraction_timestamp": "2025-06-07T17:32:23.958Z",
    "source_name": "google",
    "source_query": "Irrigation Equipment",
    "source_country": "PL",
    "country": "Poland",
    "state": "Greater Poland Voivodeship",
    "city": "Nowe Miasto nad Wartą"
  },
  {
    "source_id": "ChIJEepCrgkfBUcRmol4jo0F1Js",
    "name": "Delikatesy Kasia",
    "category": "Delikatesy Kasia",
    "formatted_address": "4,3(29)",
    "phone_number": "",
    "source_url": "https://www.google.com/maps/place/Delikatesy+Kasia/data=!4m7!3m6!1s0x47051f09ae42ea11:0x9bd4058d8e78899a!8m2!3d52.0880688!4d17.3978712!16s%2Fg%2F11fhxxvr_b!19sChIJEepCrgkfBUcRmol4jo0F1Js?authuser=0&hl=tr&rclk=1",
    "website_url": "",
    "rating_text": "4,3",
    "stars": null,
    "number_of_reviews": null,
    "price_level": "",
    "open_hours": "",
    "extraction_timestamp": "2025-06-07T17:32:23.960Z",
    "source_name": "google",
    "source_query": "Irrigation Equipment",
    "source_country": "PL",
    "country": "Poland",
    "state": "Greater Poland Voivodeship",
    "city": "Nowe Miasto nad Wartą"
  },
  {
    "source_id": "ChIJRb9sv3EfBUcRm1a1cUpWFOk",
    "name": "Biedronka",
    "category": "Biedronka",
    "formatted_address": "3,7(35)",
    "phone_number": "+48800080010",
    "source_url": "https://www.google.com/maps/place/Biedronka/data=!4m7!3m6!1s0x47051f71bf6cbf45:0xe914564a71b5569b!8m2!3d52.0835655!4d17.4040012!16s%2Fg%2F11w_mnpnw5!19sChIJRb9sv3EfBUcRm1a1cUpWFOk?authuser=0&hl=tr&rclk=1",
    "website_url": "",
    "rating_text": "3,7",
    "stars": null,
    "number_of_reviews": null,
    "price_level": "",
    "open_hours": "",
    "extraction_timestamp": "2025-06-07T17:32:23.962Z",
    "source_name": "google",
    "source_query": "Irrigation Equipment",
    "source_country": "PL",
    "country": "Poland",
    "state": "Greater Poland Voivodeship",
    "city": "Nowe Miasto nad Wartą"
  }
]
