[
  {
    "source_id": "ChIJWXlJPMsrBEcRPoc_4Y9MVTk",
    "name": "EFLI Nowy Tomyśl Hurtownia instalacyjna, instalacje grzewcze,sanitarne, kotły,rekuperacja",
    "category": "EFLI Nowy Tomyśl Hurtownia instalacyjna, instalacje grzewcze,sanitarne, kotły,rekuperacja",
    "formatted_address": "EFLI Nowy Tomyśl Hurtownia instalacyjna, instalacje grzewcze,sanitarne, kotły,rekuperacja",
    "phone_number": "+48530359589",
    "source_url": "https://www.google.com/maps/place/EFLI+Nowy+Tomy%C5%9Bl+Hurtownia+instalacyjna,+instalacje+grzewcze,sanitarne,+kot%C5%82y,rekuperacja/data=!4m7!3m6!1s0x47042bcb3c497959:0x39554c8fe13f873e!8m2!3d52.3132212!4d16.1092063!16s%2Fg%2F11gsmmrlps!19sChIJWXlJPMsrBEcRPoc_4Y9MVTk?authuser=0&hl=tr&rclk=1",
    "website_url": "",
    "rating_text": "4,7",
    "stars": null,
    "number_of_reviews": null,
    "price_level": "",
    "open_hours": "",
    "extraction_timestamp": "2025-06-07T17:57:00.421Z",
    "source_name": "google",
    "source_query": "Irrigation Equipment",
    "source_country": "PL",
    "country": "Poland",
    "state": "Greater Poland Voivodeship",
    "city": "Nowy Tomyśl"
  },
  {
    "source_id": "ChIJpxN0LgIrBEcRLhB7ebU6T9E",
    "name": "Hydro-Kan Stroński Dariusz",
    "category": "Hydro-Kan Stroński Dariusz",
    "formatted_address": "4,5(15)",
    "phone_number": "+48614425324",
    "source_url": "https://www.google.com/maps/place/Hydro-Kan+Stro%C5%84ski+Dariusz/data=!4m7!3m6!1s0x47042b022e7413a7:0xd14f3ab5797b102e!8m2!3d52.3139579!4d16.140127!16s%2Fg%2F113k3tpxv!19sChIJpxN0LgIrBEcRLhB7ebU6T9E?authuser=0&hl=tr&rclk=1",
    "website_url": "",
    "rating_text": "4,5",
    "stars": null,
    "number_of_reviews": null,
    "price_level": "",
    "open_hours": "",
    "extraction_timestamp": "2025-06-07T17:57:00.422Z",
    "source_name": "google",
    "source_query": "Irrigation Equipment",
    "source_country": "PL",
    "country": "Poland",
    "state": "Greater Poland Voivodeship",
    "city": "Nowy Tomyśl"
  },
  {
    "source_id": "ChIJ32Hw4yjNBUcRN1A1QsAN8Qw",
    "name": "Sunrise Energy - Instalacje Fotowoltaiczne Nowy Tomyśl",
    "category": "Sunrise Energy - Instalacje Fotowoltaiczne Nowy Tomyśl",
    "formatted_address": "4,4(55)",
    "phone_number": "+48728105424",
    "source_url": "https://www.google.com/maps/place/Sunrise+Energy+-+Instalacje+Fotowoltaiczne+Nowy+Tomy%C5%9Bl/data=!4m7!3m6!1s0x4705cd28e3f061df:0xcf10dc042355037!8m2!3d52.3038678!4d16.1246078!16s%2Fg%2F11fnxvktbk!19sChIJ32Hw4yjNBUcRN1A1QsAN8Qw?authuser=0&hl=tr&rclk=1",
    "website_url": "",
    "rating_text": "4,4",
    "stars": null,
    "number_of_reviews": null,
    "price_level": "",
    "open_hours": "",
    "extraction_timestamp": "2025-06-07T17:57:00.423Z",
    "source_name": "google",
    "source_query": "Irrigation Equipment",
    "source_country": "PL",
    "country": "Poland",
    "state": "Greater Poland Voivodeship",
    "city": "Nowy Tomyśl"
  },
  {
    "source_id": "ChIJHQzxmfwqBEcR5N422VroDIc",
    "name": "Instal-Bud sp.j. Wyposażenie łazienek",
    "category": "Instal-Bud sp.j. Wyposażenie łazienek",
    "formatted_address": "4,6(21)",
    "phone_number": "+48614422197",
    "source_url": "https://www.google.com/maps/place/Instal-Bud+sp.j.+Wyposa%C5%BCenie+%C5%82azienek/data=!4m7!3m6!1s0x47042afc99f10c1d:0x870ce85ad936dee4!8m2!3d52.3169938!4d16.1305197!16s%2Fg%2F1tfhf3fk!19sChIJHQzxmfwqBEcR5N422VroDIc?authuser=0&hl=tr&rclk=1",
    "website_url": "",
    "rating_text": "4,6",
    "stars": null,
    "number_of_reviews": null,
    "price_level": "",
    "open_hours": "",
    "extraction_timestamp": "2025-06-07T17:57:00.425Z",
    "source_name": "google",
    "source_query": "Irrigation Equipment",
    "source_country": "PL",
    "country": "Poland",
    "state": "Greater Poland Voivodeship",
    "city": "Nowy Tomyśl"
  },
  {
    "source_id": "ChIJ04EEqf0qBEcRG8qjvT41Y9Y",
    "name": "Ardom Pawelscy sp.j.",
    "category": "Ardom Pawelscy sp.j.",
    "formatted_address": "4,5(70)",
    "phone_number": "+48614424100",
    "source_url": "https://www.google.com/maps/place/Ardom+Pawelscy+sp.j./data=!4m7!3m6!1s0x47042afda90481d3:0xd663353ebda3ca1b!8m2!3d52.3179329!4d16.13564!16s%2Fg%2F1v5_83jb!19sChIJ04EEqf0qBEcRG8qjvT41Y9Y?authuser=0&hl=tr&rclk=1",
    "website_url": "",
    "rating_text": "4,5",
    "stars": null,
    "number_of_reviews": null,
    "price_level": "",
    "open_hours": "",
    "extraction_timestamp": "2025-06-07T17:57:00.426Z",
    "source_name": "google",
    "source_query": "Irrigation Equipment",
    "source_country": "PL",
    "country": "Poland",
    "state": "Greater Poland Voivodeship",
    "city": "Nowy Tomyśl"
  },
  {
    "source_id": "ChIJNZa9x98qBEcRbddQoOqPDOc",
    "name": "ENERGOBOX Elektronarzędzia, Autoryzowany Diler Husqvarna",
    "category": "ENERGOBOX Elektronarzędzia, Autoryzowany Diler Husqvarna",
    "formatted_address": "ENERGOBOX Elektronarzędzia, Autoryzowany Diler Husqvarna",
    "phone_number": "+48614423992",
    "source_url": "https://www.google.com/maps/place/ENERGOBOX+Elektronarz%C4%99dzia,+Autoryzowany+Diler+Husqvarna/data=!4m7!3m6!1s0x47042adfc7bd9635:0xe70c8feaa050d76d!8m2!3d52.3065299!4d16.1336649!16s%2Fg%2F1q62cysc4!19sChIJNZa9x98qBEcRbddQoOqPDOc?authuser=0&hl=tr&rclk=1",
    "website_url": "",
    "rating_text": "4,5",
    "stars": null,
    "number_of_reviews": null,
    "price_level": "",
    "open_hours": "",
    "extraction_timestamp": "2025-06-07T17:57:00.428Z",
    "source_name": "google",
    "source_query": "Irrigation Equipment",
    "source_country": "PL",
    "country": "Poland",
    "state": "Greater Poland Voivodeship",
    "city": "Nowy Tomyśl"
  },
  {
    "source_id": "ChIJ6Rd0mQErBEcRx_TMiVIIRn8",
    "name": "Spychała Hydraulika Siłowa Pneumatyka",
    "category": "Spychała Hydraulika Siłowa Pneumatyka",
    "formatted_address": "4,7(11)",
    "phone_number": "+48602476964",
    "source_url": "https://www.google.com/maps/place/Spycha%C5%82a+Hydraulika+Si%C5%82owa+Pneumatyka/data=!4m7!3m6!1s0x47042b01997417e9:0x7f46085289ccf4c7!8m2!3d52.3202772!4d16.1438597!16s%2Fg%2F11fx9kg77p!19sChIJ6Rd0mQErBEcRx_TMiVIIRn8?authuser=0&hl=tr&rclk=1",
    "website_url": "",
    "rating_text": "4,7",
    "stars": null,
    "number_of_reviews": null,
    "price_level": "",
    "open_hours": "",
    "extraction_timestamp": "2025-06-07T17:57:00.429Z",
    "source_name": "google",
    "source_query": "Irrigation Equipment",
    "source_country": "PL",
    "country": "Poland",
    "state": "Greater Poland Voivodeship",
    "city": "Nowy Tomyśl"
  },
  {
    "source_id": "ChIJdVfIpuEqBEcRd7bvfnuwtRU",
    "name": "Stihl Nowy Tomyśl",
    "category": "Stihl Nowy Tomyśl",
    "formatted_address": "4,5(69)",
    "phone_number": "+48614424085",
    "source_url": "https://www.google.com/maps/place/Stihl+Nowy+Tomy%C5%9Bl/data=!4m7!3m6!1s0x47042ae1a6c85775:0x15b5b07b7eefb677!8m2!3d52.3084589!4d16.1299431!16s%2Fg%2F1tvdhh7k!19sChIJdVfIpuEqBEcRd7bvfnuwtRU?authuser=0&hl=tr&rclk=1",
    "website_url": "",
    "rating_text": "4,5",
    "stars": null,
    "number_of_reviews": null,
    "price_level": "",
    "open_hours": "",
    "extraction_timestamp": "2025-06-07T17:57:00.431Z",
    "source_name": "google",
    "source_query": "Irrigation Equipment",
    "source_country": "PL",
    "country": "Poland",
    "state": "Greater Poland Voivodeship",
    "city": "Nowy Tomyśl"
  },
  {
    "source_id": "ChIJ8zctTlkrBEcRGrfvHhisuf4",
    "name": "MH Wiercenie studni szukanie wody",
    "category": "MH Wiercenie studni szukanie wody",
    "formatted_address": "4,6(11)",
    "phone_number": "+48727584642",
    "source_url": "https://www.google.com/maps/place/MH+Wiercenie+studni+szukanie+wody/data=!4m7!3m6!1s0x47042b594e2d37f3:0xfeb9ac181eefb71a!8m2!3d52.3198723!4d16.1481037!16s%2Fg%2F11j3rr69p7!19sChIJ8zctTlkrBEcRGrfvHhisuf4?authuser=0&hl=tr&rclk=1",
    "website_url": "",
    "rating_text": "4,6",
    "stars": null,
    "number_of_reviews": null,
    "price_level": "",
    "open_hours": "",
    "extraction_timestamp": "2025-06-07T17:57:00.432Z",
    "source_name": "google",
    "source_query": "Irrigation Equipment",
    "source_country": "PL",
    "country": "Poland",
    "state": "Greater Poland Voivodeship",
    "city": "Nowy Tomyśl"
  },
  {
    "source_id": "ChIJVQW6suEqBEcRyG-CVtsBtuo",
    "name": "Suszarnicza Spółka OGRODNIK S.A.",
    "category": "Suszarnicza Spółka OGRODNIK S.A.",
    "formatted_address": "4,6(17)",
    "phone_number": "+48614423415",
    "source_url": "https://www.google.com/maps/place/Suszarnicza+Sp%C3%B3%C5%82ka+OGRODNIK+S.A./data=!4m7!3m6!1s0x47042ae1b2ba0555:0xeab601db56826fc8!8m2!3d52.3074682!4d16.1309471!16s%2Fg%2F1trvk3pb!19sChIJVQW6suEqBEcRyG-CVtsBtuo?authuser=0&hl=tr&rclk=1",
    "website_url": "",
    "rating_text": "4,6",
    "stars": null,
    "number_of_reviews": null,
    "price_level": "",
    "open_hours": "",
    "extraction_timestamp": "2025-06-07T17:57:00.433Z",
    "source_name": "google",
    "source_query": "Irrigation Equipment",
    "source_country": "PL",
    "country": "Poland",
    "state": "Greater Poland Voivodeship",
    "city": "Nowy Tomyśl"
  },
  {
    "source_id": "ChIJF07gl-IqBEcRgTwLJ-x4oHk",
    "name": "Firma Zborała Sp. J.",
    "category": "Firma Zborała Sp. J.",
    "formatted_address": "4,6(42)",
    "phone_number": "+48614423374",
    "source_url": "https://www.google.com/maps/place/Firma+Zbora%C5%82a+Sp.+J./data=!4m7!3m6!1s0x47042ae297e04e17:0x79a078ec270b3c81!8m2!3d52.3133686!4d16.1353329!16s%2Fg%2F1tfs9jt8!19sChIJF07gl-IqBEcRgTwLJ-x4oHk?authuser=0&hl=tr&rclk=1",
    "website_url": "",
    "rating_text": "4,6",
    "stars": null,
    "number_of_reviews": null,
    "price_level": "",
    "open_hours": "",
    "extraction_timestamp": "2025-06-07T17:57:00.435Z",
    "source_name": "google",
    "source_query": "Irrigation Equipment",
    "source_country": "PL",
    "country": "Poland",
    "state": "Greater Poland Voivodeship",
    "city": "Nowy Tomyśl"
  },
  {
    "source_id": "ChIJLb7e-uAqBEcR8vGZCxvKVso",
    "name": "Bricomarché",
    "category": "Bricomarché",
    "formatted_address": "4,1(1.483)",
    "phone_number": "+48614420023",
    "source_url": "https://www.google.com/maps/place/Bricomarch%C3%A9/data=!4m7!3m6!1s0x47042ae0fadebe2d:0xca56ca1b0b99f1f2!8m2!3d52.305736!4d16.1271565!16s%2Fg%2F11gzwqj0c!19sChIJLb7e-uAqBEcR8vGZCxvKVso?authuser=0&hl=tr&rclk=1",
    "website_url": "",
    "rating_text": "4,1",
    "stars": null,
    "number_of_reviews": null,
    "price_level": "",
    "open_hours": "",
    "extraction_timestamp": "2025-06-07T17:57:00.437Z",
    "source_name": "google",
    "source_query": "Irrigation Equipment",
    "source_country": "PL",
    "country": "Poland",
    "state": "Greater Poland Voivodeship",
    "city": "Nowy Tomyśl"
  },
  {
    "source_id": "ChIJxSS0a-UqBEcRXbcTwvsCAHA",
    "name": "Radwansport Sklep Piłkarski Nowy Tomyśl",
    "category": "Radwansport Sklep Piłkarski Nowy Tomyśl",
    "formatted_address": "4,7(40)",
    "phone_number": "+48793030222",
    "source_url": "https://www.google.com/maps/place/Radwansport+Sklep+Pi%C5%82karski+Nowy+Tomy%C5%9Bl/data=!4m7!3m6!1s0x47042ae56bb424c5:0x700002fbc213b75d!8m2!3d52.3144641!4d16.1316588!16s%2Fg%2F11c5wxfr1l!19sChIJxSS0a-UqBEcRXbcTwvsCAHA?authuser=0&hl=tr&rclk=1",
    "website_url": "",
    "rating_text": "4,7",
    "stars": null,
    "number_of_reviews": null,
    "price_level": "",
    "open_hours": "",
    "extraction_timestamp": "2025-06-07T17:57:00.439Z",
    "source_name": "google",
    "source_query": "Irrigation Equipment",
    "source_country": "PL",
    "country": "Poland",
    "state": "Greater Poland Voivodeship",
    "city": "Nowy Tomyśl"
  },
  {
    "source_id": "ChIJeR9a34ErBEcR5sX5QSX-lbY",
    "name": "Hydraulik Nowy Tomyśl | MIERZOL",
    "category": "Hydraulik Nowy Tomyśl | MIERZOL",
    "formatted_address": "5,0(7)",
    "phone_number": "+48609887764",
    "source_url": "https://www.google.com/maps/place/Hydraulik+Nowy+Tomy%C5%9Bl+%7C+MIERZOL/data=!4m7!3m6!1s0x47042b81df5a1f79:0xb695fe2541f9c5e6!8m2!3d52.31584!4d16.1260115!16s%2Fg%2F11jfq7k6zg!19sChIJeR9a34ErBEcR5sX5QSX-lbY?authuser=0&hl=tr&rclk=1",
    "website_url": "",
    "rating_text": "5,0",
    "stars": null,
    "number_of_reviews": null,
    "price_level": "",
    "open_hours": "",
    "extraction_timestamp": "2025-06-07T17:57:00.439Z",
    "source_name": "google",
    "source_query": "Irrigation Equipment",
    "source_country": "PL",
    "country": "Poland",
    "state": "Greater Poland Voivodeship",
    "city": "Nowy Tomyśl"
  },
  {
    "source_id": "ChIJI3AJUr8rBEcRopZr14izGuo",
    "name": "Tandhem",
    "category": "Tandhem",
    "formatted_address": "4,7(38)",
    "phone_number": "+48732650650",
    "source_url": "https://www.google.com/maps/place/Tandhem/data=!4m7!3m6!1s0x47042bbf52097023:0xea1ab388d76b96a2!8m2!3d52.3177784!4d16.1363292!16s%2Fg%2F11fq_y1g46!19sChIJI3AJUr8rBEcRopZr14izGuo?authuser=0&hl=tr&rclk=1",
    "website_url": "",
    "rating_text": "4,7",
    "stars": null,
    "number_of_reviews": null,
    "price_level": "",
    "open_hours": "",
    "extraction_timestamp": "2025-06-07T17:57:00.441Z",
    "source_name": "google",
    "source_query": "Irrigation Equipment",
    "source_country": "PL",
    "country": "Poland",
    "state": "Greater Poland Voivodeship",
    "city": "Nowy Tomyśl"
  },
  {
    "source_id": "ChIJpSHK6_YqBEcRdgFqWmW5ucE",
    "name": "Toolproject Polcyn Sp. z o.o.",
    "category": "Toolproject Polcyn Sp. z o.o.",
    "formatted_address": "4,2(5)",
    "phone_number": "+48614445300",
    "source_url": "https://www.google.com/maps/place/Toolproject+Polcyn+Sp.+z+o.o./data=!4m7!3m6!1s0x47042af6ebca21a5:0xc1b9b9655a6a0176!8m2!3d52.3268573!4d16.1169305!16s%2Fg%2F1hc7qmj5l!19sChIJpSHK6_YqBEcRdgFqWmW5ucE?authuser=0&hl=tr&rclk=1",
    "website_url": "",
    "rating_text": "4,2",
    "stars": null,
    "number_of_reviews": null,
    "price_level": "",
    "open_hours": "",
    "extraction_timestamp": "2025-06-07T17:57:00.441Z",
    "source_name": "google",
    "source_query": "Irrigation Equipment",
    "source_country": "PL",
    "country": "Poland",
    "state": "Greater Poland Voivodeship",
    "city": "Nowy Tomyśl"
  },
  {
    "source_id": "ChIJCz9noa0rBEcR8NdTUy4YbRA",
    "name": "Fertyk Michał. Firma handlowo - usługowa",
    "category": "Fertyk Michał. Firma handlowo - usługowa",
    "formatted_address": "4,6(8)",
    "phone_number": "+48692113711",
    "source_url": "https://www.google.com/maps/place/Fertyk+Micha%C5%82.+Firma+handlowo+-+us%C5%82ugowa/data=!4m7!3m6!1s0x47042bada1673f0b:0x106d182e5353d7f0!8m2!3d52.3311815!4d16.1524217!16s%2Fg%2F11cmvx9n_c!19sChIJCz9noa0rBEcR8NdTUy4YbRA?authuser=0&hl=tr&rclk=1",
    "website_url": "",
    "rating_text": "4,6",
    "stars": null,
    "number_of_reviews": null,
    "price_level": "",
    "open_hours": "",
    "extraction_timestamp": "2025-06-07T17:57:00.442Z",
    "source_name": "google",
    "source_query": "Irrigation Equipment",
    "source_country": "PL",
    "country": "Poland",
    "state": "Greater Poland Voivodeship",
    "city": "Nowy Tomyśl"
  },
  {
    "source_id": "ChIJRSuAw7QzBEcRydHbwdyC2p8",
    "name": "Pronet s.c. Krajewski, Chojnacki",
    "category": "Pronet s.c. Krajewski, Chojnacki",
    "formatted_address": "Pronet s.c. Krajewski, Chojnacki",
    "phone_number": "+48616222357",
    "source_url": "https://www.google.com/maps/place/Pronet+s.c.+Krajewski,+Chojnacki/data=!4m7!3m6!1s0x470433b4c3802b45:0x9fda82dcc1dbd1c9!8m2!3d52.3149189!4d16.142505!16s%2Fg%2F1pv00z3wb!19sChIJRSuAw7QzBEcRydHbwdyC2p8?authuser=0&hl=tr&rclk=1",
    "website_url": "",
    "rating_text": "5,0",
    "stars": null,
    "number_of_reviews": null,
    "price_level": "",
    "open_hours": "",
    "extraction_timestamp": "2025-06-07T17:57:00.443Z",
    "source_name": "google",
    "source_query": "Irrigation Equipment",
    "source_country": "PL",
    "country": "Poland",
    "state": "Greater Poland Voivodeship",
    "city": "Nowy Tomyśl"
  },
  {
    "source_id": "ChIJ76CAwvAqBEcR6LwuDTFRelY",
    "name": "Związek Spółek Wodnych. Konserwacja urządzeń melioracyjnych",
    "category": "Związek Spółek Wodnych. Konserwacja urządzeń melioracyjnych",
    "formatted_address": "3,0(1)",
    "phone_number": "+48784542487",
    "source_url": "https://www.google.com/maps/place/Zwi%C4%85zek+Sp%C3%B3%C5%82ek+Wodnych.+Konserwacja+urz%C4%85dze%C5%84+melioracyjnych/data=!4m7!3m6!1s0x47042af0c280a0ef:0x567a51310d2ebce8!8m2!3d52.3208084!4d16.1221083!16s%2Fg%2F1td0x53x!19sChIJ76CAwvAqBEcR6LwuDTFRelY?authuser=0&hl=tr&rclk=1",
    "website_url": "",
    "rating_text": "3,0",
    "stars": null,
    "number_of_reviews": null,
    "price_level": "",
    "open_hours": "",
    "extraction_timestamp": "2025-06-07T17:57:00.445Z",
    "source_name": "google",
    "source_query": "Irrigation Equipment",
    "source_country": "PL",
    "country": "Poland",
    "state": "Greater Poland Voivodeship",
    "city": "Nowy Tomyśl"
  },
  {
    "source_id": "ChIJcSChdPsqBEcRvvxcsXYePag",
    "name": "Elektro-Mech Krawczyk, Autoryzowany Diler STIGA, FOGO oraz Lincoln Electric",
    "category": "Elektro-Mech Krawczyk, Autoryzowany Diler STIGA, FOGO oraz Lincoln Electric",
    "formatted_address": "Elektro-Mech Krawczyk, Autoryzowany Diler STIGA, FOGO oraz Lincoln Electric",
    "phone_number": "+48614451151",
    "source_url": "https://www.google.com/maps/place/Elektro-Mech+Krawczyk,+Autoryzowany+Diler+STIGA,+FOGO+oraz+Lincoln+Electric/data=!4m7!3m6!1s0x47042afb74a12071:0xa83d1e76b15cfcbe!8m2!3d52.3448765!4d16.104781!16s%2Fg%2F11byyj7jtl!19sChIJcSChdPsqBEcRvvxcsXYePag?authuser=0&hl=tr&rclk=1",
    "website_url": "",
    "rating_text": "4,8",
    "stars": null,
    "number_of_reviews": null,
    "price_level": "",
    "open_hours": "",
    "extraction_timestamp": "2025-06-07T17:57:00.446Z",
    "source_name": "google",
    "source_query": "Irrigation Equipment",
    "source_country": "PL",
    "country": "Poland",
    "state": "Greater Poland Voivodeship",
    "city": "Nowy Tomyśl"
  },
  {
    "source_id": "ChIJSz8A5fAqBEcRHPadMfUZANA",
    "name": "Intermarche",
    "category": "Intermarche",
    "formatted_address": "4,0(499)",
    "phone_number": "+48614425180",
    "source_url": "https://www.google.com/maps/place/Intermarche/data=!4m7!3m6!1s0x47042af0e5003f4b:0xd00019f5319df61c!8m2!3d52.3204959!4d16.121283!16s%2Fg%2F1vfwbjy3!19sChIJSz8A5fAqBEcRHPadMfUZANA?authuser=0&hl=tr&rclk=1",
    "website_url": "",
    "rating_text": "4,0",
    "stars": null,
    "number_of_reviews": null,
    "price_level": "",
    "open_hours": "",
    "extraction_timestamp": "2025-06-07T17:57:00.447Z",
    "source_name": "google",
    "source_query": "Irrigation Equipment",
    "source_country": "PL",
    "country": "Poland",
    "state": "Greater Poland Voivodeship",
    "city": "Nowy Tomyśl"
  },
  {
    "source_id": "ChIJX36_GeMqBEcRsf7Dg_tQLik",
    "name": "Galas Andrzej. Przezwajanie silników i naprawa elektronarzędzi",
    "category": "Galas Andrzej. Przezwajanie silników i naprawa elektronarzędzi",
    "formatted_address": "5,0(11)",
    "phone_number": "+48614422527",
    "source_url": "https://www.google.com/maps/place/Galas+Andrzej.+Przezwajanie+silnik%C3%B3w+i+naprawa+elektronarz%C4%99dzi/data=!4m7!3m6!1s0x47042ae319bf7e5f:0x292e50fb83c3feb1!8m2!3d52.3134426!4d16.1318351!16s%2Fg%2F1tfdc4vr!19sChIJX36_GeMqBEcRsf7Dg_tQLik?authuser=0&hl=tr&rclk=1",
    "website_url": "",
    "rating_text": "5,0",
    "stars": null,
    "number_of_reviews": null,
    "price_level": "",
    "open_hours": "",
    "extraction_timestamp": "2025-06-07T17:57:00.448Z",
    "source_name": "google",
    "source_query": "Irrigation Equipment",
    "source_country": "PL",
    "country": "Poland",
    "state": "Greater Poland Voivodeship",
    "city": "Nowy Tomyśl"
  },
  {
    "source_id": "ChIJD32WL5wrBEcRCnD9B8NLpBw",
    "name": "Kaufland Nowy Tomyśl",
    "category": "Kaufland Nowy Tomyśl",
    "formatted_address": "4,2(2.305)",
    "phone_number": "+48800300062",
    "source_url": "https://www.google.com/maps/place/Kaufland+Nowy+Tomy%C5%9Bl/data=!4m7!3m6!1s0x47042b9c2f967d0f:0x1ca44bc307fd700a!8m2!3d52.3099632!4d16.1318227!16s%2Fg%2F11bx8grn_0!19sChIJD32WL5wrBEcRCnD9B8NLpBw?authuser=0&hl=tr&rclk=1",
    "website_url": "",
    "rating_text": "4,2",
    "stars": null,
    "number_of_reviews": null,
    "price_level": "",
    "open_hours": "",
    "extraction_timestamp": "2025-06-07T17:57:00.449Z",
    "source_name": "google",
    "source_query": "Irrigation Equipment",
    "source_country": "PL",
    "country": "Poland",
    "state": "Greater Poland Voivodeship",
    "city": "Nowy Tomyśl"
  },
  {
    "source_id": "ChIJlw10m_4rBEcRGicW3WL_TzU",
    "name": "NIVAN Serwis Naprawa Maszyn Dariusz Wittig",
    "category": "NIVAN Serwis Naprawa Maszyn Dariusz Wittig",
    "formatted_address": "5,0(1)",
    "phone_number": "+48725755898",
    "source_url": "https://www.google.com/maps/place/NIVAN+Serwis+Naprawa+Maszyn+Dariusz+Wittig/data=!4m7!3m6!1s0x47042bfe9b740d97:0x354fff62dd16271a!8m2!3d52.3173073!4d16.1397609!16s%2Fg%2F11tsdc4zms!19sChIJlw10m_4rBEcRGicW3WL_TzU?authuser=0&hl=tr&rclk=1",
    "website_url": "",
    "rating_text": "5,0",
    "stars": null,
    "number_of_reviews": null,
    "price_level": "",
    "open_hours": "",
    "extraction_timestamp": "2025-06-07T17:57:00.450Z",
    "source_name": "google",
    "source_query": "Irrigation Equipment",
    "source_country": "PL",
    "country": "Poland",
    "state": "Greater Poland Voivodeship",
    "city": "Nowy Tomyśl"
  },
  {
    "source_id": "ChIJxSr_nfYqBEcRkgjN2ZZykPg",
    "name": "SYR",
    "category": "SYR",
    "formatted_address": "4,3(12)",
    "phone_number": "",
    "source_url": "https://www.google.com/maps/place/SYR/data=!4m7!3m6!1s0x47042af69dff2ac5:0xf8907296d9cd0892!8m2!3d52.3245142!4d16.120849!16s%2Fg%2F11f54458bt!19sChIJxSr_nfYqBEcRkgjN2ZZykPg?authuser=0&hl=tr&rclk=1",
    "website_url": "",
    "rating_text": "4,3",
    "stars": null,
    "number_of_reviews": null,
    "price_level": "",
    "open_hours": "",
    "extraction_timestamp": "2025-06-07T17:57:00.451Z",
    "source_name": "google",
    "source_query": "Irrigation Equipment",
    "source_country": "PL",
    "country": "Poland",
    "state": "Greater Poland Voivodeship",
    "city": "Nowy Tomyśl"
  },
  {
    "source_id": "ChIJmZ2df-EqBEcR9D9tH2MyiDA",
    "name": "Martes Sport",
    "category": "Martes Sport",
    "formatted_address": "3,9(135)",
    "phone_number": "+48571445655",
    "source_url": "https://www.google.com/maps/place/Martes+Sport/data=!4m7!3m6!1s0x47042ae17f9d9d99:0x308832631f6d3ff4!8m2!3d52.3100841!4d16.1304483!16s%2Fg%2F11bx9w134_!19sChIJmZ2df-EqBEcR9D9tH2MyiDA?authuser=0&hl=tr&rclk=1",
    "website_url": "",
    "rating_text": "3,9",
    "stars": null,
    "number_of_reviews": null,
    "price_level": "",
    "open_hours": "",
    "extraction_timestamp": "2025-06-07T17:57:00.453Z",
    "source_name": "google",
    "source_query": "Irrigation Equipment",
    "source_country": "PL",
    "country": "Poland",
    "state": "Greater Poland Voivodeship",
    "city": "Nowy Tomyśl"
  },
  {
    "source_id": "ChIJ6S2QpPsqBEcRBoeyFVDhVFk",
    "name": "Biedronka",
    "category": "Biedronka",
    "formatted_address": "4,1(859)",
    "phone_number": "+48800080010",
    "source_url": "https://www.google.com/maps/place/Biedronka/data=!4m7!3m6!1s0x47042afba4902de9:0x5954e15015b28706!8m2!3d52.3192029!4d16.1286464!16s%2Fg%2F12q4x7ssk!19sChIJ6S2QpPsqBEcRBoeyFVDhVFk?authuser=0&hl=tr&rclk=1",
    "website_url": "",
    "rating_text": "4,1",
    "stars": null,
    "number_of_reviews": null,
    "price_level": "",
    "open_hours": "",
    "extraction_timestamp": "2025-06-07T17:57:00.453Z",
    "source_name": "google",
    "source_query": "Irrigation Equipment",
    "source_country": "PL",
    "country": "Poland",
    "state": "Greater Poland Voivodeship",
    "city": "Nowy Tomyśl"
  },
  {
    "source_id": "ChIJ2ZW9x98qBEcRPryah5JpShU",
    "name": "sklep ROLMET",
    "category": "sklep ROLMET",
    "formatted_address": "4,2(12)",
    "phone_number": "+48614425443",
    "source_url": "https://www.google.com/maps/place/sklep+ROLMET/data=!4m7!3m6!1s0x47042adfc7bd95d9:0x154a6992879abc3e!8m2!3d52.3037321!4d16.1278791!16s%2Fg%2F1vr3bwhn!19sChIJ2ZW9x98qBEcRPryah5JpShU?authuser=0&hl=tr&rclk=1",
    "website_url": "",
    "rating_text": "4,2",
    "stars": null,
    "number_of_reviews": null,
    "price_level": "",
    "open_hours": "",
    "extraction_timestamp": "2025-06-07T17:57:00.454Z",
    "source_name": "google",
    "source_query": "Irrigation Equipment",
    "source_country": "PL",
    "country": "Poland",
    "state": "Greater Poland Voivodeship",
    "city": "Nowy Tomyśl"
  },
  {
    "source_id": "ChIJqeTzmvwqBEcR_OAqBXiy8vo",
    "name": "Cypisek. Sklep z art. dziecięcymi. Nawrot M.",
    "category": "Cypisek. Sklep z art. dziecięcymi. Nawrot M.",
    "formatted_address": "4,5(82)",
    "phone_number": "+48614423760",
    "source_url": "https://www.google.com/maps/place/Cypisek.+Sklep+z+art.+dzieci%C4%99cymi.+Nawrot+M./data=!4m7!3m6!1s0x47042afc9af3e4a9:0xfaf2b278052ae0fc!8m2!3d52.3173398!4d16.1316377!16s%2Fg%2F11gzgdgpt!19sChIJqeTzmvwqBEcR_OAqBXiy8vo?authuser=0&hl=tr&rclk=1",
    "website_url": "",
    "rating_text": "4,5",
    "stars": null,
    "number_of_reviews": null,
    "price_level": "",
    "open_hours": "",
    "extraction_timestamp": "2025-06-07T17:57:00.455Z",
    "source_name": "google",
    "source_query": "Irrigation Equipment",
    "source_country": "PL",
    "country": "Poland",
    "state": "Greater Poland Voivodeship",
    "city": "Nowy Tomyśl"
  }
]
