[
  {
    "source_id": "ChIJU3OjlcZsBEcRgZ-_uJA0U-E",
    "name": "SKLEP INSTALACYJNY W MŁYNIE S.C.JAWORSKI SZYMON,JAWORSKA MARTA",
    "category": "SKLEP INSTALACYJNY W MŁYNIE S.C.JAWORSKI SZYMON,JAWORSKA MARTA",
    "formatted_address": "SKLEP INSTALACYJNY W MŁYNIE S.C.JAWORSKI SZYMON,JAWORSKA MARTA",
    "phone_number": "+48501663902",
    "source_url": "https://www.google.com/maps/place/SKLEP+INSTALACYJNY+W+M%C5%81YNIE+S.C.JAWORSKI+SZYMON,JAWORSKA+MARTA/data=!4m7!3m6!1s0x47046cc695a37353:0xe1533490b8bf9f81!8m2!3d52.6375135!4d16.8138133!16s%2Fg%2F11c0xqk8ty!19sChIJU3OjlcZsBEcRgZ-_uJA0U-E?authuser=0&hl=tr&rclk=1",
    "website_url": "",
    "rating_text": "4,8",
    "stars": null,
    "number_of_reviews": null,
    "price_level": "",
    "open_hours": "",
    "extraction_timestamp": "2025-06-07T17:41:43.150Z",
    "source_name": "google",
    "source_query": "Irrigation Equipment",
    "source_country": "PL",
    "country": "Poland",
    "state": "Greater Poland Voivodeship",
    "city": "Oborniki"
  },
  {
    "source_id": "ChIJjxN0GLZsBEcRyr5wLw-A4kM",
    "name": "DELTA Czartoszewski i Czarnek Sp. o.o.",
    "category": "DELTA Czartoszewski i Czarnek Sp. o.o.",
    "formatted_address": "4,6(107)",
    "phone_number": "+48612970037",
    "source_url": "https://www.google.com/maps/place/DELTA+Czartoszewski+i+Czarnek+Sp.+o.o./data=!4m7!3m6!1s0x47046cb61874138f:0x43e2800f2f70beca!8m2!3d52.6459066!4d16.8069438!16s%2Fg%2F1ptw40gk8!19sChIJjxN0GLZsBEcRyr5wLw-A4kM?authuser=0&hl=tr&rclk=1",
    "website_url": "",
    "rating_text": "4,6",
    "stars": null,
    "number_of_reviews": null,
    "price_level": "",
    "open_hours": "",
    "extraction_timestamp": "2025-06-07T17:41:43.151Z",
    "source_name": "google",
    "source_query": "Irrigation Equipment",
    "source_country": "PL",
    "country": "Poland",
    "state": "Greater Poland Voivodeship",
    "city": "Oborniki"
  },
  {
    "source_id": "ChIJJSKYSsRsBEcR-JEvV5NbtH8",
    "name": "POMPY PLUS INSTALACJE",
    "category": "POMPY PLUS INSTALACJE",
    "formatted_address": "4,7(91)",
    "phone_number": "+48784931522",
    "source_url": "https://www.google.com/maps/place/POMPY+PLUS+INSTALACJE/data=!4m7!3m6!1s0x47046cc44a982225:0x7fb45b93572f91f8!8m2!3d52.6520497!4d16.8193102!16s%2Fg%2F1tdb_bml!19sChIJJSKYSsRsBEcR-JEvV5NbtH8?authuser=0&hl=tr&rclk=1",
    "website_url": "",
    "rating_text": "4,7",
    "stars": null,
    "number_of_reviews": null,
    "price_level": "",
    "open_hours": "",
    "extraction_timestamp": "2025-06-07T17:41:43.152Z",
    "source_name": "google",
    "source_query": "Irrigation Equipment",
    "source_country": "PL",
    "country": "Poland",
    "state": "Greater Poland Voivodeship",
    "city": "Oborniki"
  },
  {
    "source_id": "ChIJQ9wZL7ZsBEcRMjrLLkLzUpI",
    "name": "Materiały ścierne i pilarki Stihl - Norminet.pl",
    "category": "Materiały ścierne i pilarki Stihl - Norminet.pl",
    "formatted_address": "5,0(3)",
    "phone_number": "+48612970039",
    "source_url": "https://www.google.com/maps/place/Materia%C5%82y+%C5%9Bcierne+i+pilarki+Stihl+-+Norminet.pl/data=!4m7!3m6!1s0x47046cb62f19dc43:0x9252f3422ecb3a32!8m2!3d52.6459363!4d16.8070769!16s%2Fg%2F11f5jq0xwg!19sChIJQ9wZL7ZsBEcRMjrLLkLzUpI?authuser=0&hl=tr&rclk=1",
    "website_url": "",
    "rating_text": "5,0",
    "stars": null,
    "number_of_reviews": null,
    "price_level": "",
    "open_hours": "",
    "extraction_timestamp": "2025-06-07T17:41:43.152Z",
    "source_name": "google",
    "source_query": "Irrigation Equipment",
    "source_country": "PL",
    "country": "Poland",
    "state": "Greater Poland Voivodeship",
    "city": "Oborniki"
  },
  {
    "source_id": "ChIJ1SHxTLlsBEcR1wZtcF8k0pI",
    "name": "GalaProdukt Sp. z o.o. Ecoraster, EcoBloxx, kratka parkingowa i trawnikowa, maty gumowe, systemy ochrony drzew, obrzeża",
    "category": "GalaProdukt Sp. z o.o. Ecoraster, EcoBloxx, kratka parkingowa i trawnikowa, maty gumowe, systemy ochrony drzew, obrzeża",
    "formatted_address": "GalaProdukt Sp. z o.o. Ecoraster, EcoBloxx, kratka parkingowa i trawnikowa, maty gumowe, systemy ochrony drzew, obrzeża",
    "phone_number": "+48612967295",
    "source_url": "https://www.google.com/maps/place/GalaProdukt+Sp.+z+o.o.+Ecoraster,+EcoBloxx,+kratka+parkingowa+i+trawnikowa,+maty+gumowe,+systemy+ochrony+drzew,+obrze%C5%BCa/data=!4m7!3m6!1s0x47046cb94cf121d5:0x92d2245f706d06d7!8m2!3d52.6403377!4d16.8166215!16s%2Fg%2F1vbl68kl!19sChIJ1SHxTLlsBEcR1wZtcF8k0pI?authuser=0&hl=tr&rclk=1",
    "website_url": "",
    "rating_text": "4,8",
    "stars": null,
    "number_of_reviews": null,
    "price_level": "",
    "open_hours": "",
    "extraction_timestamp": "2025-06-07T17:41:43.152Z",
    "source_name": "google",
    "source_query": "Irrigation Equipment",
    "source_country": "PL",
    "country": "Poland",
    "state": "Greater Poland Voivodeship",
    "city": "Oborniki"
  },
  {
    "source_id": "ChIJrZizrt9sBEcRogpOxMAVFoU",
    "name": "Denar Marek Dembiński and Partners General Partnership",
    "category": "Denar Marek Dembiński and Partners General Partnership",
    "formatted_address": "4,7(684)",
    "phone_number": "+48612970475",
    "source_url": "https://www.google.com/maps/place/Denar+Marek+Dembi%C5%84ski+and+Partners+General+Partnership/data=!4m7!3m6!1s0x47046cdfaeb398ad:0x851615c0c44e0aa2!8m2!3d52.640578!4d16.815288!16s%2Fg%2F1tdydb6q!19sChIJrZizrt9sBEcRogpOxMAVFoU?authuser=0&hl=tr&rclk=1",
    "website_url": "",
    "rating_text": "4,7",
    "stars": null,
    "number_of_reviews": null,
    "price_level": "",
    "open_hours": "",
    "extraction_timestamp": "2025-06-07T17:41:43.153Z",
    "source_name": "google",
    "source_query": "Irrigation Equipment",
    "source_country": "PL",
    "country": "Poland",
    "state": "Greater Poland Voivodeship",
    "city": "Oborniki"
  },
  {
    "source_id": "ChIJr5izrt9sBEcRnXR3tr8F9pg",
    "name": "ProZAD - baseny, zadaszenia i przykrycia basenowe, wanny SPA",
    "category": "ProZAD - baseny, zadaszenia i przykrycia basenowe, wanny SPA",
    "formatted_address": "ProZAD - baseny, zadaszenia i przykrycia basenowe, wanny SPA",
    "phone_number": "+48511052212",
    "source_url": "https://www.google.com/maps/place/ProZAD+-+baseny,+zadaszenia+i+przykrycia+basenowe,+wanny+SPA/data=!4m7!3m6!1s0x47046cdfaeb398af:0x98f605bfb677749d!8m2!3d52.6605483!4d16.8328332!16s%2Fg%2F11h01x8_w8!19sChIJr5izrt9sBEcRnXR3tr8F9pg?authuser=0&hl=tr&rclk=1",
    "website_url": "",
    "rating_text": "5,0",
    "stars": null,
    "number_of_reviews": null,
    "price_level": "",
    "open_hours": "",
    "extraction_timestamp": "2025-06-07T17:41:43.154Z",
    "source_name": "google",
    "source_query": "Irrigation Equipment",
    "source_country": "PL",
    "country": "Poland",
    "state": "Greater Poland Voivodeship",
    "city": "Oborniki"
  },
  {
    "source_id": "ChIJrVtoAsdsBEcRyWgSdbKlgXU",
    "name": "Bricomarché",
    "category": "Bricomarché",
    "formatted_address": "4,1(1.215)",
    "phone_number": "+48502359265",
    "source_url": "https://www.google.com/maps/place/Bricomarch%C3%A9/data=!4m7!3m6!1s0x47046cc702685bad:0x7581a5b2751268c9!8m2!3d52.646507!4d16.8179207!16s%2Fg%2F11fzfdnmv9!19sChIJrVtoAsdsBEcRyWgSdbKlgXU?authuser=0&hl=tr&rclk=1",
    "website_url": "",
    "rating_text": "4,1",
    "stars": null,
    "number_of_reviews": null,
    "price_level": "",
    "open_hours": "",
    "extraction_timestamp": "2025-06-07T17:41:43.156Z",
    "source_name": "google",
    "source_query": "Irrigation Equipment",
    "source_country": "PL",
    "country": "Poland",
    "state": "Greater Poland Voivodeship",
    "city": "Oborniki"
  },
  {
    "source_id": "ChIJmSZ9D7ZsBEcRHnfQfyYHq3U",
    "name": "PSB Rajbud Bednarz",
    "category": "PSB Rajbud Bednarz",
    "formatted_address": "4,4(287)",
    "phone_number": "+48612974030",
    "source_url": "https://www.google.com/maps/place/PSB+Rajbud+Bednarz/data=!4m7!3m6!1s0x47046cb60f7d2699:0x75ab07267fd0771e!8m2!3d52.6460059!4d16.8048721!16s%2Fg%2F1tk6tmb0!19sChIJmSZ9D7ZsBEcRHnfQfyYHq3U?authuser=0&hl=tr&rclk=1",
    "website_url": "",
    "rating_text": "4,4",
    "stars": null,
    "number_of_reviews": null,
    "price_level": "",
    "open_hours": "",
    "extraction_timestamp": "2025-06-07T17:41:43.157Z",
    "source_name": "google",
    "source_query": "Irrigation Equipment",
    "source_country": "PL",
    "country": "Poland",
    "state": "Greater Poland Voivodeship",
    "city": "Oborniki"
  },
  {
    "source_id": "ChIJrZizrt9sBEcRsKp_kTQh6Qc",
    "name": "Centrala Nasienna",
    "category": "Centrala Nasienna",
    "formatted_address": "4,5(53)",
    "phone_number": "+48612961295",
    "source_url": "https://www.google.com/maps/place/Centrala+Nasienna/data=!4m7!3m6!1s0x47046cdfaeb398ad:0x7e92134917faab0!8m2!3d52.6606216!4d16.8326168!16s%2Fg%2F1tk6z5vb!19sChIJrZizrt9sBEcRsKp_kTQh6Qc?authuser=0&hl=tr&rclk=1",
    "website_url": "",
    "rating_text": "4,5",
    "stars": null,
    "number_of_reviews": null,
    "price_level": "",
    "open_hours": "",
    "extraction_timestamp": "2025-06-07T17:41:43.158Z",
    "source_name": "google",
    "source_query": "Irrigation Equipment",
    "source_country": "PL",
    "country": "Poland",
    "state": "Greater Poland Voivodeship",
    "city": "Oborniki"
  },
  {
    "source_id": "ChIJVVb0ipUTBEcRk5bn6mHCIpE",
    "name": "Filtry do wody, stacje zmiękczające MW Serwis",
    "category": "Filtry do wody, stacje zmiękczające MW Serwis",
    "formatted_address": "Filtry do wody, stacje zmiękczające MW Serwis",
    "phone_number": "+48660448769",
    "source_url": "https://www.google.com/maps/place/Filtry+do+wody,+stacje+zmi%C4%99kczaj%C4%85ce+MW+Serwis/data=!4m7!3m6!1s0x470413958af45655:0x9122c261eae79693!8m2!3d52.6538028!4d16.7942426!16s%2Fg%2F11h6cxs9jh!19sChIJVVb0ipUTBEcRk5bn6mHCIpE?authuser=0&hl=tr&rclk=1",
    "website_url": "",
    "rating_text": "5,0",
    "stars": null,
    "number_of_reviews": null,
    "price_level": "",
    "open_hours": "",
    "extraction_timestamp": "2025-06-07T17:41:43.159Z",
    "source_name": "google",
    "source_query": "Irrigation Equipment",
    "source_country": "PL",
    "country": "Poland",
    "state": "Greater Poland Voivodeship",
    "city": "Oborniki"
  },
  {
    "source_id": "ChIJtb7mdMBsBEcR4YuU0d7jXx0",
    "name": "Technika Narzędziowa GAMFLEX",
    "category": "Technika Narzędziowa GAMFLEX",
    "formatted_address": "1,0(1)",
    "phone_number": "+48507097258",
    "source_url": "https://www.google.com/maps/place/Technika+Narz%C4%99dziowa+GAMFLEX/data=!4m7!3m6!1s0x47046cc074e6beb5:0x1d5fe3ded1948be1!8m2!3d52.6439376!4d16.8246531!16s%2Fg%2F11cs2gw3g2!19sChIJtb7mdMBsBEcR4YuU0d7jXx0?authuser=0&hl=tr&rclk=1",
    "website_url": "",
    "rating_text": "1,0",
    "stars": null,
    "number_of_reviews": null,
    "price_level": "",
    "open_hours": "",
    "extraction_timestamp": "2025-06-07T17:41:43.159Z",
    "source_name": "google",
    "source_query": "Irrigation Equipment",
    "source_country": "PL",
    "country": "Poland",
    "state": "Greater Poland Voivodeship",
    "city": "Oborniki"
  },
  {
    "source_id": "ChIJK_FO38dsBEcRdDWM1osoPSY",
    "name": "Makesport Polska",
    "category": "Makesport Polska",
    "formatted_address": "4,4(23)",
    "phone_number": "+48517799021",
    "source_url": "https://www.google.com/maps/place/Makesport+Polska/data=!4m7!3m6!1s0x47046cc7df4ef12b:0x263d288bd68c3574!8m2!3d52.6471479!4d16.811674!16s%2Fg%2F11hd5f90vz!19sChIJK_FO38dsBEcRdDWM1osoPSY?authuser=0&hl=tr&rclk=1",
    "website_url": "",
    "rating_text": "4,4",
    "stars": null,
    "number_of_reviews": null,
    "price_level": "",
    "open_hours": "",
    "extraction_timestamp": "2025-06-07T17:41:43.160Z",
    "source_name": "google",
    "source_query": "Irrigation Equipment",
    "source_country": "PL",
    "country": "Poland",
    "state": "Greater Poland Voivodeship",
    "city": "Oborniki"
  },
  {
    "source_id": "ChIJQaeRo8RtBEcRQJRsNuDzVNE",
    "name": "Usługi Remontowo-Budowlane Aleksander Szeliga",
    "category": "Usługi Remontowo-Budowlane Aleksander Szeliga",
    "formatted_address": "4,2(5)",
    "phone_number": "+48727932480",
    "source_url": "https://www.google.com/maps/place/Us%C5%82ugi+Remontowo-Budowlane+Aleksander+Szeliga/data=!4m7!3m6!1s0x47046dc4a391a741:0xd154f3e0366c9440!8m2!3d52.6576077!4d16.8257604!16s%2Fg%2F11tg9nmyp3!19sChIJQaeRo8RtBEcRQJRsNuDzVNE?authuser=0&hl=tr&rclk=1",
    "website_url": "",
    "rating_text": "4,2",
    "stars": null,
    "number_of_reviews": null,
    "price_level": "",
    "open_hours": "",
    "extraction_timestamp": "2025-06-07T17:41:43.161Z",
    "source_name": "google",
    "source_query": "Irrigation Equipment",
    "source_country": "PL",
    "country": "Poland",
    "state": "Greater Poland Voivodeship",
    "city": "Oborniki"
  },
  {
    "source_id": "ChIJWey5mawTBEcRcMEvoX5ilTU",
    "name": "P.W. DOMSI Dominik Człapa",
    "category": "P.W. DOMSI Dominik Człapa",
    "formatted_address": "5,0(4)",
    "phone_number": "+48607453283",
    "source_url": "https://www.google.com/maps/place/P.W.+DOMSI+Dominik+Cz%C5%82apa/data=!4m7!3m6!1s0x470413ac99b9ec59:0x3595627ea12fc170!8m2!3d52.6508707!4d16.7918628!16s%2Fg%2F11ptylb4bh!19sChIJWey5mawTBEcRcMEvoX5ilTU?authuser=0&hl=tr&rclk=1",
    "website_url": "",
    "rating_text": "5,0",
    "stars": null,
    "number_of_reviews": null,
    "price_level": "",
    "open_hours": "",
    "extraction_timestamp": "2025-06-07T17:41:43.162Z",
    "source_name": "google",
    "source_query": "Irrigation Equipment",
    "source_country": "PL",
    "country": "Poland",
    "state": "Greater Poland Voivodeship",
    "city": "Oborniki"
  },
  {
    "source_id": "ChIJ4U607dFtBEcRRMqSScfVgUs",
    "name": "Intermarche Oborniki",
    "category": "Intermarche Oborniki",
    "formatted_address": "4,1(1.306)",
    "phone_number": "+48519502408",
    "source_url": "https://www.google.com/maps/place/Intermarche+Oborniki/data=!4m7!3m6!1s0x47046dd1edb44ee1:0x4b81d5c74992ca44!8m2!3d52.6466772!4d16.8165734!16s%2Fg%2F1tgn89r8!19sChIJ4U607dFtBEcRRMqSScfVgUs?authuser=0&hl=tr&rclk=1",
    "website_url": "",
    "rating_text": "4,1",
    "stars": null,
    "number_of_reviews": null,
    "price_level": "",
    "open_hours": "",
    "extraction_timestamp": "2025-06-07T17:41:43.186Z",
    "source_name": "google",
    "source_query": "Irrigation Equipment",
    "source_country": "PL",
    "country": "Poland",
    "state": "Greater Poland Voivodeship",
    "city": "Oborniki"
  },
  {
    "source_id": "ChIJ8Qn7EJRtBEcRNK7akagvqTk",
    "name": "TOŚ - INSTAL Łukasz Bączyk",
    "category": "TOŚ - INSTAL Łukasz Bączyk",
    "formatted_address": "5,0(2)",
    "phone_number": "+48793375112",
    "source_url": "https://www.google.com/maps/place/TO%C5%9A+-+INSTAL+%C5%81ukasz+B%C4%85czyk/data=!4m7!3m6!1s0x47046d9410fb09f1:0x39a92fa891daae34!8m2!3d52.6474986!4d16.809587!16s%2Fg%2F11p01kpql1!19sChIJ8Qn7EJRtBEcRNK7akagvqTk?authuser=0&hl=tr&rclk=1",
    "website_url": "",
    "rating_text": "5,0",
    "stars": null,
    "number_of_reviews": null,
    "price_level": "",
    "open_hours": "",
    "extraction_timestamp": "2025-06-07T17:41:43.187Z",
    "source_name": "google",
    "source_query": "Irrigation Equipment",
    "source_country": "PL",
    "country": "Poland",
    "state": "Greater Poland Voivodeship",
    "city": "Oborniki"
  },
  {
    "source_id": "ChIJPfkrZN1sBEcReX-FqVOiHRk",
    "name": "Żwirki Park Rekreacyjno Wypoczynkowy kąpielisko",
    "category": "Żwirki Park Rekreacyjno Wypoczynkowy kąpielisko",
    "formatted_address": "4,3(234)",
    "phone_number": "",
    "source_url": "https://www.google.com/maps/place/%C5%BBwirki+Park+Rekreacyjno+Wypoczynkowy+k%C4%85pielisko/data=!4m7!3m6!1s0x47046cdd642bf93d:0x191da253a9857f79!8m2!3d52.6537813!4d16.8383764!16s%2Fg%2F1jkyyl7_s!19sChIJPfkrZN1sBEcReX-FqVOiHRk?authuser=0&hl=tr&rclk=1",
    "website_url": "",
    "rating_text": "4,3",
    "stars": null,
    "number_of_reviews": null,
    "price_level": "",
    "open_hours": "",
    "extraction_timestamp": "2025-06-07T17:41:43.188Z",
    "source_name": "google",
    "source_query": "Irrigation Equipment",
    "source_country": "PL",
    "country": "Poland",
    "state": "Greater Poland Voivodeship",
    "city": "Oborniki"
  },
  {
    "source_id": "ChIJGaOMcTUTBEcRLgKFaX3MLg4",
    "name": "Hydro-Service, Autoryzowany Instalator Junkers-Bosch",
    "category": "Hydro-Service, Autoryzowany Instalator Junkers-Bosch",
    "formatted_address": "Hydro-Service, Autoryzowany Instalator Junkers-Bosch",
    "phone_number": "+48602510787",
    "source_url": "https://www.google.com/maps/place/Hydro-Service,+Autoryzowany+Instalator+Junkers-Bosch/data=!4m7!3m6!1s0x47041335718ca319:0xe2ecc7d6985022e!8m2!3d52.6494287!4d16.7945866!16s%2Fg%2F11g_87164!19sChIJGaOMcTUTBEcRLgKFaX3MLg4?authuser=0&hl=tr&rclk=1",
    "website_url": "",
    "rating_text": "4,0",
    "stars": null,
    "number_of_reviews": null,
    "price_level": "",
    "open_hours": "",
    "extraction_timestamp": "2025-06-07T17:41:43.189Z",
    "source_name": "google",
    "source_query": "Irrigation Equipment",
    "source_country": "PL",
    "country": "Poland",
    "state": "Greater Poland Voivodeship",
    "city": "Oborniki"
  },
  {
    "source_id": "ChIJq6rqLc9sBEcR4qq6o1A7aqU",
    "name": "Targowisko miejskie",
    "category": "Targowisko miejskie",
    "formatted_address": "4,4(23)",
    "phone_number": "",
    "source_url": "https://www.google.com/maps/place/Targowisko+miejskie/data=!4m7!3m6!1s0x47046ccf2deaaaab:0xa56a3b50a3baaae2!8m2!3d52.6513576!4d16.812415!16s%2Fg%2F11txv1rktm!19sChIJq6rqLc9sBEcR4qq6o1A7aqU?authuser=0&hl=tr&rclk=1",
    "website_url": "",
    "rating_text": "4,4",
    "stars": null,
    "number_of_reviews": null,
    "price_level": "",
    "open_hours": "",
    "extraction_timestamp": "2025-06-07T17:41:43.189Z",
    "source_name": "google",
    "source_query": "Irrigation Equipment",
    "source_country": "PL",
    "country": "Poland",
    "state": "Greater Poland Voivodeship",
    "city": "Oborniki"
  },
  {
    "source_id": "ChIJtWenoTUTBEcRlH9dwM9atVo",
    "name": "Sklep Zoologiczno-Wędkarski MEDUZA",
    "category": "Sklep Zoologiczno-Wędkarski MEDUZA",
    "formatted_address": "4,7(104)",
    "phone_number": "+48604795533",
    "source_url": "https://www.google.com/maps/place/Sklep+Zoologiczno-W%C4%99dkarski+MEDUZA/data=!4m7!3m6!1s0x47041335a1a767b5:0x5ab55acfc05d7f94!8m2!3d52.6498712!4d16.793776!16s%2Fg%2F1pzsxshk8!19sChIJtWenoTUTBEcRlH9dwM9atVo?authuser=0&hl=tr&rclk=1",
    "website_url": "",
    "rating_text": "4,7",
    "stars": null,
    "number_of_reviews": null,
    "price_level": "",
    "open_hours": "",
    "extraction_timestamp": "2025-06-07T17:41:43.190Z",
    "source_name": "google",
    "source_query": "Irrigation Equipment",
    "source_country": "PL",
    "country": "Poland",
    "state": "Greater Poland Voivodeship",
    "city": "Oborniki"
  },
  {
    "source_id": "ChIJ__9sCbhsBEcRdNZVOLdBpwA",
    "name": "Molinezja",
    "category": "Molinezja",
    "formatted_address": "4,2(6)",
    "phone_number": "",
    "source_url": "https://www.google.com/maps/place/Molinezja/data=!4m7!3m6!1s0x47046cb8096cffff:0xa741b73855d674!8m2!3d52.6507935!4d16.8182015!16s%2Fg%2F11h42q3m1d!19sChIJ__9sCbhsBEcRdNZVOLdBpwA?authuser=0&hl=tr&rclk=1",
    "website_url": "",
    "rating_text": "4,2",
    "stars": null,
    "number_of_reviews": null,
    "price_level": "",
    "open_hours": "",
    "extraction_timestamp": "2025-06-07T17:41:43.191Z",
    "source_name": "google",
    "source_query": "Irrigation Equipment",
    "source_country": "PL",
    "country": "Poland",
    "state": "Greater Poland Voivodeship",
    "city": "Oborniki"
  },
  {
    "source_id": "ChIJPboQXE1tBEcR5LxsEXcvgTs",
    "name": "Duży Ben",
    "category": "Duży Ben",
    "formatted_address": "4,6(101)",
    "phone_number": "+48662802645",
    "source_url": "https://www.google.com/maps/place/Du%C5%BCy+Ben/data=!4m7!3m6!1s0x47046d4d5c10ba3d:0x3b812f77116cbce4!8m2!3d52.6497616!4d16.7997131!16s%2Fg%2F11fhywb59m!19sChIJPboQXE1tBEcR5LxsEXcvgTs?authuser=0&hl=tr&rclk=1",
    "website_url": "",
    "rating_text": "4,6",
    "stars": null,
    "number_of_reviews": null,
    "price_level": "",
    "open_hours": "",
    "extraction_timestamp": "2025-06-07T17:41:43.191Z",
    "source_name": "google",
    "source_query": "Irrigation Equipment",
    "source_country": "PL",
    "country": "Poland",
    "state": "Greater Poland Voivodeship",
    "city": "Oborniki"
  },
  {
    "source_id": "ChIJy_5dL9JtBEcRFcpedLV1ph4",
    "name": "Dino",
    "category": "Dino",
    "formatted_address": "4,4(319)",
    "phone_number": "",
    "source_url": "https://www.google.com/maps/place/Dino/data=!4m7!3m6!1s0x47046dd22f5dfecb:0x1ea675b5745eca15!8m2!3d52.6429701!4d16.8058436!16s%2Fg%2F11gr6_w8pq!19sChIJy_5dL9JtBEcRFcpedLV1ph4?authuser=0&hl=tr&rclk=1",
    "website_url": "",
    "rating_text": "4,4",
    "stars": null,
    "number_of_reviews": null,
    "price_level": "",
    "open_hours": "",
    "extraction_timestamp": "2025-06-07T17:41:43.192Z",
    "source_name": "google",
    "source_query": "Irrigation Equipment",
    "source_country": "PL",
    "country": "Poland",
    "state": "Greater Poland Voivodeship",
    "city": "Oborniki"
  },
  {
    "source_id": "ChIJPTpMqiwTBEcRwSLwaaEy4V0",
    "name": "S.K.W. Sklep spożywczy. Wiśniewski S.",
    "category": "S.K.W. Sklep spożywczy. Wiśniewski S.",
    "formatted_address": "4,5(41)",
    "phone_number": "+48612967302",
    "source_url": "https://www.google.com/maps/place/S.K.W.+Sklep+spo%C5%BCywczy.+Wi%C5%9Bniewski+S./data=!4m7!3m6!1s0x4704132caa4c3a3d:0x5de132a169f022c1!8m2!3d52.6628652!4d16.8058619!16s%2Fg%2F1td46nx0!19sChIJPTpMqiwTBEcRwSLwaaEy4V0?authuser=0&hl=tr&rclk=1",
    "website_url": "",
    "rating_text": "4,5",
    "stars": null,
    "number_of_reviews": null,
    "price_level": "",
    "open_hours": "",
    "extraction_timestamp": "2025-06-07T17:41:43.193Z",
    "source_name": "google",
    "source_query": "Irrigation Equipment",
    "source_country": "PL",
    "country": "Poland",
    "state": "Greater Poland Voivodeship",
    "city": "Oborniki"
  },
  {
    "source_id": "ChIJN8lOdsZsBEcRDaR1FRGViEE",
    "name": "Kaufland Oborniki Wielkopolskie",
    "category": "Kaufland Oborniki Wielkopolskie",
    "formatted_address": "4,1(1.516)",
    "phone_number": "+48800300062",
    "source_url": "https://www.google.com/maps/place/Kaufland+Oborniki+Wielkopolskie/data=!4m7!3m6!1s0x47046cc6764ec937:0x418895111575a40d!8m2!3d52.6504684!4d16.8188093!16s%2Fg%2F11bwh5w7s1!19sChIJN8lOdsZsBEcRDaR1FRGViEE?authuser=0&hl=tr&rclk=1",
    "website_url": "",
    "rating_text": "4,1",
    "stars": null,
    "number_of_reviews": null,
    "price_level": "",
    "open_hours": "",
    "extraction_timestamp": "2025-06-07T17:41:43.194Z",
    "source_name": "google",
    "source_query": "Irrigation Equipment",
    "source_country": "PL",
    "country": "Poland",
    "state": "Greater Poland Voivodeship",
    "city": "Oborniki"
  },
  {
    "source_id": "ChIJEdQP-sZsBEcR9J65wBtSCVQ",
    "name": "Sorex. Sklep motoryzacyjny, części samochodowe, olej samochodowy, hurt detal",
    "category": "Sorex. Sklep motoryzacyjny, części samochodowe, olej samochodowy, hurt detal",
    "formatted_address": "Sorex. Sklep motoryzacyjny, części samochodowe, olej samochodowy, hurt detal",
    "phone_number": "+48660710563",
    "source_url": "https://www.google.com/maps/place/Sorex.+Sklep+motoryzacyjny,+cz%C4%99%C5%9Bci+samochodowe,+olej+samochodowy,+hurt+detal/data=!4m7!3m6!1s0x47046cc6fa0fd411:0x5409521bc0b99ef4!8m2!3d52.6482309!4d16.8181759!16s%2Fg%2F1tdyph3t!19sChIJEdQP-sZsBEcR9J65wBtSCVQ?authuser=0&hl=tr&rclk=1",
    "website_url": "",
    "rating_text": "4,7",
    "stars": null,
    "number_of_reviews": null,
    "price_level": "",
    "open_hours": "",
    "extraction_timestamp": "2025-06-07T17:41:43.195Z",
    "source_name": "google",
    "source_query": "Irrigation Equipment",
    "source_country": "PL",
    "country": "Poland",
    "state": "Greater Poland Voivodeship",
    "city": "Oborniki"
  }
]
