[
  {
    "source_id": "ChIJQ1ohPQ8XBEcRWBg-baAh3OU",
    "name": "Hydromar",
    "category": "Hydromar",
    "formatted_address": "4,2(19)",
    "phone_number": "+48612921984",
    "source_url": "https://www.google.com/maps/place/Hydromar/data=!4m7!3m6!1s0x4704170f3d215a43:0xe5dc21a06d3e1858!8m2!3d52.620958!4d16.5665889!16s%2Fg%2F1tp06t6y!19sChIJQ1ohPQ8XBEcRWBg-baAh3OU?authuser=0&hl=tr&rclk=1",
    "website_url": "https://www.hydromar.pl/",
    "rating_text": "4,2",
    "stars": null,
    "number_of_reviews": null,
    "price_level": "",
    "open_hours": "",
    "extraction_timestamp": "2025-06-07T17:19:44.047Z",
    "source_name": "google",
    "source_query": "Irrigation Equipment",
    "source_country": "PL",
    "country": "Poland",
    "state": "Greater Poland Voivodeship",
    "city": "Obrzycko"
  },
  {
    "source_id": "ChIJUfn2Ig35A0cREW9fZ4029UM",
    "name": "IMTechnika sp. z o.o.",
    "category": "IMTechnika sp. z o.o.",
    "formatted_address": "4,4(17)",
    "phone_number": "+48883820388",
    "source_url": "https://www.google.com/maps/place/IMTechnika+sp.+z+o.o./data=!4m7!3m6!1s0x4703f90d22f6f951:0x43f5368d675f6f11!8m2!3d52.9756271!4d16.657836!16s%2Fg%2F11bw48_6mg!19sChIJUfn2Ig35A0cREW9fZ4029UM?authuser=0&hl=tr&rclk=1",
    "website_url": "http://imtechnika.pl/",
    "rating_text": "4,4",
    "stars": null,
    "number_of_reviews": null,
    "price_level": "",
    "open_hours": "",
    "extraction_timestamp": "2025-06-07T17:19:44.048Z",
    "source_name": "google",
    "source_query": "Irrigation Equipment",
    "source_country": "PL",
    "country": "Poland",
    "state": "Greater Poland Voivodeship",
    "city": "Obrzycko"
  },
  {
    "source_id": "ChIJ2d4-0cpGBEcRTya15XLl9W0",
    "name": "POLGAR Garniewicz Wełniak spółka komandytowa",
    "category": "POLGAR Garniewicz Wełniak spółka komandytowa",
    "formatted_address": "4,5(23)",
    "phone_number": "+48618160631",
    "source_url": "https://www.google.com/maps/place/POLGAR+Garniewicz+We%C5%82niak+sp%C3%B3%C5%82ka+komandytowa/data=!4m7!3m6!1s0x470446cad13eded9:0x6df5e572e5b5264f!8m2!3d52.4535218!4d16.7706987!16s%2Fg%2F1tlzywfq!19sChIJ2d4-0cpGBEcRTya15XLl9W0?authuser=0&hl=tr&rclk=1",
    "website_url": "http://polgar.com.pl/",
    "rating_text": "4,5",
    "stars": null,
    "number_of_reviews": null,
    "price_level": "",
    "open_hours": "",
    "extraction_timestamp": "2025-06-07T17:19:44.049Z",
    "source_name": "google",
    "source_query": "Irrigation Equipment",
    "source_country": "PL",
    "country": "Poland",
    "state": "Greater Poland Voivodeship",
    "city": "Obrzycko"
  },
  {
    "source_id": "ChIJ4zc6v4hZBEcRKah1mzKBwPg",
    "name": "PHU \"ADVISER\" - Systemy nawadniania",
    "category": "PHU \"ADVISER\" - Systemy nawadniania",
    "formatted_address": "4,8(123)",
    "phone_number": "+48618798700",
    "source_url": "https://www.google.com/maps/place/PHU+%22ADVISER%22+-+Systemy+nawadniania/data=!4m7!3m6!1s0x47045988bf3a37e3:0xf8c081329b75a829!8m2!3d52.3434333!4d17.0287055!16s%2Fg%2F1w3459w5!19sChIJ4zc6v4hZBEcRKah1mzKBwPg?authuser=0&hl=tr&rclk=1",
    "website_url": "http://www.phu-adviser.pl/",
    "rating_text": "4,8",
    "stars": null,
    "number_of_reviews": null,
    "price_level": "",
    "open_hours": "",
    "extraction_timestamp": "2025-06-07T17:19:44.050Z",
    "source_name": "google",
    "source_query": "Irrigation Equipment",
    "source_country": "PL",
    "country": "Poland",
    "state": "Greater Poland Voivodeship",
    "city": "Obrzycko"
  },
  {
    "source_id": "ChIJGaOMcTUTBEcRLgKFaX3MLg4",
    "name": "Hydro-Service, Autoryzowany Instalator Junkers-Bosch",
    "category": "Hydro-Service, Autoryzowany Instalator Junkers-Bosch",
    "formatted_address": "Hydro-Service, Autoryzowany Instalator Junkers-Bosch",
    "phone_number": "+48602510787",
    "source_url": "https://www.google.com/maps/place/Hydro-Service,+Autoryzowany+Instalator+Junkers-Bosch/data=!4m7!3m6!1s0x47041335718ca319:0xe2ecc7d6985022e!8m2!3d52.6494287!4d16.7945866!16s%2Fg%2F11g_87164!19sChIJGaOMcTUTBEcRLgKFaX3MLg4?authuser=0&hl=tr&rclk=1",
    "website_url": "",
    "rating_text": "4,0",
    "stars": null,
    "number_of_reviews": null,
    "price_level": "",
    "open_hours": "",
    "extraction_timestamp": "2025-06-07T17:19:44.051Z",
    "source_name": "google",
    "source_query": "Irrigation Equipment",
    "source_country": "PL",
    "country": "Poland",
    "state": "Greater Poland Voivodeship",
    "city": "Obrzycko"
  },
  {
    "source_id": "ChIJOTXsiVgaBEcR2ALz_ppV4Xs",
    "name": "Chata Polska",
    "category": "Chata Polska",
    "formatted_address": "4,3(258)",
    "phone_number": "+48612913756",
    "source_url": "https://www.google.com/maps/place/Chata+Polska/data=!4m7!3m6!1s0x47041a5889ec3539:0x7be1559afef302d8!8m2!3d52.7082526!4d16.5263604!16s%2Fg%2F1thwz412!19sChIJOTXsiVgaBEcR2ALz_ppV4Xs?authuser=0&hl=tr&rclk=1",
    "website_url": "https://www.chatapolska.pl/",
    "rating_text": "4,3",
    "stars": null,
    "number_of_reviews": null,
    "price_level": "",
    "open_hours": "",
    "extraction_timestamp": "2025-06-07T17:19:44.052Z",
    "source_name": "google",
    "source_query": "Irrigation Equipment",
    "source_country": "PL",
    "country": "Poland",
    "state": "Greater Poland Voivodeship",
    "city": "Obrzycko"
  },
  {
    "source_id": "ChIJv-pVNF0aBEcRf9J7C_ilKv4",
    "name": "Dino",
    "category": "Dino",
    "formatted_address": "4,2(339)",
    "phone_number": "",
    "source_url": "https://www.google.com/maps/place/Dino/data=!4m7!3m6!1s0x47041a5d3455eabf:0xfe2aa5f80b7bd27f!8m2!3d52.702267!4d16.5273708!16s%2Fg%2F11gzy48b9!19sChIJv-pVNF0aBEcRf9J7C_ilKv4?authuser=0&hl=tr&rclk=1",
    "website_url": "https://marketdino.pl/",
    "rating_text": "4,2",
    "stars": null,
    "number_of_reviews": null,
    "price_level": "",
    "open_hours": "",
    "extraction_timestamp": "2025-06-07T17:19:44.053Z",
    "source_name": "google",
    "source_query": "Irrigation Equipment",
    "source_country": "PL",
    "country": "Poland",
    "state": "Greater Poland Voivodeship",
    "city": "Obrzycko"
  },
  {
    "source_id": "ChIJiXzt9REbBEcR3B2sf60UQ_U",
    "name": "Radosny Zwierzak",
    "category": "Radosny Zwierzak",
    "formatted_address": "5,0(4)",
    "phone_number": "",
    "source_url": "https://www.google.com/maps/place/Radosny+Zwierzak/data=!4m7!3m6!1s0x47041b11f5ed7c89:0xf54314ad7fac1ddc!8m2!3d52.7074111!4d16.5263137!16s%2Fg%2F11wp7yk5n2!19sChIJiXzt9REbBEcR3B2sf60UQ_U?authuser=0&hl=tr&rclk=1",
    "website_url": "https://www.facebook.com/radosnyzwierzakobrzycko/",
    "rating_text": "5,0",
    "stars": null,
    "number_of_reviews": null,
    "price_level": "",
    "open_hours": "",
    "extraction_timestamp": "2025-06-07T17:19:44.054Z",
    "source_name": "google",
    "source_query": "Irrigation Equipment",
    "source_country": "PL",
    "country": "Poland",
    "state": "Greater Poland Voivodeship",
    "city": "Obrzycko"
  },
  {
    "source_id": "ChIJrbrCH18aBEcRM3eT0yoO2SQ",
    "name": "Cibus. FHU",
    "category": "Cibus. FHU",
    "formatted_address": "",
    "phone_number": "+48612934564",
    "source_url": "https://www.google.com/maps/place/Cibus.+FHU/data=!4m7!3m6!1s0x47041a5f1fc2baad:0x24d90e2ad3937733!8m2!3d52.7050239!4d16.5308568!16s%2Fg%2F1tfrl0qx!19sChIJrbrCH18aBEcRM3eT0yoO2SQ?authuser=0&hl=tr&rclk=1",
    "website_url": "",
    "rating_text": "",
    "stars": null,
    "number_of_reviews": null,
    "price_level": "",
    "open_hours": "",
    "extraction_timestamp": "2025-06-07T17:19:44.055Z",
    "source_name": "google",
    "source_query": "Irrigation Equipment",
    "source_country": "PL",
    "country": "Poland",
    "state": "Greater Poland Voivodeship",
    "city": "Obrzycko"
  },
  {
    "source_id": "ChIJ0du3b1gaBEcRhw6qh3G5snA",
    "name": "Bombelek Przemysław i Małgorzata. Sklep kosmetyczny",
    "category": "Bombelek Przemysław i Małgorzata. Sklep kosmetyczny",
    "formatted_address": "5,0(2)",
    "phone_number": "+48612913869",
    "source_url": "https://www.google.com/maps/place/Bombelek+Przemys%C5%82aw+i+Ma%C5%82gorzata.+Sklep+kosmetyczny/data=!4m7!3m6!1s0x47041a586fb7dbd1:0x70b2b97187aa0e87!8m2!3d52.7085037!4d16.5258079!16s%2Fg%2F1tkqyz99!19sChIJ0du3b1gaBEcRhw6qh3G5snA?authuser=0&hl=tr&rclk=1",
    "website_url": "",
    "rating_text": "5,0",
    "stars": null,
    "number_of_reviews": null,
    "price_level": "",
    "open_hours": "",
    "extraction_timestamp": "2025-06-07T17:19:44.055Z",
    "source_name": "google",
    "source_query": "Irrigation Equipment",
    "source_country": "PL",
    "country": "Poland",
    "state": "Greater Poland Voivodeship",
    "city": "Obrzycko"
  },
  {
    "source_id": "ChIJIa4urGsbBEcRh_252JBQrV0",
    "name": "Biedronka",
    "category": "Biedronka",
    "formatted_address": "4,0(315)",
    "phone_number": "+48800080010",
    "source_url": "https://www.google.com/maps/place/Biedronka/data=!4m7!3m6!1s0x47041b6bac2eae21:0x5dad5090d8b9fd87!8m2!3d52.7043831!4d16.5284915!16s%2Fg%2F11gy3l87rz!19sChIJIa4urGsbBEcRh_252JBQrV0?authuser=0&hl=tr&rclk=1",
    "website_url": "https://www.biedronka.pl/pl?utm_source=gmb",
    "rating_text": "4,0",
    "stars": null,
    "number_of_reviews": null,
    "price_level": "",
    "open_hours": "",
    "extraction_timestamp": "2025-06-07T17:19:44.056Z",
    "source_name": "google",
    "source_query": "Irrigation Equipment",
    "source_country": "PL",
    "country": "Poland",
    "state": "Greater Poland Voivodeship",
    "city": "Obrzycko"
  },
  {
    "source_id": "ChIJ194V514aBEcRv3bCeAt7BD0",
    "name": "Sklep Spożywczy ABC",
    "category": "Sklep Spożywczy ABC",
    "formatted_address": "4,2(47)",
    "phone_number": "",
    "source_url": "https://www.google.com/maps/place/Sklep+Spo%C5%BCywczy+ABC/data=!4m7!3m6!1s0x47041a5ee715ded7:0x3d047b0b78c276bf!8m2!3d52.7050661!4d16.5308106!16s%2Fg%2F11cmc48p_d!19sChIJ194V514aBEcRv3bCeAt7BD0?authuser=0&hl=tr&rclk=1",
    "website_url": "",
    "rating_text": "4,2",
    "stars": null,
    "number_of_reviews": null,
    "price_level": "",
    "open_hours": "",
    "extraction_timestamp": "2025-06-07T17:19:44.057Z",
    "source_name": "google",
    "source_query": "Irrigation Equipment",
    "source_country": "PL",
    "country": "Poland",
    "state": "Greater Poland Voivodeship",
    "city": "Obrzycko"
  },
  {
    "source_id": "ChIJs6ywYQAbBEcRMhGWbdIjsg0",
    "name": "Intermarche Express",
    "category": "Intermarche Express",
    "formatted_address": "Bakkal ·  · 10, Prusa 8Açık ⋅ Kapanış saati: 22:00",
    "phone_number": "",
    "source_url": "https://www.google.com/maps/place/Intermarche+Express/data=!4m7!3m6!1s0x47041b0061b0acb3:0xdb223d26d961132!8m2!3d52.7050661!4d16.5308106!16s%2Fg%2F11wvyzzc3l!19sChIJs6ywYQAbBEcRMhGWbdIjsg0?authuser=0&hl=tr&rclk=1",
    "website_url": "http://intermarche.pl/",
    "rating_text": "",
    "stars": null,
    "number_of_reviews": null,
    "price_level": "",
    "open_hours": "",
    "extraction_timestamp": "2025-06-07T17:19:44.058Z",
    "source_name": "google",
    "source_query": "Irrigation Equipment",
    "source_country": "PL",
    "country": "Poland",
    "state": "Greater Poland Voivodeship",
    "city": "Obrzycko"
  },
  {
    "source_id": "ChIJB6y_v5J2HEcRlDfYx3xmc9M",
    "name": "Milex irrigation systems",
    "category": "Milex irrigation systems",
    "formatted_address": "4,6(37)",
    "phone_number": "+48242775222",
    "source_url": "https://www.google.com/maps/place/Milex+irrigation+systems/data=!4m7!3m6!1s0x471c7692bfbfac07:0xd373667cc7d83794!8m2!3d52.4690634!4d19.7520904!16s%2Fg%2F1w2yy67r!19sChIJB6y_v5J2HEcRlDfYx3xmc9M?authuser=0&hl=tr&rclk=1",
    "website_url": "https://www.milex.pl/",
    "rating_text": "4,6",
    "stars": null,
    "number_of_reviews": null,
    "price_level": "",
    "open_hours": "",
    "extraction_timestamp": "2025-06-07T17:19:44.058Z",
    "source_name": "google",
    "source_query": "Irrigation Equipment",
    "source_country": "PL",
    "country": "Poland",
    "state": "Greater Poland Voivodeship",
    "city": "Obrzycko"
  },
  {
    "source_id": "ChIJsc04h1gaBEcRZ3RjNhpLNHU",
    "name": "Lewiatan",
    "category": "Lewiatan",
    "formatted_address": "2,8(6)",
    "phone_number": "",
    "source_url": "https://www.google.com/maps/place/Lewiatan/data=!4m7!3m6!1s0x47041a588738cdb1:0x75344b1a36637467!8m2!3d52.7084104!4d16.5266739!16s%2Fg%2F11clyt70_7!19sChIJsc04h1gaBEcRZ3RjNhpLNHU?authuser=0&hl=tr&rclk=1",
    "website_url": "http://www.lewiatan.pl/",
    "rating_text": "2,8",
    "stars": null,
    "number_of_reviews": null,
    "price_level": "",
    "open_hours": "",
    "extraction_timestamp": "2025-06-07T17:19:44.059Z",
    "source_name": "google",
    "source_query": "Irrigation Equipment",
    "source_country": "PL",
    "country": "Poland",
    "state": "Greater Poland Voivodeship",
    "city": "Obrzycko"
  }
]
