[
  {
    "source_id": "ChIJ5aa1CtdMBUcR___aYVCf7gM",
    "name": "Automatyk System Zbigniew Kolasiński",
    "category": "Automatyk System Zbigniew Kolasiński",
    "formatted_address": "5,0(10)",
    "phone_number": "+48601755880",
    "source_url": "https://www.google.com/maps/place/Automatyk+System+Zbigniew+Kolasi%C5%84ski/data=!4m7!3m6!1s0x47054cd70ab5a6e5:0x3ee9f5061daffff!8m2!3d51.5836022!4d17.6538383!16s%2Fg%2F1trrbx4g!19sChIJ5aa1CtdMBUcR___aYVCf7gM?authuser=0&hl=tr&rclk=1",
    "website_url": "http://www.automatyksystem.pl/",
    "rating_text": "5,0",
    "stars": null,
    "number_of_reviews": null,
    "price_level": "",
    "open_hours": "",
    "extraction_timestamp": "2025-06-07T17:12:42.610Z",
    "source_name": "google",
    "source_query": "Irrigation Equipment",
    "source_country": "PL",
    "country": "Poland",
    "state": "Greater Poland Voivodeship",
    "city": "Odolanów"
  },
  {
    "source_id": "ChIJQRrc6NdMBUcR5Vi1qxj_ZE8",
    "name": "VELOX-TRADE",
    "category": "VELOX-TRADE",
    "formatted_address": "5,0(8)",
    "phone_number": "+48724481000",
    "source_url": "https://www.google.com/maps/place/VELOX-TRADE/data=!4m7!3m6!1s0x47054cd7e8dc1a41:0x4f64ff18abb558e5!8m2!3d51.5830926!4d17.6529571!16s%2Fg%2F1v16n_mc!19sChIJQRrc6NdMBUcR5Vi1qxj_ZE8?authuser=0&hl=tr&rclk=1",
    "website_url": "http://www.ciecie-woda.com/",
    "rating_text": "5,0",
    "stars": null,
    "number_of_reviews": null,
    "price_level": "",
    "open_hours": "",
    "extraction_timestamp": "2025-06-07T17:12:42.611Z",
    "source_name": "google",
    "source_query": "Irrigation Equipment",
    "source_country": "PL",
    "country": "Poland",
    "state": "Greater Poland Voivodeship",
    "city": "Odolanów"
  },
  {
    "source_id": "ChIJyQTH7tmyGkcRERXulysft-s",
    "name": "Ratajek Building Materials",
    "category": "Ratajek Building Materials",
    "formatted_address": "4,4(169)",
    "phone_number": "+48627333333",
    "source_url": "https://www.google.com/maps/place/Ratajek+Building+Materials/data=!4m7!3m6!1s0x471ab2d9eec704c9:0xebb71f2b97ee1511!8m2!3d51.5692654!4d17.6908988!16s%2Fg%2F1v5k1rt4!19sChIJyQTH7tmyGkcRERXulysft-s?authuser=0&hl=tr&rclk=1",
    "website_url": "http://www.ratajek.com.pl/",
    "rating_text": "4,4",
    "stars": null,
    "number_of_reviews": null,
    "price_level": "",
    "open_hours": "",
    "extraction_timestamp": "2025-06-07T17:12:42.613Z",
    "source_name": "google",
    "source_query": "Irrigation Equipment",
    "source_country": "PL",
    "country": "Poland",
    "state": "Greater Poland Voivodeship",
    "city": "Odolanów"
  },
  {
    "source_id": "ChIJw-A_-eZMBUcRypOyGBMvO1E",
    "name": "KRIO-SERWIS Sp. z o.o.",
    "category": "KRIO-SERWIS Sp. z o.o.",
    "formatted_address": "4,4(15)",
    "phone_number": "+48625066050",
    "source_url": "https://www.google.com/maps/place/KRIO-SERWIS+Sp.+z+o.o./data=!4m7!3m6!1s0x47054ce6f93fe0c3:0x513b2f1318b293ca!8m2!3d51.5860481!4d17.6516877!16s%2Fg%2F1tqyd5y7!19sChIJw-A_-eZMBUcRypOyGBMvO1E?authuser=0&hl=tr&rclk=1",
    "website_url": "http://www.krio-serwis.pl/",
    "rating_text": "4,4",
    "stars": null,
    "number_of_reviews": null,
    "price_level": "",
    "open_hours": "",
    "extraction_timestamp": "2025-06-07T17:12:42.614Z",
    "source_name": "google",
    "source_query": "Irrigation Equipment",
    "source_country": "PL",
    "country": "Poland",
    "state": "Greater Poland Voivodeship",
    "city": "Odolanów"
  },
  {
    "source_id": "ChIJS2ryxtdMBUcRTIUgMoA9444",
    "name": "P.H.U. Elmech2 Ciesielczyk Robert Serwis silników elektrycznych",
    "category": "P.H.U. Elmech2 Ciesielczyk Robert Serwis silników elektrycznych",
    "formatted_address": "4,9(51)",
    "phone_number": "+48508282894",
    "source_url": "https://www.google.com/maps/place/P.H.U.+Elmech2+Ciesielczyk+Robert+Serwis+silnik%C3%B3w+elektrycznych/data=!4m7!3m6!1s0x47054cd7c6f26a4b:0x8ee33d803220854c!8m2!3d51.5785042!4d17.6657841!16s%2Fg%2F1tznl1m6!19sChIJS2ryxtdMBUcRTIUgMoA9444?authuser=0&hl=tr&rclk=1",
    "website_url": "",
    "rating_text": "4,9",
    "stars": null,
    "number_of_reviews": null,
    "price_level": "",
    "open_hours": "",
    "extraction_timestamp": "2025-06-07T17:12:42.616Z",
    "source_name": "google",
    "source_query": "Irrigation Equipment",
    "source_country": "PL",
    "country": "Poland",
    "state": "Greater Poland Voivodeship",
    "city": "Odolanów"
  },
  {
    "source_id": "ChIJ5wt1YnpNBUcRTBWyiNmvox8",
    "name": "Market Budowlany Pszczółka Odolanów",
    "category": "Market Budowlany Pszczółka Odolanów",
    "formatted_address": "4,5(261)",
    "phone_number": "+48627272105",
    "source_url": "https://www.google.com/maps/place/Market+Budowlany+Pszcz%C3%B3%C5%82ka+Odolan%C3%B3w/data=!4m7!3m6!1s0x47054d7a62750be7:0x1fa3afd988b2154c!8m2!3d51.5827179!4d17.6551969!16s%2Fg%2F11fn49j1_5!19sChIJ5wt1YnpNBUcRTBWyiNmvox8?authuser=0&hl=tr&rclk=1",
    "website_url": "https://pszczolka-odolanow.pl/",
    "rating_text": "4,5",
    "stars": null,
    "number_of_reviews": null,
    "price_level": "",
    "open_hours": "",
    "extraction_timestamp": "2025-06-07T17:12:42.617Z",
    "source_name": "google",
    "source_query": "Irrigation Equipment",
    "source_country": "PL",
    "country": "Poland",
    "state": "Greater Poland Voivodeship",
    "city": "Odolanów"
  },
  {
    "source_id": "ChIJoVlt1yFNBUcRKeUBfXeWFng",
    "name": "KAMI ZPHU Kazimierz Pachołek - Handel Korą Ogrodową i Torfem",
    "category": "KAMI ZPHU Kazimierz Pachołek - Handel Korą Ogrodową i Torfem",
    "formatted_address": "4,5(31)",
    "phone_number": "+48605856823",
    "source_url": "https://www.google.com/maps/place/KAMI+ZPHU+Kazimierz+Pacho%C5%82ek+-+Handel+Kor%C4%85+Ogrodow%C4%85+i+Torfem/data=!4m7!3m6!1s0x47054d21d76d59a1:0x781696777d01e529!8m2!3d51.5602679!4d17.6638408!16s%2Fg%2F1v82_t77!19sChIJoVlt1yFNBUcRKeUBfXeWFng?authuser=0&hl=tr&rclk=1",
    "website_url": "http://www.korasosnowa.com.pl/",
    "rating_text": "4,5",
    "stars": null,
    "number_of_reviews": null,
    "price_level": "",
    "open_hours": "",
    "extraction_timestamp": "2025-06-07T17:12:42.619Z",
    "source_name": "google",
    "source_query": "Irrigation Equipment",
    "source_country": "PL",
    "country": "Poland",
    "state": "Greater Poland Voivodeship",
    "city": "Odolanów"
  },
  {
    "source_id": "ChIJnfPgSgFNBUcRN6Gnu2MTmS4",
    "name": "Ad-Mat",
    "category": "Ad-Mat",
    "formatted_address": "5,0(1)",
    "phone_number": "+48737766053",
    "source_url": "https://www.google.com/maps/place/Ad-Mat/data=!4m7!3m6!1s0x47054d014ae0f39d:0x2e991363bba7a137!8m2!3d51.5767221!4d17.676117!16s%2Fg%2F11xfln_sl4!19sChIJnfPgSgFNBUcRN6Gnu2MTmS4?authuser=0&hl=tr&rclk=1",
    "website_url": "",
    "rating_text": "5,0",
    "stars": null,
    "number_of_reviews": null,
    "price_level": "",
    "open_hours": "",
    "extraction_timestamp": "2025-06-07T17:12:42.620Z",
    "source_name": "google",
    "source_query": "Irrigation Equipment",
    "source_country": "PL",
    "country": "Poland",
    "state": "Greater Poland Voivodeship",
    "city": "Odolanów"
  },
  {
    "source_id": "ChIJQTz0BtdMBUcRXe0Sh9iVrlI",
    "name": "Technologia Plus",
    "category": "Technologia Plus",
    "formatted_address": "5,0(6)",
    "phone_number": "+48519105434",
    "source_url": "https://www.google.com/maps/place/Technologia+Plus/data=!4m7!3m6!1s0x47054cd706f43c41:0x52ae95d88712ed5d!8m2!3d51.5782309!4d17.67016!16s%2Fg%2F11b6x_4jtf!19sChIJQTz0BtdMBUcRXe0Sh9iVrlI?authuser=0&hl=tr&rclk=1",
    "website_url": "http://www.technologia-plus.pl/",
    "rating_text": "5,0",
    "stars": null,
    "number_of_reviews": null,
    "price_level": "",
    "open_hours": "",
    "extraction_timestamp": "2025-06-07T17:12:42.621Z",
    "source_name": "google",
    "source_query": "Irrigation Equipment",
    "source_country": "PL",
    "country": "Poland",
    "state": "Greater Poland Voivodeship",
    "city": "Odolanów"
  },
  {
    "source_id": "ChIJK2GjZAe3GkcRtYCUwk9ASmE",
    "name": "Grofi - Systemy nawadniania do domu i ogrodu",
    "category": "Grofi - Systemy nawadniania do domu i ogrodu",
    "formatted_address": "4,8(16)",
    "phone_number": "+48575716244",
    "source_url": "https://www.google.com/maps/place/Grofi+-+Systemy+nawadniania+do+domu+i+ogrodu/data=!4m7!3m6!1s0x471ab70764a3612b:0x614a404fc29480b5!8m2!3d51.612066!4d17.8638006!16s%2Fg%2F11y5_4bbdm!19sChIJK2GjZAe3GkcRtYCUwk9ASmE?authuser=0&hl=tr&rclk=1",
    "website_url": "http://grofi.pl/",
    "rating_text": "4,8",
    "stars": null,
    "number_of_reviews": null,
    "price_level": "",
    "open_hours": "",
    "extraction_timestamp": "2025-06-07T17:12:42.623Z",
    "source_name": "google",
    "source_query": "Irrigation Equipment",
    "source_country": "PL",
    "country": "Poland",
    "state": "Greater Poland Voivodeship",
    "city": "Odolanów"
  },
  {
    "source_id": "ChIJJeAfcFq0GkcR9cJ4jnAvUTg",
    "name": "Wytwórnia zbiorników Powolny Andrzej",
    "category": "Wytwórnia zbiorników Powolny Andrzej",
    "formatted_address": "3,3(3)",
    "phone_number": "+48627351739",
    "source_url": "https://www.google.com/maps/place/Wytw%C3%B3rnia+zbiornik%C3%B3w+Powolny+Andrzej/data=!4m7!3m6!1s0x471ab45a701fe025:0x38512f708e78c2f5!8m2!3d51.6353283!4d17.7859147!16s%2Fg%2F1tk6z78p!19sChIJJeAfcFq0GkcR9cJ4jnAvUTg?authuser=0&hl=tr&rclk=1",
    "website_url": "https://www.zbiorniki-powolny.com.pl/",
    "rating_text": "3,3",
    "stars": null,
    "number_of_reviews": null,
    "price_level": "",
    "open_hours": "",
    "extraction_timestamp": "2025-06-07T17:12:42.624Z",
    "source_name": "google",
    "source_query": "Irrigation Equipment",
    "source_country": "PL",
    "country": "Poland",
    "state": "Greater Poland Voivodeship",
    "city": "Odolanów"
  },
  {
    "source_id": "ChIJv13aMo20GkcRuIJwITpZIug",
    "name": "ASHYDRO",
    "category": "ASHYDRO",
    "formatted_address": "5,0(5)",
    "phone_number": "+48508377657",
    "source_url": "https://www.google.com/maps/place/ASHYDRO/data=!4m7!3m6!1s0x471ab48d32da5dbf:0xe822593a217082b8!8m2!3d51.627431!4d17.762832!16s%2Fg%2F11b6_cnlmt!19sChIJv13aMo20GkcRuIJwITpZIug?authuser=0&hl=tr&rclk=1",
    "website_url": "http://www.ashydro.pl/",
    "rating_text": "5,0",
    "stars": null,
    "number_of_reviews": null,
    "price_level": "",
    "open_hours": "",
    "extraction_timestamp": "2025-06-07T17:12:42.626Z",
    "source_name": "google",
    "source_query": "Irrigation Equipment",
    "source_country": "PL",
    "country": "Poland",
    "state": "Greater Poland Voivodeship",
    "city": "Odolanów"
  },
  {
    "source_id": "ChIJM7fGnetNBUcRzNVeh6eWNwY",
    "name": "ecoautoklinika",
    "category": "ecoautoklinika",
    "formatted_address": "5,0(96)",
    "phone_number": "+48508366205",
    "source_url": "https://www.google.com/maps/place/ecoautoklinika/data=!4m7!3m6!1s0x47054deb9dc6b733:0x63796a7875ed5cc!8m2!3d51.5774104!4d17.6620254!16s%2Fg%2F11t_h4k8jr!19sChIJM7fGnetNBUcRzNVeh6eWNwY?authuser=0&hl=tr&rclk=1",
    "website_url": "https://www.facebook.com/ecoautoklinka",
    "rating_text": "5,0",
    "stars": null,
    "number_of_reviews": null,
    "price_level": "",
    "open_hours": "",
    "extraction_timestamp": "2025-06-07T17:12:42.627Z",
    "source_name": "google",
    "source_query": "Irrigation Equipment",
    "source_country": "PL",
    "country": "Poland",
    "state": "Greater Poland Voivodeship",
    "city": "Odolanów"
  },
  {
    "source_id": "ChIJDXsJ-ylNBUcRS0ACdA3UQ-g",
    "name": "Gminna Spółdzielnia Samopomoc Chłopska W Odolanowie",
    "category": "Gminna Spółdzielnia Samopomoc Chłopska W Odolanowie",
    "formatted_address": "4,8(4)",
    "phone_number": "",
    "source_url": "https://www.google.com/maps/place/Gminna+Sp%C3%B3%C5%82dzielnia+Samopomoc+Ch%C5%82opska+W+Odolanowie/data=!4m7!3m6!1s0x47054d29fb097b0d:0xe843d40d7402404b!8m2!3d51.5764349!4d17.668997!16s%2Fg%2F11h0vqsyp9!19sChIJDXsJ-ylNBUcRS0ACdA3UQ-g?authuser=0&hl=tr&rclk=1",
    "website_url": "",
    "rating_text": "4,8",
    "stars": null,
    "number_of_reviews": null,
    "price_level": "",
    "open_hours": "",
    "extraction_timestamp": "2025-06-07T17:12:42.628Z",
    "source_name": "google",
    "source_query": "Irrigation Equipment",
    "source_country": "PL",
    "country": "Poland",
    "state": "Greater Poland Voivodeship",
    "city": "Odolanów"
  },
  {
    "source_id": "ChIJKQIP4dpMBUcRGfb0cDkDUoQ",
    "name": "Lewiatan",
    "category": "Lewiatan",
    "formatted_address": "4,5(152)",
    "phone_number": "+48787053951",
    "source_url": "https://www.google.com/maps/place/Lewiatan/data=!4m7!3m6!1s0x47054cdae10f0229:0x8452033970f4f619!8m2!3d51.5887222!4d17.6628944!16s%2Fg%2F11cspv6mkx!19sChIJKQIP4dpMBUcRGfb0cDkDUoQ?authuser=0&hl=tr&rclk=1",
    "website_url": "http://www.lewiatan.pl/",
    "rating_text": "4,5",
    "stars": null,
    "number_of_reviews": null,
    "price_level": "",
    "open_hours": "",
    "extraction_timestamp": "2025-06-07T17:12:42.630Z",
    "source_name": "google",
    "source_query": "Irrigation Equipment",
    "source_country": "PL",
    "country": "Poland",
    "state": "Greater Poland Voivodeship",
    "city": "Odolanów"
  },
  {
    "source_id": "ChIJ1y8cb9ZMBUcRZpawnqaxOgE",
    "name": "Biedronka",
    "category": "Biedronka",
    "formatted_address": "4,1(641)",
    "phone_number": "+48800080010",
    "source_url": "https://www.google.com/maps/place/Biedronka/data=!4m7!3m6!1s0x47054cd66f1c2fd7:0x13ab1a69eb09666!8m2!3d51.5786111!4d17.6697222!16s%2Fg%2F11c454xvp8!19sChIJ1y8cb9ZMBUcRZpawnqaxOgE?authuser=0&hl=tr&rclk=1",
    "website_url": "https://www.biedronka.pl/pl?utm_source=gmb",
    "rating_text": "4,1",
    "stars": null,
    "number_of_reviews": null,
    "price_level": "",
    "open_hours": "",
    "extraction_timestamp": "2025-06-07T17:12:42.631Z",
    "source_name": "google",
    "source_query": "Irrigation Equipment",
    "source_country": "PL",
    "country": "Poland",
    "state": "Greater Poland Voivodeship",
    "city": "Odolanów"
  },
  {
    "source_id": "ChIJ_2ST7SpNBUcR6FyPxHdG9cw",
    "name": "Jasik Aneta. Sklep spożywczy",
    "category": "Jasik Aneta. Sklep spożywczy",
    "formatted_address": "5,0(2)",
    "phone_number": "+48627333707",
    "source_url": "https://www.google.com/maps/place/Jasik+Aneta.+Sklep+spo%C5%BCywczy/data=!4m7!3m6!1s0x47054d2aed9364ff:0xccf54677c48f5ce8!8m2!3d51.5745499!4d17.6736931!16s%2Fg%2F1wcxbsyr!19sChIJ_2ST7SpNBUcR6FyPxHdG9cw?authuser=0&hl=tr&rclk=1",
    "website_url": "",
    "rating_text": "5,0",
    "stars": null,
    "number_of_reviews": null,
    "price_level": "",
    "open_hours": "",
    "extraction_timestamp": "2025-06-07T17:12:42.632Z",
    "source_name": "google",
    "source_query": "Irrigation Equipment",
    "source_country": "PL",
    "country": "Poland",
    "state": "Greater Poland Voivodeship",
    "city": "Odolanów"
  },
  {
    "source_id": "ChIJ0baipytNBUcRLYs5GdLUTuM",
    "name": "Dino",
    "category": "Dino",
    "formatted_address": "4,1(263)",
    "phone_number": "",
    "source_url": "https://www.google.com/maps/place/Dino/data=!4m7!3m6!1s0x47054d2ba7a2b6d1:0xe34ed4d219398b2d!8m2!3d51.573102!4d17.6715811!16s%2Fg%2F1tfsg2_2!19sChIJ0baipytNBUcRLYs5GdLUTuM?authuser=0&hl=tr&rclk=1",
    "website_url": "https://marketdino.pl/",
    "rating_text": "4,1",
    "stars": null,
    "number_of_reviews": null,
    "price_level": "",
    "open_hours": "",
    "extraction_timestamp": "2025-06-07T17:12:42.633Z",
    "source_name": "google",
    "source_query": "Irrigation Equipment",
    "source_country": "PL",
    "country": "Poland",
    "state": "Greater Poland Voivodeship",
    "city": "Odolanów"
  },
  {
    "source_id": "ChIJB6y_v5J2HEcRlDfYx3xmc9M",
    "name": "Milex irrigation systems",
    "category": "Milex irrigation systems",
    "formatted_address": "4,6(37)",
    "phone_number": "+48242775222",
    "source_url": "https://www.google.com/maps/place/Milex+irrigation+systems/data=!4m7!3m6!1s0x471c7692bfbfac07:0xd373667cc7d83794!8m2!3d52.4690634!4d19.7520904!16s%2Fg%2F1w2yy67r!19sChIJB6y_v5J2HEcRlDfYx3xmc9M?authuser=0&hl=tr&rclk=1",
    "website_url": "https://www.milex.pl/",
    "rating_text": "4,6",
    "stars": null,
    "number_of_reviews": null,
    "price_level": "",
    "open_hours": "",
    "extraction_timestamp": "2025-06-07T17:12:42.634Z",
    "source_name": "google",
    "source_query": "Irrigation Equipment",
    "source_country": "PL",
    "country": "Poland",
    "state": "Greater Poland Voivodeship",
    "city": "Odolanów"
  },
  {
    "source_id": "ChIJDdDmYF-0GkcRznJ_dc7O48g",
    "name": "Geoserwis. Studnie głębinowe .",
    "category": "Geoserwis. Studnie głębinowe .",
    "formatted_address": "3,0(2)",
    "phone_number": "+48602792320",
    "source_url": "https://www.google.com/maps/place/Geoserwis.+Studnie+g%C5%82%C4%99binowe+./data=!4m7!3m6!1s0x471ab45f60e6d00d:0xc8e3cece757f72ce!8m2!3d51.6279623!4d17.7760877!16s%2Fg%2F11ddw__q0x!19sChIJDdDmYF-0GkcRznJ_dc7O48g?authuser=0&hl=tr&rclk=1",
    "website_url": "http://wiertnik.com.pl/",
    "rating_text": "3,0",
    "stars": null,
    "number_of_reviews": null,
    "price_level": "",
    "open_hours": "",
    "extraction_timestamp": "2025-06-07T17:12:42.635Z",
    "source_name": "google",
    "source_query": "Irrigation Equipment",
    "source_country": "PL",
    "country": "Poland",
    "state": "Greater Poland Voivodeship",
    "city": "Odolanów"
  },
  {
    "source_id": "ChIJGYQ58bKyGkcRiTR2k8ll-3w",
    "name": "INSTALATORSTWO CO WOD KAN i GAZOWE Marek Kowalski",
    "category": "INSTALATORSTWO CO WOD KAN i GAZOWE Marek Kowalski",
    "formatted_address": "4,5(11)",
    "phone_number": "+48627331983",
    "source_url": "https://www.google.com/maps/place/INSTALATORSTWO+CO+WOD+KAN+i+GAZOWE+Marek+Kowalski/data=!4m7!3m6!1s0x471ab2b2f1398419:0x7cfb65c993763489!8m2!3d51.542969!4d17.6549934!16s%2Fg%2F1hc523c2l!19sChIJGYQ58bKyGkcRiTR2k8ll-3w?authuser=0&hl=tr&rclk=1",
    "website_url": "http://www.instalacje-kowalski.pl/",
    "rating_text": "4,5",
    "stars": null,
    "number_of_reviews": null,
    "price_level": "",
    "open_hours": "",
    "extraction_timestamp": "2025-06-07T17:12:42.636Z",
    "source_name": "google",
    "source_query": "Irrigation Equipment",
    "source_country": "PL",
    "country": "Poland",
    "state": "Greater Poland Voivodeship",
    "city": "Odolanów"
  },
  {
    "source_id": "ChIJfer5NyekGkcRUk6SBoom4gE",
    "name": "Hurtownia hydrauliczna Jolanta Dutkowska",
    "category": "Hurtownia hydrauliczna Jolanta Dutkowska",
    "formatted_address": "4,7(21)",
    "phone_number": "+48510211399",
    "source_url": "https://www.google.com/maps/place/Hurtownia+hydrauliczna+Jolanta+Dutkowska/data=!4m7!3m6!1s0x471aa42737f9ea7d:0x1e2268a06924e52!8m2!3d51.4167467!4d17.9146987!16s%2Fg%2F1vqmh32w!19sChIJfer5NyekGkcRUk6SBoom4gE?authuser=0&hl=tr&rclk=1",
    "website_url": "https://www.facebook.com/profile.php?id=100050709747309",
    "rating_text": "4,7",
    "stars": null,
    "number_of_reviews": null,
    "price_level": "",
    "open_hours": "",
    "extraction_timestamp": "2025-06-07T17:12:42.638Z",
    "source_name": "google",
    "source_query": "Irrigation Equipment",
    "source_country": "PL",
    "country": "Poland",
    "state": "Greater Poland Voivodeship",
    "city": "Odolanów"
  },
  {
    "source_id": "ChIJe4YPHdK1GkcRx7agDZMj4rs",
    "name": "Sanpol Ostrów Wlkp. - hurtownia instalacyjna, hydrauliczna, sanitarna",
    "category": "Sanpol Ostrów Wlkp. - hurtownia instalacyjna, hydrauliczna, sanitarna",
    "formatted_address": "Sanpol Ostrów Wlkp. - hurtownia instalacyjna, hydrauliczna, sanitarna",
    "phone_number": "+48627369631",
    "source_url": "https://www.google.com/maps/place/Sanpol+Ostr%C3%B3w+Wlkp.+-+hurtownia+instalacyjna,+hydrauliczna,+sanitarna/data=!4m7!3m6!1s0x471ab5d21d0f867b:0xbbe223930da0b6c7!8m2!3d51.6391299!4d17.8364589!16s%2Fg%2F11gzcvrzh!19sChIJe4YPHdK1GkcRx7agDZMj4rs?authuser=0&hl=tr&rclk=1",
    "website_url": "https://sanpol.pl/kontakt/sanpol-ostrow-wlkp",
    "rating_text": "4,9",
    "stars": null,
    "number_of_reviews": null,
    "price_level": "",
    "open_hours": "",
    "extraction_timestamp": "2025-06-07T17:12:42.639Z",
    "source_name": "google",
    "source_query": "Irrigation Equipment",
    "source_country": "PL",
    "country": "Poland",
    "state": "Greater Poland Voivodeship",
    "city": "Odolanów"
  },
  {
    "source_id": "ChIJARsQ31fPGkcRPp9yuThQF7E",
    "name": "SCAPE sp. z o.o. | Infrastruktura dla architektury krajobrazu",
    "category": "SCAPE sp. z o.o. | Infrastruktura dla architektury krajobrazu",
    "formatted_address": "3,5(11)",
    "phone_number": "+48600044019",
    "source_url": "https://www.google.com/maps/place/SCAPE+sp.+z+o.o.+%7C+Infrastruktura+dla+architektury+krajobrazu/data=!4m7!3m6!1s0x471acf57df101b01:0xb1175038b9729f3e!8m2!3d51.7590375!4d18.0779258!16s%2Fg%2F1pxq7y5hn!19sChIJARsQ31fPGkcRPp9yuThQF7E?authuser=0&hl=tr&rclk=1",
    "website_url": "http://www.scape.pl/",
    "rating_text": "3,5",
    "stars": null,
    "number_of_reviews": null,
    "price_level": "",
    "open_hours": "",
    "extraction_timestamp": "2025-06-07T17:12:42.640Z",
    "source_name": "google",
    "source_query": "Irrigation Equipment",
    "source_country": "PL",
    "country": "Poland",
    "state": "Greater Poland Voivodeship",
    "city": "Odolanów"
  },
  {
    "source_id": "ChIJSTBKD_K1GkcRKfreWQV6Tg0",
    "name": "SOLSTI - Odnawialne Źródła Energii",
    "category": "SOLSTI - Odnawialne Źródła Energii",
    "formatted_address": "5,0(33)",
    "phone_number": "+48798996827",
    "source_url": "https://www.google.com/maps/place/SOLSTI+-+Odnawialne+%C5%B9r%C3%B3d%C5%82a+Energii/data=!4m7!3m6!1s0x471ab5f20f4a3049:0xd4e7a0559defa29!8m2!3d51.6531187!4d17.8215543!16s%2Fg%2F11vbx5htq0!19sChIJSTBKD_K1GkcRKfreWQV6Tg0?authuser=0&hl=tr&rclk=1",
    "website_url": "http://www.solsti.pl/",
    "rating_text": "5,0",
    "stars": null,
    "number_of_reviews": null,
    "price_level": "",
    "open_hours": "",
    "extraction_timestamp": "2025-06-07T17:12:42.641Z",
    "source_name": "google",
    "source_query": "Irrigation Equipment",
    "source_country": "PL",
    "country": "Poland",
    "state": "Greater Poland Voivodeship",
    "city": "Odolanów"
  },
  {
    "source_id": "ChIJP_RaJRVdBUcRJnNEonWqi1o",
    "name": "ECOLAND Waldemar Skotarek- Nawadnianie ogrodów",
    "category": "ECOLAND Waldemar Skotarek- Nawadnianie ogrodów",
    "formatted_address": "5,0(4)",
    "phone_number": "+48797895783",
    "source_url": "https://www.google.com/maps/place/ECOLAND+Waldemar+Skotarek-+Nawadnianie+ogrod%C3%B3w/data=!4m7!3m6!1s0x47055d15255af43f:0x5a8baa75a2447326!8m2!3d51.5516189!4d17.1677255!16s%2Fg%2F11p_5trb_c!19sChIJP_RaJRVdBUcRJnNEonWqi1o?authuser=0&hl=tr&rclk=1",
    "website_url": "",
    "rating_text": "5,0",
    "stars": null,
    "number_of_reviews": null,
    "price_level": "",
    "open_hours": "",
    "extraction_timestamp": "2025-06-07T17:12:42.641Z",
    "source_name": "google",
    "source_query": "Irrigation Equipment",
    "source_country": "PL",
    "country": "Poland",
    "state": "Greater Poland Voivodeship",
    "city": "Odolanów"
  },
  {
    "source_id": "ChIJ9TilOCw-G0cRiu9zyMaVcnI",
    "name": "Instalkran. Art. instalacyjne, ceramika łazienkowa, wod. - kan.",
    "category": "Instalkran. Art. instalacyjne, ceramika łazienkowa, wod. - kan.",
    "formatted_address": "Instalkran. Art. instalacyjne, ceramika łazienkowa, wod. - kan.",
    "phone_number": "+48632610442",
    "source_url": "https://www.google.com/maps/place/Instalkran.+Art.+instalacyjne,+ceramika+%C5%82azienkowa,+wod.+-+kan./data=!4m7!3m6!1s0x471b3e2c38a538f5:0x727295c6c873ef8a!8m2!3d52.208267!4d18.620523!16s%2Fg%2F1tgllnd0!19sChIJ9TilOCw-G0cRiu9zyMaVcnI?authuser=0&hl=tr&rclk=1",
    "website_url": "",
    "rating_text": "4,7",
    "stars": null,
    "number_of_reviews": null,
    "price_level": "",
    "open_hours": "",
    "extraction_timestamp": "2025-06-07T17:12:42.642Z",
    "source_name": "google",
    "source_query": "Irrigation Equipment",
    "source_country": "PL",
    "country": "Poland",
    "state": "Greater Poland Voivodeship",
    "city": "Odolanów"
  },
  {
    "source_id": "ChIJzzUhKQ1LBUcRFxqnNGjfLMQ",
    "name": "Hydraulika Płonka Wierzbno",
    "category": "Hydraulika Płonka Wierzbno",
    "formatted_address": "5,0(28)",
    "phone_number": "+48667404542",
    "source_url": "https://www.google.com/maps/place/Hydraulika+P%C5%82onka+Wierzbno/data=!4m7!3m6!1s0x47054b0d292135cf:0xc42cdf6834a71a17!8m2!3d51.6360591!4d17.67778!16s%2Fg%2F11ln3ljvw6!19sChIJzzUhKQ1LBUcRFxqnNGjfLMQ?authuser=0&hl=tr&rclk=1",
    "website_url": "",
    "rating_text": "5,0",
    "stars": null,
    "number_of_reviews": null,
    "price_level": "",
    "open_hours": "",
    "extraction_timestamp": "2025-06-07T17:12:42.643Z",
    "source_name": "google",
    "source_query": "Irrigation Equipment",
    "source_country": "PL",
    "country": "Poland",
    "state": "Greater Poland Voivodeship",
    "city": "Odolanów"
  },
  {
    "source_id": "ChIJnSDxdAAFG0cRG6imjJGwI30",
    "name": "Tężnia w Uniejowie I Pijalnia Wód",
    "category": "Tężnia w Uniejowie I Pijalnia Wód",
    "formatted_address": "4,7(130)",
    "phone_number": "",
    "source_url": "https://www.google.com/maps/place/T%C4%99%C5%BCnia+w+Uniejowie+I+Pijalnia+W%C3%B3d/data=!4m7!3m6!1s0x471b050074f1209d:0x7d23b0918ca6a81b!8m2!3d51.9648405!4d18.7912727!16s%2Fg%2F11y3vggmgd!19sChIJnSDxdAAFG0cRG6imjJGwI30?authuser=0&hl=tr&rclk=1",
    "website_url": "",
    "rating_text": "4,7",
    "stars": null,
    "number_of_reviews": null,
    "price_level": "",
    "open_hours": "",
    "extraction_timestamp": "2025-06-07T17:12:42.644Z",
    "source_name": "google",
    "source_query": "Irrigation Equipment",
    "source_country": "PL",
    "country": "Poland",
    "state": "Greater Poland Voivodeship",
    "city": "Odolanów"
  },
  {
    "source_id": "ChIJPxAOm5q1GkcRurokjr43GYU",
    "name": "Adventure Park Piaski Szczygliczka",
    "category": "Adventure Park Piaski Szczygliczka",
    "formatted_address": "4,6(1.140)",
    "phone_number": "",
    "source_url": "https://www.google.com/maps/place/Adventure+Park+Piaski+Szczygliczka/data=!4m7!3m6!1s0x471ab59a9b0e103f:0x851937be8e24baba!8m2!3d51.6692029!4d17.8156831!16s%2Fg%2F1q6jzg7nf!19sChIJPxAOm5q1GkcRurokjr43GYU?authuser=0&hl=tr&rclk=1",
    "website_url": "https://parkprzygod.ostrow.net.pl/",
    "rating_text": "4,6",
    "stars": null,
    "number_of_reviews": null,
    "price_level": "",
    "open_hours": "",
    "extraction_timestamp": "2025-06-07T17:12:42.645Z",
    "source_name": "google",
    "source_query": "Irrigation Equipment",
    "source_country": "PL",
    "country": "Poland",
    "state": "Greater Poland Voivodeship",
    "city": "Odolanów"
  },
  {
    "source_id": "ChIJASCJ43ohG0cR0FpINxy2VRU",
    "name": "Szukanie wody pod studnie głębinowe - Tomografia Elektrooporowa",
    "category": "Szukanie wody pod studnie głębinowe - Tomografia Elektrooporowa",
    "formatted_address": "4,3(15)",
    "phone_number": "+48601921922",
    "source_url": "https://www.google.com/maps/place/Szukanie+wody+pod+studnie+g%C5%82%C4%99binowe+-+Tomografia+Elektrooporowa/data=!4m7!3m6!1s0x471b217ae3892001:0x1555b61c37485ad0!8m2!3d52.0171712!4d18.4578366!16s%2Fg%2F11g0g_jhzs!19sChIJASCJ43ohG0cR0FpINxy2VRU?authuser=0&hl=tr&rclk=1",
    "website_url": "https://szukanie-wody.pl/",
    "rating_text": "4,3",
    "stars": null,
    "number_of_reviews": null,
    "price_level": "",
    "open_hours": "",
    "extraction_timestamp": "2025-06-07T17:12:42.646Z",
    "source_name": "google",
    "source_query": "Irrigation Equipment",
    "source_country": "PL",
    "country": "Poland",
    "state": "Greater Poland Voivodeship",
    "city": "Odolanów"
  },
  {
    "source_id": "ChIJVVVVVQnKGkcRd2aNroLxE_M",
    "name": "MINIKOP Roboty ziemne",
    "category": "MINIKOP Roboty ziemne",
    "formatted_address": "4,0(4)",
    "phone_number": "+48606329437",
    "source_url": "https://www.google.com/maps/place/MINIKOP+Roboty+ziemne/data=!4m7!3m6!1s0x471aca0955555555:0xf313f182ae8d6677!8m2!3d51.646258!4d17.729649!16s%2Fg%2F11j8l63r8l!19sChIJVVVVVQnKGkcRd2aNroLxE_M?authuser=0&hl=tr&rclk=1",
    "website_url": "http://minikop.pl/",
    "rating_text": "4,0",
    "stars": null,
    "number_of_reviews": null,
    "price_level": "",
    "open_hours": "",
    "extraction_timestamp": "2025-06-07T17:12:42.647Z",
    "source_name": "google",
    "source_query": "Irrigation Equipment",
    "source_country": "PL",
    "country": "Poland",
    "state": "Greater Poland Voivodeship",
    "city": "Odolanów"
  },
  {
    "source_id": "ChIJVQapkZIbG0cR7Dz4PdRFeVU",
    "name": "Przykona Kąpielisko",
    "category": "Przykona Kąpielisko",
    "formatted_address": "4,4(985) · ₺",
    "phone_number": "",
    "source_url": "https://www.google.com/maps/place/Przykona+K%C4%85pielisko/data=!4m7!3m6!1s0x471b1b9291a90655:0x557945d43df83cec!8m2!3d51.9999091!4d18.6636311!16s%2Fg%2F11cs24btc6!19sChIJVQapkZIbG0cR7Dz4PdRFeVU?authuser=0&hl=tr&rclk=1",
    "website_url": "",
    "rating_text": "4,4",
    "stars": null,
    "number_of_reviews": null,
    "price_level": "",
    "open_hours": "",
    "extraction_timestamp": "2025-06-07T17:12:42.648Z",
    "source_name": "google",
    "source_query": "Irrigation Equipment",
    "source_country": "PL",
    "country": "Poland",
    "state": "Greater Poland Voivodeship",
    "city": "Odolanów"
  }
]
