[
  {
    "source_id": "ChIJUfn2Ig35A0cREW9fZ4029UM",
    "name": "IMTechnika sp. z o.o.",
    "category": "IMTechnika sp. z o.o.",
    "formatted_address": "4,4(17)",
    "phone_number": "+48883820388",
    "source_url": "https://www.google.com/maps/place/IMTechnika+sp.+z+o.o./data=!4m7!3m6!1s0x4703f90d22f6f951:0x43f5368d675f6f11!8m2!3d52.9756271!4d16.657836!16s%2Fg%2F11bw48_6mg!19sChIJUfn2Ig35A0cREW9fZ4029UM?authuser=0&hl=tr&rclk=1",
    "website_url": "http://imtechnika.pl/",
    "rating_text": "4,4",
    "stars": null,
    "number_of_reviews": null,
    "price_level": "",
    "open_hours": "",
    "extraction_timestamp": "2025-06-07T17:59:46.714Z",
    "source_name": "google",
    "source_query": "Irrigation Equipment",
    "source_country": "PL",
    "country": "Poland",
    "state": "Greater Poland Voivodeship",
    "city": "Okonek"
  },
  {
    "source_id": "ChIJM-ecNit-SUUR0JDIjLCfLXg",
    "name": "Hydro-Tech Studnie",
    "category": "Hydro-Tech Studnie",
    "formatted_address": "5,0(4)",
    "phone_number": "+48605172523",
    "source_url": "https://www.google.com/maps/place/Hydro-Tech+Studnie/data=!4m7!3m6!1s0x45497e2b369ce733:0x782d9fb08cc890d0!8m2!3d53.1443301!4d17.0444372!16s%2Fg%2F11x2vjjl2k!19sChIJM-ecNit-SUUR0JDIjLCfLXg?authuser=0&hl=tr&rclk=1",
    "website_url": "",
    "rating_text": "5,0",
    "stars": null,
    "number_of_reviews": null,
    "price_level": "",
    "open_hours": "",
    "extraction_timestamp": "2025-06-07T17:59:46.714Z",
    "source_name": "google",
    "source_query": "Irrigation Equipment",
    "source_country": "PL",
    "country": "Poland",
    "state": "Greater Poland Voivodeship",
    "city": "Okonek"
  },
  {
    "source_id": "ChIJB6y_v5J2HEcRlDfYx3xmc9M",
    "name": "Milex irrigation systems",
    "category": "Milex irrigation systems",
    "formatted_address": "4,6(37)",
    "phone_number": "+48242775222",
    "source_url": "https://www.google.com/maps/place/Milex+irrigation+systems/data=!4m7!3m6!1s0x471c7692bfbfac07:0xd373667cc7d83794!8m2!3d52.4690634!4d19.7520904!16s%2Fg%2F1w2yy67r!19sChIJB6y_v5J2HEcRlDfYx3xmc9M?authuser=0&hl=tr&rclk=1",
    "website_url": "https://www.milex.pl/",
    "rating_text": "4,6",
    "stars": null,
    "number_of_reviews": null,
    "price_level": "",
    "open_hours": "",
    "extraction_timestamp": "2025-06-07T17:59:46.715Z",
    "source_name": "google",
    "source_query": "Irrigation Equipment",
    "source_country": "PL",
    "country": "Poland",
    "state": "Greater Poland Voivodeship",
    "city": "Okonek"
  },
  {
    "source_id": "ChIJOcWoToO26GMReNvhll3JWj4",
    "name": "Hydreen.pl | Automatyczne systemy nawadniające. Projektowanie, dostawa, montaż, serwis.",
    "category": "Hydreen.pl | Automatyczne systemy nawadniające. Projektowanie, dostawa, montaż, serwis.",
    "formatted_address": "Hydreen.pl | Automatyczne systemy nawadniające. Projektowanie, dostawa, montaż, serwis.",
    "phone_number": "+48694429669",
    "source_url": "https://www.google.com/maps/place/Hydreen.pl+%7C+Automatyczne+systemy+nawadniaj%C4%85ce.+Projektowanie,+dostawa,+monta%C5%BC,+serwis./data=!4m7!3m6!1s0x63e8b6834ea8c539:0x3e5ac95d96e1db78!8m2!3d54.1601!4d19.4437316!16s%2Fg%2F11m67mc1_m!19sChIJOcWoToO26GMReNvhll3JWj4?authuser=0&hl=tr&rclk=1",
    "website_url": "https://www.hydreen.pl/",
    "rating_text": "5,0",
    "stars": null,
    "number_of_reviews": null,
    "price_level": "",
    "open_hours": "",
    "extraction_timestamp": "2025-06-07T17:59:46.715Z",
    "source_name": "google",
    "source_query": "Irrigation Equipment",
    "source_country": "PL",
    "country": "Poland",
    "state": "Greater Poland Voivodeship",
    "city": "Okonek"
  },
  {
    "source_id": "ChIJLTHW4A71AEcRJdtcwgvCTNk",
    "name": "Nawodnienia Niewczas",
    "category": "Nawodnienia Niewczas",
    "formatted_address": "",
    "phone_number": "+48518361528",
    "source_url": "https://www.google.com/maps/place/Nawodnienia+Niewczas/data=!4m7!3m6!1s0x4700f50ee0d6312d:0xd94cc20bc25cdb25!8m2!3d53.77037!4d15.4171842!16s%2Fg%2F11x2gvy1bl!19sChIJLTHW4A71AEcRJdtcwgvCTNk?authuser=0&hl=tr&rclk=1",
    "website_url": "",
    "rating_text": "",
    "stars": null,
    "number_of_reviews": null,
    "price_level": "",
    "open_hours": "",
    "extraction_timestamp": "2025-06-07T17:59:46.715Z",
    "source_name": "google",
    "source_query": "Irrigation Equipment",
    "source_country": "PL",
    "country": "Poland",
    "state": "Greater Poland Voivodeship",
    "city": "Okonek"
  },
  {
    "source_id": "ChIJ76WAmPBgGUcRnx47bXjXTwU",
    "name": "Agrofim Poland Sp. z o.o.",
    "category": "Agrofim Poland Sp. z o.o.",
    "formatted_address": "3,8(6)",
    "phone_number": "+48468332266",
    "source_url": "https://www.google.com/maps/place/Agrofim+Poland+Sp.+z+o.o./data=!4m7!3m6!1s0x471960f09880a5ef:0x54fd7786d3b1e9f!8m2!3d51.9616303!4d20.1543898!16s%2Fg%2F1tdnjw7b!19sChIJ76WAmPBgGUcRnx47bXjXTwU?authuser=0&hl=tr&rclk=1",
    "website_url": "http://agrofim.pl/",
    "rating_text": "3,8",
    "stars": null,
    "number_of_reviews": null,
    "price_level": "",
    "open_hours": "",
    "extraction_timestamp": "2025-06-07T17:59:46.715Z",
    "source_name": "google",
    "source_query": "Irrigation Equipment",
    "source_country": "PL",
    "country": "Poland",
    "state": "Greater Poland Voivodeship",
    "city": "Okonek"
  }
]
