[
  {
    "source_id": "ChIJCyKhHcEzBEcR_RInXGOvvGQ",
    "name": " EWIMAX.pl - Sklep - Autoryzowany Dealer OLEO-MAC, CEDRUS, WEIBANG,LONCIN,Kosiarki,Traktorki,Rozdrabniacze,uparki,Agregaty",
    "category": " EWIMAX.pl - Sklep - Autoryzowany Dealer OLEO-MAC, CEDRUS, WEIBANG,LONCIN,Kosiarki,Traktorki,Rozdrabniacze,uparki,Agregaty",
    "formatted_address": " EWIMAX.pl - Sklep - Autoryzowany Dealer OLEO-MAC, CEDRUS, WEIBANG,LONCIN,Kosiarki,Traktorki,Rozdrabniacze,uparki,Agregaty",
    "phone_number": "+48517428399",
    "source_url": "https://www.google.com/maps/place/%F0%9F%93%8C+EWIMAX.pl+-+Sklep+-+Autoryzowany+Dealer+OLEO-MAC,+CEDRUS,+WEIBANG,LONCIN,Kosiarki,Traktorki,Rozdrabniacze,%C5%81uparki,Agregaty/data=!4m7!3m6!1s0x470433c11da1220b:0x64bcaf635c2712fd!8m2!3d52.310187!4d16.419981!16s%2Fg%2F1hhny_8bg!19sChIJCyKhHcEzBEcR_RInXGOvvGQ?authuser=0&hl=tr&rclk=1",
    "website_url": "https://www.ewimax.pl/",
    "rating_text": "4,5",
    "stars": null,
    "number_of_reviews": null,
    "price_level": "",
    "open_hours": "",
    "extraction_timestamp": "2025-06-07T17:47:34.085Z",
    "source_name": "google",
    "source_query": "Irrigation Equipment",
    "source_country": "PL",
    "country": "Poland",
    "state": "Greater Poland Voivodeship",
    "city": "Opalenica"
  },
  {
    "source_id": "ChIJ5ZETlb8zBEcRxV-KKL5Xa9Y",
    "name": "Stiga Dealer -Koma. Centrum Ogrodnicze. Art. ogrodnicze. Kotecka M.",
    "category": "Stiga Dealer -Koma. Centrum Ogrodnicze. Art. ogrodnicze. Kotecka M.",
    "formatted_address": "4,6(45)",
    "phone_number": "+48614477645",
    "source_url": "https://www.google.com/maps/place/Stiga+Dealer+-Koma.+Centrum+Ogrodnicze.+Art.+ogrodnicze.+Kotecka+M./data=!4m7!3m6!1s0x470433bf951391e5:0xd66b57be288a5fc5!8m2!3d52.3061357!4d16.4205927!16s%2Fg%2F1tq4psyf!19sChIJ5ZETlb8zBEcRxV-KKL5Xa9Y?authuser=0&hl=tr&rclk=1",
    "website_url": "http://www.koma-opalenica.pl/",
    "rating_text": "4,6",
    "stars": null,
    "number_of_reviews": null,
    "price_level": "",
    "open_hours": "",
    "extraction_timestamp": "2025-06-07T17:47:34.086Z",
    "source_name": "google",
    "source_query": "Irrigation Equipment",
    "source_country": "PL",
    "country": "Poland",
    "state": "Greater Poland Voivodeship",
    "city": "Opalenica"
  },
  {
    "source_id": "ChIJH6lF4sAzBEcRBNvmL7gDB5g",
    "name": "Salon Pytek i azienek | Farby i Impregnaty | Panele Podogowe | Opalenica",
    "category": "Salon Pytek i azienek | Farby i Impregnaty | Panele Podogowe | Opalenica",
    "formatted_address": "4,7(34)",
    "phone_number": "+48614474597",
    "source_url": "https://www.google.com/maps/place/Salon+P%C5%82ytek+i+%C5%81azienek+%7C+Farby+i+Impregnaty+%7C+Panele+Pod%C5%82ogowe+%7C+Opalenica/data=!4m7!3m6!1s0x470433c0e245a91f:0x980703b82fe6db04!8m2!3d52.3103458!4d16.4180322!16s%2Fg%2F1v5_83jf!19sChIJH6lF4sAzBEcRBNvmL7gDB5g?authuser=0&hl=tr&rclk=1",
    "website_url": "https://www.facebook.com/Dormax-Opalenica-1239915079478302/",
    "rating_text": "4,7",
    "stars": null,
    "number_of_reviews": null,
    "price_level": "",
    "open_hours": "",
    "extraction_timestamp": "2025-06-07T17:47:34.087Z",
    "source_name": "google",
    "source_query": "Irrigation Equipment",
    "source_country": "PL",
    "country": "Poland",
    "state": "Greater Poland Voivodeship",
    "city": "Opalenica"
  },
  {
    "source_id": "ChIJcx_nnbkzBEcRnhAReOa3XWQ",
    "name": "Intermarche",
    "category": "Intermarche",
    "formatted_address": "4,2(516)",
    "phone_number": "",
    "source_url": "https://www.google.com/maps/place/Intermarche/data=!4m7!3m6!1s0x470433b99de71f73:0x645db7e67811109e!8m2!3d52.3044452!4d16.4095886!16s%2Fg%2F11gd_sfcw7!19sChIJcx_nnbkzBEcRnhAReOa3XWQ?authuser=0&hl=tr&rclk=1",
    "website_url": "http://www.intermarche.pl/",
    "rating_text": "4,2",
    "stars": null,
    "number_of_reviews": null,
    "price_level": "",
    "open_hours": "",
    "extraction_timestamp": "2025-06-07T17:47:34.088Z",
    "source_name": "google",
    "source_query": "Irrigation Equipment",
    "source_country": "PL",
    "country": "Poland",
    "state": "Greater Poland Voivodeship",
    "city": "Opalenica"
  },
  {
    "source_id": "ChIJ0wXFRMszBEcRKo1Q0Y75nAw",
    "name": "Instalacje sanitarne Instal Kaczmarek",
    "category": "Instalacje sanitarne Instal Kaczmarek",
    "formatted_address": "5,0(2)",
    "phone_number": "+48502187628",
    "source_url": "https://www.google.com/maps/place/Instalacje+sanitarne+Instal+Kaczmarek/data=!4m7!3m6!1s0x470433cb44c505d3:0xc9cf98ed1508d2a!8m2!3d52.315079!4d16.3980527!16s%2Fg%2F1v6wn00r!19sChIJ0wXFRMszBEcRKo1Q0Y75nAw?authuser=0&hl=tr&rclk=1",
    "website_url": "https://www.instalopalenica.pl/",
    "rating_text": "5,0",
    "stars": null,
    "number_of_reviews": null,
    "price_level": "",
    "open_hours": "",
    "extraction_timestamp": "2025-06-07T17:47:34.088Z",
    "source_name": "google",
    "source_query": "Irrigation Equipment",
    "source_country": "PL",
    "country": "Poland",
    "state": "Greater Poland Voivodeship",
    "city": "Opalenica"
  },
  {
    "source_id": "ChIJr15GMSYzBEcR5M3MzHdzTmk",
    "name": "SunnyHouse",
    "category": "SunnyHouse",
    "formatted_address": "4,8(25)",
    "phone_number": "",
    "source_url": "https://www.google.com/maps/place/SunnyHouse/data=!4m7!3m6!1s0x4704332631465eaf:0x694e7377cccccde4!8m2!3d52.3020406!4d16.4140578!16s%2Fg%2F11hzz8kkfr!19sChIJr15GMSYzBEcR5M3MzHdzTmk?authuser=0&hl=tr&rclk=1",
    "website_url": "https://www.sunnyhouse.pl/",
    "rating_text": "4,8",
    "stars": null,
    "number_of_reviews": null,
    "price_level": "",
    "open_hours": "",
    "extraction_timestamp": "2025-06-07T17:47:34.089Z",
    "source_name": "google",
    "source_query": "Irrigation Equipment",
    "source_country": "PL",
    "country": "Poland",
    "state": "Greater Poland Voivodeship",
    "city": "Opalenica"
  },
  {
    "source_id": "ChIJFRR18-ozBEcRgO9rQF8enDY",
    "name": "HYDRO-WITA",
    "category": "HYDRO-WITA",
    "formatted_address": "5,0(1)",
    "phone_number": "+48604120810",
    "source_url": "https://www.google.com/maps/place/HYDRO-WITA/data=!4m7!3m6!1s0x470433eaf3751415:0x369c1e5f406bef80!8m2!3d52.308816!4d16.4265659!16s%2Fg%2F11fft_pmmr!19sChIJFRR18-ozBEcRgO9rQF8enDY?authuser=0&hl=tr&rclk=1",
    "website_url": "",
    "rating_text": "5,0",
    "stars": null,
    "number_of_reviews": null,
    "price_level": "",
    "open_hours": "",
    "extraction_timestamp": "2025-06-07T17:47:34.090Z",
    "source_name": "google",
    "source_query": "Irrigation Equipment",
    "source_country": "PL",
    "country": "Poland",
    "state": "Greater Poland Voivodeship",
    "city": "Opalenica"
  },
  {
    "source_id": "ChIJ4a4FVytZZawRHyt-6zfZwSw",
    "name": "Alex hydraulik Pozna, instalator, usugi hydrauliczne, pogotowie hydrauliczne",
    "category": "Alex hydraulik Pozna, instalator, usugi hydrauliczne, pogotowie hydrauliczne",
    "formatted_address": "Alex hydraulik Pozna, instalator, usugi hydrauliczne, pogotowie hydrauliczne",
    "phone_number": "+48791119472",
    "source_url": "https://www.google.com/maps/place/Alex+hydraulik+Pozna%C5%84,+instalator,+us%C5%82ugi+hydrauliczne,+pogotowie+hydrauliczne/data=!4m7!3m6!1s0xac65592b5705aee1:0x2cc1d937eb7e2b1f!8m2!3d52.4161319!4d16.925274!16s%2Fg%2F11wy92ghx9!19sChIJ4a4FVytZZawRHyt-6zfZwSw?authuser=0&hl=tr&rclk=1",
    "website_url": "https://www.hydraulik.poznan.pl/",
    "rating_text": "5,0",
    "stars": null,
    "number_of_reviews": null,
    "price_level": "",
    "open_hours": "",
    "extraction_timestamp": "2025-06-07T17:47:34.091Z",
    "source_name": "google",
    "source_query": "Irrigation Equipment",
    "source_country": "PL",
    "country": "Poland",
    "state": "Greater Poland Voivodeship",
    "city": "Opalenica"
  },
  {
    "source_id": "ChIJ3W-rO-wzBEcRHvNX5gCfKk4",
    "name": "Sawomir. Chwirot S.",
    "category": "Sawomir. Chwirot S.",
    "formatted_address": "4,8(47)",
    "phone_number": "+48614475651",
    "source_url": "https://www.google.com/maps/place/S%C5%82awomir.+Chwirot+S./data=!4m7!3m6!1s0x470433ec3bab6fdd:0x4e2a9f00e657f31e!8m2!3d52.3096571!4d16.4348024!16s%2Fg%2F1tdy355n!19sChIJ3W-rO-wzBEcRHvNX5gCfKk4?authuser=0&hl=tr&rclk=1",
    "website_url": "",
    "rating_text": "4,8",
    "stars": null,
    "number_of_reviews": null,
    "price_level": "",
    "open_hours": "",
    "extraction_timestamp": "2025-06-07T17:47:34.092Z",
    "source_name": "google",
    "source_query": "Irrigation Equipment",
    "source_country": "PL",
    "country": "Poland",
    "state": "Greater Poland Voivodeship",
    "city": "Opalenica"
  },
  {
    "source_id": "ChIJAyPoz8EzBEcR7bwLy_KyWYI",
    "name": "POLOmarket",
    "category": "POLOmarket",
    "formatted_address": "4,1(394)",
    "phone_number": "+48518012108",
    "source_url": "https://www.google.com/maps/place/POLOmarket/data=!4m7!3m6!1s0x470433c1cfe82303:0x8259b2f2cb0bbced!8m2!3d52.3104998!4d16.4245445!16s%2Fg%2F11c0pltm25!19sChIJAyPoz8EzBEcR7bwLy_KyWYI?authuser=0&hl=tr&rclk=1",
    "website_url": "https://www.polomarket.pl/",
    "rating_text": "4,1",
    "stars": null,
    "number_of_reviews": null,
    "price_level": "",
    "open_hours": "",
    "extraction_timestamp": "2025-06-07T17:47:34.093Z",
    "source_name": "google",
    "source_query": "Irrigation Equipment",
    "source_country": "PL",
    "country": "Poland",
    "state": "Greater Poland Voivodeship",
    "city": "Opalenica"
  },
  {
    "source_id": "ChIJOd2Nn0wyBEcRFfnIf6IVEK4",
    "name": "PSB Mr贸wka",
    "category": "PSB Mr贸wka",
    "formatted_address": "4,1(387)",
    "phone_number": "+48614478373",
    "source_url": "https://www.google.com/maps/place/PSB+Mr%C3%B3wka/data=!4m7!3m6!1s0x4704324c9f8ddd39:0xae1015a27fc8f915!8m2!3d52.3064272!4d16.3894084!16s%2Fg%2F12hs52ns5!19sChIJOd2Nn0wyBEcRFfnIf6IVEK4?authuser=0&hl=tr&rclk=1",
    "website_url": "https://mrowka.com.pl/sklep-psb-mrowka/psb-mrowka-opalenica.html",
    "rating_text": "4,1",
    "stars": null,
    "number_of_reviews": null,
    "price_level": "",
    "open_hours": "",
    "extraction_timestamp": "2025-06-07T17:47:34.094Z",
    "source_name": "google",
    "source_query": "Irrigation Equipment",
    "source_country": "PL",
    "country": "Poland",
    "state": "Greater Poland Voivodeship",
    "city": "Opalenica"
  },
  {
    "source_id": "ChIJG-8gxMYzBEcRG9W2HE1mY94",
    "name": "PPU ETA - Elektryk / Hydraulik",
    "category": "PPU ETA - Elektryk / Hydraulik",
    "formatted_address": "5,0(4)",
    "phone_number": "+48508362898",
    "source_url": "https://www.google.com/maps/place/PPU+ETA+-+Elektryk+%2F+Hydraulik/data=!4m7!3m6!1s0x470433c6c420ef1b:0xde63664d1cb6d51b!8m2!3d52.3116784!4d16.4166162!16s%2Fg%2F1xn_m2kb!19sChIJG-8gxMYzBEcRG9W2HE1mY94?authuser=0&hl=tr&rclk=1",
    "website_url": "",
    "rating_text": "5,0",
    "stars": null,
    "number_of_reviews": null,
    "price_level": "",
    "open_hours": "",
    "extraction_timestamp": "2025-06-07T17:47:34.094Z",
    "source_name": "google",
    "source_query": "Irrigation Equipment",
    "source_country": "PL",
    "country": "Poland",
    "state": "Greater Poland Voivodeship",
    "city": "Opalenica"
  },
  {
    "source_id": "ChIJmyGQ4Z0zBEcRJWKDoiIjNhc",
    "name": "AKWELP Pawe Plewka",
    "category": "AKWELP Pawe Plewka",
    "formatted_address": "5,0(7)",
    "phone_number": "+48794581175",
    "source_url": "https://www.google.com/maps/place/AKWELP+Pawe%C5%82+Plewka/data=!4m7!3m6!1s0x4704339de190219b:0x17362322a2836225!8m2!3d52.3077977!4d16.4120347!16s%2Fg%2F11wmy08p8h!19sChIJmyGQ4Z0zBEcRJWKDoiIjNhc?authuser=0&hl=tr&rclk=1",
    "website_url": "https://www.facebook.com/AKWELP",
    "rating_text": "5,0",
    "stars": null,
    "number_of_reviews": null,
    "price_level": "",
    "open_hours": "",
    "extraction_timestamp": "2025-06-07T17:47:34.095Z",
    "source_name": "google",
    "source_query": "Irrigation Equipment",
    "source_country": "PL",
    "country": "Poland",
    "state": "Greater Poland Voivodeship",
    "city": "Opalenica"
  },
  {
    "source_id": "ChIJZz9YmK0zBEcR7YEddmAbm5w",
    "name": "BlobTech Hydraulika siowa dla przemysu - oddzia serwisowy",
    "category": "BlobTech Hydraulika siowa dla przemysu - oddzia serwisowy",
    "formatted_address": "",
    "phone_number": "+48606250024",
    "source_url": "https://www.google.com/maps/place/BlobTech+Hydraulika+si%C5%82owa+dla+przemys%C5%82u+-+oddzia%C5%82+serwisowy/data=!4m7!3m6!1s0x470433ad98583f67:0x9c9b1b60761d81ed!8m2!3d52.3142823!4d16.3959531!16s%2Fg%2F11h2lnz738!19sChIJZz9YmK0zBEcR7YEddmAbm5w?authuser=0&hl=tr&rclk=1",
    "website_url": "https://www.blobtech.pl/",
    "rating_text": "",
    "stars": null,
    "number_of_reviews": null,
    "price_level": "",
    "open_hours": "",
    "extraction_timestamp": "2025-06-07T17:47:34.096Z",
    "source_name": "google",
    "source_query": "Irrigation Equipment",
    "source_country": "PL",
    "country": "Poland",
    "state": "Greater Poland Voivodeship",
    "city": "Opalenica"
  },
  {
    "source_id": "ChIJBS7YM0EzBEcRUCuihL2QR6I",
    "name": "Agrotech",
    "category": "Agrotech",
    "formatted_address": "",
    "phone_number": "+48601778120",
    "source_url": "https://www.google.com/maps/place/Agrotech/data=!4m7!3m6!1s0x4704334133d82e05:0xa24790bd84a22b50!8m2!3d52.309804!4d16.3773208!16s%2Fg%2F11kknxcw1c!19sChIJBS7YM0EzBEcRUCuihL2QR6I?authuser=0&hl=tr&rclk=1",
    "website_url": "",
    "rating_text": "",
    "stars": null,
    "number_of_reviews": null,
    "price_level": "",
    "open_hours": "",
    "extraction_timestamp": "2025-06-07T17:47:34.097Z",
    "source_name": "google",
    "source_query": "Irrigation Equipment",
    "source_country": "PL",
    "country": "Poland",
    "state": "Greater Poland Voivodeship",
    "city": "Opalenica"
  },
  {
    "source_id": "ChIJAePrPwczBEcRv9bwJaFQELo",
    "name": "PAW Ogrody",
    "category": "PAW Ogrody",
    "formatted_address": "5,0(3)",
    "phone_number": "+48602280152",
    "source_url": "https://www.google.com/maps/place/PAW+Ogrody/data=!4m7!3m6!1s0x470433073febe301:0xba1050a125f0d6bf!8m2!3d52.3094426!4d16.4193451!16s%2Fg%2F11fqb34c0w!19sChIJAePrPwczBEcRv9bwJaFQELo?authuser=0&hl=tr&rclk=1",
    "website_url": "https://www.facebook.com/PAW-Ogrody-Adrian-Miodek-103641791162406/",
    "rating_text": "5,0",
    "stars": null,
    "number_of_reviews": null,
    "price_level": "",
    "open_hours": "",
    "extraction_timestamp": "2025-06-07T17:47:34.098Z",
    "source_name": "google",
    "source_query": "Irrigation Equipment",
    "source_country": "PL",
    "country": "Poland",
    "state": "Greater Poland Voivodeship",
    "city": "Opalenica"
  },
  {
    "source_id": "ChIJxy1lnrkzBEcRjYlyTkm2Sfg",
    "name": "Targowisko miejskie w Opalenicy",
    "category": "Targowisko miejskie w Opalenicy",
    "formatted_address": "3,8(239)",
    "phone_number": "",
    "source_url": "https://www.google.com/maps/place/Targowisko+miejskie+w+Opalenicy/data=!4m7!3m6!1s0x470433b99e652dc7:0xf849b6494e72898d!8m2!3d52.3051952!4d16.4075637!16s%2Fg%2F12q4vgb5m!19sChIJxy1lnrkzBEcRjYlyTkm2Sfg?authuser=0&hl=tr&rclk=1",
    "website_url": "",
    "rating_text": "3,8",
    "stars": null,
    "number_of_reviews": null,
    "price_level": "",
    "open_hours": "",
    "extraction_timestamp": "2025-06-07T17:47:34.098Z",
    "source_name": "google",
    "source_query": "Irrigation Equipment",
    "source_country": "PL",
    "country": "Poland",
    "state": "Greater Poland Voivodeship",
    "city": "Opalenica"
  },
  {
    "source_id": "ChIJl19CkeszBEcRiAa3OrFs0wI",
    "name": "Rol-Met. Sklep motoryzacyjny. Ginter B.",
    "category": "Rol-Met. Sklep motoryzacyjny. Ginter B.",
    "formatted_address": "4,7(25)",
    "phone_number": "+48614477360",
    "source_url": "https://www.google.com/maps/place/Rol-Met.+Sklep+motoryzacyjny.+Ginter+B./data=!4m7!3m6!1s0x470433eb91425f97:0x2d36cb13ab70688!8m2!3d52.3095388!4d16.4314567!16s%2Fg%2F1tfrfgdb!19sChIJl19CkeszBEcRiAa3OrFs0wI?authuser=0&hl=tr&rclk=1",
    "website_url": "",
    "rating_text": "4,7",
    "stars": null,
    "number_of_reviews": null,
    "price_level": "",
    "open_hours": "",
    "extraction_timestamp": "2025-06-07T17:47:34.099Z",
    "source_name": "google",
    "source_query": "Irrigation Equipment",
    "source_country": "PL",
    "country": "Poland",
    "state": "Greater Poland Voivodeship",
    "city": "Opalenica"
  },
  {
    "source_id": "ChIJDRdd3QxFBEcRH2bGY1X5Y-0",
    "name": "Polaqua Group Sp. J.",
    "category": "Polaqua Group Sp. J.",
    "formatted_address": "4,6(40)",
    "phone_number": "+48618677648",
    "source_url": "https://www.google.com/maps/place/Polaqua+Group+Sp.+J./data=!4m7!3m6!1s0x4704450cdd5d170d:0xed63f95563c6661f!8m2!3d52.357685!4d16.8339614!16s%2Fg%2F11b7cq2nqb!19sChIJDRdd3QxFBEcRH2bGY1X5Y-0?authuser=0&hl=tr&rclk=1",
    "website_url": "http://www.polaquagroup.com/",
    "rating_text": "4,6",
    "stars": null,
    "number_of_reviews": null,
    "price_level": "",
    "open_hours": "",
    "extraction_timestamp": "2025-06-07T17:47:34.100Z",
    "source_name": "google",
    "source_query": "Irrigation Equipment",
    "source_country": "PL",
    "country": "Poland",
    "state": "Greater Poland Voivodeship",
    "city": "Opalenica"
  },
  {
    "source_id": "ChIJB6y_v5J2HEcRlDfYx3xmc9M",
    "name": "Milex irrigation systems",
    "category": "Milex irrigation systems",
    "formatted_address": "4,6(37)",
    "phone_number": "+48242775222",
    "source_url": "https://www.google.com/maps/place/Milex+irrigation+systems/data=!4m7!3m6!1s0x471c7692bfbfac07:0xd373667cc7d83794!8m2!3d52.4690634!4d19.7520904!16s%2Fg%2F1w2yy67r!19sChIJB6y_v5J2HEcRlDfYx3xmc9M?authuser=0&hl=tr&rclk=1",
    "website_url": "https://www.milex.pl/",
    "rating_text": "4,6",
    "stars": null,
    "number_of_reviews": null,
    "price_level": "",
    "open_hours": "",
    "extraction_timestamp": "2025-06-07T17:47:34.101Z",
    "source_name": "google",
    "source_query": "Irrigation Equipment",
    "source_country": "PL",
    "country": "Poland",
    "state": "Greater Poland Voivodeship",
    "city": "Opalenica"
  },
  {
    "source_id": "ChIJ32Hw4yjNBUcRN1A1QsAN8Qw",
    "name": "Sunrise Energy - Instalacje Fotowoltaiczne Nowy Tomyl",
    "category": "Sunrise Energy - Instalacje Fotowoltaiczne Nowy Tomyl",
    "formatted_address": "4,4(55)",
    "phone_number": "+48728105424",
    "source_url": "https://www.google.com/maps/place/Sunrise+Energy+-+Instalacje+Fotowoltaiczne+Nowy+Tomy%C5%9Bl/data=!4m7!3m6!1s0x4705cd28e3f061df:0xcf10dc042355037!8m2!3d52.3038678!4d16.1246078!16s%2Fg%2F11fnxvktbk!19sChIJ32Hw4yjNBUcRN1A1QsAN8Qw?authuser=0&hl=tr&rclk=1",
    "website_url": "http://www.sunriseenergy.pl/",
    "rating_text": "4,4",
    "stars": null,
    "number_of_reviews": null,
    "price_level": "",
    "open_hours": "",
    "extraction_timestamp": "2025-06-07T17:47:34.101Z",
    "source_name": "google",
    "source_query": "Irrigation Equipment",
    "source_country": "PL",
    "country": "Poland",
    "state": "Greater Poland Voivodeship",
    "city": "Opalenica"
  },
  {
    "source_id": "ChIJu7jUefczBEcRy7jsrBZt-l0",
    "name": "Al.Capone",
    "category": "Al.Capone",
    "formatted_address": "3,8(53)",
    "phone_number": "+48664172402",
    "source_url": "https://www.google.com/maps/place/Al.Capone/data=!4m7!3m6!1s0x470433f779d4b8bb:0x5dfa6d16acecb8cb!8m2!3d52.3088589!4d16.413767!16s%2Fg%2F11sl3vbw44!19sChIJu7jUefczBEcRy7jsrBZt-l0?authuser=0&hl=tr&rclk=1",
    "website_url": "http://www.alejacapone.pl/",
    "rating_text": "3,8",
    "stars": null,
    "number_of_reviews": null,
    "price_level": "",
    "open_hours": "",
    "extraction_timestamp": "2025-06-07T17:47:34.102Z",
    "source_name": "google",
    "source_query": "Irrigation Equipment",
    "source_country": "PL",
    "country": "Poland",
    "state": "Greater Poland Voivodeship",
    "city": "Opalenica"
  },
  {
    "source_id": "ChIJLYhEm6xDBEcRyx2zr8tDWH0",
    "name": "Rafamarina Centrum Mors贸w",
    "category": "Rafamarina Centrum Mors贸w",
    "formatted_address": "4,7(137)",
    "phone_number": "+48508907032",
    "source_url": "https://www.google.com/maps/place/Rafamarina+Centrum+Mors%C3%B3w/data=!4m7!3m6!1s0x470443ac9b44882d:0x7d5843cbafb31dcb!8m2!3d52.463029!4d16.8258449!16s%2Fg%2F11h2l8fqp8!19sChIJLYhEm6xDBEcRyx2zr8tDWH0?authuser=0&hl=tr&rclk=1",
    "website_url": "",
    "rating_text": "4,7",
    "stars": null,
    "number_of_reviews": null,
    "price_level": "",
    "open_hours": "",
    "extraction_timestamp": "2025-06-07T17:47:34.103Z",
    "source_name": "google",
    "source_query": "Irrigation Equipment",
    "source_country": "PL",
    "country": "Poland",
    "state": "Greater Poland Voivodeship",
    "city": "Opalenica"
  },
  {
    "source_id": "ChIJx_IgRzkzG0cROxXcLd-Qoeg",
    "name": "Ekosystemy - Kompleksowe usugi ogrodnicze",
    "category": "Ekosystemy - Kompleksowe usugi ogrodnicze",
    "formatted_address": "5,0(3)",
    "phone_number": "+48601764697",
    "source_url": "https://www.google.com/maps/place/Ekosystemy+-+Kompleksowe+us%C5%82ugi+ogrodnicze/data=!4m7!3m6!1s0x471b33394720f2c7:0xe8a190df2ddc153b!8m2!3d52.2517812!4d18.1518541!16s%2Fg%2F11sgl1jyz6!19sChIJx_IgRzkzG0cROxXcLd-Qoeg?authuser=0&hl=tr&rclk=1",
    "website_url": "",
    "rating_text": "5,0",
    "stars": null,
    "number_of_reviews": null,
    "price_level": "",
    "open_hours": "",
    "extraction_timestamp": "2025-06-07T17:47:34.104Z",
    "source_name": "google",
    "source_query": "Irrigation Equipment",
    "source_country": "PL",
    "country": "Poland",
    "state": "Greater Poland Voivodeship",
    "city": "Opalenica"
  },
  {
    "source_id": "ChIJT5-ht-3MBUcRfj9r0ngkQ80",
    "name": "DANFLOR Centrum Ogrodnicze, Autoryzowany Diler Husqvarna",
    "category": "DANFLOR Centrum Ogrodnicze, Autoryzowany Diler Husqvarna",
    "formatted_address": "DANFLOR Centrum Ogrodnicze, Autoryzowany Diler Husqvarna",
    "phone_number": "+48614445171",
    "source_url": "https://www.google.com/maps/place/DANFLOR+Centrum+Ogrodnicze,+Autoryzowany+Diler+Husqvarna/data=!4m7!3m6!1s0x4705ccedb7a19f4f:0xcd432478d26b3f7e!8m2!3d52.218807!4d16.364237!16s%2Fg%2F1tf2whpl!19sChIJT5-ht-3MBUcRfj9r0ngkQ80?authuser=0&hl=tr&rclk=1",
    "website_url": "http://danflor.pl/",
    "rating_text": "4,5",
    "stars": null,
    "number_of_reviews": null,
    "price_level": "",
    "open_hours": "",
    "extraction_timestamp": "2025-06-07T17:47:34.105Z",
    "source_name": "google",
    "source_query": "Irrigation Equipment",
    "source_country": "PL",
    "country": "Poland",
    "state": "Greater Poland Voivodeship",
    "city": "Opalenica"
  },
  {
    "source_id": "ChIJI061sSwyBEcR55nqG3x7OxI",
    "name": "Sklep \"Cho no tu\" nr 3",
    "category": "Sklep \"Cho no tu\" nr 3",
    "formatted_address": "4,1(36)",
    "phone_number": "+48614478326",
    "source_url": "https://www.google.com/maps/place/Sklep+%22Cho+no+tu%22+nr+3/data=!4m7!3m6!1s0x4704322cb1b54e23:0x123b7b7c1bea99e7!8m2!3d52.325648!4d16.4007925!16s%2Fg%2F12qg2kg7n!19sChIJI061sSwyBEcR55nqG3x7OxI?authuser=0&hl=tr&rclk=1",
    "website_url": "http://gminnesklady.pl/",
    "rating_text": "4,1",
    "stars": null,
    "number_of_reviews": null,
    "price_level": "",
    "open_hours": "",
    "extraction_timestamp": "2025-06-07T17:47:34.106Z",
    "source_name": "google",
    "source_query": "Irrigation Equipment",
    "source_country": "PL",
    "country": "Poland",
    "state": "Greater Poland Voivodeship",
    "city": "Opalenica"
  },
  {
    "source_id": "ChIJSzzEtTRBBEcRSs_tkkc5-9E",
    "name": "Farm - Fertilizers and Irrigation",
    "category": "Farm - Fertilizers and Irrigation",
    "formatted_address": "4,7(128)",
    "phone_number": "+48600424533",
    "source_url": "https://www.google.com/maps/place/Farm+-+Fertilizers+and+Irrigation/data=!4m7!3m6!1s0x47044134b5c43c4b:0xd1fb394792edcf4a!8m2!3d52.454788!4d16.768546!16s%2Fg%2F1w4vhmkd!19sChIJSzzEtTRBBEcRSs_tkkc5-9E?authuser=0&hl=tr&rclk=1",
    "website_url": "http://www.farma-malecki.pl/",
    "rating_text": "4,7",
    "stars": null,
    "number_of_reviews": null,
    "price_level": "",
    "open_hours": "",
    "extraction_timestamp": "2025-06-07T17:47:34.107Z",
    "source_name": "google",
    "source_query": "Irrigation Equipment",
    "source_country": "PL",
    "country": "Poland",
    "state": "Greater Poland Voivodeship",
    "city": "Opalenica"
  },
  {
    "source_id": "ChIJP_lX9sc4BEcRVdRxj6eVLJY",
    "name": "Korbanek Sp. o.o.",
    "category": "Korbanek Sp. o.o.",
    "formatted_address": "4,4(463)",
    "phone_number": "+48618961100",
    "source_url": "https://www.google.com/maps/place/Korbanek+Sp.+o.o./data=!4m7!3m6!1s0x470438c7f657f93f:0x962c95a78f71d455!8m2!3d52.4587541!4d16.6466483!16s%2Fg%2F1tgkf_1k!19sChIJP_lX9sc4BEcRVdRxj6eVLJY?authuser=0&hl=tr&rclk=1",
    "website_url": "http://www.korbanek.pl/",
    "rating_text": "4,4",
    "stars": null,
    "number_of_reviews": null,
    "price_level": "",
    "open_hours": "",
    "extraction_timestamp": "2025-06-07T17:47:34.108Z",
    "source_name": "google",
    "source_query": "Irrigation Equipment",
    "source_country": "PL",
    "country": "Poland",
    "state": "Greater Poland Voivodeship",
    "city": "Opalenica"
  },
  {
    "source_id": "ChIJF4H1mLQzBEcRrLolBBaw67w",
    "name": "Cho No Tu nr 17 \"Bueczka\"",
    "category": "Cho No Tu nr 17 \"Bueczka\"",
    "formatted_address": "4,4(112)",
    "phone_number": "+48614478376",
    "source_url": "https://www.google.com/maps/place/Cho+No+Tu+nr+17+%22Bu%C5%82eczka%22/data=!4m7!3m6!1s0x470433b498f58117:0xbcebb0160425baac!8m2!3d52.3062798!4d16.3904247!16s%2Fg%2F1tfqk270!19sChIJF4H1mLQzBEcRrLolBBaw67w?authuser=0&hl=tr&rclk=1",
    "website_url": "http://gminnesklady.pl/",
    "rating_text": "4,4",
    "stars": null,
    "number_of_reviews": null,
    "price_level": "",
    "open_hours": "",
    "extraction_timestamp": "2025-06-07T17:47:34.109Z",
    "source_name": "google",
    "source_query": "Irrigation Equipment",
    "source_country": "PL",
    "country": "Poland",
    "state": "Greater Poland Voivodeship",
    "city": "Opalenica"
  },
  {
    "source_id": "ChIJeXaB08EzBEcREQqORPNioEU",
    "name": "Biedronka - Opalenica",
    "category": "Biedronka - Opalenica",
    "formatted_address": "4,0(757)",
    "phone_number": "+48800080010",
    "source_url": "https://www.google.com/maps/place/Biedronka+-+Opalenica/data=!4m7!3m6!1s0x470433c1d3817679:0x45a062f3448e0a11!8m2!3d52.3097156!4d16.4246764!16s%2Fg%2F11bx1y80jw!19sChIJeXaB08EzBEcREQqORPNioEU?authuser=0&hl=tr&rclk=1",
    "website_url": "https://www.biedronka.pl/pl?utm_source=gmb",
    "rating_text": "4,0",
    "stars": null,
    "number_of_reviews": null,
    "price_level": "",
    "open_hours": "",
    "extraction_timestamp": "2025-06-07T17:47:34.110Z",
    "source_name": "google",
    "source_query": "Irrigation Equipment",
    "source_country": "PL",
    "country": "Poland",
    "state": "Greater Poland Voivodeship",
    "city": "Opalenica"
  },
  {
    "source_id": "ChIJ1wM0374zBEcRZ7gPNuNhE0I",
    "name": "Biedronka",
    "category": "Biedronka",
    "formatted_address": "4,0(535)",
    "phone_number": "+48800080010",
    "source_url": "https://www.google.com/maps/place/Biedronka/data=!4m7!3m6!1s0x470433bedf3403d7:0x421361e3360fb867!8m2!3d52.305433!4d16.4153958!16s%2Fg%2F1v6qg9xc!19sChIJ1wM0374zBEcRZ7gPNuNhE0I?authuser=0&hl=tr&rclk=1",
    "website_url": "https://www.biedronka.pl/pl?utm_source=gmb",
    "rating_text": "4,0",
    "stars": null,
    "number_of_reviews": null,
    "price_level": "",
    "open_hours": "",
    "extraction_timestamp": "2025-06-07T17:47:34.110Z",
    "source_name": "google",
    "source_query": "Irrigation Equipment",
    "source_country": "PL",
    "country": "Poland",
    "state": "Greater Poland Voivodeship",
    "city": "Opalenica"
  },
  {
    "source_id": "ChIJx9dLaaM-BEcR0BMvflVq1Po",
    "name": "GRASSLAND FARMS",
    "category": "GRASSLAND FARMS",
    "formatted_address": "4,4(103)",
    "phone_number": "+48602382601",
    "source_url": "https://www.google.com/maps/place/GRASSLAND+FARMS/data=!4m7!3m6!1s0x47043ea3694bd7c7:0xfad46a557e2f13d0!8m2!3d52.5034131!4d16.5908032!16s%2Fg%2F1tlczwnb!19sChIJx9dLaaM-BEcR0BMvflVq1Po?authuser=0&hl=tr&rclk=1",
    "website_url": "http://www.grasslandfarms.pl/",
    "rating_text": "4,4",
    "stars": null,
    "number_of_reviews": null,
    "price_level": "",
    "open_hours": "",
    "extraction_timestamp": "2025-06-07T17:47:34.111Z",
    "source_name": "google",
    "source_query": "Irrigation Equipment",
    "source_country": "PL",
    "country": "Poland",
    "state": "Greater Poland Voivodeship",
    "city": "Opalenica"
  },
  {
    "source_id": "ChIJwdhRqaxEBEcRZ22nzjeUbu0",
    "name": "Pupil",
    "category": "Pupil",
    "formatted_address": "4,6(87)",
    "phone_number": "+48618288772",
    "source_url": "https://www.google.com/maps/place/Pupil/data=!4m7!3m6!1s0x470444aca951d8c1:0xed6e9437cea76d67!8m2!3d52.4348609!4d16.9214779!16s%2Fg%2F11cs13qrdt!19sChIJwdhRqaxEBEcRZ22nzjeUbu0?authuser=0&hl=tr&rclk=1",
    "website_url": "http://www.klinwet.pl/nasza-oferta/sklep/",
    "rating_text": "4,6",
    "stars": null,
    "number_of_reviews": null,
    "price_level": "",
    "open_hours": "",
    "extraction_timestamp": "2025-06-07T17:47:34.112Z",
    "source_name": "google",
    "source_query": "Irrigation Equipment",
    "source_country": "PL",
    "country": "Poland",
    "state": "Greater Poland Voivodeship",
    "city": "Opalenica"
  }
]
