[
  {
    "source_id": "ChIJFSa94LzDGkcRSvlX4lGwdhI",
    "name": "Agro-System Piotr Jaskuła",
    "category": "Agro-System Piotr Jaskuła",
    "formatted_address": "4,9(11)",
    "phone_number": "+48531310340",
    "source_url": "https://www.google.com/maps/place/Agro-System+Piotr+Jasku%C5%82a/data=!4m7!3m6!1s0x471ac3bce0bd2615:0x1276b051e257f94a!8m2!3d51.7396478!4d18.2136949!16s%2Fg%2F1pty_th98!19sChIJFSa94LzDGkcRSvlX4lGwdhI?authuser=0&hl=tr&rclk=1",
    "website_url": "https://agrosystem.kalisz.pl/",
    "rating_text": "4,9",
    "stars": null,
    "number_of_reviews": null,
    "price_level": "",
    "open_hours": "",
    "extraction_timestamp": "2025-06-07T17:18:17.015Z",
    "source_name": "google",
    "source_query": "Irrigation Equipment",
    "source_country": "PL",
    "country": "Poland",
    "state": "Greater Poland Voivodeship",
    "city": "Opatów"
  },
  {
    "source_id": "ChIJi8nORy54DCgRpnrgm4KBOQM",
    "name": "Water-Plast - Geomembrana PEHD, Folia PEHD / Zbiorniki / Uszczelnianie, izolacja",
    "category": "Water-Plast - Geomembrana PEHD, Folia PEHD / Zbiorniki / Uszczelnianie, izolacja",
    "formatted_address": "Water-Plast - Geomembrana PEHD, Folia PEHD / Zbiorniki / Uszczelnianie, izolacja",
    "phone_number": "+48696805103",
    "source_url": "https://www.google.com/maps/place/Water-Plast+-+Geomembrana+PEHD,+Folia+PEHD+%2F+Zbiorniki+%2F+Uszczelnianie,+izolacja/data=!4m7!3m6!1s0x280c782e47cec98b:0x33981829be07aa6!8m2!3d51.3163154!4d18.5852543!16s%2Fg%2F11js9j9wjh!19sChIJi8nORy54DCgRpnrgm4KBOQM?authuser=0&hl=tr&rclk=1",
    "website_url": "https://water-plast.pl/",
    "rating_text": "5,0",
    "stars": null,
    "number_of_reviews": null,
    "price_level": "",
    "open_hours": "",
    "extraction_timestamp": "2025-06-07T17:18:17.016Z",
    "source_name": "google",
    "source_query": "Irrigation Equipment",
    "source_country": "PL",
    "country": "Poland",
    "state": "Greater Poland Voivodeship",
    "city": "Opatów"
  },
  {
    "source_id": "ChIJA3L8AW93EEcRiR2Sv3b7aMM",
    "name": "D-M Instal Dawid Lar",
    "category": "D-M Instal Dawid Lar",
    "formatted_address": "",
    "phone_number": "+48607967631",
    "source_url": "https://www.google.com/maps/place/D-M+Instal+Dawid+Lar/data=!4m7!3m6!1s0x4710776f01fc7203:0xc368fb76bf921d89!8m2!3d51.2262131!4d18.137931!16s%2Fg%2F11qj10lwry!19sChIJA3L8AW93EEcRiR2Sv3b7aMM?authuser=0&hl=tr&rclk=1",
    "website_url": "",
    "rating_text": "",
    "stars": null,
    "number_of_reviews": null,
    "price_level": "",
    "open_hours": "",
    "extraction_timestamp": "2025-06-07T17:18:17.016Z",
    "source_name": "google",
    "source_query": "Irrigation Equipment",
    "source_country": "PL",
    "country": "Poland",
    "state": "Greater Poland Voivodeship",
    "city": "Opatów"
  },
  {
    "source_id": "ChIJOWjSaeB2EEcRW2FY40mFDLU",
    "name": "Fabryka Mebli Tom-Pol - MebleWypoczynkowe.pl",
    "category": "Fabryka Mebli Tom-Pol - MebleWypoczynkowe.pl",
    "formatted_address": "4,8(40)",
    "phone_number": "+48627813330",
    "source_url": "https://www.google.com/maps/place/Fabryka+Mebli+Tom-Pol+-+MebleWypoczynkowe.pl/data=!4m7!3m6!1s0x471076e069d26839:0xb50c8549e358615b!8m2!3d51.22059!4d18.1507353!16s%2Fg%2F1th5yj7k!19sChIJOWjSaeB2EEcRW2FY40mFDLU?authuser=0&hl=tr&rclk=1",
    "website_url": "https://meblewypoczynkowe.pl/",
    "rating_text": "4,8",
    "stars": null,
    "number_of_reviews": null,
    "price_level": "",
    "open_hours": "",
    "extraction_timestamp": "2025-06-07T17:18:17.016Z",
    "source_name": "google",
    "source_query": "Irrigation Equipment",
    "source_country": "PL",
    "country": "Poland",
    "state": "Greater Poland Voivodeship",
    "city": "Opatów"
  },
  {
    "source_id": "ChIJ3arbm5PDGkcRvFf0Gj72Z0A",
    "name": "Agromechanika. PPHU",
    "category": "Agromechanika. PPHU",
    "formatted_address": "3,9(24)",
    "phone_number": "+48627618469",
    "source_url": "https://www.google.com/maps/place/Agromechanika.+PPHU/data=!4m7!3m6!1s0x471ac3939bdbaadd:0x4067f63e1af457bc!8m2!3d51.7366226!4d18.1951654!16s%2Fg%2F1pt_sq4xn!19sChIJ3arbm5PDGkcRvFf0Gj72Z0A?authuser=0&hl=tr&rclk=1",
    "website_url": "http://www.agromechanika.pl/kontakt.php",
    "rating_text": "3,9",
    "stars": null,
    "number_of_reviews": null,
    "price_level": "",
    "open_hours": "",
    "extraction_timestamp": "2025-06-07T17:18:17.017Z",
    "source_name": "google",
    "source_query": "Irrigation Equipment",
    "source_country": "PL",
    "country": "Poland",
    "state": "Greater Poland Voivodeship",
    "city": "Opatów"
  },
  {
    "source_id": "ChIJFXrKS113EEcRodRwlamh3Ko",
    "name": "Dino",
    "category": "Dino",
    "formatted_address": "4,2(196)",
    "phone_number": "",
    "source_url": "https://www.google.com/maps/place/Dino/data=!4m7!3m6!1s0x4710775d4bca7a15:0xaadca1a99570d4a1!8m2!3d51.217184!4d18.143942!16s%2Fg%2F11gmd_szm_!19sChIJFXrKS113EEcRodRwlamh3Ko?authuser=0&hl=tr&rclk=1",
    "website_url": "https://marketdino.pl/",
    "rating_text": "4,2",
    "stars": null,
    "number_of_reviews": null,
    "price_level": "",
    "open_hours": "",
    "extraction_timestamp": "2025-06-07T17:18:17.017Z",
    "source_name": "google",
    "source_query": "Irrigation Equipment",
    "source_country": "PL",
    "country": "Poland",
    "state": "Greater Poland Voivodeship",
    "city": "Opatów"
  },
  {
    "source_id": "ChIJPzrTrrl3EEcR2kwAg6erfUA",
    "name": "Energia z wiatru i słońca",
    "category": "Energia z wiatru i słońca",
    "formatted_address": "5,0(2)",
    "phone_number": "",
    "source_url": "https://www.google.com/maps/place/Energia+z+wiatru+i+s%C5%82o%C5%84ca/data=!4m7!3m6!1s0x471077b9aed33a3f:0x407daba783004cda!8m2!3d51.953761!4d19.1343692!16s%2Fg%2F11g_rw60px!19sChIJPzrTrrl3EEcR2kwAg6erfUA?authuser=0&hl=tr&rclk=1",
    "website_url": "",
    "rating_text": "5,0",
    "stars": null,
    "number_of_reviews": null,
    "price_level": "",
    "open_hours": "",
    "extraction_timestamp": "2025-06-07T17:18:17.017Z",
    "source_name": "google",
    "source_query": "Irrigation Equipment",
    "source_country": "PL",
    "country": "Poland",
    "state": "Greater Poland Voivodeship",
    "city": "Opatów"
  }
]
