[
  {
    "source_id": "ChIJFSa94LzDGkcRSvlX4lGwdhI",
    "name": "Agro-System Piotr Jaskuła",
    "category": "Agro-System Piotr Jaskuła",
    "formatted_address": "4,9(11)",
    "phone_number": "+48531310340",
    "source_url": "https://www.google.com/maps/place/Agro-System+Piotr+Jasku%C5%82a/data=!4m7!3m6!1s0x471ac3bce0bd2615:0x1276b051e257f94a!8m2!3d51.7396478!4d18.2136949!16s%2Fg%2F1pty_th98!19sChIJFSa94LzDGkcRSvlX4lGwdhI?authuser=0&hl=tr&rclk=1",
    "website_url": "",
    "rating_text": "4,9",
    "stars": null,
    "number_of_reviews": null,
    "price_level": "",
    "open_hours": "",
    "extraction_timestamp": "2025-06-07T17:59:09.329Z",
    "source_name": "google",
    "source_query": "Irrigation Equipment",
    "source_country": "PL",
    "country": "Poland",
    "state": "Greater Poland Voivodeship",
    "city": "Opatówek"
  },
  {
    "source_id": "ChIJ3arbm5PDGkcRvFf0Gj72Z0A",
    "name": "Agromechanika. PPHU",
    "category": "Agromechanika. PPHU",
    "formatted_address": "3,9(24)",
    "phone_number": "+48627618469",
    "source_url": "https://www.google.com/maps/place/Agromechanika.+PPHU/data=!4m7!3m6!1s0x471ac3939bdbaadd:0x4067f63e1af457bc!8m2!3d51.7366226!4d18.1951654!16s%2Fg%2F1pt_sq4xn!19sChIJ3arbm5PDGkcRvFf0Gj72Z0A?authuser=0&hl=tr&rclk=1",
    "website_url": "",
    "rating_text": "3,9",
    "stars": null,
    "number_of_reviews": null,
    "price_level": "",
    "open_hours": "",
    "extraction_timestamp": "2025-06-07T17:59:09.331Z",
    "source_name": "google",
    "source_query": "Irrigation Equipment",
    "source_country": "PL",
    "country": "Poland",
    "state": "Greater Poland Voivodeship",
    "city": "Opatówek"
  },
  {
    "source_id": "ChIJY7fw8LzDGkcR36SfRZUiavM",
    "name": "Hurtownia Ogrodnicza Lidia Horti-Logistic",
    "category": "Hurtownia Ogrodnicza Lidia Horti-Logistic",
    "formatted_address": "4,7(248)",
    "phone_number": "+48627670383",
    "source_url": "https://www.google.com/maps/place/Hurtownia+Ogrodnicza+Lidia+Horti-Logistic/data=!4m7!3m6!1s0x471ac3bcf0f0b763:0xf36a2295459fa4df!8m2!3d51.7425998!4d18.1746612!16s%2Fg%2F1xfsmh8j!19sChIJY7fw8LzDGkcR36SfRZUiavM?authuser=0&hl=tr&rclk=1",
    "website_url": "",
    "rating_text": "4,7",
    "stars": null,
    "number_of_reviews": null,
    "price_level": "",
    "open_hours": "",
    "extraction_timestamp": "2025-06-07T17:59:09.333Z",
    "source_name": "google",
    "source_query": "Irrigation Equipment",
    "source_country": "PL",
    "country": "Poland",
    "state": "Greater Poland Voivodeship",
    "city": "Opatówek"
  },
  {
    "source_id": "ChIJLbt2VrvDGkcRZqlnT38DaXM",
    "name": "Rowery Opatowek",
    "category": "Rowery Opatowek",
    "formatted_address": "4,8(63)",
    "phone_number": "+48695513253",
    "source_url": "https://www.google.com/maps/place/Rowery+Opatowek/data=!4m7!3m6!1s0x471ac3bb5676bb2d:0x7369037f4f67a966!8m2!3d51.740177!4d18.2190059!16s%2Fg%2F11f_0y3s1k!19sChIJLbt2VrvDGkcRZqlnT38DaXM?authuser=0&hl=tr&rclk=1",
    "website_url": "",
    "rating_text": "4,8",
    "stars": null,
    "number_of_reviews": null,
    "price_level": "",
    "open_hours": "",
    "extraction_timestamp": "2025-06-07T17:59:09.335Z",
    "source_name": "google",
    "source_query": "Irrigation Equipment",
    "source_country": "PL",
    "country": "Poland",
    "state": "Greater Poland Voivodeship",
    "city": "Opatówek"
  },
  {
    "source_id": "ChIJXwvITQDDGkcRxJ127Qq8wRg",
    "name": "PAMA TECH",
    "category": "PAMA TECH",
    "formatted_address": "5,0(3)",
    "phone_number": "",
    "source_url": "https://www.google.com/maps/place/PAMA+TECH/data=!4m7!3m6!1s0x471ac3004dc80b5f:0x18c1bc0aed769dc4!8m2!3d51.7402262!4d18.216015!16s%2Fg%2F11wfpdf28d!19sChIJXwvITQDDGkcRxJ127Qq8wRg?authuser=0&hl=tr&rclk=1",
    "website_url": "",
    "rating_text": "5,0",
    "stars": null,
    "number_of_reviews": null,
    "price_level": "",
    "open_hours": "",
    "extraction_timestamp": "2025-06-07T17:59:09.336Z",
    "source_name": "google",
    "source_query": "Irrigation Equipment",
    "source_country": "PL",
    "country": "Poland",
    "state": "Greater Poland Voivodeship",
    "city": "Opatówek"
  },
  {
    "source_id": "ChIJRVTPXuTFGkcRyTzNxTLcxKw",
    "name": "Hellena",
    "category": "Hellena",
    "formatted_address": "4,1(85)",
    "phone_number": "+48333555444",
    "source_url": "https://www.google.com/maps/place/Hellena/data=!4m7!3m6!1s0x471ac5e45ecf5445:0xacc4dc32c5cd3cc9!8m2!3d51.7357363!4d18.1920451!16s%2Fg%2F1td6wwgh!19sChIJRVTPXuTFGkcRyTzNxTLcxKw?authuser=0&hl=tr&rclk=1",
    "website_url": "",
    "rating_text": "4,1",
    "stars": null,
    "number_of_reviews": null,
    "price_level": "",
    "open_hours": "",
    "extraction_timestamp": "2025-06-07T17:59:09.338Z",
    "source_name": "google",
    "source_query": "Irrigation Equipment",
    "source_country": "PL",
    "country": "Poland",
    "state": "Greater Poland Voivodeship",
    "city": "Opatówek"
  },
  {
    "source_id": "ChIJN9IsKLrDGkcRGRFFcTvG1F4",
    "name": "Grosik Market Spożywczo Przemysłowy",
    "category": "Grosik Market Spożywczo Przemysłowy",
    "formatted_address": "4,7(19)",
    "phone_number": "",
    "source_url": "https://www.google.com/maps/place/Grosik+Market+Spo%C5%BCywczo+Przemys%C5%82owy/data=!4m7!3m6!1s0x471ac3ba282cd237:0x5ed4c63b71451119!8m2!3d51.7348922!4d18.2202814!16s%2Fg%2F11j4t6m73z!19sChIJN9IsKLrDGkcRGRFFcTvG1F4?authuser=0&hl=tr&rclk=1",
    "website_url": "",
    "rating_text": "4,7",
    "stars": null,
    "number_of_reviews": null,
    "price_level": "",
    "open_hours": "",
    "extraction_timestamp": "2025-06-07T17:59:09.339Z",
    "source_name": "google",
    "source_query": "Irrigation Equipment",
    "source_country": "PL",
    "country": "Poland",
    "state": "Greater Poland Voivodeship",
    "city": "Opatówek"
  },
  {
    "source_id": "ChIJUyHdtkvFGkcRxAw-w_977uQ",
    "name": "Technika grzewcza i Sanitarna Bogdan Pietrasiak",
    "category": "Technika grzewcza i Sanitarna Bogdan Pietrasiak",
    "formatted_address": "5,0(1)",
    "phone_number": "+48696974852",
    "source_url": "https://www.google.com/maps/place/Technika+grzewcza+i+Sanitarna+Bogdan+Pietrasiak/data=!4m7!3m6!1s0x471ac54bb6dd2153:0xe4ee7bffc33e0cc4!8m2!3d51.7465672!4d18.1555376!16s%2Fg%2F11trylg3qk!19sChIJUyHdtkvFGkcRxAw-w_977uQ?authuser=0&hl=tr&rclk=1",
    "website_url": "",
    "rating_text": "5,0",
    "stars": null,
    "number_of_reviews": null,
    "price_level": "",
    "open_hours": "",
    "extraction_timestamp": "2025-06-07T17:59:09.341Z",
    "source_name": "google",
    "source_query": "Irrigation Equipment",
    "source_country": "PL",
    "country": "Poland",
    "state": "Greater Poland Voivodeship",
    "city": "Opatówek"
  },
  {
    "source_id": "ChIJi8nORy54DCgRpnrgm4KBOQM",
    "name": "Water-Plast - Geomembrana PEHD, Folia PEHD / Zbiorniki / Uszczelnianie, izolacja",
    "category": "Water-Plast - Geomembrana PEHD, Folia PEHD / Zbiorniki / Uszczelnianie, izolacja",
    "formatted_address": "Water-Plast - Geomembrana PEHD, Folia PEHD / Zbiorniki / Uszczelnianie, izolacja",
    "phone_number": "+48696805103",
    "source_url": "https://www.google.com/maps/place/Water-Plast+-+Geomembrana+PEHD,+Folia+PEHD+%2F+Zbiorniki+%2F+Uszczelnianie,+izolacja/data=!4m7!3m6!1s0x280c782e47cec98b:0x33981829be07aa6!8m2!3d51.3163154!4d18.5852543!16s%2Fg%2F11js9j9wjh!19sChIJi8nORy54DCgRpnrgm4KBOQM?authuser=0&hl=tr&rclk=1",
    "website_url": "",
    "rating_text": "5,0",
    "stars": null,
    "number_of_reviews": null,
    "price_level": "",
    "open_hours": "",
    "extraction_timestamp": "2025-06-07T17:59:09.342Z",
    "source_name": "google",
    "source_query": "Irrigation Equipment",
    "source_country": "PL",
    "country": "Poland",
    "state": "Greater Poland Voivodeship",
    "city": "Opatówek"
  },
  {
    "source_id": "ChIJVaVPbL3DGkcRzvQX6Y2GXog",
    "name": "Lewiatan",
    "category": "Lewiatan",
    "formatted_address": "4,3(256)",
    "phone_number": "+48507533947",
    "source_url": "https://www.google.com/maps/place/Lewiatan/data=!4m7!3m6!1s0x471ac3bd6c4fa555:0x885e868de917f4ce!8m2!3d51.7400739!4d18.2124299!16s%2Fg%2F1pt_3hrwh!19sChIJVaVPbL3DGkcRzvQX6Y2GXog?authuser=0&hl=tr&rclk=1",
    "website_url": "",
    "rating_text": "4,3",
    "stars": null,
    "number_of_reviews": null,
    "price_level": "",
    "open_hours": "",
    "extraction_timestamp": "2025-06-07T17:59:09.344Z",
    "source_name": "google",
    "source_query": "Irrigation Equipment",
    "source_country": "PL",
    "country": "Poland",
    "state": "Greater Poland Voivodeship",
    "city": "Opatówek"
  },
  {
    "source_id": "ChIJaVnWKbrDGkcReoTOuWLJRQM",
    "name": "Sklep spożywczy na górce",
    "category": "Sklep spożywczy na górce",
    "formatted_address": "4,5(64)",
    "phone_number": "",
    "source_url": "https://www.google.com/maps/place/Sklep+spo%C5%BCywczy+na+g%C3%B3rce/data=!4m7!3m6!1s0x471ac3ba29d65969:0x345c962b9ce847a!8m2!3d51.7348505!4d18.2202263!16s%2Fg%2F12hkrq_xh!19sChIJaVnWKbrDGkcReoTOuWLJRQM?authuser=0&hl=tr&rclk=1",
    "website_url": "",
    "rating_text": "4,5",
    "stars": null,
    "number_of_reviews": null,
    "price_level": "",
    "open_hours": "",
    "extraction_timestamp": "2025-06-07T17:59:09.345Z",
    "source_name": "google",
    "source_query": "Irrigation Equipment",
    "source_country": "PL",
    "country": "Poland",
    "state": "Greater Poland Voivodeship",
    "city": "Opatówek"
  },
  {
    "source_id": "ChIJT0SH_m3DGkcRN2GdHEFqpS0",
    "name": "Dino",
    "category": "Dino",
    "formatted_address": "4,3(278)",
    "phone_number": "",
    "source_url": "https://www.google.com/maps/place/Dino/data=!4m7!3m6!1s0x471ac36dfe87444f:0x2da56a411c9d6137!8m2!3d51.7383577!4d18.2078867!16s%2Fg%2F11fl_2zjkc!19sChIJT0SH_m3DGkcRN2GdHEFqpS0?authuser=0&hl=tr&rclk=1",
    "website_url": "",
    "rating_text": "4,3",
    "stars": null,
    "number_of_reviews": null,
    "price_level": "",
    "open_hours": "",
    "extraction_timestamp": "2025-06-07T17:59:09.347Z",
    "source_name": "google",
    "source_query": "Irrigation Equipment",
    "source_country": "PL",
    "country": "Poland",
    "state": "Greater Poland Voivodeship",
    "city": "Opatówek"
  },
  {
    "source_id": "ChIJUR_fbV_DGkcRk6Ioh1Vac9Q",
    "name": "Sklep Spożywczy Koniczynka Opatówek",
    "category": "Sklep Spożywczy Koniczynka Opatówek",
    "formatted_address": "3,9(45)",
    "phone_number": "",
    "source_url": "https://www.google.com/maps/place/Sklep+Spo%C5%BCywczy+Koniczynka+Opat%C3%B3wek/data=!4m7!3m6!1s0x471ac35f6ddf1f51:0xd4735a558728a293!8m2!3d51.739977!4d18.2147571!16s%2Fg%2F11fs_1lqxv!19sChIJUR_fbV_DGkcRk6Ioh1Vac9Q?authuser=0&hl=tr&rclk=1",
    "website_url": "",
    "rating_text": "3,9",
    "stars": null,
    "number_of_reviews": null,
    "price_level": "",
    "open_hours": "",
    "extraction_timestamp": "2025-06-07T17:59:09.347Z",
    "source_name": "google",
    "source_query": "Irrigation Equipment",
    "source_country": "PL",
    "country": "Poland",
    "state": "Greater Poland Voivodeship",
    "city": "Opatówek"
  }
]
