[
  {
    "source_id": "ChIJNdJ3T7GjBUcRNLMTS16q94M",
    "name": "Moraine. Youth Hostel",
    "category": "Moraine. Youth Hostel",
    "formatted_address": "4,4(116)",
    "phone_number": "+48655350134",
    "source_url": "https://www.google.com/maps/place/Moraine.+Youth+Hostel/data=!4m10!3m9!1s0x4705a3b14f77d235:0x83f7aa5e4b13b334!5m2!4m1!1i2!8m2!3d51.9048658!4d16.6842768!16s%2Fg%2F1v3kg64b!19sChIJNdJ3T7GjBUcRNLMTS16q94M?authuser=0&hl=tr&rclk=1",
    "website_url": "http://schronisko.osieczna.pl/",
    "rating_text": "4,4",
    "stars": null,
    "number_of_reviews": null,
    "price_level": "",
    "open_hours": "",
    "extraction_timestamp": "2025-06-07T17:56:31.007Z",
    "source_name": "google",
    "source_query": "Irrigation Equipment",
    "source_country": "PL",
    "country": "Poland",
    "state": "Greater Poland Voivodeship",
    "city": "Osieczna"
  },
  {
    "source_id": "ChIJUdwhqgOYBUcR3jwtTyYHSx4",
    "name": "Hydro-Partner Sp. z o.o.",
    "category": "Hydro-Partner Sp. z o.o.",
    "formatted_address": "4,6(40)",
    "phone_number": "+48655252850",
    "source_url": "https://www.google.com/maps/place/Hydro-Partner+Sp.+z+o.o./data=!4m7!3m6!1s0x47059803aa21dc51:0x1e4b07264f2d3cde!8m2!3d51.8630159!4d16.5752719!16s%2Fg%2F1vgw7b90!19sChIJUdwhqgOYBUcR3jwtTyYHSx4?authuser=0&hl=tr&rclk=1",
    "website_url": "http://www.hydro-partner.pl/",
    "rating_text": "4,6",
    "stars": null,
    "number_of_reviews": null,
    "price_level": "",
    "open_hours": "",
    "extraction_timestamp": "2025-06-07T17:56:31.009Z",
    "source_name": "google",
    "source_query": "Irrigation Equipment",
    "source_country": "PL",
    "country": "Poland",
    "state": "Greater Poland Voivodeship",
    "city": "Osieczna"
  },
  {
    "source_id": "ChIJB60QpdmXBUcRCjWJPOr46YQ",
    "name": "Hydro - Partner",
    "category": "Hydro - Partner",
    "formatted_address": "5,0(1)",
    "phone_number": "+48661962067",
    "source_url": "https://www.google.com/maps/place/Hydro+-+Partner/data=!4m7!3m6!1s0x470597d9a510ad07:0x84e9f8ea3c89350a!8m2!3d51.8580745!4d16.5588146!16s%2Fg%2F11v0gy8z3w!19sChIJB60QpdmXBUcRCjWJPOr46YQ?authuser=0&hl=tr&rclk=1",
    "website_url": "https://hydro-partner.pl/",
    "rating_text": "5,0",
    "stars": null,
    "number_of_reviews": null,
    "price_level": "",
    "open_hours": "",
    "extraction_timestamp": "2025-06-07T17:56:31.010Z",
    "source_name": "google",
    "source_query": "Irrigation Equipment",
    "source_country": "PL",
    "country": "Poland",
    "state": "Greater Poland Voivodeship",
    "city": "Osieczna"
  },
  {
    "source_id": "ChIJyUvLztWXBUcRsLslPcmitPE",
    "name": "HYDRO KAN INSTAL J. SZCZERBAL, P. SIADEK - SPÓŁKA JAWNA",
    "category": "HYDRO KAN INSTAL J. SZCZERBAL, P. SIADEK - SPÓŁKA JAWNA",
    "formatted_address": "HYDRO KAN INSTAL J. SZCZERBAL, P. SIADEK - SPÓŁKA JAWNA",
    "phone_number": "+48500125737",
    "source_url": "https://www.google.com/maps/place/HYDRO+KAN+INSTAL+J.+SZCZERBAL,+P.+SIADEK+-+SP%C3%93%C5%81KA+JAWNA/data=!4m7!3m6!1s0x470597d5cecb4bc9:0xf1b4a2c93d25bbb0!8m2!3d51.847698!4d16.5429689!16s%2Fg%2F11lcmw3rwr!19sChIJyUvLztWXBUcRsLslPcmitPE?authuser=0&hl=tr&rclk=1",
    "website_url": "http://www.sklep.hydrokaninstal.eu/",
    "rating_text": "5,0",
    "stars": null,
    "number_of_reviews": null,
    "price_level": "",
    "open_hours": "",
    "extraction_timestamp": "2025-06-07T17:56:31.012Z",
    "source_name": "google",
    "source_query": "Irrigation Equipment",
    "source_country": "PL",
    "country": "Poland",
    "state": "Greater Poland Voivodeship",
    "city": "Osieczna"
  },
  {
    "source_id": "ChIJ__8vRjGYBUcRbRkFMNRnGzI",
    "name": "NOVATECH silowniki24.pl",
    "category": "NOVATECH silowniki24.pl",
    "formatted_address": "5,0(2)",
    "phone_number": "+48660678158",
    "source_url": "https://www.google.com/maps/place/NOVATECH+silowniki24.pl/data=!4m7!3m6!1s0x47059831462fffff:0x321b67d43005196d!8m2!3d51.8340968!4d16.5760434!16s%2Fg%2F11m2dzxfrx!19sChIJ__8vRjGYBUcRbRkFMNRnGzI?authuser=0&hl=tr&rclk=1",
    "website_url": "http://silowniki24.pl/",
    "rating_text": "5,0",
    "stars": null,
    "number_of_reviews": null,
    "price_level": "",
    "open_hours": "",
    "extraction_timestamp": "2025-06-07T17:56:31.013Z",
    "source_name": "google",
    "source_query": "Irrigation Equipment",
    "source_country": "PL",
    "country": "Poland",
    "state": "Greater Poland Voivodeship",
    "city": "Osieczna"
  },
  {
    "source_id": "ChIJGYn6g7GjBUcRhH2tKd2jFZ0",
    "name": "Q-Service Innotech Osieczna",
    "category": "Q-Service Innotech Osieczna",
    "formatted_address": "4,6(56)",
    "phone_number": "+48885700665",
    "source_url": "https://www.google.com/maps/place/Q-Service+Innotech+Osieczna/data=!4m7!3m6!1s0x4705a3b183fa8919:0x9d15a3dd29ad7d84!8m2!3d51.9019579!4d16.6672985!16s%2Fg%2F11ssx7_hp4!19sChIJGYn6g7GjBUcRhH2tKd2jFZ0?authuser=0&hl=tr&rclk=1",
    "website_url": "https://www.facebook.com/profile.php?id=100089270273502",
    "rating_text": "4,6",
    "stars": null,
    "number_of_reviews": null,
    "price_level": "",
    "open_hours": "",
    "extraction_timestamp": "2025-06-07T17:56:31.015Z",
    "source_name": "google",
    "source_query": "Irrigation Equipment",
    "source_country": "PL",
    "country": "Poland",
    "state": "Greater Poland Voivodeship",
    "city": "Osieczna"
  },
  {
    "source_id": "ChIJVVZm00OYBUcRWtZJvL-BzWc",
    "name": "Pełczyk Wojciech. Układy pompowe i automatyka",
    "category": "Pełczyk Wojciech. Układy pompowe i automatyka",
    "formatted_address": "5,0(2)",
    "phone_number": "+48655201580",
    "source_url": "https://www.google.com/maps/place/Pe%C5%82czyk+Wojciech.+Uk%C5%82ady+pompowe+i+automatyka/data=!4m7!3m6!1s0x47059843d3665655:0x67cd81bfbc49d65a!8m2!3d51.8268008!4d16.5950931!16s%2Fg%2F1tf3mmj7!19sChIJVVZm00OYBUcRWtZJvL-BzWc?authuser=0&hl=tr&rclk=1",
    "website_url": "http://www.ukladypompowe.pl/",
    "rating_text": "5,0",
    "stars": null,
    "number_of_reviews": null,
    "price_level": "",
    "open_hours": "",
    "extraction_timestamp": "2025-06-07T17:56:31.017Z",
    "source_name": "google",
    "source_query": "Irrigation Equipment",
    "source_country": "PL",
    "country": "Poland",
    "state": "Greater Poland Voivodeship",
    "city": "Osieczna"
  },
  {
    "source_id": "ChIJVX-6XEOjBUcR4dljDWurc_0",
    "name": "Rynek miasta Osieczna",
    "category": "Rynek miasta Osieczna",
    "formatted_address": "4,4(69)",
    "phone_number": "",
    "source_url": "https://www.google.com/maps/place/Rynek+miasta+Osieczna/data=!4m7!3m6!1s0x4705a3435cba7f55:0xfd73ab6b0d63d9e1!8m2!3d51.9032414!4d16.6764225!16s%2Fg%2F11fn0d40ny!19sChIJVX-6XEOjBUcR4dljDWurc_0?authuser=0&hl=tr&rclk=1",
    "website_url": "",
    "rating_text": "4,4",
    "stars": null,
    "number_of_reviews": null,
    "price_level": "",
    "open_hours": "",
    "extraction_timestamp": "2025-06-07T17:56:31.018Z",
    "source_name": "google",
    "source_query": "Irrigation Equipment",
    "source_country": "PL",
    "country": "Poland",
    "state": "Greater Poland Voivodeship",
    "city": "Osieczna"
  },
  {
    "source_id": "ChIJN3TUDq2jBUcRYrpQtyFxGBE",
    "name": "Grocki Sławomir, Cugier Jan. Sklep spożywczy s.c.",
    "category": "Grocki Sławomir, Cugier Jan. Sklep spożywczy s.c.",
    "formatted_address": "Grocki Sławomir, Cugier Jan. Sklep spożywczy s.c.",
    "phone_number": "+48609245461",
    "source_url": "https://www.google.com/maps/place/Grocki+S%C5%82awomir,+Cugier+Jan.+Sklep+spo%C5%BCywczy+s.c./data=!4m7!3m6!1s0x4705a3ad0ed47437:0x11187121b750ba62!8m2!3d51.9029201!4d16.6741621!16s%2Fg%2F1hc5jff5g!19sChIJN3TUDq2jBUcRYrpQtyFxGBE?authuser=0&hl=tr&rclk=1",
    "website_url": "",
    "rating_text": "4,3",
    "stars": null,
    "number_of_reviews": null,
    "price_level": "",
    "open_hours": "",
    "extraction_timestamp": "2025-06-07T17:56:31.020Z",
    "source_name": "google",
    "source_query": "Irrigation Equipment",
    "source_country": "PL",
    "country": "Poland",
    "state": "Greater Poland Voivodeship",
    "city": "Osieczna"
  },
  {
    "source_id": "ChIJISnmf6yjBUcRMc6VdopTIe0",
    "name": "Dino",
    "category": "Dino",
    "formatted_address": "4,1(325)",
    "phone_number": "",
    "source_url": "https://www.google.com/maps/place/Dino/data=!4m7!3m6!1s0x4705a3ac7fe62921:0xed21538a7695ce31!8m2!3d51.9027498!4d16.6682039!16s%2Fg%2F1tdxtqnm!19sChIJISnmf6yjBUcRMc6VdopTIe0?authuser=0&hl=tr&rclk=1",
    "website_url": "https://marketdino.pl/",
    "rating_text": "4,1",
    "stars": null,
    "number_of_reviews": null,
    "price_level": "",
    "open_hours": "",
    "extraction_timestamp": "2025-06-07T17:56:31.021Z",
    "source_name": "google",
    "source_query": "Irrigation Equipment",
    "source_country": "PL",
    "country": "Poland",
    "state": "Greater Poland Voivodeship",
    "city": "Osieczna"
  },
  {
    "source_id": "ChIJRdsOefWjBUcR_as83mdQ31k",
    "name": "Biedronka",
    "category": "Biedronka",
    "formatted_address": "4,3(177)",
    "phone_number": "+48800080010",
    "source_url": "https://www.google.com/maps/place/Biedronka/data=!4m7!3m6!1s0x4705a3f5790edb45:0x59df5067de3cabfd!8m2!3d51.902232!4d16.6663845!16s%2Fg%2F11s57j01nm!19sChIJRdsOefWjBUcR_as83mdQ31k?authuser=0&hl=tr&rclk=1",
    "website_url": "https://www.biedronka.pl/pl?utm_source=gmb",
    "rating_text": "4,3",
    "stars": null,
    "number_of_reviews": null,
    "price_level": "",
    "open_hours": "",
    "extraction_timestamp": "2025-06-07T17:56:31.023Z",
    "source_name": "google",
    "source_query": "Irrigation Equipment",
    "source_country": "PL",
    "country": "Poland",
    "state": "Greater Poland Voivodeship",
    "city": "Osieczna"
  },
  {
    "source_id": "ChIJTyevS6CjBUcRu9y-R6V2dQM",
    "name": "Sklep spożywczy wanda",
    "category": "Sklep spożywczy wanda",
    "formatted_address": "5,0(11)",
    "phone_number": "",
    "source_url": "https://www.google.com/maps/place/Sklep+spo%C5%BCywczy+wanda/data=!4m7!3m6!1s0x4705a3a04baf274f:0x37576a547bedcbb!8m2!3d51.9039833!4d16.6777022!16s%2Fg%2F11j025l00j!19sChIJTyevS6CjBUcRu9y-R6V2dQM?authuser=0&hl=tr&rclk=1",
    "website_url": "",
    "rating_text": "5,0",
    "stars": null,
    "number_of_reviews": null,
    "price_level": "",
    "open_hours": "",
    "extraction_timestamp": "2025-06-07T17:56:31.024Z",
    "source_name": "google",
    "source_query": "Irrigation Equipment",
    "source_country": "PL",
    "country": "Poland",
    "state": "Greater Poland Voivodeship",
    "city": "Osieczna"
  },
  {
    "source_id": "ChIJaZ3vyFOYBUcRbhIrA5PjRxY",
    "name": "Pro-Aqua Tietz",
    "category": "Pro-Aqua Tietz",
    "formatted_address": "5,0(7)",
    "phone_number": "+48607179092",
    "source_url": "https://www.google.com/maps/place/Pro-Aqua+Tietz/data=!4m7!3m6!1s0x47059853c8ef9d69:0x1647e393032b126e!8m2!3d51.844061!4d16.5759938!16s%2Fg%2F1thsdmnd!19sChIJaZ3vyFOYBUcRbhIrA5PjRxY?authuser=0&hl=tr&rclk=1",
    "website_url": "https://proaquatietz.pl/",
    "rating_text": "5,0",
    "stars": null,
    "number_of_reviews": null,
    "price_level": "",
    "open_hours": "",
    "extraction_timestamp": "2025-06-07T17:56:31.025Z",
    "source_name": "google",
    "source_query": "Irrigation Equipment",
    "source_country": "PL",
    "country": "Poland",
    "state": "Greater Poland Voivodeship",
    "city": "Osieczna"
  }
]
