[
  {
    "source_id": "ChIJfer5NyekGkcRUk6SBoom4gE",
    "name": "Hurtownia hydrauliczna Jolanta Dutkowska",
    "category": "Hurtownia hydrauliczna Jolanta Dutkowska",
    "formatted_address": "4,7(21)",
    "phone_number": "+48510211399",
    "source_url": "https://www.google.com/maps/place/Hurtownia+hydrauliczna+Jolanta+Dutkowska/data=!4m7!3m6!1s0x471aa42737f9ea7d:0x1e2268a06924e52!8m2!3d51.4167467!4d17.9146987!16s%2Fg%2F1vqmh32w!19sChIJfer5NyekGkcRUk6SBoom4gE?authuser=0&hl=tr&rclk=1",
    "website_url": "",
    "rating_text": "4,7",
    "stars": null,
    "number_of_reviews": null,
    "price_level": "",
    "open_hours": "",
    "extraction_timestamp": "2025-06-07T17:55:17.697Z",
    "source_name": "google",
    "source_query": "Irrigation Equipment",
    "source_country": "PL",
    "country": "Poland",
    "state": "Greater Poland Voivodeship",
    "city": "Ostrzeszów"
  },
  {
    "source_id": "ChIJt7LveKClGkcRNLrdd48blPU",
    "name": "Żelimet - Technika grzewcza, instalacyjna",
    "category": "Żelimet - Technika grzewcza, instalacyjna",
    "formatted_address": "Żelimet - Technika grzewcza, instalacyjna",
    "phone_number": "",
    "source_url": "https://www.google.com/maps/place/%C5%BBelimet+-+Technika+grzewcza,+instalacyjna/data=!4m7!3m6!1s0x471aa5a078efb2b7:0xf5941b8f77ddba34!8m2!3d51.4198912!4d17.9364644!16s%2Fg%2F11hvp49hw1!19sChIJt7LveKClGkcRNLrdd48blPU?authuser=0&hl=tr&rclk=1",
    "website_url": "",
    "rating_text": "4,0",
    "stars": null,
    "number_of_reviews": null,
    "price_level": "",
    "open_hours": "",
    "extraction_timestamp": "2025-06-07T17:55:17.698Z",
    "source_name": "google",
    "source_query": "Irrigation Equipment",
    "source_country": "PL",
    "country": "Poland",
    "state": "Greater Poland Voivodeship",
    "city": "Ostrzeszów"
  },
  {
    "source_id": "ChIJF02bOyWkGkcRe1kSOJSe8hs",
    "name": "Oring Szymczak. Szymczak M.",
    "category": "Oring Szymczak. Szymczak M.",
    "formatted_address": "3,9(23)",
    "phone_number": "+48795800850",
    "source_url": "https://www.google.com/maps/place/Oring+Szymczak.+Szymczak+M./data=!4m7!3m6!1s0x471aa4253b9b4d17:0x1bf29e943812597b!8m2!3d51.417619!4d17.9160682!16s%2Fg%2F1tdvyn8y!19sChIJF02bOyWkGkcRe1kSOJSe8hs?authuser=0&hl=tr&rclk=1",
    "website_url": "",
    "rating_text": "3,9",
    "stars": null,
    "number_of_reviews": null,
    "price_level": "",
    "open_hours": "",
    "extraction_timestamp": "2025-06-07T17:55:17.698Z",
    "source_name": "google",
    "source_query": "Irrigation Equipment",
    "source_country": "PL",
    "country": "Poland",
    "state": "Greater Poland Voivodeship",
    "city": "Ostrzeszów"
  },
  {
    "source_id": "ChIJBbNmrWqkGkcRmQYexZDPE7Q",
    "name": "Rolnik. Hurtownia spożywczo - przemysłowa",
    "category": "Rolnik. Hurtownia spożywczo - przemysłowa",
    "formatted_address": "4,2(92)",
    "phone_number": "+48627301142",
    "source_url": "https://www.google.com/maps/place/Rolnik.+Hurtownia+spo%C5%BCywczo+-+przemys%C5%82owa/data=!4m7!3m6!1s0x471aa46aad66b305:0xb413cf90c51e0699!8m2!3d51.426637!4d17.936394!16s%2Fg%2F1tjddykk!19sChIJBbNmrWqkGkcRmQYexZDPE7Q?authuser=0&hl=tr&rclk=1",
    "website_url": "",
    "rating_text": "4,2",
    "stars": null,
    "number_of_reviews": null,
    "price_level": "",
    "open_hours": "",
    "extraction_timestamp": "2025-06-07T17:55:17.698Z",
    "source_name": "google",
    "source_query": "Irrigation Equipment",
    "source_country": "PL",
    "country": "Poland",
    "state": "Greater Poland Voivodeship",
    "city": "Ostrzeszów"
  },
  {
    "source_id": "ChIJBbNmrWqkGkcRBPqI5J40pHo",
    "name": "Pawilon Handlowy Spółdzielni Rolniczo Handlowej Rolnik Ostrzeszów",
    "category": "Pawilon Handlowy Spółdzielni Rolniczo Handlowej Rolnik Ostrzeszów",
    "formatted_address": "4,4(297)",
    "phone_number": "+48627301151",
    "source_url": "https://www.google.com/maps/place/Pawilon+Handlowy+Sp%C3%B3%C5%82dzielni+Rolniczo+Handlowej+Rolnik+Ostrzesz%C3%B3w/data=!4m7!3m6!1s0x471aa46aad66b305:0x7aa4349ee488fa04!8m2!3d51.4264782!4d17.9361027!16s%2Fg%2F1tkjjyvd!19sChIJBbNmrWqkGkcRBPqI5J40pHo?authuser=0&hl=tr&rclk=1",
    "website_url": "",
    "rating_text": "4,4",
    "stars": null,
    "number_of_reviews": null,
    "price_level": "",
    "open_hours": "",
    "extraction_timestamp": "2025-06-07T17:55:17.698Z",
    "source_name": "google",
    "source_query": "Irrigation Equipment",
    "source_country": "PL",
    "country": "Poland",
    "state": "Greater Poland Voivodeship",
    "city": "Ostrzeszów"
  },
  {
    "source_id": "ChIJF02bOyWkGkcRBXe6cX7QKgc",
    "name": "Rolnik. Spółdzielnia rolniczo - handlowa",
    "category": "Rolnik. Spółdzielnia rolniczo - handlowa",
    "formatted_address": "4,3(15)",
    "phone_number": "+48627301161",
    "source_url": "https://www.google.com/maps/place/Rolnik.+Sp%C3%B3%C5%82dzielnia+rolniczo+-+handlowa/data=!4m7!3m6!1s0x471aa4253b9b4d17:0x72ad07e71ba7705!8m2!3d51.4175705!4d17.9165307!16s%2Fg%2F1tcwpw_9!19sChIJF02bOyWkGkcRBXe6cX7QKgc?authuser=0&hl=tr&rclk=1",
    "website_url": "",
    "rating_text": "4,3",
    "stars": null,
    "number_of_reviews": null,
    "price_level": "",
    "open_hours": "",
    "extraction_timestamp": "2025-06-07T17:55:17.698Z",
    "source_name": "google",
    "source_query": "Irrigation Equipment",
    "source_country": "PL",
    "country": "Poland",
    "state": "Greater Poland Voivodeship",
    "city": "Ostrzeszów"
  },
  {
    "source_id": "ChIJhSeYc26lGkcRg_FAkw3KK7A",
    "name": "Agrostrefa Ostrzeszów",
    "category": "Agrostrefa Ostrzeszów",
    "formatted_address": "3,6(23)",
    "phone_number": "+48500349384",
    "source_url": "https://www.google.com/maps/place/Agrostrefa+Ostrzesz%C3%B3w/data=!4m7!3m6!1s0x471aa56e73982785:0xb02bca0d9340f183!8m2!3d51.4352389!4d17.940544!16s%2Fg%2F11h0w3m7xb!19sChIJhSeYc26lGkcRg_FAkw3KK7A?authuser=0&hl=tr&rclk=1",
    "website_url": "",
    "rating_text": "3,6",
    "stars": null,
    "number_of_reviews": null,
    "price_level": "",
    "open_hours": "",
    "extraction_timestamp": "2025-06-07T17:55:17.699Z",
    "source_name": "google",
    "source_query": "Irrigation Equipment",
    "source_country": "PL",
    "country": "Poland",
    "state": "Greater Poland Voivodeship",
    "city": "Ostrzeszów"
  },
  {
    "source_id": "ChIJfSfDCkakGkcRSfuvEY5F7mM",
    "name": "Avril Sp. z o.o.",
    "category": "Avril Sp. z o.o.",
    "formatted_address": "4,3(3)",
    "phone_number": "+48627300293",
    "source_url": "https://www.google.com/maps/place/Avril+Sp.+z+o.o./data=!4m7!3m6!1s0x471aa4460ac3277d:0x63ee458e11affb49!8m2!3d51.4356783!4d17.9171968!16s%2Fg%2F1tf5ch93!19sChIJfSfDCkakGkcRSfuvEY5F7mM?authuser=0&hl=tr&rclk=1",
    "website_url": "",
    "rating_text": "4,3",
    "stars": null,
    "number_of_reviews": null,
    "price_level": "",
    "open_hours": "",
    "extraction_timestamp": "2025-06-07T17:55:17.699Z",
    "source_name": "google",
    "source_query": "Irrigation Equipment",
    "source_country": "PL",
    "country": "Poland",
    "state": "Greater Poland Voivodeship",
    "city": "Ostrzeszów"
  },
  {
    "source_id": "ChIJ15BucjykGkcRe9ko5Iv674A",
    "name": "SATOR Polski Koncern Maszyn Rolniczych",
    "category": "SATOR Polski Koncern Maszyn Rolniczych",
    "formatted_address": "1,0(1)",
    "phone_number": "+48734217320",
    "source_url": "https://www.google.com/maps/place/SATOR+Polski+Koncern+Maszyn+Rolniczych/data=!4m7!3m6!1s0x471aa43c726e90d7:0x80effa8be428d97b!8m2!3d51.4222529!4d17.9239315!16s%2Fg%2F11c0p_lrm9!19sChIJ15BucjykGkcRe9ko5Iv674A?authuser=0&hl=tr&rclk=1",
    "website_url": "",
    "rating_text": "1,0",
    "stars": null,
    "number_of_reviews": null,
    "price_level": "",
    "open_hours": "",
    "extraction_timestamp": "2025-06-07T17:55:17.699Z",
    "source_name": "google",
    "source_query": "Irrigation Equipment",
    "source_country": "PL",
    "country": "Poland",
    "state": "Greater Poland Voivodeship",
    "city": "Ostrzeszów"
  },
  {
    "source_id": "ChIJYwREASylGkcRn399uo4H3Ng",
    "name": "Action Ostrzeszów",
    "category": "Action Ostrzeszów",
    "formatted_address": "4,7(6)",
    "phone_number": "+48326305898",
    "source_url": "https://www.google.com/maps/place/Action+Ostrzesz%C3%B3w/data=!4m7!3m6!1s0x471aa52c01440463:0xd8dc078eba7d7f9f!8m2!3d51.4339888!4d17.9208953!16s%2Fg%2F11y8s41snv!19sChIJYwREASylGkcRn399uo4H3Ng?authuser=0&hl=tr&rclk=1",
    "website_url": "",
    "rating_text": "4,7",
    "stars": null,
    "number_of_reviews": null,
    "price_level": "",
    "open_hours": "",
    "extraction_timestamp": "2025-06-07T17:55:17.699Z",
    "source_name": "google",
    "source_query": "Irrigation Equipment",
    "source_country": "PL",
    "country": "Poland",
    "state": "Greater Poland Voivodeship",
    "city": "Ostrzeszów"
  },
  {
    "source_id": "ChIJT6q7AEakGkcR9x8_EQIsVt0",
    "name": "Bricomarché",
    "category": "Bricomarché",
    "formatted_address": "4,1(729)",
    "phone_number": "+48627300304",
    "source_url": "https://www.google.com/maps/place/Bricomarch%C3%A9/data=!4m7!3m6!1s0x471aa44600bbaa4f:0xdd562c02113f1ff7!8m2!3d51.4353888!4d17.9168665!16s%2Fg%2F1tsjcdnz!19sChIJT6q7AEakGkcR9x8_EQIsVt0?authuser=0&hl=tr&rclk=1",
    "website_url": "",
    "rating_text": "4,1",
    "stars": null,
    "number_of_reviews": null,
    "price_level": "",
    "open_hours": "",
    "extraction_timestamp": "2025-06-07T17:55:17.700Z",
    "source_name": "google",
    "source_query": "Irrigation Equipment",
    "source_country": "PL",
    "country": "Poland",
    "state": "Greater Poland Voivodeship",
    "city": "Ostrzeszów"
  },
  {
    "source_id": "ChIJH49iLRSkGkcR-3oAOQX7Djw",
    "name": "Targowisko Miejskie Ostrzeszów",
    "category": "Targowisko Miejskie Ostrzeszów",
    "formatted_address": "4,2(551)",
    "phone_number": "+48661135312",
    "source_url": "https://www.google.com/maps/place/Targowisko+Miejskie+Ostrzesz%C3%B3w/data=!4m7!3m6!1s0x471aa4142d628f1f:0x3c0efb0539007afb!8m2!3d51.4210158!4d17.936436!16s%2Fg%2F11c1ptmkcp!19sChIJH49iLRSkGkcR-3oAOQX7Djw?authuser=0&hl=tr&rclk=1",
    "website_url": "",
    "rating_text": "4,2",
    "stars": null,
    "number_of_reviews": null,
    "price_level": "",
    "open_hours": "",
    "extraction_timestamp": "2025-06-07T17:55:17.700Z",
    "source_name": "google",
    "source_query": "Irrigation Equipment",
    "source_country": "PL",
    "country": "Poland",
    "state": "Greater Poland Voivodeship",
    "city": "Ostrzeszów"
  },
  {
    "source_id": "ChIJa1gZ1xSkGkcRh4qBTLiW8vo",
    "name": "Pod Wierzbą s.c. PH",
    "category": "Pod Wierzbą s.c. PH",
    "formatted_address": "4,4(23)",
    "phone_number": "+48509740158",
    "source_url": "https://www.google.com/maps/place/Pod+Wierzb%C4%85+s.c.+PH/data=!4m7!3m6!1s0x471aa414d719586b:0xfaf296b84c818a87!8m2!3d51.425634!4d17.9393673!16s%2Fg%2F1tgp9084!19sChIJa1gZ1xSkGkcRh4qBTLiW8vo?authuser=0&hl=tr&rclk=1",
    "website_url": "",
    "rating_text": "4,4",
    "stars": null,
    "number_of_reviews": null,
    "price_level": "",
    "open_hours": "",
    "extraction_timestamp": "2025-06-07T17:55:17.700Z",
    "source_name": "google",
    "source_query": "Irrigation Equipment",
    "source_country": "PL",
    "country": "Poland",
    "state": "Greater Poland Voivodeship",
    "city": "Ostrzeszów"
  },
  {
    "source_id": "ChIJUdmAIm6lGkcRjj6bAswQ3DI",
    "name": "Przemo Hydraulik",
    "category": "Przemo Hydraulik",
    "formatted_address": "5,0(7)",
    "phone_number": "+48605575165",
    "source_url": "https://www.google.com/maps/place/Przemo+Hydraulik/data=!4m7!3m6!1s0x471aa56e2280d951:0x32dc10cc029b3e8e!8m2!3d51.4314568!4d17.9039873!16s%2Fg%2F11rxjnf5vk!19sChIJUdmAIm6lGkcRjj6bAswQ3DI?authuser=0&hl=tr&rclk=1",
    "website_url": "",
    "rating_text": "5,0",
    "stars": null,
    "number_of_reviews": null,
    "price_level": "",
    "open_hours": "",
    "extraction_timestamp": "2025-06-07T17:55:17.700Z",
    "source_name": "google",
    "source_query": "Irrigation Equipment",
    "source_country": "PL",
    "country": "Poland",
    "state": "Greater Poland Voivodeship",
    "city": "Ostrzeszów"
  },
  {
    "source_id": "ChIJU5qN5-HwSgsRuAxbbDGxZ7A",
    "name": "LR Instal Piotr Idczak",
    "category": "LR Instal Piotr Idczak",
    "formatted_address": "5,0(4)",
    "phone_number": "+48663001450",
    "source_url": "https://www.google.com/maps/place/LR+Instal+Piotr+Idczak/data=!4m7!3m6!1s0xb4af0e1e78d9a53:0xb067b1316c5b0cb8!8m2!3d51.4244194!4d17.9323534!16s%2Fg%2F11tnf1bg40!19sChIJU5qN5-HwSgsRuAxbbDGxZ7A?authuser=0&hl=tr&rclk=1",
    "website_url": "",
    "rating_text": "5,0",
    "stars": null,
    "number_of_reviews": null,
    "price_level": "",
    "open_hours": "",
    "extraction_timestamp": "2025-06-07T17:55:17.700Z",
    "source_name": "google",
    "source_query": "Irrigation Equipment",
    "source_country": "PL",
    "country": "Poland",
    "state": "Greater Poland Voivodeship",
    "city": "Ostrzeszów"
  },
  {
    "source_id": "ChIJS7iNzH-lGkcRv8wSRRtOlWI",
    "name": "GA Galeria Alkoholi",
    "category": "GA Galeria Alkoholi",
    "formatted_address": "4,7(93)",
    "phone_number": "+48530138679",
    "source_url": "https://www.google.com/maps/place/GA+Galeria+Alkoholi/data=!4m7!3m6!1s0x471aa57fcc8db84b:0x62954e1b4512ccbf!8m2!3d51.4293921!4d17.9338359!16s%2Fg%2F11ghffzrrk!19sChIJS7iNzH-lGkcRv8wSRRtOlWI?authuser=0&hl=tr&rclk=1",
    "website_url": "",
    "rating_text": "4,7",
    "stars": null,
    "number_of_reviews": null,
    "price_level": "",
    "open_hours": "",
    "extraction_timestamp": "2025-06-07T17:55:17.701Z",
    "source_name": "google",
    "source_query": "Irrigation Equipment",
    "source_country": "PL",
    "country": "Poland",
    "state": "Greater Poland Voivodeship",
    "city": "Ostrzeszów"
  },
  {
    "source_id": "ChIJN9CLsU6kGkcRYBUXwbUOtdA",
    "name": "Intermarche",
    "category": "Intermarche",
    "formatted_address": "4,2(777)",
    "phone_number": "+48627323488",
    "source_url": "https://www.google.com/maps/place/Intermarche/data=!4m7!3m6!1s0x471aa44eb18bd037:0xd0b50eb5c1171560!8m2!3d51.4352778!4d17.9177778!16s%2Fg%2F1tfvrpzt!19sChIJN9CLsU6kGkcRYBUXwbUOtdA?authuser=0&hl=tr&rclk=1",
    "website_url": "",
    "rating_text": "4,2",
    "stars": null,
    "number_of_reviews": null,
    "price_level": "",
    "open_hours": "",
    "extraction_timestamp": "2025-06-07T17:55:17.701Z",
    "source_name": "google",
    "source_query": "Irrigation Equipment",
    "source_country": "PL",
    "country": "Poland",
    "state": "Greater Poland Voivodeship",
    "city": "Ostrzeszów"
  },
  {
    "source_id": "ChIJF02bOyWkGkcRTCf3_P2fX9o",
    "name": "AS- Technic Andrzej Calinski",
    "category": "AS- Technic Andrzej Calinski",
    "formatted_address": "4,0(8)",
    "phone_number": "",
    "source_url": "https://www.google.com/maps/place/AS-+Technic+Andrzej+Calinski/data=!4m7!3m6!1s0x471aa4253b9b4d17:0xda5f9ffdfcf7274c!8m2!3d51.417906!4d17.916175!16s%2Fg%2F11c71633f8!19sChIJF02bOyWkGkcRTCf3_P2fX9o?authuser=0&hl=tr&rclk=1",
    "website_url": "",
    "rating_text": "4,0",
    "stars": null,
    "number_of_reviews": null,
    "price_level": "",
    "open_hours": "",
    "extraction_timestamp": "2025-06-07T17:55:17.701Z",
    "source_name": "google",
    "source_query": "Irrigation Equipment",
    "source_country": "PL",
    "country": "Poland",
    "state": "Greater Poland Voivodeship",
    "city": "Ostrzeszów"
  },
  {
    "source_id": "ChIJtaHl-D-kGkcRZ3WP7KYW3Vo",
    "name": "Elektronik Nowicki RTV AGD Ostrzeszów",
    "category": "Elektronik Nowicki RTV AGD Ostrzeszów",
    "formatted_address": "4,6(65)",
    "phone_number": "+48519133153",
    "source_url": "https://www.google.com/maps/place/Elektronik+Nowicki+RTV+AGD+Ostrzesz%C3%B3w/data=!4m7!3m6!1s0x471aa43ff8e5a1b5:0x5add16a6ec8f7567!8m2!3d51.4266977!4d17.9348435!16s%2Fg%2F1vq73lr_!19sChIJtaHl-D-kGkcRZ3WP7KYW3Vo?authuser=0&hl=tr&rclk=1",
    "website_url": "",
    "rating_text": "4,6",
    "stars": null,
    "number_of_reviews": null,
    "price_level": "",
    "open_hours": "",
    "extraction_timestamp": "2025-06-07T17:55:17.701Z",
    "source_name": "google",
    "source_query": "Irrigation Equipment",
    "source_country": "PL",
    "country": "Poland",
    "state": "Greater Poland Voivodeship",
    "city": "Ostrzeszów"
  },
  {
    "source_id": "ChIJcWJ1YyGlGkcRZMtVIPwhpxM",
    "name": "JS SERWIS",
    "category": "JS SERWIS",
    "formatted_address": "",
    "phone_number": "+48601324778",
    "source_url": "https://www.google.com/maps/place/JS+SERWIS/data=!4m7!3m6!1s0x471aa52163756271:0x13a721fc2055cb64!8m2!3d51.4278564!4d17.9396161!16s%2Fg%2F11x06q68jr!19sChIJcWJ1YyGlGkcRZMtVIPwhpxM?authuser=0&hl=tr&rclk=1",
    "website_url": "",
    "rating_text": "",
    "stars": null,
    "number_of_reviews": null,
    "price_level": "",
    "open_hours": "",
    "extraction_timestamp": "2025-06-07T17:55:17.701Z",
    "source_name": "google",
    "source_query": "Irrigation Equipment",
    "source_country": "PL",
    "country": "Poland",
    "state": "Greater Poland Voivodeship",
    "city": "Ostrzeszów"
  },
  {
    "source_id": "ChIJ2W8goIelGkcRp_wTjGq2Pgk",
    "name": "Sklep Garłacz",
    "category": "Sklep Garłacz",
    "formatted_address": "4,8(18)",
    "phone_number": "+48696982184",
    "source_url": "https://www.google.com/maps/place/Sklep+Gar%C5%82acz/data=!4m7!3m6!1s0x471aa587a0206fd9:0x93eb66a8c13fca7!8m2!3d51.42172!4d17.9445805!16s%2Fg%2F11pyzfzxh_!19sChIJ2W8goIelGkcRp_wTjGq2Pgk?authuser=0&hl=tr&rclk=1",
    "website_url": "",
    "rating_text": "4,8",
    "stars": null,
    "number_of_reviews": null,
    "price_level": "",
    "open_hours": "",
    "extraction_timestamp": "2025-06-07T17:55:17.702Z",
    "source_name": "google",
    "source_query": "Irrigation Equipment",
    "source_country": "PL",
    "country": "Poland",
    "state": "Greater Poland Voivodeship",
    "city": "Ostrzeszów"
  },
  {
    "source_id": "ChIJAQAQyBWkGkcRIv-rHYN_x9c",
    "name": "Akademia Sportu Olimpia",
    "category": "Akademia Sportu Olimpia",
    "formatted_address": "5,0(66)",
    "phone_number": "+48605310836",
    "source_url": "https://www.google.com/maps/place/Akademia+Sportu+Olimpia/data=!4m7!3m6!1s0x471aa415c8100001:0xd7c77f831dabff22!8m2!3d51.421598!4d17.913871!16s%2Fg%2F11h6g17r3f!19sChIJAQAQyBWkGkcRIv-rHYN_x9c?authuser=0&hl=tr&rclk=1",
    "website_url": "",
    "rating_text": "5,0",
    "stars": null,
    "number_of_reviews": null,
    "price_level": "",
    "open_hours": "",
    "extraction_timestamp": "2025-06-07T17:55:17.702Z",
    "source_name": "google",
    "source_query": "Irrigation Equipment",
    "source_country": "PL",
    "country": "Poland",
    "state": "Greater Poland Voivodeship",
    "city": "Ostrzeszów"
  },
  {
    "source_id": "ChIJVQ8u3iSkGkcRgXoP5Kfq5hY",
    "name": "Wina Konesera",
    "category": "Wina Konesera",
    "formatted_address": "4,6(18)",
    "phone_number": "+48625860643",
    "source_url": "https://www.google.com/maps/place/Wina+Konesera/data=!4m7!3m6!1s0x471aa424de2e0f55:0x16e6eaa7e40f7a81!8m2!3d51.4253961!4d17.9293908!16s%2Fg%2F1td2920p!19sChIJVQ8u3iSkGkcRgXoP5Kfq5hY?authuser=0&hl=tr&rclk=1",
    "website_url": "",
    "rating_text": "4,6",
    "stars": null,
    "number_of_reviews": null,
    "price_level": "",
    "open_hours": "",
    "extraction_timestamp": "2025-06-07T17:55:17.702Z",
    "source_name": "google",
    "source_query": "Irrigation Equipment",
    "source_country": "PL",
    "country": "Poland",
    "state": "Greater Poland Voivodeship",
    "city": "Ostrzeszów"
  },
  {
    "source_id": "ChIJJ_Nf8VelGkcRvwsLIbNn3H0",
    "name": "Martes Sport",
    "category": "Martes Sport",
    "formatted_address": "4,0(8)",
    "phone_number": "+48502268177",
    "source_url": "https://www.google.com/maps/place/Martes+Sport/data=!4m7!3m6!1s0x471aa557f15ff327:0x7ddc67b3210b0bbf!8m2!3d51.4340768!4d17.9200369!16s%2Fg%2F11kq85yvmz!19sChIJJ_Nf8VelGkcRvwsLIbNn3H0?authuser=0&hl=tr&rclk=1",
    "website_url": "",
    "rating_text": "4,0",
    "stars": null,
    "number_of_reviews": null,
    "price_level": "",
    "open_hours": "",
    "extraction_timestamp": "2025-06-07T17:55:17.703Z",
    "source_name": "google",
    "source_query": "Irrigation Equipment",
    "source_country": "PL",
    "country": "Poland",
    "state": "Greater Poland Voivodeship",
    "city": "Ostrzeszów"
  },
  {
    "source_id": "ChIJs7E08kqlGkcRtSkXn_jlUyE",
    "name": "Livio Stambuła",
    "category": "Livio Stambuła",
    "formatted_address": "4,4(34)",
    "phone_number": "",
    "source_url": "https://www.google.com/maps/place/Livio+Stambu%C5%82a/data=!4m7!3m6!1s0x471aa54af234b1b3:0x2153e5f89f1729b5!8m2!3d51.4302099!4d17.921866!16s%2Fg%2F11sn826ltj!19sChIJs7E08kqlGkcRtSkXn_jlUyE?authuser=0&hl=tr&rclk=1",
    "website_url": "",
    "rating_text": "4,4",
    "stars": null,
    "number_of_reviews": null,
    "price_level": "",
    "open_hours": "",
    "extraction_timestamp": "2025-06-07T17:55:17.703Z",
    "source_name": "google",
    "source_query": "Irrigation Equipment",
    "source_country": "PL",
    "country": "Poland",
    "state": "Greater Poland Voivodeship",
    "city": "Ostrzeszów"
  },
  {
    "source_id": "ChIJjVVgoUekGkcR2N4MdiRGDeQ",
    "name": "Ogrodnik Kwiaciarnia",
    "category": "Ogrodnik Kwiaciarnia",
    "formatted_address": "4,9(43)",
    "phone_number": "+48627304693",
    "source_url": "https://www.google.com/maps/place/Ogrodnik+Kwiaciarnia/data=!4m7!3m6!1s0x471aa447a160558d:0xe40d4624760cded8!8m2!3d51.4298917!4d17.9251288!16s%2Fg%2F1tf8rvq9!19sChIJjVVgoUekGkcR2N4MdiRGDeQ?authuser=0&hl=tr&rclk=1",
    "website_url": "",
    "rating_text": "4,9",
    "stars": null,
    "number_of_reviews": null,
    "price_level": "",
    "open_hours": "",
    "extraction_timestamp": "2025-06-07T17:55:17.703Z",
    "source_name": "google",
    "source_query": "Irrigation Equipment",
    "source_country": "PL",
    "country": "Poland",
    "state": "Greater Poland Voivodeship",
    "city": "Ostrzeszów"
  },
  {
    "source_id": "ChIJeYlVVpGlGkcRBO-Gu6aB7jQ",
    "name": "Kapibara Ostrzeszów",
    "category": "Kapibara Ostrzeszów",
    "formatted_address": "5,0(10)",
    "phone_number": "+48729343795",
    "source_url": "https://www.google.com/maps/place/Kapibara+Ostrzesz%C3%B3w/data=!4m7!3m6!1s0x471aa59156558979:0x34ee81a6bb86ef04!8m2!3d51.4259692!4d17.9287214!16s%2Fg%2F11w7kvlvg3!19sChIJeYlVVpGlGkcRBO-Gu6aB7jQ?authuser=0&hl=tr&rclk=1",
    "website_url": "",
    "rating_text": "5,0",
    "stars": null,
    "number_of_reviews": null,
    "price_level": "",
    "open_hours": "",
    "extraction_timestamp": "2025-06-07T17:55:17.703Z",
    "source_name": "google",
    "source_query": "Irrigation Equipment",
    "source_country": "PL",
    "country": "Poland",
    "state": "Greater Poland Voivodeship",
    "city": "Ostrzeszów"
  },
  {
    "source_id": "ChIJkTsGMV2kGkcR21SymNJyW_Y",
    "name": "Sklep spożywczo-przemyslowy",
    "category": "Sklep spożywczo-przemyslowy",
    "formatted_address": "4,4(27)",
    "phone_number": "",
    "source_url": "https://www.google.com/maps/place/Sklep+spo%C5%BCywczo-przemyslowy/data=!4m7!3m6!1s0x471aa45d31063b91:0xf65b72d298b254db!8m2!3d51.4374336!4d17.940122!16s%2Fg%2F11fzf34cbh!19sChIJkTsGMV2kGkcR21SymNJyW_Y?authuser=0&hl=tr&rclk=1",
    "website_url": "",
    "rating_text": "4,4",
    "stars": null,
    "number_of_reviews": null,
    "price_level": "",
    "open_hours": "",
    "extraction_timestamp": "2025-06-07T17:55:17.703Z",
    "source_name": "google",
    "source_query": "Irrigation Equipment",
    "source_country": "PL",
    "country": "Poland",
    "state": "Greater Poland Voivodeship",
    "city": "Ostrzeszów"
  },
  {
    "source_id": "ChIJK6o2U0ykGkcRRLk1YHcYvjY",
    "name": "Frutis. Hurtownia spożywczo - przemysłowa. Mazurkiewicz K.",
    "category": "Frutis. Hurtownia spożywczo - przemysłowa. Mazurkiewicz K.",
    "formatted_address": "4,3(6)",
    "phone_number": "+48627320077",
    "source_url": "https://www.google.com/maps/place/Frutis.+Hurtownia+spo%C5%BCywczo+-+przemys%C5%82owa.+Mazurkiewicz+K./data=!4m7!3m6!1s0x471aa44c5336aa2b:0x36be18776035b944!8m2!3d51.437979!4d17.915259!16s%2Fg%2F1tdkfd2y!19sChIJK6o2U0ykGkcRRLk1YHcYvjY?authuser=0&hl=tr&rclk=1",
    "website_url": "",
    "rating_text": "4,3",
    "stars": null,
    "number_of_reviews": null,
    "price_level": "",
    "open_hours": "",
    "extraction_timestamp": "2025-06-07T17:55:17.703Z",
    "source_name": "google",
    "source_query": "Irrigation Equipment",
    "source_country": "PL",
    "country": "Poland",
    "state": "Greater Poland Voivodeship",
    "city": "Ostrzeszów"
  },
  {
    "source_id": "ChIJr_HQMT-kGkcR7iQIhNAjucI",
    "name": "Drogeria Rossmann",
    "category": "Drogeria Rossmann",
    "formatted_address": "4,4(306)",
    "phone_number": "+48426139700",
    "source_url": "https://www.google.com/maps/place/Drogeria+Rossmann/data=!4m7!3m6!1s0x471aa43f31d0f1af:0xc2b923d0840824ee!8m2!3d51.4258726!4d17.9298815!16s%2Fg%2F11b5wjc619!19sChIJr_HQMT-kGkcR7iQIhNAjucI?authuser=0&hl=tr&rclk=1",
    "website_url": "",
    "rating_text": "4,4",
    "stars": null,
    "number_of_reviews": null,
    "price_level": "",
    "open_hours": "",
    "extraction_timestamp": "2025-06-07T17:55:17.704Z",
    "source_name": "google",
    "source_query": "Irrigation Equipment",
    "source_country": "PL",
    "country": "Poland",
    "state": "Greater Poland Voivodeship",
    "city": "Ostrzeszów"
  },
  {
    "source_id": "ChIJh4nF6dmlGkcRiWxIbUpPZWc",
    "name": "Sklep spożywczo - przemysłowy Stambuła",
    "category": "Sklep spożywczo - przemysłowy Stambuła",
    "formatted_address": "4,5(16)",
    "phone_number": "",
    "source_url": "https://www.google.com/maps/place/Sklep+spo%C5%BCywczo+-+przemys%C5%82owy+Stambu%C5%82a/data=!4m7!3m6!1s0x471aa5d9e9c58987:0x67654f4a6d486c89!8m2!3d51.4263984!4d17.9175244!16s%2Fg%2F11h3p5gk7m!19sChIJh4nF6dmlGkcRiWxIbUpPZWc?authuser=0&hl=tr&rclk=1",
    "website_url": "",
    "rating_text": "4,5",
    "stars": null,
    "number_of_reviews": null,
    "price_level": "",
    "open_hours": "",
    "extraction_timestamp": "2025-06-07T17:55:17.704Z",
    "source_name": "google",
    "source_query": "Irrigation Equipment",
    "source_country": "PL",
    "country": "Poland",
    "state": "Greater Poland Voivodeship",
    "city": "Ostrzeszów"
  }
]
