[
  {
    "source_id": "ChIJv3VWorS1GkcR91vUXcnWjAo",
    "name": "Systemy pneumatyki. Sprężarki, kompresory, narzędzia",
    "category": "Systemy pneumatyki. Sprężarki, kompresory, narzędzia",
    "formatted_address": "Systemy pneumatyki. Sprężarki, kompresory, narzędzia",
    "phone_number": "+48625910444",
    "source_url": "https://www.google.com/maps/place/Systemy+pneumatyki.+Spr%C4%99%C5%BCarki,+kompresory,+narz%C4%99dzia/data=!4m7!3m6!1s0x471ab5b4a25675bf:0xa8cd6c95dd45bf7!8m2!3d51.6301252!4d17.8127133!16s%2Fg%2F1vm_wmyy!19sChIJv3VWorS1GkcR91vUXcnWjAo?authuser=0&hl=tr&rclk=1",
    "website_url": "",
    "rating_text": "4,1",
    "stars": null,
    "number_of_reviews": null,
    "price_level": "",
    "open_hours": "",
    "extraction_timestamp": "2025-06-07T17:22:26.750Z",
    "source_name": "google",
    "source_query": "Irrigation Equipment",
    "source_country": "PL",
    "country": "Poland",
    "state": "Greater Poland Voivodeship",
    "city": "Ostrów Wielkopolski"
  },
  {
    "source_id": "ChIJfY_Emy60GkcRz29zeMR66RY",
    "name": "CalDrew Sp. z o.o.",
    "category": "CalDrew Sp. z o.o.",
    "formatted_address": "4,4(13)",
    "phone_number": "+48627310512",
    "source_url": "https://www.google.com/maps/place/CalDrew+Sp.+z+o.o./data=!4m7!3m6!1s0x471ab42e9bc48f7d:0x16e97ac478736fcf!8m2!3d51.6321949!4d17.8339354!16s%2Fg%2F11cnm7lbxf!19sChIJfY_Emy60GkcRz29zeMR66RY?authuser=0&hl=tr&rclk=1",
    "website_url": "",
    "rating_text": "4,4",
    "stars": null,
    "number_of_reviews": null,
    "price_level": "",
    "open_hours": "",
    "extraction_timestamp": "2025-06-07T17:22:26.752Z",
    "source_name": "google",
    "source_query": "Irrigation Equipment",
    "source_country": "PL",
    "country": "Poland",
    "state": "Greater Poland Voivodeship",
    "city": "Ostrów Wielkopolski"
  },
  {
    "source_id": "ChIJcR97xNAtBUcR__NeBCdOFjU",
    "name": "Słoneczny Doradca - pompy ciepła - usługi hydrauliczne - kotły c.o",
    "category": "Słoneczny Doradca - pompy ciepła - usługi hydrauliczne - kotły c.o",
    "formatted_address": "4,7(56)",
    "phone_number": "+48600600342",
    "source_url": "https://www.google.com/maps/place/S%C5%82oneczny+Doradca+-+pompy+ciep%C5%82a+-+us%C5%82ugi+hydrauliczne+-+kot%C5%82y+c.o/data=!4m7!3m6!1s0x47052dd0c47b1f71:0x35164e27045ef3ff!8m2!3d51.639729!4d17.7827231!16s%2Fg%2F11rscv369w!19sChIJcR97xNAtBUcR__NeBCdOFjU?authuser=0&hl=tr&rclk=1",
    "website_url": "",
    "rating_text": "4,7",
    "stars": null,
    "number_of_reviews": null,
    "price_level": "",
    "open_hours": "",
    "extraction_timestamp": "2025-06-07T17:22:26.755Z",
    "source_name": "google",
    "source_query": "Irrigation Equipment",
    "source_country": "PL",
    "country": "Poland",
    "state": "Greater Poland Voivodeship",
    "city": "Ostrów Wielkopolski"
  },
  {
    "source_id": "ChIJe4YPHdK1GkcRx7agDZMj4rs",
    "name": "Sanpol Ostrów Wlkp. - hurtownia instalacyjna, hydrauliczna, sanitarna",
    "category": "Sanpol Ostrów Wlkp. - hurtownia instalacyjna, hydrauliczna, sanitarna",
    "formatted_address": "Sanpol Ostrów Wlkp. - hurtownia instalacyjna, hydrauliczna, sanitarna",
    "phone_number": "+48627369631",
    "source_url": "https://www.google.com/maps/place/Sanpol+Ostr%C3%B3w+Wlkp.+-+hurtownia+instalacyjna,+hydrauliczna,+sanitarna/data=!4m7!3m6!1s0x471ab5d21d0f867b:0xbbe223930da0b6c7!8m2!3d51.6391299!4d17.8364589!16s%2Fg%2F11gzcvrzh!19sChIJe4YPHdK1GkcRx7agDZMj4rs?authuser=0&hl=tr&rclk=1",
    "website_url": "",
    "rating_text": "4,9",
    "stars": null,
    "number_of_reviews": null,
    "price_level": "",
    "open_hours": "",
    "extraction_timestamp": "2025-06-07T17:22:26.756Z",
    "source_name": "google",
    "source_query": "Irrigation Equipment",
    "source_country": "PL",
    "country": "Poland",
    "state": "Greater Poland Voivodeship",
    "city": "Ostrów Wielkopolski"
  },
  {
    "source_id": "ChIJPeA6IIe1GkcRs7lqCjrhbjU",
    "name": "Power Group sp. z.o.o.",
    "category": "Power Group sp. z.o.o.",
    "formatted_address": "5,0(7)",
    "phone_number": "+48577499971",
    "source_url": "https://www.google.com/maps/place/Power+Group+sp.+z.o.o./data=!4m7!3m6!1s0x471ab587203ae03d:0x356ee13a0a6ab9b3!8m2!3d51.6586178!4d17.7934743!16s%2Fg%2F11v70hqbw5!19sChIJPeA6IIe1GkcRs7lqCjrhbjU?authuser=0&hl=tr&rclk=1",
    "website_url": "",
    "rating_text": "5,0",
    "stars": null,
    "number_of_reviews": null,
    "price_level": "",
    "open_hours": "",
    "extraction_timestamp": "2025-06-07T17:22:26.758Z",
    "source_name": "google",
    "source_query": "Irrigation Equipment",
    "source_country": "PL",
    "country": "Poland",
    "state": "Greater Poland Voivodeship",
    "city": "Ostrów Wielkopolski"
  },
  {
    "source_id": "ChIJPRnudzS0GkcRnmghyPD_FbE",
    "name": "Servamet Serwa SKA",
    "category": "Servamet Serwa SKA",
    "formatted_address": "4,9(11)",
    "phone_number": "+48627361844",
    "source_url": "https://www.google.com/maps/place/Servamet+Serwa+SKA/data=!4m7!3m6!1s0x471ab43477ee193d:0xb115fff0c821689e!8m2!3d51.6366643!4d17.8223083!16s%2Fg%2F1vn_xqch!19sChIJPRnudzS0GkcRnmghyPD_FbE?authuser=0&hl=tr&rclk=1",
    "website_url": "",
    "rating_text": "4,9",
    "stars": null,
    "number_of_reviews": null,
    "price_level": "",
    "open_hours": "",
    "extraction_timestamp": "2025-06-07T17:22:26.759Z",
    "source_name": "google",
    "source_query": "Irrigation Equipment",
    "source_country": "PL",
    "country": "Poland",
    "state": "Greater Poland Voivodeship",
    "city": "Ostrów Wielkopolski"
  },
  {
    "source_id": "ChIJvXuyk1O0GkcRrsQa7cAvO-U",
    "name": "Gazelle. Szafki gazowe, kształtki PE, armatura gazowa. Hurtownia instalacyjna i sprzedaż detaliczna.",
    "category": "Gazelle. Szafki gazowe, kształtki PE, armatura gazowa. Hurtownia instalacyjna i sprzedaż detaliczna.",
    "formatted_address": "Gazelle. Szafki gazowe, kształtki PE, armatura gazowa. Hurtownia instalacyjna i sprzedaż detaliczna.",
    "phone_number": "+48502154274",
    "source_url": "https://www.google.com/maps/place/Gazelle.+Szafki+gazowe,+kszta%C5%82tki+PE,+armatura+gazowa.+Hurtownia+instalacyjna+i+sprzeda%C5%BC+detaliczna./data=!4m7!3m6!1s0x471ab45393b27bbd:0xe53b2fc0ed1ac4ae!8m2!3d51.6405378!4d17.7944606!16s%2Fg%2F1tsjcdp1!19sChIJvXuyk1O0GkcRrsQa7cAvO-U?authuser=0&hl=tr&rclk=1",
    "website_url": "",
    "rating_text": "3,5",
    "stars": null,
    "number_of_reviews": null,
    "price_level": "",
    "open_hours": "",
    "extraction_timestamp": "2025-06-07T17:22:26.761Z",
    "source_name": "google",
    "source_query": "Irrigation Equipment",
    "source_country": "PL",
    "country": "Poland",
    "state": "Greater Poland Voivodeship",
    "city": "Ostrów Wielkopolski"
  },
  {
    "source_id": "ChIJ0dH2Awi1GkcRqQZ0AwjPAS4",
    "name": "NaSwoim",
    "category": "NaSwoim",
    "formatted_address": "4,7(59)",
    "phone_number": "+48733253253",
    "source_url": "https://www.google.com/maps/place/NaSwoim/data=!4m7!3m6!1s0x471ab50803f6d1d1:0x2e01cf08037406a9!8m2!3d51.6396215!4d17.7698958!16s%2Fg%2F11b_2glmbt!19sChIJ0dH2Awi1GkcRqQZ0AwjPAS4?authuser=0&hl=tr&rclk=1",
    "website_url": "",
    "rating_text": "4,7",
    "stars": null,
    "number_of_reviews": null,
    "price_level": "",
    "open_hours": "",
    "extraction_timestamp": "2025-06-07T17:22:26.762Z",
    "source_name": "google",
    "source_query": "Irrigation Equipment",
    "source_country": "PL",
    "country": "Poland",
    "state": "Greater Poland Voivodeship",
    "city": "Ostrów Wielkopolski"
  },
  {
    "source_id": "ChIJSYuOewW1GkcR_fJ7HyzyUZU",
    "name": "Du-San Technika Grzewcza i Sanitarna N. Dutkowska Sp.j.",
    "category": "Du-San Technika Grzewcza i Sanitarna N. Dutkowska Sp.j.",
    "formatted_address": "4,4(56)",
    "phone_number": "",
    "source_url": "https://www.google.com/maps/place/Du-San+Technika+Grzewcza+i+Sanitarna+N.+Dutkowska+Sp.j./data=!4m7!3m6!1s0x471ab5057b8e8b49:0x9551f22c1f7bf2fd!8m2!3d51.6566034!4d17.7824445!16s%2Fg%2F11h1j8dr7!19sChIJSYuOewW1GkcR_fJ7HyzyUZU?authuser=0&hl=tr&rclk=1",
    "website_url": "",
    "rating_text": "4,4",
    "stars": null,
    "number_of_reviews": null,
    "price_level": "",
    "open_hours": "",
    "extraction_timestamp": "2025-06-07T17:22:26.764Z",
    "source_name": "google",
    "source_query": "Irrigation Equipment",
    "source_country": "PL",
    "country": "Poland",
    "state": "Greater Poland Voivodeship",
    "city": "Ostrów Wielkopolski"
  },
  {
    "source_id": "ChIJh2YJ2KW1GkcRfwZvrKFobC8",
    "name": "Zakład Przemysłowych Systemów Automatyki",
    "category": "Zakład Przemysłowych Systemów Automatyki",
    "formatted_address": "4,4(10)",
    "phone_number": "+48627357961",
    "source_url": "https://www.google.com/maps/place/Zak%C5%82ad+Przemys%C5%82owych+System%C3%B3w+Automatyki/data=!4m7!3m6!1s0x471ab5a5d8096687:0x2f6c68a1ac6f067f!8m2!3d51.6558162!4d17.8026237!16s%2Fg%2F1tlbh9j9!19sChIJh2YJ2KW1GkcRfwZvrKFobC8?authuser=0&hl=tr&rclk=1",
    "website_url": "",
    "rating_text": "4,4",
    "stars": null,
    "number_of_reviews": null,
    "price_level": "",
    "open_hours": "",
    "extraction_timestamp": "2025-06-07T17:22:26.765Z",
    "source_name": "google",
    "source_query": "Irrigation Equipment",
    "source_country": "PL",
    "country": "Poland",
    "state": "Greater Poland Voivodeship",
    "city": "Ostrów Wielkopolski"
  },
  {
    "source_id": "ChIJSTBKD_K1GkcRKfreWQV6Tg0",
    "name": "SOLSTI - Odnawialne Źródła Energii",
    "category": "SOLSTI - Odnawialne Źródła Energii",
    "formatted_address": "5,0(33)",
    "phone_number": "+48798996827",
    "source_url": "https://www.google.com/maps/place/SOLSTI+-+Odnawialne+%C5%B9r%C3%B3d%C5%82a+Energii/data=!4m7!3m6!1s0x471ab5f20f4a3049:0xd4e7a0559defa29!8m2!3d51.6531187!4d17.8215543!16s%2Fg%2F11vbx5htq0!19sChIJSTBKD_K1GkcRKfreWQV6Tg0?authuser=0&hl=tr&rclk=1",
    "website_url": "",
    "rating_text": "5,0",
    "stars": null,
    "number_of_reviews": null,
    "price_level": "",
    "open_hours": "",
    "extraction_timestamp": "2025-06-07T17:22:26.766Z",
    "source_name": "google",
    "source_query": "Irrigation Equipment",
    "source_country": "PL",
    "country": "Poland",
    "state": "Greater Poland Voivodeship",
    "city": "Ostrów Wielkopolski"
  },
  {
    "source_id": "ChIJRbr1KAm1GkcR9ZvW1ExgtEA",
    "name": "Bricomarche",
    "category": "Bricomarche",
    "formatted_address": "4,3(1.097)",
    "phone_number": "+48625914800",
    "source_url": "https://www.google.com/maps/place/Bricomarche/data=!4m7!3m6!1s0x471ab50928f5ba45:0x40b4604cd4d69bf5!8m2!3d51.6599828!4d17.8004359!16s%2Fg%2F1tdp8cf1!19sChIJRbr1KAm1GkcR9ZvW1ExgtEA?authuser=0&hl=tr&rclk=1",
    "website_url": "",
    "rating_text": "4,3",
    "stars": null,
    "number_of_reviews": null,
    "price_level": "",
    "open_hours": "",
    "extraction_timestamp": "2025-06-07T17:22:26.769Z",
    "source_name": "google",
    "source_query": "Irrigation Equipment",
    "source_country": "PL",
    "country": "Poland",
    "state": "Greater Poland Voivodeship",
    "city": "Ostrów Wielkopolski"
  },
  {
    "source_id": "ChIJQweDKD60GkcRgJympfz5gM4",
    "name": "Ecology",
    "category": "Ecology",
    "formatted_address": "4,9(25)",
    "phone_number": "+48627381386",
    "source_url": "https://www.google.com/maps/place/Ecology/data=!4m7!3m6!1s0x471ab43e28830743:0xce80f9fca5a69c80!8m2!3d51.6579437!4d17.7775193!16s%2Fg%2F1thq40x2!19sChIJQweDKD60GkcRgJympfz5gM4?authuser=0&hl=tr&rclk=1",
    "website_url": "",
    "rating_text": "4,9",
    "stars": null,
    "number_of_reviews": null,
    "price_level": "",
    "open_hours": "",
    "extraction_timestamp": "2025-06-07T17:22:26.770Z",
    "source_name": "google",
    "source_query": "Irrigation Equipment",
    "source_country": "PL",
    "country": "Poland",
    "state": "Greater Poland Voivodeship",
    "city": "Ostrów Wielkopolski"
  },
  {
    "source_id": "ChIJC2rmFsS1GkcRH5WQ21BhHoo",
    "name": "Rol-Gaz sp.j. Hurtownia materiałów i urządzeń spawalniczych",
    "category": "Rol-Gaz sp.j. Hurtownia materiałów i urządzeń spawalniczych",
    "formatted_address": "3,3(7)",
    "phone_number": "+48627364607",
    "source_url": "https://www.google.com/maps/place/Rol-Gaz+sp.j.+Hurtownia+materia%C5%82%C3%B3w+i+urz%C4%85dze%C5%84+spawalniczych/data=!4m7!3m6!1s0x471ab5c416e66a0b:0x8a1e6150db90951f!8m2!3d51.6533594!4d17.8357697!16s%2Fg%2F1w2yy64n!19sChIJC2rmFsS1GkcRH5WQ21BhHoo?authuser=0&hl=tr&rclk=1",
    "website_url": "",
    "rating_text": "3,3",
    "stars": null,
    "number_of_reviews": null,
    "price_level": "",
    "open_hours": "",
    "extraction_timestamp": "2025-06-07T17:22:26.771Z",
    "source_name": "google",
    "source_query": "Irrigation Equipment",
    "source_country": "PL",
    "country": "Poland",
    "state": "Greater Poland Voivodeship",
    "city": "Ostrów Wielkopolski"
  },
  {
    "source_id": "ChIJu6pIMLe3GkcRUiGcgY6SX5g",
    "name": "INWEST-RUR - Hurtownia Wod-Kan, Gaz, C.O., Infrastruktura drogowa",
    "category": "INWEST-RUR - Hurtownia Wod-Kan, Gaz, C.O., Infrastruktura drogowa",
    "formatted_address": "INWEST-RUR - Hurtownia Wod-Kan, Gaz, C.O., Infrastruktura drogowa",
    "phone_number": "+48693385240",
    "source_url": "https://www.google.com/maps/place/INWEST-RUR+-+Hurtownia+Wod-Kan,+Gaz,+C.O.,+Infrastruktura+drogowa/data=!4m7!3m6!1s0x471ab7b73048aabb:0x985f928e819c2152!8m2!3d51.642683!4d17.8712519!16s%2Fg%2F11fs32mzxs!19sChIJu6pIMLe3GkcRUiGcgY6SX5g?authuser=0&hl=tr&rclk=1",
    "website_url": "",
    "rating_text": "4,3",
    "stars": null,
    "number_of_reviews": null,
    "price_level": "",
    "open_hours": "",
    "extraction_timestamp": "2025-06-07T17:22:26.772Z",
    "source_name": "google",
    "source_query": "Irrigation Equipment",
    "source_country": "PL",
    "country": "Poland",
    "state": "Greater Poland Voivodeship",
    "city": "Ostrów Wielkopolski"
  },
  {
    "source_id": "ChIJJeAfcFq0GkcR9cJ4jnAvUTg",
    "name": "Wytwórnia zbiorników Powolny Andrzej",
    "category": "Wytwórnia zbiorników Powolny Andrzej",
    "formatted_address": "3,3(3)",
    "phone_number": "+48627351739",
    "source_url": "https://www.google.com/maps/place/Wytw%C3%B3rnia+zbiornik%C3%B3w+Powolny+Andrzej/data=!4m7!3m6!1s0x471ab45a701fe025:0x38512f708e78c2f5!8m2!3d51.6353283!4d17.7859147!16s%2Fg%2F1tk6z78p!19sChIJJeAfcFq0GkcR9cJ4jnAvUTg?authuser=0&hl=tr&rclk=1",
    "website_url": "",
    "rating_text": "3,3",
    "stars": null,
    "number_of_reviews": null,
    "price_level": "",
    "open_hours": "",
    "extraction_timestamp": "2025-06-07T17:22:26.773Z",
    "source_name": "google",
    "source_query": "Irrigation Equipment",
    "source_country": "PL",
    "country": "Poland",
    "state": "Greater Poland Voivodeship",
    "city": "Ostrów Wielkopolski"
  },
  {
    "source_id": "ChIJ_QHcmgW1GkcRIMnPSbA3y0E",
    "name": "PW HYDRO-GAMA Zenon Wawrzyniak",
    "category": "PW HYDRO-GAMA Zenon Wawrzyniak",
    "formatted_address": "4,6(44)",
    "phone_number": "+48600447274",
    "source_url": "https://www.google.com/maps/place/PW+HYDRO-GAMA+Zenon+Wawrzyniak/data=!4m7!3m6!1s0x471ab5059adc01fd:0x41cb37b049cfc920!8m2!3d51.6351198!4d17.8152202!16s%2Fg%2F1tfkjy3r!19sChIJ_QHcmgW1GkcRIMnPSbA3y0E?authuser=0&hl=tr&rclk=1",
    "website_url": "",
    "rating_text": "4,6",
    "stars": null,
    "number_of_reviews": null,
    "price_level": "",
    "open_hours": "",
    "extraction_timestamp": "2025-06-07T17:22:26.775Z",
    "source_name": "google",
    "source_query": "Irrigation Equipment",
    "source_country": "PL",
    "country": "Poland",
    "state": "Greater Poland Voivodeship",
    "city": "Ostrów Wielkopolski"
  },
  {
    "source_id": "ChIJK2GjZAe3GkcRtYCUwk9ASmE",
    "name": "Grofi - Systemy nawadniania do domu i ogrodu",
    "category": "Grofi - Systemy nawadniania do domu i ogrodu",
    "formatted_address": "4,8(16)",
    "phone_number": "+48575716244",
    "source_url": "https://www.google.com/maps/place/Grofi+-+Systemy+nawadniania+do+domu+i+ogrodu/data=!4m7!3m6!1s0x471ab70764a3612b:0x614a404fc29480b5!8m2!3d51.612066!4d17.8638006!16s%2Fg%2F11y5_4bbdm!19sChIJK2GjZAe3GkcRtYCUwk9ASmE?authuser=0&hl=tr&rclk=1",
    "website_url": "",
    "rating_text": "4,8",
    "stars": null,
    "number_of_reviews": null,
    "price_level": "",
    "open_hours": "",
    "extraction_timestamp": "2025-06-07T17:22:26.776Z",
    "source_name": "google",
    "source_query": "Irrigation Equipment",
    "source_country": "PL",
    "country": "Poland",
    "state": "Greater Poland Voivodeship",
    "city": "Ostrów Wielkopolski"
  },
  {
    "source_id": "ChIJQa1cCKC1GkcRgvq1OQvnyI8",
    "name": "Salon Łazienek i Techniki Grzewczej Armatura Kozłowski Ostrów Wielkopolski (hurtownia instalacyjna, hydrauliczna)",
    "category": "Salon Łazienek i Techniki Grzewczej Armatura Kozłowski Ostrów Wielkopolski (hurtownia instalacyjna, hydrauliczna)",
    "formatted_address": "Salon Łazienek i Techniki Grzewczej Armatura Kozłowski Ostrów Wielkopolski (hurtownia instalacyjna, hydrauliczna)",
    "phone_number": "+48625925810",
    "source_url": "https://www.google.com/maps/place/Salon+%C5%81azienek+i+Techniki+Grzewczej+Armatura+Koz%C5%82owski+Ostr%C3%B3w+Wielkopolski+%28hurtownia+instalacyjna,+hydrauliczna%29/data=!4m7!3m6!1s0x471ab5a0085cad41:0x8fc8e70b39b5fa82!8m2!3d51.6647713!4d17.8001308!16s%2Fg%2F11gzl84wh!19sChIJQa1cCKC1GkcRgvq1OQvnyI8?authuser=0&hl=tr&rclk=1",
    "website_url": "",
    "rating_text": "4,6",
    "stars": null,
    "number_of_reviews": null,
    "price_level": "",
    "open_hours": "",
    "extraction_timestamp": "2025-06-07T17:22:26.777Z",
    "source_name": "google",
    "source_query": "Irrigation Equipment",
    "source_country": "PL",
    "country": "Poland",
    "state": "Greater Poland Voivodeship",
    "city": "Ostrów Wielkopolski"
  },
  {
    "source_id": "ChIJodBz2Ku1GkcRpFFk9S5cnoQ",
    "name": "Producent Armatury LPG — GOK Regler und Armaturen Polska",
    "category": "Producent Armatury LPG — GOK Regler und Armaturen Polska",
    "formatted_address": "5,0(1)",
    "phone_number": "+48627358408",
    "source_url": "https://www.google.com/maps/place/Producent+Armatury+LPG+%E2%80%94+GOK+Regler+und+Armaturen+Polska/data=!4m7!3m6!1s0x471ab5abd873d0a1:0x849e5c2ef56451a4!8m2!3d51.6582233!4d17.7926164!16s%2Fg%2F11rfbk8grh!19sChIJodBz2Ku1GkcRpFFk9S5cnoQ?authuser=0&hl=tr&rclk=1",
    "website_url": "",
    "rating_text": "5,0",
    "stars": null,
    "number_of_reviews": null,
    "price_level": "",
    "open_hours": "",
    "extraction_timestamp": "2025-06-07T17:22:26.778Z",
    "source_name": "google",
    "source_query": "Irrigation Equipment",
    "source_country": "PL",
    "country": "Poland",
    "state": "Greater Poland Voivodeship",
    "city": "Ostrów Wielkopolski"
  },
  {
    "source_id": "ChIJxwDYVbq1GkcRNk1XV-LV8ms",
    "name": "INSAN - wyposażenie łazienek, kabiny prysznicowe, meble łazienkowe, technika grzewcza",
    "category": "INSAN - wyposażenie łazienek, kabiny prysznicowe, meble łazienkowe, technika grzewcza",
    "formatted_address": "INSAN - wyposażenie łazienek, kabiny prysznicowe, meble łazienkowe, technika grzewcza",
    "phone_number": "+48625913366",
    "source_url": "https://www.google.com/maps/place/INSAN+-+wyposa%C5%BCenie+%C5%82azienek,+kabiny+prysznicowe,+meble+%C5%82azienkowe,+technika+grzewcza/data=!4m7!3m6!1s0x471ab5ba55d800c7:0x6bf2d5e257574d36!8m2!3d51.6543305!4d17.8144984!16s%2Fg%2F1thfd5dx!19sChIJxwDYVbq1GkcRNk1XV-LV8ms?authuser=0&hl=tr&rclk=1",
    "website_url": "",
    "rating_text": "4,7",
    "stars": null,
    "number_of_reviews": null,
    "price_level": "",
    "open_hours": "",
    "extraction_timestamp": "2025-06-07T17:22:26.779Z",
    "source_name": "google",
    "source_query": "Irrigation Equipment",
    "source_country": "PL",
    "country": "Poland",
    "state": "Greater Poland Voivodeship",
    "city": "Ostrów Wielkopolski"
  },
  {
    "source_id": "ChIJE2s0vtm1GkcRaC2QAo_DifM",
    "name": "MAXMET - Sklep metalowy, zamocowania, narzędzia",
    "category": "MAXMET - Sklep metalowy, zamocowania, narzędzia",
    "formatted_address": "MAXMET - Sklep metalowy, zamocowania, narzędzia",
    "phone_number": "+48627383365",
    "source_url": "https://www.google.com/maps/place/MAXMET+-+Sklep+metalowy,+zamocowania,+narz%C4%99dzia/data=!4m7!3m6!1s0x471ab5d9be346b13:0xf389c38f02902d68!8m2!3d51.6484578!4d17.8489891!16s%2Fg%2F1tfpnfvr!19sChIJE2s0vtm1GkcRaC2QAo_DifM?authuser=0&hl=tr&rclk=1",
    "website_url": "",
    "rating_text": "4,7",
    "stars": null,
    "number_of_reviews": null,
    "price_level": "",
    "open_hours": "",
    "extraction_timestamp": "2025-06-07T17:22:26.780Z",
    "source_name": "google",
    "source_query": "Irrigation Equipment",
    "source_country": "PL",
    "country": "Poland",
    "state": "Greater Poland Voivodeship",
    "city": "Ostrów Wielkopolski"
  },
  {
    "source_id": "ChIJVSJ38P-0GkcRT0SBTvqUAz0",
    "name": "Eko-Instal. Montaż instalacji cieplnych",
    "category": "Eko-Instal. Montaż instalacji cieplnych",
    "formatted_address": "5,0(7)",
    "phone_number": "+48606792045",
    "source_url": "https://www.google.com/maps/place/Eko-Instal.+Monta%C5%BC+instalacji+cieplnych/data=!4m7!3m6!1s0x471ab4fff0772255:0x3d0394fa4e81444f!8m2!3d51.6447411!4d17.786776!16s%2Fg%2F1hc0zkgfz!19sChIJVSJ38P-0GkcRT0SBTvqUAz0?authuser=0&hl=tr&rclk=1",
    "website_url": "",
    "rating_text": "5,0",
    "stars": null,
    "number_of_reviews": null,
    "price_level": "",
    "open_hours": "",
    "extraction_timestamp": "2025-06-07T17:22:26.781Z",
    "source_name": "google",
    "source_query": "Irrigation Equipment",
    "source_country": "PL",
    "country": "Poland",
    "state": "Greater Poland Voivodeship",
    "city": "Ostrów Wielkopolski"
  },
  {
    "source_id": "ChIJIUYwuUG0GkcRlJd3_nbiW0Y",
    "name": "Zapis-Hardware Sp. z o.o.",
    "category": "Zapis-Hardware Sp. z o.o.",
    "formatted_address": "4,0(2)",
    "phone_number": "+48627387100",
    "source_url": "https://www.google.com/maps/place/Zapis-Hardware+Sp.+z+o.o./data=!4m7!3m6!1s0x471ab441b9304621:0x465be276fe779794!8m2!3d51.6223412!4d17.8008358!16s%2Fg%2F1tfjd8xf!19sChIJIUYwuUG0GkcRlJd3_nbiW0Y?authuser=0&hl=tr&rclk=1",
    "website_url": "",
    "rating_text": "4,0",
    "stars": null,
    "number_of_reviews": null,
    "price_level": "",
    "open_hours": "",
    "extraction_timestamp": "2025-06-07T17:22:26.782Z",
    "source_name": "google",
    "source_query": "Irrigation Equipment",
    "source_country": "PL",
    "country": "Poland",
    "state": "Greater Poland Voivodeship",
    "city": "Ostrów Wielkopolski"
  },
  {
    "source_id": "ChIJt0HXJRC1GkcRzvllIQyfYV0",
    "name": "EL-WIR Przezwajanie wirników silników komutatorowych",
    "category": "EL-WIR Przezwajanie wirników silników komutatorowych",
    "formatted_address": "5,0(27)",
    "phone_number": "+48602635273",
    "source_url": "https://www.google.com/maps/place/EL-WIR+Przezwajanie+wirnik%C3%B3w+silnik%C3%B3w+komutatorowych/data=!4m7!3m6!1s0x471ab51025d741b7:0x5d619f0c2165f9ce!8m2!3d51.659232!4d17.780539!16s%2Fg%2F1pv5_nrjs!19sChIJt0HXJRC1GkcRzvllIQyfYV0?authuser=0&hl=tr&rclk=1",
    "website_url": "",
    "rating_text": "5,0",
    "stars": null,
    "number_of_reviews": null,
    "price_level": "",
    "open_hours": "",
    "extraction_timestamp": "2025-06-07T17:22:26.784Z",
    "source_name": "google",
    "source_query": "Irrigation Equipment",
    "source_country": "PL",
    "country": "Poland",
    "state": "Greater Poland Voivodeship",
    "city": "Ostrów Wielkopolski"
  },
  {
    "source_id": "ChIJZY4VuVW0GkcR_bS2sr998Sg",
    "name": "Automation, Gates, Fences - Profess sp.j.",
    "category": "Automation, Gates, Fences - Profess sp.j.",
    "formatted_address": "Automation, Gates, Fences - Profess sp.j.",
    "phone_number": "+48513134730",
    "source_url": "https://www.google.com/maps/place/Automation,+Gates,+Fences+-+Profess+sp.j./data=!4m7!3m6!1s0x471ab455b9158e65:0x28f17dbfb2b6b4fd!8m2!3d51.6533002!4d17.7854196!16s%2Fg%2F1v76yd57!19sChIJZY4VuVW0GkcR_bS2sr998Sg?authuser=0&hl=tr&rclk=1",
    "website_url": "",
    "rating_text": "4,9",
    "stars": null,
    "number_of_reviews": null,
    "price_level": "",
    "open_hours": "",
    "extraction_timestamp": "2025-06-07T17:22:26.785Z",
    "source_name": "google",
    "source_query": "Irrigation Equipment",
    "source_country": "PL",
    "country": "Poland",
    "state": "Greater Poland Voivodeship",
    "city": "Ostrów Wielkopolski"
  },
  {
    "source_id": "ChIJ41rmyLa1GkcREkakf0OpQN8",
    "name": "Vinationale Sp. z o.o.",
    "category": "Vinationale Sp. z o.o.",
    "formatted_address": "4,9(14)",
    "phone_number": "+48625918403",
    "source_url": "https://www.google.com/maps/place/Vinationale+Sp.+z+o.o./data=!4m7!3m6!1s0x471ab5b6c8e65ae3:0xdf40a9437fa44612!8m2!3d51.6479947!4d17.8150856!16s%2Fg%2F1vh_73sd!19sChIJ41rmyLa1GkcREkakf0OpQN8?authuser=0&hl=tr&rclk=1",
    "website_url": "",
    "rating_text": "4,9",
    "stars": null,
    "number_of_reviews": null,
    "price_level": "",
    "open_hours": "",
    "extraction_timestamp": "2025-06-07T17:22:26.786Z",
    "source_name": "google",
    "source_query": "Irrigation Equipment",
    "source_country": "PL",
    "country": "Poland",
    "state": "Greater Poland Voivodeship",
    "city": "Ostrów Wielkopolski"
  },
  {
    "source_id": "ChIJQ96R5qO1GkcRmNMn-W1CZ9s",
    "name": "MAHLE Behr Ostrów Wlkp. Park Tech Sp. z o.o. Sp.k.",
    "category": "MAHLE Behr Ostrów Wlkp. Park Tech Sp. z o.o. Sp.k.",
    "formatted_address": "4,0(5)",
    "phone_number": "",
    "source_url": "https://www.google.com/maps/place/MAHLE+Behr+Ostr%C3%B3w+Wlkp.+Park+Tech+Sp.+z+o.o.+Sp.k./data=!4m7!3m6!1s0x471ab5a3e691de43:0xdb67426df927d398!8m2!3d51.6594274!4d17.8070297!16s%2Fg%2F11fxb47p6h!19sChIJQ96R5qO1GkcRmNMn-W1CZ9s?authuser=0&hl=tr&rclk=1",
    "website_url": "",
    "rating_text": "4,0",
    "stars": null,
    "number_of_reviews": null,
    "price_level": "",
    "open_hours": "",
    "extraction_timestamp": "2025-06-07T17:22:26.787Z",
    "source_name": "google",
    "source_query": "Irrigation Equipment",
    "source_country": "PL",
    "country": "Poland",
    "state": "Greater Poland Voivodeship",
    "city": "Ostrów Wielkopolski"
  }
]
