[
  {
    "source_id": "ChIJQ1ohPQ8XBEcRWBg-baAh3OU",
    "name": "Hydromar",
    "category": "Hydromar",
    "formatted_address": "4,2(19)",
    "phone_number": "+48612921984",
    "source_url": "https://www.google.com/maps/place/Hydromar/data=!4m7!3m6!1s0x4704170f3d215a43:0xe5dc21a06d3e1858!8m2!3d52.620958!4d16.5665889!16s%2Fg%2F1tp06t6y!19sChIJQ1ohPQ8XBEcRWBg-baAh3OU?authuser=0&hl=tr&rclk=1",
    "website_url": "https://www.hydromar.pl/",
    "rating_text": "4,2",
    "stars": null,
    "number_of_reviews": null,
    "price_level": "",
    "open_hours": "",
    "extraction_timestamp": "2025-06-07T17:25:17.458Z",
    "source_name": "google",
    "source_query": "Irrigation Equipment",
    "source_country": "PL",
    "country": "Poland",
    "state": "Greater Poland Voivodeship",
    "city": "Pamiątkowo"
  },
  {
    "source_id": "ChIJ1eaUq9s_BEcRXee7ZXIxOfE",
    "name": "Kąpielisko Pamiątkowo",
    "category": "Kąpielisko Pamiątkowo",
    "formatted_address": "4,3(787)",
    "phone_number": "",
    "source_url": "https://www.google.com/maps/place/K%C4%85pielisko+Pami%C4%85tkowo/data=!4m7!3m6!1s0x47043fdbab94e6d5:0xf139317265bbe75d!8m2!3d52.545743!4d16.6885591!16s%2Fg%2F11gh4jrm2b!19sChIJ1eaUq9s_BEcRXee7ZXIxOfE?authuser=0&hl=tr&rclk=1",
    "website_url": "https://www.plazujemy.pl/plaza,plaza-narnia-w-pamiatkowie-nad-jeziorem-pamiatkowskim,791",
    "rating_text": "4,3",
    "stars": null,
    "number_of_reviews": null,
    "price_level": "",
    "open_hours": "",
    "extraction_timestamp": "2025-06-07T17:25:17.460Z",
    "source_name": "google",
    "source_query": "Irrigation Equipment",
    "source_country": "PL",
    "country": "Poland",
    "state": "Greater Poland Voivodeship",
    "city": "Pamiątkowo"
  },
  {
    "source_id": "ChIJy27_GE4WBEcR-Ir4DUkTj9w",
    "name": "iPS Manufacturing : produkcja maszyn i podzespołów, cięcie, gięcie, spawanie",
    "category": "iPS Manufacturing : produkcja maszyn i podzespołów, cięcie, gięcie, spawanie",
    "formatted_address": "iPS Manufacturing : produkcja maszyn i podzespołów, cięcie, gięcie, spawanie",
    "phone_number": "+48616397990",
    "source_url": "https://www.google.com/maps/place/iPS+Manufacturing+:+produkcja+maszyn+i+podzespo%C5%82%C3%B3w,+ci%C4%99cie,+gi%C4%99cie,+spawanie/data=!4m7!3m6!1s0x4704164e18ff6ecb:0xdc8f13490df88af8!8m2!3d52.6010398!4d16.581562!16s%2Fg%2F124ympg_q!19sChIJy27_GE4WBEcR-Ir4DUkTj9w?authuser=0&hl=tr&rclk=1",
    "website_url": "http://www.ipsmanufacturing.pl/",
    "rating_text": "4,8",
    "stars": null,
    "number_of_reviews": null,
    "price_level": "",
    "open_hours": "",
    "extraction_timestamp": "2025-06-07T17:25:17.461Z",
    "source_name": "google",
    "source_query": "Irrigation Equipment",
    "source_country": "PL",
    "country": "Poland",
    "state": "Greater Poland Voivodeship",
    "city": "Pamiątkowo"
  },
  {
    "source_id": "ChIJvTcucq1rBEcRc2UTNsqy-fc",
    "name": "\"Sumin\" D.Czabańska, W.Czabański and partners sp.j.",
    "category": "\"Sumin\" D.Czabańska, W.Czabański and partners sp.j.",
    "formatted_address": "\"Sumin\" D.Czabańska, W.Czabański and partners sp.j.",
    "phone_number": "+48612972600",
    "source_url": "https://www.google.com/maps/place/%22Sumin%22+D.Czaba%C5%84ska,+W.Czaba%C5%84ski+and+partners+sp.j./data=!4m7!3m6!1s0x47046bad722e37bd:0xf7f9b2ca36136573!8m2!3d52.5790787!4d16.827008!16s%2Fg%2F1pxw3k6_2!19sChIJvTcucq1rBEcRc2UTNsqy-fc?authuser=0&hl=tr&rclk=1",
    "website_url": "https://www.wtrosceorosliny.pl/",
    "rating_text": "4,5",
    "stars": null,
    "number_of_reviews": null,
    "price_level": "",
    "open_hours": "",
    "extraction_timestamp": "2025-06-07T17:25:17.462Z",
    "source_name": "google",
    "source_query": "Irrigation Equipment",
    "source_country": "PL",
    "country": "Poland",
    "state": "Greater Poland Voivodeship",
    "city": "Pamiątkowo"
  },
  {
    "source_id": "ChIJ4zc6v4hZBEcRKah1mzKBwPg",
    "name": "PHU \"ADVISER\" - Systemy nawadniania",
    "category": "PHU \"ADVISER\" - Systemy nawadniania",
    "formatted_address": "4,8(123)",
    "phone_number": "+48618798700",
    "source_url": "https://www.google.com/maps/place/PHU+%22ADVISER%22+-+Systemy+nawadniania/data=!4m7!3m6!1s0x47045988bf3a37e3:0xf8c081329b75a829!8m2!3d52.3434333!4d17.0287055!16s%2Fg%2F1w3459w5!19sChIJ4zc6v4hZBEcRKah1mzKBwPg?authuser=0&hl=tr&rclk=1",
    "website_url": "http://www.phu-adviser.pl/",
    "rating_text": "4,8",
    "stars": null,
    "number_of_reviews": null,
    "price_level": "",
    "open_hours": "",
    "extraction_timestamp": "2025-06-07T17:25:17.463Z",
    "source_name": "google",
    "source_query": "Irrigation Equipment",
    "source_country": "PL",
    "country": "Poland",
    "state": "Greater Poland Voivodeship",
    "city": "Pamiątkowo"
  },
  {
    "source_id": "ChIJUfn2Ig35A0cREW9fZ4029UM",
    "name": "IMTechnika sp. z o.o.",
    "category": "IMTechnika sp. z o.o.",
    "formatted_address": "4,4(17)",
    "phone_number": "+48883820388",
    "source_url": "https://www.google.com/maps/place/IMTechnika+sp.+z+o.o./data=!4m7!3m6!1s0x4703f90d22f6f951:0x43f5368d675f6f11!8m2!3d52.9756271!4d16.657836!16s%2Fg%2F11bw48_6mg!19sChIJUfn2Ig35A0cREW9fZ4029UM?authuser=0&hl=tr&rclk=1",
    "website_url": "http://imtechnika.pl/",
    "rating_text": "4,4",
    "stars": null,
    "number_of_reviews": null,
    "price_level": "",
    "open_hours": "",
    "extraction_timestamp": "2025-06-07T17:25:17.464Z",
    "source_name": "google",
    "source_query": "Irrigation Equipment",
    "source_country": "PL",
    "country": "Poland",
    "state": "Greater Poland Voivodeship",
    "city": "Pamiątkowo"
  },
  {
    "source_id": "ChIJx04NStw_BEcR9OnSkDbzzKE",
    "name": "Sklep firmowy SAD GŁUCHOWO",
    "category": "Sklep firmowy SAD GŁUCHOWO",
    "formatted_address": "4,5(78)",
    "phone_number": "+48604552662",
    "source_url": "https://www.google.com/maps/place/Sklep+firmowy+SAD+G%C5%81UCHOWO/data=!4m7!3m6!1s0x47043fdc4a0d4ec7:0xa1ccf33690d2e9f4!8m2!3d52.5507645!4d16.6740814!16s%2Fg%2F11ghn6m3h_!19sChIJx04NStw_BEcR9OnSkDbzzKE?authuser=0&hl=tr&rclk=1",
    "website_url": "https://sadzgluchowa.pl/",
    "rating_text": "4,5",
    "stars": null,
    "number_of_reviews": null,
    "price_level": "",
    "open_hours": "",
    "extraction_timestamp": "2025-06-07T17:25:17.467Z",
    "source_name": "google",
    "source_query": "Irrigation Equipment",
    "source_country": "PL",
    "country": "Poland",
    "state": "Greater Poland Voivodeship",
    "city": "Pamiątkowo"
  },
  {
    "source_id": "ChIJLQg_eupdBEcRdiumEXeO1m4",
    "name": "WaterGreen-Systems Sp. z o.o. Systemy Nawadniania - sprzedaż , montaż , serwis.",
    "category": "WaterGreen-Systems Sp. z o.o. Systemy Nawadniania - sprzedaż , montaż , serwis.",
    "formatted_address": "WaterGreen-Systems Sp. z o.o. Systemy Nawadniania - sprzedaż , montaż , serwis.",
    "phone_number": "+48601773701",
    "source_url": "https://www.google.com/maps/place/WaterGreen-Systems+Sp.+z+o.o.+Systemy+Nawadniania+-+sprzeda%C5%BC+,+monta%C5%BC+,+serwis./data=!4m7!3m6!1s0x47045dea7a3f082d:0x6ed68e7711a62b76!8m2!3d52.4443283!4d17.0354739!16s%2Fg%2F11j7k4tmx3!19sChIJLQg_eupdBEcRdiumEXeO1m4?authuser=0&hl=tr&rclk=1",
    "website_url": "http://www.watergreen.pl/",
    "rating_text": "",
    "stars": null,
    "number_of_reviews": null,
    "price_level": "",
    "open_hours": "",
    "extraction_timestamp": "2025-06-07T17:25:17.468Z",
    "source_name": "google",
    "source_query": "Irrigation Equipment",
    "source_country": "PL",
    "country": "Poland",
    "state": "Greater Poland Voivodeship",
    "city": "Pamiątkowo"
  },
  {
    "source_id": "ChIJq2cNKob7ZqAR0oNll3iU-Wo",
    "name": "Ogrody MSG",
    "category": "Ogrody MSG",
    "formatted_address": "5,0(17)",
    "phone_number": "+48574535597",
    "source_url": "https://www.google.com/maps/place/Ogrody+MSG/data=!4m7!3m6!1s0xa066fb862a0d67ab:0x6af99478976583d2!8m2!3d52.5531631!4d16.7006679!16s%2Fg%2F11pyc2xlwl!19sChIJq2cNKob7ZqAR0oNll3iU-Wo?authuser=0&hl=tr&rclk=1",
    "website_url": "https://msg-ogrody.pl/",
    "rating_text": "5,0",
    "stars": null,
    "number_of_reviews": null,
    "price_level": "",
    "open_hours": "",
    "extraction_timestamp": "2025-06-07T17:25:17.470Z",
    "source_name": "google",
    "source_query": "Irrigation Equipment",
    "source_country": "PL",
    "country": "Poland",
    "state": "Greater Poland Voivodeship",
    "city": "Pamiątkowo"
  },
  {
    "source_id": "ChIJg46HWEs_BEcRX_MDKpK_bcE",
    "name": "Sklep Czerwony Borzych",
    "category": "Sklep Czerwony Borzych",
    "formatted_address": "4,3(27)",
    "phone_number": "",
    "source_url": "https://www.google.com/maps/place/Sklep+Czerwony+Borzych/data=!4m7!3m6!1s0x47043f4b58878e83:0xc16dbf922a03f35f!8m2!3d52.5529871!4d16.6794214!16s%2Fg%2F11ghn6kxnl!19sChIJg46HWEs_BEcRX_MDKpK_bcE?authuser=0&hl=tr&rclk=1",
    "website_url": "",
    "rating_text": "4,3",
    "stars": null,
    "number_of_reviews": null,
    "price_level": "",
    "open_hours": "",
    "extraction_timestamp": "2025-06-07T17:25:17.470Z",
    "source_name": "google",
    "source_query": "Irrigation Equipment",
    "source_country": "PL",
    "country": "Poland",
    "state": "Greater Poland Voivodeship",
    "city": "Pamiątkowo"
  },
  {
    "source_id": "ChIJ3bhgrNs_BEcRYLPNA-o_nZI",
    "name": "Beach Bar",
    "category": "Beach Bar",
    "formatted_address": "4,2(189) · zł 20–40",
    "phone_number": "",
    "source_url": "https://www.google.com/maps/place/Beach+Bar/data=!4m7!3m6!1s0x47043fdbac60b8dd:0x929d3fea03cdb360!8m2!3d52.5454544!4d16.6892775!16s%2Fg%2F11g8ng9725!19sChIJ3bhgrNs_BEcRYLPNA-o_nZI?authuser=0&hl=tr&rclk=1",
    "website_url": "",
    "rating_text": "4,2",
    "stars": null,
    "number_of_reviews": null,
    "price_level": "",
    "open_hours": "",
    "extraction_timestamp": "2025-06-07T17:25:17.472Z",
    "source_name": "google",
    "source_query": "Irrigation Equipment",
    "source_country": "PL",
    "country": "Poland",
    "state": "Greater Poland Voivodeship",
    "city": "Pamiątkowo"
  },
  {
    "source_id": "ChIJO6TjXwA_BEcRPVVDBB1gpYo",
    "name": "Biedronka",
    "category": "Biedronka",
    "formatted_address": "4,3(85)",
    "phone_number": "+48800080010",
    "source_url": "https://www.google.com/maps/place/Biedronka/data=!4m7!3m6!1s0x47043f005fe3a43b:0x8aa5601d0443553d!8m2!3d52.5503651!4d16.6722069!16s%2Fg%2F11w1x3wch2!19sChIJO6TjXwA_BEcRPVVDBB1gpYo?authuser=0&hl=tr&rclk=1",
    "website_url": "https://www.biedronka.pl/pl?utm_source=gmb",
    "rating_text": "4,3",
    "stars": null,
    "number_of_reviews": null,
    "price_level": "",
    "open_hours": "",
    "extraction_timestamp": "2025-06-07T17:25:17.473Z",
    "source_name": "google",
    "source_query": "Irrigation Equipment",
    "source_country": "PL",
    "country": "Poland",
    "state": "Greater Poland Voivodeship",
    "city": "Pamiątkowo"
  },
  {
    "source_id": "ChIJtwJc9X0VBEcRrYYN2vPc0FA",
    "name": "Dino",
    "category": "Dino",
    "formatted_address": "4,0(446)",
    "phone_number": "",
    "source_url": "https://www.google.com/maps/place/Dino/data=!4m7!3m6!1s0x4704157df55c02b7:0x50d0dcf3da0d86ad!8m2!3d52.5543643!4d16.6828808!16s%2Fg%2F11c4rz1br2!19sChIJtwJc9X0VBEcRrYYN2vPc0FA?authuser=0&hl=tr&rclk=1",
    "website_url": "https://marketdino.pl/",
    "rating_text": "4,0",
    "stars": null,
    "number_of_reviews": null,
    "price_level": "",
    "open_hours": "",
    "extraction_timestamp": "2025-06-07T17:25:17.473Z",
    "source_name": "google",
    "source_query": "Irrigation Equipment",
    "source_country": "PL",
    "country": "Poland",
    "state": "Greater Poland Voivodeship",
    "city": "Pamiątkowo"
  },
  {
    "source_id": "ChIJffzpBPhCBEcRTpIULusO5jg",
    "name": "Morasko Meteorite Nature Reserve",
    "category": "Morasko Meteorite Nature Reserve",
    "formatted_address": "4,6(1.479)",
    "phone_number": "",
    "source_url": "https://www.google.com/maps/place/Morasko+Meteorite+Nature+Reserve/data=!4m7!3m6!1s0x470442f804e9fc7d:0x38e60eeb2e14924e!8m2!3d52.4900898!4d16.896038!16zL20vMDNidHBf!19sChIJffzpBPhCBEcRTpIULusO5jg?authuser=0&hl=tr&rclk=1",
    "website_url": "",
    "rating_text": "4,6",
    "stars": null,
    "number_of_reviews": null,
    "price_level": "",
    "open_hours": "",
    "extraction_timestamp": "2025-06-07T17:25:17.475Z",
    "source_name": "google",
    "source_query": "Irrigation Equipment",
    "source_country": "PL",
    "country": "Poland",
    "state": "Greater Poland Voivodeship",
    "city": "Pamiątkowo"
  },
  {
    "source_id": "ChIJlw7oDtY_BEcRN9kmjrPPMwo",
    "name": "Lewiatan",
    "category": "Lewiatan",
    "formatted_address": "4,2(14)",
    "phone_number": "",
    "source_url": "https://www.google.com/maps/place/Lewiatan/data=!4m7!3m6!1s0x47043fd60ee80e97:0xa33cfb38e26d937!8m2!3d52.5538358!4d16.6815514!16s%2Fg%2F11nxcrb21v!19sChIJlw7oDtY_BEcRN9kmjrPPMwo?authuser=0&hl=tr&rclk=1",
    "website_url": "http://www.lewiatan.pl/",
    "rating_text": "4,2",
    "stars": null,
    "number_of_reviews": null,
    "price_level": "",
    "open_hours": "",
    "extraction_timestamp": "2025-06-07T17:25:17.476Z",
    "source_name": "google",
    "source_query": "Irrigation Equipment",
    "source_country": "PL",
    "country": "Poland",
    "state": "Greater Poland Voivodeship",
    "city": "Pamiątkowo"
  },
  {
    "source_id": "ChIJB6y_v5J2HEcRlDfYx3xmc9M",
    "name": "Milex irrigation systems",
    "category": "Milex irrigation systems",
    "formatted_address": "4,6(37)",
    "phone_number": "+48242775222",
    "source_url": "https://www.google.com/maps/place/Milex+irrigation+systems/data=!4m7!3m6!1s0x471c7692bfbfac07:0xd373667cc7d83794!8m2!3d52.4690634!4d19.7520904!16s%2Fg%2F1w2yy67r!19sChIJB6y_v5J2HEcRlDfYx3xmc9M?authuser=0&hl=tr&rclk=1",
    "website_url": "https://www.milex.pl/",
    "rating_text": "4,6",
    "stars": null,
    "number_of_reviews": null,
    "price_level": "",
    "open_hours": "",
    "extraction_timestamp": "2025-06-07T17:25:17.477Z",
    "source_name": "google",
    "source_query": "Irrigation Equipment",
    "source_country": "PL",
    "country": "Poland",
    "state": "Greater Poland Voivodeship",
    "city": "Pamiątkowo"
  },
  {
    "source_id": "ChIJHzznAGpDBEcRcXabKWfh1HY",
    "name": "Hydrobud sp.j.",
    "category": "Hydrobud sp.j.",
    "formatted_address": "5,0(1)",
    "phone_number": "+48618216081",
    "source_url": "https://www.google.com/maps/place/Hydrobud+sp.j./data=!4m7!3m6!1s0x4704436a00e73c1f:0x76d4e167299b7671!8m2!3d52.4513146!4d16.9033324!16s%2Fg%2F1tfr8x1q!19sChIJHzznAGpDBEcRcXabKWfh1HY?authuser=0&hl=tr&rclk=1",
    "website_url": "http://www.hydrobud.com.pl/?module=Contact",
    "rating_text": "5,0",
    "stars": null,
    "number_of_reviews": null,
    "price_level": "",
    "open_hours": "",
    "extraction_timestamp": "2025-06-07T17:25:17.478Z",
    "source_name": "google",
    "source_query": "Irrigation Equipment",
    "source_country": "PL",
    "country": "Poland",
    "state": "Greater Poland Voivodeship",
    "city": "Pamiątkowo"
  },
  {
    "source_id": "ChIJHwS1DNY_BEcRoksCP-mB9l8",
    "name": "Apteka Pamiątkowska",
    "category": "Apteka Pamiątkowska",
    "formatted_address": "4,8(30)",
    "phone_number": "+48533352330",
    "source_url": "https://www.google.com/maps/place/Apteka+Pami%C4%85tkowska/data=!4m7!3m6!1s0x47043fd60cb5041f:0x5ff681e93f024ba2!8m2!3d52.5533811!4d16.6814451!16s%2Fg%2F11cmy9s02p!19sChIJHwS1DNY_BEcRoksCP-mB9l8?authuser=0&hl=tr&rclk=1",
    "website_url": "",
    "rating_text": "4,8",
    "stars": null,
    "number_of_reviews": null,
    "price_level": "",
    "open_hours": "",
    "extraction_timestamp": "2025-06-07T17:25:17.479Z",
    "source_name": "google",
    "source_query": "Irrigation Equipment",
    "source_country": "PL",
    "country": "Poland",
    "state": "Greater Poland Voivodeship",
    "city": "Pamiątkowo"
  },
  {
    "source_id": "ChIJJaUKWNl7G0cR7ntWKxioINo",
    "name": "Agricola Hydraulika Siłowa",
    "category": "Agricola Hydraulika Siłowa",
    "formatted_address": "4,6(239)",
    "phone_number": "+48542844000",
    "source_url": "https://www.google.com/maps/place/Agricola+Hydraulika+Si%C5%82owa/data=!4m7!3m6!1s0x471b7bd9580aa525:0xda20a8182b567bee!8m2!3d52.4025839!4d19.1676066!16s%2Fg%2F1tk8mbkz!19sChIJJaUKWNl7G0cR7ntWKxioINo?authuser=0&hl=tr&rclk=1",
    "website_url": "http://www.sklepdlarolnika.pl/",
    "rating_text": "4,6",
    "stars": null,
    "number_of_reviews": null,
    "price_level": "",
    "open_hours": "",
    "extraction_timestamp": "2025-06-07T17:25:17.480Z",
    "source_name": "google",
    "source_query": "Irrigation Equipment",
    "source_country": "PL",
    "country": "Poland",
    "state": "Greater Poland Voivodeship",
    "city": "Pamiątkowo"
  },
  {
    "source_id": "ChIJJX4kdP6oBUcRgBCQ2j4_m7g",
    "name": "INSTAL-FILTER SA Industrial Systems Air Protection",
    "category": "INSTAL-FILTER SA Industrial Systems Air Protection",
    "formatted_address": "3,3(10)",
    "phone_number": "+48655351200",
    "source_url": "https://www.google.com/maps/place/INSTAL-FILTER+SA+Industrial+Systems+Air+Protection/data=!4m7!3m6!1s0x4705a8fe74247e25:0xb89b3f3eda901080!8m2!3d52.0898624!4d16.6636458!16s%2Fg%2F11c52ybp21!19sChIJJX4kdP6oBUcRgBCQ2j4_m7g?authuser=0&hl=tr&rclk=1",
    "website_url": "http://instalfilter.pl/",
    "rating_text": "3,3",
    "stars": null,
    "number_of_reviews": null,
    "price_level": "",
    "open_hours": "",
    "extraction_timestamp": "2025-06-07T17:25:17.481Z",
    "source_name": "google",
    "source_query": "Irrigation Equipment",
    "source_country": "PL",
    "country": "Poland",
    "state": "Greater Poland Voivodeship",
    "city": "Pamiątkowo"
  },
  {
    "source_id": "ChIJ_09_xphGBEcRL_qByUW1z6U",
    "name": "MAKO",
    "category": "MAKO",
    "formatted_address": "4,9(14)",
    "phone_number": "+48618142855",
    "source_url": "https://www.google.com/maps/place/MAKO/data=!4m7!3m6!1s0x47044698c67f4fff:0xa5cfb545c981fa2f!8m2!3d52.4287771!4d16.7817408!16s%2Fg%2F1td_3wqn!19sChIJ_09_xphGBEcRL_qByUW1z6U?authuser=0&hl=tr&rclk=1",
    "website_url": "http://www.nagrzewnice-sklep.pl/",
    "rating_text": "4,9",
    "stars": null,
    "number_of_reviews": null,
    "price_level": "",
    "open_hours": "",
    "extraction_timestamp": "2025-06-07T17:25:17.482Z",
    "source_name": "google",
    "source_query": "Irrigation Equipment",
    "source_country": "PL",
    "country": "Poland",
    "state": "Greater Poland Voivodeship",
    "city": "Pamiątkowo"
  },
  {
    "source_id": "ChIJQYZYU_daBEcRrc4mt6dBBko",
    "name": "HYDROGLOBAL - Przemyślane rozwiązania dla ujęć wody",
    "category": "HYDROGLOBAL - Przemyślane rozwiązania dla ujęć wody",
    "formatted_address": "4,5(8)",
    "phone_number": "+48612785475",
    "source_url": "https://www.google.com/maps/place/HYDROGLOBAL+-+Przemy%C5%9Blane+rozwi%C4%85zania+dla+uj%C4%99%C4%87+wody/data=!4m7!3m6!1s0x47045af753588641:0x4a0641a7b726cead!8m2!3d52.4872791!4d16.8563292!16s%2Fg%2F1wzt11_h!19sChIJQYZYU_daBEcRrc4mt6dBBko?authuser=0&hl=tr&rclk=1",
    "website_url": "http://www.hydroglobal.com/",
    "rating_text": "4,5",
    "stars": null,
    "number_of_reviews": null,
    "price_level": "",
    "open_hours": "",
    "extraction_timestamp": "2025-06-07T17:25:17.482Z",
    "source_name": "google",
    "source_query": "Irrigation Equipment",
    "source_country": "PL",
    "country": "Poland",
    "state": "Greater Poland Voivodeship",
    "city": "Pamiątkowo"
  },
  {
    "source_id": "ChIJc7BYaEQWBEcRKuuWU2nfVuU",
    "name": "ATKO.PL Sklep rolniczo-techniczny Powered by Kramp",
    "category": "ATKO.PL Sklep rolniczo-techniczny Powered by Kramp",
    "formatted_address": "4,6(53)",
    "phone_number": "+48601900526",
    "source_url": "https://www.google.com/maps/place/ATKO.PL+Sklep+rolniczo-techniczny+Powered+by+Kramp/data=!4m7!3m6!1s0x470416446858b073:0xe556df695396eb2a!8m2!3d52.5984665!4d16.5914162!16s%2Fg%2F1tdzpv15!19sChIJc7BYaEQWBEcRKuuWU2nfVuU?authuser=0&hl=tr&rclk=1",
    "website_url": "http://www.atko.pl/",
    "rating_text": "4,6",
    "stars": null,
    "number_of_reviews": null,
    "price_level": "",
    "open_hours": "",
    "extraction_timestamp": "2025-06-07T17:25:17.484Z",
    "source_name": "google",
    "source_query": "Irrigation Equipment",
    "source_country": "PL",
    "country": "Poland",
    "state": "Greater Poland Voivodeship",
    "city": "Pamiątkowo"
  },
  {
    "source_id": "ChIJU3OjlcZsBEcRgZ-_uJA0U-E",
    "name": "SKLEP INSTALACYJNY W MŁYNIE S.C.JAWORSKI SZYMON,JAWORSKA MARTA",
    "category": "SKLEP INSTALACYJNY W MŁYNIE S.C.JAWORSKI SZYMON,JAWORSKA MARTA",
    "formatted_address": "SKLEP INSTALACYJNY W MŁYNIE S.C.JAWORSKI SZYMON,JAWORSKA MARTA",
    "phone_number": "+48501663902",
    "source_url": "https://www.google.com/maps/place/SKLEP+INSTALACYJNY+W+M%C5%81YNIE+S.C.JAWORSKI+SZYMON,JAWORSKA+MARTA/data=!4m7!3m6!1s0x47046cc695a37353:0xe1533490b8bf9f81!8m2!3d52.6375135!4d16.8138133!16s%2Fg%2F11c0xqk8ty!19sChIJU3OjlcZsBEcRgZ-_uJA0U-E?authuser=0&hl=tr&rclk=1",
    "website_url": "",
    "rating_text": "4,8",
    "stars": null,
    "number_of_reviews": null,
    "price_level": "",
    "open_hours": "",
    "extraction_timestamp": "2025-06-07T17:25:17.484Z",
    "source_name": "google",
    "source_query": "Irrigation Equipment",
    "source_country": "PL",
    "country": "Poland",
    "state": "Greater Poland Voivodeship",
    "city": "Pamiątkowo"
  },
  {
    "source_id": "ChIJDxbPJXQ5BEcReGJAdUvxnAU",
    "name": "Tarnowskie Termy",
    "category": "Tarnowskie Termy",
    "formatted_address": "4,6(8.118)",
    "phone_number": "+48616259064",
    "source_url": "https://www.google.com/maps/place/Tarnowskie+Termy/data=!4m7!3m6!1s0x4704397425cf160f:0x59cf14b75406278!8m2!3d52.4645089!4d16.6424856!16s%2Fg%2F11c3nzy2g4!19sChIJDxbPJXQ5BEcReGJAdUvxnAU?authuser=0&hl=tr&rclk=1",
    "website_url": "http://www.tarnowskie-termy.pl/",
    "rating_text": "4,6",
    "stars": null,
    "number_of_reviews": null,
    "price_level": "",
    "open_hours": "",
    "extraction_timestamp": "2025-06-07T17:25:17.487Z",
    "source_name": "google",
    "source_query": "Irrigation Equipment",
    "source_country": "PL",
    "country": "Poland",
    "state": "Greater Poland Voivodeship",
    "city": "Pamiątkowo"
  },
  {
    "source_id": "ChIJLYhEm6xDBEcRyx2zr8tDWH0",
    "name": "Rafamarina Centrum Morsów",
    "category": "Rafamarina Centrum Morsów",
    "formatted_address": "4,7(137)",
    "phone_number": "+48508907032",
    "source_url": "https://www.google.com/maps/place/Rafamarina+Centrum+Mors%C3%B3w/data=!4m7!3m6!1s0x470443ac9b44882d:0x7d5843cbafb31dcb!8m2!3d52.463029!4d16.8258449!16s%2Fg%2F11h2l8fqp8!19sChIJLYhEm6xDBEcRyx2zr8tDWH0?authuser=0&hl=tr&rclk=1",
    "website_url": "",
    "rating_text": "4,7",
    "stars": null,
    "number_of_reviews": null,
    "price_level": "",
    "open_hours": "",
    "extraction_timestamp": "2025-06-07T17:25:17.488Z",
    "source_name": "google",
    "source_query": "Irrigation Equipment",
    "source_country": "PL",
    "country": "Poland",
    "state": "Greater Poland Voivodeship",
    "city": "Pamiątkowo"
  },
  {
    "source_id": "ChIJQaAR7D37BEcRBa5PF0ULYcE",
    "name": "TEST Łukasz i Grzegorz Kiełbowicz sp. j",
    "category": "TEST Łukasz i Grzegorz Kiełbowicz sp. j",
    "formatted_address": "4,9(75)",
    "phone_number": "+48508635200",
    "source_url": "https://www.google.com/maps/place/TEST+%C5%81ukasz+i+Grzegorz+Kie%C5%82bowicz+sp.+j/data=!4m7!3m6!1s0x4704fb3dec11a041:0xc1610b45174fae05!8m2!3d52.5658269!4d17.6143399!16s%2Fg%2F1twyy791!19sChIJQaAR7D37BEcRBa5PF0ULYcE?authuser=0&hl=tr&rclk=1",
    "website_url": "https://testinstalacje.pl/",
    "rating_text": "4,9",
    "stars": null,
    "number_of_reviews": null,
    "price_level": "",
    "open_hours": "",
    "extraction_timestamp": "2025-06-07T17:25:17.502Z",
    "source_name": "google",
    "source_query": "Irrigation Equipment",
    "source_country": "PL",
    "country": "Poland",
    "state": "Greater Poland Voivodeship",
    "city": "Pamiątkowo"
  },
  {
    "source_id": "ChIJKdaoI1tABEcRgKmAyOjvW9k",
    "name": "PHU BASECO",
    "category": "PHU BASECO",
    "formatted_address": "5,0(22)",
    "phone_number": "+48501554711",
    "source_url": "https://www.google.com/maps/place/PHU+BASECO/data=!4m7!3m6!1s0x4704405b23a8d629:0xd95befe8c880a980!8m2!3d52.5100943!4d16.755976!16s%2Fg%2F11c6dlgbh8!19sChIJKdaoI1tABEcRgKmAyOjvW9k?authuser=0&hl=tr&rclk=1",
    "website_url": "http://www.baseco-instalacje.pl/",
    "rating_text": "5,0",
    "stars": null,
    "number_of_reviews": null,
    "price_level": "",
    "open_hours": "",
    "extraction_timestamp": "2025-06-07T17:25:17.502Z",
    "source_name": "google",
    "source_query": "Irrigation Equipment",
    "source_country": "PL",
    "country": "Poland",
    "state": "Greater Poland Voivodeship",
    "city": "Pamiątkowo"
  },
  {
    "source_id": "ChIJu_3LjPlBBEcR6zlKFM3iWro",
    "name": "Sklep z wyposażeniem do basenów Basendom",
    "category": "Sklep z wyposażeniem do basenów Basendom",
    "formatted_address": "4,8(68)",
    "phone_number": "+48669990788",
    "source_url": "https://www.google.com/maps/place/Sklep+z+wyposa%C5%BCeniem+do+basen%C3%B3w+Basendom/data=!4m7!3m6!1s0x470441f98ccbfdbb:0xba5ae2cd144a39eb!8m2!3d52.5061739!4d16.7271847!16s%2Fg%2F11h61ldyk0!19sChIJu_3LjPlBBEcR6zlKFM3iWro?authuser=0&hl=tr&rclk=1",
    "website_url": "https://basendom.pl/",
    "rating_text": "4,8",
    "stars": null,
    "number_of_reviews": null,
    "price_level": "",
    "open_hours": "",
    "extraction_timestamp": "2025-06-07T17:25:17.503Z",
    "source_name": "google",
    "source_query": "Irrigation Equipment",
    "source_country": "PL",
    "country": "Poland",
    "state": "Greater Poland Voivodeship",
    "city": "Pamiątkowo"
  },
  {
    "source_id": "ChIJAduKWlhQBEcR_lic4Yg76mk",
    "name": "Agropomoc",
    "category": "Agropomoc",
    "formatted_address": "4,4(58)",
    "phone_number": "+48512236754",
    "source_url": "https://www.google.com/maps/place/Agropomoc/data=!4m7!3m6!1s0x470450585a8adb01:0x69ea3b88e19c58fe!8m2!3d52.4615211!4d16.6768669!16s%2Fg%2F11bv38f0mj!19sChIJAduKWlhQBEcR_lic4Yg76mk?authuser=0&hl=tr&rclk=1",
    "website_url": "https://www.agropomoc.pl/",
    "rating_text": "4,4",
    "stars": null,
    "number_of_reviews": null,
    "price_level": "",
    "open_hours": "",
    "extraction_timestamp": "2025-06-07T17:25:17.504Z",
    "source_name": "google",
    "source_query": "Irrigation Equipment",
    "source_country": "PL",
    "country": "Poland",
    "state": "Greater Poland Voivodeship",
    "city": "Pamiątkowo"
  },
  {
    "source_id": "ChIJudci_QJQBEcRlVnpAtMYNlk",
    "name": "Garden Center Straczkowscy",
    "category": "Garden Center Straczkowscy",
    "formatted_address": "4,4(308)",
    "phone_number": "",
    "source_url": "https://www.google.com/maps/place/Garden+Center+Straczkowscy/data=!4m7!3m6!1s0x47045002fd22d7b9:0x593618d302e95995!8m2!3d52.342706!4d16.871955!16s%2Fg%2F1v8y2r64!19sChIJudci_QJQBEcRlVnpAtMYNlk?authuser=0&hl=tr&rclk=1",
    "website_url": "http://www.straczkowscy.pl/",
    "rating_text": "4,4",
    "stars": null,
    "number_of_reviews": null,
    "price_level": "",
    "open_hours": "",
    "extraction_timestamp": "2025-06-07T17:25:17.505Z",
    "source_name": "google",
    "source_query": "Irrigation Equipment",
    "source_country": "PL",
    "country": "Poland",
    "state": "Greater Poland Voivodeship",
    "city": "Pamiątkowo"
  },
  {
    "source_id": "ChIJA0aoFFVaBEcRUDG0cZBTfKA",
    "name": "PROFITANK",
    "category": "PROFITANK",
    "formatted_address": "5,0(3)",
    "phone_number": "+48793003330",
    "source_url": "https://www.google.com/maps/place/PROFITANK/data=!4m7!3m6!1s0x47045a5514a84603:0xa07c539071b43150!8m2!3d52.3672361!4d16.9806108!16s%2Fg%2F11hyxnkjjg!19sChIJA0aoFFVaBEcRUDG0cZBTfKA?authuser=0&hl=tr&rclk=1",
    "website_url": "https://profitank.pl/kontakt/",
    "rating_text": "5,0",
    "stars": null,
    "number_of_reviews": null,
    "price_level": "",
    "open_hours": "",
    "extraction_timestamp": "2025-06-07T17:25:17.506Z",
    "source_name": "google",
    "source_query": "Irrigation Equipment",
    "source_country": "PL",
    "country": "Poland",
    "state": "Greater Poland Voivodeship",
    "city": "Pamiątkowo"
  },
  {
    "source_id": "ChIJF0FzqaehBEcRWgD6MXB_CBA",
    "name": "SM-AGRO Powered by Kramp",
    "category": "SM-AGRO Powered by Kramp",
    "formatted_address": "4,8(44)",
    "phone_number": "+48523152254",
    "source_url": "https://www.google.com/maps/place/SM-AGRO+Powered+by+Kramp/data=!4m7!3m6!1s0x4704a1a7a9734117:0x10087f7031fa005a!8m2!3d52.6612299!4d17.9327416!16s%2Fg%2F1vrq8bnz!19sChIJF0FzqaehBEcRWgD6MXB_CBA?authuser=0&hl=tr&rclk=1",
    "website_url": "http://www.grene.pl/",
    "rating_text": "4,8",
    "stars": null,
    "number_of_reviews": null,
    "price_level": "",
    "open_hours": "",
    "extraction_timestamp": "2025-06-07T17:25:17.507Z",
    "source_name": "google",
    "source_query": "Irrigation Equipment",
    "source_country": "PL",
    "country": "Poland",
    "state": "Greater Poland Voivodeship",
    "city": "Pamiątkowo"
  }
]
