[
  {
    "source_id": "ChIJNdzfHE1aBEcRdVxSGCgEKgw",
    "name": "Zakład Produkcji Urządzeń Sanitarnych i Elektrycznych PPRI-Żegrze Sp. z o.o.",
    "category": "Zakład Produkcji Urządzeń Sanitarnych i Elektrycznych PPRI-Żegrze Sp. z o.o.",
    "formatted_address": "3,8(5)",
    "phone_number": "",
    "source_url": "https://www.google.com/maps/place/Zak%C5%82ad+Produkcji+Urz%C4%85dze%C5%84+Sanitarnych+i+Elektrycznych+PPRI-%C5%BBegrze+Sp.+z+o.o./data=!4m7!3m6!1s0x47045a4d1cdfdc35:0xc2a042818525c75!8m2!3d52.3761531!4d16.9747344!16s%2Fg%2F1vzqqz3_!19sChIJNdzfHE1aBEcRdVxSGCgEKgw?authuser=0&hl=tr&rclk=1",
    "website_url": "https://www.zbiornikicisnieniowe.pl/",
    "rating_text": "3,8",
    "stars": null,
    "number_of_reviews": null,
    "price_level": "",
    "open_hours": "",
    "extraction_timestamp": "2025-06-07T17:59:38.295Z",
    "source_name": "google",
    "source_query": "Irrigation Equipment",
    "source_country": "PL",
    "country": "Poland",
    "state": "Greater Poland Voivodeship",
    "city": "Pecna"
  },
  {
    "source_id": "ChIJUa4p0sVbBEcRe4BWo02o8f8",
    "name": "Prowitech Instalacje Sanitarne i Grzewcze. Klimatyzacja. Pompy ciepła.",
    "category": "Prowitech Instalacje Sanitarne i Grzewcze. Klimatyzacja. Pompy ciepła.",
    "formatted_address": "5,0(5)",
    "phone_number": "+48606223575",
    "source_url": "https://www.google.com/maps/place/Prowitech+Instalacje+Sanitarne+i+Grzewcze.+Klimatyzacja.+Pompy+ciep%C5%82a./data=!4m7!3m6!1s0x47045bc5d229ae51:0xfff1a84da356807b!8m2!3d52.3892603!4d17.0043897!16s%2Fg%2F1tdmt9_s!19sChIJUa4p0sVbBEcRe4BWo02o8f8?authuser=0&hl=tr&rclk=1",
    "website_url": "http://www.prowitech.com.pl/",
    "rating_text": "5,0",
    "stars": null,
    "number_of_reviews": null,
    "price_level": "",
    "open_hours": "",
    "extraction_timestamp": "2025-06-07T17:59:38.295Z",
    "source_name": "google",
    "source_query": "Irrigation Equipment",
    "source_country": "PL",
    "country": "Poland",
    "state": "Greater Poland Voivodeship",
    "city": "Pecna"
  },
  {
    "source_id": "ChIJi56vM2tbBEcRrYnmZzUWQ6s",
    "name": "Sklep Instalacyjny hydrauliczny Poznań – Doradca Energetyczny – pompy ciepła – kotły gazowe Poznań",
    "category": "Sklep Instalacyjny hydrauliczny Poznań – Doradca Energetyczny – pompy ciepła – kotły gazowe Poznań",
    "formatted_address": "5,0(25)",
    "phone_number": "+48509786200",
    "source_url": "https://www.google.com/maps/place/Sklep+Instalacyjny+hydrauliczny+Pozna%C5%84+%E2%80%93+Doradca+Energetyczny+%E2%80%93+pompy+ciep%C5%82a+%E2%80%93+kot%C5%82y+gazowe+Pozna%C5%84/data=!4m7!3m6!1s0x47045b6b33af9e8b:0xab43163567e689ad!8m2!3d52.3830683!4d16.9201901!16s%2Fg%2F11tdf74spl!19sChIJi56vM2tbBEcRrYnmZzUWQ6s?authuser=0&hl=tr&rclk=1",
    "website_url": "https://sklep-instalacyjny-hydrauliczny.localo.site/?utm_source=google_profile&utm_campaign=localo&utm_medium=mainlink",
    "rating_text": "5,0",
    "stars": null,
    "number_of_reviews": null,
    "price_level": "",
    "open_hours": "",
    "extraction_timestamp": "2025-06-07T17:59:38.296Z",
    "source_name": "google",
    "source_query": "Irrigation Equipment",
    "source_country": "PL",
    "country": "Poland",
    "state": "Greater Poland Voivodeship",
    "city": "Pecna"
  },
  {
    "source_id": "ChIJk8AJy2etBUcR0m5n3Mq8Ok4",
    "name": "Hurtownia Motoryzacyjna Moto-Car sp. z o.o. Odział Pecna ul. Główna 35",
    "category": "Hurtownia Motoryzacyjna Moto-Car sp. z o.o. Odział Pecna ul. Główna 35",
    "formatted_address": "4,9(36)",
    "phone_number": "+48535025643",
    "source_url": "https://www.google.com/maps/place/Hurtownia+Motoryzacyjna+Moto-Car+sp.+z+o.o.+Odzia%C5%82+Pecna+ul.+G%C5%82%C3%B3wna+35/data=!4m7!3m6!1s0x4705ad67cb09c093:0x4e3abccadc676ed2!8m2!3d52.1807723!4d16.7985517!16s%2Fg%2F11n6sg78yg!19sChIJk8AJy2etBUcR0m5n3Mq8Ok4?authuser=0&hl=tr&rclk=1",
    "website_url": "http://www.moto-car.net/",
    "rating_text": "4,9",
    "stars": null,
    "number_of_reviews": null,
    "price_level": "",
    "open_hours": "",
    "extraction_timestamp": "2025-06-07T17:59:38.296Z",
    "source_name": "google",
    "source_query": "Irrigation Equipment",
    "source_country": "PL",
    "country": "Poland",
    "state": "Greater Poland Voivodeship",
    "city": "Pecna"
  },
  {
    "source_id": "ChIJX3SgFpOtBUcROSuY_6xiKTc",
    "name": "Dino",
    "category": "Dino",
    "formatted_address": "4,0(95)",
    "phone_number": "",
    "source_url": "https://www.google.com/maps/place/Dino/data=!4m7!3m6!1s0x4705ad9316a0745f:0x372962acff982b39!8m2!3d52.1814355!4d16.8013529!16s%2Fg%2F11j8j0p16x!19sChIJX3SgFpOtBUcROSuY_6xiKTc?authuser=0&hl=tr&rclk=1",
    "website_url": "https://marketdino.pl/",
    "rating_text": "4,0",
    "stars": null,
    "number_of_reviews": null,
    "price_level": "",
    "open_hours": "",
    "extraction_timestamp": "2025-06-07T17:59:38.296Z",
    "source_name": "google",
    "source_query": "Irrigation Equipment",
    "source_country": "PL",
    "country": "Poland",
    "state": "Greater Poland Voivodeship",
    "city": "Pecna"
  },
  {
    "source_id": "ChIJpSwiBCetBUcRcV7W5Rg1ZzY",
    "name": "Sklep Julka",
    "category": "Sklep Julka",
    "formatted_address": "5,0(1)",
    "phone_number": "+48792024009",
    "source_url": "https://www.google.com/maps/place/Sklep+Julka/data=!4m7!3m6!1s0x4705ad2704222ca5:0x36673518e5d65e71!8m2!3d52.1823774!4d16.8006097!16s%2Fg%2F11vyg1v848!19sChIJpSwiBCetBUcRcV7W5Rg1ZzY?authuser=0&hl=tr&rclk=1",
    "website_url": "https://www.facebook.com/profile.php?id=61554806803349",
    "rating_text": "5,0",
    "stars": null,
    "number_of_reviews": null,
    "price_level": "",
    "open_hours": "",
    "extraction_timestamp": "2025-06-07T17:59:38.297Z",
    "source_name": "google",
    "source_query": "Irrigation Equipment",
    "source_country": "PL",
    "country": "Poland",
    "state": "Greater Poland Voivodeship",
    "city": "Pecna"
  },
  {
    "source_id": "ChIJB6y_v5J2HEcRlDfYx3xmc9M",
    "name": "Milex irrigation systems",
    "category": "Milex irrigation systems",
    "formatted_address": "4,6(37)",
    "phone_number": "+48242775222",
    "source_url": "https://www.google.com/maps/place/Milex+irrigation+systems/data=!4m7!3m6!1s0x471c7692bfbfac07:0xd373667cc7d83794!8m2!3d52.4690634!4d19.7520904!16s%2Fg%2F1w2yy67r!19sChIJB6y_v5J2HEcRlDfYx3xmc9M?authuser=0&hl=tr&rclk=1",
    "website_url": "https://www.milex.pl/",
    "rating_text": "4,6",
    "stars": null,
    "number_of_reviews": null,
    "price_level": "",
    "open_hours": "",
    "extraction_timestamp": "2025-06-07T17:59:38.297Z",
    "source_name": "google",
    "source_query": "Irrigation Equipment",
    "source_country": "PL",
    "country": "Poland",
    "state": "Greater Poland Voivodeship",
    "city": "Pecna"
  },
  {
    "source_id": "ChIJ6TigCPtbBEcRDr5Mlbvqz0s",
    "name": "REXEL",
    "category": "REXEL",
    "formatted_address": "3,2(11)",
    "phone_number": "+48618768946",
    "source_url": "https://www.google.com/maps/place/REXEL/data=!4m7!3m6!1s0x47045bfb08a038e9:0x4bcfeabb954cbe0e!8m2!3d52.4074751!4d17.0285672!16s%2Fg%2F1th0lll2!19sChIJ6TigCPtbBEcRDr5Mlbvqz0s?authuser=0&hl=tr&rclk=1",
    "website_url": "http://www.rexel.com.pl/",
    "rating_text": "3,2",
    "stars": null,
    "number_of_reviews": null,
    "price_level": "",
    "open_hours": "",
    "extraction_timestamp": "2025-06-07T17:59:38.297Z",
    "source_name": "google",
    "source_query": "Irrigation Equipment",
    "source_country": "PL",
    "country": "Poland",
    "state": "Greater Poland Voivodeship",
    "city": "Pecna"
  },
  {
    "source_id": "ChIJA6JYetBEBEcRSesm_bQs_GE",
    "name": "Tractorpool - Farm Machinery, Agricultural equipment.",
    "category": "Tractorpool - Farm Machinery, Agricultural equipment.",
    "formatted_address": "Tractorpool - Farm Machinery, Agricultural equipment.",
    "phone_number": "+48618862914",
    "source_url": "https://www.google.com/maps/place/Tractorpool+-+Farm+Machinery,+Agricultural+equipment./data=!4m7!3m6!1s0x470444d07a58a203:0x61fc2cb4fd26eb49!8m2!3d52.381122!4d16.886331!16s%2Fg%2F1hm2sj2sl!19sChIJA6JYetBEBEcRSesm_bQs_GE?authuser=0&hl=tr&rclk=1",
    "website_url": "http://www.traktorpool.pl/",
    "rating_text": "3,0",
    "stars": null,
    "number_of_reviews": null,
    "price_level": "",
    "open_hours": "",
    "extraction_timestamp": "2025-06-07T17:59:38.298Z",
    "source_name": "google",
    "source_query": "Irrigation Equipment",
    "source_country": "PL",
    "country": "Poland",
    "state": "Greater Poland Voivodeship",
    "city": "Pecna"
  },
  {
    "source_id": "ChIJi8nORy54DCgRpnrgm4KBOQM",
    "name": "Water-Plast - Geomembrana PEHD, Folia PEHD / Zbiorniki / Uszczelnianie, izolacja",
    "category": "Water-Plast - Geomembrana PEHD, Folia PEHD / Zbiorniki / Uszczelnianie, izolacja",
    "formatted_address": "Water-Plast - Geomembrana PEHD, Folia PEHD / Zbiorniki / Uszczelnianie, izolacja",
    "phone_number": "+48696805103",
    "source_url": "https://www.google.com/maps/place/Water-Plast+-+Geomembrana+PEHD,+Folia+PEHD+%2F+Zbiorniki+%2F+Uszczelnianie,+izolacja/data=!4m7!3m6!1s0x280c782e47cec98b:0x33981829be07aa6!8m2!3d51.3163154!4d18.5852543!16s%2Fg%2F11js9j9wjh!19sChIJi8nORy54DCgRpnrgm4KBOQM?authuser=0&hl=tr&rclk=1",
    "website_url": "https://water-plast.pl/",
    "rating_text": "5,0",
    "stars": null,
    "number_of_reviews": null,
    "price_level": "",
    "open_hours": "",
    "extraction_timestamp": "2025-06-07T17:59:38.298Z",
    "source_name": "google",
    "source_query": "Irrigation Equipment",
    "source_country": "PL",
    "country": "Poland",
    "state": "Greater Poland Voivodeship",
    "city": "Pecna"
  },
  {
    "source_id": "ChIJUfn2Ig35A0cREW9fZ4029UM",
    "name": "IMTechnika sp. z o.o.",
    "category": "IMTechnika sp. z o.o.",
    "formatted_address": "4,4(17)",
    "phone_number": "+48883820388",
    "source_url": "https://www.google.com/maps/place/IMTechnika+sp.+z+o.o./data=!4m7!3m6!1s0x4703f90d22f6f951:0x43f5368d675f6f11!8m2!3d52.9756271!4d16.657836!16s%2Fg%2F11bw48_6mg!19sChIJUfn2Ig35A0cREW9fZ4029UM?authuser=0&hl=tr&rclk=1",
    "website_url": "http://imtechnika.pl/",
    "rating_text": "4,4",
    "stars": null,
    "number_of_reviews": null,
    "price_level": "",
    "open_hours": "",
    "extraction_timestamp": "2025-06-07T17:59:38.298Z",
    "source_name": "google",
    "source_query": "Irrigation Equipment",
    "source_country": "PL",
    "country": "Poland",
    "state": "Greater Poland Voivodeship",
    "city": "Pecna"
  },
  {
    "source_id": "ChIJffzpBPhCBEcRTpIULusO5jg",
    "name": "Morasko Meteorite Nature Reserve",
    "category": "Morasko Meteorite Nature Reserve",
    "formatted_address": "4,6(1.479)",
    "phone_number": "",
    "source_url": "https://www.google.com/maps/place/Morasko+Meteorite+Nature+Reserve/data=!4m7!3m6!1s0x470442f804e9fc7d:0x38e60eeb2e14924e!8m2!3d52.4900898!4d16.896038!16zL20vMDNidHBf!19sChIJffzpBPhCBEcRTpIULusO5jg?authuser=0&hl=tr&rclk=1",
    "website_url": "",
    "rating_text": "4,6",
    "stars": null,
    "number_of_reviews": null,
    "price_level": "",
    "open_hours": "",
    "extraction_timestamp": "2025-06-07T17:59:38.299Z",
    "source_name": "google",
    "source_query": "Irrigation Equipment",
    "source_country": "PL",
    "country": "Poland",
    "state": "Greater Poland Voivodeship",
    "city": "Pecna"
  },
  {
    "source_id": "ChIJjRYG_thfBEcRoWQ16dbYoHA",
    "name": "REXEL Oddział Paczkowo",
    "category": "REXEL Oddział Paczkowo",
    "formatted_address": "5,0(1)",
    "phone_number": "+48618768946",
    "source_url": "https://www.google.com/maps/place/REXEL+Oddzia%C5%82+Paczkowo/data=!4m7!3m6!1s0x47045fd8fe06168d:0x70a0d8d6e93564a1!8m2!3d52.3990374!4d17.149788!16s%2Fg%2F11gy7xwr5d!19sChIJjRYG_thfBEcRoWQ16dbYoHA?authuser=0&hl=tr&rclk=1",
    "website_url": "http://www.rexelpoland.com/",
    "rating_text": "5,0",
    "stars": null,
    "number_of_reviews": null,
    "price_level": "",
    "open_hours": "",
    "extraction_timestamp": "2025-06-07T17:59:38.299Z",
    "source_name": "google",
    "source_query": "Irrigation Equipment",
    "source_country": "PL",
    "country": "Poland",
    "state": "Greater Poland Voivodeship",
    "city": "Pecna"
  },
  {
    "source_id": "ChIJ5Rv3_u5bBEcRZQVWUSORUAE",
    "name": "REXEL BIS",
    "category": "REXEL BIS",
    "formatted_address": "4,8(63)",
    "phone_number": "+48618768306",
    "source_url": "https://www.google.com/maps/place/REXEL+BIS/data=!4m7!3m6!1s0x47045beefef71be5:0x150912351560565!8m2!3d52.403989!4d17.0168137!16s%2Fg%2F1tfphhxg!19sChIJ5Rv3_u5bBEcRZQVWUSORUAE?authuser=0&hl=tr&rclk=1",
    "website_url": "http://www.rexel.com.pl/",
    "rating_text": "4,8",
    "stars": null,
    "number_of_reviews": null,
    "price_level": "",
    "open_hours": "",
    "extraction_timestamp": "2025-06-07T17:59:38.300Z",
    "source_name": "google",
    "source_query": "Irrigation Equipment",
    "source_country": "PL",
    "country": "Poland",
    "state": "Greater Poland Voivodeship",
    "city": "Pecna"
  },
  {
    "source_id": "ChIJIe4bW6D7BEcRBcS-f2m6Gkg",
    "name": "Milltec Poznań Sp. z o.o.",
    "category": "Milltec Poznań Sp. z o.o.",
    "formatted_address": "4,4(8)",
    "phone_number": "+48616793258",
    "source_url": "https://www.google.com/maps/place/Milltec+Pozna%C5%84+Sp.+z+o.o./data=!4m7!3m6!1s0x4704fba05b1bee21:0x481aba697fbec405!8m2!3d52.2299421!4d17.250985!16s%2Fg%2F11bxc7k32t!19sChIJIe4bW6D7BEcRBcS-f2m6Gkg?authuser=0&hl=tr&rclk=1",
    "website_url": "http://www.milltec-poznan.com/",
    "rating_text": "4,4",
    "stars": null,
    "number_of_reviews": null,
    "price_level": "",
    "open_hours": "",
    "extraction_timestamp": "2025-06-07T17:59:38.300Z",
    "source_name": "google",
    "source_query": "Irrigation Equipment",
    "source_country": "PL",
    "country": "Poland",
    "state": "Greater Poland Voivodeship",
    "city": "Pecna"
  },
  {
    "source_id": "ChIJOcWoToO26GMReNvhll3JWj4",
    "name": "Hydreen.pl | Automatyczne systemy nawadniające. Projektowanie, dostawa, montaż, serwis.",
    "category": "Hydreen.pl | Automatyczne systemy nawadniające. Projektowanie, dostawa, montaż, serwis.",
    "formatted_address": "Hydreen.pl | Automatyczne systemy nawadniające. Projektowanie, dostawa, montaż, serwis.",
    "phone_number": "+48694429669",
    "source_url": "https://www.google.com/maps/place/Hydreen.pl+%7C+Automatyczne+systemy+nawadniaj%C4%85ce.+Projektowanie,+dostawa,+monta%C5%BC,+serwis./data=!4m7!3m6!1s0x63e8b6834ea8c539:0x3e5ac95d96e1db78!8m2!3d54.1601!4d19.4437316!16s%2Fg%2F11m67mc1_m!19sChIJOcWoToO26GMReNvhll3JWj4?authuser=0&hl=tr&rclk=1",
    "website_url": "https://www.hydreen.pl/",
    "rating_text": "5,0",
    "stars": null,
    "number_of_reviews": null,
    "price_level": "",
    "open_hours": "",
    "extraction_timestamp": "2025-06-07T17:59:38.300Z",
    "source_name": "google",
    "source_query": "Irrigation Equipment",
    "source_country": "PL",
    "country": "Poland",
    "state": "Greater Poland Voivodeship",
    "city": "Pecna"
  },
  {
    "source_id": "ChIJVTV3W_PzBEcR6gY0xwQi2_E",
    "name": "Deszczownie.com",
    "category": "Deszczownie.com",
    "formatted_address": "",
    "phone_number": "+48726000030",
    "source_url": "https://www.google.com/maps/place/Deszczownie.com/data=!4m7!3m6!1s0x4704f3f35b773555:0xf1db2204c73406ea!8m2!3d52.3623948!4d17.4021087!16s%2Fg%2F11y3pv4rxr!19sChIJVTV3W_PzBEcR6gY0xwQi2_E?authuser=0&hl=tr&rclk=1",
    "website_url": "https://www.deszczownie.com/",
    "rating_text": "",
    "stars": null,
    "number_of_reviews": null,
    "price_level": "",
    "open_hours": "",
    "extraction_timestamp": "2025-06-07T17:59:38.300Z",
    "source_name": "google",
    "source_query": "Irrigation Equipment",
    "source_country": "PL",
    "country": "Poland",
    "state": "Greater Poland Voivodeship",
    "city": "Pecna"
  },
  {
    "source_id": "ChIJ76WAmPBgGUcRnx47bXjXTwU",
    "name": "Agrofim Poland Sp. z o.o.",
    "category": "Agrofim Poland Sp. z o.o.",
    "formatted_address": "3,8(6)",
    "phone_number": "+48468332266",
    "source_url": "https://www.google.com/maps/place/Agrofim+Poland+Sp.+z+o.o./data=!4m7!3m6!1s0x471960f09880a5ef:0x54fd7786d3b1e9f!8m2!3d51.9616303!4d20.1543898!16s%2Fg%2F1tdnjw7b!19sChIJ76WAmPBgGUcRnx47bXjXTwU?authuser=0&hl=tr&rclk=1",
    "website_url": "http://agrofim.pl/",
    "rating_text": "3,8",
    "stars": null,
    "number_of_reviews": null,
    "price_level": "",
    "open_hours": "",
    "extraction_timestamp": "2025-06-07T17:59:38.301Z",
    "source_name": "google",
    "source_query": "Irrigation Equipment",
    "source_country": "PL",
    "country": "Poland",
    "state": "Greater Poland Voivodeship",
    "city": "Pecna"
  }
]
