[
  {
    "source_id": "ChIJ0w3S6VJfBEcR50M-X7eu08U",
    "name": "Gardeno - Systemy nawadniające, Instalacje wodne",
    "category": "Gardeno - Systemy nawadniające, Instalacje wodne",
    "formatted_address": "Gardeno - Systemy nawadniające, Instalacje wodne",
    "phone_number": "+48723001136",
    "source_url": "https://www.google.com/maps/place/Gardeno+-+Systemy+nawadniaj%C4%85ce,+Instalacje+wodne/data=!4m7!3m6!1s0x47045f52e9d20dd3:0xc5d3aeb75f3e43e7!8m2!3d52.3990662!4d17.1512635!16s%2Fg%2F1tdd8j_b!19sChIJ0w3S6VJfBEcR50M-X7eu08U?authuser=0&hl=tr&rclk=1",
    "website_url": "",
    "rating_text": "5,0",
    "stars": null,
    "number_of_reviews": null,
    "price_level": "",
    "open_hours": "",
    "extraction_timestamp": "2025-06-07T17:35:13.991Z",
    "source_name": "google",
    "source_query": "Irrigation Equipment",
    "source_country": "PL",
    "country": "Poland",
    "state": "Greater Poland Voivodeship",
    "city": "Piaski"
  },
  {
    "source_id": "ChIJxX-J0zAMBUcRi1CsoNctuJg",
    "name": "HYDRO-INSTAL Armatura sanitarna, wyposażenie łazienek, technika grzewcza",
    "category": "HYDRO-INSTAL Armatura sanitarna, wyposażenie łazienek, technika grzewcza",
    "formatted_address": "HYDRO-INSTAL Armatura sanitarna, wyposażenie łazienek, technika grzewcza",
    "phone_number": "",
    "source_url": "https://www.google.com/maps/place/HYDRO-INSTAL+Armatura+sanitarna,+wyposa%C5%BCenie+%C5%82azienek,+technika+grzewcza/data=!4m7!3m6!1s0x47050c30d3897fc5:0x98b82dd7a0ac508b!8m2!3d51.8841787!4d17.0711948!16s%2Fg%2F1tmgb40c!19sChIJxX-J0zAMBUcRi1CsoNctuJg?authuser=0&hl=tr&rclk=1",
    "website_url": "",
    "rating_text": "4,8",
    "stars": null,
    "number_of_reviews": null,
    "price_level": "",
    "open_hours": "",
    "extraction_timestamp": "2025-06-07T17:35:13.991Z",
    "source_name": "google",
    "source_query": "Irrigation Equipment",
    "source_country": "PL",
    "country": "Poland",
    "state": "Greater Poland Voivodeship",
    "city": "Piaski"
  },
  {
    "source_id": "ChIJq3ZuChspzY0RlAcbMNY5mRg",
    "name": "PODLEWAMY24.pl",
    "category": "PODLEWAMY24.pl",
    "formatted_address": "5,0(43)",
    "phone_number": "+48509215271",
    "source_url": "https://www.google.com/maps/place/PODLEWAMY24.pl/data=!4m7!3m6!1s0x8dcd291b0a6e76ab:0x189939d6301b0794!8m2!3d52.2778206!4d16.9790131!16s%2Fg%2F11rhfnnqkx!19sChIJq3ZuChspzY0RlAcbMNY5mRg?authuser=0&hl=tr&rclk=1",
    "website_url": "",
    "rating_text": "5,0",
    "stars": null,
    "number_of_reviews": null,
    "price_level": "",
    "open_hours": "",
    "extraction_timestamp": "2025-06-07T17:35:13.992Z",
    "source_name": "google",
    "source_query": "Irrigation Equipment",
    "source_country": "PL",
    "country": "Poland",
    "state": "Greater Poland Voivodeship",
    "city": "Piaski"
  },
  {
    "source_id": "ChIJ1-EUTLgNBUcR8Ah2zv2Uqm8",
    "name": "Ekoenergetyka Piotr Małecki - energia odnawialna i fotowoltaika",
    "category": "Ekoenergetyka Piotr Małecki - energia odnawialna i fotowoltaika",
    "formatted_address": "4,4(7)",
    "phone_number": "+48695025000",
    "source_url": "https://www.google.com/maps/place/Ekoenergetyka+Piotr+Ma%C5%82ecki+-+energia+odnawialna+i+fotowoltaika/data=!4m7!3m6!1s0x47050db84c14e1d7:0x6faa94fdce7608f0!8m2!3d51.88397!4d17.079858!16s%2Fg%2F11kgrqqndl!19sChIJ1-EUTLgNBUcR8Ah2zv2Uqm8?authuser=0&hl=tr&rclk=1",
    "website_url": "",
    "rating_text": "4,4",
    "stars": null,
    "number_of_reviews": null,
    "price_level": "",
    "open_hours": "",
    "extraction_timestamp": "2025-06-07T17:35:13.993Z",
    "source_name": "google",
    "source_query": "Irrigation Equipment",
    "source_country": "PL",
    "country": "Poland",
    "state": "Greater Poland Voivodeship",
    "city": "Piaski"
  },
  {
    "source_id": "ChIJ6ZwxDIlBBEcRQdkgYydfEhg",
    "name": "BZW Bruk Zieleń Woda - Dominik Rzepczyński",
    "category": "BZW Bruk Zieleń Woda - Dominik Rzepczyński",
    "formatted_address": "5,0(2)",
    "phone_number": "+48880670990",
    "source_url": "https://www.google.com/maps/place/BZW+Bruk+Ziele%C5%84+Woda+-+Dominik+Rzepczy%C5%84ski/data=!4m7!3m6!1s0x470441890c319ce9:0x18125f276320d941!8m2!3d52.5119822!4d16.7499267!16s%2Fg%2F11mcx3nslq!19sChIJ6ZwxDIlBBEcRQdkgYydfEhg?authuser=0&hl=tr&rclk=1",
    "website_url": "",
    "rating_text": "5,0",
    "stars": null,
    "number_of_reviews": null,
    "price_level": "",
    "open_hours": "",
    "extraction_timestamp": "2025-06-07T17:35:13.994Z",
    "source_name": "google",
    "source_query": "Irrigation Equipment",
    "source_country": "PL",
    "country": "Poland",
    "state": "Greater Poland Voivodeship",
    "city": "Piaski"
  },
  {
    "source_id": "ChIJxY8ZL1XtBEcR8OOmh8hwkd0",
    "name": "MAGMAR MURAWY |Pielęgnacja muraw| Pielęgnacja boisk| Budowa boisk",
    "category": "MAGMAR MURAWY |Pielęgnacja muraw| Pielęgnacja boisk| Budowa boisk",
    "formatted_address": "5,0(33)",
    "phone_number": "+48696065016",
    "source_url": "https://www.google.com/maps/place/MAGMAR+MURAWY+%7CPiel%C4%99gnacja+muraw%7C+Piel%C4%99gnacja+boisk%7C+Budowa+boisk/data=!4m7!3m6!1s0x4704ed552f198fc5:0xdd9170c887a6e3f0!8m2!3d52.4291858!4d17.4828694!16s%2Fg%2F11lm4pnqrb!19sChIJxY8ZL1XtBEcR8OOmh8hwkd0?authuser=0&hl=tr&rclk=1",
    "website_url": "",
    "rating_text": "5,0",
    "stars": null,
    "number_of_reviews": null,
    "price_level": "",
    "open_hours": "",
    "extraction_timestamp": "2025-06-07T17:35:13.995Z",
    "source_name": "google",
    "source_query": "Irrigation Equipment",
    "source_country": "PL",
    "country": "Poland",
    "state": "Greater Poland Voivodeship",
    "city": "Piaski"
  },
  {
    "source_id": "ChIJx9dLaaM-BEcR0BMvflVq1Po",
    "name": "GRASSLAND FARMS",
    "category": "GRASSLAND FARMS",
    "formatted_address": "4,4(103)",
    "phone_number": "+48602382601",
    "source_url": "https://www.google.com/maps/place/GRASSLAND+FARMS/data=!4m7!3m6!1s0x47043ea3694bd7c7:0xfad46a557e2f13d0!8m2!3d52.5034131!4d16.5908032!16s%2Fg%2F1tlczwnb!19sChIJx9dLaaM-BEcR0BMvflVq1Po?authuser=0&hl=tr&rclk=1",
    "website_url": "",
    "rating_text": "4,4",
    "stars": null,
    "number_of_reviews": null,
    "price_level": "",
    "open_hours": "",
    "extraction_timestamp": "2025-06-07T17:35:13.996Z",
    "source_name": "google",
    "source_query": "Irrigation Equipment",
    "source_country": "PL",
    "country": "Poland",
    "state": "Greater Poland Voivodeship",
    "city": "Piaski"
  },
  {
    "source_id": "ChIJE3Lz3bFXBEcRBgoAqS1zROk",
    "name": "Firma Handlowa \"Kram\" s.c. Iwona Krawczyk, Roman Krawczyk",
    "category": "Firma Handlowa \"Kram\" s.c. Iwona Krawczyk, Roman Krawczyk",
    "formatted_address": "Firma Handlowa \"Kram\" s.c. Iwona Krawczyk, Roman Krawczyk",
    "phone_number": "+48618171242",
    "source_url": "https://www.google.com/maps/place/Firma+Handlowa+%22Kram%22+s.c.+Iwona+Krawczyk,+Roman+Krawczyk/data=!4m7!3m6!1s0x470457b1ddf37213:0xe944732da9000a06!8m2!3d52.288937!4d17.046897!16s%2Fg%2F1tcw29hw!19sChIJE3Lz3bFXBEcRBgoAqS1zROk?authuser=0&hl=tr&rclk=1",
    "website_url": "",
    "rating_text": "4,6",
    "stars": null,
    "number_of_reviews": null,
    "price_level": "",
    "open_hours": "",
    "extraction_timestamp": "2025-06-07T17:35:13.997Z",
    "source_name": "google",
    "source_query": "Irrigation Equipment",
    "source_country": "PL",
    "country": "Poland",
    "state": "Greater Poland Voivodeship",
    "city": "Piaski"
  },
  {
    "source_id": "ChIJUfn2Ig35A0cREW9fZ4029UM",
    "name": "IMTechnika sp. z o.o.",
    "category": "IMTechnika sp. z o.o.",
    "formatted_address": "4,4(17)",
    "phone_number": "+48883820388",
    "source_url": "https://www.google.com/maps/place/IMTechnika+sp.+z+o.o./data=!4m7!3m6!1s0x4703f90d22f6f951:0x43f5368d675f6f11!8m2!3d52.9756271!4d16.657836!16s%2Fg%2F11bw48_6mg!19sChIJUfn2Ig35A0cREW9fZ4029UM?authuser=0&hl=tr&rclk=1",
    "website_url": "",
    "rating_text": "4,4",
    "stars": null,
    "number_of_reviews": null,
    "price_level": "",
    "open_hours": "",
    "extraction_timestamp": "2025-06-07T17:35:13.998Z",
    "source_name": "google",
    "source_query": "Irrigation Equipment",
    "source_country": "PL",
    "country": "Poland",
    "state": "Greater Poland Voivodeship",
    "city": "Piaski"
  },
  {
    "source_id": "ChIJQYZYU_daBEcRrc4mt6dBBko",
    "name": "HYDROGLOBAL - Przemyślane rozwiązania dla ujęć wody",
    "category": "HYDROGLOBAL - Przemyślane rozwiązania dla ujęć wody",
    "formatted_address": "4,5(8)",
    "phone_number": "+48612785475",
    "source_url": "https://www.google.com/maps/place/HYDROGLOBAL+-+Przemy%C5%9Blane+rozwi%C4%85zania+dla+uj%C4%99%C4%87+wody/data=!4m7!3m6!1s0x47045af753588641:0x4a0641a7b726cead!8m2!3d52.4872791!4d16.8563292!16s%2Fg%2F1wzt11_h!19sChIJQYZYU_daBEcRrc4mt6dBBko?authuser=0&hl=tr&rclk=1",
    "website_url": "",
    "rating_text": "4,5",
    "stars": null,
    "number_of_reviews": null,
    "price_level": "",
    "open_hours": "",
    "extraction_timestamp": "2025-06-07T17:35:13.999Z",
    "source_name": "google",
    "source_query": "Irrigation Equipment",
    "source_country": "PL",
    "country": "Poland",
    "state": "Greater Poland Voivodeship",
    "city": "Piaski"
  },
  {
    "source_id": "ChIJvW-8e0INBUcR0xSwVBqimsg",
    "name": "Kubiktech-usługi hydrauliczne Jakub Sura Ogrzewanie Podłogowe Pogotowie Hydrauliczne Instalacje Sanitarne Hydraulik",
    "category": "Kubiktech-usługi hydrauliczne Jakub Sura Ogrzewanie Podłogowe Pogotowie Hydrauliczne Instalacje Sanitarne Hydraulik",
    "formatted_address": "5,0(4)",
    "phone_number": "+48727935375",
    "source_url": "https://www.google.com/maps/place/Kubiktech-us%C5%82ugi+hydrauliczne+Jakub+Sura+Ogrzewanie+Pod%C5%82ogowe+Pogotowie+Hydrauliczne+Instalacje+Sanitarne+Hydraulik/data=!4m7!3m6!1s0x47050d427bbc6fbd:0xc89aa21a54b014d3!8m2!3d51.8837291!4d17.0788374!16s%2Fg%2F11w7hbsq95!19sChIJvW-8e0INBUcR0xSwVBqimsg?authuser=0&hl=tr&rclk=1",
    "website_url": "",
    "rating_text": "5,0",
    "stars": null,
    "number_of_reviews": null,
    "price_level": "",
    "open_hours": "",
    "extraction_timestamp": "2025-06-07T17:35:14.000Z",
    "source_name": "google",
    "source_query": "Irrigation Equipment",
    "source_country": "PL",
    "country": "Poland",
    "state": "Greater Poland Voivodeship",
    "city": "Piaski"
  },
  {
    "source_id": "ChIJH0tpQaD7BEcRYQQ-PETrOIQ",
    "name": "ASW TECHNIK",
    "category": "ASW TECHNIK",
    "formatted_address": "4,8(46)",
    "phone_number": "+48577887997",
    "source_url": "https://www.google.com/maps/place/ASW+TECHNIK/data=!4m7!3m6!1s0x4704fba041694b1f:0x8438eb443c3e0461!8m2!3d52.2275708!4d17.2607921!16s%2Fg%2F11h_sld0sr!19sChIJH0tpQaD7BEcRYQQ-PETrOIQ?authuser=0&hl=tr&rclk=1",
    "website_url": "",
    "rating_text": "4,8",
    "stars": null,
    "number_of_reviews": null,
    "price_level": "",
    "open_hours": "",
    "extraction_timestamp": "2025-06-07T17:35:14.001Z",
    "source_name": "google",
    "source_query": "Irrigation Equipment",
    "source_country": "PL",
    "country": "Poland",
    "state": "Greater Poland Voivodeship",
    "city": "Piaski"
  },
  {
    "source_id": "ChIJZTUkncv7BEcRsv-FuPvJd0E",
    "name": "TEST INSTALACJE – Hurtownia instalacyjna Środa Wielkopolska",
    "category": "TEST INSTALACJE – Hurtownia instalacyjna Środa Wielkopolska",
    "formatted_address": "4,1(20)",
    "phone_number": "+48612856282",
    "source_url": "https://www.google.com/maps/place/TEST+INSTALACJE+%E2%80%93+Hurtownia+instalacyjna+%C5%9Aroda+Wielkopolska/data=!4m7!3m6!1s0x4704fbcb9d243565:0x4177c9fbb885ffb2!8m2!3d52.2386542!4d17.2761103!16s%2Fg%2F11n0p8cszw!19sChIJZTUkncv7BEcRsv-FuPvJd0E?authuser=0&hl=tr&rclk=1",
    "website_url": "",
    "rating_text": "4,1",
    "stars": null,
    "number_of_reviews": null,
    "price_level": "",
    "open_hours": "",
    "extraction_timestamp": "2025-06-07T17:35:14.002Z",
    "source_name": "google",
    "source_query": "Irrigation Equipment",
    "source_country": "PL",
    "country": "Poland",
    "state": "Greater Poland Voivodeship",
    "city": "Piaski"
  },
  {
    "source_id": "ChIJA0aoFFVaBEcRUDG0cZBTfKA",
    "name": "PROFITANK",
    "category": "PROFITANK",
    "formatted_address": "5,0(3)",
    "phone_number": "+48793003330",
    "source_url": "https://www.google.com/maps/place/PROFITANK/data=!4m7!3m6!1s0x47045a5514a84603:0xa07c539071b43150!8m2!3d52.3672361!4d16.9806108!16s%2Fg%2F11hyxnkjjg!19sChIJA0aoFFVaBEcRUDG0cZBTfKA?authuser=0&hl=tr&rclk=1",
    "website_url": "",
    "rating_text": "5,0",
    "stars": null,
    "number_of_reviews": null,
    "price_level": "",
    "open_hours": "",
    "extraction_timestamp": "2025-06-07T17:35:14.003Z",
    "source_name": "google",
    "source_query": "Irrigation Equipment",
    "source_country": "PL",
    "country": "Poland",
    "state": "Greater Poland Voivodeship",
    "city": "Piaski"
  },
  {
    "source_id": "ChIJY9wCcAlXBEcRvKXvN3Wjnqw",
    "name": "SUCHA POSADZKA - Osuszanie budynków | Wynajem osuszaczy",
    "category": "SUCHA POSADZKA - Osuszanie budynków | Wynajem osuszaczy",
    "formatted_address": "5,0(70)",
    "phone_number": "+48534326870",
    "source_url": "https://www.google.com/maps/place/SUCHA+POSADZKA+-+Osuszanie+budynk%C3%B3w+%7C+Wynajem+osuszaczy/data=!4m7!3m6!1s0x470457097002dc63:0xac9ea37537efa5bc!8m2!3d52.2552332!4d17.0639886!16s%2Fg%2F11r6vhn4l1!19sChIJY9wCcAlXBEcRvKXvN3Wjnqw?authuser=0&hl=tr&rclk=1",
    "website_url": "",
    "rating_text": "5,0",
    "stars": null,
    "number_of_reviews": null,
    "price_level": "",
    "open_hours": "",
    "extraction_timestamp": "2025-06-07T17:35:14.004Z",
    "source_name": "google",
    "source_query": "Irrigation Equipment",
    "source_country": "PL",
    "country": "Poland",
    "state": "Greater Poland Voivodeship",
    "city": "Piaski"
  },
  {
    "source_id": "ChIJg0ozgPxqBUcR9zMr9Gh0vr4",
    "name": "Eko Instal Maciej Bzdęga",
    "category": "Eko Instal Maciej Bzdęga",
    "formatted_address": "4,7(14)",
    "phone_number": "+48609792860",
    "source_url": "https://www.google.com/maps/place/Eko+Instal+Maciej+Bzd%C4%99ga/data=!4m7!3m6!1s0x47056afc80334a83:0xbebe7468f42b33f7!8m2!3d51.7421359!4d17.210835!16s%2Fg%2F11f5h889w8!19sChIJg0ozgPxqBUcR9zMr9Gh0vr4?authuser=0&hl=tr&rclk=1",
    "website_url": "",
    "rating_text": "4,7",
    "stars": null,
    "number_of_reviews": null,
    "price_level": "",
    "open_hours": "",
    "extraction_timestamp": "2025-06-07T17:35:14.005Z",
    "source_name": "google",
    "source_query": "Irrigation Equipment",
    "source_country": "PL",
    "country": "Poland",
    "state": "Greater Poland Voivodeship",
    "city": "Piaski"
  },
  {
    "source_id": "ChIJnXNAiX11BUcRUXzbVBlsjFg",
    "name": "Aqua-Kan Instal Jacek Jakubiak",
    "category": "Aqua-Kan Instal Jacek Jakubiak",
    "formatted_address": "5,0(3)",
    "phone_number": "+48884614837",
    "source_url": "https://www.google.com/maps/place/Aqua-Kan+Instal+Jacek+Jakubiak/data=!4m7!3m6!1s0x4705757d8940739d:0x588c6c1954db7c51!8m2!3d51.78463!4d16.8546549!16s%2Fg%2F11gv00f4vf!19sChIJnXNAiX11BUcRUXzbVBlsjFg?authuser=0&hl=tr&rclk=1",
    "website_url": "",
    "rating_text": "5,0",
    "stars": null,
    "number_of_reviews": null,
    "price_level": "",
    "open_hours": "",
    "extraction_timestamp": "2025-06-07T17:35:14.006Z",
    "source_name": "google",
    "source_query": "Irrigation Equipment",
    "source_country": "PL",
    "country": "Poland",
    "state": "Greater Poland Voivodeship",
    "city": "Piaski"
  },
  {
    "source_id": "ChIJHTxQj6ZZBEcRFcFpQwGhP9c",
    "name": "Hydrobud A",
    "category": "Hydrobud A",
    "formatted_address": "5,0(1)",
    "phone_number": "+48502121245",
    "source_url": "https://www.google.com/maps/place/Hydrobud+A/data=!4m7!3m6!1s0x470459a68f503c1d:0xd73fa1014369c115!8m2!3d52.3750156!4d17.0698329!16s%2Fg%2F11wvjndft6!19sChIJHTxQj6ZZBEcRFcFpQwGhP9c?authuser=0&hl=tr&rclk=1",
    "website_url": "",
    "rating_text": "5,0",
    "stars": null,
    "number_of_reviews": null,
    "price_level": "",
    "open_hours": "",
    "extraction_timestamp": "2025-06-07T17:35:14.006Z",
    "source_name": "google",
    "source_query": "Irrigation Equipment",
    "source_country": "PL",
    "country": "Poland",
    "state": "Greater Poland Voivodeship",
    "city": "Piaski"
  },
  {
    "source_id": "ChIJP_RaJRVdBUcRJnNEonWqi1o",
    "name": "ECOLAND Waldemar Skotarek- Nawadnianie ogrodów",
    "category": "ECOLAND Waldemar Skotarek- Nawadnianie ogrodów",
    "formatted_address": "5,0(4)",
    "phone_number": "+48797895783",
    "source_url": "https://www.google.com/maps/place/ECOLAND+Waldemar+Skotarek-+Nawadnianie+ogrod%C3%B3w/data=!4m7!3m6!1s0x47055d15255af43f:0x5a8baa75a2447326!8m2!3d51.5516189!4d17.1677255!16s%2Fg%2F11p_5trb_c!19sChIJP_RaJRVdBUcRJnNEonWqi1o?authuser=0&hl=tr&rclk=1",
    "website_url": "",
    "rating_text": "5,0",
    "stars": null,
    "number_of_reviews": null,
    "price_level": "",
    "open_hours": "",
    "extraction_timestamp": "2025-06-07T17:35:14.007Z",
    "source_name": "google",
    "source_query": "Irrigation Equipment",
    "source_country": "PL",
    "country": "Poland",
    "state": "Greater Poland Voivodeship",
    "city": "Piaski"
  },
  {
    "source_id": "ChIJQaAR7D37BEcRBa5PF0ULYcE",
    "name": "TEST Łukasz i Grzegorz Kiełbowicz sp. j",
    "category": "TEST Łukasz i Grzegorz Kiełbowicz sp. j",
    "formatted_address": "4,9(75)",
    "phone_number": "+48508635200",
    "source_url": "https://www.google.com/maps/place/TEST+%C5%81ukasz+i+Grzegorz+Kie%C5%82bowicz+sp.+j/data=!4m7!3m6!1s0x4704fb3dec11a041:0xc1610b45174fae05!8m2!3d52.5658269!4d17.6143399!16s%2Fg%2F1twyy791!19sChIJQaAR7D37BEcRBa5PF0ULYcE?authuser=0&hl=tr&rclk=1",
    "website_url": "",
    "rating_text": "4,9",
    "stars": null,
    "number_of_reviews": null,
    "price_level": "",
    "open_hours": "",
    "extraction_timestamp": "2025-06-07T17:35:14.008Z",
    "source_name": "google",
    "source_query": "Irrigation Equipment",
    "source_country": "PL",
    "country": "Poland",
    "state": "Greater Poland Voivodeship",
    "city": "Piaski"
  },
  {
    "source_id": "ChIJUQow7dhEBEcROIEBsyxOuHE",
    "name": "Domowa Uprawa",
    "category": "Domowa Uprawa",
    "formatted_address": "4,4(63)",
    "phone_number": "+48788516592",
    "source_url": "https://www.google.com/maps/place/Domowa+Uprawa/data=!4m7!3m6!1s0x470444d8ed300a51:0x71b84e2cb3018138!8m2!3d52.3955619!4d16.8794529!16s%2Fg%2F12hk1kgtr!19sChIJUQow7dhEBEcROIEBsyxOuHE?authuser=0&hl=tr&rclk=1",
    "website_url": "",
    "rating_text": "4,4",
    "stars": null,
    "number_of_reviews": null,
    "price_level": "",
    "open_hours": "",
    "extraction_timestamp": "2025-06-07T17:35:14.009Z",
    "source_name": "google",
    "source_query": "Irrigation Equipment",
    "source_country": "PL",
    "country": "Poland",
    "state": "Greater Poland Voivodeship",
    "city": "Piaski"
  },
  {
    "source_id": "ChIJPWhf8NlQBEcRKh2Uub6l53Q",
    "name": "ProGarden Wojkiewicz Nawadnianie Automatyczne Trawniki z rolki Zakładanie ogrodów",
    "category": "ProGarden Wojkiewicz Nawadnianie Automatyczne Trawniki z rolki Zakładanie ogrodów",
    "formatted_address": "5,0(8)",
    "phone_number": "+48668802131",
    "source_url": "https://www.google.com/maps/place/ProGarden+Wojkiewicz+Nawadnianie+Automatyczne+Trawniki+z+rolki+Zak%C5%82adanie+ogrod%C3%B3w/data=!4m7!3m6!1s0x470450d9f05f683d:0x74e7a5beb9941d2a!8m2!3d52.3005159!4d16.954684!16s%2Fg%2F11hbvs81x8!19sChIJPWhf8NlQBEcRKh2Uub6l53Q?authuser=0&hl=tr&rclk=1",
    "website_url": "",
    "rating_text": "5,0",
    "stars": null,
    "number_of_reviews": null,
    "price_level": "",
    "open_hours": "",
    "extraction_timestamp": "2025-06-07T17:35:14.010Z",
    "source_name": "google",
    "source_query": "Irrigation Equipment",
    "source_country": "PL",
    "country": "Poland",
    "state": "Greater Poland Voivodeship",
    "city": "Piaski"
  },
  {
    "source_id": "ChIJudci_QJQBEcRlVnpAtMYNlk",
    "name": "Garden Center Straczkowscy",
    "category": "Garden Center Straczkowscy",
    "formatted_address": "4,4(308)",
    "phone_number": "",
    "source_url": "https://www.google.com/maps/place/Garden+Center+Straczkowscy/data=!4m7!3m6!1s0x47045002fd22d7b9:0x593618d302e95995!8m2!3d52.342706!4d16.871955!16s%2Fg%2F1v8y2r64!19sChIJudci_QJQBEcRlVnpAtMYNlk?authuser=0&hl=tr&rclk=1",
    "website_url": "",
    "rating_text": "4,4",
    "stars": null,
    "number_of_reviews": null,
    "price_level": "",
    "open_hours": "",
    "extraction_timestamp": "2025-06-07T17:35:14.028Z",
    "source_name": "google",
    "source_query": "Irrigation Equipment",
    "source_country": "PL",
    "country": "Poland",
    "state": "Greater Poland Voivodeship",
    "city": "Piaski"
  },
  {
    "source_id": "ChIJtU73JtX5BEcRHTZkQLf7ZVQ",
    "name": "Staleo Energy",
    "category": "Staleo Energy",
    "formatted_address": "5,0(22)",
    "phone_number": "+48515657131",
    "source_url": "https://www.google.com/maps/place/Staleo+Energy/data=!4m7!3m6!1s0x4704f9d526f74eb5:0x5465fbb74064361d!8m2!3d52.253855!4d17.084981!16s%2Fg%2F11w58rktrz!19sChIJtU73JtX5BEcRHTZkQLf7ZVQ?authuser=0&hl=tr&rclk=1",
    "website_url": "",
    "rating_text": "5,0",
    "stars": null,
    "number_of_reviews": null,
    "price_level": "",
    "open_hours": "",
    "extraction_timestamp": "2025-06-07T17:35:14.029Z",
    "source_name": "google",
    "source_query": "Irrigation Equipment",
    "source_country": "PL",
    "country": "Poland",
    "state": "Greater Poland Voivodeship",
    "city": "Piaski"
  },
  {
    "source_id": "ChIJS74Y7nL9BEcRATf6fAXnzHo",
    "name": "ROLKA - trawniki i nawadniania - Trawa z rolki Poznań",
    "category": "ROLKA - trawniki i nawadniania - Trawa z rolki Poznań",
    "formatted_address": "4,8(25)",
    "phone_number": "+48730311000",
    "source_url": "https://www.google.com/maps/place/ROLKA+-+trawniki+i+nawadniania+-+Trawa+z+rolki+Pozna%C5%84/data=!4m7!3m6!1s0x4704fd72ee18be4b:0x7acce7057cfa3701!8m2!3d52.2468105!4d17.4843038!16s%2Fg%2F11xs837pl!19sChIJS74Y7nL9BEcRATf6fAXnzHo?authuser=0&hl=tr&rclk=1",
    "website_url": "",
    "rating_text": "4,8",
    "stars": null,
    "number_of_reviews": null,
    "price_level": "",
    "open_hours": "",
    "extraction_timestamp": "2025-06-07T17:35:14.030Z",
    "source_name": "google",
    "source_query": "Irrigation Equipment",
    "source_country": "PL",
    "country": "Poland",
    "state": "Greater Poland Voivodeship",
    "city": "Piaski"
  }
]
