[
  {
    "source_id": "ChIJMTCIW0bkA0cRtsWwvPjKzI4",
    "name": "PILGAZ",
    "category": "PILGAZ",
    "formatted_address": "4,4(80)",
    "phone_number": "+48672130414",
    "source_url": "https://www.google.com/maps/place/PILGAZ/data=!4m7!3m6!1s0x4703e4465b883031:0x8ecccaf8bcb0c5b6!8m2!3d53.136153!4d16.7514041!16s%2Fg%2F1tjcn4cy!19sChIJMTCIW0bkA0cRtsWwvPjKzI4?authuser=0&hl=tr&rclk=1",
    "website_url": "",
    "rating_text": "4,4",
    "stars": null,
    "number_of_reviews": null,
    "price_level": "",
    "open_hours": "",
    "extraction_timestamp": "2025-06-07T17:59:19.436Z",
    "source_name": "google",
    "source_query": "Irrigation Equipment",
    "source_country": "PL",
    "country": "Poland",
    "state": "Greater Poland Voivodeship",
    "city": "Piła"
  },
  {
    "source_id": "ChIJwzR9IIlWAUcR89v32VPJF-4",
    "name": "SPAWALNICTWO Bartosz Kiszczak (dawniej HARPOL)",
    "category": "SPAWALNICTWO Bartosz Kiszczak (dawniej HARPOL)",
    "formatted_address": "5,0(31)",
    "phone_number": "+48696449443",
    "source_url": "https://www.google.com/maps/place/SPAWALNICTWO+Bartosz+Kiszczak+%28dawniej+HARPOL%29/data=!4m7!3m6!1s0x47015689207d34c3:0xee17c953d9f7dbf3!8m2!3d53.139451!4d16.7503496!16s%2Fg%2F11ggdth09s!19sChIJwzR9IIlWAUcR89v32VPJF-4?authuser=0&hl=tr&rclk=1",
    "website_url": "",
    "rating_text": "5,0",
    "stars": null,
    "number_of_reviews": null,
    "price_level": "",
    "open_hours": "",
    "extraction_timestamp": "2025-06-07T17:59:19.438Z",
    "source_name": "google",
    "source_query": "Irrigation Equipment",
    "source_country": "PL",
    "country": "Poland",
    "state": "Greater Poland Voivodeship",
    "city": "Piła"
  },
  {
    "source_id": "ChIJjSkyVVrlA0cR4LxRq4X4-_o",
    "name": "ASTA ENERGY SYSTEMS Sp. z o.o.",
    "category": "ASTA ENERGY SYSTEMS Sp. z o.o.",
    "formatted_address": "4,9(229)",
    "phone_number": "+48508018845",
    "source_url": "https://www.google.com/maps/place/ASTA+ENERGY+SYSTEMS+Sp.+z+o.o./data=!4m7!3m6!1s0x4703e55a5532298d:0xfafbf885ab51bce0!8m2!3d53.1147071!4d16.772922!16s%2Fg%2F11q8wxwgp7!19sChIJjSkyVVrlA0cR4LxRq4X4-_o?authuser=0&hl=tr&rclk=1",
    "website_url": "",
    "rating_text": "4,9",
    "stars": null,
    "number_of_reviews": null,
    "price_level": "",
    "open_hours": "",
    "extraction_timestamp": "2025-06-07T17:59:19.439Z",
    "source_name": "google",
    "source_query": "Irrigation Equipment",
    "source_country": "PL",
    "country": "Poland",
    "state": "Greater Poland Voivodeship",
    "city": "Piła"
  },
  {
    "source_id": "ChIJ_T6uO4PmA0cRdGix0unxmq8",
    "name": "Sanpol Piła- hurtownia instalacyjna, hydrauliczna, sanitarna",
    "category": "Sanpol Piła- hurtownia instalacyjna, hydrauliczna, sanitarna",
    "formatted_address": "Sanpol Piła- hurtownia instalacyjna, hydrauliczna, sanitarna",
    "phone_number": "+48618746839",
    "source_url": "https://www.google.com/maps/place/Sanpol+Pi%C5%82a-+hurtownia+instalacyjna,+hydrauliczna,+sanitarna/data=!4m7!3m6!1s0x4703e6833bae3efd:0xaf9af1e9d2b16874!8m2!3d53.1622044!4d16.7706962!16s%2Fg%2F11g_609mv!19sChIJ_T6uO4PmA0cRdGix0unxmq8?authuser=0&hl=tr&rclk=1",
    "website_url": "",
    "rating_text": "4,9",
    "stars": null,
    "number_of_reviews": null,
    "price_level": "",
    "open_hours": "",
    "extraction_timestamp": "2025-06-07T17:59:19.440Z",
    "source_name": "google",
    "source_query": "Irrigation Equipment",
    "source_country": "PL",
    "country": "Poland",
    "state": "Greater Poland Voivodeship",
    "city": "Piła"
  },
  {
    "source_id": "ChIJkSifA7nmA0cRWp6QLcycI1U",
    "name": "PPHU Technologie Grzewcze i Sanitarne",
    "category": "PPHU Technologie Grzewcze i Sanitarne",
    "formatted_address": "4,5(20)",
    "phone_number": "+48667749588",
    "source_url": "https://www.google.com/maps/place/PPHU+Technologie+Grzewcze+i+Sanitarne/data=!4m7!3m6!1s0x4703e6b9039f2891:0x55239ccc2d909e5a!8m2!3d53.1625658!4d16.76349!16s%2Fg%2F1tczp1h6!19sChIJkSifA7nmA0cRWp6QLcycI1U?authuser=0&hl=tr&rclk=1",
    "website_url": "",
    "rating_text": "4,5",
    "stars": null,
    "number_of_reviews": null,
    "price_level": "",
    "open_hours": "",
    "extraction_timestamp": "2025-06-07T17:59:19.442Z",
    "source_name": "google",
    "source_query": "Irrigation Equipment",
    "source_country": "PL",
    "country": "Poland",
    "state": "Greater Poland Voivodeship",
    "city": "Piła"
  },
  {
    "source_id": "ChIJs1rwy4flA0cRByO6AAhwVIs",
    "name": "Instalbud Zasada",
    "category": "Instalbud Zasada",
    "formatted_address": "4,7(38)",
    "phone_number": "+48608089342",
    "source_url": "https://www.google.com/maps/place/Instalbud+Zasada/data=!4m7!3m6!1s0x4703e587cbf05ab3:0x8b54700800ba2307!8m2!3d53.159618!4d16.759608!16s%2Fg%2F11r24_pzps!19sChIJs1rwy4flA0cRByO6AAhwVIs?authuser=0&hl=tr&rclk=1",
    "website_url": "",
    "rating_text": "4,7",
    "stars": null,
    "number_of_reviews": null,
    "price_level": "",
    "open_hours": "",
    "extraction_timestamp": "2025-06-07T17:59:19.442Z",
    "source_name": "google",
    "source_query": "Irrigation Equipment",
    "source_country": "PL",
    "country": "Poland",
    "state": "Greater Poland Voivodeship",
    "city": "Piła"
  },
  {
    "source_id": "ChIJc2bh7QLlA0cRnLPN_B7cyR0",
    "name": "Ogrody Zakładanie Projektowanie Ogrodów Piła ZIELONI Nawadnianie Ogrodu Trawa z Rolki Ogrodnik",
    "category": "Ogrody Zakładanie Projektowanie Ogrodów Piła ZIELONI Nawadnianie Ogrodu Trawa z Rolki Ogrodnik",
    "formatted_address": "5,0(14)",
    "phone_number": "+48601425852",
    "source_url": "https://www.google.com/maps/place/Ogrody+Zak%C5%82adanie+Projektowanie+Ogrod%C3%B3w+Pi%C5%82a+ZIELONI+Nawadnianie+Ogrodu+Trawa+z+Rolki+Ogrodnik/data=!4m7!3m6!1s0x4703e502ede16673:0x1dc9dc1efccdb39c!8m2!3d53.15307!4d16.74962!16s%2Fg%2F11gtggk6xz!19sChIJc2bh7QLlA0cRnLPN_B7cyR0?authuser=0&hl=tr&rclk=1",
    "website_url": "",
    "rating_text": "5,0",
    "stars": null,
    "number_of_reviews": null,
    "price_level": "",
    "open_hours": "",
    "extraction_timestamp": "2025-06-07T17:59:19.444Z",
    "source_name": "google",
    "source_query": "Irrigation Equipment",
    "source_country": "PL",
    "country": "Poland",
    "state": "Greater Poland Voivodeship",
    "city": "Piła"
  },
  {
    "source_id": "ChIJRwZlOcLjA0cRkSdcGC7KwnA",
    "name": "EKOPIL Sp. z o.o. - Producent urządzeń do przemysłu oraz oczyszczalni ścieków",
    "category": "EKOPIL Sp. z o.o. - Producent urządzeń do przemysłu oraz oczyszczalni ścieków",
    "formatted_address": "4,8(23)",
    "phone_number": "+48673517176",
    "source_url": "https://www.google.com/maps/place/EKOPIL+Sp.+z+o.o.+-+Producent+urz%C4%85dze%C5%84+do+przemys%C5%82u+oraz+oczyszczalni+%C5%9Bciek%C3%B3w/data=!4m7!3m6!1s0x4703e3c239650647:0x70c2ca2e185c2791!8m2!3d53.1565701!4d16.6819148!16s%2Fg%2F11b5s2d363!19sChIJRwZlOcLjA0cRkSdcGC7KwnA?authuser=0&hl=tr&rclk=1",
    "website_url": "",
    "rating_text": "4,8",
    "stars": null,
    "number_of_reviews": null,
    "price_level": "",
    "open_hours": "",
    "extraction_timestamp": "2025-06-07T17:59:19.445Z",
    "source_name": "google",
    "source_query": "Irrigation Equipment",
    "source_country": "PL",
    "country": "Poland",
    "state": "Greater Poland Voivodeship",
    "city": "Piła"
  },
  {
    "source_id": "ChIJX5y2wlLlA0cRP9wTXjCmZuY",
    "name": "RG-HYDRO Studnie głębinowe",
    "category": "RG-HYDRO Studnie głębinowe",
    "formatted_address": "5,0(21)",
    "phone_number": "+48608056632",
    "source_url": "https://www.google.com/maps/place/RG-HYDRO+Studnie+g%C5%82%C4%99binowe/data=!4m7!3m6!1s0x4703e552c2b69c5f:0xe666a6305e13dc3f!8m2!3d53.140091!4d16.7400096!16s%2Fg%2F11v11162r7!19sChIJX5y2wlLlA0cRP9wTXjCmZuY?authuser=0&hl=tr&rclk=1",
    "website_url": "",
    "rating_text": "5,0",
    "stars": null,
    "number_of_reviews": null,
    "price_level": "",
    "open_hours": "",
    "extraction_timestamp": "2025-06-07T17:59:19.446Z",
    "source_name": "google",
    "source_query": "Irrigation Equipment",
    "source_country": "PL",
    "country": "Poland",
    "state": "Greater Poland Voivodeship",
    "city": "Piła"
  },
  {
    "source_id": "ChIJ8bty1ZzmA0cRspUxrKcTmbE",
    "name": "Onninen hurtownia elektryczna, hydrauliczna i instalacyjna - Piła",
    "category": "Onninen hurtownia elektryczna, hydrauliczna i instalacyjna - Piła",
    "formatted_address": "Onninen hurtownia elektryczna, hydrauliczna i instalacyjna - Piła",
    "phone_number": "+48801415515",
    "source_url": "https://www.google.com/maps/place/Onninen+hurtownia+elektryczna,+hydrauliczna+i+instalacyjna+-+Pi%C5%82a/data=!4m7!3m6!1s0x4703e69cd572bbf1:0xb19913a7ac3195b2!8m2!3d53.1599948!4d16.757248!16s%2Fg%2F11btm8tjqg!19sChIJ8bty1ZzmA0cRspUxrKcTmbE?authuser=0&hl=tr&rclk=1",
    "website_url": "",
    "rating_text": "4,9",
    "stars": null,
    "number_of_reviews": null,
    "price_level": "",
    "open_hours": "",
    "extraction_timestamp": "2025-06-07T17:59:19.447Z",
    "source_name": "google",
    "source_query": "Irrigation Equipment",
    "source_country": "PL",
    "country": "Poland",
    "state": "Greater Poland Voivodeship",
    "city": "Piła"
  },
  {
    "source_id": "ChIJA8sbkqDlA0cRMYTNmXJrApg",
    "name": "KERAS Studnie Głębinowe",
    "category": "KERAS Studnie Głębinowe",
    "formatted_address": "5,0(130)",
    "phone_number": "+48511351636",
    "source_url": "https://www.google.com/maps/place/KERAS+Studnie+G%C5%82%C4%99binowe/data=!4m7!3m6!1s0x4703e5a0921bcb03:0x98026b7299cd8431!8m2!3d53.1523046!4d16.7533447!16s%2Fg%2F11s0t3rpk1!19sChIJA8sbkqDlA0cRMYTNmXJrApg?authuser=0&hl=tr&rclk=1",
    "website_url": "",
    "rating_text": "5,0",
    "stars": null,
    "number_of_reviews": null,
    "price_level": "",
    "open_hours": "",
    "extraction_timestamp": "2025-06-07T17:59:19.448Z",
    "source_name": "google",
    "source_query": "Irrigation Equipment",
    "source_country": "PL",
    "country": "Poland",
    "state": "Greater Poland Voivodeship",
    "city": "Piła"
  },
  {
    "source_id": "ChIJZecWjCbkA0cRQG2pFfDiHiY",
    "name": "Pompy Ciepła Piła Sklep Instalacyjny Hydrauliczny M.K Piece CO Gazowe Pellet Ekogroszek",
    "category": "Pompy Ciepła Piła Sklep Instalacyjny Hydrauliczny M.K Piece CO Gazowe Pellet Ekogroszek",
    "formatted_address": "4,6(17)",
    "phone_number": "+48604873308",
    "source_url": "https://www.google.com/maps/place/Pompy+Ciep%C5%82a+Pi%C5%82a+Sklep+Instalacyjny+Hydrauliczny+M.K+Piece+CO+Gazowe+Pellet+Ekogroszek/data=!4m7!3m6!1s0x4703e4268c16e765:0x261ee2f015a96d40!8m2!3d53.1354202!4d16.7543784!16s%2Fg%2F1vp6yx14!19sChIJZecWjCbkA0cRQG2pFfDiHiY?authuser=0&hl=tr&rclk=1",
    "website_url": "",
    "rating_text": "4,6",
    "stars": null,
    "number_of_reviews": null,
    "price_level": "",
    "open_hours": "",
    "extraction_timestamp": "2025-06-07T17:59:19.449Z",
    "source_name": "google",
    "source_query": "Irrigation Equipment",
    "source_country": "PL",
    "country": "Poland",
    "state": "Greater Poland Voivodeship",
    "city": "Piła"
  },
  {
    "source_id": "ChIJpeQT47nmA0cRias_L0-_P7c",
    "name": "Hydraulik Mikołajczak Przyłącza Sieci Wodociągowe Kanalizacyjne Pompownie Ścieków",
    "category": "Hydraulik Mikołajczak Przyłącza Sieci Wodociągowe Kanalizacyjne Pompownie Ścieków",
    "formatted_address": "5,0(4)",
    "phone_number": "+48672150941",
    "source_url": "https://www.google.com/maps/place/Hydraulik+Miko%C5%82ajczak+Przy%C5%82%C4%85cza+Sieci+Wodoci%C4%85gowe+Kanalizacyjne+Pompownie+%C5%9Aciek%C3%B3w/data=!4m7!3m6!1s0x4703e6b9e313e4a5:0xb73fbf4f2f3fab89!8m2!3d53.1678651!4d16.7209274!16s%2Fg%2F1hc21hmhc!19sChIJpeQT47nmA0cRias_L0-_P7c?authuser=0&hl=tr&rclk=1",
    "website_url": "",
    "rating_text": "5,0",
    "stars": null,
    "number_of_reviews": null,
    "price_level": "",
    "open_hours": "",
    "extraction_timestamp": "2025-06-07T17:59:19.450Z",
    "source_name": "google",
    "source_query": "Irrigation Equipment",
    "source_country": "PL",
    "country": "Poland",
    "state": "Greater Poland Voivodeship",
    "city": "Piła"
  },
  {
    "source_id": "ChIJ08KZFgXkA0cRQ5Vrx6fPWVo",
    "name": "Bricomarche Piła",
    "category": "Bricomarche Piła",
    "formatted_address": "4,0(1.596)",
    "phone_number": "+48672865324",
    "source_url": "https://www.google.com/maps/place/Bricomarche+Pi%C5%82a/data=!4m7!3m6!1s0x4703e4051699c2d3:0x5a59cfa7c76b9543!8m2!3d53.1554989!4d16.7317513!16s%2Fg%2F11bwqbm_cl!19sChIJ08KZFgXkA0cRQ5Vrx6fPWVo?authuser=0&hl=tr&rclk=1",
    "website_url": "",
    "rating_text": "4,0",
    "stars": null,
    "number_of_reviews": null,
    "price_level": "",
    "open_hours": "",
    "extraction_timestamp": "2025-06-07T17:59:19.453Z",
    "source_name": "google",
    "source_query": "Irrigation Equipment",
    "source_country": "PL",
    "country": "Poland",
    "state": "Greater Poland Voivodeship",
    "city": "Piła"
  },
  {
    "source_id": "ChIJ6z0b_8bjA0cRlInu5Y9Dt9w",
    "name": "Hurtownia Instalacyjna SHI HYDROSOLAR WIELKOPOLSKA Piła",
    "category": "Hurtownia Instalacyjna SHI HYDROSOLAR WIELKOPOLSKA Piła",
    "formatted_address": "5,0(2)",
    "phone_number": "+48797903964",
    "source_url": "https://www.google.com/maps/place/Hurtownia+Instalacyjna+SHI+HYDROSOLAR+WIELKOPOLSKA+Pi%C5%82a/data=!4m7!3m6!1s0x4703e3c6ff1b3deb:0xdcb7438fe5ee8994!8m2!3d53.1468367!4d16.7095054!16s%2Fg%2F11swvlbjg9!19sChIJ6z0b_8bjA0cRlInu5Y9Dt9w?authuser=0&hl=tr&rclk=1",
    "website_url": "",
    "rating_text": "5,0",
    "stars": null,
    "number_of_reviews": null,
    "price_level": "",
    "open_hours": "",
    "extraction_timestamp": "2025-06-07T17:59:19.454Z",
    "source_name": "google",
    "source_query": "Irrigation Equipment",
    "source_country": "PL",
    "country": "Poland",
    "state": "Greater Poland Voivodeship",
    "city": "Piła"
  },
  {
    "source_id": "ChIJI83Gz6jmA0cRiKQ79Ugo8rA",
    "name": "Hydro-Instal",
    "category": "Hydro-Instal",
    "formatted_address": "2,2(5)",
    "phone_number": "+48606960257",
    "source_url": "https://www.google.com/maps/place/Hydro-Instal/data=!4m7!3m6!1s0x4703e6a8cfc6cd23:0xb0f22848f53ba488!8m2!3d53.16926!4d16.7398731!16s%2Fg%2F1v0ljgmw!19sChIJI83Gz6jmA0cRiKQ79Ugo8rA?authuser=0&hl=tr&rclk=1",
    "website_url": "",
    "rating_text": "2,2",
    "stars": null,
    "number_of_reviews": null,
    "price_level": "",
    "open_hours": "",
    "extraction_timestamp": "2025-06-07T17:59:19.455Z",
    "source_name": "google",
    "source_query": "Irrigation Equipment",
    "source_country": "PL",
    "country": "Poland",
    "state": "Greater Poland Voivodeship",
    "city": "Piła"
  },
  {
    "source_id": "ChIJO0k2u_LlA0cRD4WezVv6NRI",
    "name": "Castorama",
    "category": "Castorama",
    "formatted_address": "4,5(390)",
    "phone_number": "+48690680690",
    "source_url": "https://www.google.com/maps/place/Castorama/data=!4m7!3m6!1s0x4703e5f2bb36493b:0x1235fa5bcd9e850f!8m2!3d53.1501161!4d16.7686828!16s%2Fg%2F11vwl5crg2!19sChIJO0k2u_LlA0cRD4WezVv6NRI?authuser=0&hl=tr&rclk=1",
    "website_url": "",
    "rating_text": "4,5",
    "stars": null,
    "number_of_reviews": null,
    "price_level": "",
    "open_hours": "",
    "extraction_timestamp": "2025-06-07T17:59:19.455Z",
    "source_name": "google",
    "source_query": "Irrigation Equipment",
    "source_country": "PL",
    "country": "Poland",
    "state": "Greater Poland Voivodeship",
    "city": "Piła"
  },
  {
    "source_id": "ChIJ6YyhdhrlA0cR_HyzwvDE3b8",
    "name": "AKURAT Łukasz Ignaczak",
    "category": "AKURAT Łukasz Ignaczak",
    "formatted_address": "5,0(26)",
    "phone_number": "+48511364055",
    "source_url": "https://www.google.com/maps/place/AKURAT+%C5%81ukasz+Ignaczak/data=!4m7!3m6!1s0x4703e51a76a18ce9:0xbfddc4f0c2b37cfc!8m2!3d53.1594251!4d16.7653341!16s%2Fg%2F11rk77d9fw!19sChIJ6YyhdhrlA0cR_HyzwvDE3b8?authuser=0&hl=tr&rclk=1",
    "website_url": "",
    "rating_text": "5,0",
    "stars": null,
    "number_of_reviews": null,
    "price_level": "",
    "open_hours": "",
    "extraction_timestamp": "2025-06-07T17:59:19.456Z",
    "source_name": "google",
    "source_query": "Irrigation Equipment",
    "source_country": "PL",
    "country": "Poland",
    "state": "Greater Poland Voivodeship",
    "city": "Piła"
  },
  {
    "source_id": "ChIJb8ew9yHkA0cRlwAlnSnlP-E",
    "name": "MAT Piła Instalacje Pompy Ciepła Kotły Piece C.O. Gazowe Pellet Ekogroszek Grzejniki Bojlery Sklep",
    "category": "MAT Piła Instalacje Pompy Ciepła Kotły Piece C.O. Gazowe Pellet Ekogroszek Grzejniki Bojlery Sklep",
    "formatted_address": "4,1(17)",
    "phone_number": "+48604873308",
    "source_url": "https://www.google.com/maps/place/MAT+Pi%C5%82a+Instalacje+Pompy+Ciep%C5%82a+Kot%C5%82y+Piece+C.O.+Gazowe+Pellet+Ekogroszek+Grzejniki+Bojlery+Sklep/data=!4m7!3m6!1s0x4703e421f7b0c76f:0xe13fe5299d250097!8m2!3d53.1355013!4d16.7535482!16s%2Fg%2F1tgnksdt!19sChIJb8ew9yHkA0cRlwAlnSnlP-E?authuser=0&hl=tr&rclk=1",
    "website_url": "",
    "rating_text": "4,1",
    "stars": null,
    "number_of_reviews": null,
    "price_level": "",
    "open_hours": "",
    "extraction_timestamp": "2025-06-07T17:59:19.457Z",
    "source_name": "google",
    "source_query": "Irrigation Equipment",
    "source_country": "PL",
    "country": "Poland",
    "state": "Greater Poland Voivodeship",
    "city": "Piła"
  },
  {
    "source_id": "ChIJb75migLlA0cRoYJPrLieDK4",
    "name": "Decathlon Piła",
    "category": "Decathlon Piła",
    "formatted_address": "4,6(1.011)",
    "phone_number": "+48880340567",
    "source_url": "https://www.google.com/maps/place/Decathlon+Pi%C5%82a/data=!4m7!3m6!1s0x4703e5028a66be6f:0xae0c9eb8ac4f82a1!8m2!3d53.1463706!4d16.7461461!16s%2Fg%2F11h047cw66!19sChIJb75migLlA0cRoYJPrLieDK4?authuser=0&hl=tr&rclk=1",
    "website_url": "",
    "rating_text": "4,6",
    "stars": null,
    "number_of_reviews": null,
    "price_level": "",
    "open_hours": "",
    "extraction_timestamp": "2025-06-07T17:59:19.459Z",
    "source_name": "google",
    "source_query": "Irrigation Equipment",
    "source_country": "PL",
    "country": "Poland",
    "state": "Greater Poland Voivodeship",
    "city": "Piła"
  },
  {
    "source_id": "ChIJs_INBA7lA0cRXUoonYPA5EI",
    "name": "Action Piła",
    "category": "Action Piła",
    "formatted_address": "4,5(359)",
    "phone_number": "+48326305898",
    "source_url": "https://www.google.com/maps/place/Action+Pi%C5%82a/data=!4m7!3m6!1s0x4703e50e040df2b3:0x42e4c0839d284a5d!8m2!3d53.163051!4d16.755947!16s%2Fg%2F11pwwv3fqv!19sChIJs_INBA7lA0cRXUoonYPA5EI?authuser=0&hl=tr&rclk=1",
    "website_url": "",
    "rating_text": "4,5",
    "stars": null,
    "number_of_reviews": null,
    "price_level": "",
    "open_hours": "",
    "extraction_timestamp": "2025-06-07T17:59:19.460Z",
    "source_name": "google",
    "source_query": "Irrigation Equipment",
    "source_country": "PL",
    "country": "Poland",
    "state": "Greater Poland Voivodeship",
    "city": "Piła"
  },
  {
    "source_id": "ChIJ104htBHkA0cRDs6kxc_e7eo",
    "name": "4RUN",
    "category": "4RUN",
    "formatted_address": "4,7(55)",
    "phone_number": "+48512249822",
    "source_url": "https://www.google.com/maps/place/4RUN/data=!4m7!3m6!1s0x4703e411b4214ed7:0xeaeddecfc5a4ce0e!8m2!3d53.1566149!4d16.7530225!16s%2Fg%2F1tj5196h!19sChIJ104htBHkA0cRDs6kxc_e7eo?authuser=0&hl=tr&rclk=1",
    "website_url": "",
    "rating_text": "4,7",
    "stars": null,
    "number_of_reviews": null,
    "price_level": "",
    "open_hours": "",
    "extraction_timestamp": "2025-06-07T17:59:19.461Z",
    "source_name": "google",
    "source_query": "Irrigation Equipment",
    "source_country": "PL",
    "country": "Poland",
    "state": "Greater Poland Voivodeship",
    "city": "Piła"
  },
  {
    "source_id": "ChIJAy6IYHvlA0cRcCq6K7OiXnM",
    "name": "+Dream s.c. Salon Łazienek i wnętrz",
    "category": "+Dream s.c. Salon Łazienek i wnętrz",
    "formatted_address": "4,6(44)",
    "phone_number": "+48603680376",
    "source_url": "https://www.google.com/maps/place/%2BDream+s.c.+Salon+%C5%81azienek+i+wn%C4%99trz/data=!4m7!3m6!1s0x4703e57b60882e03:0x735ea2b32bba2a70!8m2!3d53.1359377!4d16.7519645!16s%2Fg%2F11h_7b9jl5!19sChIJAy6IYHvlA0cRcCq6K7OiXnM?authuser=0&hl=tr&rclk=1",
    "website_url": "",
    "rating_text": "4,6",
    "stars": null,
    "number_of_reviews": null,
    "price_level": "",
    "open_hours": "",
    "extraction_timestamp": "2025-06-07T17:59:19.462Z",
    "source_name": "google",
    "source_query": "Irrigation Equipment",
    "source_country": "PL",
    "country": "Poland",
    "state": "Greater Poland Voivodeship",
    "city": "Piła"
  },
  {
    "source_id": "ChIJgepvqUjlA0cR3HyH1QMAeh8",
    "name": "FIRMA HANDLOWA OLA",
    "category": "FIRMA HANDLOWA OLA",
    "formatted_address": "4,8(12)",
    "phone_number": "",
    "source_url": "https://www.google.com/maps/place/FIRMA+HANDLOWA+OLA/data=!4m7!3m6!1s0x4703e548a96fea81:0x1f7a0003d5877cdc!8m2!3d53.1493591!4d16.7578439!16s%2Fg%2F11fn2rqrf2!19sChIJgepvqUjlA0cR3HyH1QMAeh8?authuser=0&hl=tr&rclk=1",
    "website_url": "",
    "rating_text": "4,8",
    "stars": null,
    "number_of_reviews": null,
    "price_level": "",
    "open_hours": "",
    "extraction_timestamp": "2025-06-07T17:59:19.462Z",
    "source_name": "google",
    "source_query": "Irrigation Equipment",
    "source_country": "PL",
    "country": "Poland",
    "state": "Greater Poland Voivodeship",
    "city": "Piła"
  },
  {
    "source_id": "ChIJlZ1SDazlA0cRZDMEndak5eE",
    "name": "Super Hydraulik Piła 24",
    "category": "Super Hydraulik Piła 24",
    "formatted_address": "4,6(39)",
    "phone_number": "+48789107510",
    "source_url": "https://www.google.com/maps/place/Super+Hydraulik+Pi%C5%82a+24/data=!4m7!3m6!1s0x4703e5ac0d529d95:0xe1e5a4d69d043364!8m2!3d53.1498862!4d16.7543924!16s%2Fg%2F11y2nq4rp_!19sChIJlZ1SDazlA0cRZDMEndak5eE?authuser=0&hl=tr&rclk=1",
    "website_url": "",
    "rating_text": "4,6",
    "stars": null,
    "number_of_reviews": null,
    "price_level": "",
    "open_hours": "",
    "extraction_timestamp": "2025-06-07T17:59:19.463Z",
    "source_name": "google",
    "source_query": "Irrigation Equipment",
    "source_country": "PL",
    "country": "Poland",
    "state": "Greater Poland Voivodeship",
    "city": "Piła"
  },
  {
    "source_id": "ChIJWTEazyrkA0cREOyaBDIECZI",
    "name": "Dereziński Service Autoryzowany Dealer Stihl Stiga",
    "category": "Dereziński Service Autoryzowany Dealer Stihl Stiga",
    "formatted_address": "4,6(46)",
    "phone_number": "+48672137186",
    "source_url": "https://www.google.com/maps/place/Derezi%C5%84ski+Service+Autoryzowany+Dealer+Stihl+Stiga/data=!4m7!3m6!1s0x4703e42acf1a3159:0x92090432049aec10!8m2!3d53.1556862!4d16.7832106!16s%2Fg%2F11fy_qc5m3!19sChIJWTEazyrkA0cREOyaBDIECZI?authuser=0&hl=tr&rclk=1",
    "website_url": "",
    "rating_text": "4,6",
    "stars": null,
    "number_of_reviews": null,
    "price_level": "",
    "open_hours": "",
    "extraction_timestamp": "2025-06-07T17:59:19.464Z",
    "source_name": "google",
    "source_query": "Irrigation Equipment",
    "source_country": "PL",
    "country": "Poland",
    "state": "Greater Poland Voivodeship",
    "city": "Piła"
  },
  {
    "source_id": "ChIJCXSvFGLkA0cR6DOcHoDiQ78",
    "name": "Remonty Piła MagBud Wykończenia Wnętrz Hydraulik Elektryk Malowanie Płytki Panele Ścianki Sufity",
    "category": "Remonty Piła MagBud Wykończenia Wnętrz Hydraulik Elektryk Malowanie Płytki Panele Ścianki Sufity",
    "formatted_address": "4,8(18)",
    "phone_number": "+48535532485",
    "source_url": "https://www.google.com/maps/place/Remonty+Pi%C5%82a+MagBud+Wyko%C5%84czenia+Wn%C4%99trz+Hydraulik+Elektryk+Malowanie+P%C5%82ytki+Panele+%C5%9Acianki+Sufity/data=!4m7!3m6!1s0x4703e46214af7409:0xbf43e2801e9c33e8!8m2!3d53.1234532!4d16.7202183!16s%2Fg%2F1tjtgzn1!19sChIJCXSvFGLkA0cR6DOcHoDiQ78?authuser=0&hl=tr&rclk=1",
    "website_url": "",
    "rating_text": "4,8",
    "stars": null,
    "number_of_reviews": null,
    "price_level": "",
    "open_hours": "",
    "extraction_timestamp": "2025-06-07T17:59:19.465Z",
    "source_name": "google",
    "source_query": "Irrigation Equipment",
    "source_country": "PL",
    "country": "Poland",
    "state": "Greater Poland Voivodeship",
    "city": "Piła"
  },
  {
    "source_id": "ChIJRYs_uR_kA0cRr1Y2K0GiPdU",
    "name": "Leroy Merlin",
    "category": "Leroy Merlin",
    "formatted_address": "4,2(3.685)",
    "phone_number": "+48672111800",
    "source_url": "https://www.google.com/maps/place/Leroy+Merlin/data=!4m7!3m6!1s0x4703e41fb93f8b45:0xd53da2412b3656af!8m2!3d53.160545!4d16.750985!16s%2Fg%2F11dxnt9m6j!19sChIJRYs_uR_kA0cRr1Y2K0GiPdU?authuser=0&hl=tr&rclk=1",
    "website_url": "",
    "rating_text": "4,2",
    "stars": null,
    "number_of_reviews": null,
    "price_level": "",
    "open_hours": "",
    "extraction_timestamp": "2025-06-07T17:59:19.466Z",
    "source_name": "google",
    "source_query": "Irrigation Equipment",
    "source_country": "PL",
    "country": "Poland",
    "state": "Greater Poland Voivodeship",
    "city": "Piła"
  },
  {
    "source_id": "ChIJT4U-3EPkA0cRegfverRQua0",
    "name": "Sanit-Bis, Lidia Muszyńska, Autoryzowany Top Partner Buderus, Tekla",
    "category": "Sanit-Bis, Lidia Muszyńska, Autoryzowany Top Partner Buderus, Tekla",
    "formatted_address": "Sanit-Bis, Lidia Muszyńska, Autoryzowany Top Partner Buderus, Tekla",
    "phone_number": "+48673519305",
    "source_url": "https://www.google.com/maps/place/Sanit-Bis,+Lidia+Muszy%C5%84ska,+Autoryzowany+Top+Partner+Buderus,+Tekla/data=!4m7!3m6!1s0x4703e443dc3e854f:0xadb950b47aef077a!8m2!3d53.1351645!4d16.7435712!16s%2Fg%2F1v299qdt!19sChIJT4U-3EPkA0cRegfverRQua0?authuser=0&hl=tr&rclk=1",
    "website_url": "",
    "rating_text": "4,6",
    "stars": null,
    "number_of_reviews": null,
    "price_level": "",
    "open_hours": "",
    "extraction_timestamp": "2025-06-07T17:59:19.467Z",
    "source_name": "google",
    "source_query": "Irrigation Equipment",
    "source_country": "PL",
    "country": "Poland",
    "state": "Greater Poland Voivodeship",
    "city": "Piła"
  }
]
