[
  {
    "source_id": "ChIJ1SFNibAtBUcRMKWhXWdxagE",
    "name": "GIELNIAK Energo-System PRODUCENT KOTŁÓW",
    "category": "GIELNIAK Energo-System PRODUCENT KOTŁÓW",
    "formatted_address": "4,6(26)",
    "phone_number": "+48625083066",
    "source_url": "https://www.google.com/maps/place/GIELNIAK+Energo-System+PRODUCENT+KOT%C5%81%C3%93W/data=!4m7!3m6!1s0x47052db0894d21d5:0x16a71675da1a530!8m2!3d51.8936896!4d17.8010919!16s%2Fg%2F1tmpj6gz!19sChIJ1SFNibAtBUcRMKWhXWdxagE?authuser=0&hl=tr&rclk=1",
    "website_url": "",
    "rating_text": "4,6",
    "stars": null,
    "number_of_reviews": null,
    "price_level": "",
    "open_hours": "",
    "extraction_timestamp": "2025-06-07T17:27:40.733Z",
    "source_name": "google",
    "source_query": "Irrigation Equipment",
    "source_country": "PL",
    "country": "Poland",
    "state": "Greater Poland Voivodeship",
    "city": "Pleszew"
  },
  {
    "source_id": "ChIJSf_WcKOqpIcRXDpvTsxPxYY",
    "name": "Frawikart Systems - Burchacki Artur - Świadectwa charakterystyki energetycznej - Pleszew",
    "category": "Frawikart Systems - Burchacki Artur - Świadectwa charakterystyki energetycznej - Pleszew",
    "formatted_address": "5,0(40)",
    "phone_number": "+48694370754",
    "source_url": "https://www.google.com/maps/place/Frawikart+Systems+-+Burchacki+Artur+-+%C5%9Awiadectwa+charakterystyki+energetycznej+-+Pleszew/data=!4m7!3m6!1s0x87a4aaa370d6ff49:0x86c54fcc4e6f3a5c!8m2!3d51.8895517!4d17.7684794!16s%2Fg%2F11kq4xzbbq!19sChIJSf_WcKOqpIcRXDpvTsxPxYY?authuser=0&hl=tr&rclk=1",
    "website_url": "",
    "rating_text": "5,0",
    "stars": null,
    "number_of_reviews": null,
    "price_level": "",
    "open_hours": "",
    "extraction_timestamp": "2025-06-07T17:27:40.734Z",
    "source_name": "google",
    "source_query": "Irrigation Equipment",
    "source_country": "PL",
    "country": "Poland",
    "state": "Greater Poland Voivodeship",
    "city": "Pleszew"
  },
  {
    "source_id": "ChIJ-ar9G8ktBUcRo8bCcFdjMtY",
    "name": "Tlen-Spaw s.c.",
    "category": "Tlen-Spaw s.c.",
    "formatted_address": "4,6(14)",
    "phone_number": "+48627422039",
    "source_url": "https://www.google.com/maps/place/Tlen-Spaw+s.c./data=!4m7!3m6!1s0x47052dc91bfdaaf9:0xd632635770c2c6a3!8m2!3d51.8991075!4d17.7848234!16s%2Fg%2F1hc604bxx!19sChIJ-ar9G8ktBUcRo8bCcFdjMtY?authuser=0&hl=tr&rclk=1",
    "website_url": "",
    "rating_text": "4,6",
    "stars": null,
    "number_of_reviews": null,
    "price_level": "",
    "open_hours": "",
    "extraction_timestamp": "2025-06-07T17:27:40.736Z",
    "source_name": "google",
    "source_query": "Irrigation Equipment",
    "source_country": "PL",
    "country": "Poland",
    "state": "Greater Poland Voivodeship",
    "city": "Pleszew"
  },
  {
    "source_id": "ChIJPWC2Y9otBUcRQUbHnbFuHFg",
    "name": "PHPU GIZEX Sp. z o.o.",
    "category": "PHPU GIZEX Sp. z o.o.",
    "formatted_address": "4,5(11)",
    "phone_number": "+48627422271",
    "source_url": "https://www.google.com/maps/place/PHPU+GIZEX+Sp.+z+o.o./data=!4m7!3m6!1s0x47052dda63b6603d:0x581c6eb19dc74641!8m2!3d51.9024874!4d17.7521036!16s%2Fg%2F1tgn_hq3!19sChIJPWC2Y9otBUcRQUbHnbFuHFg?authuser=0&hl=tr&rclk=1",
    "website_url": "",
    "rating_text": "4,5",
    "stars": null,
    "number_of_reviews": null,
    "price_level": "",
    "open_hours": "",
    "extraction_timestamp": "2025-06-07T17:27:40.737Z",
    "source_name": "google",
    "source_query": "Irrigation Equipment",
    "source_country": "PL",
    "country": "Poland",
    "state": "Greater Poland Voivodeship",
    "city": "Pleszew"
  },
  {
    "source_id": "ChIJ26BbucAtBUcRlke3VoMcYq0",
    "name": "F.H.U. Hydro-Pan",
    "category": "F.H.U. Hydro-Pan",
    "formatted_address": "4,1(7)",
    "phone_number": "",
    "source_url": "https://www.google.com/maps/place/F.H.U.+Hydro-Pan/data=!4m7!3m6!1s0x47052dc0b95ba0db:0xad621c8356b74796!8m2!3d51.8891558!4d17.7858934!16s%2Fg%2F11hc_4bjxs!19sChIJ26BbucAtBUcRlke3VoMcYq0?authuser=0&hl=tr&rclk=1",
    "website_url": "",
    "rating_text": "4,1",
    "stars": null,
    "number_of_reviews": null,
    "price_level": "",
    "open_hours": "",
    "extraction_timestamp": "2025-06-07T17:27:40.737Z",
    "source_name": "google",
    "source_query": "Irrigation Equipment",
    "source_country": "PL",
    "country": "Poland",
    "state": "Greater Poland Voivodeship",
    "city": "Pleszew"
  },
  {
    "source_id": "ChIJA7uUd8EtBUcRHD7l2lemMfk",
    "name": "Oring-Szymczak. Szymczak M.",
    "category": "Oring-Szymczak. Szymczak M.",
    "formatted_address": "4,7(37)",
    "phone_number": "+48530910912",
    "source_url": "https://www.google.com/maps/place/Oring-Szymczak.+Szymczak+M./data=!4m7!3m6!1s0x47052dc17794bb03:0xf931a657dae53e1c!8m2!3d51.888543!4d17.7779249!16s%2Fg%2F1tfv3v9j!19sChIJA7uUd8EtBUcRHD7l2lemMfk?authuser=0&hl=tr&rclk=1",
    "website_url": "",
    "rating_text": "4,7",
    "stars": null,
    "number_of_reviews": null,
    "price_level": "",
    "open_hours": "",
    "extraction_timestamp": "2025-06-07T17:27:40.738Z",
    "source_name": "google",
    "source_query": "Irrigation Equipment",
    "source_country": "PL",
    "country": "Poland",
    "state": "Greater Poland Voivodeship",
    "city": "Pleszew"
  },
  {
    "source_id": "ChIJb7NAEcctBUcRPELeJt-5CmM",
    "name": "PHU AKAJ PLUS Tomasz Moliński Hurt-Detal",
    "category": "PHU AKAJ PLUS Tomasz Moliński Hurt-Detal",
    "formatted_address": "5,0(6)",
    "phone_number": "+48570150805",
    "source_url": "https://www.google.com/maps/place/PHU+AKAJ+PLUS+Tomasz+Moli%C5%84ski+Hurt-Detal/data=!4m7!3m6!1s0x47052dc71140b36f:0x630ab9df26de423c!8m2!3d51.8926208!4d17.785424!16s%2Fg%2F1pty9khrx!19sChIJb7NAEcctBUcRPELeJt-5CmM?authuser=0&hl=tr&rclk=1",
    "website_url": "",
    "rating_text": "5,0",
    "stars": null,
    "number_of_reviews": null,
    "price_level": "",
    "open_hours": "",
    "extraction_timestamp": "2025-06-07T17:27:40.740Z",
    "source_name": "google",
    "source_query": "Irrigation Equipment",
    "source_country": "PL",
    "country": "Poland",
    "state": "Greater Poland Voivodeship",
    "city": "Pleszew"
  },
  {
    "source_id": "ChIJgeVlALgtBUcRA_PSm6_wo7Q",
    "name": "Servamet SKA. HURTOWNIA SPAWALNICZO -NARZEDZIOWA, GAZY TECHNICZNE, AGREGATY PRĄDOTWÓRCZE, KOMPRESORY.",
    "category": "Servamet SKA. HURTOWNIA SPAWALNICZO -NARZEDZIOWA, GAZY TECHNICZNE, AGREGATY PRĄDOTWÓRCZE, KOMPRESORY.",
    "formatted_address": "Servamet SKA. HURTOWNIA SPAWALNICZO -NARZEDZIOWA, GAZY TECHNICZNE, AGREGATY PRĄDOTWÓRCZE, KOMPRESORY.",
    "phone_number": "+48625083017",
    "source_url": "https://www.google.com/maps/place/Servamet+SKA.+HURTOWNIA+SPAWALNICZO+-NARZEDZIOWA,+GAZY+TECHNICZNE,+AGREGATY+PR%C4%84DOTW%C3%93RCZE,+KOMPRESORY./data=!4m7!3m6!1s0x47052db80065e581:0xb4a3f0af9bd2f303!8m2!3d51.8938731!4d17.8198116!16s%2Fg%2F1tk9pgl6!19sChIJgeVlALgtBUcRA_PSm6_wo7Q?authuser=0&hl=tr&rclk=1",
    "website_url": "",
    "rating_text": "5,0",
    "stars": null,
    "number_of_reviews": null,
    "price_level": "",
    "open_hours": "",
    "extraction_timestamp": "2025-06-07T17:27:40.741Z",
    "source_name": "google",
    "source_query": "Irrigation Equipment",
    "source_country": "PL",
    "country": "Poland",
    "state": "Greater Poland Voivodeship",
    "city": "Pleszew"
  },
  {
    "source_id": "ChIJgy6tLagtBUcRBWs4wOpNODY",
    "name": "PPHU KONSTAL s.c.",
    "category": "PPHU KONSTAL s.c.",
    "formatted_address": "4,6(68)",
    "phone_number": "+48509865669",
    "source_url": "https://www.google.com/maps/place/PPHU+KONSTAL+s.c./data=!4m7!3m6!1s0x47052da82dad2e83:0x36384deac0386b05!8m2!3d51.8923721!4d17.8210868!16s%2Fg%2F1tg4_3k1!19sChIJgy6tLagtBUcRBWs4wOpNODY?authuser=0&hl=tr&rclk=1",
    "website_url": "",
    "rating_text": "4,6",
    "stars": null,
    "number_of_reviews": null,
    "price_level": "",
    "open_hours": "",
    "extraction_timestamp": "2025-06-07T17:27:40.743Z",
    "source_name": "google",
    "source_query": "Irrigation Equipment",
    "source_country": "PL",
    "country": "Poland",
    "state": "Greater Poland Voivodeship",
    "city": "Pleszew"
  },
  {
    "source_id": "ChIJEVabSc8tBUcRinbuEXGDjAY",
    "name": "Gawix Pleszew",
    "category": "Gawix Pleszew",
    "formatted_address": "3,0(2)",
    "phone_number": "+48627429038",
    "source_url": "https://www.google.com/maps/place/Gawix+Pleszew/data=!4m7!3m6!1s0x47052dcf499b5611:0x68c837111ee768a!8m2!3d51.8979099!4d17.782844!16s%2Fg%2F11fgxvm9nl!19sChIJEVabSc8tBUcRinbuEXGDjAY?authuser=0&hl=tr&rclk=1",
    "website_url": "",
    "rating_text": "3,0",
    "stars": null,
    "number_of_reviews": null,
    "price_level": "",
    "open_hours": "",
    "extraction_timestamp": "2025-06-07T17:27:40.744Z",
    "source_name": "google",
    "source_query": "Irrigation Equipment",
    "source_country": "PL",
    "country": "Poland",
    "state": "Greater Poland Voivodeship",
    "city": "Pleszew"
  },
  {
    "source_id": "ChIJnUp_CtMtBUcR6W6qFuoobZU",
    "name": "Agro-Service - Hurtownia ogrodnicza",
    "category": "Agro-Service - Hurtownia ogrodnicza",
    "formatted_address": "5,0(18)",
    "phone_number": "+48625080247",
    "source_url": "https://www.google.com/maps/place/Agro-Service+-+Hurtownia+ogrodnicza/data=!4m7!3m6!1s0x47052dd30a7f4a9d:0x956d28ea16aa6ee9!8m2!3d51.9062308!4d17.7751496!16s%2Fg%2F1tdn7ckn!19sChIJnUp_CtMtBUcR6W6qFuoobZU?authuser=0&hl=tr&rclk=1",
    "website_url": "",
    "rating_text": "5,0",
    "stars": null,
    "number_of_reviews": null,
    "price_level": "",
    "open_hours": "",
    "extraction_timestamp": "2025-06-07T17:27:40.745Z",
    "source_name": "google",
    "source_query": "Irrigation Equipment",
    "source_country": "PL",
    "country": "Poland",
    "state": "Greater Poland Voivodeship",
    "city": "Pleszew"
  },
  {
    "source_id": "ChIJgYgXNo4tBUcRvHob0YkCPNc",
    "name": "Instalacje Sanitarne Hydro-Szul Piotr Szulczyński",
    "category": "Instalacje Sanitarne Hydro-Szul Piotr Szulczyński",
    "formatted_address": "4,2(5)",
    "phone_number": "+48538024993",
    "source_url": "https://www.google.com/maps/place/Instalacje+Sanitarne+Hydro-Szul+Piotr+Szulczy%C5%84ski/data=!4m7!3m6!1s0x47052d8e36178881:0xd73c0289d11b7abc!8m2!3d51.8897554!4d17.7673148!16s%2Fg%2F11w838v9ww!19sChIJgYgXNo4tBUcRvHob0YkCPNc?authuser=0&hl=tr&rclk=1",
    "website_url": "",
    "rating_text": "4,2",
    "stars": null,
    "number_of_reviews": null,
    "price_level": "",
    "open_hours": "",
    "extraction_timestamp": "2025-06-07T17:27:40.746Z",
    "source_name": "google",
    "source_query": "Irrigation Equipment",
    "source_country": "PL",
    "country": "Poland",
    "state": "Greater Poland Voivodeship",
    "city": "Pleszew"
  },
  {
    "source_id": "ChIJ13gazcQtBUcRBRfyhuLGt-Q",
    "name": "UNITEP Hurtownia Online",
    "category": "UNITEP Hurtownia Online",
    "formatted_address": "5,0(3)",
    "phone_number": "+48731001003",
    "source_url": "https://www.google.com/maps/place/UNITEP+Hurtownia+Online/data=!4m7!3m6!1s0x47052dc4cd1a78d7:0xe4b7c6e286f21705!8m2!3d51.8889109!4d17.7746291!16s%2Fg%2F11bbrkckfr!19sChIJ13gazcQtBUcRBRfyhuLGt-Q?authuser=0&hl=tr&rclk=1",
    "website_url": "",
    "rating_text": "5,0",
    "stars": null,
    "number_of_reviews": null,
    "price_level": "",
    "open_hours": "",
    "extraction_timestamp": "2025-06-07T17:27:40.747Z",
    "source_name": "google",
    "source_query": "Irrigation Equipment",
    "source_country": "PL",
    "country": "Poland",
    "state": "Greater Poland Voivodeship",
    "city": "Pleszew"
  },
  {
    "source_id": "ChIJ1zsWCc0tBUcRDzvND3tmI6E",
    "name": "Rob-Tom",
    "category": "Rob-Tom",
    "formatted_address": "4,3(8)",
    "phone_number": "+48509859706",
    "source_url": "https://www.google.com/maps/place/Rob-Tom/data=!4m7!3m6!1s0x47052dcd09163bd7:0xa123667b0fcd3b0f!8m2!3d51.9045806!4d17.7827365!16s%2Fg%2F1hc10dbzq!19sChIJ1zsWCc0tBUcRDzvND3tmI6E?authuser=0&hl=tr&rclk=1",
    "website_url": "",
    "rating_text": "4,3",
    "stars": null,
    "number_of_reviews": null,
    "price_level": "",
    "open_hours": "",
    "extraction_timestamp": "2025-06-07T17:27:40.748Z",
    "source_name": "google",
    "source_query": "Irrigation Equipment",
    "source_country": "PL",
    "country": "Poland",
    "state": "Greater Poland Voivodeship",
    "city": "Pleszew"
  },
  {
    "source_id": "ChIJj_GjRX4tBUcRNdMCOLpd4XI",
    "name": "ISW Instalacje Sanitarne Oskar Wojtkowiak",
    "category": "ISW Instalacje Sanitarne Oskar Wojtkowiak",
    "formatted_address": "5,0(3)",
    "phone_number": "+48607759937",
    "source_url": "https://www.google.com/maps/place/ISW+Instalacje+Sanitarne+Oskar+Wojtkowiak/data=!4m7!3m6!1s0x47052d7e45a3f18f:0x72e15dba3802d335!8m2!3d51.9009304!4d17.7658276!16s%2Fg%2F11szd2rpt5!19sChIJj_GjRX4tBUcRNdMCOLpd4XI?authuser=0&hl=tr&rclk=1",
    "website_url": "",
    "rating_text": "5,0",
    "stars": null,
    "number_of_reviews": null,
    "price_level": "",
    "open_hours": "",
    "extraction_timestamp": "2025-06-07T17:27:40.749Z",
    "source_name": "google",
    "source_query": "Irrigation Equipment",
    "source_country": "PL",
    "country": "Poland",
    "state": "Greater Poland Voivodeship",
    "city": "Pleszew"
  },
  {
    "source_id": "ChIJ8ycGCrotBUcR8v2orLM9mCo",
    "name": "Bricomarché",
    "category": "Bricomarché",
    "formatted_address": "4,1(908)",
    "phone_number": "+48627688190",
    "source_url": "https://www.google.com/maps/place/Bricomarch%C3%A9/data=!4m7!3m6!1s0x47052dba0a0627f3:0x2a983db3aca8fdf2!8m2!3d51.8941616!4d17.7994371!16s%2Fg%2F11b6t2b351!19sChIJ8ycGCrotBUcR8v2orLM9mCo?authuser=0&hl=tr&rclk=1",
    "website_url": "",
    "rating_text": "4,1",
    "stars": null,
    "number_of_reviews": null,
    "price_level": "",
    "open_hours": "",
    "extraction_timestamp": "2025-06-07T17:27:40.751Z",
    "source_name": "google",
    "source_query": "Irrigation Equipment",
    "source_country": "PL",
    "country": "Poland",
    "state": "Greater Poland Voivodeship",
    "city": "Pleszew"
  },
  {
    "source_id": "ChIJWdltVsEtBUcRwTDNo2X5T3g",
    "name": "ROLBUD- Pleszew",
    "category": "ROLBUD- Pleszew",
    "formatted_address": "4,5(14)",
    "phone_number": "+48627422183",
    "source_url": "https://www.google.com/maps/place/ROLBUD-+Pleszew/data=!4m7!3m6!1s0x47052dc1566dd959:0x784ff965a3cd30c1!8m2!3d51.8915191!4d17.7805937!16s%2Fg%2F1trvk3sd!19sChIJWdltVsEtBUcRwTDNo2X5T3g?authuser=0&hl=tr&rclk=1",
    "website_url": "",
    "rating_text": "4,5",
    "stars": null,
    "number_of_reviews": null,
    "price_level": "",
    "open_hours": "",
    "extraction_timestamp": "2025-06-07T17:27:40.752Z",
    "source_name": "google",
    "source_query": "Irrigation Equipment",
    "source_country": "PL",
    "country": "Poland",
    "state": "Greater Poland Voivodeship",
    "city": "Pleszew"
  },
  {
    "source_id": "ChIJv-UmSJotBUcRJqrDW646Vf4",
    "name": "ENER Emilian Szehyński",
    "category": "ENER Emilian Szehyński",
    "formatted_address": "5,0(3)",
    "phone_number": "+48888258517",
    "source_url": "https://www.google.com/maps/place/ENER+Emilian+Szehy%C5%84ski/data=!4m7!3m6!1s0x47052d9a4826e5bf:0xfe553aae5bc3aa26!8m2!3d52.3797562!4d17.4406732!16s%2Fg%2F11gnp4g7vv!19sChIJv-UmSJotBUcRJqrDW646Vf4?authuser=0&hl=tr&rclk=1",
    "website_url": "",
    "rating_text": "5,0",
    "stars": null,
    "number_of_reviews": null,
    "price_level": "",
    "open_hours": "",
    "extraction_timestamp": "2025-06-07T17:27:40.753Z",
    "source_name": "google",
    "source_query": "Irrigation Equipment",
    "source_country": "PL",
    "country": "Poland",
    "state": "Greater Poland Voivodeship",
    "city": "Pleszew"
  },
  {
    "source_id": "ChIJqW5Ync0tBUcRN-uZg6RZgos",
    "name": "Pompy Ciepła Montaż - HPU CoVent",
    "category": "Pompy Ciepła Montaż - HPU CoVent",
    "formatted_address": "5,0(7)",
    "phone_number": "+48603155226",
    "source_url": "https://www.google.com/maps/place/Pompy+Ciep%C5%82a+Monta%C5%BC+-+HPU+CoVent/data=!4m7!3m6!1s0x47052dcd9d586ea9:0x8b8259a48399eb37!8m2!3d51.8951021!4d17.7767691!16s%2Fg%2F11khbbyqxz!19sChIJqW5Ync0tBUcRN-uZg6RZgos?authuser=0&hl=tr&rclk=1",
    "website_url": "",
    "rating_text": "5,0",
    "stars": null,
    "number_of_reviews": null,
    "price_level": "",
    "open_hours": "",
    "extraction_timestamp": "2025-06-07T17:27:40.754Z",
    "source_name": "google",
    "source_query": "Irrigation Equipment",
    "source_country": "PL",
    "country": "Poland",
    "state": "Greater Poland Voivodeship",
    "city": "Pleszew"
  },
  {
    "source_id": "ChIJ-_d2u7gtBUcRvfN9Uk46Ni8",
    "name": "Kotły 24 FHU J. Orłowski - Sprzedaż internetowa",
    "category": "Kotły 24 FHU J. Orłowski - Sprzedaż internetowa",
    "formatted_address": "5,0(2)",
    "phone_number": "+48532532262",
    "source_url": "https://www.google.com/maps/place/Kot%C5%82y+24+FHU+J.+Or%C5%82owski+-+Sprzeda%C5%BC+internetowa/data=!4m7!3m6!1s0x47052db8bb76f7fb:0x2f363a4e527df3bd!8m2!3d51.8865119!4d17.7797999!16s%2Fg%2F11l_gxwcf3!19sChIJ-_d2u7gtBUcRvfN9Uk46Ni8?authuser=0&hl=tr&rclk=1",
    "website_url": "",
    "rating_text": "5,0",
    "stars": null,
    "number_of_reviews": null,
    "price_level": "",
    "open_hours": "",
    "extraction_timestamp": "2025-06-07T17:27:40.755Z",
    "source_name": "google",
    "source_query": "Irrigation Equipment",
    "source_country": "PL",
    "country": "Poland",
    "state": "Greater Poland Voivodeship",
    "city": "Pleszew"
  },
  {
    "source_id": "ChIJH0tpQaD7BEcRYQQ-PETrOIQ",
    "name": "ASW TECHNIK",
    "category": "ASW TECHNIK",
    "formatted_address": "4,8(46)",
    "phone_number": "+48577887997",
    "source_url": "https://www.google.com/maps/place/ASW+TECHNIK/data=!4m7!3m6!1s0x4704fba041694b1f:0x8438eb443c3e0461!8m2!3d52.2275708!4d17.2607921!16s%2Fg%2F11h_sld0sr!19sChIJH0tpQaD7BEcRYQQ-PETrOIQ?authuser=0&hl=tr&rclk=1",
    "website_url": "",
    "rating_text": "4,8",
    "stars": null,
    "number_of_reviews": null,
    "price_level": "",
    "open_hours": "",
    "extraction_timestamp": "2025-06-07T17:27:40.756Z",
    "source_name": "google",
    "source_query": "Irrigation Equipment",
    "source_country": "PL",
    "country": "Poland",
    "state": "Greater Poland Voivodeship",
    "city": "Pleszew"
  },
  {
    "source_id": "ChIJ31PA_MUtBUcR7jW_R3DkDrI",
    "name": "POLOmarket",
    "category": "POLOmarket",
    "formatted_address": "3,8(237)",
    "phone_number": "+48627422530",
    "source_url": "https://www.google.com/maps/place/POLOmarket/data=!4m7!3m6!1s0x47052dc5fcc053df:0xb20ee47047bf35ee!8m2!3d51.8959389!4d17.7811584!16s%2Fg%2F1hc248f7_!19sChIJ31PA_MUtBUcR7jW_R3DkDrI?authuser=0&hl=tr&rclk=1",
    "website_url": "",
    "rating_text": "3,8",
    "stars": null,
    "number_of_reviews": null,
    "price_level": "",
    "open_hours": "",
    "extraction_timestamp": "2025-06-07T17:27:40.757Z",
    "source_name": "google",
    "source_query": "Irrigation Equipment",
    "source_country": "PL",
    "country": "Poland",
    "state": "Greater Poland Voivodeship",
    "city": "Pleszew"
  },
  {
    "source_id": "ChIJTR82-cItBUcRuyrNbcukz_w",
    "name": "Sklep Piwosza Hurt Detal",
    "category": "Sklep Piwosza Hurt Detal",
    "formatted_address": "4,9(20)",
    "phone_number": "+48535425425",
    "source_url": "https://www.google.com/maps/place/Sklep+Piwosza+Hurt+Detal/data=!4m7!3m6!1s0x47052dc2f9361f4d:0xfccfa4cb6dcd2abb!8m2!3d51.8898503!4d17.7748601!16s%2Fg%2F11fkmz4__2!19sChIJTR82-cItBUcRuyrNbcukz_w?authuser=0&hl=tr&rclk=1",
    "website_url": "",
    "rating_text": "4,9",
    "stars": null,
    "number_of_reviews": null,
    "price_level": "",
    "open_hours": "",
    "extraction_timestamp": "2025-06-07T17:27:40.758Z",
    "source_name": "google",
    "source_query": "Irrigation Equipment",
    "source_country": "PL",
    "country": "Poland",
    "state": "Greater Poland Voivodeship",
    "city": "Pleszew"
  },
  {
    "source_id": "ChIJ4x0MjfwtBUcRxDhKmIRQ9D0",
    "name": "M AGD-RTV Marcin Nowak",
    "category": "M AGD-RTV Marcin Nowak",
    "formatted_address": "5,0(54)",
    "phone_number": "+48604899112",
    "source_url": "https://www.google.com/maps/place/M+AGD-RTV+Marcin+Nowak/data=!4m7!3m6!1s0x47052dfc8d0c1de3:0x3df45084984a38c4!8m2!3d51.8955!4d17.7880975!16s%2Fg%2F11h11n0hdh!19sChIJ4x0MjfwtBUcRxDhKmIRQ9D0?authuser=0&hl=tr&rclk=1",
    "website_url": "",
    "rating_text": "5,0",
    "stars": null,
    "number_of_reviews": null,
    "price_level": "",
    "open_hours": "",
    "extraction_timestamp": "2025-06-07T17:27:40.759Z",
    "source_name": "google",
    "source_query": "Irrigation Equipment",
    "source_country": "PL",
    "country": "Poland",
    "state": "Greater Poland Voivodeship",
    "city": "Pleszew"
  },
  {
    "source_id": "ChIJ8SpfQGMlBUcRyWMhywVufJg",
    "name": "FOLREC",
    "category": "FOLREC",
    "formatted_address": "5,0(44)",
    "phone_number": "+48533393351",
    "source_url": "https://www.google.com/maps/place/FOLREC/data=!4m7!3m6!1s0x47052563405f2af1:0x987c6e05cb2163c9!8m2!3d51.9409672!4d17.5485101!16s%2Fg%2F11fjs3vzn0!19sChIJ8SpfQGMlBUcRyWMhywVufJg?authuser=0&hl=tr&rclk=1",
    "website_url": "",
    "rating_text": "5,0",
    "stars": null,
    "number_of_reviews": null,
    "price_level": "",
    "open_hours": "",
    "extraction_timestamp": "2025-06-07T17:27:40.760Z",
    "source_name": "google",
    "source_query": "Irrigation Equipment",
    "source_country": "PL",
    "country": "Poland",
    "state": "Greater Poland Voivodeship",
    "city": "Pleszew"
  },
  {
    "source_id": "ChIJO1UtdJotBUcRXZBXPhGJq78",
    "name": "Sanitex",
    "category": "Sanitex",
    "formatted_address": "4,9(26)",
    "phone_number": "+48627418275",
    "source_url": "https://www.google.com/maps/place/Sanitex/data=!4m7!3m6!1s0x47052d9a742d553b:0xbfab89113e57905d!8m2!3d51.8602544!4d17.8008062!16s%2Fg%2F1tdkfbnc!19sChIJO1UtdJotBUcRXZBXPhGJq78?authuser=0&hl=tr&rclk=1",
    "website_url": "",
    "rating_text": "4,9",
    "stars": null,
    "number_of_reviews": null,
    "price_level": "",
    "open_hours": "",
    "extraction_timestamp": "2025-06-07T17:27:40.761Z",
    "source_name": "google",
    "source_query": "Irrigation Equipment",
    "source_country": "PL",
    "country": "Poland",
    "state": "Greater Poland Voivodeship",
    "city": "Pleszew"
  },
  {
    "source_id": "ChIJ40ssEMctBUcRd_-Owa0Nek0",
    "name": "Akces. Przedsiębiorstwo motoryzacyjne",
    "category": "Akces. Przedsiębiorstwo motoryzacyjne",
    "formatted_address": "4,6(163)",
    "phone_number": "+48627426892",
    "source_url": "https://www.google.com/maps/place/Akces.+Przedsi%C4%99biorstwo+motoryzacyjne/data=!4m7!3m6!1s0x47052dc7102c4be3:0x4d7a0dadc18eff77!8m2!3d51.892974!4d17.7863937!16s%2Fg%2F1tk9pgl8!19sChIJ40ssEMctBUcRd_-Owa0Nek0?authuser=0&hl=tr&rclk=1",
    "website_url": "",
    "rating_text": "4,6",
    "stars": null,
    "number_of_reviews": null,
    "price_level": "",
    "open_hours": "",
    "extraction_timestamp": "2025-06-07T17:27:40.762Z",
    "source_name": "google",
    "source_query": "Irrigation Equipment",
    "source_country": "PL",
    "country": "Poland",
    "state": "Greater Poland Voivodeship",
    "city": "Pleszew"
  },
  {
    "source_id": "ChIJPxAOm5q1GkcRurokjr43GYU",
    "name": "Adventure Park Piaski Szczygliczka",
    "category": "Adventure Park Piaski Szczygliczka",
    "formatted_address": "4,6(1.140)",
    "phone_number": "",
    "source_url": "https://www.google.com/maps/place/Adventure+Park+Piaski+Szczygliczka/data=!4m7!3m6!1s0x471ab59a9b0e103f:0x851937be8e24baba!8m2!3d51.6692029!4d17.8156831!16s%2Fg%2F1q6jzg7nf!19sChIJPxAOm5q1GkcRurokjr43GYU?authuser=0&hl=tr&rclk=1",
    "website_url": "",
    "rating_text": "4,6",
    "stars": null,
    "number_of_reviews": null,
    "price_level": "",
    "open_hours": "",
    "extraction_timestamp": "2025-06-07T17:27:40.763Z",
    "source_name": "google",
    "source_query": "Irrigation Equipment",
    "source_country": "PL",
    "country": "Poland",
    "state": "Greater Poland Voivodeship",
    "city": "Pleszew"
  }
]
