[
  {
    "source_id": "ChIJFVCITOVPBEcRG-lA_g1qlqk",
    "name": "Technika Wody",
    "category": "Technika Wody",
    "formatted_address": "4,6(288)",
    "phone_number": "+48502506622",
    "source_url": "https://www.google.com/maps/place/Technika+Wody/data=!4m7!3m6!1s0x47044fe54c885015:0xa9966a0dfe40e91b!8m2!3d52.3740842!4d16.819808!16s%2Fg%2F11b7vsdjf5!19sChIJFVCITOVPBEcRG-lA_g1qlqk?authuser=0&hl=tr&rclk=1",
    "website_url": "",
    "rating_text": "4,6",
    "stars": null,
    "number_of_reviews": null,
    "price_level": "",
    "open_hours": "",
    "extraction_timestamp": "2025-06-07T17:56:49.438Z",
    "source_name": "google",
    "source_query": "Irrigation Equipment",
    "source_country": "PL",
    "country": "Poland",
    "state": "Greater Poland Voivodeship",
    "city": "Plewiska"
  },
  {
    "source_id": "ChIJ4eE8NClFBEcRgLYLiM4zF7s",
    "name": "Infrashop - Ogrzewanie na podczerwień Poznań/Plewiska",
    "category": "Infrashop - Ogrzewanie na podczerwień Poznań/Plewiska",
    "formatted_address": "4,6(104)",
    "phone_number": "+48662339811",
    "source_url": "https://www.google.com/maps/place/Infrashop+-+Ogrzewanie+na+podczerwie%C5%84+Pozna%C5%84%2FPlewiska/data=!4m7!3m6!1s0x47044529343ce1e1:0xbb1733ce880bb680!8m2!3d52.37516!4d16.822096!16s%2Fg%2F1hc1kc7__!19sChIJ4eE8NClFBEcRgLYLiM4zF7s?authuser=0&hl=tr&rclk=1",
    "website_url": "",
    "rating_text": "4,6",
    "stars": null,
    "number_of_reviews": null,
    "price_level": "",
    "open_hours": "",
    "extraction_timestamp": "2025-06-07T17:56:49.439Z",
    "source_name": "google",
    "source_query": "Irrigation Equipment",
    "source_country": "PL",
    "country": "Poland",
    "state": "Greater Poland Voivodeship",
    "city": "Plewiska"
  },
  {
    "source_id": "ChIJF_BK05xFBEcRr37Xzw3LHSs",
    "name": "Hydromedia Sp. z o.o.",
    "category": "Hydromedia Sp. z o.o.",
    "formatted_address": "3,0(2)",
    "phone_number": "+48720111213",
    "source_url": "https://www.google.com/maps/place/Hydromedia+Sp.+z+o.o./data=!4m7!3m6!1s0x4704459cd34af017:0x2b1dcb0dcfd77eaf!8m2!3d52.368424!4d16.811943!16s%2Fg%2F1tgxgs2s!19sChIJF_BK05xFBEcRr37Xzw3LHSs?authuser=0&hl=tr&rclk=1",
    "website_url": "",
    "rating_text": "3,0",
    "stars": null,
    "number_of_reviews": null,
    "price_level": "",
    "open_hours": "",
    "extraction_timestamp": "2025-06-07T17:56:49.440Z",
    "source_name": "google",
    "source_query": "Irrigation Equipment",
    "source_country": "PL",
    "country": "Poland",
    "state": "Greater Poland Voivodeship",
    "city": "Plewiska"
  },
  {
    "source_id": "ChIJXdg82B5FBEcRy2KG0y9S6Qk",
    "name": "Technika Spawalnicza Sp. z o.o.",
    "category": "Technika Spawalnicza Sp. z o.o.",
    "formatted_address": "4,8(65)",
    "phone_number": "+48618628161",
    "source_url": "https://www.google.com/maps/place/Technika+Spawalnicza+Sp.+z+o.o./data=!4m7!3m6!1s0x4704451ed83cd85d:0x9e9522fd38662cb!8m2!3d52.3516399!4d16.829983!16s%2Fg%2F1w2ysl2k!19sChIJXdg82B5FBEcRy2KG0y9S6Qk?authuser=0&hl=tr&rclk=1",
    "website_url": "",
    "rating_text": "4,8",
    "stars": null,
    "number_of_reviews": null,
    "price_level": "",
    "open_hours": "",
    "extraction_timestamp": "2025-06-07T17:56:49.441Z",
    "source_name": "google",
    "source_query": "Irrigation Equipment",
    "source_country": "PL",
    "country": "Poland",
    "state": "Greater Poland Voivodeship",
    "city": "Plewiska"
  },
  {
    "source_id": "ChIJhyqmg3VFBEcRUotoVRbXZI0",
    "name": "Brocar sp. Z O. O.",
    "category": "Brocar sp. Z O. O.",
    "formatted_address": "4,4(19)",
    "phone_number": "+48663174382",
    "source_url": "https://www.google.com/maps/place/Brocar+sp.+Z+O.+O./data=!4m7!3m6!1s0x4704457583a62a87:0x8d64d71655688b52!8m2!3d52.3772977!4d16.8256485!16s%2Fg%2F11h6g14lhb!19sChIJhyqmg3VFBEcRUotoVRbXZI0?authuser=0&hl=tr&rclk=1",
    "website_url": "",
    "rating_text": "4,4",
    "stars": null,
    "number_of_reviews": null,
    "price_level": "",
    "open_hours": "",
    "extraction_timestamp": "2025-06-07T17:56:49.441Z",
    "source_name": "google",
    "source_query": "Irrigation Equipment",
    "source_country": "PL",
    "country": "Poland",
    "state": "Greater Poland Voivodeship",
    "city": "Plewiska"
  },
  {
    "source_id": "ChIJi8-lNFtFBEcRSxEKWj38OpU",
    "name": "Pajo Centrum - Market Remontowo Budowlany",
    "category": "Pajo Centrum - Market Remontowo Budowlany",
    "formatted_address": "4,9(120)",
    "phone_number": "+48515197355",
    "source_url": "https://www.google.com/maps/place/Pajo+Centrum+-+Market+Remontowo+Budowlany/data=!4m7!3m6!1s0x4704455b34a5cf8b:0x953afc3d5a0a114b!8m2!3d52.369849!4d16.813918!16s%2Fg%2F11qpy31smp!19sChIJi8-lNFtFBEcRSxEKWj38OpU?authuser=0&hl=tr&rclk=1",
    "website_url": "",
    "rating_text": "4,9",
    "stars": null,
    "number_of_reviews": null,
    "price_level": "",
    "open_hours": "",
    "extraction_timestamp": "2025-06-07T17:56:49.442Z",
    "source_name": "google",
    "source_query": "Irrigation Equipment",
    "source_country": "PL",
    "country": "Poland",
    "state": "Greater Poland Voivodeship",
    "city": "Plewiska"
  },
  {
    "source_id": "ChIJ4zc6v4hZBEcRKah1mzKBwPg",
    "name": "PHU \"ADVISER\" - Systemy nawadniania",
    "category": "PHU \"ADVISER\" - Systemy nawadniania",
    "formatted_address": "4,8(123)",
    "phone_number": "+48618798700",
    "source_url": "https://www.google.com/maps/place/PHU+%22ADVISER%22+-+Systemy+nawadniania/data=!4m7!3m6!1s0x47045988bf3a37e3:0xf8c081329b75a829!8m2!3d52.3434333!4d17.0287055!16s%2Fg%2F1w3459w5!19sChIJ4zc6v4hZBEcRKah1mzKBwPg?authuser=0&hl=tr&rclk=1",
    "website_url": "",
    "rating_text": "4,8",
    "stars": null,
    "number_of_reviews": null,
    "price_level": "",
    "open_hours": "",
    "extraction_timestamp": "2025-06-07T17:56:49.443Z",
    "source_name": "google",
    "source_query": "Irrigation Equipment",
    "source_country": "PL",
    "country": "Poland",
    "state": "Greater Poland Voivodeship",
    "city": "Plewiska"
  },
  {
    "source_id": "ChIJ74ukJW5cBEcRpyZ65VPj4ns",
    "name": "Ecowater EMEA Sp. z o.o.",
    "category": "Ecowater EMEA Sp. z o.o.",
    "formatted_address": "4,6(53)",
    "phone_number": "+48612260500",
    "source_url": "https://www.google.com/maps/place/Ecowater+EMEA+Sp.+z+o.o./data=!4m7!3m6!1s0x47045c6e25a48bef:0x7be2e353e57a26a7!8m2!3d52.3800751!4d16.7637005!16s%2Fg%2F11b778b6pq!19sChIJ74ukJW5cBEcRpyZ65VPj4ns?authuser=0&hl=tr&rclk=1",
    "website_url": "",
    "rating_text": "4,6",
    "stars": null,
    "number_of_reviews": null,
    "price_level": "",
    "open_hours": "",
    "extraction_timestamp": "2025-06-07T17:56:49.444Z",
    "source_name": "google",
    "source_query": "Irrigation Equipment",
    "source_country": "PL",
    "country": "Poland",
    "state": "Greater Poland Voivodeship",
    "city": "Plewiska"
  },
  {
    "source_id": "ChIJK2UVkgZFBEcRoEyRaeZpBEg",
    "name": "Technika Sceny",
    "category": "Technika Sceny",
    "formatted_address": "5,0(29)",
    "phone_number": "+48618770800",
    "source_url": "https://www.google.com/maps/place/Technika+Sceny/data=!4m7!3m6!1s0x470445069215652b:0x480469e669914ca0!8m2!3d52.3707719!4d16.823883!16s%2Fg%2F1vg6sflf!19sChIJK2UVkgZFBEcRoEyRaeZpBEg?authuser=0&hl=tr&rclk=1",
    "website_url": "",
    "rating_text": "5,0",
    "stars": null,
    "number_of_reviews": null,
    "price_level": "",
    "open_hours": "",
    "extraction_timestamp": "2025-06-07T17:56:49.445Z",
    "source_name": "google",
    "source_query": "Irrigation Equipment",
    "source_country": "PL",
    "country": "Poland",
    "state": "Greater Poland Voivodeship",
    "city": "Plewiska"
  },
  {
    "source_id": "ChIJQdUB8pxFBEcRBOKVgFVhCeA",
    "name": "Zieleniak. Sklep spożywczo - warzywniczy. Agabart",
    "category": "Zieleniak. Sklep spożywczo - warzywniczy. Agabart",
    "formatted_address": "4,4(63)",
    "phone_number": "+48618998227",
    "source_url": "https://www.google.com/maps/place/Zieleniak.+Sklep+spo%C5%BCywczo+-+warzywniczy.+Agabart/data=!4m7!3m6!1s0x4704459cf201d541:0xe00961558095e204!8m2!3d52.3722365!4d16.8155916!16s%2Fg%2F1hc547qf6!19sChIJQdUB8pxFBEcRBOKVgFVhCeA?authuser=0&hl=tr&rclk=1",
    "website_url": "",
    "rating_text": "4,4",
    "stars": null,
    "number_of_reviews": null,
    "price_level": "",
    "open_hours": "",
    "extraction_timestamp": "2025-06-07T17:56:49.446Z",
    "source_name": "google",
    "source_query": "Irrigation Equipment",
    "source_country": "PL",
    "country": "Poland",
    "state": "Greater Poland Voivodeship",
    "city": "Plewiska"
  },
  {
    "source_id": "ChIJT4YK4otPBEcRVW3I5xIKQXs",
    "name": "Leroy Merlin",
    "category": "Leroy Merlin",
    "formatted_address": "4,2(4.788)",
    "phone_number": "+48618998800",
    "source_url": "https://www.google.com/maps/place/Leroy+Merlin/data=!4m7!3m6!1s0x47044f8be20a864f:0x7b410a12e7c86d55!8m2!3d52.3520819!4d16.833652!16s%2Fg%2F1tf1mj64!19sChIJT4YK4otPBEcRVW3I5xIKQXs?authuser=0&hl=tr&rclk=1",
    "website_url": "",
    "rating_text": "4,2",
    "stars": null,
    "number_of_reviews": null,
    "price_level": "",
    "open_hours": "",
    "extraction_timestamp": "2025-06-07T17:56:49.448Z",
    "source_name": "google",
    "source_query": "Irrigation Equipment",
    "source_country": "PL",
    "country": "Poland",
    "state": "Greater Poland Voivodeship",
    "city": "Plewiska"
  },
  {
    "source_id": "ChIJY9wAinVFBEcRS9BwH6pV2Rk",
    "name": "Sklep Ogrodniczy Pastwa T. - Ogrodnictwo",
    "category": "Sklep Ogrodniczy Pastwa T. - Ogrodnictwo",
    "formatted_address": "4,8(486)",
    "phone_number": "+48691058967",
    "source_url": "https://www.google.com/maps/place/Sklep+Ogrodniczy+Pastwa+T.+-+Ogrodnictwo/data=!4m7!3m6!1s0x470445758a00dc63:0x19d955aa1f70d04b!8m2!3d52.3748869!4d16.8210695!16s%2Fg%2F1v_s4lwq!19sChIJY9wAinVFBEcRS9BwH6pV2Rk?authuser=0&hl=tr&rclk=1",
    "website_url": "",
    "rating_text": "4,8",
    "stars": null,
    "number_of_reviews": null,
    "price_level": "",
    "open_hours": "",
    "extraction_timestamp": "2025-06-07T17:56:49.449Z",
    "source_name": "google",
    "source_query": "Irrigation Equipment",
    "source_country": "PL",
    "country": "Poland",
    "state": "Greater Poland Voivodeship",
    "city": "Plewiska"
  },
  {
    "source_id": "ChIJARgx8rlFBEcRtPOb3Ljp1I8",
    "name": "Idealny Dach",
    "category": "Idealny Dach",
    "formatted_address": "4,7(106)",
    "phone_number": "+48509010800",
    "source_url": "https://www.google.com/maps/place/Idealny+Dach/data=!4m7!3m6!1s0x470445b9f2311801:0x8fd4e9b8dc9bf3b4!8m2!3d52.391322!4d16.806571!16s%2Fg%2F1tp25zxh!19sChIJARgx8rlFBEcRtPOb3Ljp1I8?authuser=0&hl=tr&rclk=1",
    "website_url": "",
    "rating_text": "4,7",
    "stars": null,
    "number_of_reviews": null,
    "price_level": "",
    "open_hours": "",
    "extraction_timestamp": "2025-06-07T17:56:49.450Z",
    "source_name": "google",
    "source_query": "Irrigation Equipment",
    "source_country": "PL",
    "country": "Poland",
    "state": "Greater Poland Voivodeship",
    "city": "Plewiska"
  },
  {
    "source_id": "ChIJqfkoPGBFBEcRMcStW1CpLKM",
    "name": "Castorama",
    "category": "Castorama",
    "formatted_address": "4,4(6.394)",
    "phone_number": "+48618348100",
    "source_url": "https://www.google.com/maps/place/Castorama/data=!4m7!3m6!1s0x470445603c28f9a9:0xa32ca9505badc431!8m2!3d52.3567987!4d16.8435038!16s%2Fg%2F11fzvm6wkq!19sChIJqfkoPGBFBEcRMcStW1CpLKM?authuser=0&hl=tr&rclk=1",
    "website_url": "",
    "rating_text": "4,4",
    "stars": null,
    "number_of_reviews": null,
    "price_level": "",
    "open_hours": "",
    "extraction_timestamp": "2025-06-07T17:56:49.451Z",
    "source_name": "google",
    "source_query": "Irrigation Equipment",
    "source_country": "PL",
    "country": "Poland",
    "state": "Greater Poland Voivodeship",
    "city": "Plewiska"
  },
  {
    "source_id": "ChIJK7BzbyJFBEcRGDI7vl5IvSY",
    "name": "HYDROMIL",
    "category": "HYDROMIL",
    "formatted_address": "4,6(11)",
    "phone_number": "+48605578387",
    "source_url": "https://www.google.com/maps/place/HYDROMIL/data=!4m7!3m6!1s0x470445226f73b02b:0x26bd485ebe3b3218!8m2!3d52.3384345!4d16.792845!16s%2Fg%2F11g8b5yn79!19sChIJK7BzbyJFBEcRGDI7vl5IvSY?authuser=0&hl=tr&rclk=1",
    "website_url": "",
    "rating_text": "4,6",
    "stars": null,
    "number_of_reviews": null,
    "price_level": "",
    "open_hours": "",
    "extraction_timestamp": "2025-06-07T17:56:49.452Z",
    "source_name": "google",
    "source_query": "Irrigation Equipment",
    "source_country": "PL",
    "country": "Poland",
    "state": "Greater Poland Voivodeship",
    "city": "Plewiska"
  }
]
