[
  {
    "source_id": "ChIJf7GRw8EmBEcRTv5LgOYrN3A",
    "name": "FAST Gazy techniczne, art. spawalnicze, naboje SodaStream, hel do balonów",
    "category": "FAST Gazy techniczne, art. spawalnicze, naboje SodaStream, hel do balonów",
    "formatted_address": "FAST Gazy techniczne, art. spawalnicze, naboje SodaStream, hel do balonów",
    "phone_number": "+48789113614",
    "source_url": "https://www.google.com/maps/place/FAST+Gazy+techniczne,+art.+spawalnicze,+naboje+SodaStream,+hel+do+balon%C3%B3w/data=!4m7!3m6!1s0x470426c1c391b17f:0x70372be6804bfe4e!8m2!3d52.5037169!4d16.2775731!16s%2Fg%2F1vcl2gf1!19sChIJf7GRw8EmBEcRTv5LgOYrN3A?authuser=0&hl=tr&rclk=1",
    "website_url": "",
    "rating_text": "5,0",
    "stars": null,
    "number_of_reviews": null,
    "price_level": "",
    "open_hours": "",
    "extraction_timestamp": "2025-06-07T17:24:32.203Z",
    "source_name": "google",
    "source_query": "Irrigation Equipment",
    "source_country": "PL",
    "country": "Poland",
    "state": "Greater Poland Voivodeship",
    "city": "Pniewy"
  },
  {
    "source_id": "ChIJL1IyNNQmBEcR5GFfDUXL7ko",
    "name": "KACZMAREK \"MAJSTER\"",
    "category": "KACZMAREK \"MAJSTER\"",
    "formatted_address": "4,8(435)",
    "phone_number": "+48612911556",
    "source_url": "https://www.google.com/maps/place/KACZMAREK+%22MAJSTER%22/data=!4m7!3m6!1s0x470426d43432522f:0x4aeecb450d5f61e4!8m2!3d52.521949!4d16.266327!16s%2Fg%2F1tngnzvb!19sChIJL1IyNNQmBEcR5GFfDUXL7ko?authuser=0&hl=tr&rclk=1",
    "website_url": "",
    "rating_text": "4,8",
    "stars": null,
    "number_of_reviews": null,
    "price_level": "",
    "open_hours": "",
    "extraction_timestamp": "2025-06-07T17:24:32.204Z",
    "source_name": "google",
    "source_query": "Irrigation Equipment",
    "source_country": "PL",
    "country": "Poland",
    "state": "Greater Poland Voivodeship",
    "city": "Pniewy"
  },
  {
    "source_id": "ChIJraIAlignBEcR3q6IZ92JWzk",
    "name": "Pniewskie Przedsiębiorstwo Komunalne Sp. z o.o.",
    "category": "Pniewskie Przedsiębiorstwo Komunalne Sp. z o.o.",
    "formatted_address": "3,3(7)",
    "phone_number": "+48612910320",
    "source_url": "https://www.google.com/maps/place/Pniewskie+Przedsi%C4%99biorstwo+Komunalne+Sp.+z+o.o./data=!4m7!3m6!1s0x470427289600a2ad:0x395b89dd6788aede!8m2!3d52.5186677!4d16.2561017!16s%2Fg%2F1v6wn00n!19sChIJraIAlignBEcR3q6IZ92JWzk?authuser=0&hl=tr&rclk=1",
    "website_url": "",
    "rating_text": "3,3",
    "stars": null,
    "number_of_reviews": null,
    "price_level": "",
    "open_hours": "",
    "extraction_timestamp": "2025-06-07T17:24:32.206Z",
    "source_name": "google",
    "source_query": "Irrigation Equipment",
    "source_country": "PL",
    "country": "Poland",
    "state": "Greater Poland Voivodeship",
    "city": "Pniewy"
  },
  {
    "source_id": "ChIJ7QeMCh8nBEcRm4YaRDhjenk",
    "name": "Ant Pniewy Instal-Met",
    "category": "Ant Pniewy Instal-Met",
    "formatted_address": "4,3(242)",
    "phone_number": "+48612911532",
    "source_url": "https://www.google.com/maps/place/Ant+Pniewy+Instal-Met/data=!4m7!3m6!1s0x4704271f0a8c07ed:0x797a6338441a869b!8m2!3d52.5057058!4d16.2490585!16s%2Fg%2F11h02mqp_!19sChIJ7QeMCh8nBEcRm4YaRDhjenk?authuser=0&hl=tr&rclk=1",
    "website_url": "",
    "rating_text": "4,3",
    "stars": null,
    "number_of_reviews": null,
    "price_level": "",
    "open_hours": "",
    "extraction_timestamp": "2025-06-07T17:24:32.207Z",
    "source_name": "google",
    "source_query": "Irrigation Equipment",
    "source_country": "PL",
    "country": "Poland",
    "state": "Greater Poland Voivodeship",
    "city": "Pniewy"
  },
  {
    "source_id": "ChIJ9eSw978nBEcRXYm3Noknw4w",
    "name": "Market Irena Chata Polska Pniewy",
    "category": "Market Irena Chata Polska Pniewy",
    "formatted_address": "4,5(209)",
    "phone_number": "+48612936091",
    "source_url": "https://www.google.com/maps/place/Market+Irena+Chata+Polska+Pniewy/data=!4m7!3m6!1s0x470427bff7b0e4f5:0x8cc3278936b7895d!8m2!3d52.5065157!4d16.2655794!16s%2Fg%2F11gmwxhmn4!19sChIJ9eSw978nBEcRXYm3Noknw4w?authuser=0&hl=tr&rclk=1",
    "website_url": "",
    "rating_text": "4,5",
    "stars": null,
    "number_of_reviews": null,
    "price_level": "",
    "open_hours": "",
    "extraction_timestamp": "2025-06-07T17:24:32.208Z",
    "source_name": "google",
    "source_query": "Irrigation Equipment",
    "source_country": "PL",
    "country": "Poland",
    "state": "Greater Poland Voivodeship",
    "city": "Pniewy"
  },
  {
    "source_id": "ChIJb4IcgiAnBEcRLefb3eFK0fg",
    "name": "Yugo Sklep",
    "category": "Yugo Sklep",
    "formatted_address": "4,6(70)",
    "phone_number": "",
    "source_url": "https://www.google.com/maps/place/Yugo+Sklep/data=!4m7!3m6!1s0x47042720821c826f:0xf8d14ae1dddbe72d!8m2!3d52.509133!4d16.253799!16s%2Fg%2F1tl7mdw1!19sChIJb4IcgiAnBEcRLefb3eFK0fg?authuser=0&hl=tr&rclk=1",
    "website_url": "",
    "rating_text": "4,6",
    "stars": null,
    "number_of_reviews": null,
    "price_level": "",
    "open_hours": "",
    "extraction_timestamp": "2025-06-07T17:24:32.208Z",
    "source_name": "google",
    "source_query": "Irrigation Equipment",
    "source_country": "PL",
    "country": "Poland",
    "state": "Greater Poland Voivodeship",
    "city": "Pniewy"
  },
  {
    "source_id": "ChIJYzX0eSAnBEcR56p-RH445YQ",
    "name": "Sklep drogeryjno - chemiczny",
    "category": "Sklep drogeryjno - chemiczny",
    "formatted_address": "5,0(2)",
    "phone_number": "+48612911515",
    "source_url": "https://www.google.com/maps/place/Sklep+drogeryjno+-+chemiczny/data=!4m7!3m6!1s0x4704272079f43563:0x84e5387e447eaae7!8m2!3d52.5082286!4d16.2529152!16s%2Fg%2F1xtf085t!19sChIJYzX0eSAnBEcR56p-RH445YQ?authuser=0&hl=tr&rclk=1",
    "website_url": "",
    "rating_text": "5,0",
    "stars": null,
    "number_of_reviews": null,
    "price_level": "",
    "open_hours": "",
    "extraction_timestamp": "2025-06-07T17:24:32.209Z",
    "source_name": "google",
    "source_query": "Irrigation Equipment",
    "source_country": "PL",
    "country": "Poland",
    "state": "Greater Poland Voivodeship",
    "city": "Pniewy"
  },
  {
    "source_id": "ChIJdRApV98mBEcRq7Q9AqXRhCc",
    "name": "SPAR",
    "category": "SPAR",
    "formatted_address": "4,1(453)",
    "phone_number": "+48516202246",
    "source_url": "https://www.google.com/maps/place/SPAR/data=!4m7!3m6!1s0x470426df57291075:0x2784d1a5023db4ab!8m2!3d52.511513!4d16.255983!16s%2Fg%2F1tg85bvx!19sChIJdRApV98mBEcRq7Q9AqXRhCc?authuser=0&hl=tr&rclk=1",
    "website_url": "",
    "rating_text": "4,1",
    "stars": null,
    "number_of_reviews": null,
    "price_level": "",
    "open_hours": "",
    "extraction_timestamp": "2025-06-07T17:24:32.210Z",
    "source_name": "google",
    "source_query": "Irrigation Equipment",
    "source_country": "PL",
    "country": "Poland",
    "state": "Greater Poland Voivodeship",
    "city": "Pniewy"
  },
  {
    "source_id": "ChIJxbh9e3YnBEcRyVk3jNFnHxM",
    "name": "Market square of the town of Pniewy",
    "category": "Market square of the town of Pniewy",
    "formatted_address": "4,3(211)",
    "phone_number": "",
    "source_url": "https://www.google.com/maps/place/Market+square+of+the+town+of+Pniewy/data=!4m7!3m6!1s0x470427767b7db8c5:0x131f67d18c3759c9!8m2!3d52.5083769!4d16.2522939!16s%2Fg%2F11g4cb9cb_!19sChIJxbh9e3YnBEcRyVk3jNFnHxM?authuser=0&hl=tr&rclk=1",
    "website_url": "",
    "rating_text": "4,3",
    "stars": null,
    "number_of_reviews": null,
    "price_level": "",
    "open_hours": "",
    "extraction_timestamp": "2025-06-07T17:24:32.211Z",
    "source_name": "google",
    "source_query": "Irrigation Equipment",
    "source_country": "PL",
    "country": "Poland",
    "state": "Greater Poland Voivodeship",
    "city": "Pniewy"
  },
  {
    "source_id": "ChIJ13VLUecmBEcRlGAuFYSzqqo",
    "name": "Krystyna. FH. Zgrajek J.",
    "category": "Krystyna. FH. Zgrajek J.",
    "formatted_address": "5,0(1)",
    "phone_number": "+48612911030",
    "source_url": "https://www.google.com/maps/place/Krystyna.+FH.+Zgrajek+J./data=!4m7!3m6!1s0x470426e7514b75d7:0xaaaab384152e6094!8m2!3d52.50486!4d16.26008!16s%2Fg%2F1ptyvrr0f!19sChIJ13VLUecmBEcRlGAuFYSzqqo?authuser=0&hl=tr&rclk=1",
    "website_url": "",
    "rating_text": "5,0",
    "stars": null,
    "number_of_reviews": null,
    "price_level": "",
    "open_hours": "",
    "extraction_timestamp": "2025-06-07T17:24:32.211Z",
    "source_name": "google",
    "source_query": "Irrigation Equipment",
    "source_country": "PL",
    "country": "Poland",
    "state": "Greater Poland Voivodeship",
    "city": "Pniewy"
  },
  {
    "source_id": "ChIJU5GBGiMnBEcRIW0ZILRsGKA",
    "name": "Jezioro Pniewy",
    "category": "Jezioro Pniewy",
    "formatted_address": "4,3(41)",
    "phone_number": "",
    "source_url": "https://www.google.com/maps/place/Jezioro+Pniewy/data=!4m7!3m6!1s0x470427231a819153:0xa0186cb420196d21!8m2!3d52.5119379!4d16.241544!16s%2Fg%2F1237v_rz!19sChIJU5GBGiMnBEcRIW0ZILRsGKA?authuser=0&hl=tr&rclk=1",
    "website_url": "",
    "rating_text": "4,3",
    "stars": null,
    "number_of_reviews": null,
    "price_level": "",
    "open_hours": "",
    "extraction_timestamp": "2025-06-07T17:24:32.212Z",
    "source_name": "google",
    "source_query": "Irrigation Equipment",
    "source_country": "PL",
    "country": "Poland",
    "state": "Greater Poland Voivodeship",
    "city": "Pniewy"
  },
  {
    "source_id": "ChIJO3cw494mBEcR6bLvNxrzvVk",
    "name": "Pepco",
    "category": "Pepco",
    "formatted_address": "4,2(34)",
    "phone_number": "",
    "source_url": "https://www.google.com/maps/place/Pepco/data=!4m7!3m6!1s0x470426dee330773b:0x59bdf31a37efb2e9!8m2!3d52.5088654!4d16.2583731!16s%2Fg%2F11d_7wzgjt!19sChIJO3cw494mBEcR6bLvNxrzvVk?authuser=0&hl=tr&rclk=1",
    "website_url": "",
    "rating_text": "4,2",
    "stars": null,
    "number_of_reviews": null,
    "price_level": "",
    "open_hours": "",
    "extraction_timestamp": "2025-06-07T17:24:32.213Z",
    "source_name": "google",
    "source_query": "Irrigation Equipment",
    "source_country": "PL",
    "country": "Poland",
    "state": "Greater Poland Voivodeship",
    "city": "Pniewy"
  },
  {
    "source_id": "ChIJ4fOj4t4mBEcRB5rgmAfrPr4",
    "name": "Biedronka",
    "category": "Biedronka",
    "formatted_address": "4,0(978)",
    "phone_number": "+48800080010",
    "source_url": "https://www.google.com/maps/place/Biedronka/data=!4m7!3m6!1s0x470426dee2a3f3e1:0xbe3eeb0798e09a07!8m2!3d52.5090961!4d16.2581524!16s%2Fg%2F12qgtxj89!19sChIJ4fOj4t4mBEcRB5rgmAfrPr4?authuser=0&hl=tr&rclk=1",
    "website_url": "",
    "rating_text": "4,0",
    "stars": null,
    "number_of_reviews": null,
    "price_level": "",
    "open_hours": "",
    "extraction_timestamp": "2025-06-07T17:24:32.213Z",
    "source_name": "google",
    "source_query": "Irrigation Equipment",
    "source_country": "PL",
    "country": "Poland",
    "state": "Greater Poland Voivodeship",
    "city": "Pniewy"
  },
  {
    "source_id": "ChIJodVqVpwnBEcRIT2Y6akrXIs",
    "name": "Biedronka",
    "category": "Biedronka",
    "formatted_address": "4,3(685)",
    "phone_number": "+48800080010",
    "source_url": "https://www.google.com/maps/place/Biedronka/data=!4m7!3m6!1s0x4704279c566ad5a1:0x8b5c2ba9e9983d21!8m2!3d52.5058829!4d16.2671268!16s%2Fg%2F11ffv1ghjm!19sChIJodVqVpwnBEcRIT2Y6akrXIs?authuser=0&hl=tr&rclk=1",
    "website_url": "",
    "rating_text": "4,3",
    "stars": null,
    "number_of_reviews": null,
    "price_level": "",
    "open_hours": "",
    "extraction_timestamp": "2025-06-07T17:24:32.214Z",
    "source_name": "google",
    "source_query": "Irrigation Equipment",
    "source_country": "PL",
    "country": "Poland",
    "state": "Greater Poland Voivodeship",
    "city": "Pniewy"
  },
  {
    "source_id": "ChIJG4_7ayAnBEcR2927R2m6U7k",
    "name": "Beata Małecka-Kapela Pniewska Weranda",
    "category": "Beata Małecka-Kapela Pniewska Weranda",
    "formatted_address": "4,8(208) · zł 20–40",
    "phone_number": "+48502645435",
    "source_url": "https://www.google.com/maps/place/Beata+Ma%C5%82ecka-Kapela+Pniewska+Weranda/data=!4m7!3m6!1s0x470427206bfb8f1b:0xb953ba6947bbdddb!8m2!3d52.5080679!4d16.25185!16s%2Fg%2F11c6lw__t1!19sChIJG4_7ayAnBEcR2927R2m6U7k?authuser=0&hl=tr&rclk=1",
    "website_url": "",
    "rating_text": "4,8",
    "stars": null,
    "number_of_reviews": null,
    "price_level": "",
    "open_hours": "",
    "extraction_timestamp": "2025-06-07T17:24:32.216Z",
    "source_name": "google",
    "source_query": "Irrigation Equipment",
    "source_country": "PL",
    "country": "Poland",
    "state": "Greater Poland Voivodeship",
    "city": "Pniewy"
  },
  {
    "source_id": "ChIJv7pnr00nBEcRR_CuP3LAQG8",
    "name": "Lidl",
    "category": "Lidl",
    "formatted_address": "4,8(47)",
    "phone_number": "+48618803000",
    "source_url": "https://www.google.com/maps/place/Lidl/data=!4m7!3m6!1s0x4704274daf67babf:0x6f40c0723faef047!8m2!3d52.5109386!4d16.2542986!16s%2Fg%2F11krrj594f!19sChIJv7pnr00nBEcRR_CuP3LAQG8?authuser=0&hl=tr&rclk=1",
    "website_url": "",
    "rating_text": "4,8",
    "stars": null,
    "number_of_reviews": null,
    "price_level": "",
    "open_hours": "",
    "extraction_timestamp": "2025-06-07T17:24:32.217Z",
    "source_name": "google",
    "source_query": "Irrigation Equipment",
    "source_country": "PL",
    "country": "Poland",
    "state": "Greater Poland Voivodeship",
    "city": "Pniewy"
  },
  {
    "source_id": "ChIJI-SWiBAnBEcR85JHoaUJcSw",
    "name": "Drogeria Rossmann",
    "category": "Drogeria Rossmann",
    "formatted_address": "4,5(86)",
    "phone_number": "+48426139700",
    "source_url": "https://www.google.com/maps/place/Drogeria+Rossmann/data=!4m7!3m6!1s0x470427108896e423:0x2c7109a5a14792f3!8m2!3d52.507615!4d16.255345!16s%2Fg%2F11fctw_l6j!19sChIJI-SWiBAnBEcR85JHoaUJcSw?authuser=0&hl=tr&rclk=1",
    "website_url": "",
    "rating_text": "4,5",
    "stars": null,
    "number_of_reviews": null,
    "price_level": "",
    "open_hours": "",
    "extraction_timestamp": "2025-06-07T17:24:32.218Z",
    "source_name": "google",
    "source_query": "Irrigation Equipment",
    "source_country": "PL",
    "country": "Poland",
    "state": "Greater Poland Voivodeship",
    "city": "Pniewy"
  },
  {
    "source_id": "ChIJKcv28SEnBEcRU8IJ_o9fbPI",
    "name": "Górna Mogielnica",
    "category": "Górna Mogielnica",
    "formatted_address": "3,0(2)",
    "phone_number": "",
    "source_url": "https://www.google.com/maps/place/G%C3%B3rna+Mogielnica/data=!4m7!3m6!1s0x47042721f1f6cb29:0xf26c5f8ffe09c253!8m2!3d52.5084372!4d16.2467369!16s%2Fg%2F11bw77dq4l!19sChIJKcv28SEnBEcRU8IJ_o9fbPI?authuser=0&hl=tr&rclk=1",
    "website_url": "",
    "rating_text": "3,0",
    "stars": null,
    "number_of_reviews": null,
    "price_level": "",
    "open_hours": "",
    "extraction_timestamp": "2025-06-07T17:24:32.219Z",
    "source_name": "google",
    "source_query": "Irrigation Equipment",
    "source_country": "PL",
    "country": "Poland",
    "state": "Greater Poland Voivodeship",
    "city": "Pniewy"
  },
  {
    "source_id": "ChIJf9y8VCohBEcRB679_hEuMYQ",
    "name": "BUD-HUT - Firma Remontowo Budowlana",
    "category": "BUD-HUT - Firma Remontowo Budowlana",
    "formatted_address": "4,1(7)",
    "phone_number": "+48733193208",
    "source_url": "https://www.google.com/maps/place/BUD-HUT+-+Firma+Remontowo+Budowlana/data=!4m7!3m6!1s0x4704212a54bcdc7f:0x84312e11fefdae07!8m2!3d52.5277884!4d16.2700226!16s%2Fg%2F11cst0pgg6!19sChIJf9y8VCohBEcRB679_hEuMYQ?authuser=0&hl=tr&rclk=1",
    "website_url": "",
    "rating_text": "4,1",
    "stars": null,
    "number_of_reviews": null,
    "price_level": "",
    "open_hours": "",
    "extraction_timestamp": "2025-06-07T17:24:32.219Z",
    "source_name": "google",
    "source_query": "Irrigation Equipment",
    "source_country": "PL",
    "country": "Poland",
    "state": "Greater Poland Voivodeship",
    "city": "Pniewy"
  },
  {
    "source_id": "ChIJsdTtlxwnBEcR12XBzFJtHTI",
    "name": "Dino",
    "category": "Dino",
    "formatted_address": "4,4(195)",
    "phone_number": "",
    "source_url": "https://www.google.com/maps/place/Dino/data=!4m7!3m6!1s0x4704271c97edd4b1:0x321d6d52ccc165d7!8m2!3d52.5055613!4d16.2708354!16s%2Fg%2F11h6ywmn6v!19sChIJsdTtlxwnBEcR12XBzFJtHTI?authuser=0&hl=tr&rclk=1",
    "website_url": "",
    "rating_text": "4,4",
    "stars": null,
    "number_of_reviews": null,
    "price_level": "",
    "open_hours": "",
    "extraction_timestamp": "2025-06-07T17:24:32.220Z",
    "source_name": "google",
    "source_query": "Irrigation Equipment",
    "source_country": "PL",
    "country": "Poland",
    "state": "Greater Poland Voivodeship",
    "city": "Pniewy"
  },
  {
    "source_id": "ChIJy8hvhSAnBEcRPe4QqV8-HF4",
    "name": "Monopolowy",
    "category": "Monopolowy",
    "formatted_address": "3,0(2)",
    "phone_number": "",
    "source_url": "https://www.google.com/maps/place/Monopolowy/data=!4m7!3m6!1s0x47042720856fc8cb:0x5e1c3e5fa910ee3d!8m2!3d52.5094711!4d16.2533232!16s%2Fg%2F11rs0jh8q3!19sChIJy8hvhSAnBEcRPe4QqV8-HF4?authuser=0&hl=tr&rclk=1",
    "website_url": "",
    "rating_text": "3,0",
    "stars": null,
    "number_of_reviews": null,
    "price_level": "",
    "open_hours": "",
    "extraction_timestamp": "2025-06-07T17:24:32.221Z",
    "source_name": "google",
    "source_query": "Irrigation Equipment",
    "source_country": "PL",
    "country": "Poland",
    "state": "Greater Poland Voivodeship",
    "city": "Pniewy"
  },
  {
    "source_id": "ChIJd-kdeSAnBEcRvgb9HvZVvjc",
    "name": "Śródmiejska",
    "category": "Śródmiejska",
    "formatted_address": "4,6(42)",
    "phone_number": "+48612910996",
    "source_url": "https://www.google.com/maps/place/%C5%9Ar%C3%B3dmiejska/data=!4m7!3m6!1s0x47042720791de977:0x37be55f61efd06be!8m2!3d52.5084598!4d16.2532901!16s%2Fg%2F1tgy_8v4!19sChIJd-kdeSAnBEcRvgb9HvZVvjc?authuser=0&hl=tr&rclk=1",
    "website_url": "",
    "rating_text": "4,6",
    "stars": null,
    "number_of_reviews": null,
    "price_level": "",
    "open_hours": "",
    "extraction_timestamp": "2025-06-07T17:24:32.222Z",
    "source_name": "google",
    "source_query": "Irrigation Equipment",
    "source_country": "PL",
    "country": "Poland",
    "state": "Greater Poland Voivodeship",
    "city": "Pniewy"
  },
  {
    "source_id": "ChIJ9f_pEvMnBEcROsuJ_gU38_I",
    "name": "Dino",
    "category": "Dino",
    "formatted_address": "4,6(31)",
    "phone_number": "",
    "source_url": "https://www.google.com/maps/place/Dino/data=!4m7!3m6!1s0x470427f312e9fff5:0xf2f33705fe89cb3a!8m2!3d52.5236488!4d16.2689018!16s%2Fg%2F11sbr1y4_b!19sChIJ9f_pEvMnBEcROsuJ_gU38_I?authuser=0&hl=tr&rclk=1",
    "website_url": "",
    "rating_text": "4,6",
    "stars": null,
    "number_of_reviews": null,
    "price_level": "",
    "open_hours": "",
    "extraction_timestamp": "2025-06-07T17:24:32.222Z",
    "source_name": "google",
    "source_query": "Irrigation Equipment",
    "source_country": "PL",
    "country": "Poland",
    "state": "Greater Poland Voivodeship",
    "city": "Pniewy"
  },
  {
    "source_id": "ChIJ18ptvt8mBEcRTorgD1Yda7U",
    "name": "Market Dino",
    "category": "Market Dino",
    "formatted_address": "4,1(369)",
    "phone_number": "",
    "source_url": "https://www.google.com/maps/place/Market+Dino/data=!4m7!3m6!1s0x470426dfbe6dcad7:0xb56b1d560fe08a4e!8m2!3d52.5077385!4d16.2555402!16s%2Fg%2F11clkgxcw0!19sChIJ18ptvt8mBEcRTorgD1Yda7U?authuser=0&hl=tr&rclk=1",
    "website_url": "",
    "rating_text": "4,1",
    "stars": null,
    "number_of_reviews": null,
    "price_level": "",
    "open_hours": "",
    "extraction_timestamp": "2025-06-07T17:24:32.223Z",
    "source_name": "google",
    "source_query": "Irrigation Equipment",
    "source_country": "PL",
    "country": "Poland",
    "state": "Greater Poland Voivodeship",
    "city": "Pniewy"
  },
  {
    "source_id": "ChIJZ23duNkmBEcRVyvV4pAzqWE",
    "name": "Mechanika Pojazdowa Franciszek Słoma",
    "category": "Mechanika Pojazdowa Franciszek Słoma",
    "formatted_address": "4,3(53)",
    "phone_number": "+48695421555",
    "source_url": "https://www.google.com/maps/place/Mechanika+Pojazdowa+Franciszek+S%C5%82oma/data=!4m7!3m6!1s0x470426d9b8dd6d67:0x61a93390e2d52b57!8m2!3d52.514307!4d16.2629229!16s%2Fg%2F1tdh74c3!19sChIJZ23duNkmBEcRVyvV4pAzqWE?authuser=0&hl=tr&rclk=1",
    "website_url": "",
    "rating_text": "4,3",
    "stars": null,
    "number_of_reviews": null,
    "price_level": "",
    "open_hours": "",
    "extraction_timestamp": "2025-06-07T17:24:32.223Z",
    "source_name": "google",
    "source_query": "Irrigation Equipment",
    "source_country": "PL",
    "country": "Poland",
    "state": "Greater Poland Voivodeship",
    "city": "Pniewy"
  },
  {
    "source_id": "ChIJd3CdhtgmBEcRBQJ5D268r5w",
    "name": "Pharmacon",
    "category": "Pharmacon",
    "formatted_address": "4,6(14)",
    "phone_number": "+48612910136",
    "source_url": "https://www.google.com/maps/place/Pharmacon/data=!4m7!3m6!1s0x470426d8869d7077:0x9cafbc6e0f790205!8m2!3d52.5135097!4d16.2574053!16s%2Fg%2F1tl8jdp1!19sChIJd3CdhtgmBEcRBQJ5D268r5w?authuser=0&hl=tr&rclk=1",
    "website_url": "",
    "rating_text": "4,6",
    "stars": null,
    "number_of_reviews": null,
    "price_level": "",
    "open_hours": "",
    "extraction_timestamp": "2025-06-07T17:24:32.224Z",
    "source_name": "google",
    "source_query": "Irrigation Equipment",
    "source_country": "PL",
    "country": "Poland",
    "state": "Greater Poland Voivodeship",
    "city": "Pniewy"
  },
  {
    "source_id": "ChIJrVdSSt4mBEcRkGlGaHHH9Qg",
    "name": "Natura. Kawalec M.",
    "category": "Natura. Kawalec M.",
    "formatted_address": "",
    "phone_number": "+48691132006",
    "source_url": "https://www.google.com/maps/place/Natura.+Kawalec+M./data=!4m7!3m6!1s0x470426de4a5257ad:0x8f5c77168466990!8m2!3d52.5071869!4d16.25704!16s%2Fg%2F1tghbvdf!19sChIJrVdSSt4mBEcRkGlGaHHH9Qg?authuser=0&hl=tr&rclk=1",
    "website_url": "",
    "rating_text": "",
    "stars": null,
    "number_of_reviews": null,
    "price_level": "",
    "open_hours": "",
    "extraction_timestamp": "2025-06-07T17:24:32.225Z",
    "source_name": "google",
    "source_query": "Irrigation Equipment",
    "source_country": "PL",
    "country": "Poland",
    "state": "Greater Poland Voivodeship",
    "city": "Pniewy"
  },
  {
    "source_id": "ChIJn9Pa5tAnBEcRCyOyvOmfbxA",
    "name": "Eco Zoo - Sklep zoologiczny",
    "category": "Eco Zoo - Sklep zoologiczny",
    "formatted_address": "5,0(4)",
    "phone_number": "",
    "source_url": "https://www.google.com/maps/place/Eco+Zoo+-+Sklep+zoologiczny/data=!4m7!3m6!1s0x470427d0e6dad39f:0x106f9fe9bcb2230b!8m2!3d52.5089954!4d16.2572591!16s%2Fg%2F11vb5k9lbq!19sChIJn9Pa5tAnBEcRCyOyvOmfbxA?authuser=0&hl=tr&rclk=1",
    "website_url": "",
    "rating_text": "5,0",
    "stars": null,
    "number_of_reviews": null,
    "price_level": "",
    "open_hours": "",
    "extraction_timestamp": "2025-06-07T17:24:32.225Z",
    "source_name": "google",
    "source_query": "Irrigation Equipment",
    "source_country": "PL",
    "country": "Poland",
    "state": "Greater Poland Voivodeship",
    "city": "Pniewy"
  },
  {
    "source_id": "ChIJ0QqslnknBEcRBgrQgA_ia6Q",
    "name": "Naturalne",
    "category": "Naturalne",
    "formatted_address": "4,5(23) · zł 1–20",
    "phone_number": "",
    "source_url": "https://www.google.com/maps/place/Naturalne/data=!4m7!3m6!1s0x4704277996ac0ad1:0xa46be20f80d00a06!8m2!3d52.5097486!4d16.2564754!16s%2Fg%2F11kpc_8w93!19sChIJ0QqslnknBEcRBgrQgA_ia6Q?authuser=0&hl=tr&rclk=1",
    "website_url": "",
    "rating_text": "4,5",
    "stars": null,
    "number_of_reviews": null,
    "price_level": "",
    "open_hours": "",
    "extraction_timestamp": "2025-06-07T17:24:32.226Z",
    "source_name": "google",
    "source_query": "Irrigation Equipment",
    "source_country": "PL",
    "country": "Poland",
    "state": "Greater Poland Voivodeship",
    "city": "Pniewy"
  },
  {
    "source_id": "ChIJz8aRiNcmBEcRBeMfyz_mkUw",
    "name": "Odido",
    "category": "Odido",
    "formatted_address": "5,0(5)",
    "phone_number": "",
    "source_url": "https://www.google.com/maps/place/Odido/data=!4m7!3m6!1s0x470426d78891c6cf:0x4c91e63fcb1fe305!8m2!3d52.5162276!4d16.2613386!16s%2Fg%2F11nxcr7tvk!19sChIJz8aRiNcmBEcRBeMfyz_mkUw?authuser=0&hl=tr&rclk=1",
    "website_url": "",
    "rating_text": "5,0",
    "stars": null,
    "number_of_reviews": null,
    "price_level": "",
    "open_hours": "",
    "extraction_timestamp": "2025-06-07T17:24:32.226Z",
    "source_name": "google",
    "source_query": "Irrigation Equipment",
    "source_country": "PL",
    "country": "Poland",
    "state": "Greater Poland Voivodeship",
    "city": "Pniewy"
  },
  {
    "source_id": "ChIJwYkNY9YmBEcRUQzSnIed2jk",
    "name": "Sklep Spożywczy ABC",
    "category": "Sklep Spożywczy ABC",
    "formatted_address": "4,8(135)",
    "phone_number": "",
    "source_url": "https://www.google.com/maps/place/Sklep+Spo%C5%BCywczy+ABC/data=!4m7!3m6!1s0x470426d6630d89c1:0x39da9d879cd20c51!8m2!3d52.5202247!4d16.2644578!16s%2Fg%2F11dfr5kmyf!19sChIJwYkNY9YmBEcRUQzSnIed2jk?authuser=0&hl=tr&rclk=1",
    "website_url": "",
    "rating_text": "4,8",
    "stars": null,
    "number_of_reviews": null,
    "price_level": "",
    "open_hours": "",
    "extraction_timestamp": "2025-06-07T17:24:32.227Z",
    "source_name": "google",
    "source_query": "Irrigation Equipment",
    "source_country": "PL",
    "country": "Poland",
    "state": "Greater Poland Voivodeship",
    "city": "Pniewy"
  }
]
