[
  {
    "source_id": "ChIJ_VXJaFKLBEcRtgEOrABw18s",
    "name": "Servitech Piotr Drzewiecki",
    "category": "Servitech Piotr Drzewiecki",
    "formatted_address": "4,7(39)",
    "phone_number": "+48881740501",
    "source_url": "https://www.google.com/maps/place/Servitech+Piotr+Drzewiecki/data=!4m7!3m6!1s0x47048b5268c955fd:0xcbd77000ac0e01b6!8m2!3d52.4702518!4d17.2841479!16s%2Fg%2F11bbrl71sj!19sChIJ_VXJaFKLBEcRtgEOrABw18s?authuser=0&hl=tr&rclk=1",
    "website_url": "http://www.servi-tech.pl/",
    "rating_text": "4,7",
    "stars": null,
    "number_of_reviews": null,
    "price_level": "",
    "open_hours": "",
    "extraction_timestamp": "2025-06-07T17:57:29.780Z",
    "source_name": "google",
    "source_query": "Irrigation Equipment",
    "source_country": "PL",
    "country": "Poland",
    "state": "Greater Poland Voivodeship",
    "city": "Pobiedziska"
  },
  {
    "source_id": "ChIJR9Kz8SOLBEcRt31CfovccQc",
    "name": "J.G Instalacje - Jakub Grześkowiak",
    "category": "J.G Instalacje - Jakub Grześkowiak",
    "formatted_address": "5,0(3)",
    "phone_number": "+48660628762",
    "source_url": "https://www.google.com/maps/place/J.G+Instalacje+-+Jakub+Grze%C5%9Bkowiak/data=!4m7!3m6!1s0x47048b23f1b3d247:0x771dc8b7e427db7!8m2!3d52.4771044!4d17.2907346!16s%2Fg%2F11yc8hv5n9!19sChIJR9Kz8SOLBEcRt31CfovccQc?authuser=0&hl=tr&rclk=1",
    "website_url": "",
    "rating_text": "5,0",
    "stars": null,
    "number_of_reviews": null,
    "price_level": "",
    "open_hours": "",
    "extraction_timestamp": "2025-06-07T17:57:29.780Z",
    "source_name": "google",
    "source_query": "Irrigation Equipment",
    "source_country": "PL",
    "country": "Poland",
    "state": "Greater Poland Voivodeship",
    "city": "Pobiedziska"
  },
  {
    "source_id": "ChIJG69xae9fBEcRBdG0mCl-IHE",
    "name": "VARIOTECHNIC - serwis FENDT, CHIP TUNING",
    "category": "VARIOTECHNIC - serwis FENDT, CHIP TUNING",
    "formatted_address": "VARIOTECHNIC - serwis FENDT, CHIP TUNING",
    "phone_number": "+48607666597",
    "source_url": "https://www.google.com/maps/place/VARIOTECHNIC+-+serwis+FENDT,+CHIP+TUNING/data=!4m7!3m6!1s0x47045fef6971af1b:0x71207e2998b4d105!8m2!3d52.478831!4d17.2710058!16s%2Fg%2F11pvlrlw91!19sChIJG69xae9fBEcRBdG0mCl-IHE?authuser=0&hl=tr&rclk=1",
    "website_url": "http://www.variotechnic.pl/",
    "rating_text": "4,8",
    "stars": null,
    "number_of_reviews": null,
    "price_level": "",
    "open_hours": "",
    "extraction_timestamp": "2025-06-07T17:57:29.781Z",
    "source_name": "google",
    "source_query": "Irrigation Equipment",
    "source_country": "PL",
    "country": "Poland",
    "state": "Greater Poland Voivodeship",
    "city": "Pobiedziska"
  },
  {
    "source_id": "ChIJGfnIsN-KBEcRfb8fZkvFcTk",
    "name": "Kuwakawake Pobiedziska Centrum Sportów Wodnych",
    "category": "Kuwakawake Pobiedziska Centrum Sportów Wodnych",
    "formatted_address": "4,4(159)",
    "phone_number": "+48667946676",
    "source_url": "https://www.google.com/maps/place/Kuwakawake+Pobiedziska+Centrum+Sport%C3%B3w+Wodnych/data=!4m7!3m6!1s0x47048adfb0c8f919:0x3971c54b661fbf7d!8m2!3d52.484098!4d17.2841661!16s%2Fg%2F1ptwqgp6q!19sChIJGfnIsN-KBEcRfb8fZkvFcTk?authuser=0&hl=tr&rclk=1",
    "website_url": "http://www.kuwakawake.pl/",
    "rating_text": "4,4",
    "stars": null,
    "number_of_reviews": null,
    "price_level": "",
    "open_hours": "",
    "extraction_timestamp": "2025-06-07T17:57:29.781Z",
    "source_name": "google",
    "source_query": "Irrigation Equipment",
    "source_country": "PL",
    "country": "Poland",
    "state": "Greater Poland Voivodeship",
    "city": "Pobiedziska"
  },
  {
    "source_id": "ChIJoxx3UiCLBEcR0M44kwPQci8",
    "name": "INSTALATOR C.O. Wod-Kan i GAZ - Roman Kalemba",
    "category": "INSTALATOR C.O. Wod-Kan i GAZ - Roman Kalemba",
    "formatted_address": "4,8(5)",
    "phone_number": "+48698257257",
    "source_url": "https://www.google.com/maps/place/INSTALATOR+C.O.+Wod-Kan+i+GAZ+-+Roman+Kalemba/data=!4m7!3m6!1s0x47048b2052771ca3:0x2f72d0039338ced0!8m2!3d52.484739!4d17.2904911!16s%2Fg%2F11btvgcqs6!19sChIJoxx3UiCLBEcR0M44kwPQci8?authuser=0&hl=tr&rclk=1",
    "website_url": "",
    "rating_text": "4,8",
    "stars": null,
    "number_of_reviews": null,
    "price_level": "",
    "open_hours": "",
    "extraction_timestamp": "2025-06-07T17:57:29.781Z",
    "source_name": "google",
    "source_query": "Irrigation Equipment",
    "source_country": "PL",
    "country": "Poland",
    "state": "Greater Poland Voivodeship",
    "city": "Pobiedziska"
  },
  {
    "source_id": "ChIJo5nU_pmKBEcRA-xDNVPjdUw",
    "name": "Akademia Sportów Wodnych Plusk",
    "category": "Akademia Sportów Wodnych Plusk",
    "formatted_address": "4,5(63)",
    "phone_number": "+48606370727",
    "source_url": "https://www.google.com/maps/place/Akademia+Sport%C3%B3w+Wodnych+Plusk/data=!4m7!3m6!1s0x47048a99fed499a3:0x4c75e3533543ec03!8m2!3d52.4720279!4d17.239078!16s%2Fg%2F11c804t_01!19sChIJo5nU_pmKBEcRA-xDNVPjdUw?authuser=0&hl=tr&rclk=1",
    "website_url": "http://www.akademia-plusk.pl/",
    "rating_text": "4,5",
    "stars": null,
    "number_of_reviews": null,
    "price_level": "",
    "open_hours": "",
    "extraction_timestamp": "2025-06-07T17:57:29.781Z",
    "source_name": "google",
    "source_query": "Irrigation Equipment",
    "source_country": "PL",
    "country": "Poland",
    "state": "Greater Poland Voivodeship",
    "city": "Pobiedziska"
  },
  {
    "source_id": "ChIJvfx7hyaLBEcRwbNGCXNsU_Q",
    "name": "J-K TECH s.j. Janusz Rymaniak, Krzysztof Przybylak",
    "category": "J-K TECH s.j. Janusz Rymaniak, Krzysztof Przybylak",
    "formatted_address": "J-K TECH s.j. Janusz Rymaniak, Krzysztof Przybylak",
    "phone_number": "+48618153903",
    "source_url": "https://www.google.com/maps/place/J-K+TECH+s.j.+Janusz+Rymaniak,+Krzysztof+Przybylak/data=!4m7!3m6!1s0x47048b26877bfcbd:0xf4536c730946b3c1!8m2!3d52.4785232!4d17.290366!16s%2Fg%2F11f03w2wd2!19sChIJvfx7hyaLBEcRwbNGCXNsU_Q?authuser=0&hl=tr&rclk=1",
    "website_url": "http://www.j-ktech.com.pl/",
    "rating_text": "5,0",
    "stars": null,
    "number_of_reviews": null,
    "price_level": "",
    "open_hours": "",
    "extraction_timestamp": "2025-06-07T17:57:29.782Z",
    "source_name": "google",
    "source_query": "Irrigation Equipment",
    "source_country": "PL",
    "country": "Poland",
    "state": "Greater Poland Voivodeship",
    "city": "Pobiedziska"
  },
  {
    "source_id": "ChIJxdPP6CCLBEcR0FcaEvJH09U",
    "name": "Palmark | Badania WDT TDT UDT | Gaz na telefon",
    "category": "Palmark | Badania WDT TDT UDT | Gaz na telefon",
    "formatted_address": "4,3(65)",
    "phone_number": "+48618177164",
    "source_url": "https://www.google.com/maps/place/Palmark+%7C+Badania+WDT+TDT+UDT+%7C+Gaz+na+telefon/data=!4m7!3m6!1s0x47048b20e8cfd3c5:0xd5d347f2121a57d0!8m2!3d52.4833371!4d17.2887353!16s%2Fg%2F1vzg0yxq!19sChIJxdPP6CCLBEcR0FcaEvJH09U?authuser=0&hl=tr&rclk=1",
    "website_url": "http://palmark.com.pl/",
    "rating_text": "4,3",
    "stars": null,
    "number_of_reviews": null,
    "price_level": "",
    "open_hours": "",
    "extraction_timestamp": "2025-06-07T17:57:29.782Z",
    "source_name": "google",
    "source_query": "Irrigation Equipment",
    "source_country": "PL",
    "country": "Poland",
    "state": "Greater Poland Voivodeship",
    "city": "Pobiedziska"
  },
  {
    "source_id": "ChIJY4ek_xiLBEcRMEmIlGP37no",
    "name": "Złota Rączka Pobiedziska",
    "category": "Złota Rączka Pobiedziska",
    "formatted_address": "3,9(7)",
    "phone_number": "+48668776013",
    "source_url": "https://www.google.com/maps/place/Z%C5%82ota+R%C4%85czka+Pobiedziska/data=!4m7!3m6!1s0x47048b18ffa48763:0x7aeef76394884930!8m2!3d52.4293475!4d17.1952121!16s%2Fg%2F11h4zm7l8n!19sChIJY4ek_xiLBEcRMEmIlGP37no?authuser=0&hl=tr&rclk=1",
    "website_url": "https://zlotaraczkapobiedziska.my.canva.site/",
    "rating_text": "3,9",
    "stars": null,
    "number_of_reviews": null,
    "price_level": "",
    "open_hours": "",
    "extraction_timestamp": "2025-06-07T17:57:29.782Z",
    "source_name": "google",
    "source_query": "Irrigation Equipment",
    "source_country": "PL",
    "country": "Poland",
    "state": "Greater Poland Voivodeship",
    "city": "Pobiedziska"
  },
  {
    "source_id": "ChIJ9XYpiSeLBEcR7CIibT-Q_og",
    "name": "Kran. Sklep z art. instalacyjno - przemysłowymi",
    "category": "Kran. Sklep z art. instalacyjno - przemysłowymi",
    "formatted_address": "5,0(5)",
    "phone_number": "+48618154592",
    "source_url": "https://www.google.com/maps/place/Kran.+Sklep+z+art.+instalacyjno+-+przemys%C5%82owymi/data=!4m7!3m6!1s0x47048b27892976f5:0x88fe903f6d2222ec!8m2!3d52.4779229!4d17.285632!16s%2Fg%2F1tcvskb7!19sChIJ9XYpiSeLBEcR7CIibT-Q_og?authuser=0&hl=tr&rclk=1",
    "website_url": "",
    "rating_text": "5,0",
    "stars": null,
    "number_of_reviews": null,
    "price_level": "",
    "open_hours": "",
    "extraction_timestamp": "2025-06-07T17:57:29.782Z",
    "source_name": "google",
    "source_query": "Irrigation Equipment",
    "source_country": "PL",
    "country": "Poland",
    "state": "Greater Poland Voivodeship",
    "city": "Pobiedziska"
  },
  {
    "source_id": "ChIJGQ-B_rGLBEcRCM2vAoH84Uw",
    "name": "PSB Mrówka",
    "category": "PSB Mrówka",
    "formatted_address": "4,5(496)",
    "phone_number": "+48797270000",
    "source_url": "https://www.google.com/maps/place/PSB+Mr%C3%B3wka/data=!4m7!3m6!1s0x47048bb1fe810f19:0x4ce1fc8102afcd08!8m2!3d52.475333!4d17.272942!16s%2Fg%2F11qmp4jdzs!19sChIJGQ-B_rGLBEcRCM2vAoH84Uw?authuser=0&hl=tr&rclk=1",
    "website_url": "https://mrowka.com.pl/sklep-psb-mrowka/psb-mrowka-pobiedziska.html",
    "rating_text": "4,5",
    "stars": null,
    "number_of_reviews": null,
    "price_level": "",
    "open_hours": "",
    "extraction_timestamp": "2025-06-07T17:57:29.798Z",
    "source_name": "google",
    "source_query": "Irrigation Equipment",
    "source_country": "PL",
    "country": "Poland",
    "state": "Greater Poland Voivodeship",
    "city": "Pobiedziska"
  },
  {
    "source_id": "ChIJ15rhKO6LBEcRo5do6eJj_34",
    "name": "Kąpielisko Plaża jez. Biezdruchowo",
    "category": "Kąpielisko Plaża jez. Biezdruchowo",
    "formatted_address": "4,6(258)",
    "phone_number": "",
    "source_url": "https://www.google.com/maps/place/K%C4%85pielisko+Pla%C5%BCa+jez.+Biezdruchowo/data=!4m7!3m6!1s0x47048bee28e19ad7:0x7eff63e2e96897a3!8m2!3d52.4851209!4d17.2826086!16s%2Fg%2F11gk819ks_!19sChIJ15rhKO6LBEcRo5do6eJj_34?authuser=0&hl=tr&rclk=1",
    "website_url": "",
    "rating_text": "4,6",
    "stars": null,
    "number_of_reviews": null,
    "price_level": "",
    "open_hours": "",
    "extraction_timestamp": "2025-06-07T17:57:29.799Z",
    "source_name": "google",
    "source_query": "Irrigation Equipment",
    "source_country": "PL",
    "country": "Poland",
    "state": "Greater Poland Voivodeship",
    "city": "Pobiedziska"
  },
  {
    "source_id": "ChIJWfnqdKT1BEcRK0Ce5iNlkm8",
    "name": "D.W serwis Wojciech Witkowski",
    "category": "D.W serwis Wojciech Witkowski",
    "formatted_address": "5,0(5)",
    "phone_number": "+48661239740",
    "source_url": "https://www.google.com/maps/place/D.W+serwis+Wojciech+Witkowski/data=!4m7!3m6!1s0x4704f5a474eaf959:0x6f926523e69e402b!8m2!3d52.4699524!4d17.2437327!16s%2Fg%2F11ybvn89l4!19sChIJWfnqdKT1BEcRK0Ce5iNlkm8?authuser=0&hl=tr&rclk=1",
    "website_url": "",
    "rating_text": "5,0",
    "stars": null,
    "number_of_reviews": null,
    "price_level": "",
    "open_hours": "",
    "extraction_timestamp": "2025-06-07T17:57:29.800Z",
    "source_name": "google",
    "source_query": "Irrigation Equipment",
    "source_country": "PL",
    "country": "Poland",
    "state": "Greater Poland Voivodeship",
    "city": "Pobiedziska"
  },
  {
    "source_id": "ChIJJzf9TW2LBEcRHm_cgOliTDg",
    "name": "Instalacje Centralnego Ogrzewania - Instal-Tech Robert Samsonowski",
    "category": "Instalacje Centralnego Ogrzewania - Instal-Tech Robert Samsonowski",
    "formatted_address": "5,0(4)",
    "phone_number": "+48604900119",
    "source_url": "https://www.google.com/maps/place/Instalacje+Centralnego+Ogrzewania+-+Instal-Tech+Robert+Samsonowski/data=!4m7!3m6!1s0x47048b6d4dfd3727:0x384c62e980dc6f1e!8m2!3d52.4743424!4d17.2475652!16s%2Fg%2F11x0zl7m41!19sChIJJzf9TW2LBEcRHm_cgOliTDg?authuser=0&hl=tr&rclk=1",
    "website_url": "",
    "rating_text": "5,0",
    "stars": null,
    "number_of_reviews": null,
    "price_level": "",
    "open_hours": "",
    "extraction_timestamp": "2025-06-07T17:57:29.801Z",
    "source_name": "google",
    "source_query": "Irrigation Equipment",
    "source_country": "PL",
    "country": "Poland",
    "state": "Greater Poland Voivodeship",
    "city": "Pobiedziska"
  },
  {
    "source_id": "ChIJ1SYSjOCKBEcRdXJdOWQw_TY",
    "name": "Biniszkiewicz Jacek. Instalatorstwo wod.-kan., c.o. i gaz.",
    "category": "Biniszkiewicz Jacek. Instalatorstwo wod.-kan., c.o. i gaz.",
    "formatted_address": "Biniszkiewicz Jacek. Instalatorstwo wod.-kan., c.o. i gaz.",
    "phone_number": "+48608755916",
    "source_url": "https://www.google.com/maps/place/Biniszkiewicz+Jacek.+Instalatorstwo+wod.-kan.,+c.o.+i+gaz./data=!4m7!3m6!1s0x47048ae08c1226d5:0x36fd3064395d7275!8m2!3d52.488444!4d17.2853044!16s%2Fg%2F1tkd_nrd!19sChIJ1SYSjOCKBEcRdXJdOWQw_TY?authuser=0&hl=tr&rclk=1",
    "website_url": "",
    "rating_text": "3,2",
    "stars": null,
    "number_of_reviews": null,
    "price_level": "",
    "open_hours": "",
    "extraction_timestamp": "2025-06-07T17:57:29.801Z",
    "source_name": "google",
    "source_query": "Irrigation Equipment",
    "source_country": "PL",
    "country": "Poland",
    "state": "Greater Poland Voivodeship",
    "city": "Pobiedziska"
  },
  {
    "source_id": "ChIJAwqDDwCLBEcR4b0z6UUhUgI",
    "name": "Air Liquide gazy techniczne - dystrybutor",
    "category": "Air Liquide gazy techniczne - dystrybutor",
    "formatted_address": "",
    "phone_number": "+48602225347",
    "source_url": "https://www.google.com/maps/place/Air+Liquide+gazy+techniczne+-+dystrybutor/data=!4m7!3m6!1s0x47048b000f830a03:0x2522145e933bde1!8m2!3d52.482541!4d17.2842426!16s%2Fg%2F11x2bddhlr!19sChIJAwqDDwCLBEcR4b0z6UUhUgI?authuser=0&hl=tr&rclk=1",
    "website_url": "https://pl.airliquide.com/",
    "rating_text": "",
    "stars": null,
    "number_of_reviews": null,
    "price_level": "",
    "open_hours": "",
    "extraction_timestamp": "2025-06-07T17:57:29.802Z",
    "source_name": "google",
    "source_query": "Irrigation Equipment",
    "source_country": "PL",
    "country": "Poland",
    "state": "Greater Poland Voivodeship",
    "city": "Pobiedziska"
  },
  {
    "source_id": "ChIJ4zc6v4hZBEcRKah1mzKBwPg",
    "name": "PHU \"ADVISER\" - Systemy nawadniania",
    "category": "PHU \"ADVISER\" - Systemy nawadniania",
    "formatted_address": "4,8(123)",
    "phone_number": "+48618798700",
    "source_url": "https://www.google.com/maps/place/PHU+%22ADVISER%22+-+Systemy+nawadniania/data=!4m7!3m6!1s0x47045988bf3a37e3:0xf8c081329b75a829!8m2!3d52.3434333!4d17.0287055!16s%2Fg%2F1w3459w5!19sChIJ4zc6v4hZBEcRKah1mzKBwPg?authuser=0&hl=tr&rclk=1",
    "website_url": "http://www.phu-adviser.pl/",
    "rating_text": "4,8",
    "stars": null,
    "number_of_reviews": null,
    "price_level": "",
    "open_hours": "",
    "extraction_timestamp": "2025-06-07T17:57:29.803Z",
    "source_name": "google",
    "source_query": "Irrigation Equipment",
    "source_country": "PL",
    "country": "Poland",
    "state": "Greater Poland Voivodeship",
    "city": "Pobiedziska"
  },
  {
    "source_id": "ChIJeZgY1xqRBEcRpcLMUkxBkfI",
    "name": "Ha-Two-O Paweł Filipiak",
    "category": "Ha-Two-O Paweł Filipiak",
    "formatted_address": "4,8(101)",
    "phone_number": "+48575579000",
    "source_url": "https://www.google.com/maps/place/Ha-Two-O+Pawe%C5%82+Filipiak/data=!4m7!3m6!1s0x4704911ad7189879:0xf291414c52ccc2a5!8m2!3d52.5491138!4d17.555824!16s%2Fg%2F1x6q0ggt!19sChIJeZgY1xqRBEcRpcLMUkxBkfI?authuser=0&hl=tr&rclk=1",
    "website_url": "https://www.ha-dwa-o.pl/",
    "rating_text": "4,8",
    "stars": null,
    "number_of_reviews": null,
    "price_level": "",
    "open_hours": "",
    "extraction_timestamp": "2025-06-07T17:57:29.804Z",
    "source_name": "google",
    "source_query": "Irrigation Equipment",
    "source_country": "PL",
    "country": "Poland",
    "state": "Greater Poland Voivodeship",
    "city": "Pobiedziska"
  },
  {
    "source_id": "ChIJwSiSbJyLBEcREKJefe7QbSM",
    "name": "Ogrodnik24.com",
    "category": "Ogrodnik24.com",
    "formatted_address": "4,7(12)",
    "phone_number": "+48534874597",
    "source_url": "https://www.google.com/maps/place/Ogrodnik24.com/data=!4m7!3m6!1s0x47048b9c6c9228c1:0x236dd0ee7d5ea210!8m2!3d52.3804875!4d17.1952121!16s%2Fg%2F11txxjtnc9!19sChIJwSiSbJyLBEcREKJefe7QbSM?authuser=0&hl=tr&rclk=1",
    "website_url": "http://www.ogrodnik24.com/",
    "rating_text": "4,7",
    "stars": null,
    "number_of_reviews": null,
    "price_level": "",
    "open_hours": "",
    "extraction_timestamp": "2025-06-07T17:57:29.805Z",
    "source_name": "google",
    "source_query": "Irrigation Equipment",
    "source_country": "PL",
    "country": "Poland",
    "state": "Greater Poland Voivodeship",
    "city": "Pobiedziska"
  },
  {
    "source_id": "ChIJq3ZuChspzY0RlAcbMNY5mRg",
    "name": "PODLEWAMY24.pl",
    "category": "PODLEWAMY24.pl",
    "formatted_address": "5,0(43)",
    "phone_number": "+48509215271",
    "source_url": "https://www.google.com/maps/place/PODLEWAMY24.pl/data=!4m7!3m6!1s0x8dcd291b0a6e76ab:0x189939d6301b0794!8m2!3d52.2778206!4d16.9790131!16s%2Fg%2F11rhfnnqkx!19sChIJq3ZuChspzY0RlAcbMNY5mRg?authuser=0&hl=tr&rclk=1",
    "website_url": "http://www.podlewamy24.pl/",
    "rating_text": "5,0",
    "stars": null,
    "number_of_reviews": null,
    "price_level": "",
    "open_hours": "",
    "extraction_timestamp": "2025-06-07T17:57:29.806Z",
    "source_name": "google",
    "source_query": "Irrigation Equipment",
    "source_country": "PL",
    "country": "Poland",
    "state": "Greater Poland Voivodeship",
    "city": "Pobiedziska"
  },
  {
    "source_id": "ChIJx7XFlnxdBEcRf9OQ1CQDqO8",
    "name": "Adapia - Fotowoltaika, Klimatyzacja, Pompy Ciepła, Rekuperacja, Termomodernizacja Budynków",
    "category": "Adapia - Fotowoltaika, Klimatyzacja, Pompy Ciepła, Rekuperacja, Termomodernizacja Budynków",
    "formatted_address": "Adapia - Fotowoltaika, Klimatyzacja, Pompy Ciepła, Rekuperacja, Termomodernizacja Budynków",
    "phone_number": "+48506637706",
    "source_url": "https://www.google.com/maps/place/Adapia+-+Fotowoltaika,+Klimatyzacja,+Pompy+Ciep%C5%82a,+Rekuperacja,+Termomodernizacja+Budynk%C3%B3w/data=!4m7!3m6!1s0x47045d7c96c5b5c7:0xefa80324d490d37f!8m2!3d52.4448368!4d16.9623942!16s%2Fg%2F11fpgvv4ft!19sChIJx7XFlnxdBEcRf9OQ1CQDqO8?authuser=0&hl=tr&rclk=1",
    "website_url": "https://www.adapia.pl/",
    "rating_text": "4,9",
    "stars": null,
    "number_of_reviews": null,
    "price_level": "",
    "open_hours": "",
    "extraction_timestamp": "2025-06-07T17:57:29.807Z",
    "source_name": "google",
    "source_query": "Irrigation Equipment",
    "source_country": "PL",
    "country": "Poland",
    "state": "Greater Poland Voivodeship",
    "city": "Pobiedziska"
  },
  {
    "source_id": "ChIJV8oKMG9DBEcRhxkRFioKa8k",
    "name": "Stelmaszyk Sp. J.",
    "category": "Stelmaszyk Sp. J.",
    "formatted_address": "4,6(94)",
    "phone_number": "+48618221190",
    "source_url": "https://www.google.com/maps/place/Stelmaszyk+Sp.+J./data=!4m7!3m6!1s0x4704436f300aca57:0xc96b0a2a16111987!8m2!3d52.4490968!4d16.8934735!16s%2Fg%2F1tj7zn_p!19sChIJV8oKMG9DBEcRhxkRFioKa8k?authuser=0&hl=tr&rclk=1",
    "website_url": "http://www.stelmaszyk.com.pl/",
    "rating_text": "4,6",
    "stars": null,
    "number_of_reviews": null,
    "price_level": "",
    "open_hours": "",
    "extraction_timestamp": "2025-06-07T17:57:29.808Z",
    "source_name": "google",
    "source_query": "Irrigation Equipment",
    "source_country": "PL",
    "country": "Poland",
    "state": "Greater Poland Voivodeship",
    "city": "Pobiedziska"
  },
  {
    "source_id": "ChIJwxC1X09EBEcRLzaLJfk4rD8",
    "name": "OASE - Oczko Wodne Polski Autoryzowany Sklep internetowy Złoty Przedstawiciel Nawadnianie Podlewanie Hunter, Raibird,Rossi",
    "category": "OASE - Oczko Wodne Polski Autoryzowany Sklep internetowy Złoty Przedstawiciel Nawadnianie Podlewanie Hunter, Raibird,Rossi",
    "formatted_address": "OASE - Oczko Wodne Polski Autoryzowany Sklep internetowy Złoty Przedstawiciel Nawadnianie Podlewanie Hunter, Raibird,Rossi",
    "phone_number": "+48618842498",
    "source_url": "https://www.google.com/maps/place/OASE+-+Oczko+Wodne+Polski+Autoryzowany+Sklep+internetowy+Z%C5%82oty+Przedstawiciel+Nawadnianie+Podlewanie+Hunter,+Raibird,Rossi/data=!4m7!3m6!1s0x4704444f5fb510c3:0x3fac38f9258b362f!8m2!3d52.4364533!4d16.8327227!16s%2Fg%2F1hc96cvd0!19sChIJwxC1X09EBEcRLzaLJfk4rD8?authuser=0&hl=tr&rclk=1",
    "website_url": "",
    "rating_text": "4,6",
    "stars": null,
    "number_of_reviews": null,
    "price_level": "",
    "open_hours": "",
    "extraction_timestamp": "2025-06-07T17:57:29.809Z",
    "source_name": "google",
    "source_query": "Irrigation Equipment",
    "source_country": "PL",
    "country": "Poland",
    "state": "Greater Poland Voivodeship",
    "city": "Pobiedziska"
  },
  {
    "source_id": "ChIJE3Lz3bFXBEcRBgoAqS1zROk",
    "name": "Firma Handlowa \"Kram\" s.c. Iwona Krawczyk, Roman Krawczyk",
    "category": "Firma Handlowa \"Kram\" s.c. Iwona Krawczyk, Roman Krawczyk",
    "formatted_address": "Firma Handlowa \"Kram\" s.c. Iwona Krawczyk, Roman Krawczyk",
    "phone_number": "+48618171242",
    "source_url": "https://www.google.com/maps/place/Firma+Handlowa+%22Kram%22+s.c.+Iwona+Krawczyk,+Roman+Krawczyk/data=!4m7!3m6!1s0x470457b1ddf37213:0xe944732da9000a06!8m2!3d52.288937!4d17.046897!16s%2Fg%2F1tcw29hw!19sChIJE3Lz3bFXBEcRBgoAqS1zROk?authuser=0&hl=tr&rclk=1",
    "website_url": "http://fhkram.pl/",
    "rating_text": "4,6",
    "stars": null,
    "number_of_reviews": null,
    "price_level": "",
    "open_hours": "",
    "extraction_timestamp": "2025-06-07T17:57:29.810Z",
    "source_name": "google",
    "source_query": "Irrigation Equipment",
    "source_country": "PL",
    "country": "Poland",
    "state": "Greater Poland Voivodeship",
    "city": "Pobiedziska"
  },
  {
    "source_id": "ChIJH0tpQaD7BEcRYQQ-PETrOIQ",
    "name": "ASW TECHNIK",
    "category": "ASW TECHNIK",
    "formatted_address": "4,8(46)",
    "phone_number": "+48577887997",
    "source_url": "https://www.google.com/maps/place/ASW+TECHNIK/data=!4m7!3m6!1s0x4704fba041694b1f:0x8438eb443c3e0461!8m2!3d52.2275708!4d17.2607921!16s%2Fg%2F11h_sld0sr!19sChIJH0tpQaD7BEcRYQQ-PETrOIQ?authuser=0&hl=tr&rclk=1",
    "website_url": "https://www.aswtechnik.com/sklep",
    "rating_text": "4,8",
    "stars": null,
    "number_of_reviews": null,
    "price_level": "",
    "open_hours": "",
    "extraction_timestamp": "2025-06-07T17:57:29.811Z",
    "source_name": "google",
    "source_query": "Irrigation Equipment",
    "source_country": "PL",
    "country": "Poland",
    "state": "Greater Poland Voivodeship",
    "city": "Pobiedziska"
  },
  {
    "source_id": "ChIJ1fH8twRdBEcRWGX6D1tc3ZA",
    "name": "Kardoliński Zbigniew. Pompy głębinowe, hydroforowe, ściekowe",
    "category": "Kardoliński Zbigniew. Pompy głębinowe, hydroforowe, ściekowe",
    "formatted_address": "Kardoliński Zbigniew. Pompy głębinowe, hydroforowe, ściekowe",
    "phone_number": "",
    "source_url": "https://www.google.com/maps/place/Kardoli%C5%84ski+Zbigniew.+Pompy+g%C5%82%C4%99binowe,+hydroforowe,+%C5%9Bciekowe/data=!4m7!3m6!1s0x47045d04b7fcf1d5:0x90dd5c5b0ffa6558!8m2!3d52.4712374!4d16.9991202!16s%2Fg%2F1tfwj1tc!19sChIJ1fH8twRdBEcRWGX6D1tc3ZA?authuser=0&hl=tr&rclk=1",
    "website_url": "http://www.pompykardolinski.pl/",
    "rating_text": "4,8",
    "stars": null,
    "number_of_reviews": null,
    "price_level": "",
    "open_hours": "",
    "extraction_timestamp": "2025-06-07T17:57:29.811Z",
    "source_name": "google",
    "source_query": "Irrigation Equipment",
    "source_country": "PL",
    "country": "Poland",
    "state": "Greater Poland Voivodeship",
    "city": "Pobiedziska"
  },
  {
    "source_id": "ChIJJRoTz55FBEcRSQNoXjHpDME",
    "name": "Nova-Jet Patryk W. Cięcie wodą płytek glazury gresu szkła metalu tworzywa płyt wielkoformatowych spieków kamień naturalny",
    "category": "Nova-Jet Patryk W. Cięcie wodą płytek glazury gresu szkła metalu tworzywa płyt wielkoformatowych spieków kamień naturalny",
    "formatted_address": "4,9(113)",
    "phone_number": "+48515163981",
    "source_url": "https://www.google.com/maps/place/Nova-Jet+Patryk+W.+Ci%C4%99cie+wod%C4%85+p%C5%82ytek+glazury+gresu+szk%C5%82a+metalu+tworzywa+p%C5%82yt+wielkoformatowych+spiek%C3%B3w+kamie%C5%84+naturalny/data=!4m7!3m6!1s0x4704459ecf131a25:0xc10ce9315e680349!8m2!3d52.4341129!4d16.8451589!16s%2Fg%2F11fkmpygpt!19sChIJJRoTz55FBEcRSQNoXjHpDME?authuser=0&hl=tr&rclk=1",
    "website_url": "https://www.facebook.com/profile.php?id=61557521163377",
    "rating_text": "4,9",
    "stars": null,
    "number_of_reviews": null,
    "price_level": "",
    "open_hours": "",
    "extraction_timestamp": "2025-06-07T17:57:29.812Z",
    "source_name": "google",
    "source_query": "Irrigation Equipment",
    "source_country": "PL",
    "country": "Poland",
    "state": "Greater Poland Voivodeship",
    "city": "Pobiedziska"
  },
  {
    "source_id": "ChIJXzf_ZlyRBEcRSHGvceKu3BE",
    "name": "P.H.U. \"RADO\" Radosław Gieburowski Grupa SBS",
    "category": "P.H.U. \"RADO\" Radosław Gieburowski Grupa SBS",
    "formatted_address": "4,7(96)",
    "phone_number": "",
    "source_url": "https://www.google.com/maps/place/P.H.U.+%22RADO%22+Rados%C5%82aw+Gieburowski+Grupa+SBS/data=!4m7!3m6!1s0x4704915c66ff375f:0x11dcaee271af7148!8m2!3d52.512284!4d17.609528!16s%2Fg%2F1tj883q9!19sChIJXzf_ZlyRBEcRSHGvceKu3BE?authuser=0&hl=tr&rclk=1",
    "website_url": "http://www.rado.gniezno.pl/",
    "rating_text": "4,7",
    "stars": null,
    "number_of_reviews": null,
    "price_level": "",
    "open_hours": "",
    "extraction_timestamp": "2025-06-07T17:57:29.813Z",
    "source_name": "google",
    "source_query": "Irrigation Equipment",
    "source_country": "PL",
    "country": "Poland",
    "state": "Greater Poland Voivodeship",
    "city": "Pobiedziska"
  },
  {
    "source_id": "ChIJw0sCv0NZBEcRa4G279IiNPE",
    "name": "Winterwarm Polska Sp. z o.o.",
    "category": "Winterwarm Polska Sp. z o.o.",
    "formatted_address": "4,4(14)",
    "phone_number": "+48603588651",
    "source_url": "https://www.google.com/maps/place/Winterwarm+Polska+Sp.+z+o.o./data=!4m7!3m6!1s0x47045943bf024bc3:0xf13422d2efb6816b!8m2!3d52.4069164!4d17.0949659!16s%2Fg%2F1thclgp4!19sChIJw0sCv0NZBEcRa4G279IiNPE?authuser=0&hl=tr&rclk=1",
    "website_url": "https://winterwarm.pl/",
    "rating_text": "4,4",
    "stars": null,
    "number_of_reviews": null,
    "price_level": "",
    "open_hours": "",
    "extraction_timestamp": "2025-06-07T17:57:29.814Z",
    "source_name": "google",
    "source_query": "Irrigation Equipment",
    "source_country": "PL",
    "country": "Poland",
    "state": "Greater Poland Voivodeship",
    "city": "Pobiedziska"
  },
  {
    "source_id": "ChIJfbzPRsZFBEcR9dFkwo9BoVw",
    "name": "Grambet Grupa SBS M i M. Gucia Sp. k. - Hurtownia instalacyjna i detaliczna sprzedaż urządzeń grzewczych, c.o i armatury",
    "category": "Grambet Grupa SBS M i M. Gucia Sp. k. - Hurtownia instalacyjna i detaliczna sprzedaż urządzeń grzewczych, c.o i armatury",
    "formatted_address": "Grambet Grupa SBS M i M. Gucia Sp. k. - Hurtownia instalacyjna i detaliczna sprzedaż urządzeń grzewczych, c.o i armatury",
    "phone_number": "+48618143770",
    "source_url": "https://www.google.com/maps/place/Grambet+Grupa+SBS+M+i+M.+Gucia+Sp.+k.+-+Hurtownia+instalacyjna+i+detaliczna+sprzeda%C5%BC+urz%C4%85dze%C5%84+grzewczych,+c.o+i+armatury/data=!4m7!3m6!1s0x470445c646cfbc7d:0x5ca1418fc264d1f5!8m2!3d52.393734!4d16.796723!16s%2Fg%2F1td415qy!19sChIJfbzPRsZFBEcR9dFkwo9BoVw?authuser=0&hl=tr&rclk=1",
    "website_url": "http://www.grambet.pl/",
    "rating_text": "4,7",
    "stars": null,
    "number_of_reviews": null,
    "price_level": "",
    "open_hours": "",
    "extraction_timestamp": "2025-06-07T17:57:29.815Z",
    "source_name": "google",
    "source_query": "Irrigation Equipment",
    "source_country": "PL",
    "country": "Poland",
    "state": "Greater Poland Voivodeship",
    "city": "Pobiedziska"
  },
  {
    "source_id": "ChIJQ9Wcp9laBEcRgVdx1f9fOZ8",
    "name": "Mikas Instalacje",
    "category": "Mikas Instalacje",
    "formatted_address": "4,7(58)",
    "phone_number": "+48616497070",
    "source_url": "https://www.google.com/maps/place/Mikas+Instalacje/data=!4m7!3m6!1s0x47045ad9a79cd543:0x9f395fffd5715781!8m2!3d52.3856728!4d16.9154114!16s%2Fg%2F1vn9msv6!19sChIJQ9Wcp9laBEcRgVdx1f9fOZ8?authuser=0&hl=tr&rclk=1",
    "website_url": "https://e-mikas.com.pl/",
    "rating_text": "4,7",
    "stars": null,
    "number_of_reviews": null,
    "price_level": "",
    "open_hours": "",
    "extraction_timestamp": "2025-06-07T17:57:29.816Z",
    "source_name": "google",
    "source_query": "Irrigation Equipment",
    "source_country": "PL",
    "country": "Poland",
    "state": "Greater Poland Voivodeship",
    "city": "Pobiedziska"
  },
  {
    "source_id": "ChIJt4upsbo4BEcRWkUl8Qt9ryw",
    "name": "Barenbrug Polska Sp. z o.o.",
    "category": "Barenbrug Polska Sp. z o.o.",
    "formatted_address": "4,2(9)",
    "phone_number": "+48618164133",
    "source_url": "https://www.google.com/maps/place/Barenbrug+Polska+Sp.+z+o.o./data=!4m7!3m6!1s0x470438bab1a98bb7:0x2caf7d0bf125455a!8m2!3d52.4567446!4d16.6538235!16s%2Fg%2F1w97t2lf!19sChIJt4upsbo4BEcRWkUl8Qt9ryw?authuser=0&hl=tr&rclk=1",
    "website_url": "http://www.barenbrug.pl/",
    "rating_text": "4,2",
    "stars": null,
    "number_of_reviews": null,
    "price_level": "",
    "open_hours": "",
    "extraction_timestamp": "2025-06-07T17:57:29.817Z",
    "source_name": "google",
    "source_query": "Irrigation Equipment",
    "source_country": "PL",
    "country": "Poland",
    "state": "Greater Poland Voivodeship",
    "city": "Pobiedziska"
  },
  {
    "source_id": "ChIJ_Y1uefFaBEcRJ_HCuCH6DzE",
    "name": "Tubes International - Centrala",
    "category": "Tubes International - Centrala",
    "formatted_address": "4,9(23)",
    "phone_number": "+48616530222",
    "source_url": "https://www.google.com/maps/place/Tubes+International+-+Centrala/data=!4m7!3m6!1s0x47045af1796e8dfd:0x310ffa21b8c2f127!8m2!3d52.3699873!4d16.938408!16s%2Fg%2F1ptx33nd9!19sChIJ_Y1uefFaBEcRJ_HCuCH6DzE?authuser=0&hl=tr&rclk=1",
    "website_url": "https://www.tubes-international.pl/",
    "rating_text": "4,9",
    "stars": null,
    "number_of_reviews": null,
    "price_level": "",
    "open_hours": "",
    "extraction_timestamp": "2025-06-07T17:57:29.817Z",
    "source_name": "google",
    "source_query": "Irrigation Equipment",
    "source_country": "PL",
    "country": "Poland",
    "state": "Greater Poland Voivodeship",
    "city": "Pobiedziska"
  },
  {
    "source_id": "ChIJs77nBs_1BEcRKSEa2wONXag",
    "name": "PCI Membranes Sp. z o.o.",
    "category": "PCI Membranes Sp. z o.o.",
    "formatted_address": "4,2(9)",
    "phone_number": "+48612255108",
    "source_url": "https://www.google.com/maps/place/PCI+Membranes+Sp.+z+o.o./data=!4m7!3m6!1s0x4704f5cf06e7beb3:0xa85d8d03db1a2129!8m2!3d52.4013137!4d17.2199192!16s%2Fg%2F1vmr02f2!19sChIJs77nBs_1BEcRKSEa2wONXag?authuser=0&hl=tr&rclk=1",
    "website_url": "https://www.pcimembranes.com/",
    "rating_text": "4,2",
    "stars": null,
    "number_of_reviews": null,
    "price_level": "",
    "open_hours": "",
    "extraction_timestamp": "2025-06-07T17:57:29.818Z",
    "source_name": "google",
    "source_query": "Irrigation Equipment",
    "source_country": "PL",
    "country": "Poland",
    "state": "Greater Poland Voivodeship",
    "city": "Pobiedziska"
  }
]
