[
  {
    "source_id": "ChIJ9V9F5FwUBUcRY7GGoO6w1NU",
    "name": "Dymarski Józef. Instalatorstwo elektryczne, naprawa urządzeń chłodniczych",
    "category": "Dymarski Józef. Instalatorstwo elektryczne, naprawa urządzeń chłodniczych",
    "formatted_address": "Dymarski Józef. Instalatorstwo elektryczne, naprawa urządzeń chłodniczych",
    "phone_number": "+48602885543",
    "source_url": "https://www.google.com/maps/place/Dymarski+J%C3%B3zef.+Instalatorstwo+elektryczne,+naprawa+urz%C4%85dze%C5%84+ch%C5%82odniczych/data=!4m7!3m6!1s0x4705145ce4455ff5:0xd5d4b0eea086b163!8m2!3d51.8273211!4d17.229201!16s%2Fg%2F1tdmj5bc!19sChIJ9V9F5FwUBUcRY7GGoO6w1NU?authuser=0&hl=tr&rclk=1",
    "website_url": "",
    "rating_text": "4,5",
    "stars": null,
    "number_of_reviews": null,
    "price_level": "",
    "open_hours": "",
    "extraction_timestamp": "2025-06-07T17:40:16.062Z",
    "source_name": "google",
    "source_query": "Irrigation Equipment",
    "source_country": "PL",
    "country": "Poland",
    "state": "Greater Poland Voivodeship",
    "city": "Pogorzela"
  },
  {
    "source_id": "ChIJ-TDx4PsVBUcRHuLcjpMS6T0",
    "name": "Usługi ślusarsko-spawalnicze Jakub Piecuch",
    "category": "Usługi ślusarsko-spawalnicze Jakub Piecuch",
    "formatted_address": "5,0(6)",
    "phone_number": "+48517290401",
    "source_url": "https://www.google.com/maps/place/Us%C5%82ugi+%C5%9Blusarsko-spawalnicze+Jakub+Piecuch/data=!4m7!3m6!1s0x470515fbe0f130f9:0x3de912938edce21e!8m2!3d51.817743!4d17.2270902!16s%2Fg%2F11srh64syn!19sChIJ-TDx4PsVBUcRHuLcjpMS6T0?authuser=0&hl=tr&rclk=1",
    "website_url": "",
    "rating_text": "5,0",
    "stars": null,
    "number_of_reviews": null,
    "price_level": "",
    "open_hours": "",
    "extraction_timestamp": "2025-06-07T17:40:16.062Z",
    "source_name": "google",
    "source_query": "Irrigation Equipment",
    "source_country": "PL",
    "country": "Poland",
    "state": "Greater Poland Voivodeship",
    "city": "Pogorzela"
  },
  {
    "source_id": "ChIJ7-px-1sUBUcRh_FELrqWuhc",
    "name": "Sklep Wielobranżowy Warzywko",
    "category": "Sklep Wielobranżowy Warzywko",
    "formatted_address": "4,6(14)",
    "phone_number": "+48603550756",
    "source_url": "https://www.google.com/maps/place/Sklep+Wielobran%C5%BCowy+Warzywko/data=!4m7!3m6!1s0x4705145bfb71eaef:0x17ba96ba2e44f187!8m2!3d51.823011!4d17.230702!16s%2Fg%2F1hc5q2_vh!19sChIJ7-px-1sUBUcRh_FELrqWuhc?authuser=0&hl=tr&rclk=1",
    "website_url": "",
    "rating_text": "4,6",
    "stars": null,
    "number_of_reviews": null,
    "price_level": "",
    "open_hours": "",
    "extraction_timestamp": "2025-06-07T17:40:16.062Z",
    "source_name": "google",
    "source_query": "Irrigation Equipment",
    "source_country": "PL",
    "country": "Poland",
    "state": "Greater Poland Voivodeship",
    "city": "Pogorzela"
  },
  {
    "source_id": "ChIJr2KfEjUVBUcR9m7WaQHavxY",
    "name": "Naglak Ogrody",
    "category": "Naglak Ogrody",
    "formatted_address": "5,0(2)",
    "phone_number": "+48601414743",
    "source_url": "https://www.google.com/maps/place/Naglak+Ogrody/data=!4m7!3m6!1s0x47051535129f62af:0x16bfda0169d66ef6!8m2!3d51.824258!4d17.2327972!16s%2Fg%2F11v69yks3s!19sChIJr2KfEjUVBUcR9m7WaQHavxY?authuser=0&hl=tr&rclk=1",
    "website_url": "",
    "rating_text": "5,0",
    "stars": null,
    "number_of_reviews": null,
    "price_level": "",
    "open_hours": "",
    "extraction_timestamp": "2025-06-07T17:40:16.063Z",
    "source_name": "google",
    "source_query": "Irrigation Equipment",
    "source_country": "PL",
    "country": "Poland",
    "state": "Greater Poland Voivodeship",
    "city": "Pogorzela"
  },
  {
    "source_id": "ChIJb1wGgpoVBUcR_HC-xNOQkHE",
    "name": "Dino",
    "category": "Dino",
    "formatted_address": "4,4(141)",
    "phone_number": "",
    "source_url": "https://www.google.com/maps/place/Dino/data=!4m7!3m6!1s0x4705159a82065c6f:0x719090d3c4be70fc!8m2!3d51.8299751!4d17.2235425!16s%2Fg%2F11h5rlxb1g!19sChIJb1wGgpoVBUcR_HC-xNOQkHE?authuser=0&hl=tr&rclk=1",
    "website_url": "https://marketdino.pl/",
    "rating_text": "4,4",
    "stars": null,
    "number_of_reviews": null,
    "price_level": "",
    "open_hours": "",
    "extraction_timestamp": "2025-06-07T17:40:16.063Z",
    "source_name": "google",
    "source_query": "Irrigation Equipment",
    "source_country": "PL",
    "country": "Poland",
    "state": "Greater Poland Voivodeship",
    "city": "Pogorzela"
  },
  {
    "source_id": "ChIJA5uXUVUVBUcR-LPXYH-OArg",
    "name": "Biedronka",
    "category": "Biedronka",
    "formatted_address": "4,4(244)",
    "phone_number": "+48800080010",
    "source_url": "https://www.google.com/maps/place/Biedronka/data=!4m7!3m6!1s0x4705155551979b03:0xb8028e7f60d7b3f8!8m2!3d51.8281757!4d17.2277457!16s%2Fg%2F11fr4w6dhl!19sChIJA5uXUVUVBUcR-LPXYH-OArg?authuser=0&hl=tr&rclk=1",
    "website_url": "https://www.biedronka.pl/pl?utm_source=gmb",
    "rating_text": "4,4",
    "stars": null,
    "number_of_reviews": null,
    "price_level": "",
    "open_hours": "",
    "extraction_timestamp": "2025-06-07T17:40:16.063Z",
    "source_name": "google",
    "source_query": "Irrigation Equipment",
    "source_country": "PL",
    "country": "Poland",
    "state": "Greater Poland Voivodeship",
    "city": "Pogorzela"
  },
  {
    "source_id": "ChIJB6y_v5J2HEcRlDfYx3xmc9M",
    "name": "Milex irrigation systems",
    "category": "Milex irrigation systems",
    "formatted_address": "4,6(37)",
    "phone_number": "+48242775222",
    "source_url": "https://www.google.com/maps/place/Milex+irrigation+systems/data=!4m7!3m6!1s0x471c7692bfbfac07:0xd373667cc7d83794!8m2!3d52.4690634!4d19.7520904!16s%2Fg%2F1w2yy67r!19sChIJB6y_v5J2HEcRlDfYx3xmc9M?authuser=0&hl=tr&rclk=1",
    "website_url": "https://www.milex.pl/",
    "rating_text": "4,6",
    "stars": null,
    "number_of_reviews": null,
    "price_level": "",
    "open_hours": "",
    "extraction_timestamp": "2025-06-07T17:40:16.063Z",
    "source_name": "google",
    "source_query": "Irrigation Equipment",
    "source_country": "PL",
    "country": "Poland",
    "state": "Greater Poland Voivodeship",
    "city": "Pogorzela"
  },
  {
    "source_id": "ChIJq_ALoF4UBUcRUyHvBNQ3wEc",
    "name": "Market Dino",
    "category": "Market Dino",
    "formatted_address": "4,0(210)",
    "phone_number": "",
    "source_url": "https://www.google.com/maps/place/Market+Dino/data=!4m7!3m6!1s0x4705145ea00bf0ab:0x47c037d404ef2153!8m2!3d51.8237602!4d17.2287301!16s%2Fg%2F1vljf0z0!19sChIJq_ALoF4UBUcRUyHvBNQ3wEc?authuser=0&hl=tr&rclk=1",
    "website_url": "https://marketdino.pl/",
    "rating_text": "4,0",
    "stars": null,
    "number_of_reviews": null,
    "price_level": "",
    "open_hours": "",
    "extraction_timestamp": "2025-06-07T17:40:16.064Z",
    "source_name": "google",
    "source_query": "Irrigation Equipment",
    "source_country": "PL",
    "country": "Poland",
    "state": "Greater Poland Voivodeship",
    "city": "Pogorzela"
  }
]
