[
  {
    "source_id": "ChIJrQuoF9t1BUcRd9-n52bnd_g",
    "name": "Hydro Mak-Plus",
    "category": "Hydro Mak-Plus",
    "formatted_address": "3,6(5)",
    "phone_number": "+48655731001",
    "source_url": "https://www.google.com/maps/place/Hydro+Mak-Plus/data=!4m7!3m6!1s0x470575db17a80bad:0xf877e766e7a7df77!8m2!3d51.7599145!4d16.808548!16s%2Fg%2F1hc76gk31!19sChIJrQuoF9t1BUcRd9-n52bnd_g?authuser=0&hl=tr&rclk=1",
    "website_url": "",
    "rating_text": "3,6",
    "stars": null,
    "number_of_reviews": null,
    "price_level": "",
    "open_hours": "",
    "extraction_timestamp": "2025-06-07T17:50:20.105Z",
    "source_name": "google",
    "source_query": "Irrigation Equipment",
    "source_country": "PL",
    "country": "Poland",
    "state": "Greater Poland Voivodeship",
    "city": "Poniec"
  },
  {
    "source_id": "ChIJBRovUN11BUcRoHDjwcylJn4",
    "name": "Twardy Jarosław. Sklep wielobranżowy",
    "category": "Twardy Jarosław. Sklep wielobranżowy",
    "formatted_address": "4,2(5)",
    "phone_number": "+48502657793",
    "source_url": "https://www.google.com/maps/place/Twardy+Jaros%C5%82aw.+Sklep+wielobran%C5%BCowy/data=!4m7!3m6!1s0x470575dd502f1a05:0x7e26a5ccc1e370a0!8m2!3d51.7614261!4d16.8017355!16s%2Fg%2F1tcw6wv2!19sChIJBRovUN11BUcRoHDjwcylJn4?authuser=0&hl=tr&rclk=1",
    "website_url": "",
    "rating_text": "4,2",
    "stars": null,
    "number_of_reviews": null,
    "price_level": "",
    "open_hours": "",
    "extraction_timestamp": "2025-06-07T17:50:20.106Z",
    "source_name": "google",
    "source_query": "Irrigation Equipment",
    "source_country": "PL",
    "country": "Poland",
    "state": "Greater Poland Voivodeship",
    "city": "Poniec"
  },
  {
    "source_id": "ChIJ_3TpjcN1BUcRgVM3qo9bRX4",
    "name": "Rynek",
    "category": "Rynek",
    "formatted_address": "4,3(23)",
    "phone_number": "",
    "source_url": "https://www.google.com/maps/place/Rynek/data=!4m7!3m6!1s0x470575c38de974ff:0x7e455b8faa375381!8m2!3d51.7651298!4d16.8068677!16s%2Fg%2F11hbv7ygtw!19sChIJ_3TpjcN1BUcRgVM3qo9bRX4?authuser=0&hl=tr&rclk=1",
    "website_url": "",
    "rating_text": "4,3",
    "stars": null,
    "number_of_reviews": null,
    "price_level": "",
    "open_hours": "",
    "extraction_timestamp": "2025-06-07T17:50:20.107Z",
    "source_name": "google",
    "source_query": "Irrigation Equipment",
    "source_country": "PL",
    "country": "Poland",
    "state": "Greater Poland Voivodeship",
    "city": "Poniec"
  },
  {
    "source_id": "ChIJUdwhqgOYBUcR3jwtTyYHSx4",
    "name": "Hydro-Partner Sp. z o.o.",
    "category": "Hydro-Partner Sp. z o.o.",
    "formatted_address": "4,6(40)",
    "phone_number": "+48655252850",
    "source_url": "https://www.google.com/maps/place/Hydro-Partner+Sp.+z+o.o./data=!4m7!3m6!1s0x47059803aa21dc51:0x1e4b07264f2d3cde!8m2!3d51.8630159!4d16.5752719!16s%2Fg%2F1vgw7b90!19sChIJUdwhqgOYBUcR3jwtTyYHSx4?authuser=0&hl=tr&rclk=1",
    "website_url": "",
    "rating_text": "4,6",
    "stars": null,
    "number_of_reviews": null,
    "price_level": "",
    "open_hours": "",
    "extraction_timestamp": "2025-06-07T17:50:20.109Z",
    "source_name": "google",
    "source_query": "Irrigation Equipment",
    "source_country": "PL",
    "country": "Poland",
    "state": "Greater Poland Voivodeship",
    "city": "Poniec"
  },
  {
    "source_id": "ChIJc0Tj18R1BUcRXlwiIwHxsds",
    "name": "Dino",
    "category": "Dino",
    "formatted_address": "4,3(223)",
    "phone_number": "",
    "source_url": "https://www.google.com/maps/place/Dino/data=!4m7!3m6!1s0x470575c4d7e34473:0xdbb1f10123225c5e!8m2!3d51.7622684!4d16.8070627!16s%2Fg%2F1tgwqzfk!19sChIJc0Tj18R1BUcRXlwiIwHxsds?authuser=0&hl=tr&rclk=1",
    "website_url": "",
    "rating_text": "4,3",
    "stars": null,
    "number_of_reviews": null,
    "price_level": "",
    "open_hours": "",
    "extraction_timestamp": "2025-06-07T17:50:20.110Z",
    "source_name": "google",
    "source_query": "Irrigation Equipment",
    "source_country": "PL",
    "country": "Poland",
    "state": "Greater Poland Voivodeship",
    "city": "Poniec"
  },
  {
    "source_id": "ChIJK-cxaih1BUcRXU3EtsU_GrI",
    "name": "Dino",
    "category": "Dino",
    "formatted_address": "4,3(138)",
    "phone_number": "",
    "source_url": "https://www.google.com/maps/place/Dino/data=!4m7!3m6!1s0x470575286a31e72b:0xb21a3fc5b6c44d5d!8m2!3d51.7587207!4d16.8168144!16s%2Fg%2F11h279qwwz!19sChIJK-cxaih1BUcRXU3EtsU_GrI?authuser=0&hl=tr&rclk=1",
    "website_url": "",
    "rating_text": "4,3",
    "stars": null,
    "number_of_reviews": null,
    "price_level": "",
    "open_hours": "",
    "extraction_timestamp": "2025-06-07T17:50:20.112Z",
    "source_name": "google",
    "source_query": "Irrigation Equipment",
    "source_country": "PL",
    "country": "Poland",
    "state": "Greater Poland Voivodeship",
    "city": "Poniec"
  },
  {
    "source_id": "ChIJdxbCOsd1BUcRAy7yESRiEOw",
    "name": "Biedronka",
    "category": "Biedronka",
    "formatted_address": "4,1(397)",
    "phone_number": "+48800080010",
    "source_url": "https://www.google.com/maps/place/Biedronka/data=!4m7!3m6!1s0x470575c73ac21677:0xec10622411f22e03!8m2!3d51.7696772!4d16.8104837!16s%2Fg%2F1hc16c2bj!19sChIJdxbCOsd1BUcRAy7yESRiEOw?authuser=0&hl=tr&rclk=1",
    "website_url": "",
    "rating_text": "4,1",
    "stars": null,
    "number_of_reviews": null,
    "price_level": "",
    "open_hours": "",
    "extraction_timestamp": "2025-06-07T17:50:20.113Z",
    "source_name": "google",
    "source_query": "Irrigation Equipment",
    "source_country": "PL",
    "country": "Poland",
    "state": "Greater Poland Voivodeship",
    "city": "Poniec"
  }
]
