[
  {
    "source_id": "ChIJuVsV68UBBEcRJuglLcoGeIY",
    "name": "Michał Piasek Instalacje",
    "category": "Michał Piasek Instalacje",
    "formatted_address": "4,2(35)",
    "phone_number": "+48512043691",
    "source_url": "https://www.google.com/maps/place/Micha%C5%82+Piasek+Instalacje/data=!4m7!3m6!1s0x470401c5eb155bb9:0x867806ca2d25e826!8m2!3d52.880527!4d16.469123!16s%2Fg%2F11r4q9pg_g!19sChIJuVsV68UBBEcRJuglLcoGeIY?authuser=0&hl=tr&rclk=1",
    "website_url": "",
    "rating_text": "4,2",
    "stars": null,
    "number_of_reviews": null,
    "price_level": "",
    "open_hours": "",
    "extraction_timestamp": "2025-06-07T17:34:08.826Z",
    "source_name": "google",
    "source_query": "Irrigation Equipment",
    "source_country": "PL",
    "country": "Poland",
    "state": "Greater Poland Voivodeship",
    "city": "Powiat czarnkowsko-trzcianecki"
  },
  {
    "source_id": "ChIJPYsaim5WAUcRTQ1pXWfOVec",
    "name": "Hydro Poland",
    "category": "Hydro Poland",
    "formatted_address": "3,7(87)",
    "phone_number": "+48673525105",
    "source_url": "https://www.google.com/maps/place/Hydro+Poland/data=!4m7!3m6!1s0x4701566e8a1a8b3d:0xe755ce675d690d4d!8m2!3d53.0401073!4d16.4722088!16s%2Fg%2F1tm0rvvr!19sChIJPYsaim5WAUcRTQ1pXWfOVec?authuser=0&hl=tr&rclk=1",
    "website_url": "https://www.hydro.com/pl-PL/o-hydro/hydro-worldwide/europe/poland/trzcianka/",
    "rating_text": "3,7",
    "stars": null,
    "number_of_reviews": null,
    "price_level": "",
    "open_hours": "",
    "extraction_timestamp": "2025-06-07T17:34:08.827Z",
    "source_name": "google",
    "source_query": "Irrigation Equipment",
    "source_country": "PL",
    "country": "Poland",
    "state": "Greater Poland Voivodeship",
    "city": "Powiat czarnkowsko-trzcianecki"
  },
  {
    "source_id": "ChIJw8QPLtIABEcRSnudYYyp6GQ",
    "name": "Sanit-El Sp.J. Hurtownia materiałów instalacyjnych",
    "category": "Sanit-El Sp.J. Hurtownia materiałów instalacyjnych",
    "formatted_address": "4,7(27)",
    "phone_number": "+48672555214",
    "source_url": "https://www.google.com/maps/place/Sanit-El+Sp.J.+Hurtownia+materia%C5%82%C3%B3w+instalacyjnych/data=!4m7!3m6!1s0x470400d22e0fc4c3:0x64e8a98c619d7b4a!8m2!3d52.8917003!4d16.5449032!16s%2Fg%2F1tfjjv4j!19sChIJw8QPLtIABEcRSnudYYyp6GQ?authuser=0&hl=tr&rclk=1",
    "website_url": "",
    "rating_text": "4,7",
    "stars": null,
    "number_of_reviews": null,
    "price_level": "",
    "open_hours": "",
    "extraction_timestamp": "2025-06-07T17:34:08.827Z",
    "source_name": "google",
    "source_query": "Irrigation Equipment",
    "source_country": "PL",
    "country": "Poland",
    "state": "Greater Poland Voivodeship",
    "city": "Powiat czarnkowsko-trzcianecki"
  },
  {
    "source_id": "ChIJUfn2Ig35A0cREW9fZ4029UM",
    "name": "IMTechnika sp. z o.o.",
    "category": "IMTechnika sp. z o.o.",
    "formatted_address": "4,4(17)",
    "phone_number": "+48883820388",
    "source_url": "https://www.google.com/maps/place/IMTechnika+sp.+z+o.o./data=!4m7!3m6!1s0x4703f90d22f6f951:0x43f5368d675f6f11!8m2!3d52.9756271!4d16.657836!16s%2Fg%2F11bw48_6mg!19sChIJUfn2Ig35A0cREW9fZ4029UM?authuser=0&hl=tr&rclk=1",
    "website_url": "http://imtechnika.pl/",
    "rating_text": "4,4",
    "stars": null,
    "number_of_reviews": null,
    "price_level": "",
    "open_hours": "",
    "extraction_timestamp": "2025-06-07T17:34:08.828Z",
    "source_name": "google",
    "source_query": "Irrigation Equipment",
    "source_country": "PL",
    "country": "Poland",
    "state": "Greater Poland Voivodeship",
    "city": "Powiat czarnkowsko-trzcianecki"
  },
  {
    "source_id": "ChIJxaS7WRwBBEcRXFXc1O3A8LQ",
    "name": "AquaZiem Studniarstwo Bartosz Bardziński",
    "category": "AquaZiem Studniarstwo Bartosz Bardziński",
    "formatted_address": "4,8(23)",
    "phone_number": "+48602645820",
    "source_url": "https://www.google.com/maps/place/AquaZiem+Studniarstwo+Bartosz+Bardzi%C5%84ski/data=!4m7!3m6!1s0x4704011c59bba4c5:0xb4f0c0edd4dc555c!8m2!3d52.8842696!4d16.5040428!16s%2Fg%2F1tf5jbdh!19sChIJxaS7WRwBBEcRXFXc1O3A8LQ?authuser=0&hl=tr&rclk=1",
    "website_url": "",
    "rating_text": "4,8",
    "stars": null,
    "number_of_reviews": null,
    "price_level": "",
    "open_hours": "",
    "extraction_timestamp": "2025-06-07T17:34:08.828Z",
    "source_name": "google",
    "source_query": "Irrigation Equipment",
    "source_country": "PL",
    "country": "Poland",
    "state": "Greater Poland Voivodeship",
    "city": "Powiat czarnkowsko-trzcianecki"
  },
  {
    "source_id": "ChIJjSkyVVrlA0cR4LxRq4X4-_o",
    "name": "ASTA ENERGY SYSTEMS Sp. z o.o.",
    "category": "ASTA ENERGY SYSTEMS Sp. z o.o.",
    "formatted_address": "4,9(229)",
    "phone_number": "+48508018845",
    "source_url": "https://www.google.com/maps/place/ASTA+ENERGY+SYSTEMS+Sp.+z+o.o./data=!4m7!3m6!1s0x4703e55a5532298d:0xfafbf885ab51bce0!8m2!3d53.1147071!4d16.772922!16s%2Fg%2F11q8wxwgp7!19sChIJjSkyVVrlA0cR4LxRq4X4-_o?authuser=0&hl=tr&rclk=1",
    "website_url": "https://www.asta-energy.pl/?utm_source=google_profile&utm_campaign=localo&utm_medium=mainlink",
    "rating_text": "4,9",
    "stars": null,
    "number_of_reviews": null,
    "price_level": "",
    "open_hours": "",
    "extraction_timestamp": "2025-06-07T17:34:08.829Z",
    "source_name": "google",
    "source_query": "Irrigation Equipment",
    "source_country": "PL",
    "country": "Poland",
    "state": "Greater Poland Voivodeship",
    "city": "Powiat czarnkowsko-trzcianecki"
  },
  {
    "source_id": "ChIJkSifA7nmA0cRWp6QLcycI1U",
    "name": "PPHU Technologie Grzewcze i Sanitarne",
    "category": "PPHU Technologie Grzewcze i Sanitarne",
    "formatted_address": "4,5(20)",
    "phone_number": "+48667749588",
    "source_url": "https://www.google.com/maps/place/PPHU+Technologie+Grzewcze+i+Sanitarne/data=!4m7!3m6!1s0x4703e6b9039f2891:0x55239ccc2d909e5a!8m2!3d53.1625658!4d16.76349!16s%2Fg%2F1tczp1h6!19sChIJkSifA7nmA0cRWp6QLcycI1U?authuser=0&hl=tr&rclk=1",
    "website_url": "http://www.technologiegrzewcze.pl/",
    "rating_text": "4,5",
    "stars": null,
    "number_of_reviews": null,
    "price_level": "",
    "open_hours": "",
    "extraction_timestamp": "2025-06-07T17:34:08.829Z",
    "source_name": "google",
    "source_query": "Irrigation Equipment",
    "source_country": "PL",
    "country": "Poland",
    "state": "Greater Poland Voivodeship",
    "city": "Powiat czarnkowsko-trzcianecki"
  },
  {
    "source_id": "ChIJ3739v0AHBEcRDXG7O8P9IaE",
    "name": "Bricomarché Czarnków",
    "category": "Bricomarché Czarnków",
    "formatted_address": "4,7(15)",
    "phone_number": "+48502392468",
    "source_url": "https://www.google.com/maps/place/Bricomarch%C3%A9+Czarnk%C3%B3w/data=!4m7!3m6!1s0x47040740bffdbddf:0xa121fdc33bbb710d!8m2!3d52.9105881!4d16.5690897!16s%2Fg%2F11ycsjdc9y!19sChIJ3739v0AHBEcRDXG7O8P9IaE?authuser=0&hl=tr&rclk=1",
    "website_url": "https://www.bricomarche.pl/",
    "rating_text": "4,7",
    "stars": null,
    "number_of_reviews": null,
    "price_level": "",
    "open_hours": "",
    "extraction_timestamp": "2025-06-07T17:34:08.830Z",
    "source_name": "google",
    "source_query": "Irrigation Equipment",
    "source_country": "PL",
    "country": "Poland",
    "state": "Greater Poland Voivodeship",
    "city": "Powiat czarnkowsko-trzcianecki"
  },
  {
    "source_id": "ChIJI83Gz6jmA0cRiKQ79Ugo8rA",
    "name": "Hydro-Instal",
    "category": "Hydro-Instal",
    "formatted_address": "2,2(5)",
    "phone_number": "+48606960257",
    "source_url": "https://www.google.com/maps/place/Hydro-Instal/data=!4m7!3m6!1s0x4703e6a8cfc6cd23:0xb0f22848f53ba488!8m2!3d53.16926!4d16.7398731!16s%2Fg%2F1v0ljgmw!19sChIJI83Gz6jmA0cRiKQ79Ugo8rA?authuser=0&hl=tr&rclk=1",
    "website_url": "",
    "rating_text": "2,2",
    "stars": null,
    "number_of_reviews": null,
    "price_level": "",
    "open_hours": "",
    "extraction_timestamp": "2025-06-07T17:34:08.830Z",
    "source_name": "google",
    "source_query": "Irrigation Equipment",
    "source_country": "PL",
    "country": "Poland",
    "state": "Greater Poland Voivodeship",
    "city": "Powiat czarnkowsko-trzcianecki"
  },
  {
    "source_id": "ChIJX5y2wlLlA0cRP9wTXjCmZuY",
    "name": "RG-HYDRO Studnie głębinowe",
    "category": "RG-HYDRO Studnie głębinowe",
    "formatted_address": "5,0(21)",
    "phone_number": "+48608056632",
    "source_url": "https://www.google.com/maps/place/RG-HYDRO+Studnie+g%C5%82%C4%99binowe/data=!4m7!3m6!1s0x4703e552c2b69c5f:0xe666a6305e13dc3f!8m2!3d53.140091!4d16.7400096!16s%2Fg%2F11v11162r7!19sChIJX5y2wlLlA0cRP9wTXjCmZuY?authuser=0&hl=tr&rclk=1",
    "website_url": "https://www.facebook.com/profile.php?id=100084564687630",
    "rating_text": "5,0",
    "stars": null,
    "number_of_reviews": null,
    "price_level": "",
    "open_hours": "",
    "extraction_timestamp": "2025-06-07T17:34:08.830Z",
    "source_name": "google",
    "source_query": "Irrigation Equipment",
    "source_country": "PL",
    "country": "Poland",
    "state": "Greater Poland Voivodeship",
    "city": "Powiat czarnkowsko-trzcianecki"
  },
  {
    "source_id": "ChIJ_T6uO4PmA0cRdGix0unxmq8",
    "name": "Sanpol Piła- hurtownia instalacyjna, hydrauliczna, sanitarna",
    "category": "Sanpol Piła- hurtownia instalacyjna, hydrauliczna, sanitarna",
    "formatted_address": "Sanpol Piła- hurtownia instalacyjna, hydrauliczna, sanitarna",
    "phone_number": "+48618746839",
    "source_url": "https://www.google.com/maps/place/Sanpol+Pi%C5%82a-+hurtownia+instalacyjna,+hydrauliczna,+sanitarna/data=!4m7!3m6!1s0x4703e6833bae3efd:0xaf9af1e9d2b16874!8m2!3d53.1622044!4d16.7706962!16s%2Fg%2F11g_609mv!19sChIJ_T6uO4PmA0cRdGix0unxmq8?authuser=0&hl=tr&rclk=1",
    "website_url": "https://sanpol.pl/kontakt/sanpol-pila",
    "rating_text": "4,9",
    "stars": null,
    "number_of_reviews": null,
    "price_level": "",
    "open_hours": "",
    "extraction_timestamp": "2025-06-07T17:34:08.831Z",
    "source_name": "google",
    "source_query": "Irrigation Equipment",
    "source_country": "PL",
    "country": "Poland",
    "state": "Greater Poland Voivodeship",
    "city": "Powiat czarnkowsko-trzcianecki"
  },
  {
    "source_id": "ChIJc2bh7QLlA0cRnLPN_B7cyR0",
    "name": "Ogrody Zakładanie Projektowanie Ogrodów Piła ZIELONI Nawadnianie Ogrodu Trawa z Rolki Ogrodnik",
    "category": "Ogrody Zakładanie Projektowanie Ogrodów Piła ZIELONI Nawadnianie Ogrodu Trawa z Rolki Ogrodnik",
    "formatted_address": "5,0(14)",
    "phone_number": "+48601425852",
    "source_url": "https://www.google.com/maps/place/Ogrody+Zak%C5%82adanie+Projektowanie+Ogrod%C3%B3w+Pi%C5%82a+ZIELONI+Nawadnianie+Ogrodu+Trawa+z+Rolki+Ogrodnik/data=!4m7!3m6!1s0x4703e502ede16673:0x1dc9dc1efccdb39c!8m2!3d53.15307!4d16.74962!16s%2Fg%2F11gtggk6xz!19sChIJc2bh7QLlA0cRnLPN_B7cyR0?authuser=0&hl=tr&rclk=1",
    "website_url": "https://www.nawadnianie.pila.pl/",
    "rating_text": "5,0",
    "stars": null,
    "number_of_reviews": null,
    "price_level": "",
    "open_hours": "",
    "extraction_timestamp": "2025-06-07T17:34:08.831Z",
    "source_name": "google",
    "source_query": "Irrigation Equipment",
    "source_country": "PL",
    "country": "Poland",
    "state": "Greater Poland Voivodeship",
    "city": "Powiat czarnkowsko-trzcianecki"
  },
  {
    "source_id": "ChIJRwZlOcLjA0cRkSdcGC7KwnA",
    "name": "EKOPIL Sp. z o.o. - Producent urządzeń do przemysłu oraz oczyszczalni ścieków",
    "category": "EKOPIL Sp. z o.o. - Producent urządzeń do przemysłu oraz oczyszczalni ścieków",
    "formatted_address": "4,8(23)",
    "phone_number": "+48673517176",
    "source_url": "https://www.google.com/maps/place/EKOPIL+Sp.+z+o.o.+-+Producent+urz%C4%85dze%C5%84+do+przemys%C5%82u+oraz+oczyszczalni+%C5%9Bciek%C3%B3w/data=!4m7!3m6!1s0x4703e3c239650647:0x70c2ca2e185c2791!8m2!3d53.1565701!4d16.6819148!16s%2Fg%2F11b5s2d363!19sChIJRwZlOcLjA0cRkSdcGC7KwnA?authuser=0&hl=tr&rclk=1",
    "website_url": "http://www.ekopil.pl/",
    "rating_text": "4,8",
    "stars": null,
    "number_of_reviews": null,
    "price_level": "",
    "open_hours": "",
    "extraction_timestamp": "2025-06-07T17:34:08.832Z",
    "source_name": "google",
    "source_query": "Irrigation Equipment",
    "source_country": "PL",
    "country": "Poland",
    "state": "Greater Poland Voivodeship",
    "city": "Powiat czarnkowsko-trzcianecki"
  },
  {
    "source_id": "ChIJtYeyvN1zBEcR6noD_r1poQs",
    "name": "FAKT Armatura",
    "category": "FAKT Armatura",
    "formatted_address": "4,8(43)",
    "phone_number": "+48672617371",
    "source_url": "https://www.google.com/maps/place/FAKT+Armatura/data=!4m7!3m6!1s0x470473ddbcb287b5:0xba169bdfe037aea!8m2!3d52.751154!4d16.982685!16s%2Fg%2F1tmxpq97!19sChIJtYeyvN1zBEcR6noD_r1poQs?authuser=0&hl=tr&rclk=1",
    "website_url": "http://www.mclan.pl/",
    "rating_text": "4,8",
    "stars": null,
    "number_of_reviews": null,
    "price_level": "",
    "open_hours": "",
    "extraction_timestamp": "2025-06-07T17:34:08.832Z",
    "source_name": "google",
    "source_query": "Irrigation Equipment",
    "source_country": "PL",
    "country": "Poland",
    "state": "Greater Poland Voivodeship",
    "city": "Powiat czarnkowsko-trzcianecki"
  },
  {
    "source_id": "ChIJZc6kGQfBGawRO6LJusF2Cog",
    "name": "JMEnergia - Fotowoltaika i Magazyny energii",
    "category": "JMEnergia - Fotowoltaika i Magazyny energii",
    "formatted_address": "5,0(11)",
    "phone_number": "+48888259385",
    "source_url": "https://www.google.com/maps/place/JMEnergia+-+Fotowoltaika+i+Magazyny+energii/data=!4m7!3m6!1s0xac19c10719a4ce65:0x880a76c1bac9a23b!8m2!3d52.961947!4d16.48217!16s%2Fg%2F11k3vv8nxp!19sChIJZc6kGQfBGawRO6LJusF2Cog?authuser=0&hl=tr&rclk=1",
    "website_url": "http://www.jmenergia.pl/",
    "rating_text": "5,0",
    "stars": null,
    "number_of_reviews": null,
    "price_level": "",
    "open_hours": "",
    "extraction_timestamp": "2025-06-07T17:34:08.832Z",
    "source_name": "google",
    "source_query": "Irrigation Equipment",
    "source_country": "PL",
    "country": "Poland",
    "state": "Greater Poland Voivodeship",
    "city": "Powiat czarnkowsko-trzcianecki"
  },
  {
    "source_id": "ChIJpeQT47nmA0cRias_L0-_P7c",
    "name": "Hydraulik Mikołajczak Przyłącza Sieci Wodociągowe Kanalizacyjne Pompownie Ścieków",
    "category": "Hydraulik Mikołajczak Przyłącza Sieci Wodociągowe Kanalizacyjne Pompownie Ścieków",
    "formatted_address": "5,0(4)",
    "phone_number": "+48672150941",
    "source_url": "https://www.google.com/maps/place/Hydraulik+Miko%C5%82ajczak+Przy%C5%82%C4%85cza+Sieci+Wodoci%C4%85gowe+Kanalizacyjne+Pompownie+%C5%9Aciek%C3%B3w/data=!4m7!3m6!1s0x4703e6b9e313e4a5:0xb73fbf4f2f3fab89!8m2!3d53.1678651!4d16.7209274!16s%2Fg%2F1hc21hmhc!19sChIJpeQT47nmA0cRias_L0-_P7c?authuser=0&hl=tr&rclk=1",
    "website_url": "http://www.hydraulik.pila.pl/",
    "rating_text": "5,0",
    "stars": null,
    "number_of_reviews": null,
    "price_level": "",
    "open_hours": "",
    "extraction_timestamp": "2025-06-07T17:34:08.833Z",
    "source_name": "google",
    "source_query": "Irrigation Equipment",
    "source_country": "PL",
    "country": "Poland",
    "state": "Greater Poland Voivodeship",
    "city": "Powiat czarnkowsko-trzcianecki"
  },
  {
    "source_id": "ChIJA8sbkqDlA0cRMYTNmXJrApg",
    "name": "KERAS Studnie Głębinowe",
    "category": "KERAS Studnie Głębinowe",
    "formatted_address": "5,0(130)",
    "phone_number": "+48511351636",
    "source_url": "https://www.google.com/maps/place/KERAS+Studnie+G%C5%82%C4%99binowe/data=!4m7!3m6!1s0x4703e5a0921bcb03:0x98026b7299cd8431!8m2!3d53.1523046!4d16.7533447!16s%2Fg%2F11s0t3rpk1!19sChIJA8sbkqDlA0cRMYTNmXJrApg?authuser=0&hl=tr&rclk=1",
    "website_url": "http://www.keras.pila.pl/",
    "rating_text": "5,0",
    "stars": null,
    "number_of_reviews": null,
    "price_level": "",
    "open_hours": "",
    "extraction_timestamp": "2025-06-07T17:34:08.833Z",
    "source_name": "google",
    "source_query": "Irrigation Equipment",
    "source_country": "PL",
    "country": "Poland",
    "state": "Greater Poland Voivodeship",
    "city": "Powiat czarnkowsko-trzcianecki"
  },
  {
    "source_id": "ChIJ1zwogH-5BkcRSFeZEKTqbEs",
    "name": "STIMASZ Stanisław Purzycki",
    "category": "STIMASZ Stanisław Purzycki",
    "formatted_address": "5,0(6)",
    "phone_number": "+48601829052",
    "source_url": "https://www.google.com/maps/place/STIMASZ+Stanis%C5%82aw+Purzycki/data=!4m7!3m6!1s0x4706b97f80283cd7:0x4b6ceaa410995748!8m2!3d52.8208996!4d15.9493562!16s%2Fg%2F11nt0fyrpz!19sChIJ1zwogH-5BkcRSFeZEKTqbEs?authuser=0&hl=tr&rclk=1",
    "website_url": "http://stimasz.com.pl/",
    "rating_text": "5,0",
    "stars": null,
    "number_of_reviews": null,
    "price_level": "",
    "open_hours": "",
    "extraction_timestamp": "2025-06-07T17:34:08.833Z",
    "source_name": "google",
    "source_query": "Irrigation Equipment",
    "source_country": "PL",
    "country": "Poland",
    "state": "Greater Poland Voivodeship",
    "city": "Powiat czarnkowsko-trzcianecki"
  },
  {
    "source_id": "ChIJY7gH_lS3BkcRnT3txmkQiTc",
    "name": "Hydrom - Usługi hydrauliczne i instalacje grzewcze",
    "category": "Hydrom - Usługi hydrauliczne i instalacje grzewcze",
    "formatted_address": "5,0(2)",
    "phone_number": "+48663736224",
    "source_url": "https://www.google.com/maps/place/Hydrom+-+Us%C5%82ugi+hydrauliczne+i+instalacje+grzewcze/data=!4m7!3m6!1s0x4706b754fe07b863:0x37891069c6ed3d9d!8m2!3d52.8654719!4d15.983172!16s%2Fg%2F11rdcfyvfs!19sChIJY7gH_lS3BkcRnT3txmkQiTc?authuser=0&hl=tr&rclk=1",
    "website_url": "",
    "rating_text": "5,0",
    "stars": null,
    "number_of_reviews": null,
    "price_level": "",
    "open_hours": "",
    "extraction_timestamp": "2025-06-07T17:34:08.834Z",
    "source_name": "google",
    "source_query": "Irrigation Equipment",
    "source_country": "PL",
    "country": "Poland",
    "state": "Greater Poland Voivodeship",
    "city": "Powiat czarnkowsko-trzcianecki"
  },
  {
    "source_id": "ChIJ7T3NkR7kA0cRJatMQU8xy7k",
    "name": "Ogrody Piła Projektowanie Zakładanie Budowa Ogrodów Sebastian Augustyn Aranżacja Ogrodu Wałcz Złotów",
    "category": "Ogrody Piła Projektowanie Zakładanie Budowa Ogrodów Sebastian Augustyn Aranżacja Ogrodu Wałcz Złotów",
    "formatted_address": "4,8(25)",
    "phone_number": "+48604542818",
    "source_url": "https://www.google.com/maps/place/Ogrody+Pi%C5%82a+Projektowanie+Zak%C5%82adanie+Budowa+Ogrod%C3%B3w+Sebastian+Augustyn+Aran%C5%BCacja+Ogrodu+Wa%C5%82cz+Z%C5%82ot%C3%B3w/data=!4m7!3m6!1s0x4703e41e91cd3ded:0xb9cb314f414cab25!8m2!3d53.1593243!4d16.7460942!16s%2Fg%2F113fsqsqh!19sChIJ7T3NkR7kA0cRJatMQU8xy7k?authuser=0&hl=tr&rclk=1",
    "website_url": "https://www.sosw.edu.pl/",
    "rating_text": "4,8",
    "stars": null,
    "number_of_reviews": null,
    "price_level": "",
    "open_hours": "",
    "extraction_timestamp": "2025-06-07T17:34:08.834Z",
    "source_name": "google",
    "source_query": "Irrigation Equipment",
    "source_country": "PL",
    "country": "Poland",
    "state": "Greater Poland Voivodeship",
    "city": "Powiat czarnkowsko-trzcianecki"
  },
  {
    "source_id": "ChIJBZ0hyuBzBEcROJaXC8w3x4A",
    "name": "SANET Sławomir Ruks",
    "category": "SANET Sławomir Ruks",
    "formatted_address": "4,7(26)",
    "phone_number": "+48672619004",
    "source_url": "https://www.google.com/maps/place/SANET+S%C5%82awomir+Ruks/data=!4m7!3m6!1s0x470473e0ca219d05:0x80c737cc0b979638!8m2!3d52.753356!4d16.9884381!16s%2Fg%2F1tdhkjml!19sChIJBZ0hyuBzBEcROJaXC8w3x4A?authuser=0&hl=tr&rclk=1",
    "website_url": "http://sanet.net.pl/",
    "rating_text": "4,7",
    "stars": null,
    "number_of_reviews": null,
    "price_level": "",
    "open_hours": "",
    "extraction_timestamp": "2025-06-07T17:34:08.834Z",
    "source_name": "google",
    "source_query": "Irrigation Equipment",
    "source_country": "PL",
    "country": "Poland",
    "state": "Greater Poland Voivodeship",
    "city": "Powiat czarnkowsko-trzcianecki"
  },
  {
    "source_id": "ChIJF0cAnlqhBkcR0lrD70zrU4g",
    "name": "Plaża Jezioro Radziszewskie",
    "category": "Plaża Jezioro Radziszewskie",
    "formatted_address": "4,6(465)",
    "phone_number": "",
    "source_url": "https://www.google.com/maps/place/Pla%C5%BCa+Jezioro+Radziszewskie/data=!4m7!3m6!1s0x4706a15a9e004717:0x8853eb4cefc35ad2!8m2!3d52.7017187!4d16.1886395!16s%2Fg%2F11g8v1m4bq!19sChIJF0cAnlqhBkcR0lrD70zrU4g?authuser=0&hl=tr&rclk=1",
    "website_url": "",
    "rating_text": "4,6",
    "stars": null,
    "number_of_reviews": null,
    "price_level": "",
    "open_hours": "",
    "extraction_timestamp": "2025-06-07T17:34:08.835Z",
    "source_name": "google",
    "source_query": "Irrigation Equipment",
    "source_country": "PL",
    "country": "Poland",
    "state": "Greater Poland Voivodeship",
    "city": "Powiat czarnkowsko-trzcianecki"
  },
  {
    "source_id": "ChIJpwrrdooJiEoR9sGCYtDw7fY",
    "name": "Expert Gaz Arkadiusz Spychalski. Serwis urządzeń grzewczych",
    "category": "Expert Gaz Arkadiusz Spychalski. Serwis urządzeń grzewczych",
    "formatted_address": "5,0(14)",
    "phone_number": "+48880468846",
    "source_url": "https://www.google.com/maps/place/Expert+Gaz+Arkadiusz+Spychalski.+Serwis+urz%C4%85dze%C5%84+grzewczych/data=!4m7!3m6!1s0x4a88098a76eb0aa7:0xf6edf0d06282c1f6!8m2!3d53.0162058!4d16.9529053!16s%2Fg%2F11l1y2d3dq!19sChIJpwrrdooJiEoR9sGCYtDw7fY?authuser=0&hl=tr&rclk=1",
    "website_url": "",
    "rating_text": "5,0",
    "stars": null,
    "number_of_reviews": null,
    "price_level": "",
    "open_hours": "",
    "extraction_timestamp": "2025-06-07T17:34:08.835Z",
    "source_name": "google",
    "source_query": "Irrigation Equipment",
    "source_country": "PL",
    "country": "Poland",
    "state": "Greater Poland Voivodeship",
    "city": "Powiat czarnkowsko-trzcianecki"
  },
  {
    "source_id": "ChIJT4U-3EPkA0cRegfverRQua0",
    "name": "Sanit-Bis, Lidia Muszyńska, Autoryzowany Top Partner Buderus, Tekla",
    "category": "Sanit-Bis, Lidia Muszyńska, Autoryzowany Top Partner Buderus, Tekla",
    "formatted_address": "Sanit-Bis, Lidia Muszyńska, Autoryzowany Top Partner Buderus, Tekla",
    "phone_number": "+48673519305",
    "source_url": "https://www.google.com/maps/place/Sanit-Bis,+Lidia+Muszy%C5%84ska,+Autoryzowany+Top+Partner+Buderus,+Tekla/data=!4m7!3m6!1s0x4703e443dc3e854f:0xadb950b47aef077a!8m2!3d53.1351645!4d16.7435712!16s%2Fg%2F1v299qdt!19sChIJT4U-3EPkA0cRegfverRQua0?authuser=0&hl=tr&rclk=1",
    "website_url": "https://sanitbis.pl/",
    "rating_text": "4,6",
    "stars": null,
    "number_of_reviews": null,
    "price_level": "",
    "open_hours": "",
    "extraction_timestamp": "2025-06-07T17:34:08.836Z",
    "source_name": "google",
    "source_query": "Irrigation Equipment",
    "source_country": "PL",
    "country": "Poland",
    "state": "Greater Poland Voivodeship",
    "city": "Powiat czarnkowsko-trzcianecki"
  },
  {
    "source_id": "ChIJcfknB1tdAUcRimziAN2n-HU",
    "name": "INSTAL-TECH Piotr Boinski",
    "category": "INSTAL-TECH Piotr Boinski",
    "formatted_address": "5,0(11)",
    "phone_number": "+48660992691",
    "source_url": "https://www.google.com/maps/place/INSTAL-TECH+Piotr+Boinski/data=!4m7!3m6!1s0x47015d5b0727f971:0x75f8a7dd00e26c8a!8m2!3d53.277503!4d16.4797809!16s%2Fg%2F11fwjz23bq!19sChIJcfknB1tdAUcRimziAN2n-HU?authuser=0&hl=tr&rclk=1",
    "website_url": "",
    "rating_text": "5,0",
    "stars": null,
    "number_of_reviews": null,
    "price_level": "",
    "open_hours": "",
    "extraction_timestamp": "2025-06-07T17:34:08.836Z",
    "source_name": "google",
    "source_query": "Irrigation Equipment",
    "source_country": "PL",
    "country": "Poland",
    "state": "Greater Poland Voivodeship",
    "city": "Powiat czarnkowsko-trzcianecki"
  },
  {
    "source_id": "ChIJRzjWkumKA0cRV_uVtTfpR_w",
    "name": "Słoneczko, Zakładanie Ogrodów, trawa z rolki, system nawodnienia",
    "category": "Słoneczko, Zakładanie Ogrodów, trawa z rolki, system nawodnienia",
    "formatted_address": "Słoneczko, Zakładanie Ogrodów, trawa z rolki, system nawodnienia",
    "phone_number": "+48669740330",
    "source_url": "https://www.google.com/maps/place/S%C5%82oneczko,+Zak%C5%82adanie+Ogrod%C3%B3w,+trawa+z+rolki,+system+nawodnienia/data=!4m7!3m6!1s0x47038ae992d63847:0xfc47e937b595fb57!8m2!3d52.8909345!4d16.9853835!16s%2Fg%2F11bv3mst70!19sChIJRzjWkumKA0cRV_uVtTfpR_w?authuser=0&hl=tr&rclk=1",
    "website_url": "https://www.facebook.com/eSloneczko",
    "rating_text": "5,0",
    "stars": null,
    "number_of_reviews": null,
    "price_level": "",
    "open_hours": "",
    "extraction_timestamp": "2025-06-07T17:34:08.836Z",
    "source_name": "google",
    "source_query": "Irrigation Equipment",
    "source_country": "PL",
    "country": "Poland",
    "state": "Greater Poland Voivodeship",
    "city": "Powiat czarnkowsko-trzcianecki"
  },
  {
    "source_id": "ChIJmSZ9D7ZsBEcRHnfQfyYHq3U",
    "name": "PSB Rajbud Bednarz",
    "category": "PSB Rajbud Bednarz",
    "formatted_address": "4,4(287)",
    "phone_number": "+48612974030",
    "source_url": "https://www.google.com/maps/place/PSB+Rajbud+Bednarz/data=!4m7!3m6!1s0x47046cb60f7d2699:0x75ab07267fd0771e!8m2!3d52.6460059!4d16.8048721!16s%2Fg%2F1tk6tmb0!19sChIJmSZ9D7ZsBEcRHnfQfyYHq3U?authuser=0&hl=tr&rclk=1",
    "website_url": "http://www.rajbud.biz/",
    "rating_text": "4,4",
    "stars": null,
    "number_of_reviews": null,
    "price_level": "",
    "open_hours": "",
    "extraction_timestamp": "2025-06-07T17:34:08.836Z",
    "source_name": "google",
    "source_query": "Irrigation Equipment",
    "source_country": "PL",
    "country": "Poland",
    "state": "Greater Poland Voivodeship",
    "city": "Powiat czarnkowsko-trzcianecki"
  },
  {
    "source_id": "ChIJnxg4LBwHBEcRp7yGgQLr3tU",
    "name": "PSB Mrówka Multicolor",
    "category": "PSB Mrówka Multicolor",
    "formatted_address": "4,5(106)",
    "phone_number": "+48672554646",
    "source_url": "https://www.google.com/maps/place/PSB+Mr%C3%B3wka+Multicolor/data=!4m7!3m6!1s0x4704071c2c38189f:0xd5deeb028186bca7!8m2!3d52.9181556!4d16.5756111!16s%2Fg%2F11fk8zdlc9!19sChIJnxg4LBwHBEcRp7yGgQLr3tU?authuser=0&hl=tr&rclk=1",
    "website_url": "https://mrowka.com.pl/sklep-psb-mrowka/psb-mrowka-czarnkow.html",
    "rating_text": "4,5",
    "stars": null,
    "number_of_reviews": null,
    "price_level": "",
    "open_hours": "",
    "extraction_timestamp": "2025-06-07T17:34:08.837Z",
    "source_name": "google",
    "source_query": "Irrigation Equipment",
    "source_country": "PL",
    "country": "Poland",
    "state": "Greater Poland Voivodeship",
    "city": "Powiat czarnkowsko-trzcianecki"
  },
  {
    "source_id": "ChIJ6_r3WLIGBEcR6CCb0nhClBk",
    "name": "Plaża Jezioro Duże Lubasz",
    "category": "Plaża Jezioro Duże Lubasz",
    "formatted_address": "4,5(102)",
    "phone_number": "+48533514989",
    "source_url": "https://www.google.com/maps/place/Pla%C5%BCa+Jezioro+Du%C5%BCe+Lubasz/data=!4m7!3m6!1s0x470406b258f7faeb:0x19944278d29b20e8!8m2!3d52.8534704!4d16.5336892!16s%2Fg%2F11dftrp0cf!19sChIJ6_r3WLIGBEcR6CCb0nhClBk?authuser=0&hl=tr&rclk=1",
    "website_url": "",
    "rating_text": "4,5",
    "stars": null,
    "number_of_reviews": null,
    "price_level": "",
    "open_hours": "",
    "extraction_timestamp": "2025-06-07T17:34:08.837Z",
    "source_name": "google",
    "source_query": "Irrigation Equipment",
    "source_country": "PL",
    "country": "Poland",
    "state": "Greater Poland Voivodeship",
    "city": "Powiat czarnkowsko-trzcianecki"
  },
  {
    "source_id": "ChIJZecWjCbkA0cRQG2pFfDiHiY",
    "name": "Pompy Ciepła Piła Sklep Instalacyjny Hydrauliczny M.K Piece CO Gazowe Pellet Ekogroszek",
    "category": "Pompy Ciepła Piła Sklep Instalacyjny Hydrauliczny M.K Piece CO Gazowe Pellet Ekogroszek",
    "formatted_address": "4,6(17)",
    "phone_number": "+48604873308",
    "source_url": "https://www.google.com/maps/place/Pompy+Ciep%C5%82a+Pi%C5%82a+Sklep+Instalacyjny+Hydrauliczny+M.K+Piece+CO+Gazowe+Pellet+Ekogroszek/data=!4m7!3m6!1s0x4703e4268c16e765:0x261ee2f015a96d40!8m2!3d53.1354202!4d16.7543784!16s%2Fg%2F1vp6yx14!19sChIJZecWjCbkA0cRQG2pFfDiHiY?authuser=0&hl=tr&rclk=1",
    "website_url": "https://www.pompycieplapila.pl/",
    "rating_text": "4,6",
    "stars": null,
    "number_of_reviews": null,
    "price_level": "",
    "open_hours": "",
    "extraction_timestamp": "2025-06-07T17:34:08.837Z",
    "source_name": "google",
    "source_query": "Irrigation Equipment",
    "source_country": "PL",
    "country": "Poland",
    "state": "Greater Poland Voivodeship",
    "city": "Powiat czarnkowsko-trzcianecki"
  },
  {
    "source_id": "ChIJm4psMixXAUcResN4BHw6idY",
    "name": "Professor Usługi Ziemne",
    "category": "Professor Usługi Ziemne",
    "formatted_address": "5,0(43)",
    "phone_number": "+48666636668",
    "source_url": "https://www.google.com/maps/place/Professor+Us%C5%82ugi+Ziemne/data=!4m7!3m6!1s0x4701572c326c8a9b:0xd6893a7c0478c37a!8m2!3d53.0496625!4d16.4658055!16s%2Fg%2F11mvnh0dy1!19sChIJm4psMixXAUcResN4BHw6idY?authuser=0&hl=tr&rclk=1",
    "website_url": "https://www.facebook.com/Professor-Us%C5%82ugi-ziemne-Asenizacyjne-103480208123685",
    "rating_text": "5,0",
    "stars": null,
    "number_of_reviews": null,
    "price_level": "",
    "open_hours": "",
    "extraction_timestamp": "2025-06-07T17:34:08.838Z",
    "source_name": "google",
    "source_query": "Irrigation Equipment",
    "source_country": "PL",
    "country": "Poland",
    "state": "Greater Poland Voivodeship",
    "city": "Powiat czarnkowsko-trzcianecki"
  }
]
