[
  {
    "source_id": "ChIJQfV-NIhGBUcRSI_sSKy_QpM",
    "name": "Producent Maszyn Rolniczych P.W. AGROUNIMA",
    "category": "Producent Maszyn Rolniczych P.W. AGROUNIMA",
    "formatted_address": "4,3(12)",
    "phone_number": "+48627257788",
    "source_url": "https://www.google.com/maps/place/Producent+Maszyn+Rolniczych+P.W.+AGROUNIMA/data=!4m7!3m6!1s0x47054688347ef541:0x9342bfac48ec8f48!8m2!3d51.6727009!4d17.4151981!16s%2Fg%2F1tffn11q!19sChIJQfV-NIhGBUcRSI_sSKy_QpM?authuser=0&hl=tr&rclk=1",
    "website_url": "http://agrounima.pl/",
    "rating_text": "4,3",
    "stars": null,
    "number_of_reviews": null,
    "price_level": "",
    "open_hours": "",
    "extraction_timestamp": "2025-06-07T18:01:37.698Z",
    "source_name": "google",
    "source_query": "Irrigation Equipment",
    "source_country": "PL",
    "country": "Poland",
    "state": "Greater Poland Voivodeship",
    "city": "Powiat krotoszyński"
  },
  {
    "source_id": "ChIJ3VbqfPxGBUcRh3RkN1_TW1c",
    "name": "GRENE",
    "category": "GRENE",
    "formatted_address": "4,2(32)",
    "phone_number": "+48502842779",
    "source_url": "https://www.google.com/maps/place/GRENE/data=!4m7!3m6!1s0x470546fc7cea56dd:0x575bd35f37647487!8m2!3d51.6971826!4d17.4204641!16s%2Fg%2F1q62bw1p7!19sChIJ3VbqfPxGBUcRh3RkN1_TW1c?authuser=0&hl=tr&rclk=1",
    "website_url": "http://www.grene.pl/",
    "rating_text": "4,2",
    "stars": null,
    "number_of_reviews": null,
    "price_level": "",
    "open_hours": "",
    "extraction_timestamp": "2025-06-07T18:01:37.699Z",
    "source_name": "google",
    "source_query": "Irrigation Equipment",
    "source_country": "PL",
    "country": "Poland",
    "state": "Greater Poland Voivodeship",
    "city": "Powiat krotoszyński"
  },
  {
    "source_id": "ChIJM8wXSi9EBUcRd0nkEmBRr3Y",
    "name": "ROsmosis-Wawrzyniak Sp. z o.o.",
    "category": "ROsmosis-Wawrzyniak Sp. z o.o.",
    "formatted_address": "4,1(25)",
    "phone_number": "+48627214310",
    "source_url": "https://www.google.com/maps/place/ROsmosis-Wawrzyniak+Sp.+z+o.o./data=!4m7!3m6!1s0x4705442f4a17cc33:0x76af516012e44977!8m2!3d51.6572545!4d17.3911293!16s%2Fg%2F11bw2gy3t9!19sChIJM8wXSi9EBUcRd0nkEmBRr3Y?authuser=0&hl=tr&rclk=1",
    "website_url": "",
    "rating_text": "4,1",
    "stars": null,
    "number_of_reviews": null,
    "price_level": "",
    "open_hours": "",
    "extraction_timestamp": "2025-06-07T18:01:37.701Z",
    "source_name": "google",
    "source_query": "Irrigation Equipment",
    "source_country": "PL",
    "country": "Poland",
    "state": "Greater Poland Voivodeship",
    "city": "Powiat krotoszyński"
  },
  {
    "source_id": "ChIJ0TCGVuRGBUcRhfRIQR6p630",
    "name": "Marlin Krotoszyn — Hurtownia techniki grzewczej i sanitarnej, Salon łazienek, Centrum Pomp Ciepła",
    "category": "Marlin Krotoszyn — Hurtownia techniki grzewczej i sanitarnej, Salon łazienek, Centrum Pomp Ciepła",
    "formatted_address": "Marlin Krotoszyn — Hurtownia techniki grzewczej i sanitarnej, Salon łazienek, Centrum Pomp Ciepła",
    "phone_number": "+48533341195",
    "source_url": "https://www.google.com/maps/place/Marlin+Krotoszyn+%E2%80%94+Hurtownia+techniki+grzewczej+i+sanitarnej,+Salon+%C5%82azienek,+Centrum+Pomp+Ciep%C5%82a/data=!4m7!3m6!1s0x470546e4568630d1:0x7deba91e4148f485!8m2!3d51.6953125!4d17.4148915!16s%2Fg%2F1tj7291t!19sChIJ0TCGVuRGBUcRhfRIQR6p630?authuser=0&hl=tr&rclk=1",
    "website_url": "http://marlin.com.pl/",
    "rating_text": "4,5",
    "stars": null,
    "number_of_reviews": null,
    "price_level": "",
    "open_hours": "",
    "extraction_timestamp": "2025-06-07T18:01:37.702Z",
    "source_name": "google",
    "source_query": "Irrigation Equipment",
    "source_country": "PL",
    "country": "Poland",
    "state": "Greater Poland Voivodeship",
    "city": "Powiat krotoszyński"
  },
  {
    "source_id": "ChIJdcwd4E5GBUcRDB067f8FmrQ",
    "name": "PPUH PARTNER Zdzisław Adamczewski",
    "category": "PPUH PARTNER Zdzisław Adamczewski",
    "formatted_address": "4,6(17)",
    "phone_number": "+48627226984",
    "source_url": "https://www.google.com/maps/place/PPUH+PARTNER+Zdzis%C5%82aw+Adamczewski/data=!4m7!3m6!1s0x4705464ee01dcc75:0xb49a05ffed3a1d0c!8m2!3d51.7185816!4d17.4458557!16s%2Fg%2F1tdnjtt7!19sChIJdcwd4E5GBUcRDB067f8FmrQ?authuser=0&hl=tr&rclk=1",
    "website_url": "http://d-aroma.com/",
    "rating_text": "4,6",
    "stars": null,
    "number_of_reviews": null,
    "price_level": "",
    "open_hours": "",
    "extraction_timestamp": "2025-06-07T18:01:37.703Z",
    "source_name": "google",
    "source_query": "Irrigation Equipment",
    "source_country": "PL",
    "country": "Poland",
    "state": "Greater Poland Voivodeship",
    "city": "Powiat krotoszyński"
  },
  {
    "source_id": "ChIJn_W-kahHBUcR7byLUuVY9Jw",
    "name": "ORING",
    "category": "ORING",
    "formatted_address": "4,5(37)",
    "phone_number": "+48506433410",
    "source_url": "https://www.google.com/maps/place/ORING/data=!4m7!3m6!1s0x470547a891bef59f:0x9cf458e5528bbced!8m2!3d51.7082028!4d17.4449272!16s%2Fg%2F11c6rxvhwk!19sChIJn_W-kahHBUcR7byLUuVY9Jw?authuser=0&hl=tr&rclk=1",
    "website_url": "http://oring.com.pl/",
    "rating_text": "4,5",
    "stars": null,
    "number_of_reviews": null,
    "price_level": "",
    "open_hours": "",
    "extraction_timestamp": "2025-06-07T18:01:37.733Z",
    "source_name": "google",
    "source_query": "Irrigation Equipment",
    "source_country": "PL",
    "country": "Poland",
    "state": "Greater Poland Voivodeship",
    "city": "Powiat krotoszyński"
  },
  {
    "source_id": "ChIJu_RMelRGBUcRG16D7RRc9TY",
    "name": "Hurtownia Instalacyjna M-Partner",
    "category": "Hurtownia Instalacyjna M-Partner",
    "formatted_address": "4,8(87)",
    "phone_number": "+48504239806",
    "source_url": "https://www.google.com/maps/place/Hurtownia+Instalacyjna+M-Partner/data=!4m7!3m6!1s0x470546547a4cf4bb:0x36f55c14ed835e1b!8m2!3d51.6960639!4d17.4396494!16s%2Fg%2F11bw5m99wq!19sChIJu_RMelRGBUcRG16D7RRc9TY?authuser=0&hl=tr&rclk=1",
    "website_url": "http://www.facebook.pl/hurtowniampartner",
    "rating_text": "4,8",
    "stars": null,
    "number_of_reviews": null,
    "price_level": "",
    "open_hours": "",
    "extraction_timestamp": "2025-06-07T18:01:37.734Z",
    "source_name": "google",
    "source_query": "Irrigation Equipment",
    "source_country": "PL",
    "country": "Poland",
    "state": "Greater Poland Voivodeship",
    "city": "Powiat krotoszyński"
  },
  {
    "source_id": "ChIJUVj_JnFHBUcRvwuN3vHn1Dk",
    "name": "Spawlab.pl Sklep internetowy oraz Serwis urządzeń spawalniczych, przecinarek plazmowych, kompresorów",
    "category": "Spawlab.pl Sklep internetowy oraz Serwis urządzeń spawalniczych, przecinarek plazmowych, kompresorów",
    "formatted_address": "Spawlab.pl Sklep internetowy oraz Serwis urządzeń spawalniczych, przecinarek plazmowych, kompresorów",
    "phone_number": "+48669162833",
    "source_url": "https://www.google.com/maps/place/Spawlab.pl+Sklep+internetowy+oraz+Serwis+urz%C4%85dze%C5%84+spawalniczych,+przecinarek+plazmowych,+kompresor%C3%B3w/data=!4m7!3m6!1s0x4705477126ff5851:0x39d4e7f1de8d0bbf!8m2!3d51.709867!4d17.4194092!16s%2Fg%2F11svnk7xfm!19sChIJUVj_JnFHBUcRvwuN3vHn1Dk?authuser=0&hl=tr&rclk=1",
    "website_url": "http://www.spawlab.pl/",
    "rating_text": "4,2",
    "stars": null,
    "number_of_reviews": null,
    "price_level": "",
    "open_hours": "",
    "extraction_timestamp": "2025-06-07T18:01:37.735Z",
    "source_name": "google",
    "source_query": "Irrigation Equipment",
    "source_country": "PL",
    "country": "Poland",
    "state": "Greater Poland Voivodeship",
    "city": "Powiat krotoszyński"
  },
  {
    "source_id": "ChIJ16rmnkM_BUcR5FgSHCSc0iI",
    "name": "MB-INSTAL Pompy Ciepła-Rekuperacja-Systemy grzewcze",
    "category": "MB-INSTAL Pompy Ciepła-Rekuperacja-Systemy grzewcze",
    "formatted_address": "5,0(20)",
    "phone_number": "+48726339798",
    "source_url": "https://www.google.com/maps/place/MB-INSTAL+Pompy+Ciep%C5%82a-Rekuperacja-Systemy+grzewcze/data=!4m7!3m6!1s0x47053f439ee6aad7:0x22d29c241c1258e4!8m2!3d51.709246!4d17.423502!16s%2Fg%2F11l30wwvrm!19sChIJ16rmnkM_BUcR5FgSHCSc0iI?authuser=0&hl=tr&rclk=1",
    "website_url": "https://www.facebook.com/MB.InstalacjeGrzewcze",
    "rating_text": "5,0",
    "stars": null,
    "number_of_reviews": null,
    "price_level": "",
    "open_hours": "",
    "extraction_timestamp": "2025-06-07T18:01:37.737Z",
    "source_name": "google",
    "source_query": "Irrigation Equipment",
    "source_country": "PL",
    "country": "Poland",
    "state": "Greater Poland Voivodeship",
    "city": "Powiat krotoszyński"
  },
  {
    "source_id": "ChIJlbWOIgFHBUcRk4S7s4xaJ3Q",
    "name": "Salon Łazienek i Techniki Grzewczej Armatura Kozłowski (hurtownia instalacyjna, hydrauliczna)",
    "category": "Salon Łazienek i Techniki Grzewczej Armatura Kozłowski (hurtownia instalacyjna, hydrauliczna)",
    "formatted_address": "Salon Łazienek i Techniki Grzewczej Armatura Kozłowski (hurtownia instalacyjna, hydrauliczna)",
    "phone_number": "+48627226006",
    "source_url": "https://www.google.com/maps/place/Salon+%C5%81azienek+i+Techniki+Grzewczej+Armatura+Koz%C5%82owski+%28hurtownia+instalacyjna,+hydrauliczna%29/data=!4m7!3m6!1s0x47054701228eb595:0x74275a8cb3bb8493!8m2!3d51.7041216!4d17.4326002!16s%2Fg%2F1ts3d9vq!19sChIJlbWOIgFHBUcRk4S7s4xaJ3Q?authuser=0&hl=tr&rclk=1",
    "website_url": "https://armatura24.pl/?utm_source=local&utm_medium=organic&utm_campaign=krotoszyn&utm_content=gmb",
    "rating_text": "4,5",
    "stars": null,
    "number_of_reviews": null,
    "price_level": "",
    "open_hours": "",
    "extraction_timestamp": "2025-06-07T18:01:37.738Z",
    "source_name": "google",
    "source_query": "Irrigation Equipment",
    "source_country": "PL",
    "country": "Poland",
    "state": "Greater Poland Voivodeship",
    "city": "Powiat krotoszyński"
  },
  {
    "source_id": "ChIJ__-DouVvBUcRXufXWuxliOk",
    "name": "Plantet",
    "category": "Plantet",
    "formatted_address": "4,9(110)",
    "phone_number": "+48693000090",
    "source_url": "https://www.google.com/maps/place/Plantet/data=!4m7!3m6!1s0x47056fe5a283ffff:0xe98865ec5ad7e75e!8m2!3d51.6958956!4d17.4119917!16s%2Fg%2F11h7zf6r0r!19sChIJ__-DouVvBUcRXufXWuxliOk?authuser=0&hl=tr&rclk=1",
    "website_url": "https://plantet.pl/?utm_source=google&utm_medium=organic&utm_campaign=gmf",
    "rating_text": "4,9",
    "stars": null,
    "number_of_reviews": null,
    "price_level": "",
    "open_hours": "",
    "extraction_timestamp": "2025-06-07T18:01:37.739Z",
    "source_name": "google",
    "source_query": "Irrigation Equipment",
    "source_country": "PL",
    "country": "Poland",
    "state": "Greater Poland Voivodeship",
    "city": "Powiat krotoszyński"
  },
  {
    "source_id": "ChIJCQPG4lJBBUcRpbH9TBUqItQ",
    "name": "Instalatorstwo Sanitarne Wod-Kan, CO i Gaz Krzysztof Panek",
    "category": "Instalatorstwo Sanitarne Wod-Kan, CO i Gaz Krzysztof Panek",
    "formatted_address": "Instalatorstwo Sanitarne Wod-Kan, CO i Gaz Krzysztof Panek",
    "phone_number": "+48605642300",
    "source_url": "https://www.google.com/maps/place/Instalatorstwo+Sanitarne+Wod-Kan,+CO+i+Gaz+Krzysztof+Panek/data=!4m7!3m6!1s0x47054152e2c60309:0xd4222a154cfdb1a5!8m2!3d51.7131816!4d17.3451837!16s%2Fg%2F11mdh_hn6q!19sChIJCQPG4lJBBUcRpbH9TBUqItQ?authuser=0&hl=tr&rclk=1",
    "website_url": "",
    "rating_text": "",
    "stars": null,
    "number_of_reviews": null,
    "price_level": "",
    "open_hours": "",
    "extraction_timestamp": "2025-06-07T18:01:37.740Z",
    "source_name": "google",
    "source_query": "Irrigation Equipment",
    "source_country": "PL",
    "country": "Poland",
    "state": "Greater Poland Voivodeship",
    "city": "Powiat krotoszyński"
  },
  {
    "source_id": "ChIJvyC8M71rBUcRz852XlVu1vs",
    "name": "INSTALL-ARMATURA GRZEWCZA I SANITARNA",
    "category": "INSTALL-ARMATURA GRZEWCZA I SANITARNA",
    "formatted_address": "5,0(1)",
    "phone_number": "+48573374871",
    "source_url": "https://www.google.com/maps/place/INSTALL-ARMATURA+GRZEWCZA+I+SANITARNA/data=!4m7!3m6!1s0x47056bbd33bc20bf:0xfbd66e555e76cecf!8m2!3d51.7162465!4d17.2223674!16s%2Fg%2F11vcwj2h9s!19sChIJvyC8M71rBUcRz852XlVu1vs?authuser=0&hl=tr&rclk=1",
    "website_url": "",
    "rating_text": "5,0",
    "stars": null,
    "number_of_reviews": null,
    "price_level": "",
    "open_hours": "",
    "extraction_timestamp": "2025-06-07T18:01:37.742Z",
    "source_name": "google",
    "source_query": "Irrigation Equipment",
    "source_country": "PL",
    "country": "Poland",
    "state": "Greater Poland Voivodeship",
    "city": "Powiat krotoszyński"
  },
  {
    "source_id": "ChIJg660zW5HBUcRDQRs-fiLco0",
    "name": "Hydrosystem Łukasz Czubak",
    "category": "Hydrosystem Łukasz Czubak",
    "formatted_address": "5,0(3)",
    "phone_number": "+48609962905",
    "source_url": "https://www.google.com/maps/place/Hydrosystem+%C5%81ukasz+Czubak/data=!4m7!3m6!1s0x4705476ecdb4ae83:0x8d728bf8f96c040d!8m2!3d51.6966074!4d17.4387066!16s%2Fg%2F11pvhq_d62!19sChIJg660zW5HBUcRDQRs-fiLco0?authuser=0&hl=tr&rclk=1",
    "website_url": "",
    "rating_text": "5,0",
    "stars": null,
    "number_of_reviews": null,
    "price_level": "",
    "open_hours": "",
    "extraction_timestamp": "2025-06-07T18:01:37.743Z",
    "source_name": "google",
    "source_query": "Irrigation Equipment",
    "source_country": "PL",
    "country": "Poland",
    "state": "Greater Poland Voivodeship",
    "city": "Powiat krotoszyński"
  },
  {
    "source_id": "ChIJk5Mn-xVHBUcRWpLAfIR9XRA",
    "name": "Dawid Chytrowski Instalatorstwo Wodno-Kanalizacyjne i Co",
    "category": "Dawid Chytrowski Instalatorstwo Wodno-Kanalizacyjne i Co",
    "formatted_address": "5,0(1)",
    "phone_number": "+48724130747",
    "source_url": "https://www.google.com/maps/place/Dawid+Chytrowski+Instalatorstwo+Wodno-Kanalizacyjne+i+Co/data=!4m7!3m6!1s0x47054715fb279393:0x105d7d847cc0925a!8m2!3d51.6872944!4d17.4492795!16s%2Fg%2F11h1ygvdq2!19sChIJk5Mn-xVHBUcRWpLAfIR9XRA?authuser=0&hl=tr&rclk=1",
    "website_url": "",
    "rating_text": "5,0",
    "stars": null,
    "number_of_reviews": null,
    "price_level": "",
    "open_hours": "",
    "extraction_timestamp": "2025-06-07T18:01:37.744Z",
    "source_name": "google",
    "source_query": "Irrigation Equipment",
    "source_country": "PL",
    "country": "Poland",
    "state": "Greater Poland Voivodeship",
    "city": "Powiat krotoszyński"
  },
  {
    "source_id": "ChIJt4EBofdGBUcReinrTDotujY",
    "name": "Usługi Elektryczne Hydrauliczne Pomiary elektryczne",
    "category": "Usługi Elektryczne Hydrauliczne Pomiary elektryczne",
    "formatted_address": "5,0(2)",
    "phone_number": "+48531260576",
    "source_url": "https://www.google.com/maps/place/Us%C5%82ugi+Elektryczne+Hydrauliczne+Pomiary+elektryczne/data=!4m7!3m6!1s0x470546f7a10181b7:0x36ba2d3a4ceb297a!8m2!3d51.6891957!4d17.4236473!16s%2Fg%2F11gffdf0qd!19sChIJt4EBofdGBUcReinrTDotujY?authuser=0&hl=tr&rclk=1",
    "website_url": "",
    "rating_text": "5,0",
    "stars": null,
    "number_of_reviews": null,
    "price_level": "",
    "open_hours": "",
    "extraction_timestamp": "2025-06-07T18:01:37.746Z",
    "source_name": "google",
    "source_query": "Irrigation Equipment",
    "source_country": "PL",
    "country": "Poland",
    "state": "Greater Poland Voivodeship",
    "city": "Powiat krotoszyński"
  },
  {
    "source_id": "ChIJ4So_7DBHBUcRGxjELWany6g",
    "name": "Lukas Usługi Hydrauliczne i Ogólnobudowlane",
    "category": "Lukas Usługi Hydrauliczne i Ogólnobudowlane",
    "formatted_address": "5,0(3)",
    "phone_number": "+48663083003",
    "source_url": "https://www.google.com/maps/place/Lukas+Us%C5%82ugi+Hydrauliczne+i+Og%C3%B3lnobudowlane/data=!4m7!3m6!1s0x47054730ec3f2ae1:0xa8cba7662dc4181b!8m2!3d51.7186706!4d17.4241831!16s%2Fg%2F11hflsgmxx!19sChIJ4So_7DBHBUcRGxjELWany6g?authuser=0&hl=tr&rclk=1",
    "website_url": "",
    "rating_text": "5,0",
    "stars": null,
    "number_of_reviews": null,
    "price_level": "",
    "open_hours": "",
    "extraction_timestamp": "2025-06-07T18:01:37.747Z",
    "source_name": "google",
    "source_query": "Irrigation Equipment",
    "source_country": "PL",
    "country": "Poland",
    "state": "Greater Poland Voivodeship",
    "city": "Powiat krotoszyński"
  },
  {
    "source_id": "ChIJXcofHldGBUcRNwPwaCQo5I4",
    "name": "Walczak Jarosław. ZU. Ślusarstwo, instalatorstwo sanitarne i c.o.",
    "category": "Walczak Jarosław. ZU. Ślusarstwo, instalatorstwo sanitarne i c.o.",
    "formatted_address": "Walczak Jarosław. ZU. Ślusarstwo, instalatorstwo sanitarne i c.o.",
    "phone_number": "+48627226403",
    "source_url": "https://www.google.com/maps/place/Walczak+Jaros%C5%82aw.+ZU.+%C5%9Alusarstwo,+instalatorstwo+sanitarne+i+c.o./data=!4m7!3m6!1s0x470546571e1fca5d:0x8ee4282468f00337!8m2!3d51.691697!4d17.4347369!16s%2Fg%2F1tgz45b8!19sChIJXcofHldGBUcRNwPwaCQo5I4?authuser=0&hl=tr&rclk=1",
    "website_url": "",
    "rating_text": "4,3",
    "stars": null,
    "number_of_reviews": null,
    "price_level": "",
    "open_hours": "",
    "extraction_timestamp": "2025-06-07T18:01:37.748Z",
    "source_name": "google",
    "source_query": "Irrigation Equipment",
    "source_country": "PL",
    "country": "Poland",
    "state": "Greater Poland Voivodeship",
    "city": "Powiat krotoszyński"
  },
  {
    "source_id": "ChIJT8joRIxHBUcROGFuDiENO1w",
    "name": "Kompleksowe Usługi Hydrauliczne Bartosz Szymański",
    "category": "Kompleksowe Usługi Hydrauliczne Bartosz Szymański",
    "formatted_address": "5,0(20)",
    "phone_number": "+48693186141",
    "source_url": "https://www.google.com/maps/place/Kompleksowe+Us%C5%82ugi+Hydrauliczne+Bartosz+Szyma%C5%84ski/data=!4m7!3m6!1s0x4705478c44e8c84f:0x5c3b0d210e6e6138!8m2!3d51.7053835!4d17.4374453!16s%2Fg%2F11fkt9z6g8!19sChIJT8joRIxHBUcROGFuDiENO1w?authuser=0&hl=tr&rclk=1",
    "website_url": "",
    "rating_text": "5,0",
    "stars": null,
    "number_of_reviews": null,
    "price_level": "",
    "open_hours": "",
    "extraction_timestamp": "2025-06-07T18:01:37.749Z",
    "source_name": "google",
    "source_query": "Irrigation Equipment",
    "source_country": "PL",
    "country": "Poland",
    "state": "Greater Poland Voivodeship",
    "city": "Powiat krotoszyński"
  },
  {
    "source_id": "ChIJC5r88hVHBUcRBkWxYphilow",
    "name": "Ogrody i Hydraulika",
    "category": "Ogrody i Hydraulika",
    "formatted_address": "",
    "phone_number": "+48784526184",
    "source_url": "https://www.google.com/maps/place/Ogrody+i+Hydraulika/data=!4m7!3m6!1s0x47054715f2fc9a0b:0x8c96629862b14506!8m2!3d51.6922467!4d17.448496!16s%2Fg%2F11m9qsrsdd!19sChIJC5r88hVHBUcRBkWxYphilow?authuser=0&hl=tr&rclk=1",
    "website_url": "https://www.olx.pl/oferta/nawadnianie-ogrodow-zakladanie-i-pielegnacja-ogrodow-CID619-IDef7Ww.html#2b60957e94",
    "rating_text": "",
    "stars": null,
    "number_of_reviews": null,
    "price_level": "",
    "open_hours": "",
    "extraction_timestamp": "2025-06-07T18:01:37.751Z",
    "source_name": "google",
    "source_query": "Irrigation Equipment",
    "source_country": "PL",
    "country": "Poland",
    "state": "Greater Poland Voivodeship",
    "city": "Powiat krotoszyński"
  },
  {
    "source_id": "ChIJSQfMnKxHBUcRrTo0WYrVsBA",
    "name": "Bricomarché Krotoszyn",
    "category": "Bricomarché Krotoszyn",
    "formatted_address": "4,2(1.385)",
    "phone_number": "+48627227673",
    "source_url": "https://www.google.com/maps/place/Bricomarch%C3%A9+Krotoszyn/data=!4m7!3m6!1s0x470547ac9ccc0749:0x10b0d58a59343aad!8m2!3d51.700621!4d17.44318!16s%2Fg%2F11b5wpl_cd!19sChIJSQfMnKxHBUcRrTo0WYrVsBA?authuser=0&hl=tr&rclk=1",
    "website_url": "https://www.bricomarche.pl/?posId=39",
    "rating_text": "4,2",
    "stars": null,
    "number_of_reviews": null,
    "price_level": "",
    "open_hours": "",
    "extraction_timestamp": "2025-06-07T18:01:37.753Z",
    "source_name": "google",
    "source_query": "Irrigation Equipment",
    "source_country": "PL",
    "country": "Poland",
    "state": "Greater Poland Voivodeship",
    "city": "Powiat krotoszyński"
  },
  {
    "source_id": "ChIJicm9HvxGBUcRKRI_u3L_yuM",
    "name": "Placówka Handlowa Orka",
    "category": "Placówka Handlowa Orka",
    "formatted_address": "4,0(2)",
    "phone_number": "",
    "source_url": "https://www.google.com/maps/place/Plac%C3%B3wka+Handlowa+Orka/data=!4m7!3m6!1s0x470546fc1ebdc989:0xe3caff72bb3f1229!8m2!3d51.6971239!4d17.424082!16s%2Fg%2F11dxrndjl_!19sChIJicm9HvxGBUcRKRI_u3L_yuM?authuser=0&hl=tr&rclk=1",
    "website_url": "",
    "rating_text": "4,0",
    "stars": null,
    "number_of_reviews": null,
    "price_level": "",
    "open_hours": "",
    "extraction_timestamp": "2025-06-07T18:01:37.754Z",
    "source_name": "google",
    "source_query": "Irrigation Equipment",
    "source_country": "PL",
    "country": "Poland",
    "state": "Greater Poland Voivodeship",
    "city": "Powiat krotoszyński"
  },
  {
    "source_id": "ChIJs-BuN1pHBUcR3pZstptRPZ4",
    "name": "Centrum Handlowe CERBUD S.C. Waldemar Janas Paweł Glubiak",
    "category": "Centrum Handlowe CERBUD S.C. Waldemar Janas Paweł Glubiak",
    "formatted_address": "5,0(1)",
    "phone_number": "+48627252707",
    "source_url": "https://www.google.com/maps/place/Centrum+Handlowe+CERBUD+S.C.+Waldemar+Janas+Pawe%C5%82+Glubiak/data=!4m7!3m6!1s0x4705475a376ee0b3:0x9e3d519bb66c96de!8m2!3d51.7109517!4d17.3992286!16s%2Fg%2F11h1kwfyjg!19sChIJs-BuN1pHBUcR3pZstptRPZ4?authuser=0&hl=tr&rclk=1",
    "website_url": "",
    "rating_text": "5,0",
    "stars": null,
    "number_of_reviews": null,
    "price_level": "",
    "open_hours": "",
    "extraction_timestamp": "2025-06-07T18:01:37.756Z",
    "source_name": "google",
    "source_query": "Irrigation Equipment",
    "source_country": "PL",
    "country": "Poland",
    "state": "Greater Poland Voivodeship",
    "city": "Powiat krotoszyński"
  },
  {
    "source_id": "ChIJt-12BNlHBUcRfZRSF9zdBpA",
    "name": "Armatura Kozłowski - przyjęcia towaru",
    "category": "Armatura Kozłowski - przyjęcia towaru",
    "formatted_address": "3,0(2)",
    "phone_number": "+48508183512",
    "source_url": "https://www.google.com/maps/place/Armatura+Koz%C5%82owski+-+przyj%C4%99cia+towaru/data=!4m7!3m6!1s0x470547d90476edb7:0x9006dddc1752947d!8m2!3d51.7046875!4d17.4307045!16s%2Fg%2F11sttryfgl!19sChIJt-12BNlHBUcRfZRSF9zdBpA?authuser=0&hl=tr&rclk=1",
    "website_url": "http://www.armatura24.pl/",
    "rating_text": "3,0",
    "stars": null,
    "number_of_reviews": null,
    "price_level": "",
    "open_hours": "",
    "extraction_timestamp": "2025-06-07T18:01:37.757Z",
    "source_name": "google",
    "source_query": "Irrigation Equipment",
    "source_country": "PL",
    "country": "Poland",
    "state": "Greater Poland Voivodeship",
    "city": "Powiat krotoszyński"
  },
  {
    "source_id": "ChIJDUl3hqxHBUcR4m_HiSTbUIU",
    "name": "Intermarché Krotoszyn",
    "category": "Intermarché Krotoszyn",
    "formatted_address": "4,2(927)",
    "phone_number": "+48625880707",
    "source_url": "https://www.google.com/maps/place/Intermarch%C3%A9+Krotoszyn/data=!4m7!3m6!1s0x470547ac8677490d:0x8550db2489c76fe2!8m2!3d51.7011439!4d17.4448961!16s%2Fg%2F1tdh2kwb!19sChIJDUl3hqxHBUcR4m_HiSTbUIU?authuser=0&hl=tr&rclk=1",
    "website_url": "http://intermarche.pl/",
    "rating_text": "4,2",
    "stars": null,
    "number_of_reviews": null,
    "price_level": "",
    "open_hours": "",
    "extraction_timestamp": "2025-06-07T18:01:37.758Z",
    "source_name": "google",
    "source_query": "Irrigation Equipment",
    "source_country": "PL",
    "country": "Poland",
    "state": "Greater Poland Voivodeship",
    "city": "Powiat krotoszyński"
  },
  {
    "source_id": "ChIJD1QmD7hHBUcRasimoIaTlT4",
    "name": "HOMLA",
    "category": "HOMLA",
    "formatted_address": "4,8(26)",
    "phone_number": "",
    "source_url": "https://www.google.com/maps/place/HOMLA/data=!4m7!3m6!1s0x470547b80f26540f:0x3e959386a0a6c86a!8m2!3d51.6986678!4d17.4358611!16s%2Fg%2F11tj9xks2g!19sChIJD1QmD7hHBUcRasimoIaTlT4?authuser=0&hl=tr&rclk=1",
    "website_url": "",
    "rating_text": "4,8",
    "stars": null,
    "number_of_reviews": null,
    "price_level": "",
    "open_hours": "",
    "extraction_timestamp": "2025-06-07T18:01:37.759Z",
    "source_name": "google",
    "source_query": "Irrigation Equipment",
    "source_country": "PL",
    "country": "Poland",
    "state": "Greater Poland Voivodeship",
    "city": "Powiat krotoszyński"
  },
  {
    "source_id": "ChIJoY1Q0WFHBUcRCuYmy1S2lXY",
    "name": "PSB Mrówka",
    "category": "PSB Mrówka",
    "formatted_address": "4,4(385)",
    "phone_number": "+48627210100",
    "source_url": "https://www.google.com/maps/place/PSB+Mr%C3%B3wka/data=!4m7!3m6!1s0x47054761d1508da1:0x7695b654cb26e60a!8m2!3d51.7050288!4d17.4103219!16s%2Fg%2F11fwbdffl8!19sChIJoY1Q0WFHBUcRCuYmy1S2lXY?authuser=0&hl=tr&rclk=1",
    "website_url": "https://mrowka.com.pl/sklep-psb-mrowka/psb-mrowka-krotoszyn.html",
    "rating_text": "4,4",
    "stars": null,
    "number_of_reviews": null,
    "price_level": "",
    "open_hours": "",
    "extraction_timestamp": "2025-06-07T18:01:37.761Z",
    "source_name": "google",
    "source_query": "Irrigation Equipment",
    "source_country": "PL",
    "country": "Poland",
    "state": "Greater Poland Voivodeship",
    "city": "Powiat krotoszyński"
  },
  {
    "source_id": "ChIJcet5D7JHBUcRuZz4bzE1LKM",
    "name": "Wachowiak. Punkt sprzedaży pasz i superkoncentratów",
    "category": "Wachowiak. Punkt sprzedaży pasz i superkoncentratów",
    "formatted_address": "4,8(12)",
    "phone_number": "+48627225760",
    "source_url": "https://www.google.com/maps/place/Wachowiak.+Punkt+sprzeda%C5%BCy+pasz+i+superkoncentrat%C3%B3w/data=!4m7!3m6!1s0x470547b20f79eb71:0xa32c35316ff89cb9!8m2!3d51.7310485!4d17.4259228!16s%2Fg%2F1ptyg490z!19sChIJcet5D7JHBUcRuZz4bzE1LKM?authuser=0&hl=tr&rclk=1",
    "website_url": "",
    "rating_text": "4,8",
    "stars": null,
    "number_of_reviews": null,
    "price_level": "",
    "open_hours": "",
    "extraction_timestamp": "2025-06-07T18:01:37.762Z",
    "source_name": "google",
    "source_query": "Irrigation Equipment",
    "source_country": "PL",
    "country": "Poland",
    "state": "Greater Poland Voivodeship",
    "city": "Powiat krotoszyński"
  },
  {
    "source_id": "ChIJA2gJ8qRHBUcRfwEypPyw5k0",
    "name": "Sklep spożywczo-monopolowy U MŁODZIUŚKIEJ",
    "category": "Sklep spożywczo-monopolowy U MŁODZIUŚKIEJ",
    "formatted_address": "4,8(21)",
    "phone_number": "",
    "source_url": "https://www.google.com/maps/place/Sklep+spo%C5%BCywczo-monopolowy+U+M%C5%81ODZIU%C5%9AKIEJ/data=!4m7!3m6!1s0x470547a4f2096803:0x4de6b0fca432017f!8m2!3d51.7049954!4d17.4383575!16s%2Fg%2F11gyw0182b!19sChIJA2gJ8qRHBUcRfwEypPyw5k0?authuser=0&hl=tr&rclk=1",
    "website_url": "",
    "rating_text": "4,8",
    "stars": null,
    "number_of_reviews": null,
    "price_level": "",
    "open_hours": "",
    "extraction_timestamp": "2025-06-07T18:01:37.762Z",
    "source_name": "google",
    "source_query": "Irrigation Equipment",
    "source_country": "PL",
    "country": "Poland",
    "state": "Greater Poland Voivodeship",
    "city": "Powiat krotoszyński"
  }
]
