[
  {
    "source_id": "ChIJ0_FoHU0lBUcRXw1vDudVHpI",
    "name": "Z-WATER POLSKA Sp.zoo",
    "category": "Z-WATER POLSKA Sp.zoo",
    "formatted_address": "5,0(2)",
    "phone_number": "+48697989505",
    "source_url": "https://www.google.com/maps/place/Z-WATER+POLSKA+Sp.zoo/data=!4m7!3m6!1s0x4705254d1d68f1d3:0x921e55e70e6f0d5f!8m2!3d51.9423666!4d17.5683329!16s%2Fg%2F11v59cnjqk!19sChIJ0_FoHU0lBUcRXw1vDudVHpI?authuser=0&hl=tr&rclk=1",
    "website_url": "https://www.z-water.pl/",
    "rating_text": "5,0",
    "stars": null,
    "number_of_reviews": null,
    "price_level": "",
    "open_hours": "",
    "extraction_timestamp": "2025-06-07T17:38:54.370Z",
    "source_name": "google",
    "source_query": "Irrigation Equipment",
    "source_country": "PL",
    "country": "Poland",
    "state": "Greater Poland Voivodeship",
    "city": "Powiat jarociński"
  },
  {
    "source_id": "ChIJv-ZHi5wjBUcRMEOLR71JXnA",
    "name": "Hydro-Marko",
    "category": "Hydro-Marko",
    "formatted_address": "4,5(45)",
    "phone_number": "+48627471609",
    "source_url": "https://www.google.com/maps/place/Hydro-Marko/data=!4m7!3m6!1s0x4705239c8b47e6bf:0x705e49bd478b4330!8m2!3d51.9543854!4d17.5167091!16s%2Fg%2F1tf34nqm!19sChIJv-ZHi5wjBUcRMEOLR71JXnA?authuser=0&hl=tr&rclk=1",
    "website_url": "http://www.hydro-marko.pl/",
    "rating_text": "4,5",
    "stars": null,
    "number_of_reviews": null,
    "price_level": "",
    "open_hours": "",
    "extraction_timestamp": "2025-06-07T17:38:54.370Z",
    "source_name": "google",
    "source_query": "Irrigation Equipment",
    "source_country": "PL",
    "country": "Poland",
    "state": "Greater Poland Voivodeship",
    "city": "Powiat jarociński"
  },
  {
    "source_id": "ChIJn10V9p0jBUcRvLl-QrH4Fvs",
    "name": "ITT - Filtracja",
    "category": "ITT - Filtracja",
    "formatted_address": "5,0(4)",
    "phone_number": "+48627409042",
    "source_url": "https://www.google.com/maps/place/ITT+-+Filtracja/data=!4m7!3m6!1s0x4705239df6155d9f:0xfb16f8b1427eb9bc!8m2!3d51.9622227!4d17.5063423!16s%2Fg%2F11h7bgvvdn!19sChIJn10V9p0jBUcRvLl-QrH4Fvs?authuser=0&hl=tr&rclk=1",
    "website_url": "https://itt-filtracja.pl/",
    "rating_text": "5,0",
    "stars": null,
    "number_of_reviews": null,
    "price_level": "",
    "open_hours": "",
    "extraction_timestamp": "2025-06-07T17:38:54.372Z",
    "source_name": "google",
    "source_query": "Irrigation Equipment",
    "source_country": "PL",
    "country": "Poland",
    "state": "Greater Poland Voivodeship",
    "city": "Powiat jarociński"
  },
  {
    "source_id": "ChIJc2hR8r8jBUcRpCHjDCvm5ps",
    "name": "Hebo. Pompy i systemy pompowe",
    "category": "Hebo. Pompy i systemy pompowe",
    "formatted_address": "5,0(2)",
    "phone_number": "+48627478508",
    "source_url": "https://www.google.com/maps/place/Hebo.+Pompy+i+systemy+pompowe/data=!4m7!3m6!1s0x470523bff2516873:0x9be6e62b0ce321a4!8m2!3d51.9708761!4d17.5105716!16s%2Fg%2F1hc3rkc15!19sChIJc2hR8r8jBUcRpCHjDCvm5ps?authuser=0&hl=tr&rclk=1",
    "website_url": "http://hebo-pompy.pl/",
    "rating_text": "5,0",
    "stars": null,
    "number_of_reviews": null,
    "price_level": "",
    "open_hours": "",
    "extraction_timestamp": "2025-06-07T17:38:54.372Z",
    "source_name": "google",
    "source_query": "Irrigation Equipment",
    "source_country": "PL",
    "country": "Poland",
    "state": "Greater Poland Voivodeship",
    "city": "Powiat jarociński"
  },
  {
    "source_id": "ChIJk6snZa4jBUcRATcPUI1jZD8",
    "name": "San Gaz Wodociągi kanalizacja gazociągi rura odwodnienie studnia",
    "category": "San Gaz Wodociągi kanalizacja gazociągi rura odwodnienie studnia",
    "formatted_address": "3,7(3)",
    "phone_number": "+48627477603",
    "source_url": "https://www.google.com/maps/place/San+Gaz+Wodoci%C4%85gi+kanalizacja+gazoci%C4%85gi+rura+odwodnienie+studnia/data=!4m7!3m6!1s0x470523ae6527ab93:0x3f64638d500f3701!8m2!3d51.962615!4d17.484222!16s%2Fg%2F1tdxjkr_!19sChIJk6snZa4jBUcRATcPUI1jZD8?authuser=0&hl=tr&rclk=1",
    "website_url": "http://www.sangazjarocin.pl/",
    "rating_text": "3,7",
    "stars": null,
    "number_of_reviews": null,
    "price_level": "",
    "open_hours": "",
    "extraction_timestamp": "2025-06-07T17:38:54.373Z",
    "source_name": "google",
    "source_query": "Irrigation Equipment",
    "source_country": "PL",
    "country": "Poland",
    "state": "Greater Poland Voivodeship",
    "city": "Powiat jarociński"
  },
  {
    "source_id": "ChIJyzdlzcAjBUcRbdzrHva5Cc0",
    "name": "Water Action s.c. Adrian Wiszniewski, Tomasz Misiak",
    "category": "Water Action s.c. Adrian Wiszniewski, Tomasz Misiak",
    "formatted_address": "Water Action s.c. Adrian Wiszniewski, Tomasz Misiak",
    "phone_number": "+48503034907",
    "source_url": "https://www.google.com/maps/place/Water+Action+s.c.+Adrian+Wiszniewski,+Tomasz+Misiak/data=!4m7!3m6!1s0x470523c0cd6537cb:0xcd09b9f61eebdc6d!8m2!3d51.973985!4d17.50695!16s%2Fg%2F11c0xd5cws!19sChIJyzdlzcAjBUcRbdzrHva5Cc0?authuser=0&hl=tr&rclk=1",
    "website_url": "http://www.wateraction.pl/",
    "rating_text": "4,8",
    "stars": null,
    "number_of_reviews": null,
    "price_level": "",
    "open_hours": "",
    "extraction_timestamp": "2025-06-07T17:38:54.374Z",
    "source_name": "google",
    "source_query": "Irrigation Equipment",
    "source_country": "PL",
    "country": "Poland",
    "state": "Greater Poland Voivodeship",
    "city": "Powiat jarociński"
  },
  {
    "source_id": "ChIJtVGe38AjBUcRViPnRfnf_6k",
    "name": "Dommar. Shop Art. installation",
    "category": "Dommar. Shop Art. installation",
    "formatted_address": "4,6(204)",
    "phone_number": "+48627476022",
    "source_url": "https://www.google.com/maps/place/Dommar.+Shop+Art.+installation/data=!4m7!3m6!1s0x470523c0df9e51b5:0xa9ffdff945e72356!8m2!3d51.9745964!4d17.5084117!16s%2Fg%2F1tftjxn0!19sChIJtVGe38AjBUcRViPnRfnf_6k?authuser=0&hl=tr&rclk=1",
    "website_url": "http://dommar.pl/",
    "rating_text": "4,6",
    "stars": null,
    "number_of_reviews": null,
    "price_level": "",
    "open_hours": "",
    "extraction_timestamp": "2025-06-07T17:38:54.376Z",
    "source_name": "google",
    "source_query": "Irrigation Equipment",
    "source_country": "PL",
    "country": "Poland",
    "state": "Greater Poland Voivodeship",
    "city": "Powiat jarociński"
  },
  {
    "source_id": "ChIJ8SpfQGMlBUcRyWMhywVufJg",
    "name": "FOLREC",
    "category": "FOLREC",
    "formatted_address": "5,0(44)",
    "phone_number": "+48533393351",
    "source_url": "https://www.google.com/maps/place/FOLREC/data=!4m7!3m6!1s0x47052563405f2af1:0x987c6e05cb2163c9!8m2!3d51.9409672!4d17.5485101!16s%2Fg%2F11fjs3vzn0!19sChIJ8SpfQGMlBUcRyWMhywVufJg?authuser=0&hl=tr&rclk=1",
    "website_url": "https://folrec.pl/",
    "rating_text": "5,0",
    "stars": null,
    "number_of_reviews": null,
    "price_level": "",
    "open_hours": "",
    "extraction_timestamp": "2025-06-07T17:38:54.377Z",
    "source_name": "google",
    "source_query": "Irrigation Equipment",
    "source_country": "PL",
    "country": "Poland",
    "state": "Greater Poland Voivodeship",
    "city": "Powiat jarociński"
  },
  {
    "source_id": "ChIJRaLJhPXfUgoRTt4_70LGDJ8",
    "name": "Jaroma Maszyny Sp. z o.o.",
    "category": "Jaroma Maszyny Sp. z o.o.",
    "formatted_address": "5,0(17)",
    "phone_number": "+48533444720",
    "source_url": "https://www.google.com/maps/place/Jaroma+Maszyny+Sp.+z+o.o./data=!4m7!3m6!1s0xa52dff584c9a245:0x9f0cc642ef3fde4e!8m2!3d51.961064!4d17.4981673!16s%2Fg%2F11sdb7b2px!19sChIJRaLJhPXfUgoRTt4_70LGDJ8?authuser=0&hl=tr&rclk=1",
    "website_url": "https://www.jaroma.com.pl/",
    "rating_text": "5,0",
    "stars": null,
    "number_of_reviews": null,
    "price_level": "",
    "open_hours": "",
    "extraction_timestamp": "2025-06-07T17:38:54.378Z",
    "source_name": "google",
    "source_query": "Irrigation Equipment",
    "source_country": "PL",
    "country": "Poland",
    "state": "Greater Poland Voivodeship",
    "city": "Powiat jarociński"
  },
  {
    "source_id": "ChIJkYXxy8IjBUcRqfgCAjlD4Gk",
    "name": "Szkolenia - Hydrografika (HYDRONAUKA)",
    "category": "Szkolenia - Hydrografika (HYDRONAUKA)",
    "formatted_address": "4,8(33)",
    "phone_number": "+48514300085",
    "source_url": "https://www.google.com/maps/place/Szkolenia+-+Hydrografika+%28HYDRONAUKA%29/data=!4m7!3m6!1s0x470523c2cbf18591:0x69e043390202f8a9!8m2!3d51.981204!4d17.5166049!16s%2Fg%2F11b6nmcqqm!19sChIJkYXxy8IjBUcRqfgCAjlD4Gk?authuser=0&hl=tr&rclk=1",
    "website_url": "http://www.szkolenia-hydrografika.pl/",
    "rating_text": "4,8",
    "stars": null,
    "number_of_reviews": null,
    "price_level": "",
    "open_hours": "",
    "extraction_timestamp": "2025-06-07T17:38:54.379Z",
    "source_name": "google",
    "source_query": "Irrigation Equipment",
    "source_country": "PL",
    "country": "Poland",
    "state": "Greater Poland Voivodeship",
    "city": "Powiat jarociński"
  },
  {
    "source_id": "ChIJAQB8TaMjBUcRO-ChBVRDSY4",
    "name": "Zakuwanie I Naprawa Węży Hydraulicznych Jarocin Wielkopolska",
    "category": "Zakuwanie I Naprawa Węży Hydraulicznych Jarocin Wielkopolska",
    "formatted_address": "5,0(3)",
    "phone_number": "+48889459794",
    "source_url": "https://www.google.com/maps/place/Zakuwanie+I+Naprawa+W%C4%99%C5%BCy+Hydraulicznych+Jarocin+Wielkopolska/data=!4m7!3m6!1s0x470523a34d7c0001:0x8e49435405a1e03b!8m2!3d51.9621141!4d17.4996594!16s%2Fg%2F11fp1szpn0!19sChIJAQB8TaMjBUcRO-ChBVRDSY4?authuser=0&hl=tr&rclk=1",
    "website_url": "https://zakuwaniewezy.pl/",
    "rating_text": "5,0",
    "stars": null,
    "number_of_reviews": null,
    "price_level": "",
    "open_hours": "",
    "extraction_timestamp": "2025-06-07T17:38:54.379Z",
    "source_name": "google",
    "source_query": "Irrigation Equipment",
    "source_country": "PL",
    "country": "Poland",
    "state": "Greater Poland Voivodeship",
    "city": "Powiat jarociński"
  },
  {
    "source_id": "ChIJQQCEGrIjBUcRw6arIDFO-7I",
    "name": "Linde Gaz Polska Sp. z o.o.Partner Handlowy",
    "category": "Linde Gaz Polska Sp. z o.o.Partner Handlowy",
    "formatted_address": "5,0(4)",
    "phone_number": "+48625941405",
    "source_url": "https://www.google.com/maps/place/Linde+Gaz+Polska+Sp.+z+o.o.Partner+Handlowy/data=!4m7!3m6!1s0x470523b21a840041:0xb2fb4e3120aba6c3!8m2!3d51.9652566!4d17.4833971!16s%2Fg%2F11c6qcsvgm!19sChIJQQCEGrIjBUcRw6arIDFO-7I?authuser=0&hl=tr&rclk=1",
    "website_url": "https://www.facebook.com/WeldCenterJarocin",
    "rating_text": "5,0",
    "stars": null,
    "number_of_reviews": null,
    "price_level": "",
    "open_hours": "",
    "extraction_timestamp": "2025-06-07T17:38:54.380Z",
    "source_name": "google",
    "source_query": "Irrigation Equipment",
    "source_country": "PL",
    "country": "Poland",
    "state": "Greater Poland Voivodeship",
    "city": "Powiat jarociński"
  },
  {
    "source_id": "ChIJyWPaXbcjBUcRyOdjfYS_vEQ",
    "name": "Jaroński | studnie wodomierzowe,dachowe kliny styropianowe",
    "category": "Jaroński | studnie wodomierzowe,dachowe kliny styropianowe",
    "formatted_address": "Jaroński | studnie wodomierzowe,dachowe kliny styropianowe",
    "phone_number": "+48601737523",
    "source_url": "https://www.google.com/maps/place/Jaro%C5%84ski+%7C+studnie+wodomierzowe,dachowe+kliny+styropianowe/data=!4m7!3m6!1s0x470523b75dda63c9:0x44bcbf847d63e7c8!8m2!3d51.9390687!4d17.4949197!16s%2Fg%2F11fmmdx6qx!19sChIJyWPaXbcjBUcRyOdjfYS_vEQ?authuser=0&hl=tr&rclk=1",
    "website_url": "http://www.wodomierzowe.pl/kontakt.html",
    "rating_text": "5,0",
    "stars": null,
    "number_of_reviews": null,
    "price_level": "",
    "open_hours": "",
    "extraction_timestamp": "2025-06-07T17:38:54.380Z",
    "source_name": "google",
    "source_query": "Irrigation Equipment",
    "source_country": "PL",
    "country": "Poland",
    "state": "Greater Poland Voivodeship",
    "city": "Powiat jarociński"
  },
  {
    "source_id": "ChIJy0c8_8IjBUcR7N-BCIvHnIg",
    "name": "Jargum. PPHU Węże gumowe pcv Przewody hydrauliczne",
    "category": "Jargum. PPHU Węże gumowe pcv Przewody hydrauliczne",
    "formatted_address": "5,0(2)",
    "phone_number": "+48604209356",
    "source_url": "https://www.google.com/maps/place/Jargum.+PPHU+W%C4%99%C5%BCe+gumowe+pcv+Przewody+hydrauliczne/data=!4m7!3m6!1s0x470523c2ff3c47cb:0x889cc78b0881dfec!8m2!3d52.0061475!4d17.4778422!16s%2Fg%2F1tf85smk!19sChIJy0c8_8IjBUcR7N-BCIvHnIg?authuser=0&hl=tr&rclk=1",
    "website_url": "http://jargum.pl/",
    "rating_text": "5,0",
    "stars": null,
    "number_of_reviews": null,
    "price_level": "",
    "open_hours": "",
    "extraction_timestamp": "2025-06-07T17:38:54.381Z",
    "source_name": "google",
    "source_query": "Irrigation Equipment",
    "source_country": "PL",
    "country": "Poland",
    "state": "Greater Poland Voivodeship",
    "city": "Powiat jarociński"
  },
  {
    "source_id": "ChIJKwCOivkYBUcR6VnfCUXNlNM",
    "name": "HYDROBUD INŻYNIERIA ŚRODOWISKA SP. Z O.O.",
    "category": "HYDROBUD INŻYNIERIA ŚRODOWISKA SP. Z O.O.",
    "formatted_address": "5,0(3)",
    "phone_number": "+48627222517",
    "source_url": "https://www.google.com/maps/place/HYDROBUD+IN%C5%BBYNIERIA+%C5%9ARODOWISKA+SP.+Z+O.O./data=!4m7!3m6!1s0x470518f98a8e002b:0xd394cd4509df59e9!8m2!3d51.9703049!4d17.364235!16s%2Fg%2F1txc5r65!19sChIJKwCOivkYBUcR6VnfCUXNlNM?authuser=0&hl=tr&rclk=1",
    "website_url": "http://www.hydrobudjarocin.pl/",
    "rating_text": "5,0",
    "stars": null,
    "number_of_reviews": null,
    "price_level": "",
    "open_hours": "",
    "extraction_timestamp": "2025-06-07T17:38:54.381Z",
    "source_name": "google",
    "source_query": "Irrigation Equipment",
    "source_country": "PL",
    "country": "Poland",
    "state": "Greater Poland Voivodeship",
    "city": "Powiat jarociński"
  },
  {
    "source_id": "ChIJdYoFxHUjBUcRfNAKYR3ujmg",
    "name": "Protect Systems s.c. - Odzież robocza Jarocin",
    "category": "Protect Systems s.c. - Odzież robocza Jarocin",
    "formatted_address": "4,9(29)",
    "phone_number": "+48570390620",
    "source_url": "https://www.google.com/maps/place/Protect+Systems+s.c.+-+Odzie%C5%BC+robocza+Jarocin/data=!4m7!3m6!1s0x47052375c4058a75:0x688eee1d610ad07c!8m2!3d51.9641029!4d17.50908!16s%2Fg%2F11mqvnlsn8!19sChIJdYoFxHUjBUcRfNAKYR3ujmg?authuser=0&hl=tr&rclk=1",
    "website_url": "http://www.odziezbhp-jarocin.pl/",
    "rating_text": "4,9",
    "stars": null,
    "number_of_reviews": null,
    "price_level": "",
    "open_hours": "",
    "extraction_timestamp": "2025-06-07T17:38:54.381Z",
    "source_name": "google",
    "source_query": "Irrigation Equipment",
    "source_country": "PL",
    "country": "Poland",
    "state": "Greater Poland Voivodeship",
    "city": "Powiat jarociński"
  },
  {
    "source_id": "ChIJnxNUMCY9BUcRqkTa3HHIW_o",
    "name": "Wolsen – producent okleiniarek do elementów krzywoliniowych, wyrobów metalowych",
    "category": "Wolsen – producent okleiniarek do elementów krzywoliniowych, wyrobów metalowych",
    "formatted_address": "Wolsen – producent okleiniarek do elementów krzywoliniowych, wyrobów metalowych",
    "phone_number": "+48530091898",
    "source_url": "https://www.google.com/maps/place/Wolsen+%E2%80%93+producent+okleiniarek+do+element%C3%B3w+krzywoliniowych,+wyrob%C3%B3w+metalowych/data=!4m7!3m6!1s0x47053d263054139f:0xfa5bc871dcda44aa!8m2!3d51.906143!4d17.4329359!16s%2Fg%2F11fxw50yb4!19sChIJnxNUMCY9BUcRqkTa3HHIW_o?authuser=0&hl=tr&rclk=1",
    "website_url": "http://www.wolsen.pl/",
    "rating_text": "5,0",
    "stars": null,
    "number_of_reviews": null,
    "price_level": "",
    "open_hours": "",
    "extraction_timestamp": "2025-06-07T17:38:54.381Z",
    "source_name": "google",
    "source_query": "Irrigation Equipment",
    "source_country": "PL",
    "country": "Poland",
    "state": "Greater Poland Voivodeship",
    "city": "Powiat jarociński"
  },
  {
    "source_id": "ChIJcdko5aEjBUcRBY_ru2e6F1A",
    "name": "Salon Łazienek i Techniki Grzewczej Armatura Kozłowski Jarocin (hurtownia instalacyjna, hydrauliczna)",
    "category": "Salon Łazienek i Techniki Grzewczej Armatura Kozłowski Jarocin (hurtownia instalacyjna, hydrauliczna)",
    "formatted_address": "Salon Łazienek i Techniki Grzewczej Armatura Kozłowski Jarocin (hurtownia instalacyjna, hydrauliczna)",
    "phone_number": "+48627477788",
    "source_url": "https://www.google.com/maps/place/Salon+%C5%81azienek+i+Techniki+Grzewczej+Armatura+Koz%C5%82owski+Jarocin+%28hurtownia+instalacyjna,+hydrauliczna%29/data=!4m7!3m6!1s0x470523a1e528d971:0x5017ba67bbeb8f05!8m2!3d51.9554366!4d17.5015692!16s%2Fg%2F11h0x_2sj!19sChIJcdko5aEjBUcRBY_ru2e6F1A?authuser=0&hl=tr&rclk=1",
    "website_url": "https://armatura24.pl/?utm_source=local&utm_medium=organic&utm_campaign=jarocin&utm_content=gmb",
    "rating_text": "4,2",
    "stars": null,
    "number_of_reviews": null,
    "price_level": "",
    "open_hours": "",
    "extraction_timestamp": "2025-06-07T17:38:54.382Z",
    "source_name": "google",
    "source_query": "Irrigation Equipment",
    "source_country": "PL",
    "country": "Poland",
    "state": "Greater Poland Voivodeship",
    "city": "Powiat jarociński"
  },
  {
    "source_id": "ChIJMc0U18AjBUcR6Psv4MbKigc",
    "name": "Inspiro Michał Sucholiński Płytki Ceramiczne Kabiny Prysznicowe Baterie Łazienkowe Fugi Kleje",
    "category": "Inspiro Michał Sucholiński Płytki Ceramiczne Kabiny Prysznicowe Baterie Łazienkowe Fugi Kleje",
    "formatted_address": "4,5(60)",
    "phone_number": "+48601216786",
    "source_url": "https://www.google.com/maps/place/Inspiro+Micha%C5%82+Sucholi%C5%84ski+P%C5%82ytki+Ceramiczne+Kabiny+Prysznicowe+Baterie+%C5%81azienkowe+Fugi+Kleje/data=!4m7!3m6!1s0x470523c0d714cd31:0x78acac6e02ffbe8!8m2!3d51.9659096!4d17.5071827!16s%2Fg%2F11b6t4zqgx!19sChIJMc0U18AjBUcR6Psv4MbKigc?authuser=0&hl=tr&rclk=1",
    "website_url": "https://inspiro-design.pl/",
    "rating_text": "4,5",
    "stars": null,
    "number_of_reviews": null,
    "price_level": "",
    "open_hours": "",
    "extraction_timestamp": "2025-06-07T17:38:54.382Z",
    "source_name": "google",
    "source_query": "Irrigation Equipment",
    "source_country": "PL",
    "country": "Poland",
    "state": "Greater Poland Voivodeship",
    "city": "Powiat jarociński"
  },
  {
    "source_id": "ChIJT738lcgjBUcRRTr16KOh0l4",
    "name": "Szkolenia z hydrografiki WaterDesign",
    "category": "Szkolenia z hydrografiki WaterDesign",
    "formatted_address": "",
    "phone_number": "+48888457277",
    "source_url": "https://www.google.com/maps/place/Szkolenia+z+hydrografiki+WaterDesign/data=!4m7!3m6!1s0x470523c895fcbd4f:0x5ed2a1a3e8f53a45!8m2!3d51.977434!4d17.4999495!16s%2Fg%2F11bwkz8_bn!19sChIJT738lcgjBUcRRTr16KOh0l4?authuser=0&hl=tr&rclk=1",
    "website_url": "http://www.hydrografika-szkolenia.pl/",
    "rating_text": "",
    "stars": null,
    "number_of_reviews": null,
    "price_level": "",
    "open_hours": "",
    "extraction_timestamp": "2025-06-07T17:38:54.382Z",
    "source_name": "google",
    "source_query": "Irrigation Equipment",
    "source_country": "PL",
    "country": "Poland",
    "state": "Greater Poland Voivodeship",
    "city": "Powiat jarociński"
  },
  {
    "source_id": "ChIJoWkarrQ8BUcRZzN7qMWpY-g",
    "name": "Rower-Sport",
    "category": "Rower-Sport",
    "formatted_address": "4,7(256)",
    "phone_number": "+48608540483",
    "source_url": "https://www.google.com/maps/place/Rower-Sport/data=!4m7!3m6!1s0x47053cb4ae1a69a1:0xe863a9c5a87b3367!8m2!3d51.9235538!4d17.4885202!16s%2Fg%2F1tdvhwm2!19sChIJoWkarrQ8BUcRZzN7qMWpY-g?authuser=0&hl=tr&rclk=1",
    "website_url": "http://rower-sport.pl/",
    "rating_text": "4,7",
    "stars": null,
    "number_of_reviews": null,
    "price_level": "",
    "open_hours": "",
    "extraction_timestamp": "2025-06-07T17:38:54.383Z",
    "source_name": "google",
    "source_query": "Irrigation Equipment",
    "source_country": "PL",
    "country": "Poland",
    "state": "Greater Poland Voivodeship",
    "city": "Powiat jarociński"
  },
  {
    "source_id": "ChIJ1fc8HpkjBUcR2hQZetH7A9s",
    "name": "Bricomarché Jarocin",
    "category": "Bricomarché Jarocin",
    "formatted_address": "4,1(1.803)",
    "phone_number": "+48627479400",
    "source_url": "https://www.google.com/maps/place/Bricomarch%C3%A9+Jarocin/data=!4m7!3m6!1s0x470523991e3cf7d5:0xdb03fbd17a1914da!8m2!3d51.9567305!4d17.5087883!16s%2Fg%2F1tdq98mm!19sChIJ1fc8HpkjBUcR2hQZetH7A9s?authuser=0&hl=tr&rclk=1",
    "website_url": "https://www.bricomarche.pl/?posId=79",
    "rating_text": "4,1",
    "stars": null,
    "number_of_reviews": null,
    "price_level": "",
    "open_hours": "",
    "extraction_timestamp": "2025-06-07T17:38:54.383Z",
    "source_name": "google",
    "source_query": "Irrigation Equipment",
    "source_country": "PL",
    "country": "Poland",
    "state": "Greater Poland Voivodeship",
    "city": "Powiat jarociński"
  },
  {
    "source_id": "ChIJlzXnGYAjBUcRr9JusgYgChU",
    "name": "NIEMCZYK POL POSITION Agencja Reklamowa Jarocin. Usługi Marketingowe. Doradztwo Internetowe. Pozycjonowanie Stron WWW.",
    "category": "NIEMCZYK POL POSITION Agencja Reklamowa Jarocin. Usługi Marketingowe. Doradztwo Internetowe. Pozycjonowanie Stron WWW.",
    "formatted_address": "4,9(18)",
    "phone_number": "+48661455362",
    "source_url": "https://www.google.com/maps/place/NIEMCZYK+POL+POSITION+Agencja+Reklamowa+Jarocin.+Us%C5%82ugi+Marketingowe.+Doradztwo+Internetowe.+Pozycjonowanie+Stron+WWW./data=!4m7!3m6!1s0x4705238019e73597:0x150a2006b26ed2af!8m2!3d51.9480417!4d17.540181!16s%2Fg%2F11b7jg2lbw!19sChIJlzXnGYAjBUcRr9JusgYgChU?authuser=0&hl=tr&rclk=1",
    "website_url": "https://internetowydoradca.pl/",
    "rating_text": "4,9",
    "stars": null,
    "number_of_reviews": null,
    "price_level": "",
    "open_hours": "",
    "extraction_timestamp": "2025-06-07T17:38:54.384Z",
    "source_name": "google",
    "source_query": "Irrigation Equipment",
    "source_country": "PL",
    "country": "Poland",
    "state": "Greater Poland Voivodeship",
    "city": "Powiat jarociński"
  },
  {
    "source_id": "ChIJ4UEuVpgjBUcR5p61rSvayGg",
    "name": "SELLTECH",
    "category": "SELLTECH",
    "formatted_address": "4,0(1)",
    "phone_number": "+48627475502",
    "source_url": "https://www.google.com/maps/place/SELLTECH/data=!4m7!3m6!1s0x47052398562e41e1:0x68c8da2badb59ee6!8m2!3d51.958416!4d17.5076687!16s%2Fg%2F1thx2r81!19sChIJ4UEuVpgjBUcR5p61rSvayGg?authuser=0&hl=tr&rclk=1",
    "website_url": "http://selltech.com.pl/",
    "rating_text": "4,0",
    "stars": null,
    "number_of_reviews": null,
    "price_level": "",
    "open_hours": "",
    "extraction_timestamp": "2025-06-07T17:38:54.384Z",
    "source_name": "google",
    "source_query": "Irrigation Equipment",
    "source_country": "PL",
    "country": "Poland",
    "state": "Greater Poland Voivodeship",
    "city": "Powiat jarociński"
  },
  {
    "source_id": "ChIJgS7G3FMhBUcRZi0qKb4Gq8U",
    "name": "Młyn nad Lutynią",
    "category": "Młyn nad Lutynią",
    "formatted_address": "4,7(303) · zł 20–40",
    "phone_number": "+48735929241",
    "source_url": "https://www.google.com/maps/place/M%C5%82yn+nad+Lutyni%C4%85/data=!4m7!3m6!1s0x47052153dcc62e81:0xc5ab06be292a2d66!8m2!3d51.9975382!4d17.5402397!16s%2Fg%2F11h1612rgp!19sChIJgS7G3FMhBUcRZi0qKb4Gq8U?authuser=0&hl=tr&rclk=1",
    "website_url": "https://www.facebook.com/mlynnadlutynia",
    "rating_text": "4,7",
    "stars": null,
    "number_of_reviews": null,
    "price_level": "",
    "open_hours": "",
    "extraction_timestamp": "2025-06-07T17:38:54.385Z",
    "source_name": "google",
    "source_query": "Irrigation Equipment",
    "source_country": "PL",
    "country": "Poland",
    "state": "Greater Poland Voivodeship",
    "city": "Powiat jarociński"
  },
  {
    "source_id": "ChIJ-UpiFJkjBUcRkn6terx_csE",
    "name": "Belinda Sp. z o.o.",
    "category": "Belinda Sp. z o.o.",
    "formatted_address": "4,1(26)",
    "phone_number": "+48627478909",
    "source_url": "https://www.google.com/maps/place/Belinda+Sp.+z+o.o./data=!4m7!3m6!1s0x4705239914624af9:0xc1727fbc7aad7e92!8m2!3d51.9566081!4d17.5091532!16s%2Fg%2F1vhq2dm2!19sChIJ-UpiFJkjBUcRkn6terx_csE?authuser=0&hl=tr&rclk=1",
    "website_url": "https://www.bisnode.pl/firma/?id=1839604&nazwa=BELINDA_SP_Z_O_O",
    "rating_text": "4,1",
    "stars": null,
    "number_of_reviews": null,
    "price_level": "",
    "open_hours": "",
    "extraction_timestamp": "2025-06-07T17:38:54.385Z",
    "source_name": "google",
    "source_query": "Irrigation Equipment",
    "source_country": "PL",
    "country": "Poland",
    "state": "Greater Poland Voivodeship",
    "city": "Powiat jarociński"
  },
  {
    "source_id": "ChIJG3FBFrwjBUcRZHvI-8Su9VY",
    "name": "Anal s.c. Jurasz J.A.",
    "category": "Anal s.c. Jurasz J.A.",
    "formatted_address": "5,0(12)",
    "phone_number": "+48625054020",
    "source_url": "https://www.google.com/maps/place/Anal+s.c.+Jurasz+J.A./data=!4m7!3m6!1s0x470523bc1641711b:0x56f5aec4fbc87b64!8m2!3d51.9661389!4d17.5031224!16s%2Fg%2F1tg_drj4!19sChIJG3FBFrwjBUcRZHvI-8Su9VY?authuser=0&hl=tr&rclk=1",
    "website_url": "",
    "rating_text": "5,0",
    "stars": null,
    "number_of_reviews": null,
    "price_level": "",
    "open_hours": "",
    "extraction_timestamp": "2025-06-07T17:38:54.385Z",
    "source_name": "google",
    "source_query": "Irrigation Equipment",
    "source_country": "PL",
    "country": "Poland",
    "state": "Greater Poland Voivodeship",
    "city": "Powiat jarociński"
  },
  {
    "source_id": "ChIJca8L9mojBUcRn-gI-hsifUo",
    "name": "Action Jarocin",
    "category": "Action Jarocin",
    "formatted_address": "4,2(73)",
    "phone_number": "+48326305898",
    "source_url": "https://www.google.com/maps/place/Action+Jarocin/data=!4m7!3m6!1s0x4705236af60baf71:0x4a7d221bfa08e89f!8m2!3d51.970032!4d17.5028743!16s%2Fg%2F11t9_sh5x9!19sChIJca8L9mojBUcRn-gI-hsifUo?authuser=0&hl=tr&rclk=1",
    "website_url": "https://www.action.com/pl-pl/sklepy/jarocin/?utm_campaign=localbusiness&utm_source=google&utm_medium=organic&utm_content=A271",
    "rating_text": "4,2",
    "stars": null,
    "number_of_reviews": null,
    "price_level": "",
    "open_hours": "",
    "extraction_timestamp": "2025-06-07T17:38:54.386Z",
    "source_name": "google",
    "source_query": "Irrigation Equipment",
    "source_country": "PL",
    "country": "Poland",
    "state": "Greater Poland Voivodeship",
    "city": "Powiat jarociński"
  },
  {
    "source_id": "ChIJ0YNMj_YjBUcRk4MRBKbD0OE",
    "name": "Centrum Ogrodnicze DA-lia s.c.",
    "category": "Centrum Ogrodnicze DA-lia s.c.",
    "formatted_address": "4,9(47)",
    "phone_number": "+48601434966",
    "source_url": "https://www.google.com/maps/place/Centrum+Ogrodnicze+DA-lia+s.c./data=!4m7!3m6!1s0x470523f68f4c83d1:0xe1d0c3a604118393!8m2!3d51.9538761!4d17.5009942!16s%2Fg%2F11qqswgsc6!19sChIJ0YNMj_YjBUcRk4MRBKbD0OE?authuser=0&hl=tr&rclk=1",
    "website_url": "https://m.facebook.com/DAlia.Jarocin/",
    "rating_text": "4,9",
    "stars": null,
    "number_of_reviews": null,
    "price_level": "",
    "open_hours": "",
    "extraction_timestamp": "2025-06-07T17:38:54.386Z",
    "source_name": "google",
    "source_query": "Irrigation Equipment",
    "source_country": "PL",
    "country": "Poland",
    "state": "Greater Poland Voivodeship",
    "city": "Powiat jarociński"
  },
  {
    "source_id": "ChIJ80WT_LgjBUcRHwRiMoY9zI0",
    "name": "Natura drugstore",
    "category": "Natura drugstore",
    "formatted_address": "4,6(45)",
    "phone_number": "+48883378432",
    "source_url": "https://www.google.com/maps/place/Natura+drugstore/data=!4m7!3m6!1s0x470523b8fc9345f3:0x8dcc3d863262041f!8m2!3d51.9706543!4d17.5003804!16s%2Fg%2F1wd3trnr!19sChIJ80WT_LgjBUcRHwRiMoY9zI0?authuser=0&hl=tr&rclk=1",
    "website_url": "https://drogerienatura.pl/",
    "rating_text": "4,6",
    "stars": null,
    "number_of_reviews": null,
    "price_level": "",
    "open_hours": "",
    "extraction_timestamp": "2025-06-07T17:38:54.386Z",
    "source_name": "google",
    "source_query": "Irrigation Equipment",
    "source_country": "PL",
    "country": "Poland",
    "state": "Greater Poland Voivodeship",
    "city": "Powiat jarociński"
  }
]
