[
  {
    "source_id": "ChIJpd08s5jFA0cRJLeICv2GkBU",
    "name": "HYDRON hydraulika siłowa",
    "category": "HYDRON hydraulika siłowa",
    "formatted_address": "4,6(59)",
    "phone_number": "+48673505369",
    "source_url": "https://www.google.com/maps/place/HYDRON+hydraulika+si%C5%82owa/data=!4m7!3m6!1s0x4703c598b33cdda5:0x159086fd0a88b724!8m2!3d53.3598409!4d17.0563879!16s%2Fg%2F11bbyh37jf!19sChIJpd08s5jFA0cRJLeICv2GkBU?authuser=0&hl=tr&rclk=1",
    "website_url": "",
    "rating_text": "4,6",
    "stars": null,
    "number_of_reviews": null,
    "price_level": "",
    "open_hours": "",
    "extraction_timestamp": "2025-06-07T17:46:37.269Z",
    "source_name": "google",
    "source_query": "Irrigation Equipment",
    "source_country": "PL",
    "country": "Poland",
    "state": "Greater Poland Voivodeship",
    "city": "Powiat złotowski"
  },
  {
    "source_id": "ChIJc2qUjCjFA0cR-_ShCq2uUKM",
    "name": "MG HYDRO-SERWIS Złotów - Usługi hydrauliczne, sprzedaż i montaż pomp ciepła/kotłów na pellet i rekuperacji",
    "category": "MG HYDRO-SERWIS Złotów - Usługi hydrauliczne, sprzedaż i montaż pomp ciepła/kotłów na pellet i rekuperacji",
    "formatted_address": "MG HYDRO-SERWIS Złotów - Usługi hydrauliczne, sprzedaż i montaż pomp ciepła/kotłów na pellet i rekuperacji",
    "phone_number": "+48730822837",
    "source_url": "https://www.google.com/maps/place/MG+HYDRO-SERWIS+Z%C5%82ot%C3%B3w+-+Us%C5%82ugi+hydrauliczne,+sprzeda%C5%BC+i+monta%C5%BC+pomp+ciep%C5%82a%2Fkot%C5%82%C3%B3w+na+pellet+i+rekuperacji/data=!4m7!3m6!1s0x4703c5288c946a73:0xa350aead0aa1f4fb!8m2!3d53.3618437!4d17.0535595!16s%2Fg%2F11vclwm2q3!19sChIJc2qUjCjFA0cR-_ShCq2uUKM?authuser=0&hl=tr&rclk=1",
    "website_url": "",
    "rating_text": "5,0",
    "stars": null,
    "number_of_reviews": null,
    "price_level": "",
    "open_hours": "",
    "extraction_timestamp": "2025-06-07T17:46:37.302Z",
    "source_name": "google",
    "source_query": "Irrigation Equipment",
    "source_country": "PL",
    "country": "Poland",
    "state": "Greater Poland Voivodeship",
    "city": "Powiat złotowski"
  },
  {
    "source_id": "ChIJO1EUUHPFA0cR2u0IvXdWdgo",
    "name": "WOJCIECHOWSKI",
    "category": "WOJCIECHOWSKI",
    "formatted_address": "4,7(52)",
    "phone_number": "+48672632198",
    "source_url": "https://www.google.com/maps/place/WOJCIECHOWSKI/data=!4m7!3m6!1s0x4703c5735014513b:0xa765677bd08edda!8m2!3d53.3644043!4d17.041864!16s%2Fg%2F1v16n_h1!19sChIJO1EUUHPFA0cR2u0IvXdWdgo?authuser=0&hl=tr&rclk=1",
    "website_url": "",
    "rating_text": "4,7",
    "stars": null,
    "number_of_reviews": null,
    "price_level": "",
    "open_hours": "",
    "extraction_timestamp": "2025-06-07T17:46:37.304Z",
    "source_name": "google",
    "source_query": "Irrigation Equipment",
    "source_country": "PL",
    "country": "Poland",
    "state": "Greater Poland Voivodeship",
    "city": "Powiat złotowski"
  },
  {
    "source_id": "ChIJPyte_6XFA0cRxg8j4SzhDvs",
    "name": "Zakład Robót Instalacyjno-Inżynieryjnych HYDROPEX Sp. z o.o. Sp.k.",
    "category": "Zakład Robót Instalacyjno-Inżynieryjnych HYDROPEX Sp. z o.o. Sp.k.",
    "formatted_address": "4,6(14)",
    "phone_number": "+48672633964",
    "source_url": "https://www.google.com/maps/place/Zak%C5%82ad+Rob%C3%B3t+Instalacyjno-In%C5%BCynieryjnych+HYDROPEX+Sp.+z+o.o.+Sp.k./data=!4m7!3m6!1s0x4703c5a5ff5e2b3f:0xfb0ee12ce1230fc6!8m2!3d53.350835!4d17.051281!16s%2Fg%2F1v_z7lxw!19sChIJPyte_6XFA0cRxg8j4SzhDvs?authuser=0&hl=tr&rclk=1",
    "website_url": "",
    "rating_text": "4,6",
    "stars": null,
    "number_of_reviews": null,
    "price_level": "",
    "open_hours": "",
    "extraction_timestamp": "2025-06-07T17:46:37.305Z",
    "source_name": "google",
    "source_query": "Irrigation Equipment",
    "source_country": "PL",
    "country": "Poland",
    "state": "Greater Poland Voivodeship",
    "city": "Powiat złotowski"
  },
  {
    "source_id": "ChIJf1-nA6XFA0cRzzM_6ajs5BU",
    "name": "Serwis agregatów gazowych Power-On Site",
    "category": "Serwis agregatów gazowych Power-On Site",
    "formatted_address": "5,0(1)",
    "phone_number": "+48667666958",
    "source_url": "https://www.google.com/maps/place/Serwis+agregat%C3%B3w+gazowych+Power-On+Site/data=!4m7!3m6!1s0x4703c5a503a75f7f:0x15e4eca8e93f33cf!8m2!3d53.3575538!4d17.0500377!16s%2Fg%2F11fmwpyg3f!19sChIJf1-nA6XFA0cRzzM_6ajs5BU?authuser=0&hl=tr&rclk=1",
    "website_url": "",
    "rating_text": "5,0",
    "stars": null,
    "number_of_reviews": null,
    "price_level": "",
    "open_hours": "",
    "extraction_timestamp": "2025-06-07T17:46:37.307Z",
    "source_name": "google",
    "source_query": "Irrigation Equipment",
    "source_country": "PL",
    "country": "Poland",
    "state": "Greater Poland Voivodeship",
    "city": "Powiat złotowski"
  },
  {
    "source_id": "ChIJ8462y-nFA0cRdOU8-uTMsKM",
    "name": "PHU PAJĄK",
    "category": "PHU PAJĄK",
    "formatted_address": "4,2(5)",
    "phone_number": "+48784592767",
    "source_url": "https://www.google.com/maps/place/PHU+PAJ%C4%84K/data=!4m7!3m6!1s0x4703c5e9cbb68ef3:0xa3b0cce4fa3ce574!8m2!3d53.3724589!4d17.0206631!16s%2Fg%2F11h02kzmcn!19sChIJ8462y-nFA0cRdOU8-uTMsKM?authuser=0&hl=tr&rclk=1",
    "website_url": "",
    "rating_text": "4,2",
    "stars": null,
    "number_of_reviews": null,
    "price_level": "",
    "open_hours": "",
    "extraction_timestamp": "2025-06-07T17:46:37.308Z",
    "source_name": "google",
    "source_query": "Irrigation Equipment",
    "source_country": "PL",
    "country": "Poland",
    "state": "Greater Poland Voivodeship",
    "city": "Powiat złotowski"
  },
  {
    "source_id": "ChIJG60RagrFA0cRT_Lrxb0YCn0",
    "name": "PHU PAJĄK",
    "category": "PHU PAJĄK",
    "formatted_address": "4,4(25)",
    "phone_number": "+48606684345",
    "source_url": "https://www.google.com/maps/place/PHU+PAJ%C4%84K/data=!4m7!3m6!1s0x4703c50a6a11ad1b:0x7d0a18bdc5ebf24f!8m2!3d53.3590222!4d17.0459944!16s%2Fg%2F1tnqfpjq!19sChIJG60RagrFA0cRT_Lrxb0YCn0?authuser=0&hl=tr&rclk=1",
    "website_url": "",
    "rating_text": "4,4",
    "stars": null,
    "number_of_reviews": null,
    "price_level": "",
    "open_hours": "",
    "extraction_timestamp": "2025-06-07T17:46:37.309Z",
    "source_name": "google",
    "source_query": "Irrigation Equipment",
    "source_country": "PL",
    "country": "Poland",
    "state": "Greater Poland Voivodeship",
    "city": "Powiat złotowski"
  },
  {
    "source_id": "ChIJXwhPRM7FA0cRjeBbblzBjIg",
    "name": "Usługi Hydrauliczne Paweł Szandała",
    "category": "Usługi Hydrauliczne Paweł Szandała",
    "formatted_address": "5,0(5)",
    "phone_number": "+48796486746",
    "source_url": "https://www.google.com/maps/place/Us%C5%82ugi+Hydrauliczne+Pawe%C5%82+Szanda%C5%82a/data=!4m7!3m6!1s0x4703c5ce444f085f:0x888cc15c6e5be08d!8m2!3d53.3609523!4d17.0365186!16s%2Fg%2F11y1dm123b!19sChIJXwhPRM7FA0cRjeBbblzBjIg?authuser=0&hl=tr&rclk=1",
    "website_url": "",
    "rating_text": "5,0",
    "stars": null,
    "number_of_reviews": null,
    "price_level": "",
    "open_hours": "",
    "extraction_timestamp": "2025-06-07T17:46:37.310Z",
    "source_name": "google",
    "source_query": "Irrigation Equipment",
    "source_country": "PL",
    "country": "Poland",
    "state": "Greater Poland Voivodeship",
    "city": "Powiat złotowski"
  },
  {
    "source_id": "ChIJ_2XmoIvFA0cRwM_q0jJo3DE",
    "name": "Usługi Hydrauliczne Grzegorz Stocki",
    "category": "Usługi Hydrauliczne Grzegorz Stocki",
    "formatted_address": "4,4(7)",
    "phone_number": "+48600232449",
    "source_url": "https://www.google.com/maps/place/Us%C5%82ugi+Hydrauliczne+Grzegorz+Stocki/data=!4m7!3m6!1s0x4703c58ba0e665ff:0x31dc6832d2eacfc0!8m2!3d53.3749688!4d17.025259!16s%2Fg%2F11hz_n3sny!19sChIJ_2XmoIvFA0cRwM_q0jJo3DE?authuser=0&hl=tr&rclk=1",
    "website_url": "",
    "rating_text": "4,4",
    "stars": null,
    "number_of_reviews": null,
    "price_level": "",
    "open_hours": "",
    "extraction_timestamp": "2025-06-07T17:46:37.312Z",
    "source_name": "google",
    "source_query": "Irrigation Equipment",
    "source_country": "PL",
    "country": "Poland",
    "state": "Greater Poland Voivodeship",
    "city": "Powiat złotowski"
  },
  {
    "source_id": "ChIJkSifA7nmA0cRWp6QLcycI1U",
    "name": "PPHU Technologie Grzewcze i Sanitarne",
    "category": "PPHU Technologie Grzewcze i Sanitarne",
    "formatted_address": "4,5(20)",
    "phone_number": "+48667749588",
    "source_url": "https://www.google.com/maps/place/PPHU+Technologie+Grzewcze+i+Sanitarne/data=!4m7!3m6!1s0x4703e6b9039f2891:0x55239ccc2d909e5a!8m2!3d53.1625658!4d16.76349!16s%2Fg%2F1tczp1h6!19sChIJkSifA7nmA0cRWp6QLcycI1U?authuser=0&hl=tr&rclk=1",
    "website_url": "",
    "rating_text": "4,5",
    "stars": null,
    "number_of_reviews": null,
    "price_level": "",
    "open_hours": "",
    "extraction_timestamp": "2025-06-07T17:46:37.313Z",
    "source_name": "google",
    "source_query": "Irrigation Equipment",
    "source_country": "PL",
    "country": "Poland",
    "state": "Greater Poland Voivodeship",
    "city": "Powiat złotowski"
  },
  {
    "source_id": "ChIJI83Gz6jmA0cRiKQ79Ugo8rA",
    "name": "Hydro-Instal",
    "category": "Hydro-Instal",
    "formatted_address": "2,2(5)",
    "phone_number": "+48606960257",
    "source_url": "https://www.google.com/maps/place/Hydro-Instal/data=!4m7!3m6!1s0x4703e6a8cfc6cd23:0xb0f22848f53ba488!8m2!3d53.16926!4d16.7398731!16s%2Fg%2F1v0ljgmw!19sChIJI83Gz6jmA0cRiKQ79Ugo8rA?authuser=0&hl=tr&rclk=1",
    "website_url": "",
    "rating_text": "2,2",
    "stars": null,
    "number_of_reviews": null,
    "price_level": "",
    "open_hours": "",
    "extraction_timestamp": "2025-06-07T17:46:37.314Z",
    "source_name": "google",
    "source_query": "Irrigation Equipment",
    "source_country": "PL",
    "country": "Poland",
    "state": "Greater Poland Voivodeship",
    "city": "Powiat złotowski"
  },
  {
    "source_id": "ChIJpTT-5jHXA0cR2g3IyULU4p0",
    "name": "Sklep rolniczo-techniczny Powered by Kramp Jastrowie",
    "category": "Sklep rolniczo-techniczny Powered by Kramp Jastrowie",
    "formatted_address": "4,8(43)",
    "phone_number": "+48607605279",
    "source_url": "https://www.google.com/maps/place/Sklep+rolniczo-techniczny+Powered+by+Kramp+Jastrowie/data=!4m7!3m6!1s0x4703d731e6fe34a5:0x9de2d442c9c80dda!8m2!3d53.423009!4d16.819038!16s%2Fg%2F11g1dvlqvr!19sChIJpTT-5jHXA0cR2g3IyULU4p0?authuser=0&hl=tr&rclk=1",
    "website_url": "",
    "rating_text": "4,8",
    "stars": null,
    "number_of_reviews": null,
    "price_level": "",
    "open_hours": "",
    "extraction_timestamp": "2025-06-07T17:46:37.315Z",
    "source_name": "google",
    "source_query": "Irrigation Equipment",
    "source_country": "PL",
    "country": "Poland",
    "state": "Greater Poland Voivodeship",
    "city": "Powiat złotowski"
  },
  {
    "source_id": "ChIJ8_MNa-_FA0cREIzkj0975dA",
    "name": "Action Złotów",
    "category": "Action Złotów",
    "formatted_address": "4,1(60)",
    "phone_number": "+48326305898",
    "source_url": "https://www.google.com/maps/place/Action+Z%C5%82ot%C3%B3w/data=!4m7!3m6!1s0x4703c5ef6b0df3f3:0xd0e57b4f8fe48c10!8m2!3d53.3571943!4d17.0450564!16s%2Fg%2F11khznwlm8!19sChIJ8_MNa-_FA0cREIzkj0975dA?authuser=0&hl=tr&rclk=1",
    "website_url": "",
    "rating_text": "4,1",
    "stars": null,
    "number_of_reviews": null,
    "price_level": "",
    "open_hours": "",
    "extraction_timestamp": "2025-06-07T17:46:37.316Z",
    "source_name": "google",
    "source_query": "Irrigation Equipment",
    "source_country": "PL",
    "country": "Poland",
    "state": "Greater Poland Voivodeship",
    "city": "Powiat złotowski"
  },
  {
    "source_id": "ChIJvSVbQLnXA0cROzeRYCG8DXk",
    "name": "PPHU Jan Romańczuk. Hydraulika, Elektryka",
    "category": "PPHU Jan Romańczuk. Hydraulika, Elektryka",
    "formatted_address": "PPHU Jan Romańczuk. Hydraulika, Elektryka",
    "phone_number": "+48509013888",
    "source_url": "https://www.google.com/maps/place/PPHU+Jan+Roma%C5%84czuk.+Hydraulika,+Elektryka/data=!4m7!3m6!1s0x4703d7b9405b25bd:0x790dbc216091373b!8m2!3d53.4204633!4d16.8112516!16s%2Fg%2F11fct4m7j_!19sChIJvSVbQLnXA0cROzeRYCG8DXk?authuser=0&hl=tr&rclk=1",
    "website_url": "",
    "rating_text": "5,0",
    "stars": null,
    "number_of_reviews": null,
    "price_level": "",
    "open_hours": "",
    "extraction_timestamp": "2025-06-07T17:46:37.317Z",
    "source_name": "google",
    "source_query": "Irrigation Equipment",
    "source_country": "PL",
    "country": "Poland",
    "state": "Greater Poland Voivodeship",
    "city": "Powiat złotowski"
  },
  {
    "source_id": "ChIJjSkyVVrlA0cR4LxRq4X4-_o",
    "name": "ASTA ENERGY SYSTEMS Sp. z o.o.",
    "category": "ASTA ENERGY SYSTEMS Sp. z o.o.",
    "formatted_address": "4,9(229)",
    "phone_number": "+48508018845",
    "source_url": "https://www.google.com/maps/place/ASTA+ENERGY+SYSTEMS+Sp.+z+o.o./data=!4m7!3m6!1s0x4703e55a5532298d:0xfafbf885ab51bce0!8m2!3d53.1147071!4d16.772922!16s%2Fg%2F11q8wxwgp7!19sChIJjSkyVVrlA0cR4LxRq4X4-_o?authuser=0&hl=tr&rclk=1",
    "website_url": "",
    "rating_text": "4,9",
    "stars": null,
    "number_of_reviews": null,
    "price_level": "",
    "open_hours": "",
    "extraction_timestamp": "2025-06-07T17:46:37.318Z",
    "source_name": "google",
    "source_query": "Irrigation Equipment",
    "source_country": "PL",
    "country": "Poland",
    "state": "Greater Poland Voivodeship",
    "city": "Powiat złotowski"
  },
  {
    "source_id": "ChIJcWHpR77FA0cRFaEIwfFfiaU",
    "name": "Pracownia BHP i Ochrony Środowiska EKO-SYSTEM Jaromir Cielas",
    "category": "Pracownia BHP i Ochrony Środowiska EKO-SYSTEM Jaromir Cielas",
    "formatted_address": "",
    "phone_number": "+48608035907",
    "source_url": "https://www.google.com/maps/place/Pracownia+BHP+i+Ochrony+%C5%9Arodowiska+EKO-SYSTEM+Jaromir+Cielas/data=!4m7!3m6!1s0x4703c5be47e96171:0xa5895ff1c108a115!8m2!3d53.3576334!4d17.0748387!16s%2Fg%2F1thg94bz!19sChIJcWHpR77FA0cRFaEIwfFfiaU?authuser=0&hl=tr&rclk=1",
    "website_url": "",
    "rating_text": "",
    "stars": null,
    "number_of_reviews": null,
    "price_level": "",
    "open_hours": "",
    "extraction_timestamp": "2025-06-07T17:46:37.319Z",
    "source_name": "google",
    "source_query": "Irrigation Equipment",
    "source_country": "PL",
    "country": "Poland",
    "state": "Greater Poland Voivodeship",
    "city": "Powiat złotowski"
  },
  {
    "source_id": "ChIJJ-4N4nbXA0cRh7knWGHbrdY",
    "name": "Z.U.H. Automech s.c.",
    "category": "Z.U.H. Automech s.c.",
    "formatted_address": "4,8(37)",
    "phone_number": "+48672663676",
    "source_url": "https://www.google.com/maps/place/Z.U.H.+Automech+s.c./data=!4m7!3m6!1s0x4703d776e20dee27:0xd6addb615827b987!8m2!3d53.431115!4d16.8293515!16s%2Fg%2F1tl9l8h0!19sChIJJ-4N4nbXA0cRh7knWGHbrdY?authuser=0&hl=tr&rclk=1",
    "website_url": "",
    "rating_text": "4,8",
    "stars": null,
    "number_of_reviews": null,
    "price_level": "",
    "open_hours": "",
    "extraction_timestamp": "2025-06-07T17:46:37.321Z",
    "source_name": "google",
    "source_query": "Irrigation Equipment",
    "source_country": "PL",
    "country": "Poland",
    "state": "Greater Poland Voivodeship",
    "city": "Powiat złotowski"
  },
  {
    "source_id": "ChIJQW6bdzr44UYRkfLyt4KTPIQ",
    "name": "HIPPER.pl",
    "category": "HIPPER.pl",
    "formatted_address": "4,3(60)",
    "phone_number": "+48500019393",
    "source_url": "https://www.google.com/maps/place/HIPPER.pl/data=!4m7!3m6!1s0x46e1f83a779b6e41:0x843c9382b7f2f291!8m2!3d53.414349!4d16.8017927!16s%2Fg%2F11fd3qp4km!19sChIJQW6bdzr44UYRkfLyt4KTPIQ?authuser=0&hl=tr&rclk=1",
    "website_url": "",
    "rating_text": "4,3",
    "stars": null,
    "number_of_reviews": null,
    "price_level": "",
    "open_hours": "",
    "extraction_timestamp": "2025-06-07T17:46:37.322Z",
    "source_name": "google",
    "source_query": "Irrigation Equipment",
    "source_country": "PL",
    "country": "Poland",
    "state": "Greater Poland Voivodeship",
    "city": "Powiat złotowski"
  },
  {
    "source_id": "ChIJc2bh7QLlA0cRnLPN_B7cyR0",
    "name": "Ogrody Zakładanie Projektowanie Ogrodów Piła ZIELONI Nawadnianie Ogrodu Trawa z Rolki Ogrodnik",
    "category": "Ogrody Zakładanie Projektowanie Ogrodów Piła ZIELONI Nawadnianie Ogrodu Trawa z Rolki Ogrodnik",
    "formatted_address": "5,0(14)",
    "phone_number": "+48601425852",
    "source_url": "https://www.google.com/maps/place/Ogrody+Zak%C5%82adanie+Projektowanie+Ogrod%C3%B3w+Pi%C5%82a+ZIELONI+Nawadnianie+Ogrodu+Trawa+z+Rolki+Ogrodnik/data=!4m7!3m6!1s0x4703e502ede16673:0x1dc9dc1efccdb39c!8m2!3d53.15307!4d16.74962!16s%2Fg%2F11gtggk6xz!19sChIJc2bh7QLlA0cRnLPN_B7cyR0?authuser=0&hl=tr&rclk=1",
    "website_url": "",
    "rating_text": "5,0",
    "stars": null,
    "number_of_reviews": null,
    "price_level": "",
    "open_hours": "",
    "extraction_timestamp": "2025-06-07T17:46:37.324Z",
    "source_name": "google",
    "source_query": "Irrigation Equipment",
    "source_country": "PL",
    "country": "Poland",
    "state": "Greater Poland Voivodeship",
    "city": "Powiat złotowski"
  },
  {
    "source_id": "ChIJ_T6uO4PmA0cRdGix0unxmq8",
    "name": "Sanpol Piła- hurtownia instalacyjna, hydrauliczna, sanitarna",
    "category": "Sanpol Piła- hurtownia instalacyjna, hydrauliczna, sanitarna",
    "formatted_address": "Sanpol Piła- hurtownia instalacyjna, hydrauliczna, sanitarna",
    "phone_number": "+48618746839",
    "source_url": "https://www.google.com/maps/place/Sanpol+Pi%C5%82a-+hurtownia+instalacyjna,+hydrauliczna,+sanitarna/data=!4m7!3m6!1s0x4703e6833bae3efd:0xaf9af1e9d2b16874!8m2!3d53.1622044!4d16.7706962!16s%2Fg%2F11g_609mv!19sChIJ_T6uO4PmA0cRdGix0unxmq8?authuser=0&hl=tr&rclk=1",
    "website_url": "",
    "rating_text": "4,9",
    "stars": null,
    "number_of_reviews": null,
    "price_level": "",
    "open_hours": "",
    "extraction_timestamp": "2025-06-07T17:46:37.325Z",
    "source_name": "google",
    "source_query": "Irrigation Equipment",
    "source_country": "PL",
    "country": "Poland",
    "state": "Greater Poland Voivodeship",
    "city": "Powiat złotowski"
  },
  {
    "source_id": "ChIJcX4-4o9dAUcRB22ErTG162E",
    "name": "Hydrogaz Wałcz, Autoryzowany Partner Bosch Termotechnika",
    "category": "Hydrogaz Wałcz, Autoryzowany Partner Bosch Termotechnika",
    "formatted_address": "Hydrogaz Wałcz, Autoryzowany Partner Bosch Termotechnika",
    "phone_number": "+48604804101",
    "source_url": "https://www.google.com/maps/place/Hydrogaz+Wa%C5%82cz,+Autoryzowany+Partner+Bosch+Termotechnika/data=!4m7!3m6!1s0x47015d8fe23e7e71:0x61ebb531ad846d07!8m2!3d53.2712239!4d16.4851697!16s%2Fg%2F1tfslp9s!19sChIJcX4-4o9dAUcRB22ErTG162E?authuser=0&hl=tr&rclk=1",
    "website_url": "",
    "rating_text": "5,0",
    "stars": null,
    "number_of_reviews": null,
    "price_level": "",
    "open_hours": "",
    "extraction_timestamp": "2025-06-07T17:46:37.326Z",
    "source_name": "google",
    "source_query": "Irrigation Equipment",
    "source_country": "PL",
    "country": "Poland",
    "state": "Greater Poland Voivodeship",
    "city": "Powiat złotowski"
  },
  {
    "source_id": "ChIJ8VmW4OSyA0cRKIdC1GoOAys",
    "name": "Hydraulik. S.j. PHU. Konat R.K.",
    "category": "Hydraulik. S.j. PHU. Konat R.K.",
    "formatted_address": "4,3(51)",
    "phone_number": "+48523880421",
    "source_url": "https://www.google.com/maps/place/Hydraulik.+S.j.+PHU.+Konat+R.K./data=!4m7!3m6!1s0x4703b2e4e09659f1:0x2b030e6ad4428728!8m2!3d53.45782!4d17.5463811!16s%2Fg%2F1tdyph0y!19sChIJ8VmW4OSyA0cRKIdC1GoOAys?authuser=0&hl=tr&rclk=1",
    "website_url": "",
    "rating_text": "4,3",
    "stars": null,
    "number_of_reviews": null,
    "price_level": "",
    "open_hours": "",
    "extraction_timestamp": "2025-06-07T17:46:37.333Z",
    "source_name": "google",
    "source_query": "Irrigation Equipment",
    "source_country": "PL",
    "country": "Poland",
    "state": "Greater Poland Voivodeship",
    "city": "Powiat złotowski"
  },
  {
    "source_id": "ChIJYR6zYBbFA0cRoicEUuefJEo",
    "name": "Fryzjer Ogrodowy Michał Brzeziński",
    "category": "Fryzjer Ogrodowy Michał Brzeziński",
    "formatted_address": "5,0(3)",
    "phone_number": "+48729498620",
    "source_url": "https://www.google.com/maps/place/Fryzjer+Ogrodowy+Micha%C5%82+Brzezi%C5%84ski/data=!4m7!3m6!1s0x4703c51660b31e61:0x4a249fe7520427a2!8m2!3d53.363449!4d17.0557322!16s%2Fg%2F11lwntjs14!19sChIJYR6zYBbFA0cRoicEUuefJEo?authuser=0&hl=tr&rclk=1",
    "website_url": "",
    "rating_text": "5,0",
    "stars": null,
    "number_of_reviews": null,
    "price_level": "",
    "open_hours": "",
    "extraction_timestamp": "2025-06-07T17:46:37.334Z",
    "source_name": "google",
    "source_query": "Irrigation Equipment",
    "source_country": "PL",
    "country": "Poland",
    "state": "Greater Poland Voivodeship",
    "city": "Powiat złotowski"
  },
  {
    "source_id": "ChIJRwZlOcLjA0cRkSdcGC7KwnA",
    "name": "EKOPIL Sp. z o.o. - Producent urządzeń do przemysłu oraz oczyszczalni ścieków",
    "category": "EKOPIL Sp. z o.o. - Producent urządzeń do przemysłu oraz oczyszczalni ścieków",
    "formatted_address": "4,8(23)",
    "phone_number": "+48673517176",
    "source_url": "https://www.google.com/maps/place/EKOPIL+Sp.+z+o.o.+-+Producent+urz%C4%85dze%C5%84+do+przemys%C5%82u+oraz+oczyszczalni+%C5%9Bciek%C3%B3w/data=!4m7!3m6!1s0x4703e3c239650647:0x70c2ca2e185c2791!8m2!3d53.1565701!4d16.6819148!16s%2Fg%2F11b5s2d363!19sChIJRwZlOcLjA0cRkSdcGC7KwnA?authuser=0&hl=tr&rclk=1",
    "website_url": "",
    "rating_text": "4,8",
    "stars": null,
    "number_of_reviews": null,
    "price_level": "",
    "open_hours": "",
    "extraction_timestamp": "2025-06-07T17:46:37.335Z",
    "source_name": "google",
    "source_query": "Irrigation Equipment",
    "source_country": "PL",
    "country": "Poland",
    "state": "Greater Poland Voivodeship",
    "city": "Powiat złotowski"
  },
  {
    "source_id": "ChIJk8NYTdqTA0cRY5IVO4k9S1M",
    "name": "GRENE",
    "category": "GRENE",
    "formatted_address": "4,0(7)",
    "phone_number": "+48609101760",
    "source_url": "https://www.google.com/maps/place/GRENE/data=!4m7!3m6!1s0x470393da4d58c393:0x534b3d893b159263!8m2!3d53.0279629!4d17.1188131!16s%2Fg%2F11fmp4tqyp!19sChIJk8NYTdqTA0cRY5IVO4k9S1M?authuser=0&hl=tr&rclk=1",
    "website_url": "",
    "rating_text": "4,0",
    "stars": null,
    "number_of_reviews": null,
    "price_level": "",
    "open_hours": "",
    "extraction_timestamp": "2025-06-07T17:46:37.336Z",
    "source_name": "google",
    "source_query": "Irrigation Equipment",
    "source_country": "PL",
    "country": "Poland",
    "state": "Greater Poland Voivodeship",
    "city": "Powiat złotowski"
  },
  {
    "source_id": "ChIJA8sbkqDlA0cRMYTNmXJrApg",
    "name": "KERAS Studnie Głębinowe",
    "category": "KERAS Studnie Głębinowe",
    "formatted_address": "5,0(130)",
    "phone_number": "+48511351636",
    "source_url": "https://www.google.com/maps/place/KERAS+Studnie+G%C5%82%C4%99binowe/data=!4m7!3m6!1s0x4703e5a0921bcb03:0x98026b7299cd8431!8m2!3d53.1523046!4d16.7533447!16s%2Fg%2F11s0t3rpk1!19sChIJA8sbkqDlA0cRMYTNmXJrApg?authuser=0&hl=tr&rclk=1",
    "website_url": "",
    "rating_text": "5,0",
    "stars": null,
    "number_of_reviews": null,
    "price_level": "",
    "open_hours": "",
    "extraction_timestamp": "2025-06-07T17:46:37.336Z",
    "source_name": "google",
    "source_query": "Irrigation Equipment",
    "source_country": "PL",
    "country": "Poland",
    "state": "Greater Poland Voivodeship",
    "city": "Powiat złotowski"
  },
  {
    "source_id": "ChIJcc9hA9i-A0cRXQqpKbnnaV0",
    "name": "Sklep rolniczo-techniczny Powered by Kramp Łobżenica",
    "category": "Sklep rolniczo-techniczny Powered by Kramp Łobżenica",
    "formatted_address": "4,3(15)",
    "phone_number": "+48883391402",
    "source_url": "https://www.google.com/maps/place/Sklep+rolniczo-techniczny+Powered+by+Kramp+%C5%81ob%C5%BCenica/data=!4m7!3m6!1s0x4703bed80361cf71:0x5d69e7b929a90a5d!8m2!3d53.2551155!4d17.251219!16s%2Fg%2F11bbrjlz2s!19sChIJcc9hA9i-A0cRXQqpKbnnaV0?authuser=0&hl=tr&rclk=1",
    "website_url": "",
    "rating_text": "4,3",
    "stars": null,
    "number_of_reviews": null,
    "price_level": "",
    "open_hours": "",
    "extraction_timestamp": "2025-06-07T17:46:37.337Z",
    "source_name": "google",
    "source_query": "Irrigation Equipment",
    "source_country": "PL",
    "country": "Poland",
    "state": "Greater Poland Voivodeship",
    "city": "Powiat złotowski"
  }
]
