[
  {
    "source_id": "ChIJFeNrDtIKEEcRdvqSlie16bw",
    "name": "GRENE",
    "category": "GRENE",
    "formatted_address": "4,8(18)",
    "phone_number": "+48627823738",
    "source_url": "https://www.google.com/maps/place/GRENE/data=!4m7!3m6!1s0x47100ad20e6be315:0xbce9b5279692fa76!8m2!3d51.275917!4d17.990297!16s%2Fg%2F1trc3phv!19sChIJFeNrDtIKEEcRdvqSlie16bw?authuser=0&hl=tr&rclk=1",
    "website_url": "",
    "rating_text": "4,8",
    "stars": null,
    "number_of_reviews": null,
    "price_level": "",
    "open_hours": "",
    "extraction_timestamp": "2025-06-07T17:16:07.003Z",
    "source_name": "google",
    "source_query": "Irrigation Equipment",
    "source_country": "PL",
    "country": "Poland",
    "state": "Greater Poland Voivodeship",
    "city": "Powiat kępiński"
  },
  {
    "source_id": "ChIJz9BYyc4KEEcR8zobPbVcAQE",
    "name": "Bud-Met. Sklep z art. instalacyjno - hydraulicznymi. Sopart R.M.W.",
    "category": "Bud-Met. Sklep z art. instalacyjno - hydraulicznymi. Sopart R.M.W.",
    "formatted_address": "4,8(76)",
    "phone_number": "+48451562905",
    "source_url": "https://www.google.com/maps/place/Bud-Met.+Sklep+z+art.+instalacyjno+-+hydraulicznymi.+Sopart+R.M.W./data=!4m7!3m6!1s0x47100acec958d0cf:0x1015cb53d1b3af3!8m2!3d51.2816416!4d17.9885993!16s%2Fg%2F1th7x20v!19sChIJz9BYyc4KEEcR8zobPbVcAQE?authuser=0&hl=tr&rclk=1",
    "website_url": "",
    "rating_text": "4,8",
    "stars": null,
    "number_of_reviews": null,
    "price_level": "",
    "open_hours": "",
    "extraction_timestamp": "2025-06-07T17:16:07.004Z",
    "source_name": "google",
    "source_query": "Irrigation Equipment",
    "source_country": "PL",
    "country": "Poland",
    "state": "Greater Poland Voivodeship",
    "city": "Powiat kępiński"
  },
  {
    "source_id": "ChIJa3WWisUKEEcReq09RNNGuB0",
    "name": "Bricomarché",
    "category": "Bricomarché",
    "formatted_address": "4,1(1.428)",
    "phone_number": "+48625830074",
    "source_url": "https://www.google.com/maps/place/Bricomarch%C3%A9/data=!4m7!3m6!1s0x47100ac58a96756b:0x1db846d3443dad7a!8m2!3d51.2823206!4d17.9864406!16s%2Fg%2F1ty72_cg!19sChIJa3WWisUKEEcReq09RNNGuB0?authuser=0&hl=tr&rclk=1",
    "website_url": "",
    "rating_text": "4,1",
    "stars": null,
    "number_of_reviews": null,
    "price_level": "",
    "open_hours": "",
    "extraction_timestamp": "2025-06-07T17:16:07.007Z",
    "source_name": "google",
    "source_query": "Irrigation Equipment",
    "source_country": "PL",
    "country": "Poland",
    "state": "Greater Poland Voivodeship",
    "city": "Powiat kępiński"
  },
  {
    "source_id": "ChIJIQ_20tsHEEcRUdsbgyowByA",
    "name": "inaer",
    "category": "inaer",
    "formatted_address": "5,0(4)",
    "phone_number": "+48502761961",
    "source_url": "https://www.google.com/maps/place/inaer/data=!4m7!3m6!1s0x471007dbd2f60f21:0x2007302a831bdb51!8m2!3d51.27194!4d17.71403!16s%2Fg%2F11fqxmxj61!19sChIJIQ_20tsHEEcRUdsbgyowByA?authuser=0&hl=tr&rclk=1",
    "website_url": "",
    "rating_text": "5,0",
    "stars": null,
    "number_of_reviews": null,
    "price_level": "",
    "open_hours": "",
    "extraction_timestamp": "2025-06-07T17:16:07.009Z",
    "source_name": "google",
    "source_query": "Irrigation Equipment",
    "source_country": "PL",
    "country": "Poland",
    "state": "Greater Poland Voivodeship",
    "city": "Powiat kępiński"
  },
  {
    "source_id": "ChIJx0fc_NMKEEcRWWNW2iGqxG0",
    "name": "Artykuły Sanitarne - Bud-Rol",
    "category": "Artykuły Sanitarne - Bud-Rol",
    "formatted_address": "4,6(28)",
    "phone_number": "+48627820103",
    "source_url": "https://www.google.com/maps/place/Artyku%C5%82y+Sanitarne+-+Bud-Rol/data=!4m7!3m6!1s0x47100ad3fcdc47c7:0x6dc4aa21da566359!8m2!3d51.272925!4d17.986146!16s%2Fg%2F1tf6ky4f!19sChIJx0fc_NMKEEcRWWNW2iGqxG0?authuser=0&hl=tr&rclk=1",
    "website_url": "",
    "rating_text": "4,6",
    "stars": null,
    "number_of_reviews": null,
    "price_level": "",
    "open_hours": "",
    "extraction_timestamp": "2025-06-07T17:16:07.010Z",
    "source_name": "google",
    "source_query": "Irrigation Equipment",
    "source_country": "PL",
    "country": "Poland",
    "state": "Greater Poland Voivodeship",
    "city": "Powiat kępiński"
  },
  {
    "source_id": "ChIJ1a-BvdMLEEcRH1FRSV9Kk00",
    "name": "Hydro INSTAL Usługi Hydrauliczne Hydraulik Kępno",
    "category": "Hydro INSTAL Usługi Hydrauliczne Hydraulik Kępno",
    "formatted_address": "5,0(6)",
    "phone_number": "+48536843707",
    "source_url": "https://www.google.com/maps/place/Hydro+INSTAL+Us%C5%82ugi+Hydrauliczne+Hydraulik+K%C4%99pno/data=!4m7!3m6!1s0x47100bd3bd81afd5:0x4d934a5f4951511f!8m2!3d51.280272!4d17.9773528!16s%2Fg%2F11shddrfm1!19sChIJ1a-BvdMLEEcRH1FRSV9Kk00?authuser=0&hl=tr&rclk=1",
    "website_url": "",
    "rating_text": "5,0",
    "stars": null,
    "number_of_reviews": null,
    "price_level": "",
    "open_hours": "",
    "extraction_timestamp": "2025-06-07T17:16:07.011Z",
    "source_name": "google",
    "source_query": "Irrigation Equipment",
    "source_country": "PL",
    "country": "Poland",
    "state": "Greater Poland Voivodeship",
    "city": "Powiat kępiński"
  },
  {
    "source_id": "ChIJ0RAXFL8KEEcRxiKlmMV09ug",
    "name": "Polserwis Wojciech Liebner",
    "category": "Polserwis Wojciech Liebner",
    "formatted_address": "4,5(15)",
    "phone_number": "+48627810000",
    "source_url": "https://www.google.com/maps/place/Polserwis+Wojciech+Liebner/data=!4m7!3m6!1s0x47100abf141710d1:0xe8f674c598a522c6!8m2!3d51.2913087!4d17.9807577!16s%2Fg%2F1vknn2rw!19sChIJ0RAXFL8KEEcRxiKlmMV09ug?authuser=0&hl=tr&rclk=1",
    "website_url": "",
    "rating_text": "4,5",
    "stars": null,
    "number_of_reviews": null,
    "price_level": "",
    "open_hours": "",
    "extraction_timestamp": "2025-06-07T17:16:07.013Z",
    "source_name": "google",
    "source_query": "Irrigation Equipment",
    "source_country": "PL",
    "country": "Poland",
    "state": "Greater Poland Voivodeship",
    "city": "Powiat kępiński"
  },
  {
    "source_id": "ChIJt-fmBJ8LEEcRcWDvKhf7n5o",
    "name": "AVERD",
    "category": "AVERD",
    "formatted_address": "5,0(5)",
    "phone_number": "+48536843707",
    "source_url": "https://www.google.com/maps/place/AVERD/data=!4m7!3m6!1s0x47100b9f04e6e7b7:0x9a9ffb172aef6071!8m2!3d51.2808999!4d17.9770751!16s%2Fg%2F11h3kfjz2q!19sChIJt-fmBJ8LEEcRcWDvKhf7n5o?authuser=0&hl=tr&rclk=1",
    "website_url": "",
    "rating_text": "5,0",
    "stars": null,
    "number_of_reviews": null,
    "price_level": "",
    "open_hours": "",
    "extraction_timestamp": "2025-06-07T17:16:07.014Z",
    "source_name": "google",
    "source_query": "Irrigation Equipment",
    "source_country": "PL",
    "country": "Poland",
    "state": "Greater Poland Voivodeship",
    "city": "Powiat kępiński"
  },
  {
    "source_id": "ChIJWSN-v-KdGkcRtJ-o_z_zZ6I",
    "name": "Art-Met",
    "category": "Art-Met",
    "formatted_address": "4,7(101)",
    "phone_number": "+48627840140",
    "source_url": "https://www.google.com/maps/place/Art-Met/data=!4m7!3m6!1s0x471a9de2bf7e2359:0xa267f33fffa89fb4!8m2!3d51.2973104!4d18.1432939!16s%2Fg%2F1q5gjq4h5!19sChIJWSN-v-KdGkcRtJ-o_z_zZ6I?authuser=0&hl=tr&rclk=1",
    "website_url": "",
    "rating_text": "4,7",
    "stars": null,
    "number_of_reviews": null,
    "price_level": "",
    "open_hours": "",
    "extraction_timestamp": "2025-06-07T17:16:07.015Z",
    "source_name": "google",
    "source_query": "Irrigation Equipment",
    "source_country": "PL",
    "country": "Poland",
    "state": "Greater Poland Voivodeship",
    "city": "Powiat kępiński"
  },
  {
    "source_id": "ChIJ-zKq36B0EEcRewMgxTJy7zQ",
    "name": "AGROBUD Tadeusz Kwapisz",
    "category": "AGROBUD Tadeusz Kwapisz",
    "formatted_address": "4,8(219)",
    "phone_number": "+48627818251",
    "source_url": "https://www.google.com/maps/place/AGROBUD+Tadeusz+Kwapisz/data=!4m7!3m6!1s0x471074a0dfaa32fb:0x34ef7232c520037b!8m2!3d51.2618067!4d18.0025891!16s%2Fg%2F1tlw7t5d!19sChIJ-zKq36B0EEcRewMgxTJy7zQ?authuser=0&hl=tr&rclk=1",
    "website_url": "",
    "rating_text": "4,8",
    "stars": null,
    "number_of_reviews": null,
    "price_level": "",
    "open_hours": "",
    "extraction_timestamp": "2025-06-07T17:16:07.016Z",
    "source_name": "google",
    "source_query": "Irrigation Equipment",
    "source_country": "PL",
    "country": "Poland",
    "state": "Greater Poland Voivodeship",
    "city": "Powiat kępiński"
  },
  {
    "source_id": "ChIJ_VGqOBJ1EEcRBBHOvp3Ly3Y",
    "name": "P.P.U.H HYDRO-TECH BARTOSZ ZIĘBA",
    "category": "P.P.U.H HYDRO-TECH BARTOSZ ZIĘBA",
    "formatted_address": "",
    "phone_number": "+48513156833",
    "source_url": "https://www.google.com/maps/place/P.P.U.H+HYDRO-TECH+BARTOSZ+ZI%C4%98BA/data=!4m7!3m6!1s0x4710751238aa51fd:0x76cbcb9dbece1104!8m2!3d51.287169!4d18.0058366!16s%2Fg%2F11sp4r90s_!19sChIJ_VGqOBJ1EEcRBBHOvp3Ly3Y?authuser=0&hl=tr&rclk=1",
    "website_url": "",
    "rating_text": "",
    "stars": null,
    "number_of_reviews": null,
    "price_level": "",
    "open_hours": "",
    "extraction_timestamp": "2025-06-07T17:16:07.017Z",
    "source_name": "google",
    "source_query": "Irrigation Equipment",
    "source_country": "PL",
    "country": "Poland",
    "state": "Greater Poland Voivodeship",
    "city": "Powiat kępiński"
  },
  {
    "source_id": "ChIJB3lg7UZ1EEcRKF8pTutMLYA",
    "name": "Voltero - | Fotowoltaika | Pompy ciepła | Klimatyzacje |",
    "category": "Voltero - | Fotowoltaika | Pompy ciepła | Klimatyzacje |",
    "formatted_address": "5,0(26)",
    "phone_number": "+48601743766",
    "source_url": "https://www.google.com/maps/place/Voltero+-+%7C+Fotowoltaika+%7C+Pompy+ciep%C5%82a+%7C+Klimatyzacje+%7C/data=!4m7!3m6!1s0x47107546ed607907:0x802d4ceb4e295f28!8m2!3d51.2671407!4d18.0020656!16s%2Fg%2F11j9ctctn4!19sChIJB3lg7UZ1EEcRKF8pTutMLYA?authuser=0&hl=tr&rclk=1",
    "website_url": "",
    "rating_text": "5,0",
    "stars": null,
    "number_of_reviews": null,
    "price_level": "",
    "open_hours": "",
    "extraction_timestamp": "2025-06-07T17:16:07.019Z",
    "source_name": "google",
    "source_query": "Irrigation Equipment",
    "source_country": "PL",
    "country": "Poland",
    "state": "Greater Poland Voivodeship",
    "city": "Powiat kępiński"
  },
  {
    "source_id": "ChIJfer5NyekGkcRUk6SBoom4gE",
    "name": "Hurtownia hydrauliczna Jolanta Dutkowska",
    "category": "Hurtownia hydrauliczna Jolanta Dutkowska",
    "formatted_address": "4,7(21)",
    "phone_number": "+48510211399",
    "source_url": "https://www.google.com/maps/place/Hurtownia+hydrauliczna+Jolanta+Dutkowska/data=!4m7!3m6!1s0x471aa42737f9ea7d:0x1e2268a06924e52!8m2!3d51.4167467!4d17.9146987!16s%2Fg%2F1vqmh32w!19sChIJfer5NyekGkcRUk6SBoom4gE?authuser=0&hl=tr&rclk=1",
    "website_url": "",
    "rating_text": "4,7",
    "stars": null,
    "number_of_reviews": null,
    "price_level": "",
    "open_hours": "",
    "extraction_timestamp": "2025-06-07T17:16:07.020Z",
    "source_name": "google",
    "source_query": "Irrigation Equipment",
    "source_country": "PL",
    "country": "Poland",
    "state": "Greater Poland Voivodeship",
    "city": "Powiat kępiński"
  },
  {
    "source_id": "ChIJl4YdtdYKEEcRZPiQangnZEA",
    "name": "HYDROEKSPERT. Hydraulik Kępno. Usługi Hydrauliczne",
    "category": "HYDROEKSPERT. Hydraulik Kępno. Usługi Hydrauliczne",
    "formatted_address": "5,0(1)",
    "phone_number": "+48607986338",
    "source_url": "https://www.google.com/maps/place/HYDROEKSPERT.+Hydraulik+K%C4%99pno.+Us%C5%82ugi+Hydrauliczne/data=!4m7!3m6!1s0x47100ad6b51d8697:0x406427786a90f864!8m2!3d51.3052438!4d18.0008121!16s%2Fg%2F11fy4v9kt1!19sChIJl4YdtdYKEEcRZPiQangnZEA?authuser=0&hl=tr&rclk=1",
    "website_url": "",
    "rating_text": "5,0",
    "stars": null,
    "number_of_reviews": null,
    "price_level": "",
    "open_hours": "",
    "extraction_timestamp": "2025-06-07T17:16:07.021Z",
    "source_name": "google",
    "source_query": "Irrigation Equipment",
    "source_country": "PL",
    "country": "Poland",
    "state": "Greater Poland Voivodeship",
    "city": "Powiat kępiński"
  },
  {
    "source_id": "ChIJjWegyYpzEEcRGmWRRb1C-1Q",
    "name": "RM Technika Rafał Mąka Roboty ziemne Wyburzenia Hydraulika",
    "category": "RM Technika Rafał Mąka Roboty ziemne Wyburzenia Hydraulika",
    "formatted_address": "5,0(2)",
    "phone_number": "+48783487072",
    "source_url": "https://www.google.com/maps/place/RM+Technika+Rafa%C5%82+M%C4%85ka+Roboty+ziemne+Wyburzenia+Hydraulika/data=!4m7!3m6!1s0x4710738ac9a0678d:0x54fb42bd4591651a!8m2!3d51.1682927!4d18.0066946!16s%2Fg%2F11s5xr3trx!19sChIJjWegyYpzEEcRGmWRRb1C-1Q?authuser=0&hl=tr&rclk=1",
    "website_url": "",
    "rating_text": "5,0",
    "stars": null,
    "number_of_reviews": null,
    "price_level": "",
    "open_hours": "",
    "extraction_timestamp": "2025-06-07T17:16:07.022Z",
    "source_name": "google",
    "source_query": "Irrigation Equipment",
    "source_country": "PL",
    "country": "Poland",
    "state": "Greater Poland Voivodeship",
    "city": "Powiat kępiński"
  },
  {
    "source_id": "ChIJiecSclIGEEcR8uAPodL0xzM",
    "name": "Z.P.H.U Ekomir - Hydraulika Siłowa Wrocław",
    "category": "Z.P.H.U Ekomir - Hydraulika Siłowa Wrocław",
    "formatted_address": "5,0(3)",
    "phone_number": "+48625820362",
    "source_url": "https://www.google.com/maps/place/Z.P.H.U+Ekomir+-+Hydraulika+Si%C5%82owa+Wroc%C5%82aw/data=!4m7!3m6!1s0x471006527212e789:0x33c7f4d2a10fe0f2!8m2!3d51.306598!4d17.710105!16s%2Fg%2F1tmbtvh7!19sChIJiecSclIGEEcR8uAPodL0xzM?authuser=0&hl=tr&rclk=1",
    "website_url": "",
    "rating_text": "5,0",
    "stars": null,
    "number_of_reviews": null,
    "price_level": "",
    "open_hours": "",
    "extraction_timestamp": "2025-06-07T17:16:07.023Z",
    "source_name": "google",
    "source_query": "Irrigation Equipment",
    "source_country": "PL",
    "country": "Poland",
    "state": "Greater Poland Voivodeship",
    "city": "Powiat kępiński"
  },
  {
    "source_id": "ChIJYWYs_c0KEEcRD529D_y1Mec",
    "name": "Usługi Hydrauliczne Hydro-Pol",
    "category": "Usługi Hydrauliczne Hydro-Pol",
    "formatted_address": "3,0(2)",
    "phone_number": "+48606830688",
    "source_url": "https://www.google.com/maps/place/Us%C5%82ugi+Hydrauliczne+Hydro-Pol/data=!4m7!3m6!1s0x47100acdfd2c6661:0xe731b5fc0fbd9d0f!8m2!3d51.277814!4d17.9904712!16s%2Fg%2F11j7xs629h!19sChIJYWYs_c0KEEcRD529D_y1Mec?authuser=0&hl=tr&rclk=1",
    "website_url": "",
    "rating_text": "3,0",
    "stars": null,
    "number_of_reviews": null,
    "price_level": "",
    "open_hours": "",
    "extraction_timestamp": "2025-06-07T17:16:07.024Z",
    "source_name": "google",
    "source_query": "Irrigation Equipment",
    "source_country": "PL",
    "country": "Poland",
    "state": "Greater Poland Voivodeship",
    "city": "Powiat kępiński"
  },
  {
    "source_id": "ChIJheGoFM8KEEcRCYUIOA16atQ",
    "name": "Intermarche - Supermarket Centrum Handlowe",
    "category": "Intermarche - Supermarket Centrum Handlowe",
    "formatted_address": "4,3(1.335)",
    "phone_number": "+48627827566",
    "source_url": "https://www.google.com/maps/place/Intermarche+-+Supermarket+Centrum+Handlowe/data=!4m7!3m6!1s0x47100acf14a8e185:0xd46a7a0d38088509!8m2!3d51.2815788!4d17.9856792!16s%2Fg%2F1tf6qh_d!19sChIJheGoFM8KEEcRCYUIOA16atQ?authuser=0&hl=tr&rclk=1",
    "website_url": "",
    "rating_text": "4,3",
    "stars": null,
    "number_of_reviews": null,
    "price_level": "",
    "open_hours": "",
    "extraction_timestamp": "2025-06-07T17:16:07.026Z",
    "source_name": "google",
    "source_query": "Irrigation Equipment",
    "source_country": "PL",
    "country": "Poland",
    "state": "Greater Poland Voivodeship",
    "city": "Powiat kępiński"
  },
  {
    "source_id": "ChIJ6XcJqgYLEEcRs-dQTfRFDLo",
    "name": "Action Kepno",
    "category": "Action Kepno",
    "formatted_address": "4,6(396)",
    "phone_number": "+48326305898",
    "source_url": "https://www.google.com/maps/place/Action+Kepno/data=!4m7!3m6!1s0x47100b06aa0977e9:0xba0c45f44d50e7b3!8m2!3d51.2784744!4d17.9923422!16s%2Fg%2F11mvvgpt5b!19sChIJ6XcJqgYLEEcRs-dQTfRFDLo?authuser=0&hl=tr&rclk=1",
    "website_url": "",
    "rating_text": "4,6",
    "stars": null,
    "number_of_reviews": null,
    "price_level": "",
    "open_hours": "",
    "extraction_timestamp": "2025-06-07T17:16:07.027Z",
    "source_name": "google",
    "source_query": "Irrigation Equipment",
    "source_country": "PL",
    "country": "Poland",
    "state": "Greater Poland Voivodeship",
    "city": "Powiat kępiński"
  },
  {
    "source_id": "ChIJQRHBddMKEEcR-xtFaknAa0U",
    "name": "P.P.H.U. Fachmet s.c. Danuta i Roman Rewer",
    "category": "P.P.H.U. Fachmet s.c. Danuta i Roman Rewer",
    "formatted_address": "4,8(11)",
    "phone_number": "+48504124599",
    "source_url": "https://www.google.com/maps/place/P.P.H.U.+Fachmet+s.c.+Danuta+i+Roman+Rewer/data=!4m7!3m6!1s0x47100ad375c11141:0x456bc0496a451bfb!8m2!3d51.2806272!4d17.90568!16s%2Fg%2F1tggs7m2!19sChIJQRHBddMKEEcR-xtFaknAa0U?authuser=0&hl=tr&rclk=1",
    "website_url": "",
    "rating_text": "4,8",
    "stars": null,
    "number_of_reviews": null,
    "price_level": "",
    "open_hours": "",
    "extraction_timestamp": "2025-06-07T17:16:07.028Z",
    "source_name": "google",
    "source_query": "Irrigation Equipment",
    "source_country": "PL",
    "country": "Poland",
    "state": "Greater Poland Voivodeship",
    "city": "Powiat kępiński"
  },
  {
    "source_id": "ChIJK2GjZAe3GkcRtYCUwk9ASmE",
    "name": "Grofi - Systemy nawadniania do domu i ogrodu",
    "category": "Grofi - Systemy nawadniania do domu i ogrodu",
    "formatted_address": "4,8(16)",
    "phone_number": "+48575716244",
    "source_url": "https://www.google.com/maps/place/Grofi+-+Systemy+nawadniania+do+domu+i+ogrodu/data=!4m7!3m6!1s0x471ab70764a3612b:0x614a404fc29480b5!8m2!3d51.612066!4d17.8638006!16s%2Fg%2F11y5_4bbdm!19sChIJK2GjZAe3GkcRtYCUwk9ASmE?authuser=0&hl=tr&rclk=1",
    "website_url": "",
    "rating_text": "4,8",
    "stars": null,
    "number_of_reviews": null,
    "price_level": "",
    "open_hours": "",
    "extraction_timestamp": "2025-06-07T17:16:07.029Z",
    "source_name": "google",
    "source_query": "Irrigation Equipment",
    "source_country": "PL",
    "country": "Poland",
    "state": "Greater Poland Voivodeship",
    "city": "Powiat kępiński"
  },
  {
    "source_id": "ChIJ53MmRskKEEcR_mdK0bSeYTQ",
    "name": "bre! bre! Galeria Alkoholi",
    "category": "bre! bre! Galeria Alkoholi",
    "formatted_address": "4,9(127)",
    "phone_number": "+48507461789",
    "source_url": "https://www.google.com/maps/place/bre!+bre!+Galeria+Alkoholi/data=!4m7!3m6!1s0x47100ac9462673e7:0x34619eb4d14a67fe!8m2!3d51.2776299!4d17.9918589!16s%2Fg%2F11cjj_9wtv!19sChIJ53MmRskKEEcR_mdK0bSeYTQ?authuser=0&hl=tr&rclk=1",
    "website_url": "",
    "rating_text": "4,9",
    "stars": null,
    "number_of_reviews": null,
    "price_level": "",
    "open_hours": "",
    "extraction_timestamp": "2025-06-07T17:16:07.030Z",
    "source_name": "google",
    "source_query": "Irrigation Equipment",
    "source_country": "PL",
    "country": "Poland",
    "state": "Greater Poland Voivodeship",
    "city": "Powiat kępiński"
  },
  {
    "source_id": "ChIJBUjM7LLIfSQRhmYThqi2KDU",
    "name": "INSTALACJE Tomasz Jański",
    "category": "INSTALACJE Tomasz Jański",
    "formatted_address": "",
    "phone_number": "+48602263501",
    "source_url": "https://www.google.com/maps/place/INSTALACJE+Tomasz+Ja%C5%84ski/data=!4m7!3m6!1s0x247dc8b2eccc4805:0x3528b6a886136686!8m2!3d51.2854726!4d17.9868357!16s%2Fg%2F11xcnnx82g!19sChIJBUjM7LLIfSQRhmYThqi2KDU?authuser=0&hl=tr&rclk=1",
    "website_url": "",
    "rating_text": "",
    "stars": null,
    "number_of_reviews": null,
    "price_level": "",
    "open_hours": "",
    "extraction_timestamp": "2025-06-07T17:16:07.031Z",
    "source_name": "google",
    "source_query": "Irrigation Equipment",
    "source_country": "PL",
    "country": "Poland",
    "state": "Greater Poland Voivodeship",
    "city": "Powiat kępiński"
  },
  {
    "source_id": "ChIJE-QyOLsKEEcRZ6tgm72YMCg",
    "name": "Włókno Poliestrowe Sili Kępno",
    "category": "Włókno Poliestrowe Sili Kępno",
    "formatted_address": "4,8(12)",
    "phone_number": "+48627812990",
    "source_url": "https://www.google.com/maps/place/W%C5%82%C3%B3kno+Poliestrowe+Sili+K%C4%99pno/data=!4m7!3m6!1s0x47100abb3832e413:0x283098bd9b60ab67!8m2!3d51.2931619!4d17.8498431!16s%2Fg%2F1w3w1sh7!19sChIJE-QyOLsKEEcRZ6tgm72YMCg?authuser=0&hl=tr&rclk=1",
    "website_url": "",
    "rating_text": "4,8",
    "stars": null,
    "number_of_reviews": null,
    "price_level": "",
    "open_hours": "",
    "extraction_timestamp": "2025-06-07T17:16:07.032Z",
    "source_name": "google",
    "source_query": "Irrigation Equipment",
    "source_country": "PL",
    "country": "Poland",
    "state": "Greater Poland Voivodeship",
    "city": "Powiat kępiński"
  },
  {
    "source_id": "ChIJueTn486DGkcRg_PqDRfBz-w",
    "name": "Hydro-Plus Usługi Hydrauliczne",
    "category": "Hydro-Plus Usługi Hydrauliczne",
    "formatted_address": "5,0(34)",
    "phone_number": "+48722110897",
    "source_url": "https://www.google.com/maps/place/Hydro-Plus+Us%C5%82ugi+Hydrauliczne/data=!4m7!3m6!1s0x471a83cee3e7e4b9:0xeccfc1170deaf383!8m2!3d51.2620526!4d18.3212877!16s%2Fg%2F11q4m5kmb0!19sChIJueTn486DGkcRg_PqDRfBz-w?authuser=0&hl=tr&rclk=1",
    "website_url": "",
    "rating_text": "5,0",
    "stars": null,
    "number_of_reviews": null,
    "price_level": "",
    "open_hours": "",
    "extraction_timestamp": "2025-06-07T17:16:07.033Z",
    "source_name": "google",
    "source_query": "Irrigation Equipment",
    "source_country": "PL",
    "country": "Poland",
    "state": "Greater Poland Voivodeship",
    "city": "Powiat kępiński"
  },
  {
    "source_id": "ChIJiYSXNQB1EEcR9diSZwu6ZGA",
    "name": "HYDRO-MONT DARIUSZ WOŹNY",
    "category": "HYDRO-MONT DARIUSZ WOŹNY",
    "formatted_address": "5,0(1)",
    "phone_number": "+48883434966",
    "source_url": "https://www.google.com/maps/place/HYDRO-MONT+DARIUSZ+WO%C5%B9NY/data=!4m7!3m6!1s0x4710750035978489:0x6064ba0b6792d8f5!8m2!3d51.2623844!4d18.0261855!16s%2Fg%2F11ybvjl72h!19sChIJiYSXNQB1EEcR9diSZwu6ZGA?authuser=0&hl=tr&rclk=1",
    "website_url": "",
    "rating_text": "5,0",
    "stars": null,
    "number_of_reviews": null,
    "price_level": "",
    "open_hours": "",
    "extraction_timestamp": "2025-06-07T17:16:07.033Z",
    "source_name": "google",
    "source_query": "Irrigation Equipment",
    "source_country": "PL",
    "country": "Poland",
    "state": "Greater Poland Voivodeship",
    "city": "Powiat kępiński"
  }
]
