[
  {
    "source_id": "ChIJ9TilOCw-G0cRiu9zyMaVcnI",
    "name": "Instalkran. Art. instalacyjne, ceramika łazienkowa, wod. - kan.",
    "category": "Instalkran. Art. instalacyjne, ceramika łazienkowa, wod. - kan.",
    "formatted_address": "Instalkran. Art. instalacyjne, ceramika łazienkowa, wod. - kan.",
    "phone_number": "+48632610442",
    "source_url": "https://www.google.com/maps/place/Instalkran.+Art.+instalacyjne,+ceramika+%C5%82azienkowa,+wod.+-+kan./data=!4m7!3m6!1s0x471b3e2c38a538f5:0x727295c6c873ef8a!8m2!3d52.208267!4d18.620523!16s%2Fg%2F1tgllnd0!19sChIJ9TilOCw-G0cRiu9zyMaVcnI?authuser=0&hl=tr&rclk=1",
    "website_url": "",
    "rating_text": "4,7",
    "stars": null,
    "number_of_reviews": null,
    "price_level": "",
    "open_hours": "",
    "extraction_timestamp": "2025-06-07T17:23:44.436Z",
    "source_name": "google",
    "source_query": "Irrigation Equipment",
    "source_country": "PL",
    "country": "Poland",
    "state": "Greater Poland Voivodeship",
    "city": "Powiat kolski"
  },
  {
    "source_id": "ChIJ5fJHp94VG0cRKWeqwhC83xY",
    "name": "SPAWMEX Gazy Techniczne",
    "category": "SPAWMEX Gazy Techniczne",
    "formatted_address": "4,9(11)",
    "phone_number": "+48502176441",
    "source_url": "https://www.google.com/maps/place/SPAWMEX+Gazy+Techniczne/data=!4m7!3m6!1s0x471b15dea747f2e5:0x16dfbc10c2aa6729!8m2!3d52.2019505!4d18.6404062!16s%2Fg%2F11gsn3qx1p!19sChIJ5fJHp94VG0cRKWeqwhC83xY?authuser=0&hl=tr&rclk=1",
    "website_url": "",
    "rating_text": "4,9",
    "stars": null,
    "number_of_reviews": null,
    "price_level": "",
    "open_hours": "",
    "extraction_timestamp": "2025-06-07T17:23:44.437Z",
    "source_name": "google",
    "source_query": "Irrigation Equipment",
    "source_country": "PL",
    "country": "Poland",
    "state": "Greater Poland Voivodeship",
    "city": "Powiat kolski"
  },
  {
    "source_id": "ChIJkXCP2ZoVG0cRF9kpnBgj_RU",
    "name": "Hydra-Grupa SBS",
    "category": "Hydra-Grupa SBS",
    "formatted_address": "4,7(101)",
    "phone_number": "+48632610029",
    "source_url": "https://www.google.com/maps/place/Hydra-Grupa+SBS/data=!4m7!3m6!1s0x471b159ad98f7091:0x15fd23189c29d917!8m2!3d52.1998033!4d18.6448023!16s%2Fg%2F1td9tw0r!19sChIJkXCP2ZoVG0cRF9kpnBgj_RU?authuser=0&hl=tr&rclk=1",
    "website_url": "http://www.hydra.com.pl/",
    "rating_text": "4,7",
    "stars": null,
    "number_of_reviews": null,
    "price_level": "",
    "open_hours": "",
    "extraction_timestamp": "2025-06-07T17:23:44.438Z",
    "source_name": "google",
    "source_query": "Irrigation Equipment",
    "source_country": "PL",
    "country": "Poland",
    "state": "Greater Poland Voivodeship",
    "city": "Powiat kolski"
  },
  {
    "source_id": "ChIJVa9ifSw-G0cRSGmKIa0a4xM",
    "name": "GEO Trade Poland Sp. z o.o. Sp.k",
    "category": "GEO Trade Poland Sp. z o.o. Sp.k",
    "formatted_address": "4,4(10)",
    "phone_number": "+48632162002",
    "source_url": "https://www.google.com/maps/place/GEO+Trade+Poland+Sp.+z+o.o.+Sp.k/data=!4m7!3m6!1s0x471b3e2c7d62af55:0x13e31aad218a6948!8m2!3d52.209319!4d18.622915!16s%2Fg%2F11clw4q2hs!19sChIJVa9ifSw-G0cRSGmKIa0a4xM?authuser=0&hl=tr&rclk=1",
    "website_url": "http://prs-poland.com.pl/",
    "rating_text": "4,4",
    "stars": null,
    "number_of_reviews": null,
    "price_level": "",
    "open_hours": "",
    "extraction_timestamp": "2025-06-07T17:23:44.439Z",
    "source_name": "google",
    "source_query": "Irrigation Equipment",
    "source_country": "PL",
    "country": "Poland",
    "state": "Greater Poland Voivodeship",
    "city": "Powiat kolski"
  },
  {
    "source_id": "ChIJ6ZNLC_EVG0cRuMc0OE6i4xo",
    "name": "GEOTERMA",
    "category": "GEOTERMA",
    "formatted_address": "5,0(4)",
    "phone_number": "+48510899238",
    "source_url": "https://www.google.com/maps/place/GEOTERMA/data=!4m7!3m6!1s0x471b15f10b4b93e9:0x1ae3a24e3834c7b8!8m2!3d52.1844768!4d18.6077805!16s%2Fg%2F11gh_wmm7r!19sChIJ6ZNLC_EVG0cRuMc0OE6i4xo?authuser=0&hl=tr&rclk=1",
    "website_url": "http://geo-terma.pl/",
    "rating_text": "5,0",
    "stars": null,
    "number_of_reviews": null,
    "price_level": "",
    "open_hours": "",
    "extraction_timestamp": "2025-06-07T17:23:44.440Z",
    "source_name": "google",
    "source_query": "Irrigation Equipment",
    "source_country": "PL",
    "country": "Poland",
    "state": "Greater Poland Voivodeship",
    "city": "Powiat kolski"
  },
  {
    "source_id": "ChIJ-1I6b51tG0cRGMqtjgPcPa4",
    "name": "Hydra, Centrum Grzewcze I Sanitarne",
    "category": "Hydra, Centrum Grzewcze I Sanitarne",
    "formatted_address": "Hydra, Centrum Grzewcze I Sanitarne",
    "phone_number": "+48696010268",
    "source_url": "https://www.google.com/maps/place/Hydra,+Centrum+Grzewcze+I+Sanitarne/data=!4m7!3m6!1s0x471b6d9d6f3a52fb:0xae3ddc038eadca18!8m2!3d52.2532793!4d18.9125843!16s%2Fg%2F11c4bdkvnb!19sChIJ-1I6b51tG0cRGMqtjgPcPa4?authuser=0&hl=tr&rclk=1",
    "website_url": "http://www.hydra.com.pl/index.php?page=6&region=6",
    "rating_text": "4,1",
    "stars": null,
    "number_of_reviews": null,
    "price_level": "",
    "open_hours": "",
    "extraction_timestamp": "2025-06-07T17:23:44.441Z",
    "source_name": "google",
    "source_query": "Irrigation Equipment",
    "source_country": "PL",
    "country": "Poland",
    "state": "Greater Poland Voivodeship",
    "city": "Powiat kolski"
  },
  {
    "source_id": "ChIJ5SgaeCYVG0cRt-EX6kuy0vU",
    "name": "Zakład usługowy WOD-KAN i C.O Tomasik Piotr",
    "category": "Zakład usługowy WOD-KAN i C.O Tomasik Piotr",
    "formatted_address": "5,0(16)",
    "phone_number": "+48504122913",
    "source_url": "https://www.google.com/maps/place/Zak%C5%82ad+us%C5%82ugowy+WOD-KAN+i+C.O+Tomasik+Piotr/data=!4m7!3m6!1s0x471b1526781a28e5:0xf5d2b24bea17e1b7!8m2!3d52.1963389!4d18.6440876!16s%2Fg%2F11pznzvlgs!19sChIJ5SgaeCYVG0cRt-EX6kuy0vU?authuser=0&hl=tr&rclk=1",
    "website_url": "",
    "rating_text": "5,0",
    "stars": null,
    "number_of_reviews": null,
    "price_level": "",
    "open_hours": "",
    "extraction_timestamp": "2025-06-07T17:23:44.442Z",
    "source_name": "google",
    "source_query": "Irrigation Equipment",
    "source_country": "PL",
    "country": "Poland",
    "state": "Greater Poland Voivodeship",
    "city": "Powiat kolski"
  },
  {
    "source_id": "ChIJO31XhoQVG0cRV7QE1VP9qZ8",
    "name": "Urbański Zbigniew - Hydraulik",
    "category": "Urbański Zbigniew - Hydraulik",
    "formatted_address": "4,8(6)",
    "phone_number": "+48502669053",
    "source_url": "https://www.google.com/maps/place/Urba%C5%84ski+Zbigniew+-+Hydraulik/data=!4m7!3m6!1s0x471b158486577d3b:0x9fa9fd53d504b457!8m2!3d52.203079!4d18.640873!16s%2Fg%2F1tfcxk7z!19sChIJO31XhoQVG0cRV7QE1VP9qZ8?authuser=0&hl=tr&rclk=1",
    "website_url": "https://www.lm.pl/firma/29/851/urbanski_zbigniew_urbanski_zbigniew_hydraulik",
    "rating_text": "4,8",
    "stars": null,
    "number_of_reviews": null,
    "price_level": "",
    "open_hours": "",
    "extraction_timestamp": "2025-06-07T17:23:44.443Z",
    "source_name": "google",
    "source_query": "Irrigation Equipment",
    "source_country": "PL",
    "country": "Poland",
    "state": "Greater Poland Voivodeship",
    "city": "Powiat kolski"
  },
  {
    "source_id": "ChIJ2_Q_yqFNXi4R2pMZG5zvgJg",
    "name": "fhu hydro-mil",
    "category": "fhu hydro-mil",
    "formatted_address": "1,0(1)",
    "phone_number": "",
    "source_url": "https://www.google.com/maps/place/fhu+hydro-mil/data=!4m7!3m6!1s0x2e5e4da1ca3ff4db:0x9880ef9c1b1993da!8m2!3d52.1983783!4d18.6357451!16s%2Fg%2F11y625zrv4!19sChIJ2_Q_yqFNXi4R2pMZG5zvgJg?authuser=0&hl=tr&rclk=1",
    "website_url": "",
    "rating_text": "1,0",
    "stars": null,
    "number_of_reviews": null,
    "price_level": "",
    "open_hours": "",
    "extraction_timestamp": "2025-06-07T17:23:44.444Z",
    "source_name": "google",
    "source_query": "Irrigation Equipment",
    "source_country": "PL",
    "country": "Poland",
    "state": "Greater Poland Voivodeship",
    "city": "Powiat kolski"
  },
  {
    "source_id": "ChIJB6y_v5J2HEcRlDfYx3xmc9M",
    "name": "Milex irrigation systems",
    "category": "Milex irrigation systems",
    "formatted_address": "4,6(37)",
    "phone_number": "+48242775222",
    "source_url": "https://www.google.com/maps/place/Milex+irrigation+systems/data=!4m7!3m6!1s0x471c7692bfbfac07:0xd373667cc7d83794!8m2!3d52.4690634!4d19.7520904!16s%2Fg%2F1w2yy67r!19sChIJB6y_v5J2HEcRlDfYx3xmc9M?authuser=0&hl=tr&rclk=1",
    "website_url": "https://www.milex.pl/",
    "rating_text": "4,6",
    "stars": null,
    "number_of_reviews": null,
    "price_level": "",
    "open_hours": "",
    "extraction_timestamp": "2025-06-07T17:23:44.445Z",
    "source_name": "google",
    "source_query": "Irrigation Equipment",
    "source_country": "PL",
    "country": "Poland",
    "state": "Greater Poland Voivodeship",
    "city": "Powiat kolski"
  },
  {
    "source_id": "ChIJrw4giiAVG0cR3ScoSSAROC0",
    "name": "GREEN TREE Marcin Jaskólski usługi ogrodnicze",
    "category": "GREEN TREE Marcin Jaskólski usługi ogrodnicze",
    "formatted_address": "4,7(12)",
    "phone_number": "+48693149971",
    "source_url": "https://www.google.com/maps/place/GREEN+TREE+Marcin+Jask%C3%B3lski+us%C5%82ugi+ogrodnicze/data=!4m7!3m6!1s0x471b15208a200eaf:0x2d381120492827dd!8m2!3d52.2032166!4d18.6420692!16s%2Fg%2F11h_9j1gm4!19sChIJrw4giiAVG0cR3ScoSSAROC0?authuser=0&hl=tr&rclk=1",
    "website_url": "",
    "rating_text": "4,7",
    "stars": null,
    "number_of_reviews": null,
    "price_level": "",
    "open_hours": "",
    "extraction_timestamp": "2025-06-07T17:23:44.446Z",
    "source_name": "google",
    "source_query": "Irrigation Equipment",
    "source_country": "PL",
    "country": "Poland",
    "state": "Greater Poland Voivodeship",
    "city": "Powiat kolski"
  },
  {
    "source_id": "ChIJm0Fy5-wVG0cRXnSMsvAg_JE",
    "name": "Idrante - usługi przeciwpożarowe",
    "category": "Idrante - usługi przeciwpożarowe",
    "formatted_address": "5,0(2)",
    "phone_number": "+48509365685",
    "source_url": "https://www.google.com/maps/place/Idrante+-+us%C5%82ugi+przeciwpo%C5%BCarowe/data=!4m7!3m6!1s0x471b15ece772419b:0x91fc20f0b28c745e!8m2!3d52.2001098!4d18.645056!16s%2Fg%2F11ybw5rrt3!19sChIJm0Fy5-wVG0cRXnSMsvAg_JE?authuser=0&hl=tr&rclk=1",
    "website_url": "http://idrante.pl/",
    "rating_text": "5,0",
    "stars": null,
    "number_of_reviews": null,
    "price_level": "",
    "open_hours": "",
    "extraction_timestamp": "2025-06-07T17:23:44.446Z",
    "source_name": "google",
    "source_query": "Irrigation Equipment",
    "source_country": "PL",
    "country": "Poland",
    "state": "Greater Poland Voivodeship",
    "city": "Powiat kolski"
  },
  {
    "source_id": "ChIJn-x5r7ppG0cRq7XCQw7DMvo",
    "name": "Michał Kwiatkowski Instalacje Grzewcze i Wodno-kanalizacyjne hydraulik Izbica Kujawska",
    "category": "Michał Kwiatkowski Instalacje Grzewcze i Wodno-kanalizacyjne hydraulik Izbica Kujawska",
    "formatted_address": "5,0(25)",
    "phone_number": "+48573453288",
    "source_url": "https://www.google.com/maps/place/Micha%C5%82+Kwiatkowski+Instalacje+Grzewcze+i+Wodno-kanalizacyjne+hydraulik+Izbica+Kujawska/data=!4m7!3m6!1s0x471b69baaf79ec9f:0xfa32c30e43c2b5ab!8m2!3d52.3827203!4d18.7764671!16s%2Fg%2F11tmf_ly74!19sChIJn-x5r7ppG0cRq7XCQw7DMvo?authuser=0&hl=tr&rclk=1",
    "website_url": "",
    "rating_text": "5,0",
    "stars": null,
    "number_of_reviews": null,
    "price_level": "",
    "open_hours": "",
    "extraction_timestamp": "2025-06-07T17:23:44.447Z",
    "source_name": "google",
    "source_query": "Irrigation Equipment",
    "source_country": "PL",
    "country": "Poland",
    "state": "Greater Poland Voivodeship",
    "city": "Powiat kolski"
  },
  {
    "source_id": "ChIJGZOsiVpdG0cR0EXHNmE7rUM",
    "name": "Instalacje Grzewcze I Sanitarne",
    "category": "Instalacje Grzewcze I Sanitarne",
    "formatted_address": "4,5(19)",
    "phone_number": "+48661454973",
    "source_url": "https://www.google.com/maps/place/Instalacje+Grzewcze+I+Sanitarne/data=!4m7!3m6!1s0x471b5d5a89ac9319:0x43ad3b6136c745d0!8m2!3d52.420303!4d18.7670221!16s%2Fg%2F1ttp9164!19sChIJGZOsiVpdG0cR0EXHNmE7rUM?authuser=0&hl=tr&rclk=1",
    "website_url": "",
    "rating_text": "4,5",
    "stars": null,
    "number_of_reviews": null,
    "price_level": "",
    "open_hours": "",
    "extraction_timestamp": "2025-06-07T17:23:44.448Z",
    "source_name": "google",
    "source_query": "Irrigation Equipment",
    "source_country": "PL",
    "country": "Poland",
    "state": "Greater Poland Voivodeship",
    "city": "Powiat kolski"
  },
  {
    "source_id": "ChIJhzIPFJMVG0cRjsaKWiDhhTw",
    "name": "Action Koło",
    "category": "Action Koło",
    "formatted_address": "4,5(325)",
    "phone_number": "+48326305898",
    "source_url": "https://www.google.com/maps/place/Action+Ko%C5%82o/data=!4m7!3m6!1s0x471b1593140f3287:0x3c85e1205a8ac68e!8m2!3d52.1989352!4d18.6366035!16s%2Fg%2F11jm9cx39d!19sChIJhzIPFJMVG0cRjsaKWiDhhTw?authuser=0&hl=tr&rclk=1",
    "website_url": "https://www.action.com/pl-pl/sklepy/koo/?utm_campaign=localbusiness&utm_source=google&utm_medium=organic&utm_content=A115",
    "rating_text": "4,5",
    "stars": null,
    "number_of_reviews": null,
    "price_level": "",
    "open_hours": "",
    "extraction_timestamp": "2025-06-07T17:23:44.449Z",
    "source_name": "google",
    "source_query": "Irrigation Equipment",
    "source_country": "PL",
    "country": "Poland",
    "state": "Greater Poland Voivodeship",
    "city": "Powiat kolski"
  },
  {
    "source_id": "ChIJdb1jAq9FG0cRq36RuslXCwQ",
    "name": "Hurtownia Hydrauliczna Angelika Andrzejewska",
    "category": "Hurtownia Hydrauliczna Angelika Andrzejewska",
    "formatted_address": "",
    "phone_number": "+48727181432",
    "source_url": "https://www.google.com/maps/place/Hurtownia+Hydrauliczna+Angelika+Andrzejewska/data=!4m7!3m6!1s0x471b45af0263bd75:0x40b57c9ba917eab!8m2!3d52.3873292!4d18.5042911!16s%2Fg%2F11xdwz417z!19sChIJdb1jAq9FG0cRq36RuslXCwQ?authuser=0&hl=tr&rclk=1",
    "website_url": "",
    "rating_text": "",
    "stars": null,
    "number_of_reviews": null,
    "price_level": "",
    "open_hours": "",
    "extraction_timestamp": "2025-06-07T17:23:44.450Z",
    "source_name": "google",
    "source_query": "Irrigation Equipment",
    "source_country": "PL",
    "country": "Poland",
    "state": "Greater Poland Voivodeship",
    "city": "Powiat kolski"
  },
  {
    "source_id": "ChIJo1lvJtUXG0cRU-ZXHt-nZwA",
    "name": "Insbar. Bartłomiejczak J.",
    "category": "Insbar. Bartłomiejczak J.",
    "formatted_address": "4,5(8)",
    "phone_number": "+48600503189",
    "source_url": "https://www.google.com/maps/place/Insbar.+Bart%C5%82omiejczak+J./data=!4m7!3m6!1s0x471b17d5266f59a3:0x67a7df1e57e653!8m2!3d52.1435051!4d18.6711819!16s%2Fg%2F11rb3n3jbh!19sChIJo1lvJtUXG0cRU-ZXHt-nZwA?authuser=0&hl=tr&rclk=1",
    "website_url": "",
    "rating_text": "4,5",
    "stars": null,
    "number_of_reviews": null,
    "price_level": "",
    "open_hours": "",
    "extraction_timestamp": "2025-06-07T17:23:44.450Z",
    "source_name": "google",
    "source_query": "Irrigation Equipment",
    "source_country": "PL",
    "country": "Poland",
    "state": "Greater Poland Voivodeship",
    "city": "Powiat kolski"
  },
  {
    "source_id": "ChIJ7yGzrA11G0cR6tIEq_ush4s",
    "name": "Przedsiębiorstwo usługowe Rafał Matusiak Hydraulik",
    "category": "Przedsiębiorstwo usługowe Rafał Matusiak Hydraulik",
    "formatted_address": "5,0(6)",
    "phone_number": "+48724130010",
    "source_url": "https://www.google.com/maps/place/Przedsi%C4%99biorstwo+us%C5%82ugowe+Rafa%C5%82+Matusiak+Hydraulik/data=!4m7!3m6!1s0x471b750dacb321ef:0x8b87acfbab04d2ea!8m2!3d52.2270513!4d19.1473963!16s%2Fg%2F11fr78slw8!19sChIJ7yGzrA11G0cR6tIEq_ush4s?authuser=0&hl=tr&rclk=1",
    "website_url": "",
    "rating_text": "5,0",
    "stars": null,
    "number_of_reviews": null,
    "price_level": "",
    "open_hours": "",
    "extraction_timestamp": "2025-06-07T17:23:44.451Z",
    "source_name": "google",
    "source_query": "Irrigation Equipment",
    "source_country": "PL",
    "country": "Poland",
    "state": "Greater Poland Voivodeship",
    "city": "Powiat kolski"
  },
  {
    "source_id": "ChIJ33A2_5kVG0cRRw68kKCe8w4",
    "name": "Shop Marcin Kotleszka",
    "category": "Shop Marcin Kotleszka",
    "formatted_address": "4,5(122)",
    "phone_number": "+48606911968",
    "source_url": "https://www.google.com/maps/place/Shop+Marcin+Kotleszka/data=!4m7!3m6!1s0x471b1599ff3670df:0xef39ea090bc0e47!8m2!3d52.1970678!4d18.6491546!16s%2Fg%2F1w_vm089!19sChIJ33A2_5kVG0cRRw68kKCe8w4?authuser=0&hl=tr&rclk=1",
    "website_url": "https://m.facebook.com/sklepikotleszka/",
    "rating_text": "4,5",
    "stars": null,
    "number_of_reviews": null,
    "price_level": "",
    "open_hours": "",
    "extraction_timestamp": "2025-06-07T17:23:44.452Z",
    "source_name": "google",
    "source_query": "Irrigation Equipment",
    "source_country": "PL",
    "country": "Poland",
    "state": "Greater Poland Voivodeship",
    "city": "Powiat kolski"
  },
  {
    "source_id": "ChIJfR33JJ0VG0cR2rWwru_4PYY",
    "name": "General store",
    "category": "General store",
    "formatted_address": "4,4(25)",
    "phone_number": "",
    "source_url": "https://www.google.com/maps/place/General+store/data=!4m7!3m6!1s0x471b159d24f71d7d:0x863df8efaeb0b5da!8m2!3d52.2057279!4d18.6479723!16s%2Fg%2F11cltb1fk7!19sChIJfR33JJ0VG0cR2rWwru_4PYY?authuser=0&hl=tr&rclk=1",
    "website_url": "",
    "rating_text": "4,4",
    "stars": null,
    "number_of_reviews": null,
    "price_level": "",
    "open_hours": "",
    "extraction_timestamp": "2025-06-07T17:23:44.453Z",
    "source_name": "google",
    "source_query": "Irrigation Equipment",
    "source_country": "PL",
    "country": "Poland",
    "state": "Greater Poland Voivodeship",
    "city": "Powiat kolski"
  },
  {
    "source_id": "ChIJKcAVubN3G0cRXQ0mL10BsaQ",
    "name": "Hydrogaz",
    "category": "Hydrogaz",
    "formatted_address": "4,5(28)",
    "phone_number": "+48695686527",
    "source_url": "https://www.google.com/maps/place/Hydrogaz/data=!4m7!3m6!1s0x471b77b3b915c029:0xa4b1015d2f260d5d!8m2!3d52.3035558!4d19.1922441!16s%2Fg%2F1txy11_p!19sChIJKcAVubN3G0cRXQ0mL10BsaQ?authuser=0&hl=tr&rclk=1",
    "website_url": "http://hydrogaz-kutno.pl/",
    "rating_text": "4,5",
    "stars": null,
    "number_of_reviews": null,
    "price_level": "",
    "open_hours": "",
    "extraction_timestamp": "2025-06-07T17:23:44.454Z",
    "source_name": "google",
    "source_query": "Irrigation Equipment",
    "source_country": "PL",
    "country": "Poland",
    "state": "Greater Poland Voivodeship",
    "city": "Powiat kolski"
  },
  {
    "source_id": "ChIJwcvZK48xG0cRsX6N4Rv2gTI",
    "name": "aleno.pl",
    "category": "aleno.pl",
    "formatted_address": "5,0(65)",
    "phone_number": "+48632441077",
    "source_url": "https://www.google.com/maps/place/aleno.pl/data=!4m7!3m6!1s0x471b318f2bd9cbc1:0x3281f61be18d7eb1!8m2!3d52.2081521!4d18.2572266!16s%2Fg%2F11wq7lm7q0!19sChIJwcvZK48xG0cRsX6N4Rv2gTI?authuser=0&hl=tr&rclk=1",
    "website_url": "https://www.aleno.pl/",
    "rating_text": "5,0",
    "stars": null,
    "number_of_reviews": null,
    "price_level": "",
    "open_hours": "",
    "extraction_timestamp": "2025-06-07T17:23:44.454Z",
    "source_name": "google",
    "source_query": "Irrigation Equipment",
    "source_country": "PL",
    "country": "Poland",
    "state": "Greater Poland Voivodeship",
    "city": "Powiat kolski"
  },
  {
    "source_id": "ChIJ2SyVEg5EAk4R9VHFtc3U9FY",
    "name": "Usługi ogrodnicze - Jankowski",
    "category": "Usługi ogrodnicze - Jankowski",
    "formatted_address": "5,0(31)",
    "phone_number": "+48790439585",
    "source_url": "https://www.google.com/maps/place/Us%C5%82ugi+ogrodnicze+-+Jankowski/data=!4m7!3m6!1s0x4e02440e12952cd9:0x56f4d4cdb5c551f5!8m2!3d52.375107!4d18.3034218!16s%2Fg%2F11shp28ps_!19sChIJ2SyVEg5EAk4R9VHFtc3U9FY?authuser=0&hl=tr&rclk=1",
    "website_url": "http://ogrody-jankowski.pl/",
    "rating_text": "5,0",
    "stars": null,
    "number_of_reviews": null,
    "price_level": "",
    "open_hours": "",
    "extraction_timestamp": "2025-06-07T17:23:44.455Z",
    "source_name": "google",
    "source_query": "Irrigation Equipment",
    "source_country": "PL",
    "country": "Poland",
    "state": "Greater Poland Voivodeship",
    "city": "Powiat kolski"
  },
  {
    "source_id": "ChIJqS6R56ulG0cRrHUgQxnSvho",
    "name": "Seban",
    "category": "Seban",
    "formatted_address": "5,0(24)",
    "phone_number": "+48533933965",
    "source_url": "https://www.google.com/maps/place/Seban/data=!4m7!3m6!1s0x471ba5abe7912ea9:0x1abed219432075ac!8m2!3d52.0610873!4d19.2034982!16s%2Fg%2F11f6mhh2ys!19sChIJqS6R56ulG0cRrHUgQxnSvho?authuser=0&hl=tr&rclk=1",
    "website_url": "http://sebanleczyca.pl/",
    "rating_text": "5,0",
    "stars": null,
    "number_of_reviews": null,
    "price_level": "",
    "open_hours": "",
    "extraction_timestamp": "2025-06-07T17:23:44.456Z",
    "source_name": "google",
    "source_query": "Irrigation Equipment",
    "source_country": "PL",
    "country": "Poland",
    "state": "Greater Poland Voivodeship",
    "city": "Powiat kolski"
  },
  {
    "source_id": "ChIJ7YMygoWbG0cR0ddL19G-oZc",
    "name": "Hydra-Grupa SBS oddział Kutno",
    "category": "Hydra-Grupa SBS oddział Kutno",
    "formatted_address": "5,0(5)",
    "phone_number": "+48795581754",
    "source_url": "https://www.google.com/maps/place/Hydra-Grupa+SBS+oddzia%C5%82+Kutno/data=!4m7!3m6!1s0x471b9b85823283ed:0x97a1bed1d74bd7d1!8m2!3d52.2326267!4d19.3483018!16s%2Fg%2F11jvgt7682!19sChIJ7YMygoWbG0cR0ddL19G-oZc?authuser=0&hl=tr&rclk=1",
    "website_url": "http://www.hydra.com.pl/",
    "rating_text": "5,0",
    "stars": null,
    "number_of_reviews": null,
    "price_level": "",
    "open_hours": "",
    "extraction_timestamp": "2025-06-07T17:23:44.457Z",
    "source_name": "google",
    "source_query": "Irrigation Equipment",
    "source_country": "PL",
    "country": "Poland",
    "state": "Greater Poland Voivodeship",
    "city": "Powiat kolski"
  },
  {
    "source_id": "ChIJC6VMRtKAG0cRZ8qX-VxlLBY",
    "name": "Hydrosan. Augustyniak T.",
    "category": "Hydrosan. Augustyniak T.",
    "formatted_address": "5,0(22)",
    "phone_number": "+48242353142",
    "source_url": "https://www.google.com/maps/place/Hydrosan.+Augustyniak+T./data=!4m7!3m6!1s0x471b80d2464ca50b:0x162c655cf997ca67!8m2!3d52.4347068!4d19.4642292!16s%2Fg%2F1thvrfq4!19sChIJC6VMRtKAG0cRZ8qX-VxlLBY?authuser=0&hl=tr&rclk=1",
    "website_url": "",
    "rating_text": "5,0",
    "stars": null,
    "number_of_reviews": null,
    "price_level": "",
    "open_hours": "",
    "extraction_timestamp": "2025-06-07T17:23:44.458Z",
    "source_name": "google",
    "source_query": "Irrigation Equipment",
    "source_country": "PL",
    "country": "Poland",
    "state": "Greater Poland Voivodeship",
    "city": "Powiat kolski"
  },
  {
    "source_id": "ChIJH1FdGxqXG0cRtccxREgB1GU",
    "name": "RAF Wypożyczalnia sprzętu budowlanego i ogrodniczego",
    "category": "RAF Wypożyczalnia sprzętu budowlanego i ogrodniczego",
    "formatted_address": "5,0(3)",
    "phone_number": "+48665845969",
    "source_url": "https://www.google.com/maps/place/RAF+Wypo%C5%BCyczalnia+sprz%C4%99tu+budowlanego+i+ogrodniczego/data=!4m7!3m6!1s0x471b971a1b5d511f:0x65d401484431c7b5!8m2!3d52.139625!4d19.3949092!16s%2Fg%2F11k4nk1s3s!19sChIJH1FdGxqXG0cRtccxREgB1GU?authuser=0&hl=tr&rclk=1",
    "website_url": "https://www.raf-nowektery.com/",
    "rating_text": "5,0",
    "stars": null,
    "number_of_reviews": null,
    "price_level": "",
    "open_hours": "",
    "extraction_timestamp": "2025-06-07T17:23:44.459Z",
    "source_name": "google",
    "source_query": "Irrigation Equipment",
    "source_country": "PL",
    "country": "Poland",
    "state": "Greater Poland Voivodeship",
    "city": "Powiat kolski"
  },
  {
    "source_id": "ChIJBQJ1-BukG0cR0OfJ7LjNZ6E",
    "name": "Systemy Grzewcze - Augustowski",
    "category": "Systemy Grzewcze - Augustowski",
    "formatted_address": "4,3(19)",
    "phone_number": "+48609400087",
    "source_url": "https://www.google.com/maps/place/Systemy+Grzewcze+-+Augustowski/data=!4m7!3m6!1s0x471ba41bf8750205:0xa167cdb8ecc9e7d0!8m2!3d52.0573398!4d19.2030712!16s%2Fg%2F1wbfz4kp!19sChIJBQJ1-BukG0cR0OfJ7LjNZ6E?authuser=0&hl=tr&rclk=1",
    "website_url": "http://www.augustowski.com.pl/",
    "rating_text": "4,3",
    "stars": null,
    "number_of_reviews": null,
    "price_level": "",
    "open_hours": "",
    "extraction_timestamp": "2025-06-07T17:23:44.460Z",
    "source_name": "google",
    "source_query": "Irrigation Equipment",
    "source_country": "PL",
    "country": "Poland",
    "state": "Greater Poland Voivodeship",
    "city": "Powiat kolski"
  },
  {
    "source_id": "ChIJNQNePbhLG0cRyM7FbcUhU4Y",
    "name": "P.P.H.U. \"In Joseph\" Macyszyn Józef",
    "category": "P.P.H.U. \"In Joseph\" Macyszyn Józef",
    "formatted_address": "4,6(63)",
    "phone_number": "+48504934119",
    "source_url": "https://www.google.com/maps/place/P.P.H.U.+%22In+Joseph%22+Macyszyn+J%C3%B3zef/data=!4m7!3m6!1s0x471b4bb83d5e0335:0x865321c56dc5cec8!8m2!3d52.3636741!4d18.3009605!16s%2Fg%2F11xl66qx0!19sChIJNQNePbhLG0cRyM7FbcUhU4Y?authuser=0&hl=tr&rclk=1",
    "website_url": "https://sklepujozefa.pl/",
    "rating_text": "4,6",
    "stars": null,
    "number_of_reviews": null,
    "price_level": "",
    "open_hours": "",
    "extraction_timestamp": "2025-06-07T17:23:44.461Z",
    "source_name": "google",
    "source_query": "Irrigation Equipment",
    "source_country": "PL",
    "country": "Poland",
    "state": "Greater Poland Voivodeship",
    "city": "Powiat kolski"
  }
]
