[
  {
    "source_id": "ChIJL1UMXhyYBUcRjUiWWCMyeic",
    "name": "Leszczyńska Fabryka Pomp",
    "category": "Leszczyńska Fabryka Pomp",
    "formatted_address": "4,0(119)",
    "phone_number": "+48655288600",
    "source_url": "https://www.google.com/maps/place/Leszczy%C5%84ska+Fabryka+Pomp/data=!4m7!3m6!1s0x4705981c5e0c552f:0x277a32235896488d!8m2!3d51.857477!4d16.573305!16s%2Fg%2F11fk1sldc3!19sChIJL1UMXhyYBUcRjUiWWCMyeic?authuser=0&hl=tr&rclk=1",
    "website_url": "http://www.lfp.com.pl/",
    "rating_text": "4,0",
    "stars": null,
    "number_of_reviews": null,
    "price_level": "",
    "open_hours": "",
    "extraction_timestamp": "2025-06-07T17:13:20.136Z",
    "source_name": "google",
    "source_query": "Irrigation Equipment",
    "source_country": "PL",
    "country": "Poland",
    "state": "Greater Poland Voivodeship",
    "city": "Powiat leszczyński"
  },
  {
    "source_id": "ChIJL6MHXLKZBUcRNWViEmk63oY",
    "name": "Q-Systems",
    "category": "Q-Systems",
    "formatted_address": "4,8(20)",
    "phone_number": "+48653222094",
    "source_url": "https://www.google.com/maps/place/Q-Systems/data=!4m7!3m6!1s0x470599b25c07a32f:0x86de3a6912626535!8m2!3d51.8194693!4d16.5951658!16s%2Fg%2F11f3c0_h9s!19sChIJL6MHXLKZBUcRNWViEmk63oY?authuser=0&hl=tr&rclk=1",
    "website_url": "http://www.qsystems.pl/",
    "rating_text": "4,8",
    "stars": null,
    "number_of_reviews": null,
    "price_level": "",
    "open_hours": "",
    "extraction_timestamp": "2025-06-07T17:13:20.137Z",
    "source_name": "google",
    "source_query": "Irrigation Equipment",
    "source_country": "PL",
    "country": "Poland",
    "state": "Greater Poland Voivodeship",
    "city": "Powiat leszczyński"
  },
  {
    "source_id": "ChIJoRC9EQmYBUcR8F2Svb-Ue_E",
    "name": "Studnie głębinowe Leszno - Firma Usługowo-Produkcyjno-Handlowa Karol Płaczek",
    "category": "Studnie głębinowe Leszno - Firma Usługowo-Produkcyjno-Handlowa Karol Płaczek",
    "formatted_address": "4,8(11)",
    "phone_number": "+48692474443",
    "source_url": "https://www.google.com/maps/place/Studnie+g%C5%82%C4%99binowe+Leszno+-+Firma+Us%C5%82ugowo-Produkcyjno-Handlowa+Karol+P%C5%82aczek/data=!4m7!3m6!1s0x4705980911bd10a1:0xf17b94bfbd925df0!8m2!3d51.8649455!4d16.5933801!16s%2Fg%2F1tczj59h!19sChIJoRC9EQmYBUcR8F2Svb-Ue_E?authuser=0&hl=tr&rclk=1",
    "website_url": "https://placzek.pl/",
    "rating_text": "4,8",
    "stars": null,
    "number_of_reviews": null,
    "price_level": "",
    "open_hours": "",
    "extraction_timestamp": "2025-06-07T17:13:20.137Z",
    "source_name": "google",
    "source_query": "Irrigation Equipment",
    "source_country": "PL",
    "country": "Poland",
    "state": "Greater Poland Voivodeship",
    "city": "Powiat leszczyński"
  },
  {
    "source_id": "ChIJUdwhqgOYBUcR3jwtTyYHSx4",
    "name": "Hydro-Partner Sp. z o.o.",
    "category": "Hydro-Partner Sp. z o.o.",
    "formatted_address": "4,6(40)",
    "phone_number": "+48655252850",
    "source_url": "https://www.google.com/maps/place/Hydro-Partner+Sp.+z+o.o./data=!4m7!3m6!1s0x47059803aa21dc51:0x1e4b07264f2d3cde!8m2!3d51.8630159!4d16.5752719!16s%2Fg%2F1vgw7b90!19sChIJUdwhqgOYBUcR3jwtTyYHSx4?authuser=0&hl=tr&rclk=1",
    "website_url": "http://www.hydro-partner.pl/",
    "rating_text": "4,6",
    "stars": null,
    "number_of_reviews": null,
    "price_level": "",
    "open_hours": "",
    "extraction_timestamp": "2025-06-07T17:13:20.137Z",
    "source_name": "google",
    "source_query": "Irrigation Equipment",
    "source_country": "PL",
    "country": "Poland",
    "state": "Greater Poland Voivodeship",
    "city": "Powiat leszczyński"
  },
  {
    "source_id": "ChIJmWsVyByYBUcRhRWU_Dkehew",
    "name": "GRENE",
    "category": "GRENE",
    "formatted_address": "4,5(71)",
    "phone_number": "+48655299455",
    "source_url": "https://www.google.com/maps/place/GRENE/data=!4m7!3m6!1s0x4705981cc8156b99:0xec851e39fc941585!8m2!3d51.8485053!4d16.5691067!16s%2Fg%2F1tgn89sx!19sChIJmWsVyByYBUcRhRWU_Dkehew?authuser=0&hl=tr&rclk=1",
    "website_url": "http://www.grene.pl/",
    "rating_text": "4,5",
    "stars": null,
    "number_of_reviews": null,
    "price_level": "",
    "open_hours": "",
    "extraction_timestamp": "2025-06-07T17:13:20.137Z",
    "source_name": "google",
    "source_query": "Irrigation Equipment",
    "source_country": "PL",
    "country": "Poland",
    "state": "Greater Poland Voivodeship",
    "city": "Powiat leszczyński"
  },
  {
    "source_id": "ChIJcRApXyGYBUcRlJx0pCmAX0I",
    "name": "SYSTEM - Maszyny i urządzenia do sprzątania",
    "category": "SYSTEM - Maszyny i urządzenia do sprzątania",
    "formatted_address": "4,7(6)",
    "phone_number": "+48603603147",
    "source_url": "https://www.google.com/maps/place/SYSTEM+-+Maszyny+i+urz%C4%85dzenia+do+sprz%C4%85tania/data=!4m7!3m6!1s0x470598215f291071:0x425f8029a4749c94!8m2!3d51.836278!4d16.551681!16s%2Fg%2F12hl0f06w!19sChIJcRApXyGYBUcRlJx0pCmAX0I?authuser=0&hl=tr&rclk=1",
    "website_url": "https://system-leszno.pl/",
    "rating_text": "4,7",
    "stars": null,
    "number_of_reviews": null,
    "price_level": "",
    "open_hours": "",
    "extraction_timestamp": "2025-06-07T17:13:20.138Z",
    "source_name": "google",
    "source_query": "Irrigation Equipment",
    "source_country": "PL",
    "country": "Poland",
    "state": "Greater Poland Voivodeship",
    "city": "Powiat leszczyński"
  },
  {
    "source_id": "ChIJpwp2UICXBUcRrhIMP_gIeJI",
    "name": "POLNY LESZNO ART. KANALIZACYJNE, WODOCIĄGOWE i C.O",
    "category": "POLNY LESZNO ART. KANALIZACYJNE, WODOCIĄGOWE i C.O",
    "formatted_address": "POLNY LESZNO ART. KANALIZACYJNE, WODOCIĄGOWE i C.O",
    "phone_number": "+48655293676",
    "source_url": "https://www.google.com/maps/place/POLNY+LESZNO+ART.+KANALIZACYJNE,+WODOCI%C4%84GOWE+i+C.O/data=!4m7!3m6!1s0x4705978050760aa7:0x927808f83f0c12ae!8m2!3d51.8334133!4d16.5495581!16s%2Fg%2F1ptwj190q!19sChIJpwp2UICXBUcRrhIMP_gIeJI?authuser=0&hl=tr&rclk=1",
    "website_url": "http://polny.kmm.pl/index.php?option=com_content&view=article&id=5&Itemid=12&showall=1",
    "rating_text": "4,6",
    "stars": null,
    "number_of_reviews": null,
    "price_level": "",
    "open_hours": "",
    "extraction_timestamp": "2025-06-07T17:13:20.138Z",
    "source_name": "google",
    "source_query": "Irrigation Equipment",
    "source_country": "PL",
    "country": "Poland",
    "state": "Greater Poland Voivodeship",
    "city": "Powiat leszczyński"
  },
  {
    "source_id": "ChIJB60QpdmXBUcRCjWJPOr46YQ",
    "name": "Hydro - Partner",
    "category": "Hydro - Partner",
    "formatted_address": "5,0(1)",
    "phone_number": "+48661962067",
    "source_url": "https://www.google.com/maps/place/Hydro+-+Partner/data=!4m7!3m6!1s0x470597d9a510ad07:0x84e9f8ea3c89350a!8m2!3d51.8580745!4d16.5588146!16s%2Fg%2F11v0gy8z3w!19sChIJB60QpdmXBUcRCjWJPOr46YQ?authuser=0&hl=tr&rclk=1",
    "website_url": "https://hydro-partner.pl/",
    "rating_text": "5,0",
    "stars": null,
    "number_of_reviews": null,
    "price_level": "",
    "open_hours": "",
    "extraction_timestamp": "2025-06-07T17:13:20.146Z",
    "source_name": "google",
    "source_query": "Irrigation Equipment",
    "source_country": "PL",
    "country": "Poland",
    "state": "Greater Poland Voivodeship",
    "city": "Powiat leszczyński"
  },
  {
    "source_id": "ChIJy3P-BHeXBUcRo0TfLYobfsA",
    "name": "Hurtownia artykułów sanitarnych - Hydro Kan Instal",
    "category": "Hurtownia artykułów sanitarnych - Hydro Kan Instal",
    "formatted_address": "4,6(17)",
    "phone_number": "+48500125737",
    "source_url": "https://www.google.com/maps/place/Hurtownia+artyku%C5%82%C3%B3w+sanitarnych+-+Hydro+Kan+Instal/data=!4m7!3m6!1s0x4705977704fe73cb:0xc07e1b8a2ddf44a3!8m2!3d51.847698!4d16.5429689!16s%2Fg%2F11h4vn9cx5!19sChIJy3P-BHeXBUcRo0TfLYobfsA?authuser=0&hl=tr&rclk=1",
    "website_url": "http://www.hydrokaninstal.eu/",
    "rating_text": "4,6",
    "stars": null,
    "number_of_reviews": null,
    "price_level": "",
    "open_hours": "",
    "extraction_timestamp": "2025-06-07T17:13:20.146Z",
    "source_name": "google",
    "source_query": "Irrigation Equipment",
    "source_country": "PL",
    "country": "Poland",
    "state": "Greater Poland Voivodeship",
    "city": "Powiat leszczyński"
  },
  {
    "source_id": "ChIJ_xAzGB-YBUcRPl7rLAESgpA",
    "name": "Efli Group sp. Z o. o. Sp k.",
    "category": "Efli Group sp. Z o. o. Sp k.",
    "formatted_address": "5,0(6)",
    "phone_number": "+48605421985",
    "source_url": "https://www.google.com/maps/place/Efli+Group+sp.+Z+o.+o.+Sp+k./data=!4m7!3m6!1s0x4705981f183310ff:0x908212012ceb5e3e!8m2!3d51.8364795!4d16.5739367!16s%2Fg%2F11gfhsk4qv!19sChIJ_xAzGB-YBUcRPl7rLAESgpA?authuser=0&hl=tr&rclk=1",
    "website_url": "http://www.efli.pl/",
    "rating_text": "5,0",
    "stars": null,
    "number_of_reviews": null,
    "price_level": "",
    "open_hours": "",
    "extraction_timestamp": "2025-06-07T17:13:20.146Z",
    "source_name": "google",
    "source_query": "Irrigation Equipment",
    "source_country": "PL",
    "country": "Poland",
    "state": "Greater Poland Voivodeship",
    "city": "Powiat leszczyński"
  },
  {
    "source_id": "ChIJyUvLztWXBUcRsLslPcmitPE",
    "name": "HYDRO KAN INSTAL J. SZCZERBAL, P. SIADEK - SPÓŁKA JAWNA",
    "category": "HYDRO KAN INSTAL J. SZCZERBAL, P. SIADEK - SPÓŁKA JAWNA",
    "formatted_address": "HYDRO KAN INSTAL J. SZCZERBAL, P. SIADEK - SPÓŁKA JAWNA",
    "phone_number": "+48500125737",
    "source_url": "https://www.google.com/maps/place/HYDRO+KAN+INSTAL+J.+SZCZERBAL,+P.+SIADEK+-+SP%C3%93%C5%81KA+JAWNA/data=!4m7!3m6!1s0x470597d5cecb4bc9:0xf1b4a2c93d25bbb0!8m2!3d51.847698!4d16.5429689!16s%2Fg%2F11lcmw3rwr!19sChIJyUvLztWXBUcRsLslPcmitPE?authuser=0&hl=tr&rclk=1",
    "website_url": "http://www.sklep.hydrokaninstal.eu/",
    "rating_text": "5,0",
    "stars": null,
    "number_of_reviews": null,
    "price_level": "",
    "open_hours": "",
    "extraction_timestamp": "2025-06-07T17:13:20.147Z",
    "source_name": "google",
    "source_query": "Irrigation Equipment",
    "source_country": "PL",
    "country": "Poland",
    "state": "Greater Poland Voivodeship",
    "city": "Powiat leszczyński"
  },
  {
    "source_id": "ChIJTRJMCfWXBUcRnFyD5M_9CBw",
    "name": "Salon Techniki Grzewczej Armatura Kozłowski Leszno (hurtownia instalacyjna, hydrauliczna)",
    "category": "Salon Techniki Grzewczej Armatura Kozłowski Leszno (hurtownia instalacyjna, hydrauliczna)",
    "formatted_address": "Salon Techniki Grzewczej Armatura Kozłowski Leszno (hurtownia instalacyjna, hydrauliczna)",
    "phone_number": "+48655287554",
    "source_url": "https://www.google.com/maps/place/Salon+Techniki+Grzewczej+Armatura+Koz%C5%82owski+Leszno+%28hurtownia+instalacyjna,+hydrauliczna%29/data=!4m7!3m6!1s0x470597f5094c124d:0x1c08fdcfe4835c9c!8m2!3d51.8534379!4d16.5627354!16s%2Fg%2F11hbgqwch2!19sChIJTRJMCfWXBUcRnFyD5M_9CBw?authuser=0&hl=tr&rclk=1",
    "website_url": "https://armatura24.pl/?utm_source=local&utm_medium=organic&utm_campaign=leszno&utm_content=gmb",
    "rating_text": "4,9",
    "stars": null,
    "number_of_reviews": null,
    "price_level": "",
    "open_hours": "",
    "extraction_timestamp": "2025-06-07T17:13:20.148Z",
    "source_name": "google",
    "source_query": "Irrigation Equipment",
    "source_country": "PL",
    "country": "Poland",
    "state": "Greater Poland Voivodeship",
    "city": "Powiat leszczyński"
  },
  {
    "source_id": "ChIJ__8vRjGYBUcRbRkFMNRnGzI",
    "name": "NOVATECH silowniki24.pl",
    "category": "NOVATECH silowniki24.pl",
    "formatted_address": "5,0(2)",
    "phone_number": "+48660678158",
    "source_url": "https://www.google.com/maps/place/NOVATECH+silowniki24.pl/data=!4m7!3m6!1s0x47059831462fffff:0x321b67d43005196d!8m2!3d51.8340968!4d16.5760434!16s%2Fg%2F11m2dzxfrx!19sChIJ__8vRjGYBUcRbRkFMNRnGzI?authuser=0&hl=tr&rclk=1",
    "website_url": "http://silowniki24.pl/",
    "rating_text": "5,0",
    "stars": null,
    "number_of_reviews": null,
    "price_level": "",
    "open_hours": "",
    "extraction_timestamp": "2025-06-07T17:13:20.149Z",
    "source_name": "google",
    "source_query": "Irrigation Equipment",
    "source_country": "PL",
    "country": "Poland",
    "state": "Greater Poland Voivodeship",
    "city": "Powiat leszczyński"
  },
  {
    "source_id": "ChIJa583JkGZBUcRtPAUIMJX1Xs",
    "name": "Monter Shop Samoobsługowa Hurtownia Instalacyjna Leszno",
    "category": "Monter Shop Samoobsługowa Hurtownia Instalacyjna Leszno",
    "formatted_address": "4,5(11)",
    "phone_number": "+48656141980",
    "source_url": "https://www.google.com/maps/place/Monter+Shop+Samoobs%C5%82ugowa+Hurtownia+Instalacyjna+Leszno/data=!4m7!3m6!1s0x4705994126379f6b:0x7bd557c22014f0b4!8m2!3d51.853552!4d16.569181!16s%2Fg%2F11j7jnsfnd!19sChIJa583JkGZBUcRtPAUIMJX1Xs?authuser=0&hl=tr&rclk=1",
    "website_url": "https://grudnik.pl/",
    "rating_text": "4,5",
    "stars": null,
    "number_of_reviews": null,
    "price_level": "",
    "open_hours": "",
    "extraction_timestamp": "2025-06-07T17:13:20.150Z",
    "source_name": "google",
    "source_query": "Irrigation Equipment",
    "source_country": "PL",
    "country": "Poland",
    "state": "Greater Poland Voivodeship",
    "city": "Powiat leszczyński"
  },
  {
    "source_id": "ChIJVVZm00OYBUcRWtZJvL-BzWc",
    "name": "Pełczyk Wojciech. Układy pompowe i automatyka",
    "category": "Pełczyk Wojciech. Układy pompowe i automatyka",
    "formatted_address": "5,0(2)",
    "phone_number": "+48655201580",
    "source_url": "https://www.google.com/maps/place/Pe%C5%82czyk+Wojciech.+Uk%C5%82ady+pompowe+i+automatyka/data=!4m7!3m6!1s0x47059843d3665655:0x67cd81bfbc49d65a!8m2!3d51.8268008!4d16.5950931!16s%2Fg%2F1tf3mmj7!19sChIJVVZm00OYBUcRWtZJvL-BzWc?authuser=0&hl=tr&rclk=1",
    "website_url": "http://www.ukladypompowe.pl/",
    "rating_text": "5,0",
    "stars": null,
    "number_of_reviews": null,
    "price_level": "",
    "open_hours": "",
    "extraction_timestamp": "2025-06-07T17:13:20.151Z",
    "source_name": "google",
    "source_query": "Irrigation Equipment",
    "source_country": "PL",
    "country": "Poland",
    "state": "Greater Poland Voivodeship",
    "city": "Powiat leszczyński"
  },
  {
    "source_id": "ChIJk9CytkGYBUcRmOzALJycoRw",
    "name": "Onninen hurtownia elektryczna, hydrauliczna i instalacyjna - Leszno",
    "category": "Onninen hurtownia elektryczna, hydrauliczna i instalacyjna - Leszno",
    "formatted_address": "Onninen hurtownia elektryczna, hydrauliczna i instalacyjna - Leszno",
    "phone_number": "+48801415515",
    "source_url": "https://www.google.com/maps/place/Onninen+hurtownia+elektryczna,+hydrauliczna+i+instalacyjna+-+Leszno/data=!4m7!3m6!1s0x47059841b6b2d093:0x1ca19c9c2cc0ec98!8m2!3d51.8375527!4d16.5710422!16s%2Fg%2F11bby4l5jw!19sChIJk9CytkGYBUcRmOzALJycoRw?authuser=0&hl=tr&rclk=1",
    "website_url": "https://onninen.pl/leszno?utm_source=google&utm_medium=organic&utm_campaign=gmb-leszno",
    "rating_text": "4,9",
    "stars": null,
    "number_of_reviews": null,
    "price_level": "",
    "open_hours": "",
    "extraction_timestamp": "2025-06-07T17:13:20.151Z",
    "source_name": "google",
    "source_query": "Irrigation Equipment",
    "source_country": "PL",
    "country": "Poland",
    "state": "Greater Poland Voivodeship",
    "city": "Powiat leszczyński"
  },
  {
    "source_id": "ChIJzecTskyZBUcRQkwroYMQt8c",
    "name": "Pompy - JOMIKE",
    "category": "Pompy - JOMIKE",
    "formatted_address": "4,6(9)",
    "phone_number": "+48606437218",
    "source_url": "https://www.google.com/maps/place/Pompy+-+JOMIKE/data=!4m7!3m6!1s0x4705994cb213e7cd:0xc7b71083a12b4c42!8m2!3d51.8408704!4d16.5685017!16s%2Fg%2F11h1yk2sqm!19sChIJzecTskyZBUcRQkwroYMQt8c?authuser=0&hl=tr&rclk=1",
    "website_url": "",
    "rating_text": "4,6",
    "stars": null,
    "number_of_reviews": null,
    "price_level": "",
    "open_hours": "",
    "extraction_timestamp": "2025-06-07T17:13:20.152Z",
    "source_name": "google",
    "source_query": "Irrigation Equipment",
    "source_country": "PL",
    "country": "Poland",
    "state": "Greater Poland Voivodeship",
    "city": "Powiat leszczyński"
  },
  {
    "source_id": "ChIJD7gG9UiYBUcRuNxJxy4r-u4",
    "name": "\"Ardisia Aleksander\" i Syn Ogrodnika",
    "category": "\"Ardisia Aleksander\" i Syn Ogrodnika",
    "formatted_address": "4,7(226)",
    "phone_number": "+48601203536",
    "source_url": "https://www.google.com/maps/place/%22Ardisia+Aleksander%22+i+Syn+Ogrodnika/data=!4m7!3m6!1s0x47059848f506b80f:0xeefa2b2ec749dcb8!8m2!3d51.8347854!4d16.5892982!16s%2Fg%2F1th85v17!19sChIJD7gG9UiYBUcRuNxJxy4r-u4?authuser=0&hl=tr&rclk=1",
    "website_url": "https://www.facebook.com/hurtownia.syn.ogrodnika",
    "rating_text": "4,7",
    "stars": null,
    "number_of_reviews": null,
    "price_level": "",
    "open_hours": "",
    "extraction_timestamp": "2025-06-07T17:13:20.153Z",
    "source_name": "google",
    "source_query": "Irrigation Equipment",
    "source_country": "PL",
    "country": "Poland",
    "state": "Greater Poland Voivodeship",
    "city": "Powiat leszczyński"
  },
  {
    "source_id": "ChIJXZWG5Hq9BUcReix8o68o4N4",
    "name": "Arkton Sp. z o.o.",
    "category": "Arkton Sp. z o.o.",
    "formatted_address": "3,7(9)",
    "phone_number": "+48655252842",
    "source_url": "https://www.google.com/maps/place/Arkton+Sp.+z+o.o./data=!4m7!3m6!1s0x4705bd7ae486955d:0xdee028afa37c2c7a!8m2!3d51.875256!4d16.5683491!16s%2Fg%2F1tkrkhl8!19sChIJXZWG5Hq9BUcReix8o68o4N4?authuser=0&hl=tr&rclk=1",
    "website_url": "http://arkton.com.pl/",
    "rating_text": "3,7",
    "stars": null,
    "number_of_reviews": null,
    "price_level": "",
    "open_hours": "",
    "extraction_timestamp": "2025-06-07T17:13:20.154Z",
    "source_name": "google",
    "source_query": "Irrigation Equipment",
    "source_country": "PL",
    "country": "Poland",
    "state": "Greater Poland Voivodeship",
    "city": "Powiat leszczyński"
  },
  {
    "source_id": "ChIJM7JvfFKYBUcRYaiWl4C05cs",
    "name": "Castorama",
    "category": "Castorama",
    "formatted_address": "4,2(2.571)",
    "phone_number": "+48655331100",
    "source_url": "https://www.google.com/maps/place/Castorama/data=!4m7!3m6!1s0x470598527c6fb233:0xcbe5b4809796a861!8m2!3d51.8277116!4d16.5979677!16s%2Fg%2F11c5h54w6l!19sChIJM7JvfFKYBUcRYaiWl4C05cs?authuser=0&hl=tr&rclk=1",
    "website_url": "",
    "rating_text": "4,2",
    "stars": null,
    "number_of_reviews": null,
    "price_level": "",
    "open_hours": "",
    "extraction_timestamp": "2025-06-07T17:13:20.156Z",
    "source_name": "google",
    "source_query": "Irrigation Equipment",
    "source_country": "PL",
    "country": "Poland",
    "state": "Greater Poland Voivodeship",
    "city": "Powiat leszczyński"
  },
  {
    "source_id": "ChIJgToGhQ6ZBUcRsdiJNVCt6i4",
    "name": "SellGarden Jakub Sellin",
    "category": "SellGarden Jakub Sellin",
    "formatted_address": "4,6(10)",
    "phone_number": "+48734696136",
    "source_url": "https://www.google.com/maps/place/SellGarden+Jakub+Sellin/data=!4m7!3m6!1s0x4705990e85063a81:0x2eeaad503589d8b1!8m2!3d51.8417236!4d16.5735385!16s%2Fg%2F11sfrvqh_v!19sChIJgToGhQ6ZBUcRsdiJNVCt6i4?authuser=0&hl=tr&rclk=1",
    "website_url": "https://sellgarden.eu/",
    "rating_text": "4,6",
    "stars": null,
    "number_of_reviews": null,
    "price_level": "",
    "open_hours": "",
    "extraction_timestamp": "2025-06-07T17:13:20.157Z",
    "source_name": "google",
    "source_query": "Irrigation Equipment",
    "source_country": "PL",
    "country": "Poland",
    "state": "Greater Poland Voivodeship",
    "city": "Powiat leszczyński"
  },
  {
    "source_id": "ChIJNcLbHUaZBUcRX6sYI8naHms",
    "name": "Elysian - wanny spa, sauny, zadaszenia tarasu",
    "category": "Elysian - wanny spa, sauny, zadaszenia tarasu",
    "formatted_address": "Elysian - wanny spa, sauny, zadaszenia tarasu",
    "phone_number": "+48530264545",
    "source_url": "https://www.google.com/maps/place/Elysian+-+wanny+spa,+sauny,+zadaszenia+tarasu/data=!4m7!3m6!1s0x470599461ddbc235:0x6b1edac92318ab5f!8m2!3d51.863047!4d16.5749178!16s%2Fg%2F11y2frbsph!19sChIJNcLbHUaZBUcRX6sYI8naHms?authuser=0&hl=tr&rclk=1",
    "website_url": "https://elysian.net.pl/",
    "rating_text": "5,0",
    "stars": null,
    "number_of_reviews": null,
    "price_level": "",
    "open_hours": "",
    "extraction_timestamp": "2025-06-07T17:13:20.157Z",
    "source_name": "google",
    "source_query": "Irrigation Equipment",
    "source_country": "PL",
    "country": "Poland",
    "state": "Greater Poland Voivodeship",
    "city": "Powiat leszczyński"
  },
  {
    "source_id": "ChIJCZtI2kqYBUcRZNKDyZAnQsk",
    "name": "Bomis - Ogrzewanie, Łazienka, Klimatyzacja Leszno",
    "category": "Bomis - Ogrzewanie, Łazienka, Klimatyzacja Leszno",
    "formatted_address": "Bomis - Ogrzewanie, Łazienka, Klimatyzacja Leszno",
    "phone_number": "+48697830930",
    "source_url": "https://www.google.com/maps/place/Bomis+-+Ogrzewanie,+%C5%81azienka,+Klimatyzacja+Leszno/data=!4m7!3m6!1s0x4705984ada489b09:0xc9422790c983d264!8m2!3d51.827822!4d16.583249!16s%2Fg%2F1ptw8sfzq!19sChIJCZtI2kqYBUcRZNKDyZAnQsk?authuser=0&hl=tr&rclk=1",
    "website_url": "https://www.bomis24.pl/",
    "rating_text": "3,7",
    "stars": null,
    "number_of_reviews": null,
    "price_level": "",
    "open_hours": "",
    "extraction_timestamp": "2025-06-07T17:13:20.158Z",
    "source_name": "google",
    "source_query": "Irrigation Equipment",
    "source_country": "PL",
    "country": "Poland",
    "state": "Greater Poland Voivodeship",
    "city": "Powiat leszczyński"
  },
  {
    "source_id": "ChIJJSY1FyqYBUcRbFPmrMpEoPQ",
    "name": "Akwarystyczny.eu sklep i hurtownia akwarystyczna",
    "category": "Akwarystyczny.eu sklep i hurtownia akwarystyczna",
    "formatted_address": "4,2(50)",
    "phone_number": "+48603212178",
    "source_url": "https://www.google.com/maps/place/Akwarystyczny.eu+sklep+i+hurtownia+akwarystyczna/data=!4m7!3m6!1s0x4705982a17352625:0xf4a044caace6536c!8m2!3d51.8441782!4d16.5775665!16s%2Fg%2F11f04k4t6d!19sChIJJSY1FyqYBUcRbFPmrMpEoPQ?authuser=0&hl=tr&rclk=1",
    "website_url": "https://www.akwarystyczny.eu/",
    "rating_text": "4,2",
    "stars": null,
    "number_of_reviews": null,
    "price_level": "",
    "open_hours": "",
    "extraction_timestamp": "2025-06-07T17:13:20.159Z",
    "source_name": "google",
    "source_query": "Irrigation Equipment",
    "source_country": "PL",
    "country": "Poland",
    "state": "Greater Poland Voivodeship",
    "city": "Powiat leszczyński"
  },
  {
    "source_id": "ChIJVTtTqSKYBUcRUcaI9r5Emj0",
    "name": "Strefasportu.pl",
    "category": "Strefasportu.pl",
    "formatted_address": "4,6(135)",
    "phone_number": "+48609756656",
    "source_url": "https://www.google.com/maps/place/Strefasportu.pl/data=!4m7!3m6!1s0x47059822a9533b55:0x3d9a44bef688c651!8m2!3d51.8488672!4d16.5775099!16s%2Fg%2F1ptyjpgmq!19sChIJVTtTqSKYBUcRUcaI9r5Emj0?authuser=0&hl=tr&rclk=1",
    "website_url": "http://strefasportu.pl/",
    "rating_text": "4,6",
    "stars": null,
    "number_of_reviews": null,
    "price_level": "",
    "open_hours": "",
    "extraction_timestamp": "2025-06-07T17:13:20.159Z",
    "source_name": "google",
    "source_query": "Irrigation Equipment",
    "source_country": "PL",
    "country": "Poland",
    "state": "Greater Poland Voivodeship",
    "city": "Powiat leszczyński"
  },
  {
    "source_id": "ChIJ5y7qZjuYBUcR_08OAYfmCQw",
    "name": "EX'S Sport",
    "category": "EX'S Sport",
    "formatted_address": "5,0(22)",
    "phone_number": "+48691856456",
    "source_url": "https://www.google.com/maps/place/EX%27S+Sport/data=!4m7!3m6!1s0x4705983b66ea2ee7:0xc09e687010e4fff!8m2!3d51.8510686!4d16.5573312!16s%2Fg%2F1tdwz78v!19sChIJ5y7qZjuYBUcR_08OAYfmCQw?authuser=0&hl=tr&rclk=1",
    "website_url": "http://www.exssport.pl/",
    "rating_text": "5,0",
    "stars": null,
    "number_of_reviews": null,
    "price_level": "",
    "open_hours": "",
    "extraction_timestamp": "2025-06-07T17:13:20.160Z",
    "source_name": "google",
    "source_query": "Irrigation Equipment",
    "source_country": "PL",
    "country": "Poland",
    "state": "Greater Poland Voivodeship",
    "city": "Powiat leszczyński"
  },
  {
    "source_id": "ChIJ0Vh1j3yXBUcRkWLo1VeOYtY",
    "name": "INSTAL-PERFEKT, Autoryzowany Top Partner Buderus",
    "category": "INSTAL-PERFEKT, Autoryzowany Top Partner Buderus",
    "formatted_address": "INSTAL-PERFEKT, Autoryzowany Top Partner Buderus",
    "phone_number": "+48605224786",
    "source_url": "https://www.google.com/maps/place/INSTAL-PERFEKT,+Autoryzowany+Top+Partner+Buderus/data=!4m7!3m6!1s0x4705977c8f7558d1:0xd6628e57d5e86291!8m2!3d51.8421699!4d16.553947!16s%2Fg%2F11g4cgwmhn!19sChIJ0Vh1j3yXBUcRkWLo1VeOYtY?authuser=0&hl=tr&rclk=1",
    "website_url": "https://www.buderus.com/pl/pl/",
    "rating_text": "5,0",
    "stars": null,
    "number_of_reviews": null,
    "price_level": "",
    "open_hours": "",
    "extraction_timestamp": "2025-06-07T17:13:20.161Z",
    "source_name": "google",
    "source_query": "Irrigation Equipment",
    "source_country": "PL",
    "country": "Poland",
    "state": "Greater Poland Voivodeship",
    "city": "Powiat leszczyński"
  },
  {
    "source_id": "ChIJTTAifY2XBUcRlFGcEGNFfb8",
    "name": "Pozh-leszno",
    "category": "Pozh-leszno",
    "formatted_address": "4,0(1)",
    "phone_number": "+48605350504",
    "source_url": "https://www.google.com/maps/place/Pozh-leszno/data=!4m7!3m6!1s0x4705978d7d22304d:0xbf7d4563109c5194!8m2!3d51.8512135!4d16.547772!16s%2Fg%2F1wnbwqg0!19sChIJTTAifY2XBUcRlFGcEGNFfb8?authuser=0&hl=tr&rclk=1",
    "website_url": "",
    "rating_text": "4,0",
    "stars": null,
    "number_of_reviews": null,
    "price_level": "",
    "open_hours": "",
    "extraction_timestamp": "2025-06-07T17:13:20.162Z",
    "source_name": "google",
    "source_query": "Irrigation Equipment",
    "source_country": "PL",
    "country": "Poland",
    "state": "Greater Poland Voivodeship",
    "city": "Powiat leszczyński"
  },
  {
    "source_id": "ChIJZRiXF1OYBUcRFfQ2YU0XDxQ",
    "name": "Action Leszno",
    "category": "Action Leszno",
    "formatted_address": "4,5(442)",
    "phone_number": "+48326305898",
    "source_url": "https://www.google.com/maps/place/Action+Leszno/data=!4m7!3m6!1s0x4705985317971865:0x140f174d6136f415!8m2!3d51.8265759!4d16.599597!16s%2Fg%2F11gc67jdfx!19sChIJZRiXF1OYBUcRFfQ2YU0XDxQ?authuser=0&hl=tr&rclk=1",
    "website_url": "https://www.action.com/pl-pl/sklepy/leszno-aleje-konstytucji-3-maja-12/?utm_campaign=localbusiness&utm_source=google&utm_medium=organic&utm_content=A001",
    "rating_text": "4,5",
    "stars": null,
    "number_of_reviews": null,
    "price_level": "",
    "open_hours": "",
    "extraction_timestamp": "2025-06-07T17:13:20.162Z",
    "source_name": "google",
    "source_query": "Irrigation Equipment",
    "source_country": "PL",
    "country": "Poland",
    "state": "Greater Poland Voivodeship",
    "city": "Powiat leszczyński"
  },
  {
    "source_id": "ChIJN21UBCeYBUcR_p-QeOKehAA",
    "name": "OgrodniczyFarmex.pl",
    "category": "OgrodniczyFarmex.pl",
    "formatted_address": "4,7(89)",
    "phone_number": "+48517483899",
    "source_url": "https://www.google.com/maps/place/OgrodniczyFarmex.pl/data=!4m7!3m6!1s0x4705982704546d37:0x849ee278909ffe!8m2!3d51.843562!4d16.5623001!16s%2Fg%2F1hc0x8j79!19sChIJN21UBCeYBUcR_p-QeOKehAA?authuser=0&hl=tr&rclk=1",
    "website_url": "http://www.ogrodniczyfarmex.pl/",
    "rating_text": "4,7",
    "stars": null,
    "number_of_reviews": null,
    "price_level": "",
    "open_hours": "",
    "extraction_timestamp": "2025-06-07T17:13:20.163Z",
    "source_name": "google",
    "source_query": "Irrigation Equipment",
    "source_country": "PL",
    "country": "Poland",
    "state": "Greater Poland Voivodeship",
    "city": "Powiat leszczyński"
  },
  {
    "source_id": "ChIJK93Xj0-ZBUcR-dy_yiwH6ms",
    "name": "Action Leszno",
    "category": "Action Leszno",
    "formatted_address": "4,6(63)",
    "phone_number": "+48326305898",
    "source_url": "https://www.google.com/maps/place/Action+Leszno/data=!4m7!3m6!1s0x4705994f8fd7dd2b:0x6bea072ccabfdcf9!8m2!3d51.8552443!4d16.57764!16s%2Fg%2F11jsc_8m15!19sChIJK93Xj0-ZBUcR-dy_yiwH6ms?authuser=0&hl=tr&rclk=1",
    "website_url": "https://www.action.com/pl-pl/sklepy/leszno/?utm_campaign=localbusiness&utm_source=google&utm_medium=organic&utm_content=A200",
    "rating_text": "4,6",
    "stars": null,
    "number_of_reviews": null,
    "price_level": "",
    "open_hours": "",
    "extraction_timestamp": "2025-06-07T17:13:20.164Z",
    "source_name": "google",
    "source_query": "Irrigation Equipment",
    "source_country": "PL",
    "country": "Poland",
    "state": "Greater Poland Voivodeship",
    "city": "Powiat leszczyński"
  },
  {
    "source_id": "ChIJZ5lQeUyYBUcRPwwcploai7o",
    "name": "Sim s.c. Nyczka S.M.",
    "category": "Sim s.c. Nyczka S.M.",
    "formatted_address": "4,5(62)",
    "phone_number": "+48655202231",
    "source_url": "https://www.google.com/maps/place/Sim+s.c.+Nyczka+S.M./data=!4m7!3m6!1s0x4705984c79509967:0xba8b1a5aa61c0c3f!8m2!3d51.8285244!4d16.5803968!16s%2Fg%2F1ptwzxs0_!19sChIJZ5lQeUyYBUcRPwwcploai7o?authuser=0&hl=tr&rclk=1",
    "website_url": "",
    "rating_text": "4,5",
    "stars": null,
    "number_of_reviews": null,
    "price_level": "",
    "open_hours": "",
    "extraction_timestamp": "2025-06-07T17:13:20.164Z",
    "source_name": "google",
    "source_query": "Irrigation Equipment",
    "source_country": "PL",
    "country": "Poland",
    "state": "Greater Poland Voivodeship",
    "city": "Powiat leszczyński"
  }
]
