[
  {
    "source_id": "ChIJ5yCz4-SWBkcRiuS2UT65__Y",
    "name": "A. Z. Agora Grupa SBS Sp. z o. o.",
    "category": "A. Z. Agora Grupa SBS Sp. z o. o.",
    "formatted_address": "4,6(72)",
    "phone_number": "+48957482680",
    "source_url": "https://www.google.com/maps/place/A.+Z.+Agora+Grupa+SBS+Sp.+z+o.+o./data=!4m7!3m6!1s0x470696e4e3b320e7:0xf6ffb93e51b6e48a!8m2!3d52.6064567!4d15.9107618!16s%2Fg%2F1trpph8z!19sChIJ5yCz4-SWBkcRiuS2UT65__Y?authuser=0&hl=tr&rclk=1",
    "website_url": "",
    "rating_text": "4,6",
    "stars": null,
    "number_of_reviews": null,
    "price_level": "",
    "open_hours": "",
    "extraction_timestamp": "2025-06-07T17:30:50.320Z",
    "source_name": "google",
    "source_query": "Irrigation Equipment",
    "source_country": "PL",
    "country": "Poland",
    "state": "Greater Poland Voivodeship",
    "city": "Powiat międzychodzki"
  },
  {
    "source_id": "ChIJi483KzSXBkcREzgFQpdQ04c",
    "name": "Consor Energia Fotowoltaika, Turbiny Wiatrowe",
    "category": "Consor Energia Fotowoltaika, Turbiny Wiatrowe",
    "formatted_address": "Consor Energia Fotowoltaika, Turbiny Wiatrowe",
    "phone_number": "+48722111770",
    "source_url": "https://www.google.com/maps/place/Consor+Energia+Fotowoltaika,+Turbiny+Wiatrowe/data=!4m7!3m6!1s0x470697342b378f8b:0x87d3509742053813!8m2!3d52.6029169!4d15.8899931!16s%2Fg%2F11h4tbsbs6!19sChIJi483KzSXBkcREzgFQpdQ04c?authuser=0&hl=tr&rclk=1",
    "website_url": "",
    "rating_text": "5,0",
    "stars": null,
    "number_of_reviews": null,
    "price_level": "",
    "open_hours": "",
    "extraction_timestamp": "2025-06-07T17:30:50.321Z",
    "source_name": "google",
    "source_query": "Irrigation Equipment",
    "source_country": "PL",
    "country": "Poland",
    "state": "Greater Poland Voivodeship",
    "city": "Powiat międzychodzki"
  },
  {
    "source_id": "ChIJ7XiBPeuWBkcRfFvSMPXhG0Q",
    "name": "Laufpompa",
    "category": "Laufpompa",
    "formatted_address": "4,6(257)",
    "phone_number": "",
    "source_url": "https://www.google.com/maps/place/Laufpompa/data=!4m7!3m6!1s0x470696eb3d8178ed:0x441be1f530d25b7c!8m2!3d52.6053153!4d15.8959682!16s%2Fg%2F122kcq53!19sChIJ7XiBPeuWBkcRfFvSMPXhG0Q?authuser=0&hl=tr&rclk=1",
    "website_url": "",
    "rating_text": "4,6",
    "stars": null,
    "number_of_reviews": null,
    "price_level": "",
    "open_hours": "",
    "extraction_timestamp": "2025-06-07T17:30:50.322Z",
    "source_name": "google",
    "source_query": "Irrigation Equipment",
    "source_country": "PL",
    "country": "Poland",
    "state": "Greater Poland Voivodeship",
    "city": "Powiat międzychodzki"
  },
  {
    "source_id": "ChIJZ5CzxcSWBkcRcagV0Hxpbwo",
    "name": "Ceglarski Artur. Usługi hydrauliczne",
    "category": "Ceglarski Artur. Usługi hydrauliczne",
    "formatted_address": "4,7(24)",
    "phone_number": "+48600235176",
    "source_url": "https://www.google.com/maps/place/Ceglarski+Artur.+Us%C5%82ugi+hydrauliczne/data=!4m7!3m6!1s0x470696c4c5b39067:0xa6f697cd015a871!8m2!3d52.592436!4d15.896845!16s%2Fg%2F11h14mw1k!19sChIJZ5CzxcSWBkcRcagV0Hxpbwo?authuser=0&hl=tr&rclk=1",
    "website_url": "",
    "rating_text": "4,7",
    "stars": null,
    "number_of_reviews": null,
    "price_level": "",
    "open_hours": "",
    "extraction_timestamp": "2025-06-07T17:30:50.323Z",
    "source_name": "google",
    "source_query": "Irrigation Equipment",
    "source_country": "PL",
    "country": "Poland",
    "state": "Greater Poland Voivodeship",
    "city": "Powiat międzychodzki"
  },
  {
    "source_id": "ChIJ19ZJT8WXBkcR0GmxJxbVs0s",
    "name": "ENERON Sp.z.o.o.",
    "category": "ENERON Sp.z.o.o.",
    "formatted_address": "",
    "phone_number": "+48609672219",
    "source_url": "https://www.google.com/maps/place/ENERON+Sp.z.o.o./data=!4m7!3m6!1s0x470697c54f49d6d7:0x4bb3d51627b169d0!8m2!3d52.6104432!4d15.9050891!16s%2Fg%2F11t2fdxfch!19sChIJ19ZJT8WXBkcR0GmxJxbVs0s?authuser=0&hl=tr&rclk=1",
    "website_url": "",
    "rating_text": "",
    "stars": null,
    "number_of_reviews": null,
    "price_level": "",
    "open_hours": "",
    "extraction_timestamp": "2025-06-07T17:30:50.323Z",
    "source_name": "google",
    "source_query": "Irrigation Equipment",
    "source_country": "PL",
    "country": "Poland",
    "state": "Greater Poland Voivodeship",
    "city": "Powiat międzychodzki"
  },
  {
    "source_id": "ChIJEwi-S_CWBkcRsoDZuHXztNM",
    "name": "Bricomarche (Elmat)",
    "category": "Bricomarche (Elmat)",
    "formatted_address": "4,3(256)",
    "phone_number": "+48957482858",
    "source_url": "https://www.google.com/maps/place/Bricomarche+%28Elmat%29/data=!4m7!3m6!1s0x470696f04bbe0813:0xd3b4f375b8d980b2!8m2!3d52.609847!4d15.9057083!16s%2Fg%2F1v4prpwp!19sChIJEwi-S_CWBkcRsoDZuHXztNM?authuser=0&hl=tr&rclk=1",
    "website_url": "",
    "rating_text": "4,3",
    "stars": null,
    "number_of_reviews": null,
    "price_level": "",
    "open_hours": "",
    "extraction_timestamp": "2025-06-07T17:30:50.324Z",
    "source_name": "google",
    "source_query": "Irrigation Equipment",
    "source_country": "PL",
    "country": "Poland",
    "state": "Greater Poland Voivodeship",
    "city": "Powiat międzychodzki"
  },
  {
    "source_id": "ChIJadBFLfCWBkcRlHzDAvkPLxA",
    "name": "Zakład Instalatorstwa i Pomiarów Elektrycznych Jacek Wylegała",
    "category": "Zakład Instalatorstwa i Pomiarów Elektrycznych Jacek Wylegała",
    "formatted_address": "5,0(2)",
    "phone_number": "+48531952848",
    "source_url": "https://www.google.com/maps/place/Zak%C5%82ad+Instalatorstwa+i+Pomiar%C3%B3w+Elektrycznych+Jacek+Wylega%C5%82a/data=!4m7!3m6!1s0x470696f02d45d069:0x102f0ff902c37c94!8m2!3d52.6104432!4d15.9050891!16s%2Fg%2F1tdf017g!19sChIJadBFLfCWBkcRlHzDAvkPLxA?authuser=0&hl=tr&rclk=1",
    "website_url": "",
    "rating_text": "5,0",
    "stars": null,
    "number_of_reviews": null,
    "price_level": "",
    "open_hours": "",
    "extraction_timestamp": "2025-06-07T17:30:50.325Z",
    "source_name": "google",
    "source_query": "Irrigation Equipment",
    "source_country": "PL",
    "country": "Poland",
    "state": "Greater Poland Voivodeship",
    "city": "Powiat międzychodzki"
  },
  {
    "source_id": "ChIJVSntdOyWBkcRxTLmm3w1nrc",
    "name": "IK Instal - montaż klimatyzacji i pompy ciepła",
    "category": "IK Instal - montaż klimatyzacji i pompy ciepła",
    "formatted_address": "4,8(107)",
    "phone_number": "",
    "source_url": "https://www.google.com/maps/place/IK+Instal+-+monta%C5%BC+klimatyzacji+i+pompy+ciep%C5%82a/data=!4m7!3m6!1s0x470696ec74ed2955:0xb79e357c9be632c5!8m2!3d52.6041523!4d15.8919639!16s%2Fg%2F1tf8rt8f!19sChIJVSntdOyWBkcRxTLmm3w1nrc?authuser=0&hl=tr&rclk=1",
    "website_url": "",
    "rating_text": "4,8",
    "stars": null,
    "number_of_reviews": null,
    "price_level": "",
    "open_hours": "",
    "extraction_timestamp": "2025-06-07T17:30:50.326Z",
    "source_name": "google",
    "source_query": "Irrigation Equipment",
    "source_country": "PL",
    "country": "Poland",
    "state": "Greater Poland Voivodeship",
    "city": "Powiat międzychodzki"
  },
  {
    "source_id": "ChIJed5RM0mXBkcR2XzrlwEYBGc",
    "name": "Hydraulik - Instalatorstwo Sanitarne Grzewcze i Gazowe Adrian Bogdan",
    "category": "Hydraulik - Instalatorstwo Sanitarne Grzewcze i Gazowe Adrian Bogdan",
    "formatted_address": "",
    "phone_number": "+48603229234",
    "source_url": "https://www.google.com/maps/place/Hydraulik+-+Instalatorstwo+Sanitarne+Grzewcze+i+Gazowe+Adrian+Bogdan/data=!4m7!3m6!1s0x470697493351de79:0x6704180197eb7cd9!8m2!3d52.6046893!4d15.8999532!16s%2Fg%2F11shs_4qyc!19sChIJed5RM0mXBkcR2XzrlwEYBGc?authuser=0&hl=tr&rclk=1",
    "website_url": "",
    "rating_text": "",
    "stars": null,
    "number_of_reviews": null,
    "price_level": "",
    "open_hours": "",
    "extraction_timestamp": "2025-06-07T17:30:50.327Z",
    "source_name": "google",
    "source_query": "Irrigation Equipment",
    "source_country": "PL",
    "country": "Poland",
    "state": "Greater Poland Voivodeship",
    "city": "Powiat międzychodzki"
  },
  {
    "source_id": "ChIJ27sk59iXBkcRzsFmPecCaGU",
    "name": "TEMA filia Międzychód",
    "category": "TEMA filia Międzychód",
    "formatted_address": "4,9(34)",
    "phone_number": "+48532465249",
    "source_url": "https://www.google.com/maps/place/TEMA+filia+Mi%C4%99dzych%C3%B3d/data=!4m7!3m6!1s0x470697d8e724bbdb:0x656802e73d66c1ce!8m2!3d52.6056669!4d15.911109!16s%2Fg%2F11hzzwwv4k!19sChIJ27sk59iXBkcRzsFmPecCaGU?authuser=0&hl=tr&rclk=1",
    "website_url": "",
    "rating_text": "4,9",
    "stars": null,
    "number_of_reviews": null,
    "price_level": "",
    "open_hours": "",
    "extraction_timestamp": "2025-06-07T17:30:50.328Z",
    "source_name": "google",
    "source_query": "Irrigation Equipment",
    "source_country": "PL",
    "country": "Poland",
    "state": "Greater Poland Voivodeship",
    "city": "Powiat międzychodzki"
  },
  {
    "source_id": "ChIJi0K-DOyWBkcRGq10VZ8_ivs",
    "name": "F Sprzątająca \"AMELIA\"",
    "category": "F Sprzątająca \"AMELIA\"",
    "formatted_address": "4,9(94)",
    "phone_number": "+48660459965",
    "source_url": "https://www.google.com/maps/place/F+Sprz%C4%85taj%C4%85ca+%22AMELIA%22/data=!4m7!3m6!1s0x470696ec0cbe428b:0xfb8a3f9f5574ad1a!8m2!3d52.605328!4d15.896307!16s%2Fg%2F1ptxdl_9p!19sChIJi0K-DOyWBkcRGq10VZ8_ivs?authuser=0&hl=tr&rclk=1",
    "website_url": "",
    "rating_text": "4,9",
    "stars": null,
    "number_of_reviews": null,
    "price_level": "",
    "open_hours": "",
    "extraction_timestamp": "2025-06-07T17:30:50.329Z",
    "source_name": "google",
    "source_query": "Irrigation Equipment",
    "source_country": "PL",
    "country": "Poland",
    "state": "Greater Poland Voivodeship",
    "city": "Powiat międzychodzki"
  },
  {
    "source_id": "ChIJQ5qlC--WBkcRvar_Oovcos8",
    "name": "Elektrosystemy Jakub Jacek Wylegała",
    "category": "Elektrosystemy Jakub Jacek Wylegała",
    "formatted_address": "5,0(1)",
    "phone_number": "+48792022880",
    "source_url": "https://www.google.com/maps/place/Elektrosystemy+Jakub+Jacek+Wylega%C5%82a/data=!4m7!3m6!1s0x470696ef0ba59a43:0xcfa2dc8b3affaabd!8m2!3d52.3332811!4d15.1853636!16s%2Fg%2F11bw77w45f!19sChIJQ5qlC--WBkcRvar_Oovcos8?authuser=0&hl=tr&rclk=1",
    "website_url": "",
    "rating_text": "5,0",
    "stars": null,
    "number_of_reviews": null,
    "price_level": "",
    "open_hours": "",
    "extraction_timestamp": "2025-06-07T17:30:50.330Z",
    "source_name": "google",
    "source_query": "Irrigation Equipment",
    "source_country": "PL",
    "country": "Poland",
    "state": "Greater Poland Voivodeship",
    "city": "Powiat międzychodzki"
  },
  {
    "source_id": "ChIJzW14RmaXBkcR2bx-6hjXLho",
    "name": "Imparts - your car parts supplier - sprzedajemy części samochodowe, zderzaki, kratki zderzaków, grille",
    "category": "Imparts - your car parts supplier - sprzedajemy części samochodowe, zderzaki, kratki zderzaków, grille",
    "formatted_address": "Imparts - your car parts supplier - sprzedajemy części samochodowe, zderzaki, kratki zderzaków, grille",
    "phone_number": "+48668347177",
    "source_url": "https://www.google.com/maps/place/Imparts+-+your+car+parts+supplier+-+sprzedajemy+cz%C4%99%C5%9Bci+samochodowe,+zderzaki,+kratki+zderzak%C3%B3w,+grille/data=!4m7!3m6!1s0x4706976646786dcd:0x1a2ed718ea7ebcd9!8m2!3d52.6058151!4d15.8945722!16s%2Fg%2F11q7bhstst!19sChIJzW14RmaXBkcR2bx-6hjXLho?authuser=0&hl=tr&rclk=1",
    "website_url": "",
    "rating_text": "4,6",
    "stars": null,
    "number_of_reviews": null,
    "price_level": "",
    "open_hours": "",
    "extraction_timestamp": "2025-06-07T17:30:50.331Z",
    "source_name": "google",
    "source_query": "Irrigation Equipment",
    "source_country": "PL",
    "country": "Poland",
    "state": "Greater Poland Voivodeship",
    "city": "Powiat międzychodzki"
  },
  {
    "source_id": "ChIJjwIjguuWBkcRazTtkLyXlk0",
    "name": "Miller Ewa i Aleksandra. Sklep ogrodniczy s.c.",
    "category": "Miller Ewa i Aleksandra. Sklep ogrodniczy s.c.",
    "formatted_address": "4,8(6)",
    "phone_number": "+48957489037",
    "source_url": "https://www.google.com/maps/place/Miller+Ewa+i+Aleksandra.+Sklep+ogrodniczy+s.c./data=!4m7!3m6!1s0x470696eb8223028f:0x4d9697bc90ed346b!8m2!3d52.6051254!4d15.8941909!16s%2Fg%2F1tywwnnj!19sChIJjwIjguuWBkcRazTtkLyXlk0?authuser=0&hl=tr&rclk=1",
    "website_url": "",
    "rating_text": "4,8",
    "stars": null,
    "number_of_reviews": null,
    "price_level": "",
    "open_hours": "",
    "extraction_timestamp": "2025-06-07T17:30:50.331Z",
    "source_name": "google",
    "source_query": "Irrigation Equipment",
    "source_country": "PL",
    "country": "Poland",
    "state": "Greater Poland Voivodeship",
    "city": "Powiat międzychodzki"
  },
  {
    "source_id": "ChIJ8e0YOZqFBkcRSq7QjXhVwyg",
    "name": "Sufity napinany Viacheslav Trieskin",
    "category": "Sufity napinany Viacheslav Trieskin",
    "formatted_address": "5,0(1)",
    "phone_number": "+48577322377",
    "source_url": "https://www.google.com/maps/place/Sufity+napinany+Viacheslav+Trieskin/data=!4m7!3m6!1s0x4706859a3918edf1:0x28c355788dd0ae4a!8m2!3d52.472246!4d15.977651!16s%2Fg%2F11wntzy5zj!19sChIJ8e0YOZqFBkcRSq7QjXhVwyg?authuser=0&hl=tr&rclk=1",
    "website_url": "",
    "rating_text": "5,0",
    "stars": null,
    "number_of_reviews": null,
    "price_level": "",
    "open_hours": "",
    "extraction_timestamp": "2025-06-07T17:30:50.332Z",
    "source_name": "google",
    "source_query": "Irrigation Equipment",
    "source_country": "PL",
    "country": "Poland",
    "state": "Greater Poland Voivodeship",
    "city": "Powiat międzychodzki"
  },
  {
    "source_id": "ChIJAcAj0XuiBkcR5KXn5Rpe2FE",
    "name": "Agro-Plon",
    "category": "Agro-Plon",
    "formatted_address": "4,7(22)",
    "phone_number": "+48612952328",
    "source_url": "https://www.google.com/maps/place/Agro-Plon/data=!4m7!3m6!1s0x4706a27bd123c001:0x51d85e1ae5e7a5e4!8m2!3d52.644913!4d16.087214!16s%2Fg%2F1vgw7bbd!19sChIJAcAj0XuiBkcR5KXn5Rpe2FE?authuser=0&hl=tr&rclk=1",
    "website_url": "",
    "rating_text": "4,7",
    "stars": null,
    "number_of_reviews": null,
    "price_level": "",
    "open_hours": "",
    "extraction_timestamp": "2025-06-07T17:30:50.333Z",
    "source_name": "google",
    "source_query": "Irrigation Equipment",
    "source_country": "PL",
    "country": "Poland",
    "state": "Greater Poland Voivodeship",
    "city": "Powiat międzychodzki"
  },
  {
    "source_id": "ChIJZYZteiqXBkcRZ0F9pJtjHJs",
    "name": "Przedsiębiorstwo Usługowe AM arbo Aleksander Mamet",
    "category": "Przedsiębiorstwo Usługowe AM arbo Aleksander Mamet",
    "formatted_address": "",
    "phone_number": "+48606895159",
    "source_url": "https://www.google.com/maps/place/Przedsi%C4%99biorstwo+Us%C5%82ugowe+AM+arbo+Aleksander+Mamet/data=!4m7!3m6!1s0x4706972a7a6d8665:0x9b1c639ba47d4167!8m2!3d52.5972215!4d15.8914459!16s%2Fg%2F11tsj_yn9t!19sChIJZYZteiqXBkcRZ0F9pJtjHJs?authuser=0&hl=tr&rclk=1",
    "website_url": "",
    "rating_text": "",
    "stars": null,
    "number_of_reviews": null,
    "price_level": "",
    "open_hours": "",
    "extraction_timestamp": "2025-06-07T17:30:50.335Z",
    "source_name": "google",
    "source_query": "Irrigation Equipment",
    "source_country": "PL",
    "country": "Poland",
    "state": "Greater Poland Voivodeship",
    "city": "Powiat międzychodzki"
  },
  {
    "source_id": "ChIJL1IyNNQmBEcR5GFfDUXL7ko",
    "name": "KACZMAREK \"MAJSTER\"",
    "category": "KACZMAREK \"MAJSTER\"",
    "formatted_address": "4,8(435)",
    "phone_number": "+48612911556",
    "source_url": "https://www.google.com/maps/place/KACZMAREK+%22MAJSTER%22/data=!4m7!3m6!1s0x470426d43432522f:0x4aeecb450d5f61e4!8m2!3d52.521949!4d16.266327!16s%2Fg%2F1tngnzvb!19sChIJL1IyNNQmBEcR5GFfDUXL7ko?authuser=0&hl=tr&rclk=1",
    "website_url": "",
    "rating_text": "4,8",
    "stars": null,
    "number_of_reviews": null,
    "price_level": "",
    "open_hours": "",
    "extraction_timestamp": "2025-06-07T17:30:50.335Z",
    "source_name": "google",
    "source_query": "Irrigation Equipment",
    "source_country": "PL",
    "country": "Poland",
    "state": "Greater Poland Voivodeship",
    "city": "Powiat międzychodzki"
  },
  {
    "source_id": "ChIJpzNJe-eWBkcRCpTC7EGJdts",
    "name": "PSB Mrówka",
    "category": "PSB Mrówka",
    "formatted_address": "3,9(560)",
    "phone_number": "+48602745865",
    "source_url": "https://www.google.com/maps/place/PSB+Mr%C3%B3wka/data=!4m7!3m6!1s0x470696e77b4933a7:0xdb768941ecc2940a!8m2!3d52.598358!4d15.9071628!16s%2Fg%2F1hc0zqbf7!19sChIJpzNJe-eWBkcRCpTC7EGJdts?authuser=0&hl=tr&rclk=1",
    "website_url": "",
    "rating_text": "3,9",
    "stars": null,
    "number_of_reviews": null,
    "price_level": "",
    "open_hours": "",
    "extraction_timestamp": "2025-06-07T17:30:50.336Z",
    "source_name": "google",
    "source_query": "Irrigation Equipment",
    "source_country": "PL",
    "country": "Poland",
    "state": "Greater Poland Voivodeship",
    "city": "Powiat międzychodzki"
  },
  {
    "source_id": "ChIJ0TLxt8GWBkcRhJjL8BvePQs",
    "name": "Intermarche",
    "category": "Intermarche",
    "formatted_address": "3,8(696)",
    "phone_number": "+48957488910",
    "source_url": "https://www.google.com/maps/place/Intermarche/data=!4m7!3m6!1s0x470696c1b7f132d1:0xb3dde1bf0cb9884!8m2!3d52.5988567!4d15.8906747!16s%2Fg%2F1hc5pnb_b!19sChIJ0TLxt8GWBkcRhJjL8BvePQs?authuser=0&hl=tr&rclk=1",
    "website_url": "",
    "rating_text": "3,8",
    "stars": null,
    "number_of_reviews": null,
    "price_level": "",
    "open_hours": "",
    "extraction_timestamp": "2025-06-07T17:30:50.337Z",
    "source_name": "google",
    "source_query": "Irrigation Equipment",
    "source_country": "PL",
    "country": "Poland",
    "state": "Greater Poland Voivodeship",
    "city": "Powiat międzychodzki"
  },
  {
    "source_id": "ChIJQYZYU_daBEcRrc4mt6dBBko",
    "name": "HYDROGLOBAL - Przemyślane rozwiązania dla ujęć wody",
    "category": "HYDROGLOBAL - Przemyślane rozwiązania dla ujęć wody",
    "formatted_address": "4,5(8)",
    "phone_number": "+48612785475",
    "source_url": "https://www.google.com/maps/place/HYDROGLOBAL+-+Przemy%C5%9Blane+rozwi%C4%85zania+dla+uj%C4%99%C4%87+wody/data=!4m7!3m6!1s0x47045af753588641:0x4a0641a7b726cead!8m2!3d52.4872791!4d16.8563292!16s%2Fg%2F1wzt11_h!19sChIJQYZYU_daBEcRrc4mt6dBBko?authuser=0&hl=tr&rclk=1",
    "website_url": "",
    "rating_text": "4,5",
    "stars": null,
    "number_of_reviews": null,
    "price_level": "",
    "open_hours": "",
    "extraction_timestamp": "2025-06-07T17:30:50.338Z",
    "source_name": "google",
    "source_query": "Irrigation Equipment",
    "source_country": "PL",
    "country": "Poland",
    "state": "Greater Poland Voivodeship",
    "city": "Powiat międzychodzki"
  },
  {
    "source_id": "ChIJv20qMYJXBkcRKwtw9ue3t98",
    "name": "Wypożyczalnia rowerów wodnych i kajaków \"u Szpaka\"",
    "category": "Wypożyczalnia rowerów wodnych i kajaków \"u Szpaka\"",
    "formatted_address": "5,0(34)",
    "phone_number": "+48505646873",
    "source_url": "https://www.google.com/maps/place/Wypo%C5%BCyczalnia+rower%C3%B3w+wodnych+i+kajak%C3%B3w+%22u+Szpaka%22/data=!4m7!3m6!1s0x47065782312a6dbf:0xdfb7b7e7f6700b2b!8m2!3d52.3327884!4d15.2865811!16s%2Fg%2F11q25nqpns!19sChIJv20qMYJXBkcRKwtw9ue3t98?authuser=0&hl=tr&rclk=1",
    "website_url": "",
    "rating_text": "5,0",
    "stars": null,
    "number_of_reviews": null,
    "price_level": "",
    "open_hours": "",
    "extraction_timestamp": "2025-06-07T17:30:50.339Z",
    "source_name": "google",
    "source_query": "Irrigation Equipment",
    "source_country": "PL",
    "country": "Poland",
    "state": "Greater Poland Voivodeship",
    "city": "Powiat międzychodzki"
  },
  {
    "source_id": "ChIJPTVQ-mpXBkcRg78UhjWL0AA",
    "name": "Wypożyczalnia rowerów wodnych \"ORKA\"",
    "category": "Wypożyczalnia rowerów wodnych \"ORKA\"",
    "formatted_address": "4,3(17)",
    "phone_number": "",
    "source_url": "https://www.google.com/maps/place/Wypo%C5%BCyczalnia+rower%C3%B3w+wodnych+%22ORKA%22/data=!4m7!3m6!1s0x4706576afa50353d:0xd08b358614bf83!8m2!3d52.3342836!4d15.2877276!16s%2Fg%2F12qgh7281!19sChIJPTVQ-mpXBkcRg78UhjWL0AA?authuser=0&hl=tr&rclk=1",
    "website_url": "",
    "rating_text": "4,3",
    "stars": null,
    "number_of_reviews": null,
    "price_level": "",
    "open_hours": "",
    "extraction_timestamp": "2025-06-07T17:30:50.340Z",
    "source_name": "google",
    "source_query": "Irrigation Equipment",
    "source_country": "PL",
    "country": "Poland",
    "state": "Greater Poland Voivodeship",
    "city": "Powiat międzychodzki"
  },
  {
    "source_id": "ChIJwxC1X09EBEcRLzaLJfk4rD8",
    "name": "OASE - Oczko Wodne Polski Autoryzowany Sklep internetowy Złoty Przedstawiciel Nawadnianie Podlewanie Hunter, Raibird,Rossi",
    "category": "OASE - Oczko Wodne Polski Autoryzowany Sklep internetowy Złoty Przedstawiciel Nawadnianie Podlewanie Hunter, Raibird,Rossi",
    "formatted_address": "OASE - Oczko Wodne Polski Autoryzowany Sklep internetowy Złoty Przedstawiciel Nawadnianie Podlewanie Hunter, Raibird,Rossi",
    "phone_number": "+48618842498",
    "source_url": "https://www.google.com/maps/place/OASE+-+Oczko+Wodne+Polski+Autoryzowany+Sklep+internetowy+Z%C5%82oty+Przedstawiciel+Nawadnianie+Podlewanie+Hunter,+Raibird,Rossi/data=!4m7!3m6!1s0x4704444f5fb510c3:0x3fac38f9258b362f!8m2!3d52.4364533!4d16.8327227!16s%2Fg%2F1hc96cvd0!19sChIJwxC1X09EBEcRLzaLJfk4rD8?authuser=0&hl=tr&rclk=1",
    "website_url": "",
    "rating_text": "4,6",
    "stars": null,
    "number_of_reviews": null,
    "price_level": "",
    "open_hours": "",
    "extraction_timestamp": "2025-06-07T17:30:50.340Z",
    "source_name": "google",
    "source_query": "Irrigation Equipment",
    "source_country": "PL",
    "country": "Poland",
    "state": "Greater Poland Voivodeship",
    "city": "Powiat międzychodzki"
  },
  {
    "source_id": "ChIJz4uaVtfzBkcRxEBJnXRroqM",
    "name": "Sklep rolniczo-techniczny Powered by Kramp Międzyrzecz",
    "category": "Sklep rolniczo-techniczny Powered by Kramp Międzyrzecz",
    "formatted_address": "4,3(48)",
    "phone_number": "+48697995865",
    "source_url": "https://www.google.com/maps/place/Sklep+rolniczo-techniczny+Powered+by+Kramp+Mi%C4%99dzyrzecz/data=!4m7!3m6!1s0x4706f3d7569a8bcf:0xa3a26b749d4940c4!8m2!3d52.4481044!4d15.5794039!16s%2Fg%2F11f8l3qssx!19sChIJz4uaVtfzBkcRxEBJnXRroqM?authuser=0&hl=tr&rclk=1",
    "website_url": "",
    "rating_text": "4,3",
    "stars": null,
    "number_of_reviews": null,
    "price_level": "",
    "open_hours": "",
    "extraction_timestamp": "2025-06-07T17:30:50.341Z",
    "source_name": "google",
    "source_query": "Irrigation Equipment",
    "source_country": "PL",
    "country": "Poland",
    "state": "Greater Poland Voivodeship",
    "city": "Powiat międzychodzki"
  },
  {
    "source_id": "ChIJZTUkncv7BEcRsv-FuPvJd0E",
    "name": "TEST INSTALACJE – Hurtownia instalacyjna Środa Wielkopolska",
    "category": "TEST INSTALACJE – Hurtownia instalacyjna Środa Wielkopolska",
    "formatted_address": "4,1(20)",
    "phone_number": "+48612856282",
    "source_url": "https://www.google.com/maps/place/TEST+INSTALACJE+%E2%80%93+Hurtownia+instalacyjna+%C5%9Aroda+Wielkopolska/data=!4m7!3m6!1s0x4704fbcb9d243565:0x4177c9fbb885ffb2!8m2!3d52.2386542!4d17.2761103!16s%2Fg%2F11n0p8cszw!19sChIJZTUkncv7BEcRsv-FuPvJd0E?authuser=0&hl=tr&rclk=1",
    "website_url": "",
    "rating_text": "4,1",
    "stars": null,
    "number_of_reviews": null,
    "price_level": "",
    "open_hours": "",
    "extraction_timestamp": "2025-06-07T17:30:50.342Z",
    "source_name": "google",
    "source_query": "Irrigation Equipment",
    "source_country": "PL",
    "country": "Poland",
    "state": "Greater Poland Voivodeship",
    "city": "Powiat międzychodzki"
  },
  {
    "source_id": "ChIJtWcFLp3pBEcRLsKDqolJIng",
    "name": "TEST INSTALACJE – Hurtownia instalacyjna Września",
    "category": "TEST INSTALACJE – Hurtownia instalacyjna Września",
    "formatted_address": "4,7(33)",
    "phone_number": "+48616394733",
    "source_url": "https://www.google.com/maps/place/TEST+INSTALACJE+%E2%80%93+Hurtownia+instalacyjna+Wrze%C5%9Bnia/data=!4m7!3m6!1s0x4704e99d2e0567b5:0x78224989aa83c22e!8m2!3d52.3216706!4d17.5802512!16s%2Fg%2F11c50569y3!19sChIJtWcFLp3pBEcRLsKDqolJIng?authuser=0&hl=tr&rclk=1",
    "website_url": "",
    "rating_text": "4,7",
    "stars": null,
    "number_of_reviews": null,
    "price_level": "",
    "open_hours": "",
    "extraction_timestamp": "2025-06-07T17:30:50.343Z",
    "source_name": "google",
    "source_query": "Irrigation Equipment",
    "source_country": "PL",
    "country": "Poland",
    "state": "Greater Poland Voivodeship",
    "city": "Powiat międzychodzki"
  },
  {
    "source_id": "ChIJlVYN-SyUBkcR7xY6WYkOEl8",
    "name": "Plaża OW Mierzyn",
    "category": "Plaża OW Mierzyn",
    "formatted_address": "4,6(925)",
    "phone_number": "",
    "source_url": "https://www.google.com/maps/place/Pla%C5%BCa+OW+Mierzyn/data=!4m7!3m6!1s0x4706942cf90d5695:0x5f120e89593a16ef!8m2!3d52.6243978!4d15.8576229!16s%2Fg%2F1ptyc2n4g!19sChIJlVYN-SyUBkcR7xY6WYkOEl8?authuser=0&hl=tr&rclk=1",
    "website_url": "",
    "rating_text": "4,6",
    "stars": null,
    "number_of_reviews": null,
    "price_level": "",
    "open_hours": "",
    "extraction_timestamp": "2025-06-07T17:30:50.343Z",
    "source_name": "google",
    "source_query": "Irrigation Equipment",
    "source_country": "PL",
    "country": "Poland",
    "state": "Greater Poland Voivodeship",
    "city": "Powiat międzychodzki"
  },
  {
    "source_id": "ChIJt4upsbo4BEcRWkUl8Qt9ryw",
    "name": "Barenbrug Polska Sp. z o.o.",
    "category": "Barenbrug Polska Sp. z o.o.",
    "formatted_address": "4,2(9)",
    "phone_number": "+48618164133",
    "source_url": "https://www.google.com/maps/place/Barenbrug+Polska+Sp.+z+o.o./data=!4m7!3m6!1s0x470438bab1a98bb7:0x2caf7d0bf125455a!8m2!3d52.4567446!4d16.6538235!16s%2Fg%2F1w97t2lf!19sChIJt4upsbo4BEcRWkUl8Qt9ryw?authuser=0&hl=tr&rclk=1",
    "website_url": "",
    "rating_text": "4,2",
    "stars": null,
    "number_of_reviews": null,
    "price_level": "",
    "open_hours": "",
    "extraction_timestamp": "2025-06-07T17:30:50.344Z",
    "source_name": "google",
    "source_query": "Irrigation Equipment",
    "source_country": "PL",
    "country": "Poland",
    "state": "Greater Poland Voivodeship",
    "city": "Powiat międzychodzki"
  },
  {
    "source_id": "ChIJo-OyfKKYBkcRGjdJChCQqXg",
    "name": "Plaża nad Jeziorem Jaroszewskim",
    "category": "Plaża nad Jeziorem Jaroszewskim",
    "formatted_address": "4,5(931)",
    "phone_number": "",
    "source_url": "https://www.google.com/maps/place/Pla%C5%BCa+nad+Jeziorem+Jaroszewskim/data=!4m7!3m6!1s0x470698a27cb2e3a3:0x78a990100a49371a!8m2!3d52.6293408!4d16.0998869!16s%2Fg%2F11c46dtn3w!19sChIJo-OyfKKYBkcRGjdJChCQqXg?authuser=0&hl=tr&rclk=1",
    "website_url": "",
    "rating_text": "4,5",
    "stars": null,
    "number_of_reviews": null,
    "price_level": "",
    "open_hours": "",
    "extraction_timestamp": "2025-06-07T17:30:50.344Z",
    "source_name": "google",
    "source_query": "Irrigation Equipment",
    "source_country": "PL",
    "country": "Poland",
    "state": "Greater Poland Voivodeship",
    "city": "Powiat międzychodzki"
  }
]
