[
  {
    "source_id": "ChIJtWcFLp3pBEcRLsKDqolJIng",
    "name": "TEST INSTALACJE – Hurtownia instalacyjna Września",
    "category": "TEST INSTALACJE – Hurtownia instalacyjna Września",
    "formatted_address": "4,7(33)",
    "phone_number": "+48616394733",
    "source_url": "https://www.google.com/maps/place/TEST+INSTALACJE+%E2%80%93+Hurtownia+instalacyjna+Wrze%C5%9Bnia/data=!4m7!3m6!1s0x4704e99d2e0567b5:0x78224989aa83c22e!8m2!3d52.3216706!4d17.5802512!16s%2Fg%2F11c50569y3!19sChIJtWcFLp3pBEcRLsKDqolJIng?authuser=0&hl=tr&rclk=1",
    "website_url": "",
    "rating_text": "4,7",
    "stars": null,
    "number_of_reviews": null,
    "price_level": "",
    "open_hours": "",
    "extraction_timestamp": "2025-06-07T17:17:47.805Z",
    "source_name": "google",
    "source_query": "Irrigation Equipment",
    "source_country": "PL",
    "country": "Poland",
    "state": "Greater Poland Voivodeship",
    "city": "Powiat wrzesiński"
  },
  {
    "source_id": "ChIJUSGWQVrpBEcRLccfSz-unUU",
    "name": "EFLI GROUP Spółka z ograniczoną odpowiedzialnością Spółka komandytowa Oddział Września",
    "category": "EFLI GROUP Spółka z ograniczoną odpowiedzialnością Spółka komandytowa Oddział Września",
    "formatted_address": "5,0(8)",
    "phone_number": "+48690033779",
    "source_url": "https://www.google.com/maps/place/EFLI+GROUP+Sp%C3%B3%C5%82ka+z+ograniczon%C4%85+odpowiedzialno%C5%9Bci%C4%85+Sp%C3%B3%C5%82ka+komandytowa+Oddzia%C5%82+Wrze%C5%9Bnia/data=!4m7!3m6!1s0x4704e95a41962151:0x459dae3f4b1fc72d!8m2!3d52.3242893!4d17.5736504!16s%2Fg%2F11h06l2xl1!19sChIJUSGWQVrpBEcRLccfSz-unUU?authuser=0&hl=tr&rclk=1",
    "website_url": "",
    "rating_text": "5,0",
    "stars": null,
    "number_of_reviews": null,
    "price_level": "",
    "open_hours": "",
    "extraction_timestamp": "2025-06-07T17:17:47.807Z",
    "source_name": "google",
    "source_query": "Irrigation Equipment",
    "source_country": "PL",
    "country": "Poland",
    "state": "Greater Poland Voivodeship",
    "city": "Powiat wrzesiński"
  },
  {
    "source_id": "ChIJwydVKWPpBEcRoRP0MAlOvEs",
    "name": "Metaltech Września Tomasz Jaśkiewicz",
    "category": "Metaltech Września Tomasz Jaśkiewicz",
    "formatted_address": "4,8(41)",
    "phone_number": "+48501295683",
    "source_url": "https://www.google.com/maps/place/Metaltech+Wrze%C5%9Bnia+Tomasz+Ja%C5%9Bkiewicz/data=!4m7!3m6!1s0x4704e963295527c3:0x4bbc4e0930f413a1!8m2!3d52.311359!4d17.5672473!16s%2Fg%2F1ptwwglf3!19sChIJwydVKWPpBEcRoRP0MAlOvEs?authuser=0&hl=tr&rclk=1",
    "website_url": "",
    "rating_text": "4,8",
    "stars": null,
    "number_of_reviews": null,
    "price_level": "",
    "open_hours": "",
    "extraction_timestamp": "2025-06-07T17:17:47.808Z",
    "source_name": "google",
    "source_query": "Irrigation Equipment",
    "source_country": "PL",
    "country": "Poland",
    "state": "Greater Poland Voivodeship",
    "city": "Powiat wrzesiński"
  },
  {
    "source_id": "ChIJR2e_iu_dBEcRHayvDq1P5bs",
    "name": "GeoEnergia Września - Fotowoltaika • Klimatyzacje • Pompy Ciepla",
    "category": "GeoEnergia Września - Fotowoltaika • Klimatyzacje • Pompy Ciepla",
    "formatted_address": "5,0(34)",
    "phone_number": "+48720720466",
    "source_url": "https://www.google.com/maps/place/GeoEnergia+Wrze%C5%9Bnia+-+Fotowoltaika+%E2%80%A2+Klimatyzacje+%E2%80%A2+Pompy+Ciepla/data=!4m7!3m6!1s0x4704ddef8abf6747:0xbbe54fad0eafac1d!8m2!3d52.2034419!4d17.6542439!16s%2Fg%2F11m89spxgq!19sChIJR2e_iu_dBEcRHayvDq1P5bs?authuser=0&hl=tr&rclk=1",
    "website_url": "",
    "rating_text": "5,0",
    "stars": null,
    "number_of_reviews": null,
    "price_level": "",
    "open_hours": "",
    "extraction_timestamp": "2025-06-07T17:17:47.810Z",
    "source_name": "google",
    "source_query": "Irrigation Equipment",
    "source_country": "PL",
    "country": "Poland",
    "state": "Greater Poland Voivodeship",
    "city": "Powiat wrzesiński"
  },
  {
    "source_id": "ChIJz8lB9HPpBEcR6_fpiBQcgi4",
    "name": "HYDRAULIKA - KOTŁY C.O. - Łazienki",
    "category": "HYDRAULIKA - KOTŁY C.O. - Łazienki",
    "formatted_address": "5,0(2)",
    "phone_number": "+48503141577",
    "source_url": "https://www.google.com/maps/place/HYDRAULIKA+-+KOT%C5%81Y+C.O.+-+%C5%81azienki/data=!4m7!3m6!1s0x4704e973f441c9cf:0x2e821c1488e9f7eb!8m2!3d52.3176456!4d17.5658203!16s%2Fg%2F11vwxt1fjc!19sChIJz8lB9HPpBEcR6_fpiBQcgi4?authuser=0&hl=tr&rclk=1",
    "website_url": "",
    "rating_text": "5,0",
    "stars": null,
    "number_of_reviews": null,
    "price_level": "",
    "open_hours": "",
    "extraction_timestamp": "2025-06-07T17:17:47.811Z",
    "source_name": "google",
    "source_query": "Irrigation Equipment",
    "source_country": "PL",
    "country": "Poland",
    "state": "Greater Poland Voivodeship",
    "city": "Powiat wrzesiński"
  },
  {
    "source_id": "ChIJY6jnt2_pBEcRVU24_gZ7dl4",
    "name": "Sklep rolniczo-techniczny Powered by Kramp Września",
    "category": "Sklep rolniczo-techniczny Powered by Kramp Września",
    "formatted_address": "4,4(51)",
    "phone_number": "+48601900530",
    "source_url": "https://www.google.com/maps/place/Sklep+rolniczo-techniczny+Powered+by+Kramp+Wrze%C5%9Bnia/data=!4m7!3m6!1s0x4704e96fb7e7a863:0x5e767b06feb84d55!8m2!3d52.322331!4d17.5592388!16s%2Fg%2F1v1knkmm!19sChIJY6jnt2_pBEcRVU24_gZ7dl4?authuser=0&hl=tr&rclk=1",
    "website_url": "",
    "rating_text": "4,4",
    "stars": null,
    "number_of_reviews": null,
    "price_level": "",
    "open_hours": "",
    "extraction_timestamp": "2025-06-07T17:17:47.813Z",
    "source_name": "google",
    "source_query": "Irrigation Equipment",
    "source_country": "PL",
    "country": "Poland",
    "state": "Greater Poland Voivodeship",
    "city": "Powiat wrzesiński"
  },
  {
    "source_id": "ChIJxY8ZL1XtBEcR8OOmh8hwkd0",
    "name": "MAGMAR MURAWY |Pielęgnacja muraw| Pielęgnacja boisk| Budowa boisk",
    "category": "MAGMAR MURAWY |Pielęgnacja muraw| Pielęgnacja boisk| Budowa boisk",
    "formatted_address": "5,0(33)",
    "phone_number": "+48696065016",
    "source_url": "https://www.google.com/maps/place/MAGMAR+MURAWY+%7CPiel%C4%99gnacja+muraw%7C+Piel%C4%99gnacja+boisk%7C+Budowa+boisk/data=!4m7!3m6!1s0x4704ed552f198fc5:0xdd9170c887a6e3f0!8m2!3d52.4291858!4d17.4828694!16s%2Fg%2F11lm4pnqrb!19sChIJxY8ZL1XtBEcR8OOmh8hwkd0?authuser=0&hl=tr&rclk=1",
    "website_url": "",
    "rating_text": "5,0",
    "stars": null,
    "number_of_reviews": null,
    "price_level": "",
    "open_hours": "",
    "extraction_timestamp": "2025-06-07T17:17:47.814Z",
    "source_name": "google",
    "source_query": "Irrigation Equipment",
    "source_country": "PL",
    "country": "Poland",
    "state": "Greater Poland Voivodeship",
    "city": "Powiat wrzesiński"
  },
  {
    "source_id": "ChIJr5GgcqDpBEcRX5oArEL7jOY",
    "name": "WODCOGAZ Fibikowski Salon Łazienek",
    "category": "WODCOGAZ Fibikowski Salon Łazienek",
    "formatted_address": "4,3(15)",
    "phone_number": "+48614389169",
    "source_url": "https://www.google.com/maps/place/WODCOGAZ+Fibikowski+Salon+%C5%81azienek/data=!4m7!3m6!1s0x4704e9a072a091af:0xe68cfb42ac009a5f!8m2!3d52.3107524!4d17.5714342!16s%2Fg%2F1pv00z3x7!19sChIJr5GgcqDpBEcRX5oArEL7jOY?authuser=0&hl=tr&rclk=1",
    "website_url": "",
    "rating_text": "4,3",
    "stars": null,
    "number_of_reviews": null,
    "price_level": "",
    "open_hours": "",
    "extraction_timestamp": "2025-06-07T17:17:47.816Z",
    "source_name": "google",
    "source_query": "Irrigation Equipment",
    "source_country": "PL",
    "country": "Poland",
    "state": "Greater Poland Voivodeship",
    "city": "Powiat wrzesiński"
  },
  {
    "source_id": "ChIJ24WMplPDBEcR6jeWyN6_bfg",
    "name": "MatKam Mateusz Krotoszyński",
    "category": "MatKam Mateusz Krotoszyński",
    "formatted_address": "4,6(9)",
    "phone_number": "+48516447591",
    "source_url": "https://www.google.com/maps/place/MatKam+Mateusz+Krotoszy%C5%84ski/data=!4m7!3m6!1s0x4704c353a68c85db:0xf86dbfdec89637ea!8m2!3d52.2911005!4d17.6440742!16s%2Fg%2F11ts3hgw80!19sChIJ24WMplPDBEcR6jeWyN6_bfg?authuser=0&hl=tr&rclk=1",
    "website_url": "",
    "rating_text": "4,6",
    "stars": null,
    "number_of_reviews": null,
    "price_level": "",
    "open_hours": "",
    "extraction_timestamp": "2025-06-07T17:17:47.817Z",
    "source_name": "google",
    "source_query": "Irrigation Equipment",
    "source_country": "PL",
    "country": "Poland",
    "state": "Greater Poland Voivodeship",
    "city": "Powiat wrzesiński"
  },
  {
    "source_id": "ChIJ06OP5HrpBEcRi3IXcRgNVP8",
    "name": "PHU \"POLIMAX\" Paweł Lipiecki naprawa pomp głębinowych i silników elektrycznych",
    "category": "PHU \"POLIMAX\" Paweł Lipiecki naprawa pomp głębinowych i silników elektrycznych",
    "formatted_address": "4,7(3)",
    "phone_number": "+48608319950",
    "source_url": "https://www.google.com/maps/place/PHU+%22POLIMAX%22+Pawe%C5%82+Lipiecki+naprawa+pomp+g%C5%82%C4%99binowych+i+silnik%C3%B3w+elektrycznych/data=!4m7!3m6!1s0x4704e97ae48fa3d3:0xff540d187117728b!8m2!3d52.3263327!4d17.5662714!16s%2Fg%2F1tdzvdyh!19sChIJ06OP5HrpBEcRi3IXcRgNVP8?authuser=0&hl=tr&rclk=1",
    "website_url": "",
    "rating_text": "4,7",
    "stars": null,
    "number_of_reviews": null,
    "price_level": "",
    "open_hours": "",
    "extraction_timestamp": "2025-06-07T17:17:47.819Z",
    "source_name": "google",
    "source_query": "Irrigation Equipment",
    "source_country": "PL",
    "country": "Poland",
    "state": "Greater Poland Voivodeship",
    "city": "Powiat wrzesiński"
  },
  {
    "source_id": "ChIJDf27jVjpBEcR5IzLt_QIpzU",
    "name": "Sklep instalacyjny AD-MAR plus",
    "category": "Sklep instalacyjny AD-MAR plus",
    "formatted_address": "5,0(7)",
    "phone_number": "+48536268307",
    "source_url": "https://www.google.com/maps/place/Sklep+instalacyjny+AD-MAR+plus/data=!4m7!3m6!1s0x4704e9588dbbfd0d:0x35a708f4b7cb8ce4!8m2!3d52.3169718!4d17.569461!16s%2Fg%2F11vy36_jz5!19sChIJDf27jVjpBEcR5IzLt_QIpzU?authuser=0&hl=tr&rclk=1",
    "website_url": "",
    "rating_text": "5,0",
    "stars": null,
    "number_of_reviews": null,
    "price_level": "",
    "open_hours": "",
    "extraction_timestamp": "2025-06-07T17:17:47.820Z",
    "source_name": "google",
    "source_query": "Irrigation Equipment",
    "source_country": "PL",
    "country": "Poland",
    "state": "Greater Poland Voivodeship",
    "city": "Powiat wrzesiński"
  },
  {
    "source_id": "ChIJw-L8JmTpBEcRlx3y6j3b_NI",
    "name": "Łazienkowe Pasje wyposażenie łazienki płytki armatura łazienkowa",
    "category": "Łazienkowe Pasje wyposażenie łazienki płytki armatura łazienkowa",
    "formatted_address": "4,6(97)",
    "phone_number": "+48501801941",
    "source_url": "https://www.google.com/maps/place/%C5%81azienkowe+Pasje+wyposa%C5%BCenie+%C5%82azienki+p%C5%82ytki+armatura+%C5%82azienkowa/data=!4m7!3m6!1s0x4704e96426fce2c3:0xd2fcdb3deaf21d97!8m2!3d52.3322966!4d17.5338281!16s%2Fg%2F11g6b14tg7!19sChIJw-L8JmTpBEcRlx3y6j3b_NI?authuser=0&hl=tr&rclk=1",
    "website_url": "",
    "rating_text": "4,6",
    "stars": null,
    "number_of_reviews": null,
    "price_level": "",
    "open_hours": "",
    "extraction_timestamp": "2025-06-07T17:17:47.822Z",
    "source_name": "google",
    "source_query": "Irrigation Equipment",
    "source_country": "PL",
    "country": "Poland",
    "state": "Greater Poland Voivodeship",
    "city": "Powiat wrzesiński"
  },
  {
    "source_id": "ChIJdble513pBEcROFPvnv7aBYU",
    "name": "Group Zieliński",
    "category": "Group Zieliński",
    "formatted_address": "5,0(4)",
    "phone_number": "+48664276388",
    "source_url": "https://www.google.com/maps/place/Group+Zieli%C5%84ski/data=!4m7!3m6!1s0x4704e95de75eb975:0x8505dafe9eef5338!8m2!3d52.331963!4d17.54874!16s%2Fg%2F1ptwb8nvq!19sChIJdble513pBEcROFPvnv7aBYU?authuser=0&hl=tr&rclk=1",
    "website_url": "",
    "rating_text": "5,0",
    "stars": null,
    "number_of_reviews": null,
    "price_level": "",
    "open_hours": "",
    "extraction_timestamp": "2025-06-07T17:17:47.823Z",
    "source_name": "google",
    "source_query": "Irrigation Equipment",
    "source_country": "PL",
    "country": "Poland",
    "state": "Greater Poland Voivodeship",
    "city": "Powiat wrzesiński"
  },
  {
    "source_id": "ChIJ9andVcPpBEcRJKbqpqbS_sU",
    "name": "BATBOYS - Rowery, hulajnogi elektryczne, serwis rowerowy, akcesoria",
    "category": "BATBOYS - Rowery, hulajnogi elektryczne, serwis rowerowy, akcesoria",
    "formatted_address": "BATBOYS - Rowery, hulajnogi elektryczne, serwis rowerowy, akcesoria",
    "phone_number": "+48510821884",
    "source_url": "https://www.google.com/maps/place/BATBOYS+-+Rowery,+hulajnogi+elektryczne,+serwis+rowerowy,+akcesoria/data=!4m7!3m6!1s0x4704e9c355dda9f5:0xc5fed2a6a6eaa624!8m2!3d52.3245608!4d17.5854765!16s%2Fg%2F11jmz6s035!19sChIJ9andVcPpBEcRJKbqpqbS_sU?authuser=0&hl=tr&rclk=1",
    "website_url": "",
    "rating_text": "4,6",
    "stars": null,
    "number_of_reviews": null,
    "price_level": "",
    "open_hours": "",
    "extraction_timestamp": "2025-06-07T17:17:47.825Z",
    "source_name": "google",
    "source_query": "Irrigation Equipment",
    "source_country": "PL",
    "country": "Poland",
    "state": "Greater Poland Voivodeship",
    "city": "Powiat wrzesiński"
  },
  {
    "source_id": "ChIJlwjKG3rpBEcR1Chg_TNM0H0",
    "name": "Lucart-Energy",
    "category": "Lucart-Energy",
    "formatted_address": "4,4(18)",
    "phone_number": "+48660093097",
    "source_url": "https://www.google.com/maps/place/Lucart-Energy/data=!4m7!3m6!1s0x4704e97a1bca0897:0x7dd04c33fd6028d4!8m2!3d52.3489917!4d17.4691835!16s%2Fg%2F11f_g69sy_!19sChIJlwjKG3rpBEcR1Chg_TNM0H0?authuser=0&hl=tr&rclk=1",
    "website_url": "",
    "rating_text": "4,4",
    "stars": null,
    "number_of_reviews": null,
    "price_level": "",
    "open_hours": "",
    "extraction_timestamp": "2025-06-07T17:17:47.826Z",
    "source_name": "google",
    "source_query": "Irrigation Equipment",
    "source_country": "PL",
    "country": "Poland",
    "state": "Greater Poland Voivodeship",
    "city": "Powiat wrzesiński"
  },
  {
    "source_id": "ChIJVTV3W_PzBEcR6gY0xwQi2_E",
    "name": "Deszczownie.com",
    "category": "Deszczownie.com",
    "formatted_address": "",
    "phone_number": "+48726000030",
    "source_url": "https://www.google.com/maps/place/Deszczownie.com/data=!4m7!3m6!1s0x4704f3f35b773555:0xf1db2204c73406ea!8m2!3d52.3623948!4d17.4021087!16s%2Fg%2F11y3pv4rxr!19sChIJVTV3W_PzBEcR6gY0xwQi2_E?authuser=0&hl=tr&rclk=1",
    "website_url": "",
    "rating_text": "",
    "stars": null,
    "number_of_reviews": null,
    "price_level": "",
    "open_hours": "",
    "extraction_timestamp": "2025-06-07T17:17:47.827Z",
    "source_name": "google",
    "source_query": "Irrigation Equipment",
    "source_country": "PL",
    "country": "Poland",
    "state": "Greater Poland Voivodeship",
    "city": "Powiat wrzesiński"
  },
  {
    "source_id": "ChIJN2mFDn3pBEcRoXLjpAgUiko",
    "name": "Nentech S.C. Szambelańczyk Karol Weber Łukasz",
    "category": "Nentech S.C. Szambelańczyk Karol Weber Łukasz",
    "formatted_address": "4,0(1)",
    "phone_number": "+48691683350",
    "source_url": "https://www.google.com/maps/place/Nentech+S.C.+Szambela%C5%84czyk+Karol+Weber+%C5%81ukasz/data=!4m7!3m6!1s0x4704e97d0e856937:0x4a8a1408a4e372a1!8m2!3d52.3326373!4d17.5712491!16s%2Fg%2F1tfr_sc7!19sChIJN2mFDn3pBEcRoXLjpAgUiko?authuser=0&hl=tr&rclk=1",
    "website_url": "",
    "rating_text": "4,0",
    "stars": null,
    "number_of_reviews": null,
    "price_level": "",
    "open_hours": "",
    "extraction_timestamp": "2025-06-07T17:17:47.828Z",
    "source_name": "google",
    "source_query": "Irrigation Equipment",
    "source_country": "PL",
    "country": "Poland",
    "state": "Greater Poland Voivodeship",
    "city": "Powiat wrzesiński"
  },
  {
    "source_id": "ChIJ_3N-E3zpBEcR-iWvw6TE1xE",
    "name": "Aqua Elektro. Technika grzewcza i hydrauliczna, pompy, bojlery",
    "category": "Aqua Elektro. Technika grzewcza i hydrauliczna, pompy, bojlery",
    "formatted_address": "Aqua Elektro. Technika grzewcza i hydrauliczna, pompy, bojlery",
    "phone_number": "+48614379114",
    "source_url": "https://www.google.com/maps/place/Aqua+Elektro.+Technika+grzewcza+i+hydrauliczna,+pompy,+bojlery/data=!4m7!3m6!1s0x4704e97c137e73ff:0x11d7c4a4c3af25fa!8m2!3d52.3297252!4d17.5724114!16s%2Fg%2F1vtzfx_c!19sChIJ_3N-E3zpBEcR-iWvw6TE1xE?authuser=0&hl=tr&rclk=1",
    "website_url": "",
    "rating_text": "",
    "stars": null,
    "number_of_reviews": null,
    "price_level": "",
    "open_hours": "",
    "extraction_timestamp": "2025-06-07T17:17:47.830Z",
    "source_name": "google",
    "source_query": "Irrigation Equipment",
    "source_country": "PL",
    "country": "Poland",
    "state": "Greater Poland Voivodeship",
    "city": "Powiat wrzesiński"
  },
  {
    "source_id": "ChIJZTUkncv7BEcRsv-FuPvJd0E",
    "name": "TEST INSTALACJE – Hurtownia instalacyjna Środa Wielkopolska",
    "category": "TEST INSTALACJE – Hurtownia instalacyjna Środa Wielkopolska",
    "formatted_address": "4,1(20)",
    "phone_number": "+48612856282",
    "source_url": "https://www.google.com/maps/place/TEST+INSTALACJE+%E2%80%93+Hurtownia+instalacyjna+%C5%9Aroda+Wielkopolska/data=!4m7!3m6!1s0x4704fbcb9d243565:0x4177c9fbb885ffb2!8m2!3d52.2386542!4d17.2761103!16s%2Fg%2F11n0p8cszw!19sChIJZTUkncv7BEcRsv-FuPvJd0E?authuser=0&hl=tr&rclk=1",
    "website_url": "",
    "rating_text": "4,1",
    "stars": null,
    "number_of_reviews": null,
    "price_level": "",
    "open_hours": "",
    "extraction_timestamp": "2025-06-07T17:17:47.864Z",
    "source_name": "google",
    "source_query": "Irrigation Equipment",
    "source_country": "PL",
    "country": "Poland",
    "state": "Greater Poland Voivodeship",
    "city": "Powiat wrzesiński"
  },
  {
    "source_id": "ChIJVfEbGH_cBEcRJQmNLeglPjQ",
    "name": "GRENE",
    "category": "GRENE",
    "formatted_address": "4,5(54)",
    "phone_number": "+48601900531",
    "source_url": "https://www.google.com/maps/place/GRENE/data=!4m7!3m6!1s0x4704dc7f181bf155:0x343e25e82d8d0925!8m2!3d52.1743437!4d17.6860004!16s%2Fg%2F1vcl2ghb!19sChIJVfEbGH_cBEcRJQmNLeglPjQ?authuser=0&hl=tr&rclk=1",
    "website_url": "",
    "rating_text": "4,5",
    "stars": null,
    "number_of_reviews": null,
    "price_level": "",
    "open_hours": "",
    "extraction_timestamp": "2025-06-07T17:17:47.866Z",
    "source_name": "google",
    "source_query": "Irrigation Equipment",
    "source_country": "PL",
    "country": "Poland",
    "state": "Greater Poland Voivodeship",
    "city": "Powiat wrzesiński"
  },
  {
    "source_id": "ChIJyzL7W0f7BEcR8QnhWuq5xfk",
    "name": "GRENE",
    "category": "GRENE",
    "formatted_address": "4,6(25)",
    "phone_number": "+48601900528",
    "source_url": "https://www.google.com/maps/place/GRENE/data=!4m7!3m6!1s0x4704fb475bfb32cb:0xf9c5b9ea5ae109f1!8m2!3d52.2219952!4d17.2932154!16s%2Fg%2F1thqfgdx!19sChIJyzL7W0f7BEcR8QnhWuq5xfk?authuser=0&hl=tr&rclk=1",
    "website_url": "",
    "rating_text": "4,6",
    "stars": null,
    "number_of_reviews": null,
    "price_level": "",
    "open_hours": "",
    "extraction_timestamp": "2025-06-07T17:17:47.867Z",
    "source_name": "google",
    "source_query": "Irrigation Equipment",
    "source_country": "PL",
    "country": "Poland",
    "state": "Greater Poland Voivodeship",
    "city": "Powiat wrzesiński"
  },
  {
    "source_id": "ChIJj90RIrLpBEcRHucecryUqrU",
    "name": "Miejska plaża",
    "category": "Miejska plaża",
    "formatted_address": "4,5(15)",
    "phone_number": "",
    "source_url": "https://www.google.com/maps/place/Miejska+pla%C5%BCa/data=!4m7!3m6!1s0x4704e9b22211dd8f:0xb5aa94bc721ee71e!8m2!3d52.3354296!4d17.5488499!16s%2Fg%2F11jn513p9z!19sChIJj90RIrLpBEcRHucecryUqrU?authuser=0&hl=tr&rclk=1",
    "website_url": "",
    "rating_text": "4,5",
    "stars": null,
    "number_of_reviews": null,
    "price_level": "",
    "open_hours": "",
    "extraction_timestamp": "2025-06-07T17:17:47.868Z",
    "source_name": "google",
    "source_query": "Irrigation Equipment",
    "source_country": "PL",
    "country": "Poland",
    "state": "Greater Poland Voivodeship",
    "city": "Powiat wrzesiński"
  },
  {
    "source_id": "ChIJieWwptJEBEcRm8Y9_OwWYiY",
    "name": "Gargot sp.z o.o.",
    "category": "Gargot sp.z o.o.",
    "formatted_address": "3,2(13)",
    "phone_number": "+48616747196",
    "source_url": "https://www.google.com/maps/place/Gargot+sp.z+o.o./data=!4m7!3m6!1s0x470444d2a6b0e589:0x266216ecfc3dc69b!8m2!3d52.4295295!4d17.4834994!16s%2Fg%2F11d_7v2ywq!19sChIJieWwptJEBEcRm8Y9_OwWYiY?authuser=0&hl=tr&rclk=1",
    "website_url": "",
    "rating_text": "3,2",
    "stars": null,
    "number_of_reviews": null,
    "price_level": "",
    "open_hours": "",
    "extraction_timestamp": "2025-06-07T17:17:47.869Z",
    "source_name": "google",
    "source_query": "Irrigation Equipment",
    "source_country": "PL",
    "country": "Poland",
    "state": "Greater Poland Voivodeship",
    "city": "Powiat wrzesiński"
  },
  {
    "source_id": "ChIJl1mXRqvuBEcRkNA9vGWiBeQ",
    "name": "Master Sport Sp. o.o. sp.k. Staszak L.",
    "category": "Master Sport Sp. o.o. sp.k. Staszak L.",
    "formatted_address": "3,8(133)",
    "phone_number": "+48697779455",
    "source_url": "https://www.google.com/maps/place/Master+Sport+Sp.+o.o.+sp.k.+Staszak+L./data=!4m7!3m6!1s0x4704eeab46975997:0xe405a265bc3dd090!8m2!3d52.3336792!4d17.5167158!16s%2Fg%2F1tdcf207!19sChIJl1mXRqvuBEcRkNA9vGWiBeQ?authuser=0&hl=tr&rclk=1",
    "website_url": "",
    "rating_text": "3,8",
    "stars": null,
    "number_of_reviews": null,
    "price_level": "",
    "open_hours": "",
    "extraction_timestamp": "2025-06-07T17:17:47.870Z",
    "source_name": "google",
    "source_query": "Irrigation Equipment",
    "source_country": "PL",
    "country": "Poland",
    "state": "Greater Poland Voivodeship",
    "city": "Powiat wrzesiński"
  },
  {
    "source_id": "ChIJU3shE1S-BEcRBmObVpevVJI",
    "name": "Holiday Resort Skorzęcin",
    "category": "Holiday Resort Skorzęcin",
    "formatted_address": "4,4(7.896)",
    "phone_number": "+48614770277",
    "source_url": "https://www.google.com/maps/place/Holiday+Resort+Skorz%C4%99cin/data=!4m7!3m6!1s0x4704be5413217b53:0x9254af97569b6306!8m2!3d52.4577927!4d17.8917354!16s%2Fg%2F1tknj4gk!19sChIJU3shE1S-BEcRBmObVpevVJI?authuser=0&hl=tr&rclk=1",
    "website_url": "",
    "rating_text": "4,4",
    "stars": null,
    "number_of_reviews": null,
    "price_level": "",
    "open_hours": "",
    "extraction_timestamp": "2025-06-07T17:17:47.872Z",
    "source_name": "google",
    "source_query": "Irrigation Equipment",
    "source_country": "PL",
    "country": "Poland",
    "state": "Greater Poland Voivodeship",
    "city": "Powiat wrzesiński"
  },
  {
    "source_id": "ChIJb_i9hQrGBEcRCd4KJHJa_CQ",
    "name": "Sklep rolniczo-techniczny Powered by Kramp Słupca",
    "category": "Sklep rolniczo-techniczny Powered by Kramp Słupca",
    "formatted_address": "4,3(87)",
    "phone_number": "+48632754962",
    "source_url": "https://www.google.com/maps/place/Sklep+rolniczo-techniczny+Powered+by+Kramp+S%C5%82upca/data=!4m7!3m6!1s0x4704c60a85bdf86f:0x24fc5a72240ade09!8m2!3d52.289646!4d17.8593689!16s%2Fg%2F1tft_7fh!19sChIJb_i9hQrGBEcRCd4KJHJa_CQ?authuser=0&hl=tr&rclk=1",
    "website_url": "",
    "rating_text": "4,3",
    "stars": null,
    "number_of_reviews": null,
    "price_level": "",
    "open_hours": "",
    "extraction_timestamp": "2025-06-07T17:17:47.873Z",
    "source_name": "google",
    "source_query": "Irrigation Equipment",
    "source_country": "PL",
    "country": "Poland",
    "state": "Greater Poland Voivodeship",
    "city": "Powiat wrzesiński"
  },
  {
    "source_id": "ChIJUanDW9z1BEcRgJEcHMyKiMQ",
    "name": "Basen Pool Świta sp. z o.o. sp.k. Budowa i serwis basenów. Chemia basenowa",
    "category": "Basen Pool Świta sp. z o.o. sp.k. Budowa i serwis basenów. Chemia basenowa",
    "formatted_address": "4,7(55)",
    "phone_number": "+48618178491",
    "source_url": "https://www.google.com/maps/place/Basen+Pool+%C5%9Awita+sp.+z+o.o.+sp.k.+Budowa+i+serwis+basen%C3%B3w.+Chemia+basenowa/data=!4m7!3m6!1s0x4704f5dc5bc3a951:0xc4888acc1c1c9180!8m2!3d52.3981011!4d17.1972537!16s%2Fg%2F11h0f1181!19sChIJUanDW9z1BEcRgJEcHMyKiMQ?authuser=0&hl=tr&rclk=1",
    "website_url": "",
    "rating_text": "4,7",
    "stars": null,
    "number_of_reviews": null,
    "price_level": "",
    "open_hours": "",
    "extraction_timestamp": "2025-06-07T17:17:47.874Z",
    "source_name": "google",
    "source_query": "Irrigation Equipment",
    "source_country": "PL",
    "country": "Poland",
    "state": "Greater Poland Voivodeship",
    "city": "Powiat wrzesiński"
  },
  {
    "source_id": "ChIJrVrSL_PDBEcReZ6xXYIsZck",
    "name": "Pan Słonecznik",
    "category": "Pan Słonecznik",
    "formatted_address": "5,0(8)",
    "phone_number": "+48884321442",
    "source_url": "https://www.google.com/maps/place/Pan+S%C5%82onecznik/data=!4m7!3m6!1s0x4704c3f32fd25aad:0xc9652c825db19e79!8m2!3d52.4006266!4d17.1691888!16s%2Fg%2F11hf44vdpk!19sChIJrVrSL_PDBEcReZ6xXYIsZck?authuser=0&hl=tr&rclk=1",
    "website_url": "",
    "rating_text": "5,0",
    "stars": null,
    "number_of_reviews": null,
    "price_level": "",
    "open_hours": "",
    "extraction_timestamp": "2025-06-07T17:17:47.875Z",
    "source_name": "google",
    "source_query": "Irrigation Equipment",
    "source_country": "PL",
    "country": "Poland",
    "state": "Greater Poland Voivodeship",
    "city": "Powiat wrzesiński"
  }
]
