[
  {
    "source_id": "ChIJ37BVwgJ7BUcRQCkNVSoCUEg",
    "name": "AGRITECH Sklep rolniczo-techniczny Powered by Kramp",
    "category": "AGRITECH Sklep rolniczo-techniczny Powered by Kramp",
    "formatted_address": "4,3(48)",
    "phone_number": "+48655464158",
    "source_url": "https://www.google.com/maps/place/AGRITECH+Sklep+rolniczo-techniczny+Powered+by+Kramp/data=!4m7!3m6!1s0x47057b02c255b0df:0x4850022a550d2940!8m2!3d51.6085165!4d16.8752983!16s%2Fg%2F1tgjj_bm!19sChIJ37BVwgJ7BUcRQCkNVSoCUEg?authuser=0&hl=tr&rclk=1",
    "website_url": "http://www.grene.pl/",
    "rating_text": "4,3",
    "stars": null,
    "number_of_reviews": null,
    "price_level": "",
    "open_hours": "",
    "extraction_timestamp": "2025-06-07T17:21:56.071Z",
    "source_name": "google",
    "source_query": "Irrigation Equipment",
    "source_country": "PL",
    "country": "Poland",
    "state": "Greater Poland Voivodeship",
    "city": "Powiat rawicki"
  },
  {
    "source_id": "ChIJI0W90R17BUcRhz791v8jdkc",
    "name": "Agromech - części do maszyn rolniczych.",
    "category": "Agromech - części do maszyn rolniczych.",
    "formatted_address": "4,6(18)",
    "phone_number": "+48655452092",
    "source_url": "https://www.google.com/maps/place/Agromech+-+cz%C4%99%C5%9Bci+do+maszyn+rolniczych./data=!4m7!3m6!1s0x47057b1dd1bd4523:0x477623ffd6fd3e87!8m2!3d51.6066035!4d16.8836395!16s%2Fg%2F11gd1w2ytn!19sChIJI0W90R17BUcRhz791v8jdkc?authuser=0&hl=tr&rclk=1",
    "website_url": "http://www.techrol.com.pl/",
    "rating_text": "4,6",
    "stars": null,
    "number_of_reviews": null,
    "price_level": "",
    "open_hours": "",
    "extraction_timestamp": "2025-06-07T17:21:56.072Z",
    "source_name": "google",
    "source_query": "Irrigation Equipment",
    "source_country": "PL",
    "country": "Poland",
    "state": "Greater Poland Voivodeship",
    "city": "Powiat rawicki"
  },
  {
    "source_id": "ChIJQzjQHzt7BUcRBNmMTqJ9Btg",
    "name": "Firma Plewka",
    "category": "Firma Plewka",
    "formatted_address": "5,0(13)",
    "phone_number": "+48728301826",
    "source_url": "https://www.google.com/maps/place/Firma+Plewka/data=!4m7!3m6!1s0x47057b3b1fd03843:0xd8067da24e8cd904!8m2!3d51.6133503!4d16.866317!16s%2Fg%2F11h2j_pb1w!19sChIJQzjQHzt7BUcRBNmMTqJ9Btg?authuser=0&hl=tr&rclk=1",
    "website_url": "http://firmaplewka.pl/",
    "rating_text": "5,0",
    "stars": null,
    "number_of_reviews": null,
    "price_level": "",
    "open_hours": "",
    "extraction_timestamp": "2025-06-07T17:21:56.072Z",
    "source_name": "google",
    "source_query": "Irrigation Equipment",
    "source_country": "PL",
    "country": "Poland",
    "state": "Greater Poland Voivodeship",
    "city": "Powiat rawicki"
  },
  {
    "source_id": "ChIJ9zUeDsl7BUcRMNXazXbkIzo",
    "name": "PHU WO-GAZ TECHNIKA GRZEWCZA I SANITARNA, SERWIS KOTŁÓW GAZOWYCH",
    "category": "PHU WO-GAZ TECHNIKA GRZEWCZA I SANITARNA, SERWIS KOTŁÓW GAZOWYCH",
    "formatted_address": "PHU WO-GAZ TECHNIKA GRZEWCZA I SANITARNA, SERWIS KOTŁÓW GAZOWYCH",
    "phone_number": "+48655464888",
    "source_url": "https://www.google.com/maps/place/PHU+WO-GAZ+TECHNIKA+GRZEWCZA+I+SANITARNA,+SERWIS+KOT%C5%81%C3%93W+GAZOWYCH/data=!4m7!3m6!1s0x47057bc90e1e35f7:0x3a23e476cddad530!8m2!3d51.6074389!4d16.861723!16s%2Fg%2F11c6w18v5z!19sChIJ9zUeDsl7BUcRMNXazXbkIzo?authuser=0&hl=tr&rclk=1",
    "website_url": "http://www.wogaz.pl/",
    "rating_text": "4,1",
    "stars": null,
    "number_of_reviews": null,
    "price_level": "",
    "open_hours": "",
    "extraction_timestamp": "2025-06-07T17:21:56.073Z",
    "source_name": "google",
    "source_query": "Irrigation Equipment",
    "source_country": "PL",
    "country": "Poland",
    "state": "Greater Poland Voivodeship",
    "city": "Powiat rawicki"
  },
  {
    "source_id": "ChIJ6YasumdlBUcRqF7CSb8emtg",
    "name": "SZALPOL | SZALUNKI BUDOWLANE | STĘPLE | DŹWIGARY | SZALUNKI ŚCIENNE",
    "category": "SZALPOL | SZALUNKI BUDOWLANE | STĘPLE | DŹWIGARY | SZALUNKI ŚCIENNE",
    "formatted_address": "5,0(1)",
    "phone_number": "+48536223512",
    "source_url": "https://www.google.com/maps/place/SZALPOL+%7C+SZALUNKI+BUDOWLANE+%7C+ST%C4%98PLE+%7C+D%C5%B9WIGARY+%7C+SZALUNKI+%C5%9ACIENNE/data=!4m7!3m6!1s0x47056567baac86e9:0xd89a1ebf49c25ea8!8m2!3d51.5529491!4d16.9754516!16s%2Fg%2F11vplbqfhl!19sChIJ6YasumdlBUcRqF7CSb8emtg?authuser=0&hl=tr&rclk=1",
    "website_url": "https://www.szalpol.eu/",
    "rating_text": "5,0",
    "stars": null,
    "number_of_reviews": null,
    "price_level": "",
    "open_hours": "",
    "extraction_timestamp": "2025-06-07T17:21:56.074Z",
    "source_name": "google",
    "source_query": "Irrigation Equipment",
    "source_country": "PL",
    "country": "Poland",
    "state": "Greater Poland Voivodeship",
    "city": "Powiat rawicki"
  },
  {
    "source_id": "ChIJB3DbLQJ7BUcRpm-5nYLw8HQ",
    "name": "MATI",
    "category": "MATI",
    "formatted_address": "4,4(35)",
    "phone_number": "+48655451727",
    "source_url": "https://www.google.com/maps/place/MATI/data=!4m7!3m6!1s0x47057b022ddb7007:0x74f0f0829db96fa6!8m2!3d51.608547!4d16.870587!16s%2Fg%2F1tfkd8xc!19sChIJB3DbLQJ7BUcRpm-5nYLw8HQ?authuser=0&hl=tr&rclk=1",
    "website_url": "http://www.mati-kosiarki-rawicz.info-net.com.pl/",
    "rating_text": "4,4",
    "stars": null,
    "number_of_reviews": null,
    "price_level": "",
    "open_hours": "",
    "extraction_timestamp": "2025-06-07T17:21:56.075Z",
    "source_name": "google",
    "source_query": "Irrigation Equipment",
    "source_country": "PL",
    "country": "Poland",
    "state": "Greater Poland Voivodeship",
    "city": "Powiat rawicki"
  },
  {
    "source_id": "ChIJk1mEomZRBEcR2GRxJFTAmDE",
    "name": "Maćkowiak Baseny",
    "category": "Maćkowiak Baseny",
    "formatted_address": "5,0(2)",
    "phone_number": "+48508173455",
    "source_url": "https://www.google.com/maps/place/Ma%C4%87kowiak+Baseny/data=!4m7!3m6!1s0x47045166a2845993:0x3198c054247164d8!8m2!3d51.5787991!4d16.9475191!16s%2Fg%2F11y9xbxy4c!19sChIJk1mEomZRBEcR2GRxJFTAmDE?authuser=0&hl=tr&rclk=1",
    "website_url": "",
    "rating_text": "5,0",
    "stars": null,
    "number_of_reviews": null,
    "price_level": "",
    "open_hours": "",
    "extraction_timestamp": "2025-06-07T17:21:56.076Z",
    "source_name": "google",
    "source_query": "Irrigation Equipment",
    "source_country": "PL",
    "country": "Poland",
    "state": "Greater Poland Voivodeship",
    "city": "Powiat rawicki"
  },
  {
    "source_id": "ChIJ8YcislR6BUcRsVm2Wz4aZ2o",
    "name": "Rataj Mariusz Eltech-Bis",
    "category": "Rataj Mariusz Eltech-Bis",
    "formatted_address": "4,9(11)",
    "phone_number": "+48502549385",
    "source_url": "https://www.google.com/maps/place/Rataj+Mariusz+Eltech-Bis/data=!4m7!3m6!1s0x47057a54b22287f1:0x6a671a3e5bb659b1!8m2!3d51.613152!4d16.857736!16s%2Fg%2F1tdqyf9x!19sChIJ8YcislR6BUcRsVm2Wz4aZ2o?authuser=0&hl=tr&rclk=1",
    "website_url": "http://www.eltech-bis.pl/",
    "rating_text": "4,9",
    "stars": null,
    "number_of_reviews": null,
    "price_level": "",
    "open_hours": "",
    "extraction_timestamp": "2025-06-07T17:21:56.077Z",
    "source_name": "google",
    "source_query": "Irrigation Equipment",
    "source_country": "PL",
    "country": "Poland",
    "state": "Greater Poland Voivodeship",
    "city": "Powiat rawicki"
  },
  {
    "source_id": "ChIJoaOB0at7BUcRRlPZKFBCTBM",
    "name": "PREWENTPOL - legalizacja i naprawa gaśnic, przeglądy hydrantów",
    "category": "PREWENTPOL - legalizacja i naprawa gaśnic, przeglądy hydrantów",
    "formatted_address": "PREWENTPOL - legalizacja i naprawa gaśnic, przeglądy hydrantów",
    "phone_number": "+48609742177",
    "source_url": "https://www.google.com/maps/place/PREWENTPOL+-+legalizacja+i+naprawa+ga%C5%9Bnic,+przegl%C4%85dy+hydrant%C3%B3w/data=!4m7!3m6!1s0x47057babd181a3a1:0x134c425028d95346!8m2!3d51.6190321!4d16.8681869!16s%2Fg%2F1tfcgghd!19sChIJoaOB0at7BUcRRlPZKFBCTBM?authuser=0&hl=tr&rclk=1",
    "website_url": "https://prewentpol-ppoz.com/",
    "rating_text": "4,1",
    "stars": null,
    "number_of_reviews": null,
    "price_level": "",
    "open_hours": "",
    "extraction_timestamp": "2025-06-07T17:21:56.078Z",
    "source_name": "google",
    "source_query": "Irrigation Equipment",
    "source_country": "PL",
    "country": "Poland",
    "state": "Greater Poland Voivodeship",
    "city": "Powiat rawicki"
  },
  {
    "source_id": "ChIJz5lTXfl6BUcRVzDZ2dpD2mk",
    "name": "Dutch bikes NAROWERY.PL",
    "category": "Dutch bikes NAROWERY.PL",
    "formatted_address": "4,6(258)",
    "phone_number": "+48506804780",
    "source_url": "https://www.google.com/maps/place/Dutch+bikes+NAROWERY.PL/data=!4m7!3m6!1s0x47057af95d5399cf:0x69da43dad9d93057!8m2!3d51.6193419!4d16.8730708!16s%2Fg%2F1tptp9fj!19sChIJz5lTXfl6BUcRVzDZ2dpD2mk?authuser=0&hl=tr&rclk=1",
    "website_url": "http://www.narowery.pl/",
    "rating_text": "4,6",
    "stars": null,
    "number_of_reviews": null,
    "price_level": "",
    "open_hours": "",
    "extraction_timestamp": "2025-06-07T17:21:56.079Z",
    "source_name": "google",
    "source_query": "Irrigation Equipment",
    "source_country": "PL",
    "country": "Poland",
    "state": "Greater Poland Voivodeship",
    "city": "Powiat rawicki"
  },
  {
    "source_id": "ChIJN__EHgB7BUcRZUQsRDeZnk0",
    "name": "MAGRA",
    "category": "MAGRA",
    "formatted_address": "4,3(47)",
    "phone_number": "+48655452173",
    "source_url": "https://www.google.com/maps/place/MAGRA/data=!4m7!3m6!1s0x47057b001ec4ff37:0x4d9e9937442c4465!8m2!3d51.6115862!4d16.8653629!16s%2Fg%2F1tlwdbsv!19sChIJN__EHgB7BUcRZUQsRDeZnk0?authuser=0&hl=tr&rclk=1",
    "website_url": "https://www.facebook.com/people/MAGRA-Sebastian-Konopka/100054589262554/",
    "rating_text": "4,3",
    "stars": null,
    "number_of_reviews": null,
    "price_level": "",
    "open_hours": "",
    "extraction_timestamp": "2025-06-07T17:21:56.081Z",
    "source_name": "google",
    "source_query": "Irrigation Equipment",
    "source_country": "PL",
    "country": "Poland",
    "state": "Greater Poland Voivodeship",
    "city": "Powiat rawicki"
  },
  {
    "source_id": "ChIJHSW4b6p7BUcR-qfMHUWqTy4",
    "name": "Agravia. Sklep ogrodniczy. Ptaszyński B.",
    "category": "Agravia. Sklep ogrodniczy. Ptaszyński B.",
    "formatted_address": "3,9(46)",
    "phone_number": "+48655464887",
    "source_url": "https://www.google.com/maps/place/Agravia.+Sklep+ogrodniczy.+Ptaszy%C5%84ski+B./data=!4m7!3m6!1s0x47057baa6fb8251d:0x2e4faa451dcca7fa!8m2!3d51.6088183!4d16.8624953!16s%2Fg%2F1tj4frpx!19sChIJHSW4b6p7BUcR-qfMHUWqTy4?authuser=0&hl=tr&rclk=1",
    "website_url": "http://www.e-ogrodek.pl/firma/agravia-sklep-ogrodniczy-ptaszynski-b-401125.html",
    "rating_text": "3,9",
    "stars": null,
    "number_of_reviews": null,
    "price_level": "",
    "open_hours": "",
    "extraction_timestamp": "2025-06-07T17:21:56.081Z",
    "source_name": "google",
    "source_query": "Irrigation Equipment",
    "source_country": "PL",
    "country": "Poland",
    "state": "Greater Poland Voivodeship",
    "city": "Powiat rawicki"
  },
  {
    "source_id": "ChIJ0y0bWQxlBUcRqOCh-Q-GEu4",
    "name": "Płytki z Cegły Jackowski Waldemar",
    "category": "Płytki z Cegły Jackowski Waldemar",
    "formatted_address": "5,0(18)",
    "phone_number": "+48605256200",
    "source_url": "https://www.google.com/maps/place/P%C5%82ytki+z+Ceg%C5%82y+Jackowski+Waldemar/data=!4m7!3m6!1s0x4705650c591b2dd3:0xee12860ff9a1e0a8!8m2!3d51.6188174!4d17.0564874!16s%2Fg%2F11h4pr39j5!19sChIJ0y0bWQxlBUcRqOCh-Q-GEu4?authuser=0&hl=tr&rclk=1",
    "website_url": "https://cegla-jackowski.pl/",
    "rating_text": "5,0",
    "stars": null,
    "number_of_reviews": null,
    "price_level": "",
    "open_hours": "",
    "extraction_timestamp": "2025-06-07T17:21:56.082Z",
    "source_name": "google",
    "source_query": "Irrigation Equipment",
    "source_country": "PL",
    "country": "Poland",
    "state": "Greater Poland Voivodeship",
    "city": "Powiat rawicki"
  },
  {
    "source_id": "ChIJV8S8jWp7BUcRkkxQm2m0i5Y",
    "name": "DAWIKOP - Usługi Minikoparka",
    "category": "DAWIKOP - Usługi Minikoparka",
    "formatted_address": "4,3(8)",
    "phone_number": "+48608415162",
    "source_url": "https://www.google.com/maps/place/DAWIKOP+-+Us%C5%82ugi+Minikoparka/data=!4m7!3m6!1s0x47057b6a8dbcc457:0x968bb4699b504c92!8m2!3d51.5874928!4d16.8776751!16s%2Fg%2F113gvg3sl!19sChIJV8S8jWp7BUcRkkxQm2m0i5Y?authuser=0&hl=tr&rclk=1",
    "website_url": "https://dawikop.pl/",
    "rating_text": "4,3",
    "stars": null,
    "number_of_reviews": null,
    "price_level": "",
    "open_hours": "",
    "extraction_timestamp": "2025-06-07T17:21:56.083Z",
    "source_name": "google",
    "source_query": "Irrigation Equipment",
    "source_country": "PL",
    "country": "Poland",
    "state": "Greater Poland Voivodeship",
    "city": "Powiat rawicki"
  },
  {
    "source_id": "ChIJOUq8f-d7BUcRbVA0uQ9JTmw",
    "name": "Firma Plewka Instalatorstwo Elektryczno Klimatyzacyjne",
    "category": "Firma Plewka Instalatorstwo Elektryczno Klimatyzacyjne",
    "formatted_address": "5,0(3)",
    "phone_number": "+48609774476",
    "source_url": "https://www.google.com/maps/place/Firma+Plewka+Instalatorstwo+Elektryczno+Klimatyzacyjne/data=!4m7!3m6!1s0x47057be77fbc4a39:0x6c4e490fb934506d!8m2!3d51.6133513!4d16.8663348!16s%2Fg%2F11v5t3tq45!19sChIJOUq8f-d7BUcRbVA0uQ9JTmw?authuser=0&hl=tr&rclk=1",
    "website_url": "https://www.firmaplewka.pl/",
    "rating_text": "5,0",
    "stars": null,
    "number_of_reviews": null,
    "price_level": "",
    "open_hours": "",
    "extraction_timestamp": "2025-06-07T17:21:56.084Z",
    "source_name": "google",
    "source_query": "Irrigation Equipment",
    "source_country": "PL",
    "country": "Poland",
    "state": "Greater Poland Voivodeship",
    "city": "Powiat rawicki"
  },
  {
    "source_id": "ChIJmfQm4AZ7BUcRidfCX66s4Ko",
    "name": "Bricomarché",
    "category": "Bricomarché",
    "formatted_address": "4,1(757)",
    "phone_number": "+48655454514",
    "source_url": "https://www.google.com/maps/place/Bricomarch%C3%A9/data=!4m7!3m6!1s0x47057b06e026f499:0xaae0acae5fc2d789!8m2!3d51.6046127!4d16.8635624!16s%2Fg%2F11_k2hcfz!19sChIJmfQm4AZ7BUcRidfCX66s4Ko?authuser=0&hl=tr&rclk=1",
    "website_url": "https://www.bricomarche.pl/?posId=93",
    "rating_text": "4,1",
    "stars": null,
    "number_of_reviews": null,
    "price_level": "",
    "open_hours": "",
    "extraction_timestamp": "2025-06-07T17:21:56.086Z",
    "source_name": "google",
    "source_query": "Irrigation Equipment",
    "source_country": "PL",
    "country": "Poland",
    "state": "Greater Poland Voivodeship",
    "city": "Powiat rawicki"
  },
  {
    "source_id": "ChIJg0ozgPxqBUcR9zMr9Gh0vr4",
    "name": "Eko Instal Maciej Bzdęga",
    "category": "Eko Instal Maciej Bzdęga",
    "formatted_address": "4,7(14)",
    "phone_number": "+48609792860",
    "source_url": "https://www.google.com/maps/place/Eko+Instal+Maciej+Bzd%C4%99ga/data=!4m7!3m6!1s0x47056afc80334a83:0xbebe7468f42b33f7!8m2!3d51.7421359!4d17.210835!16s%2Fg%2F11f5h889w8!19sChIJg0ozgPxqBUcR9zMr9Gh0vr4?authuser=0&hl=tr&rclk=1",
    "website_url": "",
    "rating_text": "4,7",
    "stars": null,
    "number_of_reviews": null,
    "price_level": "",
    "open_hours": "",
    "extraction_timestamp": "2025-06-07T17:21:56.106Z",
    "source_name": "google",
    "source_query": "Irrigation Equipment",
    "source_country": "PL",
    "country": "Poland",
    "state": "Greater Poland Voivodeship",
    "city": "Powiat rawicki"
  },
  {
    "source_id": "ChIJd56hwJd7BUcRiqnjw7L8Sko",
    "name": "Action Rawicz",
    "category": "Action Rawicz",
    "formatted_address": "4,6(80)",
    "phone_number": "+48326305898",
    "source_url": "https://www.google.com/maps/place/Action+Rawicz/data=!4m7!3m6!1s0x47057b97c0a19e77:0x4a4afcb2c3e3a98a!8m2!3d51.608794!4d16.8659582!16s%2Fg%2F11tg2cttz6!19sChIJd56hwJd7BUcRiqnjw7L8Sko?authuser=0&hl=tr&rclk=1",
    "website_url": "https://www.action.com/pl-pl/sklepy/rawicz/?utm_campaign=localbusiness&utm_source=google&utm_medium=organic&utm_content=A306",
    "rating_text": "4,6",
    "stars": null,
    "number_of_reviews": null,
    "price_level": "",
    "open_hours": "",
    "extraction_timestamp": "2025-06-07T17:21:56.107Z",
    "source_name": "google",
    "source_query": "Irrigation Equipment",
    "source_country": "PL",
    "country": "Poland",
    "state": "Greater Poland Voivodeship",
    "city": "Powiat rawicki"
  },
  {
    "source_id": "ChIJ8QdYDIBzBUcRLirZGsAgwqM",
    "name": "Elthermo",
    "category": "Elthermo",
    "formatted_address": "4,8(16)",
    "phone_number": "+48602356303",
    "source_url": "https://www.google.com/maps/place/Elthermo/data=!4m7!3m6!1s0x470573800c5807f1:0xa3c220c01ad92a2e!8m2!3d51.767523!4d16.986842!16s%2Fg%2F11jh94s7sn!19sChIJ8QdYDIBzBUcRLirZGsAgwqM?authuser=0&hl=tr&rclk=1",
    "website_url": "http://elthermo.pl/",
    "rating_text": "4,8",
    "stars": null,
    "number_of_reviews": null,
    "price_level": "",
    "open_hours": "",
    "extraction_timestamp": "2025-06-07T17:21:56.108Z",
    "source_name": "google",
    "source_query": "Irrigation Equipment",
    "source_country": "PL",
    "country": "Poland",
    "state": "Greater Poland Voivodeship",
    "city": "Powiat rawicki"
  },
  {
    "source_id": "ChIJv6Kfnx5uBUcRgKe6uYYbsU8",
    "name": "Lely Center w Krobi",
    "category": "Lely Center w Krobi",
    "formatted_address": "4,2(6)",
    "phone_number": "+48884035777",
    "source_url": "https://www.google.com/maps/place/Lely+Center+w+Krobi/data=!4m7!3m6!1s0x47056e1e9f9fa2bf:0x4fb11b86b9baa780!8m2!3d51.7040742!4d16.9929354!16s%2Fg%2F11gbksc8_5!19sChIJv6Kfnx5uBUcRgKe6uYYbsU8?authuser=0&hl=tr&rclk=1",
    "website_url": "https://www.lely.com/pl/centers/krobia/?gad_source=1&gclid=Cj0KCQjwncWvBhD_ARIsAEb2HW-LtaXn3zgItX3IER2f80IdZ4nJ7i7TDtZPDIhCjkG_w6yQ2WvqOJ0aAls4EALw_wcB",
    "rating_text": "4,2",
    "stars": null,
    "number_of_reviews": null,
    "price_level": "",
    "open_hours": "",
    "extraction_timestamp": "2025-06-07T17:21:56.109Z",
    "source_name": "google",
    "source_query": "Irrigation Equipment",
    "source_country": "PL",
    "country": "Poland",
    "state": "Greater Poland Voivodeship",
    "city": "Powiat rawicki"
  },
  {
    "source_id": "ChIJt4EBofdGBUcReinrTDotujY",
    "name": "Usługi Elektryczne Hydrauliczne Pomiary elektryczne",
    "category": "Usługi Elektryczne Hydrauliczne Pomiary elektryczne",
    "formatted_address": "5,0(2)",
    "phone_number": "+48531260576",
    "source_url": "https://www.google.com/maps/place/Us%C5%82ugi+Elektryczne+Hydrauliczne+Pomiary+elektryczne/data=!4m7!3m6!1s0x470546f7a10181b7:0x36ba2d3a4ceb297a!8m2!3d51.6891957!4d17.4236473!16s%2Fg%2F11gffdf0qd!19sChIJt4EBofdGBUcReinrTDotujY?authuser=0&hl=tr&rclk=1",
    "website_url": "",
    "rating_text": "5,0",
    "stars": null,
    "number_of_reviews": null,
    "price_level": "",
    "open_hours": "",
    "extraction_timestamp": "2025-06-07T17:21:56.111Z",
    "source_name": "google",
    "source_query": "Irrigation Equipment",
    "source_country": "PL",
    "country": "Poland",
    "state": "Greater Poland Voivodeship",
    "city": "Powiat rawicki"
  },
  {
    "source_id": "ChIJdQa2knGDBUcRGcr9qX5BChg",
    "name": "MARBUD",
    "category": "MARBUD",
    "formatted_address": "5,0(6)",
    "phone_number": "+48575892951",
    "source_url": "https://www.google.com/maps/place/MARBUD/data=!4m7!3m6!1s0x4705837192b60675:0x180a417ea9fdca19!8m2!3d51.6715824!4d16.6348562!16s%2Fg%2F11ybq4bdc3!19sChIJdQa2knGDBUcRGcr9qX5BChg?authuser=0&hl=tr&rclk=1",
    "website_url": "",
    "rating_text": "5,0",
    "stars": null,
    "number_of_reviews": null,
    "price_level": "",
    "open_hours": "",
    "extraction_timestamp": "2025-06-07T17:21:56.112Z",
    "source_name": "google",
    "source_query": "Irrigation Equipment",
    "source_country": "PL",
    "country": "Poland",
    "state": "Greater Poland Voivodeship",
    "city": "Powiat rawicki"
  },
  {
    "source_id": "ChIJKbPvF8ZzBUcRUunmcIDT9YA",
    "name": "Instalatorstwo sanitarne c.o. wod- kan i gazowe usługi hydrauliczne",
    "category": "Instalatorstwo sanitarne c.o. wod- kan i gazowe usługi hydrauliczne",
    "formatted_address": "3,0(2)",
    "phone_number": "+48607380033",
    "source_url": "https://www.google.com/maps/place/Instalatorstwo+sanitarne+c.o.+wod-+kan+i+gazowe+us%C5%82ugi+hydrauliczne/data=!4m7!3m6!1s0x470573c617efb329:0x80f5d38070e6e952!8m2!3d51.773913!4d16.981163!16s%2Fg%2F11jgcq0_22!19sChIJKbPvF8ZzBUcRUunmcIDT9YA?authuser=0&hl=tr&rclk=1",
    "website_url": "",
    "rating_text": "3,0",
    "stars": null,
    "number_of_reviews": null,
    "price_level": "",
    "open_hours": "",
    "extraction_timestamp": "2025-06-07T17:21:56.113Z",
    "source_name": "google",
    "source_query": "Irrigation Equipment",
    "source_country": "PL",
    "country": "Poland",
    "state": "Greater Poland Voivodeship",
    "city": "Powiat rawicki"
  },
  {
    "source_id": "ChIJv4sGhwRlBUcRbNk1B-bfTdM",
    "name": "POMPY CIEPŁA INSTAL",
    "category": "POMPY CIEPŁA INSTAL",
    "formatted_address": "",
    "phone_number": "+48607746722",
    "source_url": "https://www.google.com/maps/place/POMPY+CIEP%C5%81A+INSTAL/data=!4m7!3m6!1s0x4705650487068bbf:0xd34ddfe60735d96c!8m2!3d51.5880481!4d16.9482623!16s%2Fg%2F11q843nzd7!19sChIJv4sGhwRlBUcRbNk1B-bfTdM?authuser=0&hl=tr&rclk=1",
    "website_url": "https://www.pompycieplainstal.pl/",
    "rating_text": "",
    "stars": null,
    "number_of_reviews": null,
    "price_level": "",
    "open_hours": "",
    "extraction_timestamp": "2025-06-07T17:21:56.114Z",
    "source_name": "google",
    "source_query": "Irrigation Equipment",
    "source_country": "PL",
    "country": "Poland",
    "state": "Greater Poland Voivodeship",
    "city": "Powiat rawicki"
  },
  {
    "source_id": "ChIJg9Ga_l97BUcRt4Yw3QWmPNg",
    "name": "PSB Mrówka",
    "category": "PSB Mrówka",
    "formatted_address": "4,5(438)",
    "phone_number": "+48880594134",
    "source_url": "https://www.google.com/maps/place/PSB+Mr%C3%B3wka/data=!4m7!3m6!1s0x47057b5ffe9ad183:0xd83ca605dd3086b7!8m2!3d51.6234509!4d16.853063!16s%2Fg%2F11ns5414j2!19sChIJg9Ga_l97BUcRt4Yw3QWmPNg?authuser=0&hl=tr&rclk=1",
    "website_url": "https://mrowkarawicz.com.pl/",
    "rating_text": "4,5",
    "stars": null,
    "number_of_reviews": null,
    "price_level": "",
    "open_hours": "",
    "extraction_timestamp": "2025-06-07T17:21:56.115Z",
    "source_name": "google",
    "source_query": "Irrigation Equipment",
    "source_country": "PL",
    "country": "Poland",
    "state": "Greater Poland Voivodeship",
    "city": "Powiat rawicki"
  },
  {
    "source_id": "ChIJRe-ezIlbBUcRNuf4qWvkZdY",
    "name": "Serwis kotłow gazowych Technika Grzewcza. Franpol Z.U.H.P. Andrzej Frankowski",
    "category": "Serwis kotłow gazowych Technika Grzewcza. Franpol Z.U.H.P. Andrzej Frankowski",
    "formatted_address": "4,0(3)",
    "phone_number": "+48604209246",
    "source_url": "https://www.google.com/maps/place/Serwis+kot%C5%82ow+gazowych+Technika+Grzewcza.+Franpol+Z.U.H.P.+Andrzej+Frankowski/data=!4m7!3m6!1s0x47055b89cc9eef45:0xd665e46ba9f8e736!8m2!3d51.5379802!4d17.2676317!16s%2Fg%2F1hc2xcm2s!19sChIJRe-ezIlbBUcRNuf4qWvkZdY?authuser=0&hl=tr&rclk=1",
    "website_url": "http://www.franpol24.pl/",
    "rating_text": "4,0",
    "stars": null,
    "number_of_reviews": null,
    "price_level": "",
    "open_hours": "",
    "extraction_timestamp": "2025-06-07T17:21:56.116Z",
    "source_name": "google",
    "source_query": "Irrigation Equipment",
    "source_country": "PL",
    "country": "Poland",
    "state": "Greater Poland Voivodeship",
    "city": "Powiat rawicki"
  },
  {
    "source_id": "ChIJ4So_7DBHBUcRGxjELWany6g",
    "name": "Lukas Usługi Hydrauliczne i Ogólnobudowlane",
    "category": "Lukas Usługi Hydrauliczne i Ogólnobudowlane",
    "formatted_address": "5,0(3)",
    "phone_number": "+48663083003",
    "source_url": "https://www.google.com/maps/place/Lukas+Us%C5%82ugi+Hydrauliczne+i+Og%C3%B3lnobudowlane/data=!4m7!3m6!1s0x47054730ec3f2ae1:0xa8cba7662dc4181b!8m2!3d51.7186706!4d17.4241831!16s%2Fg%2F11hflsgmxx!19sChIJ4So_7DBHBUcRGxjELWany6g?authuser=0&hl=tr&rclk=1",
    "website_url": "",
    "rating_text": "5,0",
    "stars": null,
    "number_of_reviews": null,
    "price_level": "",
    "open_hours": "",
    "extraction_timestamp": "2025-06-07T17:21:56.117Z",
    "source_name": "google",
    "source_query": "Irrigation Equipment",
    "source_country": "PL",
    "country": "Poland",
    "state": "Greater Poland Voivodeship",
    "city": "Powiat rawicki"
  },
  {
    "source_id": "ChIJCQPG4lJBBUcRpbH9TBUqItQ",
    "name": "Instalatorstwo Sanitarne Wod-Kan, CO i Gaz Krzysztof Panek",
    "category": "Instalatorstwo Sanitarne Wod-Kan, CO i Gaz Krzysztof Panek",
    "formatted_address": "Instalatorstwo Sanitarne Wod-Kan, CO i Gaz Krzysztof Panek",
    "phone_number": "+48605642300",
    "source_url": "https://www.google.com/maps/place/Instalatorstwo+Sanitarne+Wod-Kan,+CO+i+Gaz+Krzysztof+Panek/data=!4m7!3m6!1s0x47054152e2c60309:0xd4222a154cfdb1a5!8m2!3d51.7131816!4d17.3451837!16s%2Fg%2F11mdh_hn6q!19sChIJCQPG4lJBBUcRpbH9TBUqItQ?authuser=0&hl=tr&rclk=1",
    "website_url": "",
    "rating_text": "",
    "stars": null,
    "number_of_reviews": null,
    "price_level": "",
    "open_hours": "",
    "extraction_timestamp": "2025-06-07T17:21:56.118Z",
    "source_name": "google",
    "source_query": "Irrigation Equipment",
    "source_country": "PL",
    "country": "Poland",
    "state": "Greater Poland Voivodeship",
    "city": "Powiat rawicki"
  },
  {
    "source_id": "ChIJXcofHldGBUcRNwPwaCQo5I4",
    "name": "Walczak Jarosław. ZU. Ślusarstwo, instalatorstwo sanitarne i c.o.",
    "category": "Walczak Jarosław. ZU. Ślusarstwo, instalatorstwo sanitarne i c.o.",
    "formatted_address": "Walczak Jarosław. ZU. Ślusarstwo, instalatorstwo sanitarne i c.o.",
    "phone_number": "+48627226403",
    "source_url": "https://www.google.com/maps/place/Walczak+Jaros%C5%82aw.+ZU.+%C5%9Alusarstwo,+instalatorstwo+sanitarne+i+c.o./data=!4m7!3m6!1s0x470546571e1fca5d:0x8ee4282468f00337!8m2!3d51.691697!4d17.4347369!16s%2Fg%2F1tgz45b8!19sChIJXcofHldGBUcRNwPwaCQo5I4?authuser=0&hl=tr&rclk=1",
    "website_url": "",
    "rating_text": "4,3",
    "stars": null,
    "number_of_reviews": null,
    "price_level": "",
    "open_hours": "",
    "extraction_timestamp": "2025-06-07T17:21:56.119Z",
    "source_name": "google",
    "source_query": "Irrigation Equipment",
    "source_country": "PL",
    "country": "Poland",
    "state": "Greater Poland Voivodeship",
    "city": "Powiat rawicki"
  },
  {
    "source_id": "ChIJ1_vw8mNvBUcRnRPNxdwp8f8",
    "name": "Piotr Flak Pp Instalacje",
    "category": "Piotr Flak Pp Instalacje",
    "formatted_address": "",
    "phone_number": "+48784092661",
    "source_url": "https://www.google.com/maps/place/Piotr+Flak+Pp+Instalacje/data=!4m7!3m6!1s0x47056f63f2f0fbd7:0xfff129dcc5cd139d!8m2!3d51.6553636!4d17.0351433!16s%2Fg%2F11frsxdt69!19sChIJ1_vw8mNvBUcRnRPNxdwp8f8?authuser=0&hl=tr&rclk=1",
    "website_url": "",
    "rating_text": "",
    "stars": null,
    "number_of_reviews": null,
    "price_level": "",
    "open_hours": "",
    "extraction_timestamp": "2025-06-07T17:21:56.119Z",
    "source_name": "google",
    "source_query": "Irrigation Equipment",
    "source_country": "PL",
    "country": "Poland",
    "state": "Greater Poland Voivodeship",
    "city": "Powiat rawicki"
  },
  {
    "source_id": "ChIJg660zW5HBUcRDQRs-fiLco0",
    "name": "Hydrosystem Łukasz Czubak",
    "category": "Hydrosystem Łukasz Czubak",
    "formatted_address": "5,0(3)",
    "phone_number": "+48609962905",
    "source_url": "https://www.google.com/maps/place/Hydrosystem+%C5%81ukasz+Czubak/data=!4m7!3m6!1s0x4705476ecdb4ae83:0x8d728bf8f96c040d!8m2!3d51.6966074!4d17.4387066!16s%2Fg%2F11pvhq_d62!19sChIJg660zW5HBUcRDQRs-fiLco0?authuser=0&hl=tr&rclk=1",
    "website_url": "",
    "rating_text": "5,0",
    "stars": null,
    "number_of_reviews": null,
    "price_level": "",
    "open_hours": "",
    "extraction_timestamp": "2025-06-07T17:21:56.120Z",
    "source_name": "google",
    "source_query": "Irrigation Equipment",
    "source_country": "PL",
    "country": "Poland",
    "state": "Greater Poland Voivodeship",
    "city": "Powiat rawicki"
  },
  {
    "source_id": "ChIJm6K2tw5mBUcRCulHb3PBT1g",
    "name": "P.P.H.U.Bart-Pol Krzyżosiak Daniel",
    "category": "P.P.H.U.Bart-Pol Krzyżosiak Daniel",
    "formatted_address": "4,8(79)",
    "phone_number": "+48570512512",
    "source_url": "https://www.google.com/maps/place/P.P.H.U.Bart-Pol+Krzy%C5%BCosiak+Daniel/data=!4m7!3m6!1s0x4705660eb7b6a29b:0x584fc1736f47e90a!8m2!3d51.610575!4d17.0645163!16s%2Fg%2F1hc7zdjwy!19sChIJm6K2tw5mBUcRCulHb3PBT1g?authuser=0&hl=tr&rclk=1",
    "website_url": "",
    "rating_text": "4,8",
    "stars": null,
    "number_of_reviews": null,
    "price_level": "",
    "open_hours": "",
    "extraction_timestamp": "2025-06-07T17:21:56.121Z",
    "source_name": "google",
    "source_query": "Irrigation Equipment",
    "source_country": "PL",
    "country": "Poland",
    "state": "Greater Poland Voivodeship",
    "city": "Powiat rawicki"
  }
]
