[
  {
    "source_id": "ChIJiXhpci_yA0cRgAxAh7JSJ9w",
    "name": "Hydro - Projekt Dariusz Majchrzak",
    "category": "Hydro - Projekt Dariusz Majchrzak",
    "formatted_address": "4,4(41)",
    "phone_number": "+48720520420",
    "source_url": "https://www.google.com/maps/place/Hydro+-+Projekt+Dariusz+Majchrzak/data=!4m7!3m6!1s0x4703f22f72697889:0xdc2752b287400c80!8m2!3d53.0195783!4d16.9043985!16s%2Fg%2F11cnb49vbn!19sChIJiXhpci_yA0cRgAxAh7JSJ9w?authuser=0&hl=tr&rclk=1",
    "website_url": "",
    "rating_text": "4,4",
    "stars": null,
    "number_of_reviews": null,
    "price_level": "",
    "open_hours": "",
    "extraction_timestamp": "2025-06-07T17:25:27.716Z",
    "source_name": "google",
    "source_query": "Irrigation Equipment",
    "source_country": "PL",
    "country": "Poland",
    "state": "Greater Poland Voivodeship",
    "city": "Powiat chodzieski"
  },
  {
    "source_id": "ChIJofAIVc_zA0cRDjBAG1Ar55k",
    "name": "JarajTo",
    "category": "JarajTo",
    "formatted_address": "4,7(73)",
    "phone_number": "+48616427420",
    "source_url": "https://www.google.com/maps/place/JarajTo/data=!4m7!3m6!1s0x4703f3cf5508f0a1:0x99e72b501b40300e!8m2!3d52.9518378!4d16.9442572!16s%2Fg%2F11fx7vryck!19sChIJofAIVc_zA0cRDjBAG1Ar55k?authuser=0&hl=tr&rclk=1",
    "website_url": "",
    "rating_text": "4,7",
    "stars": null,
    "number_of_reviews": null,
    "price_level": "",
    "open_hours": "",
    "extraction_timestamp": "2025-06-07T17:25:27.717Z",
    "source_name": "google",
    "source_query": "Irrigation Equipment",
    "source_country": "PL",
    "country": "Poland",
    "state": "Greater Poland Voivodeship",
    "city": "Powiat chodzieski"
  },
  {
    "source_id": "ChIJY8cslk-LA0cRaOKNT4djDj0",
    "name": "Zakuwanie Węży Hydraulicznych Jędruś",
    "category": "Zakuwanie Węży Hydraulicznych Jędruś",
    "formatted_address": "5,0(11)",
    "phone_number": "+48603049940",
    "source_url": "https://www.google.com/maps/place/Zakuwanie+W%C4%99%C5%BCy+Hydraulicznych+J%C4%99dru%C5%9B/data=!4m7!3m6!1s0x47038b4f962cc763:0x3d0e63874f8de268!8m2!3d52.8964115!4d16.9791463!16s%2Fg%2F11y1sg_qm2!19sChIJY8cslk-LA0cRaOKNT4djDj0?authuser=0&hl=tr&rclk=1",
    "website_url": "",
    "rating_text": "5,0",
    "stars": null,
    "number_of_reviews": null,
    "price_level": "",
    "open_hours": "",
    "extraction_timestamp": "2025-06-07T17:25:27.718Z",
    "source_name": "google",
    "source_query": "Irrigation Equipment",
    "source_country": "PL",
    "country": "Poland",
    "state": "Greater Poland Voivodeship",
    "city": "Powiat chodzieski"
  },
  {
    "source_id": "ChIJpwrrdooJiEoR9sGCYtDw7fY",
    "name": "Expert Gaz Arkadiusz Spychalski. Serwis urządzeń grzewczych",
    "category": "Expert Gaz Arkadiusz Spychalski. Serwis urządzeń grzewczych",
    "formatted_address": "5,0(14)",
    "phone_number": "+48880468846",
    "source_url": "https://www.google.com/maps/place/Expert+Gaz+Arkadiusz+Spychalski.+Serwis+urz%C4%85dze%C5%84+grzewczych/data=!4m7!3m6!1s0x4a88098a76eb0aa7:0xf6edf0d06282c1f6!8m2!3d53.0162058!4d16.9529053!16s%2Fg%2F11l1y2d3dq!19sChIJpwrrdooJiEoR9sGCYtDw7fY?authuser=0&hl=tr&rclk=1",
    "website_url": "",
    "rating_text": "5,0",
    "stars": null,
    "number_of_reviews": null,
    "price_level": "",
    "open_hours": "",
    "extraction_timestamp": "2025-06-07T17:25:27.721Z",
    "source_name": "google",
    "source_query": "Irrigation Equipment",
    "source_country": "PL",
    "country": "Poland",
    "state": "Greater Poland Voivodeship",
    "city": "Powiat chodzieski"
  },
  {
    "source_id": "ChIJIxomosnzA0cRnwrke3K35fM",
    "name": "Kaczmarek M. Napoje",
    "category": "Kaczmarek M. Napoje",
    "formatted_address": "5,0(4)",
    "phone_number": "+48672820883",
    "source_url": "https://www.google.com/maps/place/Kaczmarek+M.+Napoje/data=!4m7!3m6!1s0x4703f3c9a2261a23:0xf3e5b7727be40a9f!8m2!3d52.9986822!4d16.9147052!16s%2Fg%2F1v1vbx4h!19sChIJIxomosnzA0cRnwrke3K35fM?authuser=0&hl=tr&rclk=1",
    "website_url": "",
    "rating_text": "5,0",
    "stars": null,
    "number_of_reviews": null,
    "price_level": "",
    "open_hours": "",
    "extraction_timestamp": "2025-06-07T17:25:27.722Z",
    "source_name": "google",
    "source_query": "Irrigation Equipment",
    "source_country": "PL",
    "country": "Poland",
    "state": "Greater Poland Voivodeship",
    "city": "Powiat chodzieski"
  },
  {
    "source_id": "ChIJNwfQpoLzA0cRYk5CNORPMnw",
    "name": "Bricomarché",
    "category": "Bricomarché",
    "formatted_address": "4,1(525)",
    "phone_number": "+48509197425",
    "source_url": "https://www.google.com/maps/place/Bricomarch%C3%A9/data=!4m7!3m6!1s0x4703f382a6d00737:0x7c324fe434424e62!8m2!3d52.9865174!4d16.9208509!16s%2Fg%2F11fn1h21cn!19sChIJNwfQpoLzA0cRYk5CNORPMnw?authuser=0&hl=tr&rclk=1",
    "website_url": "",
    "rating_text": "4,1",
    "stars": null,
    "number_of_reviews": null,
    "price_level": "",
    "open_hours": "",
    "extraction_timestamp": "2025-06-07T17:25:27.723Z",
    "source_name": "google",
    "source_query": "Irrigation Equipment",
    "source_country": "PL",
    "country": "Poland",
    "state": "Greater Poland Voivodeship",
    "city": "Powiat chodzieski"
  },
  {
    "source_id": "ChIJtYeyvN1zBEcR6noD_r1poQs",
    "name": "FAKT Armatura",
    "category": "FAKT Armatura",
    "formatted_address": "4,8(43)",
    "phone_number": "+48672617371",
    "source_url": "https://www.google.com/maps/place/FAKT+Armatura/data=!4m7!3m6!1s0x470473ddbcb287b5:0xba169bdfe037aea!8m2!3d52.751154!4d16.982685!16s%2Fg%2F1tmxpq97!19sChIJtYeyvN1zBEcR6noD_r1poQs?authuser=0&hl=tr&rclk=1",
    "website_url": "",
    "rating_text": "4,8",
    "stars": null,
    "number_of_reviews": null,
    "price_level": "",
    "open_hours": "",
    "extraction_timestamp": "2025-06-07T17:25:27.724Z",
    "source_name": "google",
    "source_query": "Irrigation Equipment",
    "source_country": "PL",
    "country": "Poland",
    "state": "Greater Poland Voivodeship",
    "city": "Powiat chodzieski"
  },
  {
    "source_id": "ChIJW_gAhpjzA0cRRKK6Sfe-VYU",
    "name": "Hydraulik Chodzież.",
    "category": "Hydraulik Chodzież.",
    "formatted_address": "5,0(4)",
    "phone_number": "+48502002021",
    "source_url": "https://www.google.com/maps/place/Hydraulik+Chodzie%C5%BC./data=!4m7!3m6!1s0x4703f3988600f85b:0x8555bef749baa244!8m2!3d52.9999555!4d16.912017!16s%2Fg%2F11x7y_ppjr!19sChIJW_gAhpjzA0cRRKK6Sfe-VYU?authuser=0&hl=tr&rclk=1",
    "website_url": "",
    "rating_text": "5,0",
    "stars": null,
    "number_of_reviews": null,
    "price_level": "",
    "open_hours": "",
    "extraction_timestamp": "2025-06-07T17:25:27.726Z",
    "source_name": "google",
    "source_query": "Irrigation Equipment",
    "source_country": "PL",
    "country": "Poland",
    "state": "Greater Poland Voivodeship",
    "city": "Powiat chodzieski"
  },
  {
    "source_id": "ChIJsdOeR8bzA0cRw-PVBPt0Yjo",
    "name": "ALKON s.c.",
    "category": "ALKON s.c.",
    "formatted_address": "4,7(13)",
    "phone_number": "+48693252502",
    "source_url": "https://www.google.com/maps/place/ALKON+s.c./data=!4m7!3m6!1s0x4703f3c6479ed3b1:0x3a6274fb04d5e3c3!8m2!3d52.9934791!4d16.9100991!16s%2Fg%2F1tglxpfq!19sChIJsdOeR8bzA0cRw-PVBPt0Yjo?authuser=0&hl=tr&rclk=1",
    "website_url": "",
    "rating_text": "4,7",
    "stars": null,
    "number_of_reviews": null,
    "price_level": "",
    "open_hours": "",
    "extraction_timestamp": "2025-06-07T17:25:27.727Z",
    "source_name": "google",
    "source_query": "Irrigation Equipment",
    "source_country": "PL",
    "country": "Poland",
    "state": "Greater Poland Voivodeship",
    "city": "Powiat chodzieski"
  },
  {
    "source_id": "ChIJvzzfhbjzA0cRFyJ_xmGh2Wo",
    "name": "Akara. Kostrzewa-Lewińska I.",
    "category": "Akara. Kostrzewa-Lewińska I.",
    "formatted_address": "4,7(156)",
    "phone_number": "+48605369830",
    "source_url": "https://www.google.com/maps/place/Akara.+Kostrzewa-Lewi%C5%84ska+I./data=!4m7!3m6!1s0x4703f3b885df3cbf:0x6ad9a161c67f2217!8m2!3d52.9913938!4d16.9155723!16s%2Fg%2F1tjs3n24!19sChIJvzzfhbjzA0cRFyJ_xmGh2Wo?authuser=0&hl=tr&rclk=1",
    "website_url": "",
    "rating_text": "4,7",
    "stars": null,
    "number_of_reviews": null,
    "price_level": "",
    "open_hours": "",
    "extraction_timestamp": "2025-06-07T17:25:27.728Z",
    "source_name": "google",
    "source_query": "Irrigation Equipment",
    "source_country": "PL",
    "country": "Poland",
    "state": "Greater Poland Voivodeship",
    "city": "Powiat chodzieski"
  },
  {
    "source_id": "ChIJUfn2Ig35A0cREW9fZ4029UM",
    "name": "IMTechnika sp. z o.o.",
    "category": "IMTechnika sp. z o.o.",
    "formatted_address": "4,4(17)",
    "phone_number": "+48883820388",
    "source_url": "https://www.google.com/maps/place/IMTechnika+sp.+z+o.o./data=!4m7!3m6!1s0x4703f90d22f6f951:0x43f5368d675f6f11!8m2!3d52.9756271!4d16.657836!16s%2Fg%2F11bw48_6mg!19sChIJUfn2Ig35A0cREW9fZ4029UM?authuser=0&hl=tr&rclk=1",
    "website_url": "",
    "rating_text": "4,4",
    "stars": null,
    "number_of_reviews": null,
    "price_level": "",
    "open_hours": "",
    "extraction_timestamp": "2025-06-07T17:25:27.729Z",
    "source_name": "google",
    "source_query": "Irrigation Equipment",
    "source_country": "PL",
    "country": "Poland",
    "state": "Greater Poland Voivodeship",
    "city": "Powiat chodzieski"
  },
  {
    "source_id": "ChIJK9kfbTh4BEcRM3svr3T5R7k",
    "name": "AGROHOSE PRZEWODY HYDRAULICZNE",
    "category": "AGROHOSE PRZEWODY HYDRAULICZNE",
    "formatted_address": "5,0(25)",
    "phone_number": "+48607719861",
    "source_url": "https://www.google.com/maps/place/AGROHOSE+PRZEWODY+HYDRAULICZNE/data=!4m7!3m6!1s0x470478386d1fd92b:0xb947f974af2f7b33!8m2!3d52.800697!4d17.190384!16s%2Fg%2F1ptxrm4wp!19sChIJK9kfbTh4BEcRM3svr3T5R7k?authuser=0&hl=tr&rclk=1",
    "website_url": "",
    "rating_text": "5,0",
    "stars": null,
    "number_of_reviews": null,
    "price_level": "",
    "open_hours": "",
    "extraction_timestamp": "2025-06-07T17:25:27.730Z",
    "source_name": "google",
    "source_query": "Irrigation Equipment",
    "source_country": "PL",
    "country": "Poland",
    "state": "Greater Poland Voivodeship",
    "city": "Powiat chodzieski"
  },
  {
    "source_id": "ChIJV67NQPTyA0cR2wEiNiSZHvA",
    "name": "KanVex Alexander Alva",
    "category": "KanVex Alexander Alva",
    "formatted_address": "4,5(52)",
    "phone_number": "+48535758955",
    "source_url": "https://www.google.com/maps/place/KanVex+Alexander+Alva/data=!4m7!3m6!1s0x4703f2f440cdae57:0xf01e9924362201db!8m2!3d52.9993903!4d16.9112752!16s%2Fg%2F11f3x68yv8!19sChIJV67NQPTyA0cR2wEiNiSZHvA?authuser=0&hl=tr&rclk=1",
    "website_url": "",
    "rating_text": "4,5",
    "stars": null,
    "number_of_reviews": null,
    "price_level": "",
    "open_hours": "",
    "extraction_timestamp": "2025-06-07T17:25:27.732Z",
    "source_name": "google",
    "source_query": "Irrigation Equipment",
    "source_country": "PL",
    "country": "Poland",
    "state": "Greater Poland Voivodeship",
    "city": "Powiat chodzieski"
  },
  {
    "source_id": "ChIJqUm8g1uMA0cRRN5ProrrWvI",
    "name": "Wypożyczalnia Sprzętu Wodnego \"Wodnik\" Margonin",
    "category": "Wypożyczalnia Sprzętu Wodnego \"Wodnik\" Margonin",
    "formatted_address": "4,6(24)",
    "phone_number": "+48785502464",
    "source_url": "https://www.google.com/maps/place/Wypo%C5%BCyczalnia+Sprz%C4%99tu+Wodnego+%22Wodnik%22+Margonin/data=!4m7!3m6!1s0x47038c5b83bc49a9:0xf25aeb8aae4fde44!8m2!3d52.9686463!4d17.0772272!16s%2Fg%2F1v6wm___!19sChIJqUm8g1uMA0cRRN5ProrrWvI?authuser=0&hl=tr&rclk=1",
    "website_url": "",
    "rating_text": "4,6",
    "stars": null,
    "number_of_reviews": null,
    "price_level": "",
    "open_hours": "",
    "extraction_timestamp": "2025-06-07T17:25:27.733Z",
    "source_name": "google",
    "source_query": "Irrigation Equipment",
    "source_country": "PL",
    "country": "Poland",
    "state": "Greater Poland Voivodeship",
    "city": "Powiat chodzieski"
  },
  {
    "source_id": "ChIJk8NYTdqTA0cRY5IVO4k9S1M",
    "name": "GRENE",
    "category": "GRENE",
    "formatted_address": "4,0(7)",
    "phone_number": "+48609101760",
    "source_url": "https://www.google.com/maps/place/GRENE/data=!4m7!3m6!1s0x470393da4d58c393:0x534b3d893b159263!8m2!3d53.0279629!4d17.1188131!16s%2Fg%2F11fmp4tqyp!19sChIJk8NYTdqTA0cRY5IVO4k9S1M?authuser=0&hl=tr&rclk=1",
    "website_url": "",
    "rating_text": "4,0",
    "stars": null,
    "number_of_reviews": null,
    "price_level": "",
    "open_hours": "",
    "extraction_timestamp": "2025-06-07T17:25:27.734Z",
    "source_name": "google",
    "source_query": "Irrigation Equipment",
    "source_country": "PL",
    "country": "Poland",
    "state": "Greater Poland Voivodeship",
    "city": "Powiat chodzieski"
  },
  {
    "source_id": "ChIJdbglSL_zA0cREY__PlJEaME",
    "name": "Livio Artykuły Spożywce",
    "category": "Livio Artykuły Spożywce",
    "formatted_address": "4,9(14)",
    "phone_number": "+48531635474",
    "source_url": "https://www.google.com/maps/place/Livio+Artyku%C5%82y+Spo%C5%BCywce/data=!4m7!3m6!1s0x4703f3bf4825b875:0xc16844523eff8f11!8m2!3d52.9884975!4d16.9141965!16s%2Fg%2F11rs0jcpjc!19sChIJdbglSL_zA0cREY__PlJEaME?authuser=0&hl=tr&rclk=1",
    "website_url": "",
    "rating_text": "4,9",
    "stars": null,
    "number_of_reviews": null,
    "price_level": "",
    "open_hours": "",
    "extraction_timestamp": "2025-06-07T17:25:27.735Z",
    "source_name": "google",
    "source_query": "Irrigation Equipment",
    "source_country": "PL",
    "country": "Poland",
    "state": "Greater Poland Voivodeship",
    "city": "Powiat chodzieski"
  },
  {
    "source_id": "ChIJjSkyVVrlA0cR4LxRq4X4-_o",
    "name": "ASTA ENERGY SYSTEMS Sp. z o.o.",
    "category": "ASTA ENERGY SYSTEMS Sp. z o.o.",
    "formatted_address": "4,9(229)",
    "phone_number": "+48508018845",
    "source_url": "https://www.google.com/maps/place/ASTA+ENERGY+SYSTEMS+Sp.+z+o.o./data=!4m7!3m6!1s0x4703e55a5532298d:0xfafbf885ab51bce0!8m2!3d53.1147071!4d16.772922!16s%2Fg%2F11q8wxwgp7!19sChIJjSkyVVrlA0cR4LxRq4X4-_o?authuser=0&hl=tr&rclk=1",
    "website_url": "",
    "rating_text": "4,9",
    "stars": null,
    "number_of_reviews": null,
    "price_level": "",
    "open_hours": "",
    "extraction_timestamp": "2025-06-07T17:25:27.736Z",
    "source_name": "google",
    "source_query": "Irrigation Equipment",
    "source_country": "PL",
    "country": "Poland",
    "state": "Greater Poland Voivodeship",
    "city": "Powiat chodzieski"
  },
  {
    "source_id": "ChIJDZqipKjzA0cRfeYpoFFJi7c",
    "name": "P.H.U. Centrala Nasienna sp z o.o.",
    "category": "P.H.U. Centrala Nasienna sp z o.o.",
    "formatted_address": "5,0(1)",
    "phone_number": "+48672559092",
    "source_url": "https://www.google.com/maps/place/P.H.U.+Centrala+Nasienna+sp+z+o.o./data=!4m7!3m6!1s0x4703f3a8a4a29a0d:0xb78b4951a029e67d!8m2!3d52.996044!4d16.9244475!16s%2Fg%2F11vq3sjpl_!19sChIJDZqipKjzA0cRfeYpoFFJi7c?authuser=0&hl=tr&rclk=1",
    "website_url": "",
    "rating_text": "5,0",
    "stars": null,
    "number_of_reviews": null,
    "price_level": "",
    "open_hours": "",
    "extraction_timestamp": "2025-06-07T17:25:27.736Z",
    "source_name": "google",
    "source_query": "Irrigation Equipment",
    "source_country": "PL",
    "country": "Poland",
    "state": "Greater Poland Voivodeship",
    "city": "Powiat chodzieski"
  },
  {
    "source_id": "ChIJL7W5b7PzA0cR9QfgTyrDcfU",
    "name": "SPAWALNIK",
    "category": "SPAWALNIK",
    "formatted_address": "3,0(6)",
    "phone_number": "+48500422657",
    "source_url": "https://www.google.com/maps/place/SPAWALNIK/data=!4m7!3m6!1s0x4703f3b36fb9b52f:0xf571c32a4fe007f5!8m2!3d53.0014678!4d16.9300156!16s%2Fg%2F1hc74z0gd!19sChIJL7W5b7PzA0cR9QfgTyrDcfU?authuser=0&hl=tr&rclk=1",
    "website_url": "",
    "rating_text": "3,0",
    "stars": null,
    "number_of_reviews": null,
    "price_level": "",
    "open_hours": "",
    "extraction_timestamp": "2025-06-07T17:25:27.737Z",
    "source_name": "google",
    "source_query": "Irrigation Equipment",
    "source_country": "PL",
    "country": "Poland",
    "state": "Greater Poland Voivodeship",
    "city": "Powiat chodzieski"
  },
  {
    "source_id": "ChIJASEN_1GMA0cRegxi4YfQAHY",
    "name": "MARGOSTAL - Rewolińscy Sp. o.o. limited partnership",
    "category": "MARGOSTAL - Rewolińscy Sp. o.o. limited partnership",
    "formatted_address": "4,7(21)",
    "phone_number": "+48672846520",
    "source_url": "https://www.google.com/maps/place/MARGOSTAL+-+Rewoli%C5%84scy+Sp.+o.o.+limited+partnership/data=!4m7!3m6!1s0x47038c51ff0d2101:0x7600d087e1620c7a!8m2!3d52.97538!4d17.084672!16s%2Fg%2F1thp_dyn!19sChIJASEN_1GMA0cRegxi4YfQAHY?authuser=0&hl=tr&rclk=1",
    "website_url": "",
    "rating_text": "4,7",
    "stars": null,
    "number_of_reviews": null,
    "price_level": "",
    "open_hours": "",
    "extraction_timestamp": "2025-06-07T17:25:27.738Z",
    "source_name": "google",
    "source_query": "Irrigation Equipment",
    "source_country": "PL",
    "country": "Poland",
    "state": "Greater Poland Voivodeship",
    "city": "Powiat chodzieski"
  },
  {
    "source_id": "ChIJU1qwgBydA0cR6kpBeahDutk",
    "name": "GRENE",
    "category": "GRENE",
    "formatted_address": "4,5(77)",
    "phone_number": "+48523847347",
    "source_url": "https://www.google.com/maps/place/GRENE/data=!4m7!3m6!1s0x47039d1c80b05a53:0xd9ba43a879414aea!8m2!3d52.9951999!4d17.4889767!16s%2Fg%2F1wfvlc02!19sChIJU1qwgBydA0cR6kpBeahDutk?authuser=0&hl=tr&rclk=1",
    "website_url": "",
    "rating_text": "4,5",
    "stars": null,
    "number_of_reviews": null,
    "price_level": "",
    "open_hours": "",
    "extraction_timestamp": "2025-06-07T17:25:27.739Z",
    "source_name": "google",
    "source_query": "Irrigation Equipment",
    "source_country": "PL",
    "country": "Poland",
    "state": "Greater Poland Voivodeship",
    "city": "Powiat chodzieski"
  },
  {
    "source_id": "ChIJ5WfwgscOBEcRgW3EF2RROUI",
    "name": "GRENE",
    "category": "GRENE",
    "formatted_address": "4,7(32)",
    "phone_number": "+48510097561",
    "source_url": "https://www.google.com/maps/place/GRENE/data=!4m7!3m6!1s0x47040ec782f067e5:0x4239516417c46d81!8m2!3d52.8027312!4d16.7168381!16s%2Fg%2F11bzrkv48g!19sChIJ5WfwgscOBEcRgW3EF2RROUI?authuser=0&hl=tr&rclk=1",
    "website_url": "",
    "rating_text": "4,7",
    "stars": null,
    "number_of_reviews": null,
    "price_level": "",
    "open_hours": "",
    "extraction_timestamp": "2025-06-07T17:25:27.740Z",
    "source_name": "google",
    "source_query": "Irrigation Equipment",
    "source_country": "PL",
    "country": "Poland",
    "state": "Greater Poland Voivodeship",
    "city": "Powiat chodzieski"
  },
  {
    "source_id": "ChIJm157JjygA0cRteKoUGyj78Q",
    "name": "TECH-ROL Szymon Bączek - sklep z asortymentem rolniczym, przemysłowym i ogrodniczym",
    "category": "TECH-ROL Szymon Bączek - sklep z asortymentem rolniczym, przemysłowym i ogrodniczym",
    "formatted_address": "TECH-ROL Szymon Bączek - sklep z asortymentem rolniczym, przemysłowym i ogrodniczym",
    "phone_number": "+48523854264",
    "source_url": "https://www.google.com/maps/place/TECH-ROL+Szymon+B%C4%85czek+-+sklep+z+asortymentem+rolniczym,+przemys%C5%82owym+i+ogrodniczym/data=!4m7!3m6!1s0x4703a03c267b5e9b:0xc4efa36c50a8e2b5!8m2!3d53.1428219!4d17.6117518!16s%2Fg%2F1v0ljgml!19sChIJm157JjygA0cRteKoUGyj78Q?authuser=0&hl=tr&rclk=1",
    "website_url": "",
    "rating_text": "4,6",
    "stars": null,
    "number_of_reviews": null,
    "price_level": "",
    "open_hours": "",
    "extraction_timestamp": "2025-06-07T17:25:27.741Z",
    "source_name": "google",
    "source_query": "Irrigation Equipment",
    "source_country": "PL",
    "country": "Poland",
    "state": "Greater Poland Voivodeship",
    "city": "Powiat chodzieski"
  },
  {
    "source_id": "ChIJI83Gz6jmA0cRiKQ79Ugo8rA",
    "name": "Hydro-Instal",
    "category": "Hydro-Instal",
    "formatted_address": "2,2(5)",
    "phone_number": "+48606960257",
    "source_url": "https://www.google.com/maps/place/Hydro-Instal/data=!4m7!3m6!1s0x4703e6a8cfc6cd23:0xb0f22848f53ba488!8m2!3d53.16926!4d16.7398731!16s%2Fg%2F1v0ljgmw!19sChIJI83Gz6jmA0cRiKQ79Ugo8rA?authuser=0&hl=tr&rclk=1",
    "website_url": "",
    "rating_text": "2,2",
    "stars": null,
    "number_of_reviews": null,
    "price_level": "",
    "open_hours": "",
    "extraction_timestamp": "2025-06-07T17:25:27.742Z",
    "source_name": "google",
    "source_query": "Irrigation Equipment",
    "source_country": "PL",
    "country": "Poland",
    "state": "Greater Poland Voivodeship",
    "city": "Powiat chodzieski"
  },
  {
    "source_id": "ChIJUdpT6o6mA0cRd3ljgsab68k",
    "name": "GRENE",
    "category": "GRENE",
    "formatted_address": "4,4(48)",
    "phone_number": "+48523447465",
    "source_url": "https://www.google.com/maps/place/GRENE/data=!4m7!3m6!1s0x4703a68eea53da51:0xc9eb9bc682637977!8m2!3d53.2507712!4d17.6081286!16s%2Fg%2F1tdmt9yd!19sChIJUdpT6o6mA0cRd3ljgsab68k?authuser=0&hl=tr&rclk=1",
    "website_url": "",
    "rating_text": "4,4",
    "stars": null,
    "number_of_reviews": null,
    "price_level": "",
    "open_hours": "",
    "extraction_timestamp": "2025-06-07T17:25:27.743Z",
    "source_name": "google",
    "source_query": "Irrigation Equipment",
    "source_country": "PL",
    "country": "Poland",
    "state": "Greater Poland Voivodeship",
    "city": "Powiat chodzieski"
  },
  {
    "source_id": "ChIJw8QPLtIABEcRSnudYYyp6GQ",
    "name": "Sanit-El Sp.J. Hurtownia materiałów instalacyjnych",
    "category": "Sanit-El Sp.J. Hurtownia materiałów instalacyjnych",
    "formatted_address": "4,7(27)",
    "phone_number": "+48672555214",
    "source_url": "https://www.google.com/maps/place/Sanit-El+Sp.J.+Hurtownia+materia%C5%82%C3%B3w+instalacyjnych/data=!4m7!3m6!1s0x470400d22e0fc4c3:0x64e8a98c619d7b4a!8m2!3d52.8917003!4d16.5449032!16s%2Fg%2F1tfjjv4j!19sChIJw8QPLtIABEcRSnudYYyp6GQ?authuser=0&hl=tr&rclk=1",
    "website_url": "",
    "rating_text": "4,7",
    "stars": null,
    "number_of_reviews": null,
    "price_level": "",
    "open_hours": "",
    "extraction_timestamp": "2025-06-07T17:25:27.744Z",
    "source_name": "google",
    "source_query": "Irrigation Equipment",
    "source_country": "PL",
    "country": "Poland",
    "state": "Greater Poland Voivodeship",
    "city": "Powiat chodzieski"
  },
  {
    "source_id": "ChIJaTmLnAdbBEcRh0PGc9ql6wI",
    "name": "cubepools",
    "category": "cubepools",
    "formatted_address": "4,7(39)",
    "phone_number": "+48502344777",
    "source_url": "https://www.google.com/maps/place/cubepools/data=!4m7!3m6!1s0x47045b079c8b3969:0x2eba5da73c64387!8m2!3d52.7521919!4d16.9686685!16s%2Fg%2F11h4g02w0p!19sChIJaTmLnAdbBEcRh0PGc9ql6wI?authuser=0&hl=tr&rclk=1",
    "website_url": "",
    "rating_text": "4,7",
    "stars": null,
    "number_of_reviews": null,
    "price_level": "",
    "open_hours": "",
    "extraction_timestamp": "2025-06-07T17:25:27.746Z",
    "source_name": "google",
    "source_query": "Irrigation Equipment",
    "source_country": "PL",
    "country": "Poland",
    "state": "Greater Poland Voivodeship",
    "city": "Powiat chodzieski"
  },
  {
    "source_id": "ChIJObSiHLbzA0cRg8LdCRxfcwY",
    "name": "Grosik",
    "category": "Grosik",
    "formatted_address": "4,3(74)",
    "phone_number": "+48672810951",
    "source_url": "https://www.google.com/maps/place/Grosik/data=!4m7!3m6!1s0x4703f3b61ca2b439:0x6735f1c09ddc283!8m2!3d52.99893!4d16.919168!16s%2Fg%2F1vyxh34d!19sChIJObSiHLbzA0cRg8LdCRxfcwY?authuser=0&hl=tr&rclk=1",
    "website_url": "",
    "rating_text": "4,3",
    "stars": null,
    "number_of_reviews": null,
    "price_level": "",
    "open_hours": "",
    "extraction_timestamp": "2025-06-07T17:25:27.746Z",
    "source_name": "google",
    "source_query": "Irrigation Equipment",
    "source_country": "PL",
    "country": "Poland",
    "state": "Greater Poland Voivodeship",
    "city": "Powiat chodzieski"
  },
  {
    "source_id": "ChIJTQ3BysfzA0cRAqRjhVun7DE",
    "name": "Intermarche",
    "category": "Intermarche",
    "formatted_address": "4,3(225)",
    "phone_number": "",
    "source_url": "https://www.google.com/maps/place/Intermarche/data=!4m7!3m6!1s0x4703f3c7cac10d4d:0x31eca75b8563a402!8m2!3d52.9937024!4d16.9113304!16s%2Fg%2F11cst1yz6x!19sChIJTQ3BysfzA0cRAqRjhVun7DE?authuser=0&hl=tr&rclk=1",
    "website_url": "",
    "rating_text": "4,3",
    "stars": null,
    "number_of_reviews": null,
    "price_level": "",
    "open_hours": "",
    "extraction_timestamp": "2025-06-07T17:25:27.747Z",
    "source_name": "google",
    "source_query": "Irrigation Equipment",
    "source_country": "PL",
    "country": "Poland",
    "state": "Greater Poland Voivodeship",
    "city": "Powiat chodzieski"
  },
  {
    "source_id": "ChIJXbGhVtxvBEcRWiehOaf5NoU",
    "name": "Brumar-hydro",
    "category": "Brumar-hydro",
    "formatted_address": "5,0(1)",
    "phone_number": "+48501796989",
    "source_url": "https://www.google.com/maps/place/Brumar-hydro/data=!4m7!3m6!1s0x47046fdc56a1b15d:0x8536f9a739a1275a!8m2!3d52.7476898!4d17.1610964!16s%2Fg%2F11lz1q4t91!19sChIJXbGhVtxvBEcRWiehOaf5NoU?authuser=0&hl=tr&rclk=1",
    "website_url": "",
    "rating_text": "5,0",
    "stars": null,
    "number_of_reviews": null,
    "price_level": "",
    "open_hours": "",
    "extraction_timestamp": "2025-06-07T17:25:27.749Z",
    "source_name": "google",
    "source_query": "Irrigation Equipment",
    "source_country": "PL",
    "country": "Poland",
    "state": "Greater Poland Voivodeship",
    "city": "Powiat chodzieski"
  },
  {
    "source_id": "ChIJRebjL8SFA0cRFu4w5lIOj34",
    "name": "Nowaczewski",
    "category": "Nowaczewski",
    "formatted_address": "5,0(2)",
    "phone_number": "",
    "source_url": "https://www.google.com/maps/place/Nowaczewski/data=!4m7!3m6!1s0x470385c42fe3e645:0x7e8f0e52e630ee16!8m2!3d52.944068!4d17.2992243!16s%2Fg%2F11f77c3yk5!19sChIJRebjL8SFA0cRFu4w5lIOj34?authuser=0&hl=tr&rclk=1",
    "website_url": "",
    "rating_text": "5,0",
    "stars": null,
    "number_of_reviews": null,
    "price_level": "",
    "open_hours": "",
    "extraction_timestamp": "2025-06-07T17:25:27.749Z",
    "source_name": "google",
    "source_query": "Irrigation Equipment",
    "source_country": "PL",
    "country": "Poland",
    "state": "Greater Poland Voivodeship",
    "city": "Powiat chodzieski"
  }
]
