[
  {
    "source_id": "ChIJfer5NyekGkcRUk6SBoom4gE",
    "name": "Hurtownia hydrauliczna Jolanta Dutkowska",
    "category": "Hurtownia hydrauliczna Jolanta Dutkowska",
    "formatted_address": "4,7(21)",
    "phone_number": "+48510211399",
    "source_url": "https://www.google.com/maps/place/Hurtownia+hydrauliczna+Jolanta+Dutkowska/data=!4m7!3m6!1s0x471aa42737f9ea7d:0x1e2268a06924e52!8m2!3d51.4167467!4d17.9146987!16s%2Fg%2F1vqmh32w!19sChIJfer5NyekGkcRUk6SBoom4gE?authuser=0&hl=tr&rclk=1",
    "website_url": "",
    "rating_text": "4,7",
    "stars": null,
    "number_of_reviews": null,
    "price_level": "",
    "open_hours": "",
    "extraction_timestamp": "2025-06-07T17:45:04.112Z",
    "source_name": "google",
    "source_query": "Irrigation Equipment",
    "source_country": "PL",
    "country": "Poland",
    "state": "Greater Poland Voivodeship",
    "city": "Powiat ostrzeszowski"
  },
  {
    "source_id": "ChIJgztO0zukGkcRhGo7klNFRWI",
    "name": "Agromet Sp. z o.o.",
    "category": "Agromet Sp. z o.o.",
    "formatted_address": "5,0(4)",
    "phone_number": "+48627322440",
    "source_url": "https://www.google.com/maps/place/Agromet+Sp.+z+o.o./data=!4m7!3m6!1s0x471aa43bd34e3b83:0x62454553923b6a84!8m2!3d51.4237623!4d17.9212593!16s%2Fg%2F11gzvc568!19sChIJgztO0zukGkcRhGo7klNFRWI?authuser=0&hl=tr&rclk=1",
    "website_url": "",
    "rating_text": "5,0",
    "stars": null,
    "number_of_reviews": null,
    "price_level": "",
    "open_hours": "",
    "extraction_timestamp": "2025-06-07T17:45:04.112Z",
    "source_name": "google",
    "source_query": "Irrigation Equipment",
    "source_country": "PL",
    "country": "Poland",
    "state": "Greater Poland Voivodeship",
    "city": "Powiat ostrzeszowski"
  },
  {
    "source_id": "ChIJUZmUozqkGkcRitHTlh8kTpY",
    "name": "SFB Polska sp. z o.o.",
    "category": "SFB Polska sp. z o.o.",
    "formatted_address": "4,5(37)",
    "phone_number": "+48625903387",
    "source_url": "https://www.google.com/maps/place/SFB+Polska+sp.+z+o.o./data=!4m7!3m6!1s0x471aa43aa3949951:0x964e241f96d3d18a!8m2!3d51.4198946!4d17.9151763!16s%2Fg%2F11c30v2386!19sChIJUZmUozqkGkcRitHTlh8kTpY?authuser=0&hl=tr&rclk=1",
    "website_url": "",
    "rating_text": "4,5",
    "stars": null,
    "number_of_reviews": null,
    "price_level": "",
    "open_hours": "",
    "extraction_timestamp": "2025-06-07T17:45:04.112Z",
    "source_name": "google",
    "source_query": "Irrigation Equipment",
    "source_country": "PL",
    "country": "Poland",
    "state": "Greater Poland Voivodeship",
    "city": "Powiat ostrzeszowski"
  },
  {
    "source_id": "ChIJt7LveKClGkcRNLrdd48blPU",
    "name": "Żelimet - Technika grzewcza, instalacyjna",
    "category": "Żelimet - Technika grzewcza, instalacyjna",
    "formatted_address": "Żelimet - Technika grzewcza, instalacyjna",
    "phone_number": "",
    "source_url": "https://www.google.com/maps/place/%C5%BBelimet+-+Technika+grzewcza,+instalacyjna/data=!4m7!3m6!1s0x471aa5a078efb2b7:0xf5941b8f77ddba34!8m2!3d51.4198912!4d17.9364644!16s%2Fg%2F11hvp49hw1!19sChIJt7LveKClGkcRNLrdd48blPU?authuser=0&hl=tr&rclk=1",
    "website_url": "",
    "rating_text": "4,0",
    "stars": null,
    "number_of_reviews": null,
    "price_level": "",
    "open_hours": "",
    "extraction_timestamp": "2025-06-07T17:45:04.113Z",
    "source_name": "google",
    "source_query": "Irrigation Equipment",
    "source_country": "PL",
    "country": "Poland",
    "state": "Greater Poland Voivodeship",
    "city": "Powiat ostrzeszowski"
  },
  {
    "source_id": "ChIJF02bOyWkGkcRe1kSOJSe8hs",
    "name": "Oring Szymczak. Szymczak M.",
    "category": "Oring Szymczak. Szymczak M.",
    "formatted_address": "3,9(23)",
    "phone_number": "+48795800850",
    "source_url": "https://www.google.com/maps/place/Oring+Szymczak.+Szymczak+M./data=!4m7!3m6!1s0x471aa4253b9b4d17:0x1bf29e943812597b!8m2!3d51.417619!4d17.9160682!16s%2Fg%2F1tdvyn8y!19sChIJF02bOyWkGkcRe1kSOJSe8hs?authuser=0&hl=tr&rclk=1",
    "website_url": "",
    "rating_text": "3,9",
    "stars": null,
    "number_of_reviews": null,
    "price_level": "",
    "open_hours": "",
    "extraction_timestamp": "2025-06-07T17:45:04.114Z",
    "source_name": "google",
    "source_query": "Irrigation Equipment",
    "source_country": "PL",
    "country": "Poland",
    "state": "Greater Poland Voivodeship",
    "city": "Powiat ostrzeszowski"
  },
  {
    "source_id": "ChIJBbNmrWqkGkcRmQYexZDPE7Q",
    "name": "Rolnik. Hurtownia spożywczo - przemysłowa",
    "category": "Rolnik. Hurtownia spożywczo - przemysłowa",
    "formatted_address": "4,2(92)",
    "phone_number": "+48627301142",
    "source_url": "https://www.google.com/maps/place/Rolnik.+Hurtownia+spo%C5%BCywczo+-+przemys%C5%82owa/data=!4m7!3m6!1s0x471aa46aad66b305:0xb413cf90c51e0699!8m2!3d51.426637!4d17.936394!16s%2Fg%2F1tjddykk!19sChIJBbNmrWqkGkcRmQYexZDPE7Q?authuser=0&hl=tr&rclk=1",
    "website_url": "",
    "rating_text": "4,2",
    "stars": null,
    "number_of_reviews": null,
    "price_level": "",
    "open_hours": "",
    "extraction_timestamp": "2025-06-07T17:45:04.115Z",
    "source_name": "google",
    "source_query": "Irrigation Equipment",
    "source_country": "PL",
    "country": "Poland",
    "state": "Greater Poland Voivodeship",
    "city": "Powiat ostrzeszowski"
  },
  {
    "source_id": "ChIJxWm0I1y7GkcRu4PHY-URO7Y",
    "name": "Modest. Serafinowski Z.",
    "category": "Modest. Serafinowski Z.",
    "formatted_address": "4,4(47)",
    "phone_number": "+48627319458",
    "source_url": "https://www.google.com/maps/place/Modest.+Serafinowski+Z./data=!4m7!3m6!1s0x471abb5c23b469c5:0xb63b11e563c783bb!8m2!3d51.5064258!4d18.0189984!16s%2Fg%2F1tff1skg!19sChIJxWm0I1y7GkcRu4PHY-URO7Y?authuser=0&hl=tr&rclk=1",
    "website_url": "",
    "rating_text": "4,4",
    "stars": null,
    "number_of_reviews": null,
    "price_level": "",
    "open_hours": "",
    "extraction_timestamp": "2025-06-07T17:45:04.116Z",
    "source_name": "google",
    "source_query": "Irrigation Equipment",
    "source_country": "PL",
    "country": "Poland",
    "state": "Greater Poland Voivodeship",
    "city": "Powiat ostrzeszowski"
  },
  {
    "source_id": "ChIJBbNmrWqkGkcRBPqI5J40pHo",
    "name": "Pawilon Handlowy Spółdzielni Rolniczo Handlowej Rolnik Ostrzeszów",
    "category": "Pawilon Handlowy Spółdzielni Rolniczo Handlowej Rolnik Ostrzeszów",
    "formatted_address": "4,4(297)",
    "phone_number": "+48627301151",
    "source_url": "https://www.google.com/maps/place/Pawilon+Handlowy+Sp%C3%B3%C5%82dzielni+Rolniczo+Handlowej+Rolnik+Ostrzesz%C3%B3w/data=!4m7!3m6!1s0x471aa46aad66b305:0x7aa4349ee488fa04!8m2!3d51.4264782!4d17.9361027!16s%2Fg%2F1tkjjyvd!19sChIJBbNmrWqkGkcRBPqI5J40pHo?authuser=0&hl=tr&rclk=1",
    "website_url": "",
    "rating_text": "4,4",
    "stars": null,
    "number_of_reviews": null,
    "price_level": "",
    "open_hours": "",
    "extraction_timestamp": "2025-06-07T17:45:04.116Z",
    "source_name": "google",
    "source_query": "Irrigation Equipment",
    "source_country": "PL",
    "country": "Poland",
    "state": "Greater Poland Voivodeship",
    "city": "Powiat ostrzeszowski"
  },
  {
    "source_id": "ChIJhSeYc26lGkcRg_FAkw3KK7A",
    "name": "Agrostrefa Ostrzeszów",
    "category": "Agrostrefa Ostrzeszów",
    "formatted_address": "3,6(23)",
    "phone_number": "+48500349384",
    "source_url": "https://www.google.com/maps/place/Agrostrefa+Ostrzesz%C3%B3w/data=!4m7!3m6!1s0x471aa56e73982785:0xb02bca0d9340f183!8m2!3d51.4352389!4d17.940544!16s%2Fg%2F11h0w3m7xb!19sChIJhSeYc26lGkcRg_FAkw3KK7A?authuser=0&hl=tr&rclk=1",
    "website_url": "",
    "rating_text": "3,6",
    "stars": null,
    "number_of_reviews": null,
    "price_level": "",
    "open_hours": "",
    "extraction_timestamp": "2025-06-07T17:45:04.117Z",
    "source_name": "google",
    "source_query": "Irrigation Equipment",
    "source_country": "PL",
    "country": "Poland",
    "state": "Greater Poland Voivodeship",
    "city": "Powiat ostrzeszowski"
  },
  {
    "source_id": "ChIJH49iLRSkGkcR-3oAOQX7Djw",
    "name": "Targowisko Miejskie Ostrzeszów",
    "category": "Targowisko Miejskie Ostrzeszów",
    "formatted_address": "4,2(551)",
    "phone_number": "+48661135312",
    "source_url": "https://www.google.com/maps/place/Targowisko+Miejskie+Ostrzesz%C3%B3w/data=!4m7!3m6!1s0x471aa4142d628f1f:0x3c0efb0539007afb!8m2!3d51.4210158!4d17.936436!16s%2Fg%2F11c1ptmkcp!19sChIJH49iLRSkGkcR-3oAOQX7Djw?authuser=0&hl=tr&rclk=1",
    "website_url": "",
    "rating_text": "4,2",
    "stars": null,
    "number_of_reviews": null,
    "price_level": "",
    "open_hours": "",
    "extraction_timestamp": "2025-06-07T17:45:04.118Z",
    "source_name": "google",
    "source_query": "Irrigation Equipment",
    "source_country": "PL",
    "country": "Poland",
    "state": "Greater Poland Voivodeship",
    "city": "Powiat ostrzeszowski"
  },
  {
    "source_id": "ChIJF02bOyWkGkcRBXe6cX7QKgc",
    "name": "Rolnik. Spółdzielnia rolniczo - handlowa",
    "category": "Rolnik. Spółdzielnia rolniczo - handlowa",
    "formatted_address": "4,3(15)",
    "phone_number": "+48627301161",
    "source_url": "https://www.google.com/maps/place/Rolnik.+Sp%C3%B3%C5%82dzielnia+rolniczo+-+handlowa/data=!4m7!3m6!1s0x471aa4253b9b4d17:0x72ad07e71ba7705!8m2!3d51.4175705!4d17.9165307!16s%2Fg%2F1tcwpw_9!19sChIJF02bOyWkGkcRBXe6cX7QKgc?authuser=0&hl=tr&rclk=1",
    "website_url": "",
    "rating_text": "4,3",
    "stars": null,
    "number_of_reviews": null,
    "price_level": "",
    "open_hours": "",
    "extraction_timestamp": "2025-06-07T17:45:04.119Z",
    "source_name": "google",
    "source_query": "Irrigation Equipment",
    "source_country": "PL",
    "country": "Poland",
    "state": "Greater Poland Voivodeship",
    "city": "Powiat ostrzeszowski"
  },
  {
    "source_id": "ChIJ15BucjykGkcRe9ko5Iv674A",
    "name": "SATOR Polski Koncern Maszyn Rolniczych",
    "category": "SATOR Polski Koncern Maszyn Rolniczych",
    "formatted_address": "1,0(1)",
    "phone_number": "+48734217320",
    "source_url": "https://www.google.com/maps/place/SATOR+Polski+Koncern+Maszyn+Rolniczych/data=!4m7!3m6!1s0x471aa43c726e90d7:0x80effa8be428d97b!8m2!3d51.4222529!4d17.9239315!16s%2Fg%2F11c0p_lrm9!19sChIJ15BucjykGkcRe9ko5Iv674A?authuser=0&hl=tr&rclk=1",
    "website_url": "",
    "rating_text": "1,0",
    "stars": null,
    "number_of_reviews": null,
    "price_level": "",
    "open_hours": "",
    "extraction_timestamp": "2025-06-07T17:45:04.120Z",
    "source_name": "google",
    "source_query": "Irrigation Equipment",
    "source_country": "PL",
    "country": "Poland",
    "state": "Greater Poland Voivodeship",
    "city": "Powiat ostrzeszowski"
  },
  {
    "source_id": "ChIJYwREASylGkcRn399uo4H3Ng",
    "name": "Action Ostrzeszów",
    "category": "Action Ostrzeszów",
    "formatted_address": "4,7(6)",
    "phone_number": "+48326305898",
    "source_url": "https://www.google.com/maps/place/Action+Ostrzesz%C3%B3w/data=!4m7!3m6!1s0x471aa52c01440463:0xd8dc078eba7d7f9f!8m2!3d51.4339888!4d17.9208953!16s%2Fg%2F11y8s41snv!19sChIJYwREASylGkcRn399uo4H3Ng?authuser=0&hl=tr&rclk=1",
    "website_url": "",
    "rating_text": "4,7",
    "stars": null,
    "number_of_reviews": null,
    "price_level": "",
    "open_hours": "",
    "extraction_timestamp": "2025-06-07T17:45:04.120Z",
    "source_name": "google",
    "source_query": "Irrigation Equipment",
    "source_country": "PL",
    "country": "Poland",
    "state": "Greater Poland Voivodeship",
    "city": "Powiat ostrzeszowski"
  },
  {
    "source_id": "ChIJAQAQyBWkGkcRIv-rHYN_x9c",
    "name": "Akademia Sportu Olimpia",
    "category": "Akademia Sportu Olimpia",
    "formatted_address": "5,0(66)",
    "phone_number": "+48605310836",
    "source_url": "https://www.google.com/maps/place/Akademia+Sportu+Olimpia/data=!4m7!3m6!1s0x471aa415c8100001:0xd7c77f831dabff22!8m2!3d51.421598!4d17.913871!16s%2Fg%2F11h6g17r3f!19sChIJAQAQyBWkGkcRIv-rHYN_x9c?authuser=0&hl=tr&rclk=1",
    "website_url": "",
    "rating_text": "5,0",
    "stars": null,
    "number_of_reviews": null,
    "price_level": "",
    "open_hours": "",
    "extraction_timestamp": "2025-06-07T17:45:04.121Z",
    "source_name": "google",
    "source_query": "Irrigation Equipment",
    "source_country": "PL",
    "country": "Poland",
    "state": "Greater Poland Voivodeship",
    "city": "Powiat ostrzeszowski"
  },
  {
    "source_id": "ChIJT6q7AEakGkcR9x8_EQIsVt0",
    "name": "Bricomarché",
    "category": "Bricomarché",
    "formatted_address": "4,1(729)",
    "phone_number": "+48627300304",
    "source_url": "https://www.google.com/maps/place/Bricomarch%C3%A9/data=!4m7!3m6!1s0x471aa44600bbaa4f:0xdd562c02113f1ff7!8m2!3d51.4353888!4d17.9168665!16s%2Fg%2F1tsjcdnz!19sChIJT6q7AEakGkcR9x8_EQIsVt0?authuser=0&hl=tr&rclk=1",
    "website_url": "",
    "rating_text": "4,1",
    "stars": null,
    "number_of_reviews": null,
    "price_level": "",
    "open_hours": "",
    "extraction_timestamp": "2025-06-07T17:45:04.122Z",
    "source_name": "google",
    "source_query": "Irrigation Equipment",
    "source_country": "PL",
    "country": "Poland",
    "state": "Greater Poland Voivodeship",
    "city": "Powiat ostrzeszowski"
  },
  {
    "source_id": "ChIJa1gZ1xSkGkcRh4qBTLiW8vo",
    "name": "Pod Wierzbą s.c. PH",
    "category": "Pod Wierzbą s.c. PH",
    "formatted_address": "4,4(23)",
    "phone_number": "+48509740158",
    "source_url": "https://www.google.com/maps/place/Pod+Wierzb%C4%85+s.c.+PH/data=!4m7!3m6!1s0x471aa414d719586b:0xfaf296b84c818a87!8m2!3d51.425634!4d17.9393673!16s%2Fg%2F1tgp9084!19sChIJa1gZ1xSkGkcRh4qBTLiW8vo?authuser=0&hl=tr&rclk=1",
    "website_url": "",
    "rating_text": "4,4",
    "stars": null,
    "number_of_reviews": null,
    "price_level": "",
    "open_hours": "",
    "extraction_timestamp": "2025-06-07T17:45:04.123Z",
    "source_name": "google",
    "source_query": "Irrigation Equipment",
    "source_country": "PL",
    "country": "Poland",
    "state": "Greater Poland Voivodeship",
    "city": "Powiat ostrzeszowski"
  },
  {
    "source_id": "ChIJnaDA8mZMMWcRTKb5h1OXBys",
    "name": "Ogrodnik Syców - Zrobimy Twój Ogród Przemysław Zeja",
    "category": "Ogrodnik Syców - Zrobimy Twój Ogród Przemysław Zeja",
    "formatted_address": "5,0(5)",
    "phone_number": "+48534881102",
    "source_url": "https://www.google.com/maps/place/Ogrodnik+Syc%C3%B3w+-+Zrobimy+Tw%C3%B3j+Ogr%C3%B3d+Przemys%C5%82aw+Zeja/data=!4m7!3m6!1s0x67314c66f2c0a09d:0x2b07975387f9a64c!8m2!3d51.3389873!4d17.7386931!16s%2Fg%2F11w3lygbcs!19sChIJnaDA8mZMMWcRTKb5h1OXBys?authuser=0&hl=tr&rclk=1",
    "website_url": "",
    "rating_text": "5,0",
    "stars": null,
    "number_of_reviews": null,
    "price_level": "",
    "open_hours": "",
    "extraction_timestamp": "2025-06-07T17:45:04.124Z",
    "source_name": "google",
    "source_query": "Irrigation Equipment",
    "source_country": "PL",
    "country": "Poland",
    "state": "Greater Poland Voivodeship",
    "city": "Powiat ostrzeszowski"
  },
  {
    "source_id": "ChIJtaHl-D-kGkcRZ3WP7KYW3Vo",
    "name": "Elektronik Nowicki RTV AGD Ostrzeszów",
    "category": "Elektronik Nowicki RTV AGD Ostrzeszów",
    "formatted_address": "4,6(65)",
    "phone_number": "+48519133153",
    "source_url": "https://www.google.com/maps/place/Elektronik+Nowicki+RTV+AGD+Ostrzesz%C3%B3w/data=!4m7!3m6!1s0x471aa43ff8e5a1b5:0x5add16a6ec8f7567!8m2!3d51.4266977!4d17.9348435!16s%2Fg%2F1vq73lr_!19sChIJtaHl-D-kGkcRZ3WP7KYW3Vo?authuser=0&hl=tr&rclk=1",
    "website_url": "",
    "rating_text": "4,6",
    "stars": null,
    "number_of_reviews": null,
    "price_level": "",
    "open_hours": "",
    "extraction_timestamp": "2025-06-07T17:45:04.124Z",
    "source_name": "google",
    "source_query": "Irrigation Equipment",
    "source_country": "PL",
    "country": "Poland",
    "state": "Greater Poland Voivodeship",
    "city": "Powiat ostrzeszowski"
  },
  {
    "source_id": "ChIJUdmAIm6lGkcRjj6bAswQ3DI",
    "name": "Przemo Hydraulik",
    "category": "Przemo Hydraulik",
    "formatted_address": "5,0(7)",
    "phone_number": "+48605575165",
    "source_url": "https://www.google.com/maps/place/Przemo+Hydraulik/data=!4m7!3m6!1s0x471aa56e2280d951:0x32dc10cc029b3e8e!8m2!3d51.4314568!4d17.9039873!16s%2Fg%2F11rxjnf5vk!19sChIJUdmAIm6lGkcRjj6bAswQ3DI?authuser=0&hl=tr&rclk=1",
    "website_url": "",
    "rating_text": "5,0",
    "stars": null,
    "number_of_reviews": null,
    "price_level": "",
    "open_hours": "",
    "extraction_timestamp": "2025-06-07T17:45:04.125Z",
    "source_name": "google",
    "source_query": "Irrigation Equipment",
    "source_country": "PL",
    "country": "Poland",
    "state": "Greater Poland Voivodeship",
    "city": "Powiat ostrzeszowski"
  },
  {
    "source_id": "ChIJIQ_20tsHEEcRUdsbgyowByA",
    "name": "inaer",
    "category": "inaer",
    "formatted_address": "5,0(4)",
    "phone_number": "+48502761961",
    "source_url": "https://www.google.com/maps/place/inaer/data=!4m7!3m6!1s0x471007dbd2f60f21:0x2007302a831bdb51!8m2!3d51.27194!4d17.71403!16s%2Fg%2F11fqxmxj61!19sChIJIQ_20tsHEEcRUdsbgyowByA?authuser=0&hl=tr&rclk=1",
    "website_url": "",
    "rating_text": "5,0",
    "stars": null,
    "number_of_reviews": null,
    "price_level": "",
    "open_hours": "",
    "extraction_timestamp": "2025-06-07T17:45:04.126Z",
    "source_name": "google",
    "source_query": "Irrigation Equipment",
    "source_country": "PL",
    "country": "Poland",
    "state": "Greater Poland Voivodeship",
    "city": "Powiat ostrzeszowski"
  },
  {
    "source_id": "ChIJt-fmBJ8LEEcRcWDvKhf7n5o",
    "name": "AVERD",
    "category": "AVERD",
    "formatted_address": "5,0(5)",
    "phone_number": "+48536843707",
    "source_url": "https://www.google.com/maps/place/AVERD/data=!4m7!3m6!1s0x47100b9f04e6e7b7:0x9a9ffb172aef6071!8m2!3d51.2808999!4d17.9770751!16s%2Fg%2F11h3kfjz2q!19sChIJt-fmBJ8LEEcRcWDvKhf7n5o?authuser=0&hl=tr&rclk=1",
    "website_url": "",
    "rating_text": "5,0",
    "stars": null,
    "number_of_reviews": null,
    "price_level": "",
    "open_hours": "",
    "extraction_timestamp": "2025-06-07T17:45:04.127Z",
    "source_name": "google",
    "source_query": "Irrigation Equipment",
    "source_country": "PL",
    "country": "Poland",
    "state": "Greater Poland Voivodeship",
    "city": "Powiat ostrzeszowski"
  },
  {
    "source_id": "ChIJGYQ58bKyGkcRiTR2k8ll-3w",
    "name": "INSTALATORSTWO CO WOD KAN i GAZOWE Marek Kowalski",
    "category": "INSTALATORSTWO CO WOD KAN i GAZOWE Marek Kowalski",
    "formatted_address": "4,5(11)",
    "phone_number": "+48627331983",
    "source_url": "https://www.google.com/maps/place/INSTALATORSTWO+CO+WOD+KAN+i+GAZOWE+Marek+Kowalski/data=!4m7!3m6!1s0x471ab2b2f1398419:0x7cfb65c993763489!8m2!3d51.542969!4d17.6549934!16s%2Fg%2F1hc523c2l!19sChIJGYQ58bKyGkcRiTR2k8ll-3w?authuser=0&hl=tr&rclk=1",
    "website_url": "",
    "rating_text": "4,5",
    "stars": null,
    "number_of_reviews": null,
    "price_level": "",
    "open_hours": "",
    "extraction_timestamp": "2025-06-07T17:45:04.128Z",
    "source_name": "google",
    "source_query": "Irrigation Equipment",
    "source_country": "PL",
    "country": "Poland",
    "state": "Greater Poland Voivodeship",
    "city": "Powiat ostrzeszowski"
  },
  {
    "source_id": "ChIJU5qN5-HwSgsRuAxbbDGxZ7A",
    "name": "LR Instal Piotr Idczak",
    "category": "LR Instal Piotr Idczak",
    "formatted_address": "5,0(4)",
    "phone_number": "+48663001450",
    "source_url": "https://www.google.com/maps/place/LR+Instal+Piotr+Idczak/data=!4m7!3m6!1s0xb4af0e1e78d9a53:0xb067b1316c5b0cb8!8m2!3d51.4244194!4d17.9323534!16s%2Fg%2F11tnf1bg40!19sChIJU5qN5-HwSgsRuAxbbDGxZ7A?authuser=0&hl=tr&rclk=1",
    "website_url": "",
    "rating_text": "5,0",
    "stars": null,
    "number_of_reviews": null,
    "price_level": "",
    "open_hours": "",
    "extraction_timestamp": "2025-06-07T17:45:04.128Z",
    "source_name": "google",
    "source_query": "Irrigation Equipment",
    "source_country": "PL",
    "country": "Poland",
    "state": "Greater Poland Voivodeship",
    "city": "Powiat ostrzeszowski"
  },
  {
    "source_id": "ChIJiecSclIGEEcR8uAPodL0xzM",
    "name": "Z.P.H.U Ekomir - Hydraulika Siłowa Wrocław",
    "category": "Z.P.H.U Ekomir - Hydraulika Siłowa Wrocław",
    "formatted_address": "5,0(3)",
    "phone_number": "+48625820362",
    "source_url": "https://www.google.com/maps/place/Z.P.H.U+Ekomir+-+Hydraulika+Si%C5%82owa+Wroc%C5%82aw/data=!4m7!3m6!1s0x471006527212e789:0x33c7f4d2a10fe0f2!8m2!3d51.306598!4d17.710105!16s%2Fg%2F1tmbtvh7!19sChIJiecSclIGEEcR8uAPodL0xzM?authuser=0&hl=tr&rclk=1",
    "website_url": "",
    "rating_text": "5,0",
    "stars": null,
    "number_of_reviews": null,
    "price_level": "",
    "open_hours": "",
    "extraction_timestamp": "2025-06-07T17:45:04.129Z",
    "source_name": "google",
    "source_query": "Irrigation Equipment",
    "source_country": "PL",
    "country": "Poland",
    "state": "Greater Poland Voivodeship",
    "city": "Powiat ostrzeszowski"
  },
  {
    "source_id": "ChIJEzHhEuyQuiERJwns9u28ksA",
    "name": "ITmont informatyka & elektronika",
    "category": "ITmont informatyka & elektronika",
    "formatted_address": "5,0(11)",
    "phone_number": "+48725377671",
    "source_url": "https://www.google.com/maps/place/ITmont+informatyka+%26+elektronika/data=!4m7!3m6!1s0x21ba90ec12e13113:0xc092bcedf6ec0927!8m2!3d51.4389452!4d17.9436219!16s%2Fg%2F11tdpfm41d!19sChIJEzHhEuyQuiERJwns9u28ksA?authuser=0&hl=tr&rclk=1",
    "website_url": "",
    "rating_text": "5,0",
    "stars": null,
    "number_of_reviews": null,
    "price_level": "",
    "open_hours": "",
    "extraction_timestamp": "2025-06-07T17:45:04.130Z",
    "source_name": "google",
    "source_query": "Irrigation Equipment",
    "source_country": "PL",
    "country": "Poland",
    "state": "Greater Poland Voivodeship",
    "city": "Powiat ostrzeszowski"
  },
  {
    "source_id": "ChIJab_k6Z0GEEcRzv-KWm9fpHo",
    "name": "Stradomia Wierzchnia Reservoir",
    "category": "Stradomia Wierzchnia Reservoir",
    "formatted_address": "4,4(2.251)",
    "phone_number": "",
    "source_url": "https://www.google.com/maps/place/Stradomia+Wierzchnia+Reservoir/data=!4m7!3m6!1s0x4710069de9e4bf69:0x7aa45f6f5a8affce!8m2!3d51.2772702!4d17.6537176!16s%2Fg%2F1q64024c7!19sChIJab_k6Z0GEEcRzv-KWm9fpHo?authuser=0&hl=tr&rclk=1",
    "website_url": "",
    "rating_text": "4,4",
    "stars": null,
    "number_of_reviews": null,
    "price_level": "",
    "open_hours": "",
    "extraction_timestamp": "2025-06-07T17:45:04.132Z",
    "source_name": "google",
    "source_query": "Irrigation Equipment",
    "source_country": "PL",
    "country": "Poland",
    "state": "Greater Poland Voivodeship",
    "city": "Powiat ostrzeszowski"
  },
  {
    "source_id": "ChIJ2W8goIelGkcRp_wTjGq2Pgk",
    "name": "Sklep Garłacz",
    "category": "Sklep Garłacz",
    "formatted_address": "4,8(18)",
    "phone_number": "+48696982184",
    "source_url": "https://www.google.com/maps/place/Sklep+Gar%C5%82acz/data=!4m7!3m6!1s0x471aa587a0206fd9:0x93eb66a8c13fca7!8m2!3d51.42172!4d17.9445805!16s%2Fg%2F11pyzfzxh_!19sChIJ2W8goIelGkcRp_wTjGq2Pgk?authuser=0&hl=tr&rclk=1",
    "website_url": "",
    "rating_text": "4,8",
    "stars": null,
    "number_of_reviews": null,
    "price_level": "",
    "open_hours": "",
    "extraction_timestamp": "2025-06-07T17:45:04.132Z",
    "source_name": "google",
    "source_query": "Irrigation Equipment",
    "source_country": "PL",
    "country": "Poland",
    "state": "Greater Poland Voivodeship",
    "city": "Powiat ostrzeszowski"
  },
  {
    "source_id": "ChIJDb64ZpynGkcRpt00JbuVLp4",
    "name": "Plaża przy zalewie",
    "category": "Plaża przy zalewie",
    "formatted_address": "4,4(51)",
    "phone_number": "",
    "source_url": "https://www.google.com/maps/place/Pla%C5%BCa+przy+zalewie/data=!4m7!3m6!1s0x471aa79c66b8be0d:0x9e2e95bb2534dda6!8m2!3d51.3811059!4d17.8313963!16s%2Fg%2F11gk85zg7s!19sChIJDb64ZpynGkcRpt00JbuVLp4?authuser=0&hl=tr&rclk=1",
    "website_url": "",
    "rating_text": "4,4",
    "stars": null,
    "number_of_reviews": null,
    "price_level": "",
    "open_hours": "",
    "extraction_timestamp": "2025-06-07T17:45:04.133Z",
    "source_name": "google",
    "source_query": "Irrigation Equipment",
    "source_country": "PL",
    "country": "Poland",
    "state": "Greater Poland Voivodeship",
    "city": "Powiat ostrzeszowski"
  }
]
