[
  {
    "source_id": "ChIJQaAR7D37BEcRBa5PF0ULYcE",
    "name": "TEST Łukasz i Grzegorz Kiełbowicz sp. j",
    "category": "TEST Łukasz i Grzegorz Kiełbowicz sp. j",
    "formatted_address": "4,9(75)",
    "phone_number": "+48508635200",
    "source_url": "https://www.google.com/maps/place/TEST+%C5%81ukasz+i+Grzegorz+Kie%C5%82bowicz+sp.+j/data=!4m7!3m6!1s0x4704fb3dec11a041:0xc1610b45174fae05!8m2!3d52.5658269!4d17.6143399!16s%2Fg%2F1twyy791!19sChIJQaAR7D37BEcRBa5PF0ULYcE?authuser=0&hl=tr&rclk=1",
    "website_url": "https://testinstalacje.pl/",
    "rating_text": "4,9",
    "stars": null,
    "number_of_reviews": null,
    "price_level": "",
    "open_hours": "",
    "extraction_timestamp": "2025-06-07T17:18:37.247Z",
    "source_name": "google",
    "source_query": "Irrigation Equipment",
    "source_country": "PL",
    "country": "Poland",
    "state": "Greater Poland Voivodeship",
    "city": "Powiat gnieźnieński"
  },
  {
    "source_id": "ChIJeZgY1xqRBEcRpcLMUkxBkfI",
    "name": "Ha-Two-O Paweł Filipiak",
    "category": "Ha-Two-O Paweł Filipiak",
    "formatted_address": "4,8(101)",
    "phone_number": "+48575579000",
    "source_url": "https://www.google.com/maps/place/Ha-Two-O+Pawe%C5%82+Filipiak/data=!4m7!3m6!1s0x4704911ad7189879:0xf291414c52ccc2a5!8m2!3d52.5491138!4d17.555824!16s%2Fg%2F1x6q0ggt!19sChIJeZgY1xqRBEcRpcLMUkxBkfI?authuser=0&hl=tr&rclk=1",
    "website_url": "https://www.ha-dwa-o.pl/",
    "rating_text": "4,8",
    "stars": null,
    "number_of_reviews": null,
    "price_level": "",
    "open_hours": "",
    "extraction_timestamp": "2025-06-07T17:18:37.249Z",
    "source_name": "google",
    "source_query": "Irrigation Equipment",
    "source_country": "PL",
    "country": "Poland",
    "state": "Greater Poland Voivodeship",
    "city": "Powiat gnieźnieński"
  },
  {
    "source_id": "ChIJ-R2-l9ORBEcRdO81qqZWVsg",
    "name": "Ptak Wypożyczalnia sprzętu budowlanego Gniezno Ptak Magdalena",
    "category": "Ptak Wypożyczalnia sprzętu budowlanego Gniezno Ptak Magdalena",
    "formatted_address": "4,9(217)",
    "phone_number": "+48668389989",
    "source_url": "https://www.google.com/maps/place/Ptak+Wypo%C5%BCyczalnia+sprz%C4%99tu+budowlanego+Gniezno+Ptak+Magdalena/data=!4m7!3m6!1s0x470491d397be1df9:0xc85656a6aa35ef74!8m2!3d52.5304919!4d17.5656107!16s%2Fg%2F11fpqhh8xp!19sChIJ-R2-l9ORBEcRdO81qqZWVsg?authuser=0&hl=tr&rclk=1",
    "website_url": "http://www.ptak-rent.pl/",
    "rating_text": "4,9",
    "stars": null,
    "number_of_reviews": null,
    "price_level": "",
    "open_hours": "",
    "extraction_timestamp": "2025-06-07T17:18:37.250Z",
    "source_name": "google",
    "source_query": "Irrigation Equipment",
    "source_country": "PL",
    "country": "Poland",
    "state": "Greater Poland Voivodeship",
    "city": "Powiat gnieźnieński"
  },
  {
    "source_id": "ChIJdZ3zy-qTBEcRk5uFgW9P4Iw",
    "name": "Hydro-Mako.pl",
    "category": "Hydro-Mako.pl",
    "formatted_address": "4,7(3)",
    "phone_number": "+48501240769",
    "source_url": "https://www.google.com/maps/place/Hydro-Mako.pl/data=!4m7!3m6!1s0x470493eacbf39d75:0x8ce04f6f81859b93!8m2!3d52.5045959!4d17.5399972!16s%2Fg%2F11vhrr1r_3!19sChIJdZ3zy-qTBEcRk5uFgW9P4Iw?authuser=0&hl=tr&rclk=1",
    "website_url": "https://hydro-mako.pl/",
    "rating_text": "4,7",
    "stars": null,
    "number_of_reviews": null,
    "price_level": "",
    "open_hours": "",
    "extraction_timestamp": "2025-06-07T17:18:37.252Z",
    "source_name": "google",
    "source_query": "Irrigation Equipment",
    "source_country": "PL",
    "country": "Poland",
    "state": "Greater Poland Voivodeship",
    "city": "Powiat gnieźnieński"
  },
  {
    "source_id": "ChIJv973QUWRBEcRNQU6cX7Muqw",
    "name": "GUBAŁA Technika Grzewcza Technika Sanitarna odbiory techniczne gazowe pompy ciepła serwis immergas instalacje gazowe",
    "category": "GUBAŁA Technika Grzewcza Technika Sanitarna odbiory techniczne gazowe pompy ciepła serwis immergas instalacje gazowe",
    "formatted_address": "5,0(14)",
    "phone_number": "+48608186785",
    "source_url": "https://www.google.com/maps/place/GUBA%C5%81A+Technika+Grzewcza+Technika+Sanitarna+odbiory+techniczne+gazowe+pompy+ciep%C5%82a+serwis+immergas+instalacje+gazowe/data=!4m7!3m6!1s0x4704914541f7debf:0xacbacc7e713a0535!8m2!3d52.515169!4d17.6197481!16s%2Fg%2F1wz51dx8!19sChIJv973QUWRBEcRNQU6cX7Muqw?authuser=0&hl=tr&rclk=1",
    "website_url": "http://www.firmagubala.com.pl/",
    "rating_text": "5,0",
    "stars": null,
    "number_of_reviews": null,
    "price_level": "",
    "open_hours": "",
    "extraction_timestamp": "2025-06-07T17:18:37.254Z",
    "source_name": "google",
    "source_query": "Irrigation Equipment",
    "source_country": "PL",
    "country": "Poland",
    "state": "Greater Poland Voivodeship",
    "city": "Powiat gnieźnieński"
  },
  {
    "source_id": "ChIJya8AkuGNBEcRmn4YDaT8GfU",
    "name": "ARMATURA \"EFEKT\" S.A.",
    "category": "ARMATURA \"EFEKT\" S.A.",
    "formatted_address": "3,0(2)",
    "phone_number": "+48614272245",
    "source_url": "https://www.google.com/maps/place/ARMATURA+%22EFEKT%22+S.A./data=!4m7!3m6!1s0x47048de19200afc9:0xf519fca40d187e9a!8m2!3d52.528009!4d17.4845186!16s%2Fg%2F1thvrd6_!19sChIJya8AkuGNBEcRmn4YDaT8GfU?authuser=0&hl=tr&rclk=1",
    "website_url": "http://www.efekt.gniezno.pl/",
    "rating_text": "3,0",
    "stars": null,
    "number_of_reviews": null,
    "price_level": "",
    "open_hours": "",
    "extraction_timestamp": "2025-06-07T17:18:37.255Z",
    "source_name": "google",
    "source_query": "Irrigation Equipment",
    "source_country": "PL",
    "country": "Poland",
    "state": "Greater Poland Voivodeship",
    "city": "Powiat gnieźnieński"
  },
  {
    "source_id": "ChIJba-L2kGRBEcReMof_Qz5t2I",
    "name": "WODKAN",
    "category": "WODKAN",
    "formatted_address": "4,4(73)",
    "phone_number": "+48614264788",
    "source_url": "https://www.google.com/maps/place/WODKAN/data=!4m7!3m6!1s0x47049141da8baf6d:0x62b7f90cfd1fca78!8m2!3d52.5228121!4d17.6103852!16s%2Fg%2F11fjzw4xkj!19sChIJba-L2kGRBEcReMof_Qz5t2I?authuser=0&hl=tr&rclk=1",
    "website_url": "http://wodkan.gniezno.pl/",
    "rating_text": "4,4",
    "stars": null,
    "number_of_reviews": null,
    "price_level": "",
    "open_hours": "",
    "extraction_timestamp": "2025-06-07T17:18:37.257Z",
    "source_name": "google",
    "source_query": "Irrigation Equipment",
    "source_country": "PL",
    "country": "Poland",
    "state": "Greater Poland Voivodeship",
    "city": "Powiat gnieźnieński"
  },
  {
    "source_id": "ChIJXzf_ZlyRBEcRSHGvceKu3BE",
    "name": "P.H.U. \"RADO\" Radosław Gieburowski Grupa SBS",
    "category": "P.H.U. \"RADO\" Radosław Gieburowski Grupa SBS",
    "formatted_address": "4,7(96)",
    "phone_number": "",
    "source_url": "https://www.google.com/maps/place/P.H.U.+%22RADO%22+Rados%C5%82aw+Gieburowski+Grupa+SBS/data=!4m7!3m6!1s0x4704915c66ff375f:0x11dcaee271af7148!8m2!3d52.512284!4d17.609528!16s%2Fg%2F1tj883q9!19sChIJXzf_ZlyRBEcRSHGvceKu3BE?authuser=0&hl=tr&rclk=1",
    "website_url": "http://www.rado.gniezno.pl/",
    "rating_text": "4,7",
    "stars": null,
    "number_of_reviews": null,
    "price_level": "",
    "open_hours": "",
    "extraction_timestamp": "2025-06-07T17:18:37.258Z",
    "source_name": "google",
    "source_query": "Irrigation Equipment",
    "source_country": "PL",
    "country": "Poland",
    "state": "Greater Poland Voivodeship",
    "city": "Powiat gnieźnieński"
  },
  {
    "source_id": "ChIJxY8ZL1XtBEcR8OOmh8hwkd0",
    "name": "MAGMAR MURAWY |Pielęgnacja muraw| Pielęgnacja boisk| Budowa boisk",
    "category": "MAGMAR MURAWY |Pielęgnacja muraw| Pielęgnacja boisk| Budowa boisk",
    "formatted_address": "5,0(33)",
    "phone_number": "+48696065016",
    "source_url": "https://www.google.com/maps/place/MAGMAR+MURAWY+%7CPiel%C4%99gnacja+muraw%7C+Piel%C4%99gnacja+boisk%7C+Budowa+boisk/data=!4m7!3m6!1s0x4704ed552f198fc5:0xdd9170c887a6e3f0!8m2!3d52.4291858!4d17.4828694!16s%2Fg%2F11lm4pnqrb!19sChIJxY8ZL1XtBEcR8OOmh8hwkd0?authuser=0&hl=tr&rclk=1",
    "website_url": "https://magmar-murawy.pl/",
    "rating_text": "5,0",
    "stars": null,
    "number_of_reviews": null,
    "price_level": "",
    "open_hours": "",
    "extraction_timestamp": "2025-06-07T17:18:37.260Z",
    "source_name": "google",
    "source_query": "Irrigation Equipment",
    "source_country": "PL",
    "country": "Poland",
    "state": "Greater Poland Voivodeship",
    "city": "Powiat gnieźnieński"
  },
  {
    "source_id": "ChIJyTTQtSaRBEcRTQPf4kaTPl0",
    "name": "HL SYSTEM-melioracja, hydrotechnika, odbudowy, konserwacje rzek, wałów",
    "category": "HL SYSTEM-melioracja, hydrotechnika, odbudowy, konserwacje rzek, wałów",
    "formatted_address": "HL SYSTEM-melioracja, hydrotechnika, odbudowy, konserwacje rzek, wałów",
    "phone_number": "+48608252712",
    "source_url": "https://www.google.com/maps/place/HL+SYSTEM-melioracja,+hydrotechnika,+odbudowy,+konserwacje+rzek,+wa%C5%82%C3%B3w/data=!4m7!3m6!1s0x47049126b5d034c9:0x5d3e9346e2df034d!8m2!3d52.541202!4d17.631774!16s%2Fg%2F1tgjj_9j!19sChIJyTTQtSaRBEcRTQPf4kaTPl0?authuser=0&hl=tr&rclk=1",
    "website_url": "",
    "rating_text": "5,0",
    "stars": null,
    "number_of_reviews": null,
    "price_level": "",
    "open_hours": "",
    "extraction_timestamp": "2025-06-07T17:18:37.260Z",
    "source_name": "google",
    "source_query": "Irrigation Equipment",
    "source_country": "PL",
    "country": "Poland",
    "state": "Greater Poland Voivodeship",
    "city": "Powiat gnieźnieński"
  },
  {
    "source_id": "ChIJQX4GjJmRBEcR66iQL5bfjRY",
    "name": "Tadex Hurtownia",
    "category": "Tadex Hurtownia",
    "formatted_address": "4,6(161)",
    "phone_number": "+48614250480",
    "source_url": "https://www.google.com/maps/place/Tadex+Hurtownia/data=!4m7!3m6!1s0x470491998c067e41:0x168ddf962f90a8eb!8m2!3d52.5280799!4d17.5662491!16s%2Fg%2F1tvq2tw5!19sChIJQX4GjJmRBEcR66iQL5bfjRY?authuser=0&hl=tr&rclk=1",
    "website_url": "http://www.tadex.gniezno.pl/",
    "rating_text": "4,6",
    "stars": null,
    "number_of_reviews": null,
    "price_level": "",
    "open_hours": "",
    "extraction_timestamp": "2025-06-07T17:18:37.261Z",
    "source_name": "google",
    "source_query": "Irrigation Equipment",
    "source_country": "PL",
    "country": "Poland",
    "state": "Greater Poland Voivodeship",
    "city": "Powiat gnieźnieński"
  },
  {
    "source_id": "ChIJ5ZvUSKKRBEcRynrdHEQqINQ",
    "name": "Przydomowe oczyszczalnie ścieków, szamba ekologiczne, oczyszczalnia biologiczna Poznań Primeko",
    "category": "Przydomowe oczyszczalnie ścieków, szamba ekologiczne, oczyszczalnia biologiczna Poznań Primeko",
    "formatted_address": "Przydomowe oczyszczalnie ścieków, szamba ekologiczne, oczyszczalnia biologiczna Poznań Primeko",
    "phone_number": "+48602378800",
    "source_url": "https://www.google.com/maps/place/Przydomowe+oczyszczalnie+%C5%9Bciek%C3%B3w,+szamba+ekologiczne,+oczyszczalnia+biologiczna+Pozna%C5%84+Primeko/data=!4m7!3m6!1s0x470491a248d49be5:0xd4202a441cdd7aca!8m2!3d52.4423601!4d17.7689707!16s%2Fg%2F12lk6jt3j!19sChIJ5ZvUSKKRBEcRynrdHEQqINQ?authuser=0&hl=tr&rclk=1",
    "website_url": "http://www.primeko.pl/",
    "rating_text": "4,5",
    "stars": null,
    "number_of_reviews": null,
    "price_level": "",
    "open_hours": "",
    "extraction_timestamp": "2025-06-07T17:18:37.261Z",
    "source_name": "google",
    "source_query": "Irrigation Equipment",
    "source_country": "PL",
    "country": "Poland",
    "state": "Greater Poland Voivodeship",
    "city": "Powiat gnieźnieński"
  },
  {
    "source_id": "ChIJCzDt8wiRBEcRIuchPiSUCSU",
    "name": "INSTAL-BUDEX Usługi instalacyjne i ogólnobudowlane, Autoryzowany Partner Bosch Termotechnika",
    "category": "INSTAL-BUDEX Usługi instalacyjne i ogólnobudowlane, Autoryzowany Partner Bosch Termotechnika",
    "formatted_address": "INSTAL-BUDEX Usługi instalacyjne i ogólnobudowlane, Autoryzowany Partner Bosch Termotechnika",
    "phone_number": "+48693566363",
    "source_url": "https://www.google.com/maps/place/INSTAL-BUDEX+Us%C5%82ugi+instalacyjne+i+og%C3%B3lnobudowlane,+Autoryzowany+Partner+Bosch+Termotechnika/data=!4m7!3m6!1s0x47049108f3ed300b:0x250994243e21e722!8m2!3d52.5509382!4d17.6019383!16s%2Fg%2F11h1zbqz90!19sChIJCzDt8wiRBEcRIuchPiSUCSU?authuser=0&hl=tr&rclk=1",
    "website_url": "https://www.instal-budex.pl/",
    "rating_text": "4,9",
    "stars": null,
    "number_of_reviews": null,
    "price_level": "",
    "open_hours": "",
    "extraction_timestamp": "2025-06-07T17:18:37.262Z",
    "source_name": "google",
    "source_query": "Irrigation Equipment",
    "source_country": "PL",
    "country": "Poland",
    "state": "Greater Poland Voivodeship",
    "city": "Powiat gnieźnieński"
  },
  {
    "source_id": "ChIJ69qDh0CRBEcRQJ2_qkThlRE",
    "name": "Texoma Sp. z o.o. Hurtownia elektrotechniczna",
    "category": "Texoma Sp. z o.o. Hurtownia elektrotechniczna",
    "formatted_address": "3,0(2)",
    "phone_number": "+48614264978",
    "source_url": "https://www.google.com/maps/place/Texoma+Sp.+z+o.o.+Hurtownia+elektrotechniczna/data=!4m7!3m6!1s0x470491408783daeb:0x1195e144aabf9d40!8m2!3d52.5250349!4d17.615296!16s%2Fg%2F11xcdlxws!19sChIJ69qDh0CRBEcRQJ2_qkThlRE?authuser=0&hl=tr&rclk=1",
    "website_url": "http://www.texoma.pl/",
    "rating_text": "3,0",
    "stars": null,
    "number_of_reviews": null,
    "price_level": "",
    "open_hours": "",
    "extraction_timestamp": "2025-06-07T17:18:37.262Z",
    "source_name": "google",
    "source_query": "Irrigation Equipment",
    "source_country": "PL",
    "country": "Poland",
    "state": "Greater Poland Voivodeship",
    "city": "Powiat gnieźnieński"
  },
  {
    "source_id": "ChIJR04HprOiBEcRimDlaVeaHjg",
    "name": "HYDROART GACA SP. With O.O.",
    "category": "HYDROART GACA SP. With O.O.",
    "formatted_address": "4,5(394)",
    "phone_number": "+48614282710",
    "source_url": "https://www.google.com/maps/place/HYDROART+GACA+SP.+With+O.O./data=!4m7!3m6!1s0x4704a2b3a6074e47:0x381e9a5769e5608a!8m2!3d52.5625604!4d17.824335!16s%2Fg%2F1td3k900!19sChIJR04HprOiBEcRimDlaVeaHjg?authuser=0&hl=tr&rclk=1",
    "website_url": "http://www.hydroart.pl/",
    "rating_text": "4,5",
    "stars": null,
    "number_of_reviews": null,
    "price_level": "",
    "open_hours": "",
    "extraction_timestamp": "2025-06-07T17:18:37.262Z",
    "source_name": "google",
    "source_query": "Irrigation Equipment",
    "source_country": "PL",
    "country": "Poland",
    "state": "Greater Poland Voivodeship",
    "city": "Powiat gnieźnieński"
  },
  {
    "source_id": "ChIJ1bc34jmRBEcRqbWvKIdewdI",
    "name": "KIRCHHOFF Polska Sp. z o.o.",
    "category": "KIRCHHOFF Polska Sp. z o.o.",
    "formatted_address": "2,8(24)",
    "phone_number": "+48614491500",
    "source_url": "https://www.google.com/maps/place/KIRCHHOFF+Polska+Sp.+z+o.o./data=!4m7!3m6!1s0x47049139e237b7d5:0xd2c15e8728afb5a9!8m2!3d52.525481!4d17.6284335!16s%2Fg%2F11clygqy27!19sChIJ1bc34jmRBEcRqbWvKIdewdI?authuser=0&hl=tr&rclk=1",
    "website_url": "http://www.kirchhoff-automotive.com/",
    "rating_text": "2,8",
    "stars": null,
    "number_of_reviews": null,
    "price_level": "",
    "open_hours": "",
    "extraction_timestamp": "2025-06-07T17:18:37.263Z",
    "source_name": "google",
    "source_query": "Irrigation Equipment",
    "source_country": "PL",
    "country": "Poland",
    "state": "Greater Poland Voivodeship",
    "city": "Powiat gnieźnieński"
  },
  {
    "source_id": "ChIJLVgyoTyRBEcR2AfWLQdrdgk",
    "name": "Centrum Techniki Grzewczej i Sanitarnej Eko-Plus Pompy Ciepła Gniezno",
    "category": "Centrum Techniki Grzewczej i Sanitarnej Eko-Plus Pompy Ciepła Gniezno",
    "formatted_address": "4,3(31)",
    "phone_number": "+48614263769",
    "source_url": "https://www.google.com/maps/place/Centrum+Techniki+Grzewczej+i+Sanitarnej+Eko-Plus+Pompy+Ciep%C5%82a+Gniezno/data=!4m7!3m6!1s0x4704913ca132582d:0x9766b072dd607d8!8m2!3d52.534089!4d17.6250639!16s%2Fg%2F1tg2jcj7!19sChIJLVgyoTyRBEcR2AfWLQdrdgk?authuser=0&hl=tr&rclk=1",
    "website_url": "http://www.eko-plus.com.pl/",
    "rating_text": "4,3",
    "stars": null,
    "number_of_reviews": null,
    "price_level": "",
    "open_hours": "",
    "extraction_timestamp": "2025-06-07T17:18:37.263Z",
    "source_name": "google",
    "source_query": "Irrigation Equipment",
    "source_country": "PL",
    "country": "Poland",
    "state": "Greater Poland Voivodeship",
    "city": "Powiat gnieźnieński"
  },
  {
    "source_id": "ChIJw3DqX2-RBEcRv_4EX3rR-Hk",
    "name": "Artech Serwis",
    "category": "Artech Serwis",
    "formatted_address": "4,5(2)",
    "phone_number": "+48696045496",
    "source_url": "https://www.google.com/maps/place/Artech+Serwis/data=!4m7!3m6!1s0x4704916f5fea70c3:0x79f8d17a5f04febf!8m2!3d52.5176189!4d17.5957081!16s%2Fg%2F1tjrnp89!19sChIJw3DqX2-RBEcRv_4EX3rR-Hk?authuser=0&hl=tr&rclk=1",
    "website_url": "http://artechserwis.pl/",
    "rating_text": "4,5",
    "stars": null,
    "number_of_reviews": null,
    "price_level": "",
    "open_hours": "",
    "extraction_timestamp": "2025-06-07T17:18:37.264Z",
    "source_name": "google",
    "source_query": "Irrigation Equipment",
    "source_country": "PL",
    "country": "Poland",
    "state": "Greater Poland Voivodeship",
    "city": "Powiat gnieźnieński"
  },
  {
    "source_id": "ChIJ5WTdLjqRBEcRyXeq-j9y4kk",
    "name": "Instal-Hand, Piotr Socha, Autoryzowany Top Partner Buderus",
    "category": "Instal-Hand, Piotr Socha, Autoryzowany Top Partner Buderus",
    "formatted_address": "Instal-Hand, Piotr Socha, Autoryzowany Top Partner Buderus",
    "phone_number": "+48608809608",
    "source_url": "https://www.google.com/maps/place/Instal-Hand,+Piotr+Socha,+Autoryzowany+Top+Partner+Buderus/data=!4m7!3m6!1s0x4704913a2edd64e5:0x49e2723ffaaa77c9!8m2!3d52.5301542!4d17.6271288!16s%2Fg%2F11b7lhrjgz!19sChIJ5WTdLjqRBEcRyXeq-j9y4kk?authuser=0&hl=tr&rclk=1",
    "website_url": "http://www.instal-hand.pl/",
    "rating_text": "3,9",
    "stars": null,
    "number_of_reviews": null,
    "price_level": "",
    "open_hours": "",
    "extraction_timestamp": "2025-06-07T17:18:37.264Z",
    "source_name": "google",
    "source_query": "Irrigation Equipment",
    "source_country": "PL",
    "country": "Poland",
    "state": "Greater Poland Voivodeship",
    "city": "Powiat gnieźnieński"
  },
  {
    "source_id": "ChIJxUf9nw2RBEcRfOPseO3pT_o",
    "name": "Instal-Plast Plus. Technika grzewcza",
    "category": "Instal-Plast Plus. Technika grzewcza",
    "formatted_address": "4,3(18)",
    "phone_number": "+48614254309",
    "source_url": "https://www.google.com/maps/place/Instal-Plast+Plus.+Technika+grzewcza/data=!4m7!3m6!1s0x4704910d9ffd47c5:0xfa4fe9ed78ece37c!8m2!3d52.525219!4d17.598766!16s%2Fg%2F1pv5yj_5g!19sChIJxUf9nw2RBEcRfOPseO3pT_o?authuser=0&hl=tr&rclk=1",
    "website_url": "",
    "rating_text": "4,3",
    "stars": null,
    "number_of_reviews": null,
    "price_level": "",
    "open_hours": "",
    "extraction_timestamp": "2025-06-07T17:18:37.264Z",
    "source_name": "google",
    "source_query": "Irrigation Equipment",
    "source_country": "PL",
    "country": "Poland",
    "state": "Greater Poland Voivodeship",
    "city": "Powiat gnieźnieński"
  },
  {
    "source_id": "ChIJr-u_5w6RBEcRfnwOduucYFc",
    "name": "Przemysław Brus Hydraulika siłowa",
    "category": "Przemysław Brus Hydraulika siłowa",
    "formatted_address": "5,0(1)",
    "phone_number": "+48509909319",
    "source_url": "https://www.google.com/maps/place/Przemys%C5%82aw+Brus+Hydraulika+si%C5%82owa/data=!4m7!3m6!1s0x4704910ee7bfebaf:0x57609ceb760e7c7e!8m2!3d52.540129!4d17.6387953!16s%2Fg%2F11vr_3tw30!19sChIJr-u_5w6RBEcRfnwOduucYFc?authuser=0&hl=tr&rclk=1",
    "website_url": "",
    "rating_text": "5,0",
    "stars": null,
    "number_of_reviews": null,
    "price_level": "",
    "open_hours": "",
    "extraction_timestamp": "2025-06-07T17:18:37.265Z",
    "source_name": "google",
    "source_query": "Irrigation Equipment",
    "source_country": "PL",
    "country": "Poland",
    "state": "Greater Poland Voivodeship",
    "city": "Powiat gnieźnieński"
  },
  {
    "source_id": "ChIJf69J8VG-BEcRd4gGk_jnVPI",
    "name": "Agrawit Agata Trzebińska",
    "category": "Agrawit Agata Trzebińska",
    "formatted_address": "5,0(9)",
    "phone_number": "+48608682593",
    "source_url": "https://www.google.com/maps/place/Agrawit+Agata+Trzebi%C5%84ska/data=!4m7!3m6!1s0x4704be51f149af7f:0xf254e7f893068877!8m2!3d52.4405799!4d17.7732916!16s%2Fg%2F1tj883qj!19sChIJf69J8VG-BEcRd4gGk_jnVPI?authuser=0&hl=tr&rclk=1",
    "website_url": "",
    "rating_text": "5,0",
    "stars": null,
    "number_of_reviews": null,
    "price_level": "",
    "open_hours": "",
    "extraction_timestamp": "2025-06-07T17:18:37.265Z",
    "source_name": "google",
    "source_query": "Irrigation Equipment",
    "source_country": "PL",
    "country": "Poland",
    "state": "Greater Poland Voivodeship",
    "city": "Powiat gnieźnieński"
  },
  {
    "source_id": "ChIJPY2hohORBEcRDpZ85gMbKo8",
    "name": "P.H.U. MAL-LAK Market Budowlany | Mieszalnia farb i tynków | Gniezno",
    "category": "P.H.U. MAL-LAK Market Budowlany | Mieszalnia farb i tynków | Gniezno",
    "formatted_address": "4,2(189)",
    "phone_number": "+48614258587",
    "source_url": "https://www.google.com/maps/place/P.H.U.+MAL-LAK+Market+Budowlany+%7C+Mieszalnia+farb+i+tynk%C3%B3w+%7C+Gniezno/data=!4m7!3m6!1s0x47049113a2a18d3d:0x8f2a1b03e67c960e!8m2!3d52.5310523!4d17.6049395!16s%2Fg%2F1v2gcg0m!19sChIJPY2hohORBEcRDpZ85gMbKo8?authuser=0&hl=tr&rclk=1",
    "website_url": "http://www.mallak.pl/",
    "rating_text": "4,2",
    "stars": null,
    "number_of_reviews": null,
    "price_level": "",
    "open_hours": "",
    "extraction_timestamp": "2025-06-07T17:18:37.265Z",
    "source_name": "google",
    "source_query": "Irrigation Equipment",
    "source_country": "PL",
    "country": "Poland",
    "state": "Greater Poland Voivodeship",
    "city": "Powiat gnieźnieński"
  },
  {
    "source_id": "ChIJv9g-L1mRBEcR-pvZpycOOfo",
    "name": "K2 Trading Company Gardens",
    "category": "K2 Trading Company Gardens",
    "formatted_address": "K2 Trading Company Gardens",
    "phone_number": "+48614265080",
    "source_url": "https://www.google.com/maps/place/K2+Trading+Company+Gardens/data=!4m7!3m6!1s0x470491592f3ed8bf:0xfa390e27a7d99bfa!8m2!3d52.511428!4d17.604206!16s%2Fg%2F1vhq2dlg!19sChIJv9g-L1mRBEcR-pvZpycOOfo?authuser=0&hl=tr&rclk=1",
    "website_url": "http://www.k2ogrody.pl/",
    "rating_text": "4,5",
    "stars": null,
    "number_of_reviews": null,
    "price_level": "",
    "open_hours": "",
    "extraction_timestamp": "2025-06-07T17:18:37.266Z",
    "source_name": "google",
    "source_query": "Irrigation Equipment",
    "source_country": "PL",
    "country": "Poland",
    "state": "Greater Poland Voivodeship",
    "city": "Powiat gnieźnieński"
  },
  {
    "source_id": "ChIJ464SpmyRBEcRf-_A5mvXN2U",
    "name": "Bricomarche Gniezno",
    "category": "Bricomarche Gniezno",
    "formatted_address": "4,1(1.070)",
    "phone_number": "+48613067410",
    "source_url": "https://www.google.com/maps/place/Bricomarche+Gniezno/data=!4m7!3m6!1s0x4704916ca612aee3:0x6537d76be6c0ef7f!8m2!3d52.5271106!4d17.6000538!16s%2Fg%2F11g03h25nl!19sChIJ464SpmyRBEcRf-_A5mvXN2U?authuser=0&hl=tr&rclk=1",
    "website_url": "https://www.bricomarche.pl/?posId=331",
    "rating_text": "4,1",
    "stars": null,
    "number_of_reviews": null,
    "price_level": "",
    "open_hours": "",
    "extraction_timestamp": "2025-06-07T17:18:37.267Z",
    "source_name": "google",
    "source_query": "Irrigation Equipment",
    "source_country": "PL",
    "country": "Poland",
    "state": "Greater Poland Voivodeship",
    "city": "Powiat gnieźnieński"
  },
  {
    "source_id": "ChIJU3shE1S-BEcRBmObVpevVJI",
    "name": "Holiday Resort Skorzęcin",
    "category": "Holiday Resort Skorzęcin",
    "formatted_address": "4,4(7.896)",
    "phone_number": "+48614770277",
    "source_url": "https://www.google.com/maps/place/Holiday+Resort+Skorz%C4%99cin/data=!4m7!3m6!1s0x4704be5413217b53:0x9254af97569b6306!8m2!3d52.4577927!4d17.8917354!16s%2Fg%2F1tknj4gk!19sChIJU3shE1S-BEcRBmObVpevVJI?authuser=0&hl=tr&rclk=1",
    "website_url": "https://www.zbyszko-skorzecin.pl/",
    "rating_text": "4,4",
    "stars": null,
    "number_of_reviews": null,
    "price_level": "",
    "open_hours": "",
    "extraction_timestamp": "2025-06-07T17:18:37.267Z",
    "source_name": "google",
    "source_query": "Irrigation Equipment",
    "source_country": "PL",
    "country": "Poland",
    "state": "Greater Poland Voivodeship",
    "city": "Powiat gnieźnieński"
  },
  {
    "source_id": "ChIJF0FzqaehBEcRWgD6MXB_CBA",
    "name": "SM-AGRO Powered by Kramp",
    "category": "SM-AGRO Powered by Kramp",
    "formatted_address": "4,8(44)",
    "phone_number": "+48523152254",
    "source_url": "https://www.google.com/maps/place/SM-AGRO+Powered+by+Kramp/data=!4m7!3m6!1s0x4704a1a7a9734117:0x10087f7031fa005a!8m2!3d52.6612299!4d17.9327416!16s%2Fg%2F1vrq8bnz!19sChIJF0FzqaehBEcRWgD6MXB_CBA?authuser=0&hl=tr&rclk=1",
    "website_url": "http://www.grene.pl/",
    "rating_text": "4,8",
    "stars": null,
    "number_of_reviews": null,
    "price_level": "",
    "open_hours": "",
    "extraction_timestamp": "2025-06-07T17:18:37.268Z",
    "source_name": "google",
    "source_query": "Irrigation Equipment",
    "source_country": "PL",
    "country": "Poland",
    "state": "Greater Poland Voivodeship",
    "city": "Powiat gnieźnieński"
  },
  {
    "source_id": "ChIJxZTSQBWhBEcRF4aeNWXNi-w",
    "name": "Gardenbaum - Kompleksowe usługi ogrodnicze",
    "category": "Gardenbaum - Kompleksowe usługi ogrodnicze",
    "formatted_address": "5,0(7)",
    "phone_number": "+48575437261",
    "source_url": "https://www.google.com/maps/place/Gardenbaum+-+Kompleksowe+us%C5%82ugi+ogrodnicze/data=!4m7!3m6!1s0x4704a11540d294c5:0xec8bcd65359e8617!8m2!3d52.668365!4d17.9625112!16s%2Fg%2F11mwyx6wz6!19sChIJxZTSQBWhBEcRF4aeNWXNi-w?authuser=0&hl=tr&rclk=1",
    "website_url": "http://www.gardenbaum.pl/",
    "rating_text": "5,0",
    "stars": null,
    "number_of_reviews": null,
    "price_level": "",
    "open_hours": "",
    "extraction_timestamp": "2025-06-07T17:18:37.268Z",
    "source_name": "google",
    "source_query": "Irrigation Equipment",
    "source_country": "PL",
    "country": "Poland",
    "state": "Greater Poland Voivodeship",
    "city": "Powiat gnieźnieński"
  },
  {
    "source_id": "ChIJxbGHpMFCcQoRaHHA7LLjJqk",
    "name": "PD-OGRODY",
    "category": "PD-OGRODY",
    "formatted_address": "5,0(2)",
    "phone_number": "+48726124598",
    "source_url": "https://www.google.com/maps/place/PD-OGRODY/data=!4m7!3m6!1s0xa7142c1a487b1c5:0xa926e3b2ecc07168!8m2!3d52.5558612!4d17.6089463!16s%2Fg%2F11wwfpv09y!19sChIJxbGHpMFCcQoRaHHA7LLjJqk?authuser=0&hl=tr&rclk=1",
    "website_url": "https://www.pd-ogrody.pl/",
    "rating_text": "5,0",
    "stars": null,
    "number_of_reviews": null,
    "price_level": "",
    "open_hours": "",
    "extraction_timestamp": "2025-06-07T17:18:37.268Z",
    "source_name": "google",
    "source_query": "Irrigation Equipment",
    "source_country": "PL",
    "country": "Poland",
    "state": "Greater Poland Voivodeship",
    "city": "Powiat gnieźnieński"
  },
  {
    "source_id": "ChIJvUeW8UKRBEcRLQmIwuRD7HU",
    "name": "Bol-Ann. Building Materials",
    "category": "Bol-Ann. Building Materials",
    "formatted_address": "4,4(386)",
    "phone_number": "+48614261414",
    "source_url": "https://www.google.com/maps/place/Bol-Ann.+Building+Materials/data=!4m7!3m6!1s0x47049142f19647bd:0x75ec43e4c288092d!8m2!3d52.5163937!4d17.6093954!16s%2Fg%2F1tgdb2ty!19sChIJvUeW8UKRBEcRLQmIwuRD7HU?authuser=0&hl=tr&rclk=1",
    "website_url": "http://www.bolann.com.pl/",
    "rating_text": "4,4",
    "stars": null,
    "number_of_reviews": null,
    "price_level": "",
    "open_hours": "",
    "extraction_timestamp": "2025-06-07T17:18:37.269Z",
    "source_name": "google",
    "source_query": "Irrigation Equipment",
    "source_country": "PL",
    "country": "Poland",
    "state": "Greater Poland Voivodeship",
    "city": "Powiat gnieźnieński"
  },
  {
    "source_id": "ChIJVTV3W_PzBEcR6gY0xwQi2_E",
    "name": "Deszczownie.com",
    "category": "Deszczownie.com",
    "formatted_address": "",
    "phone_number": "+48726000030",
    "source_url": "https://www.google.com/maps/place/Deszczownie.com/data=!4m7!3m6!1s0x4704f3f35b773555:0xf1db2204c73406ea!8m2!3d52.3623948!4d17.4021087!16s%2Fg%2F11y3pv4rxr!19sChIJVTV3W_PzBEcR6gY0xwQi2_E?authuser=0&hl=tr&rclk=1",
    "website_url": "https://www.deszczownie.com/",
    "rating_text": "",
    "stars": null,
    "number_of_reviews": null,
    "price_level": "",
    "open_hours": "",
    "extraction_timestamp": "2025-06-07T17:18:37.269Z",
    "source_name": "google",
    "source_query": "Irrigation Equipment",
    "source_country": "PL",
    "country": "Poland",
    "state": "Greater Poland Voivodeship",
    "city": "Powiat gnieźnieński"
  }
]
