[
  {
    "source_id": "ChIJK9kfbTh4BEcRM3svr3T5R7k",
    "name": "AGROHOSE PRZEWODY HYDRAULICZNE",
    "category": "AGROHOSE PRZEWODY HYDRAULICZNE",
    "formatted_address": "5,0(25)",
    "phone_number": "+48607719861",
    "source_url": "https://www.google.com/maps/place/AGROHOSE+PRZEWODY+HYDRAULICZNE/data=!4m7!3m6!1s0x470478386d1fd92b:0xb947f974af2f7b33!8m2!3d52.800697!4d17.190384!16s%2Fg%2F1ptxrm4wp!19sChIJK9kfbTh4BEcRM3svr3T5R7k?authuser=0&hl=tr&rclk=1",
    "website_url": "http://www.agrohose.pl/",
    "rating_text": "5,0",
    "stars": null,
    "number_of_reviews": null,
    "price_level": "",
    "open_hours": "",
    "extraction_timestamp": "2025-06-07T17:34:55.168Z",
    "source_name": "google",
    "source_query": "Irrigation Equipment",
    "source_country": "PL",
    "country": "Poland",
    "state": "Greater Poland Voivodeship",
    "city": "Powiat wągrowiecki"
  },
  {
    "source_id": "ChIJCRGK61p4BEcR7_P6LIlR0jI",
    "name": "TB Hydro Sp. z o.o.",
    "category": "TB Hydro Sp. z o.o.",
    "formatted_address": "4,7(6)",
    "phone_number": "+48695025951",
    "source_url": "https://www.google.com/maps/place/TB+Hydro+Sp.+z+o.o./data=!4m7!3m6!1s0x4704785aeb8a1109:0x32d251892cfaf3ef!8m2!3d52.7981068!4d17.2094055!16s%2Fg%2F1hdztqvxs!19sChIJCRGK61p4BEcR7_P6LIlR0jI?authuser=0&hl=tr&rclk=1",
    "website_url": "http://www.tbhydro.com.pl/",
    "rating_text": "4,7",
    "stars": null,
    "number_of_reviews": null,
    "price_level": "",
    "open_hours": "",
    "extraction_timestamp": "2025-06-07T17:34:55.169Z",
    "source_name": "google",
    "source_query": "Irrigation Equipment",
    "source_country": "PL",
    "country": "Poland",
    "state": "Greater Poland Voivodeship",
    "city": "Powiat wągrowiecki"
  },
  {
    "source_id": "ChIJGQW86nR5BEcRQ5T2nktRkZM",
    "name": "Hydro-term Technika Grzewcza i Sanitarna Bartosz Markiel",
    "category": "Hydro-term Technika Grzewcza i Sanitarna Bartosz Markiel",
    "formatted_address": "4,5(16)",
    "phone_number": "",
    "source_url": "https://www.google.com/maps/place/Hydro-term+Technika+Grzewcza+i+Sanitarna+Bartosz+Markiel/data=!4m7!3m6!1s0x47047974eabc0519:0x9391514b9ef69443!8m2!3d52.814759!4d17.2176056!16s%2Fg%2F11k6xrc6g1!19sChIJGQW86nR5BEcRQ5T2nktRkZM?authuser=0&hl=tr&rclk=1",
    "website_url": "",
    "rating_text": "4,5",
    "stars": null,
    "number_of_reviews": null,
    "price_level": "",
    "open_hours": "",
    "extraction_timestamp": "2025-06-07T17:34:55.170Z",
    "source_name": "google",
    "source_query": "Irrigation Equipment",
    "source_country": "PL",
    "country": "Poland",
    "state": "Greater Poland Voivodeship",
    "city": "Powiat wągrowiecki"
  },
  {
    "source_id": "ChIJ1ax8yxJ5BEcR0J1h0U_YCSA",
    "name": "Eko- Tech Mateusz Fludra - konstrukcje stalowe - wiaty - obory - ślusarstwo",
    "category": "Eko- Tech Mateusz Fludra - konstrukcje stalowe - wiaty - obory - ślusarstwo",
    "formatted_address": "5,0(15)",
    "phone_number": "+48603517420",
    "source_url": "https://www.google.com/maps/place/Eko-+Tech+Mateusz+Fludra+-+konstrukcje+stalowe+-+wiaty+-+obory+-+%C5%9Blusarstwo/data=!4m7!3m6!1s0x47047912cb7cacd5:0x2009d84fd1619dd0!8m2!3d52.7971772!4d17.2092307!16s%2Fg%2F11fl0y6x2h!19sChIJ1ax8yxJ5BEcR0J1h0U_YCSA?authuser=0&hl=tr&rclk=1",
    "website_url": "http://eko-tech-konstrukcjestalowe.pl/",
    "rating_text": "5,0",
    "stars": null,
    "number_of_reviews": null,
    "price_level": "",
    "open_hours": "",
    "extraction_timestamp": "2025-06-07T17:34:55.172Z",
    "source_name": "google",
    "source_query": "Irrigation Equipment",
    "source_country": "PL",
    "country": "Poland",
    "state": "Greater Poland Voivodeship",
    "city": "Powiat wągrowiecki"
  },
  {
    "source_id": "ChIJeZtXM_t5BEcRhEGb4zVuwgA",
    "name": "Efli Group sp. Z o. o. Sp. K.",
    "category": "Efli Group sp. Z o. o. Sp. K.",
    "formatted_address": "3,4(10)",
    "phone_number": "+48666012046",
    "source_url": "https://www.google.com/maps/place/Efli+Group+sp.+Z+o.+o.+Sp.+K./data=!4m7!3m6!1s0x470479fb33579b79:0xc26e35e39b4184!8m2!3d52.8047038!4d17.1977342!16s%2Fg%2F11nn3mfksr!19sChIJeZtXM_t5BEcRhEGb4zVuwgA?authuser=0&hl=tr&rclk=1",
    "website_url": "http://efli.pl/technika-grzewcza/",
    "rating_text": "3,4",
    "stars": null,
    "number_of_reviews": null,
    "price_level": "",
    "open_hours": "",
    "extraction_timestamp": "2025-06-07T17:34:55.173Z",
    "source_name": "google",
    "source_query": "Irrigation Equipment",
    "source_country": "PL",
    "country": "Poland",
    "state": "Greater Poland Voivodeship",
    "city": "Powiat wągrowiecki"
  },
  {
    "source_id": "ChIJ4xBmDGB4BEcR6S0Jn6rURWI",
    "name": "ATKO.PL Sklep rolniczo-techniczny Powered by Kramp Wągrowiec",
    "category": "ATKO.PL Sklep rolniczo-techniczny Powered by Kramp Wągrowiec",
    "formatted_address": "4,6(67)",
    "phone_number": "+48783948382",
    "source_url": "https://www.google.com/maps/place/ATKO.PL+Sklep+rolniczo-techniczny+Powered+by+Kramp+W%C4%85growiec/data=!4m7!3m6!1s0x470478600c6610e3:0x6245d4aa9f092de9!8m2!3d52.8056463!4d17.2249103!16s%2Fg%2F11b6xhrhmr!19sChIJ4xBmDGB4BEcR6S0Jn6rURWI?authuser=0&hl=tr&rclk=1",
    "website_url": "http://www.grene.pl/",
    "rating_text": "4,6",
    "stars": null,
    "number_of_reviews": null,
    "price_level": "",
    "open_hours": "",
    "extraction_timestamp": "2025-06-07T17:34:55.175Z",
    "source_name": "google",
    "source_query": "Irrigation Equipment",
    "source_country": "PL",
    "country": "Poland",
    "state": "Greater Poland Voivodeship",
    "city": "Powiat wągrowiecki"
  },
  {
    "source_id": "ChIJCW4NU2h4BEcROJbu1TH8oG4",
    "name": "Salon Firmowy CID-ROL",
    "category": "Salon Firmowy CID-ROL",
    "formatted_address": "5,0(5)",
    "phone_number": "+48536999040",
    "source_url": "https://www.google.com/maps/place/Salon+Firmowy+CID-ROL/data=!4m7!3m6!1s0x47047868530d6e09:0x6ea0fc31d5ee9638!8m2!3d52.8104548!4d17.2110065!16s%2Fg%2F11c5_z910n!19sChIJCW4NU2h4BEcROJbu1TH8oG4?authuser=0&hl=tr&rclk=1",
    "website_url": "http://www.cidrol.com.pl/",
    "rating_text": "5,0",
    "stars": null,
    "number_of_reviews": null,
    "price_level": "",
    "open_hours": "",
    "extraction_timestamp": "2025-06-07T17:34:55.176Z",
    "source_name": "google",
    "source_query": "Irrigation Equipment",
    "source_country": "PL",
    "country": "Poland",
    "state": "Greater Poland Voivodeship",
    "city": "Powiat wągrowiecki"
  },
  {
    "source_id": "ChIJVV8xHK95BEcR3D7Dy03ENTk",
    "name": "INSTAL-SERWIS Maciej Pawlisz",
    "category": "INSTAL-SERWIS Maciej Pawlisz",
    "formatted_address": "5,0(2)",
    "phone_number": "+48664992503",
    "source_url": "https://www.google.com/maps/place/INSTAL-SERWIS+Maciej+Pawlisz/data=!4m7!3m6!1s0x470479af1c315f55:0x3935c44dcbc33edc!8m2!3d52.8097436!4d17.2227467!16s%2Fg%2F11x6nph6wp!19sChIJVV8xHK95BEcR3D7Dy03ENTk?authuser=0&hl=tr&rclk=1",
    "website_url": "",
    "rating_text": "5,0",
    "stars": null,
    "number_of_reviews": null,
    "price_level": "",
    "open_hours": "",
    "extraction_timestamp": "2025-06-07T17:34:55.177Z",
    "source_name": "google",
    "source_query": "Irrigation Equipment",
    "source_country": "PL",
    "country": "Poland",
    "state": "Greater Poland Voivodeship",
    "city": "Powiat wągrowiecki"
  },
  {
    "source_id": "ChIJ1duaOMV5BEcRw-wC7sjBIZE",
    "name": "HydroBox Rafał Filut usługi instalacyjne",
    "category": "HydroBox Rafał Filut usługi instalacyjne",
    "formatted_address": "5,0(54)",
    "phone_number": "+48504545323",
    "source_url": "https://www.google.com/maps/place/HydroBox+Rafa%C5%82+Filut+us%C5%82ugi+instalacyjne/data=!4m7!3m6!1s0x470479c5389adbd5:0x9121c1c8ee02ecc3!8m2!3d52.7972308!4d17.1936019!16s%2Fg%2F11fphkd2ms!19sChIJ1duaOMV5BEcRw-wC7sjBIZE?authuser=0&hl=tr&rclk=1",
    "website_url": "",
    "rating_text": "5,0",
    "stars": null,
    "number_of_reviews": null,
    "price_level": "",
    "open_hours": "",
    "extraction_timestamp": "2025-06-07T17:34:55.178Z",
    "source_name": "google",
    "source_query": "Irrigation Equipment",
    "source_country": "PL",
    "country": "Poland",
    "state": "Greater Poland Voivodeship",
    "city": "Powiat wągrowiecki"
  },
  {
    "source_id": "ChIJabWPYpZ5BEcRisVubkM-sNA",
    "name": "Wyrównaj.pl",
    "category": "Wyrównaj.pl",
    "formatted_address": "5,0(2)",
    "phone_number": "+48667180400",
    "source_url": "https://www.google.com/maps/place/Wyr%C3%B3wnaj.pl/data=!4m7!3m6!1s0x47047996628fb569:0xd0b03e436e6ec58a!8m2!3d52.8242396!4d17.2313956!16s%2Fg%2F11qq9s8g9y!19sChIJabWPYpZ5BEcRisVubkM-sNA?authuser=0&hl=tr&rclk=1",
    "website_url": "https://wyrownaj.pl/",
    "rating_text": "5,0",
    "stars": null,
    "number_of_reviews": null,
    "price_level": "",
    "open_hours": "",
    "extraction_timestamp": "2025-06-07T17:34:55.179Z",
    "source_name": "google",
    "source_query": "Irrigation Equipment",
    "source_country": "PL",
    "country": "Poland",
    "state": "Greater Poland Voivodeship",
    "city": "Powiat wągrowiecki"
  },
  {
    "source_id": "ChIJvbbDgU_dAqsRb1JrOcl1duk",
    "name": "ProAqua Marcin Dobroniecki",
    "category": "ProAqua Marcin Dobroniecki",
    "formatted_address": "4,5(17)",
    "phone_number": "+48725460965",
    "source_url": "https://www.google.com/maps/place/ProAqua+Marcin+Dobroniecki/data=!4m7!3m6!1s0xab02dd4f81c3b6bd:0xe97675c9396b526f!8m2!3d51.953761!4d19.1343692!16s%2Fg%2F11s46f9gm0!19sChIJvbbDgU_dAqsRb1JrOcl1duk?authuser=0&hl=tr&rclk=1",
    "website_url": "https://www.facebook.com/ProAquaDobroniecki/",
    "rating_text": "4,5",
    "stars": null,
    "number_of_reviews": null,
    "price_level": "",
    "open_hours": "",
    "extraction_timestamp": "2025-06-07T17:34:55.180Z",
    "source_name": "google",
    "source_query": "Irrigation Equipment",
    "source_country": "PL",
    "country": "Poland",
    "state": "Greater Poland Voivodeship",
    "city": "Powiat wągrowiecki"
  },
  {
    "source_id": "ChIJe-Vr8il5BEcRh3EVqlNFTnQ",
    "name": "REWOLTECH INSTALACJE SERWIS",
    "category": "REWOLTECH INSTALACJE SERWIS",
    "formatted_address": "",
    "phone_number": "+48672621024",
    "source_url": "https://www.google.com/maps/place/REWOLTECH+INSTALACJE+SERWIS/data=!4m7!3m6!1s0x47047929f26be57b:0x744e4553aa157187!8m2!3d52.8174607!4d17.2097873!16s%2Fg%2F11pwycn8jd!19sChIJe-Vr8il5BEcRh3EVqlNFTnQ?authuser=0&hl=tr&rclk=1",
    "website_url": "http://www.rewoltech.pl/",
    "rating_text": "",
    "stars": null,
    "number_of_reviews": null,
    "price_level": "",
    "open_hours": "",
    "extraction_timestamp": "2025-06-07T17:34:55.181Z",
    "source_name": "google",
    "source_query": "Irrigation Equipment",
    "source_country": "PL",
    "country": "Poland",
    "state": "Greater Poland Voivodeship",
    "city": "Powiat wągrowiecki"
  },
  {
    "source_id": "ChIJ59mqHIh4BEcRejgg3PBjtPw",
    "name": "Bricomarche",
    "category": "Bricomarche",
    "formatted_address": "4,0(1.617)",
    "phone_number": "+48519502284",
    "source_url": "https://www.google.com/maps/place/Bricomarche/data=!4m7!3m6!1s0x470478881caad9e7:0xfcb463f0dc20387a!8m2!3d52.8038634!4d17.2284529!16s%2Fg%2F1th80n3p!19sChIJ59mqHIh4BEcRejgg3PBjtPw?authuser=0&hl=tr&rclk=1",
    "website_url": "https://www.bricomarche.pl/?posId=187",
    "rating_text": "4,0",
    "stars": null,
    "number_of_reviews": null,
    "price_level": "",
    "open_hours": "",
    "extraction_timestamp": "2025-06-07T17:34:55.184Z",
    "source_name": "google",
    "source_query": "Irrigation Equipment",
    "source_country": "PL",
    "country": "Poland",
    "state": "Greater Poland Voivodeship",
    "city": "Powiat wągrowiecki"
  },
  {
    "source_id": "ChIJZZlX2r55BEcRfhbNx0QM64M",
    "name": "HYDROMEL zakład robót kanalizacyjno-melioracyjnych",
    "category": "HYDROMEL zakład robót kanalizacyjno-melioracyjnych",
    "formatted_address": "4,0(1)",
    "phone_number": "",
    "source_url": "https://www.google.com/maps/place/HYDROMEL+zak%C5%82ad+rob%C3%B3t+kanalizacyjno-melioracyjnych/data=!4m7!3m6!1s0x470479beda579965:0x83eb0c44c7cd167e!8m2!3d52.7998486!4d17.2186262!16s%2Fg%2F11h3ldzty3!19sChIJZZlX2r55BEcRfhbNx0QM64M?authuser=0&hl=tr&rclk=1",
    "website_url": "",
    "rating_text": "4,0",
    "stars": null,
    "number_of_reviews": null,
    "price_level": "",
    "open_hours": "",
    "extraction_timestamp": "2025-06-07T17:34:55.184Z",
    "source_name": "google",
    "source_query": "Irrigation Equipment",
    "source_country": "PL",
    "country": "Poland",
    "state": "Greater Poland Voivodeship",
    "city": "Powiat wągrowiecki"
  },
  {
    "source_id": "ChIJlZol-054BEcRo043q5lwkcM",
    "name": "CID-ROL spółka z ograniczoną odpowiedzialnością sp. k.",
    "category": "CID-ROL spółka z ograniczoną odpowiedzialnością sp. k.",
    "formatted_address": "3,9(7)",
    "phone_number": "+48501190109",
    "source_url": "https://www.google.com/maps/place/CID-ROL+sp%C3%B3%C5%82ka+z+ograniczon%C4%85+odpowiedzialno%C5%9Bci%C4%85+sp.+k./data=!4m7!3m6!1s0x4704784efb259a95:0xc3917099ab374ea3!8m2!3d52.7941714!4d17.1996215!16s%2Fg%2F1x5f91jg!19sChIJlZol-054BEcRo043q5lwkcM?authuser=0&hl=tr&rclk=1",
    "website_url": "http://www.cidrol.com.pl/",
    "rating_text": "3,9",
    "stars": null,
    "number_of_reviews": null,
    "price_level": "",
    "open_hours": "",
    "extraction_timestamp": "2025-06-07T17:34:55.185Z",
    "source_name": "google",
    "source_query": "Irrigation Equipment",
    "source_country": "PL",
    "country": "Poland",
    "state": "Greater Poland Voivodeship",
    "city": "Powiat wągrowiecki"
  },
  {
    "source_id": "ChIJb0rcARp4BEcRUvs9iC6_36I",
    "name": "RAJBUD Bednarz sp.j.",
    "category": "RAJBUD Bednarz sp.j.",
    "formatted_address": "4,4(146)",
    "phone_number": "+48602284319",
    "source_url": "https://www.google.com/maps/place/RAJBUD+Bednarz+sp.j./data=!4m7!3m6!1s0x4704781a01dc4a6f:0xa2dfbf2e883dfb52!8m2!3d52.8149176!4d17.1865263!16s%2Fg%2F1v9ghprb!19sChIJb0rcARp4BEcRUvs9iC6_36I?authuser=0&hl=tr&rclk=1",
    "website_url": "http://www.rajbud.biz/",
    "rating_text": "4,4",
    "stars": null,
    "number_of_reviews": null,
    "price_level": "",
    "open_hours": "",
    "extraction_timestamp": "2025-06-07T17:34:55.187Z",
    "source_name": "google",
    "source_query": "Irrigation Equipment",
    "source_country": "PL",
    "country": "Poland",
    "state": "Greater Poland Voivodeship",
    "city": "Powiat wągrowiecki"
  },
  {
    "source_id": "ChIJzypJijt5BEcRJCy5vPrpt_U",
    "name": "MS-SATO Instalacje Technika Grzewcza wod-kan c.o gaz pompy ciepła serwis kotłów gazowych Termet Vaillant Ferroli",
    "category": "MS-SATO Instalacje Technika Grzewcza wod-kan c.o gaz pompy ciepła serwis kotłów gazowych Termet Vaillant Ferroli",
    "formatted_address": "5,0(8)",
    "phone_number": "+48604539901",
    "source_url": "https://www.google.com/maps/place/MS-SATO+Instalacje+Technika+Grzewcza+wod-kan+c.o+gaz+pompy+ciep%C5%82a+serwis+kot%C5%82%C3%B3w+gazowych+Termet+Vaillant+Ferroli/data=!4m7!3m6!1s0x4704793b8a492acf:0xf5b7e9fabcb92c24!8m2!3d52.7985481!4d17.216803!16s%2Fg%2F11j8vgx47n!19sChIJzypJijt5BEcRJCy5vPrpt_U?authuser=0&hl=tr&rclk=1",
    "website_url": "",
    "rating_text": "5,0",
    "stars": null,
    "number_of_reviews": null,
    "price_level": "",
    "open_hours": "",
    "extraction_timestamp": "2025-06-07T17:34:55.188Z",
    "source_name": "google",
    "source_query": "Irrigation Equipment",
    "source_country": "PL",
    "country": "Poland",
    "state": "Greater Poland Voivodeship",
    "city": "Powiat wągrowiecki"
  },
  {
    "source_id": "ChIJcdKrLW14BEcR4JEcwmpXsIs",
    "name": "Aquapark Wągrowiec",
    "category": "Aquapark Wągrowiec",
    "formatted_address": "4,4(1.944)",
    "phone_number": "+48672685555",
    "source_url": "https://www.google.com/maps/place/Aquapark+W%C4%85growiec/data=!4m7!3m6!1s0x4704786d2dabd271:0x8bb0576ac21c91e0!8m2!3d52.8173459!4d17.2010784!16s%2Fg%2F11clsff_td!19sChIJcdKrLW14BEcR4JEcwmpXsIs?authuser=0&hl=tr&rclk=1",
    "website_url": "https://aquaparkwagrowiec.pl/",
    "rating_text": "4,4",
    "stars": null,
    "number_of_reviews": null,
    "price_level": "",
    "open_hours": "",
    "extraction_timestamp": "2025-06-07T17:34:55.190Z",
    "source_name": "google",
    "source_query": "Irrigation Equipment",
    "source_country": "PL",
    "country": "Poland",
    "state": "Greater Poland Voivodeship",
    "city": "Powiat wągrowiecki"
  },
  {
    "source_id": "ChIJ2fJGNm94BEcRT30sVJu0kPM",
    "name": "Elektro-System. Hurtownia elektrotechniczna",
    "category": "Elektro-System. Hurtownia elektrotechniczna",
    "formatted_address": "4,2(75)",
    "phone_number": "+48672685425",
    "source_url": "https://www.google.com/maps/place/Elektro-System.+Hurtownia+elektrotechniczna/data=!4m7!3m6!1s0x4704786f3646f2d9:0xf390b49b542c7d4f!8m2!3d52.8120118!4d17.212351!16s%2Fg%2F1tjl4lx0!19sChIJ2fJGNm94BEcRT30sVJu0kPM?authuser=0&hl=tr&rclk=1",
    "website_url": "",
    "rating_text": "4,2",
    "stars": null,
    "number_of_reviews": null,
    "price_level": "",
    "open_hours": "",
    "extraction_timestamp": "2025-06-07T17:34:55.191Z",
    "source_name": "google",
    "source_query": "Irrigation Equipment",
    "source_country": "PL",
    "country": "Poland",
    "state": "Greater Poland Voivodeship",
    "city": "Powiat wągrowiecki"
  },
  {
    "source_id": "ChIJ3zIIqKl7BEcRR1ZnqPhbdTM",
    "name": "Winkel - instalacje c.o. • wod kan • gazowe • hydraulik • ogrzewanie podłogowe",
    "category": "Winkel - instalacje c.o. • wod kan • gazowe • hydraulik • ogrzewanie podłogowe",
    "formatted_address": "5,0(13)",
    "phone_number": "+48693578151",
    "source_url": "https://www.google.com/maps/place/Winkel+-+instalacje+c.o.+%E2%80%A2+wod+kan+%E2%80%A2+gazowe+%E2%80%A2+hydraulik+%E2%80%A2+ogrzewanie+pod%C5%82ogowe/data=!4m7!3m6!1s0x47047ba9a80832df:0x33755bf8a8675647!8m2!3d52.6722028!4d17.1590988!16s%2Fg%2F11gxnqdds9!19sChIJ3zIIqKl7BEcRR1ZnqPhbdTM?authuser=0&hl=tr&rclk=1",
    "website_url": "",
    "rating_text": "5,0",
    "stars": null,
    "number_of_reviews": null,
    "price_level": "",
    "open_hours": "",
    "extraction_timestamp": "2025-06-07T17:34:55.192Z",
    "source_name": "google",
    "source_query": "Irrigation Equipment",
    "source_country": "PL",
    "country": "Poland",
    "state": "Greater Poland Voivodeship",
    "city": "Powiat wągrowiecki"
  },
  {
    "source_id": "ChIJQaAR7D37BEcRBa5PF0ULYcE",
    "name": "TEST Łukasz i Grzegorz Kiełbowicz sp. j",
    "category": "TEST Łukasz i Grzegorz Kiełbowicz sp. j",
    "formatted_address": "4,9(75)",
    "phone_number": "+48508635200",
    "source_url": "https://www.google.com/maps/place/TEST+%C5%81ukasz+i+Grzegorz+Kie%C5%82bowicz+sp.+j/data=!4m7!3m6!1s0x4704fb3dec11a041:0xc1610b45174fae05!8m2!3d52.5658269!4d17.6143399!16s%2Fg%2F1twyy791!19sChIJQaAR7D37BEcRBa5PF0ULYcE?authuser=0&hl=tr&rclk=1",
    "website_url": "https://testinstalacje.pl/",
    "rating_text": "4,9",
    "stars": null,
    "number_of_reviews": null,
    "price_level": "",
    "open_hours": "",
    "extraction_timestamp": "2025-06-07T17:34:55.193Z",
    "source_name": "google",
    "source_query": "Irrigation Equipment",
    "source_country": "PL",
    "country": "Poland",
    "state": "Greater Poland Voivodeship",
    "city": "Powiat wągrowiecki"
  },
  {
    "source_id": "ChIJZaBOxlt4BEcROhTJE8Oxw1I",
    "name": "Targowisko Miejskie",
    "category": "Targowisko Miejskie",
    "formatted_address": "4,1(35)",
    "phone_number": "",
    "source_url": "https://www.google.com/maps/place/Targowisko+Miejskie/data=!4m7!3m6!1s0x4704785bc64ea065:0x52c3b1c313c9143a!8m2!3d52.7992743!4d17.2139374!16s%2Fg%2F11h0vqf67y!19sChIJZaBOxlt4BEcROhTJE8Oxw1I?authuser=0&hl=tr&rclk=1",
    "website_url": "",
    "rating_text": "4,1",
    "stars": null,
    "number_of_reviews": null,
    "price_level": "",
    "open_hours": "",
    "extraction_timestamp": "2025-06-07T17:34:55.194Z",
    "source_name": "google",
    "source_query": "Irrigation Equipment",
    "source_country": "PL",
    "country": "Poland",
    "state": "Greater Poland Voivodeship",
    "city": "Powiat wągrowiecki"
  },
  {
    "source_id": "ChIJdXc2llt4BEcRumIGzTMoVko",
    "name": "3xM MIESZALNIA TYNKÓW I FARB – Tworzymy kolory, budujemy jakość",
    "category": "3xM MIESZALNIA TYNKÓW I FARB – Tworzymy kolory, budujemy jakość",
    "formatted_address": "3xM MIESZALNIA TYNKÓW I FARB – Tworzymy kolory, budujemy jakość",
    "phone_number": "+48672621843",
    "source_url": "https://www.google.com/maps/place/3xM+MIESZALNIA+TYNK%C3%93W+I+FARB+%E2%80%93+Tworzymy+kolory,+budujemy+jako%C5%9B%C4%87/data=!4m7!3m6!1s0x4704785b96367775:0x4a562833cd0662ba!8m2!3d52.7993602!4d17.2148118!16s%2Fg%2F1tm28czd!19sChIJdXc2llt4BEcRumIGzTMoVko?authuser=0&hl=tr&rclk=1",
    "website_url": "https://ph3xm.pl/",
    "rating_text": "4,7",
    "stars": null,
    "number_of_reviews": null,
    "price_level": "",
    "open_hours": "",
    "extraction_timestamp": "2025-06-07T17:34:55.195Z",
    "source_name": "google",
    "source_query": "Irrigation Equipment",
    "source_country": "PL",
    "country": "Poland",
    "state": "Greater Poland Voivodeship",
    "city": "Powiat wągrowiecki"
  },
  {
    "source_id": "ChIJq3ZuChspzY0RlAcbMNY5mRg",
    "name": "PODLEWAMY24.pl",
    "category": "PODLEWAMY24.pl",
    "formatted_address": "5,0(43)",
    "phone_number": "+48509215271",
    "source_url": "https://www.google.com/maps/place/PODLEWAMY24.pl/data=!4m7!3m6!1s0x8dcd291b0a6e76ab:0x189939d6301b0794!8m2!3d52.2778206!4d16.9790131!16s%2Fg%2F11rhfnnqkx!19sChIJq3ZuChspzY0RlAcbMNY5mRg?authuser=0&hl=tr&rclk=1",
    "website_url": "http://www.podlewamy24.pl/",
    "rating_text": "5,0",
    "stars": null,
    "number_of_reviews": null,
    "price_level": "",
    "open_hours": "",
    "extraction_timestamp": "2025-06-07T17:34:55.196Z",
    "source_name": "google",
    "source_query": "Irrigation Equipment",
    "source_country": "PL",
    "country": "Poland",
    "state": "Greater Poland Voivodeship",
    "city": "Powiat wągrowiecki"
  },
  {
    "source_id": "ChIJj0IRIPVlA0cR_4REf9RvBX0",
    "name": "Centrum Sportów Wodnych w Żninie",
    "category": "Centrum Sportów Wodnych w Żninie",
    "formatted_address": "4,8(45)",
    "phone_number": "+48785010767",
    "source_url": "https://www.google.com/maps/place/Centrum+Sport%C3%B3w+Wodnych+w+%C5%BBninie/data=!4m7!3m6!1s0x470365f52011428f:0x7d056fd47f4484ff!8m2!3d52.8431328!4d17.7251012!16s%2Fg%2F11rscvhpgw!19sChIJj0IRIPVlA0cR_4REf9RvBX0?authuser=0&hl=tr&rclk=1",
    "website_url": "https://mos.gminaznin.pl/centrum-sportow-wodnych/",
    "rating_text": "4,8",
    "stars": null,
    "number_of_reviews": null,
    "price_level": "",
    "open_hours": "",
    "extraction_timestamp": "2025-06-07T17:34:55.197Z",
    "source_name": "google",
    "source_query": "Irrigation Equipment",
    "source_country": "PL",
    "country": "Poland",
    "state": "Greater Poland Voivodeship",
    "city": "Powiat wągrowiecki"
  },
  {
    "source_id": "ChIJk8NYTdqTA0cRY5IVO4k9S1M",
    "name": "GRENE",
    "category": "GRENE",
    "formatted_address": "4,0(7)",
    "phone_number": "+48609101760",
    "source_url": "https://www.google.com/maps/place/GRENE/data=!4m7!3m6!1s0x470393da4d58c393:0x534b3d893b159263!8m2!3d53.0279629!4d17.1188131!16s%2Fg%2F11fmp4tqyp!19sChIJk8NYTdqTA0cRY5IVO4k9S1M?authuser=0&hl=tr&rclk=1",
    "website_url": "http://www.grene.pl/",
    "rating_text": "4,0",
    "stars": null,
    "number_of_reviews": null,
    "price_level": "",
    "open_hours": "",
    "extraction_timestamp": "2025-06-07T17:34:55.198Z",
    "source_name": "google",
    "source_query": "Irrigation Equipment",
    "source_country": "PL",
    "country": "Poland",
    "state": "Greater Poland Voivodeship",
    "city": "Powiat wągrowiecki"
  },
  {
    "source_id": "ChIJwxC1X09EBEcRLzaLJfk4rD8",
    "name": "OASE - Oczko Wodne Polski Autoryzowany Sklep internetowy Złoty Przedstawiciel Nawadnianie Podlewanie Hunter, Raibird,Rossi",
    "category": "OASE - Oczko Wodne Polski Autoryzowany Sklep internetowy Złoty Przedstawiciel Nawadnianie Podlewanie Hunter, Raibird,Rossi",
    "formatted_address": "OASE - Oczko Wodne Polski Autoryzowany Sklep internetowy Złoty Przedstawiciel Nawadnianie Podlewanie Hunter, Raibird,Rossi",
    "phone_number": "+48618842498",
    "source_url": "https://www.google.com/maps/place/OASE+-+Oczko+Wodne+Polski+Autoryzowany+Sklep+internetowy+Z%C5%82oty+Przedstawiciel+Nawadnianie+Podlewanie+Hunter,+Raibird,Rossi/data=!4m7!3m6!1s0x4704444f5fb510c3:0x3fac38f9258b362f!8m2!3d52.4364533!4d16.8327227!16s%2Fg%2F1hc96cvd0!19sChIJwxC1X09EBEcRLzaLJfk4rD8?authuser=0&hl=tr&rclk=1",
    "website_url": "",
    "rating_text": "4,6",
    "stars": null,
    "number_of_reviews": null,
    "price_level": "",
    "open_hours": "",
    "extraction_timestamp": "2025-06-07T17:34:55.199Z",
    "source_name": "google",
    "source_query": "Irrigation Equipment",
    "source_country": "PL",
    "country": "Poland",
    "state": "Greater Poland Voivodeship",
    "city": "Powiat wągrowiecki"
  },
  {
    "source_id": "ChIJbz65xq-iBEcR6_DsQT9o3Z8",
    "name": "GRENE",
    "category": "GRENE",
    "formatted_address": "4,6(37)",
    "phone_number": "+48502898750",
    "source_url": "https://www.google.com/maps/place/GRENE/data=!4m7!3m6!1s0x4704a2afc6b93e6f:0x9fdd683f41ecf0eb!8m2!3d52.5695327!4d17.8220716!16s%2Fg%2F11c2nc5jw6!19sChIJbz65xq-iBEcR6_DsQT9o3Z8?authuser=0&hl=tr&rclk=1",
    "website_url": "http://www.grene.pl/",
    "rating_text": "4,6",
    "stars": null,
    "number_of_reviews": null,
    "price_level": "",
    "open_hours": "",
    "extraction_timestamp": "2025-06-07T17:34:55.200Z",
    "source_name": "google",
    "source_query": "Irrigation Equipment",
    "source_country": "PL",
    "country": "Poland",
    "state": "Greater Poland Voivodeship",
    "city": "Powiat wągrowiecki"
  },
  {
    "source_id": "ChIJRebjL8SFA0cRFu4w5lIOj34",
    "name": "Nowaczewski",
    "category": "Nowaczewski",
    "formatted_address": "5,0(2)",
    "phone_number": "",
    "source_url": "https://www.google.com/maps/place/Nowaczewski/data=!4m7!3m6!1s0x470385c42fe3e645:0x7e8f0e52e630ee16!8m2!3d52.944068!4d17.2992243!16s%2Fg%2F11f77c3yk5!19sChIJRebjL8SFA0cRFu4w5lIOj34?authuser=0&hl=tr&rclk=1",
    "website_url": "",
    "rating_text": "5,0",
    "stars": null,
    "number_of_reviews": null,
    "price_level": "",
    "open_hours": "",
    "extraction_timestamp": "2025-06-07T17:34:55.200Z",
    "source_name": "google",
    "source_query": "Irrigation Equipment",
    "source_country": "PL",
    "country": "Poland",
    "state": "Greater Poland Voivodeship",
    "city": "Powiat wągrowiecki"
  },
  {
    "source_id": "ChIJR1Gy6FdHBEcRxLXa4mu3HY8",
    "name": "Fargo PW Centrum Ogrodnicze - Sklep Ogrodniczy i Rolniczy",
    "category": "Fargo PW Centrum Ogrodnicze - Sklep Ogrodniczy i Rolniczy",
    "formatted_address": "4,8(387)",
    "phone_number": "+48618146334",
    "source_url": "https://www.google.com/maps/place/Fargo+PW+Centrum+Ogrodnicze+-+Sklep+Ogrodniczy+i+Rolniczy/data=!4m7!3m6!1s0x47044757e8b25147:0x8f1db76be2dab5c4!8m2!3d52.4575027!4d16.6792707!16s%2Fg%2F1ptwzycf8!19sChIJR1Gy6FdHBEcRxLXa4mu3HY8?authuser=0&hl=tr&rclk=1",
    "website_url": "https://fargotarnowo.pl/",
    "rating_text": "4,8",
    "stars": null,
    "number_of_reviews": null,
    "price_level": "",
    "open_hours": "",
    "extraction_timestamp": "2025-06-07T17:34:55.201Z",
    "source_name": "google",
    "source_query": "Irrigation Equipment",
    "source_country": "PL",
    "country": "Poland",
    "state": "Greater Poland Voivodeship",
    "city": "Powiat wągrowiecki"
  }
]
