[
  {
    "source_id": "ChIJU3OjlcZsBEcRgZ-_uJA0U-E",
    "name": "SKLEP INSTALACYJNY W MŁYNIE S.C.JAWORSKI SZYMON,JAWORSKA MARTA",
    "category": "SKLEP INSTALACYJNY W MŁYNIE S.C.JAWORSKI SZYMON,JAWORSKA MARTA",
    "formatted_address": "SKLEP INSTALACYJNY W MŁYNIE S.C.JAWORSKI SZYMON,JAWORSKA MARTA",
    "phone_number": "+48501663902",
    "source_url": "https://www.google.com/maps/place/SKLEP+INSTALACYJNY+W+M%C5%81YNIE+S.C.JAWORSKI+SZYMON,JAWORSKA+MARTA/data=!4m7!3m6!1s0x47046cc695a37353:0xe1533490b8bf9f81!8m2!3d52.6375135!4d16.8138133!16s%2Fg%2F11c0xqk8ty!19sChIJU3OjlcZsBEcRgZ-_uJA0U-E?authuser=0&hl=tr&rclk=1",
    "website_url": "",
    "rating_text": "4,8",
    "stars": null,
    "number_of_reviews": null,
    "price_level": "",
    "open_hours": "",
    "extraction_timestamp": "2025-06-07T17:50:11.730Z",
    "source_name": "google",
    "source_query": "Irrigation Equipment",
    "source_country": "PL",
    "country": "Poland",
    "state": "Greater Poland Voivodeship",
    "city": "Powiat obornicki"
  },
  {
    "source_id": "ChIJjxN0GLZsBEcRyr5wLw-A4kM",
    "name": "DELTA Czartoszewski i Czarnek Sp. o.o.",
    "category": "DELTA Czartoszewski i Czarnek Sp. o.o.",
    "formatted_address": "4,6(107)",
    "phone_number": "+48612970037",
    "source_url": "https://www.google.com/maps/place/DELTA+Czartoszewski+i+Czarnek+Sp.+o.o./data=!4m7!3m6!1s0x47046cb61874138f:0x43e2800f2f70beca!8m2!3d52.6459066!4d16.8069438!16s%2Fg%2F1ptw40gk8!19sChIJjxN0GLZsBEcRyr5wLw-A4kM?authuser=0&hl=tr&rclk=1",
    "website_url": "http://deltacc.pl/",
    "rating_text": "4,6",
    "stars": null,
    "number_of_reviews": null,
    "price_level": "",
    "open_hours": "",
    "extraction_timestamp": "2025-06-07T17:50:11.731Z",
    "source_name": "google",
    "source_query": "Irrigation Equipment",
    "source_country": "PL",
    "country": "Poland",
    "state": "Greater Poland Voivodeship",
    "city": "Powiat obornicki"
  },
  {
    "source_id": "ChIJQ9wZL7ZsBEcRMjrLLkLzUpI",
    "name": "Materiały ścierne i pilarki Stihl - Norminet.pl",
    "category": "Materiały ścierne i pilarki Stihl - Norminet.pl",
    "formatted_address": "5,0(3)",
    "phone_number": "+48612970039",
    "source_url": "https://www.google.com/maps/place/Materia%C5%82y+%C5%9Bcierne+i+pilarki+Stihl+-+Norminet.pl/data=!4m7!3m6!1s0x47046cb62f19dc43:0x9252f3422ecb3a32!8m2!3d52.6459363!4d16.8070769!16s%2Fg%2F11f5jq0xwg!19sChIJQ9wZL7ZsBEcRMjrLLkLzUpI?authuser=0&hl=tr&rclk=1",
    "website_url": "https://norminet.pl/",
    "rating_text": "5,0",
    "stars": null,
    "number_of_reviews": null,
    "price_level": "",
    "open_hours": "",
    "extraction_timestamp": "2025-06-07T17:50:11.733Z",
    "source_name": "google",
    "source_query": "Irrigation Equipment",
    "source_country": "PL",
    "country": "Poland",
    "state": "Greater Poland Voivodeship",
    "city": "Powiat obornicki"
  },
  {
    "source_id": "ChIJJSKYSsRsBEcR-JEvV5NbtH8",
    "name": "POMPY PLUS INSTALACJE",
    "category": "POMPY PLUS INSTALACJE",
    "formatted_address": "4,7(91)",
    "phone_number": "+48784931522",
    "source_url": "https://www.google.com/maps/place/POMPY+PLUS+INSTALACJE/data=!4m7!3m6!1s0x47046cc44a982225:0x7fb45b93572f91f8!8m2!3d52.6520497!4d16.8193102!16s%2Fg%2F1tdb_bml!19sChIJJSKYSsRsBEcR-JEvV5NbtH8?authuser=0&hl=tr&rclk=1",
    "website_url": "",
    "rating_text": "4,7",
    "stars": null,
    "number_of_reviews": null,
    "price_level": "",
    "open_hours": "",
    "extraction_timestamp": "2025-06-07T17:50:11.733Z",
    "source_name": "google",
    "source_query": "Irrigation Equipment",
    "source_country": "PL",
    "country": "Poland",
    "state": "Greater Poland Voivodeship",
    "city": "Powiat obornicki"
  },
  {
    "source_id": "ChIJ6ZwxDIlBBEcRQdkgYydfEhg",
    "name": "BZW Bruk Zieleń Woda - Dominik Rzepczyński",
    "category": "BZW Bruk Zieleń Woda - Dominik Rzepczyński",
    "formatted_address": "5,0(2)",
    "phone_number": "+48880670990",
    "source_url": "https://www.google.com/maps/place/BZW+Bruk+Ziele%C5%84+Woda+-+Dominik+Rzepczy%C5%84ski/data=!4m7!3m6!1s0x470441890c319ce9:0x18125f276320d941!8m2!3d52.5119822!4d16.7499267!16s%2Fg%2F11mcx3nslq!19sChIJ6ZwxDIlBBEcRQdkgYydfEhg?authuser=0&hl=tr&rclk=1",
    "website_url": "",
    "rating_text": "5,0",
    "stars": null,
    "number_of_reviews": null,
    "price_level": "",
    "open_hours": "",
    "extraction_timestamp": "2025-06-07T17:50:11.734Z",
    "source_name": "google",
    "source_query": "Irrigation Equipment",
    "source_country": "PL",
    "country": "Poland",
    "state": "Greater Poland Voivodeship",
    "city": "Powiat obornicki"
  },
  {
    "source_id": "ChIJXbGhVtxvBEcRWiehOaf5NoU",
    "name": "Brumar-hydro",
    "category": "Brumar-hydro",
    "formatted_address": "5,0(1)",
    "phone_number": "+48501796989",
    "source_url": "https://www.google.com/maps/place/Brumar-hydro/data=!4m7!3m6!1s0x47046fdc56a1b15d:0x8536f9a739a1275a!8m2!3d52.7476898!4d17.1610964!16s%2Fg%2F11lz1q4t91!19sChIJXbGhVtxvBEcRWiehOaf5NoU?authuser=0&hl=tr&rclk=1",
    "website_url": "",
    "rating_text": "5,0",
    "stars": null,
    "number_of_reviews": null,
    "price_level": "",
    "open_hours": "",
    "extraction_timestamp": "2025-06-07T17:50:11.735Z",
    "source_name": "google",
    "source_query": "Irrigation Equipment",
    "source_country": "PL",
    "country": "Poland",
    "state": "Greater Poland Voivodeship",
    "city": "Powiat obornicki"
  },
  {
    "source_id": "ChIJr5izrt9sBEcRnXR3tr8F9pg",
    "name": "ProZAD - baseny, zadaszenia i przykrycia basenowe, wanny SPA",
    "category": "ProZAD - baseny, zadaszenia i przykrycia basenowe, wanny SPA",
    "formatted_address": "ProZAD - baseny, zadaszenia i przykrycia basenowe, wanny SPA",
    "phone_number": "+48511052212",
    "source_url": "https://www.google.com/maps/place/ProZAD+-+baseny,+zadaszenia+i+przykrycia+basenowe,+wanny+SPA/data=!4m7!3m6!1s0x47046cdfaeb398af:0x98f605bfb677749d!8m2!3d52.6605483!4d16.8328332!16s%2Fg%2F11h01x8_w8!19sChIJr5izrt9sBEcRnXR3tr8F9pg?authuser=0&hl=tr&rclk=1",
    "website_url": "http://pro-zad.com/",
    "rating_text": "5,0",
    "stars": null,
    "number_of_reviews": null,
    "price_level": "",
    "open_hours": "",
    "extraction_timestamp": "2025-06-07T17:50:11.736Z",
    "source_name": "google",
    "source_query": "Irrigation Equipment",
    "source_country": "PL",
    "country": "Poland",
    "state": "Greater Poland Voivodeship",
    "city": "Powiat obornicki"
  },
  {
    "source_id": "ChIJtYeyvN1zBEcR6noD_r1poQs",
    "name": "FAKT Armatura",
    "category": "FAKT Armatura",
    "formatted_address": "4,8(43)",
    "phone_number": "+48672617371",
    "source_url": "https://www.google.com/maps/place/FAKT+Armatura/data=!4m7!3m6!1s0x470473ddbcb287b5:0xba169bdfe037aea!8m2!3d52.751154!4d16.982685!16s%2Fg%2F1tmxpq97!19sChIJtYeyvN1zBEcR6noD_r1poQs?authuser=0&hl=tr&rclk=1",
    "website_url": "http://www.mclan.pl/",
    "rating_text": "4,8",
    "stars": null,
    "number_of_reviews": null,
    "price_level": "",
    "open_hours": "",
    "extraction_timestamp": "2025-06-07T17:50:11.737Z",
    "source_name": "google",
    "source_query": "Irrigation Equipment",
    "source_country": "PL",
    "country": "Poland",
    "state": "Greater Poland Voivodeship",
    "city": "Powiat obornicki"
  },
  {
    "source_id": "ChIJSzzEtTRBBEcRSs_tkkc5-9E",
    "name": "Farm - Fertilizers and Irrigation",
    "category": "Farm - Fertilizers and Irrigation",
    "formatted_address": "4,7(128)",
    "phone_number": "+48600424533",
    "source_url": "https://www.google.com/maps/place/Farm+-+Fertilizers+and+Irrigation/data=!4m7!3m6!1s0x47044134b5c43c4b:0xd1fb394792edcf4a!8m2!3d52.454788!4d16.768546!16s%2Fg%2F1w4vhmkd!19sChIJSzzEtTRBBEcRSs_tkkc5-9E?authuser=0&hl=tr&rclk=1",
    "website_url": "http://www.farma-malecki.pl/",
    "rating_text": "4,7",
    "stars": null,
    "number_of_reviews": null,
    "price_level": "",
    "open_hours": "",
    "extraction_timestamp": "2025-06-07T17:50:11.738Z",
    "source_name": "google",
    "source_query": "Irrigation Equipment",
    "source_country": "PL",
    "country": "Poland",
    "state": "Greater Poland Voivodeship",
    "city": "Powiat obornicki"
  },
  {
    "source_id": "ChIJVVb0ipUTBEcRk5bn6mHCIpE",
    "name": "Filtry do wody, stacje zmiękczające MW Serwis",
    "category": "Filtry do wody, stacje zmiękczające MW Serwis",
    "formatted_address": "Filtry do wody, stacje zmiękczające MW Serwis",
    "phone_number": "+48660448769",
    "source_url": "https://www.google.com/maps/place/Filtry+do+wody,+stacje+zmi%C4%99kczaj%C4%85ce+MW+Serwis/data=!4m7!3m6!1s0x470413958af45655:0x9122c261eae79693!8m2!3d52.6538028!4d16.7942426!16s%2Fg%2F11h6cxs9jh!19sChIJVVb0ipUTBEcRk5bn6mHCIpE?authuser=0&hl=tr&rclk=1",
    "website_url": "http://www.mw-serwis.pl/",
    "rating_text": "5,0",
    "stars": null,
    "number_of_reviews": null,
    "price_level": "",
    "open_hours": "",
    "extraction_timestamp": "2025-06-07T17:50:11.739Z",
    "source_name": "google",
    "source_query": "Irrigation Equipment",
    "source_country": "PL",
    "country": "Poland",
    "state": "Greater Poland Voivodeship",
    "city": "Powiat obornicki"
  },
  {
    "source_id": "ChIJK7WQ-W9xBEcRm-6B5jDtkGo",
    "name": "Agrogama F.H.P.U.Kuźma i Keli Sp.Jawna Narzędzia, elektronarzędzia, śruby",
    "category": "Agrogama F.H.P.U.Kuźma i Keli Sp.Jawna Narzędzia, elektronarzędzia, śruby",
    "formatted_address": "Agrogama F.H.P.U.Kuźma i Keli Sp.Jawna Narzędzia, elektronarzędzia, śruby",
    "phone_number": "+48672619808",
    "source_url": "https://www.google.com/maps/place/Agrogama+F.H.P.U.Ku%C5%BAma+i+Keli+Sp.Jawna+Narz%C4%99dzia,+elektronarz%C4%99dzia,+%C5%9Bruby/data=!4m7!3m6!1s0x4704716ff990b52b:0x6a90ed30e681ee9b!8m2!3d52.7416256!4d17.0050633!16s%2Fg%2F1tdzdpwn!19sChIJK7WQ-W9xBEcRm-6B5jDtkGo?authuser=0&hl=tr&rclk=1",
    "website_url": "https://agrogamasj.eu/",
    "rating_text": "4,5",
    "stars": null,
    "number_of_reviews": null,
    "price_level": "",
    "open_hours": "",
    "extraction_timestamp": "2025-06-07T17:50:11.740Z",
    "source_name": "google",
    "source_query": "Irrigation Equipment",
    "source_country": "PL",
    "country": "Poland",
    "state": "Greater Poland Voivodeship",
    "city": "Powiat obornicki"
  },
  {
    "source_id": "ChIJOyZNm-NqBEcR1yeK8rUP9dQ",
    "name": "Jusik Instalacje",
    "category": "Jusik Instalacje",
    "formatted_address": "5,0(74)",
    "phone_number": "+48724704777",
    "source_url": "https://www.google.com/maps/place/Jusik+Instalacje/data=!4m7!3m6!1s0x47046ae39b4d263b:0xd4f50fb5f28a27d7!8m2!3d52.577048!4d16.7972821!16s%2Fg%2F11b7y9f4g7!19sChIJOyZNm-NqBEcR1yeK8rUP9dQ?authuser=0&hl=tr&rclk=1",
    "website_url": "https://jusik.pl/",
    "rating_text": "5,0",
    "stars": null,
    "number_of_reviews": null,
    "price_level": "",
    "open_hours": "",
    "extraction_timestamp": "2025-06-07T17:50:11.741Z",
    "source_name": "google",
    "source_query": "Irrigation Equipment",
    "source_country": "PL",
    "country": "Poland",
    "state": "Greater Poland Voivodeship",
    "city": "Powiat obornicki"
  },
  {
    "source_id": "ChIJmSZ9D7ZsBEcRHnfQfyYHq3U",
    "name": "PSB Rajbud Bednarz",
    "category": "PSB Rajbud Bednarz",
    "formatted_address": "4,4(287)",
    "phone_number": "+48612974030",
    "source_url": "https://www.google.com/maps/place/PSB+Rajbud+Bednarz/data=!4m7!3m6!1s0x47046cb60f7d2699:0x75ab07267fd0771e!8m2!3d52.6460059!4d16.8048721!16s%2Fg%2F1tk6tmb0!19sChIJmSZ9D7ZsBEcRHnfQfyYHq3U?authuser=0&hl=tr&rclk=1",
    "website_url": "http://www.rajbud.biz/",
    "rating_text": "4,4",
    "stars": null,
    "number_of_reviews": null,
    "price_level": "",
    "open_hours": "",
    "extraction_timestamp": "2025-06-07T17:50:11.742Z",
    "source_name": "google",
    "source_query": "Irrigation Equipment",
    "source_country": "PL",
    "country": "Poland",
    "state": "Greater Poland Voivodeship",
    "city": "Powiat obornicki"
  },
  {
    "source_id": "ChIJK9kfbTh4BEcRM3svr3T5R7k",
    "name": "AGROHOSE PRZEWODY HYDRAULICZNE",
    "category": "AGROHOSE PRZEWODY HYDRAULICZNE",
    "formatted_address": "5,0(25)",
    "phone_number": "+48607719861",
    "source_url": "https://www.google.com/maps/place/AGROHOSE+PRZEWODY+HYDRAULICZNE/data=!4m7!3m6!1s0x470478386d1fd92b:0xb947f974af2f7b33!8m2!3d52.800697!4d17.190384!16s%2Fg%2F1ptxrm4wp!19sChIJK9kfbTh4BEcRM3svr3T5R7k?authuser=0&hl=tr&rclk=1",
    "website_url": "http://www.agrohose.pl/",
    "rating_text": "5,0",
    "stars": null,
    "number_of_reviews": null,
    "price_level": "",
    "open_hours": "",
    "extraction_timestamp": "2025-06-07T17:50:11.743Z",
    "source_name": "google",
    "source_query": "Irrigation Equipment",
    "source_country": "PL",
    "country": "Poland",
    "state": "Greater Poland Voivodeship",
    "city": "Powiat obornicki"
  },
  {
    "source_id": "ChIJBZ0hyuBzBEcROJaXC8w3x4A",
    "name": "SANET Sławomir Ruks",
    "category": "SANET Sławomir Ruks",
    "formatted_address": "4,7(26)",
    "phone_number": "+48672619004",
    "source_url": "https://www.google.com/maps/place/SANET+S%C5%82awomir+Ruks/data=!4m7!3m6!1s0x470473e0ca219d05:0x80c737cc0b979638!8m2!3d52.753356!4d16.9884381!16s%2Fg%2F1tdhkjml!19sChIJBZ0hyuBzBEcROJaXC8w3x4A?authuser=0&hl=tr&rclk=1",
    "website_url": "http://sanet.net.pl/",
    "rating_text": "4,7",
    "stars": null,
    "number_of_reviews": null,
    "price_level": "",
    "open_hours": "",
    "extraction_timestamp": "2025-06-07T17:50:11.744Z",
    "source_name": "google",
    "source_query": "Irrigation Equipment",
    "source_country": "PL",
    "country": "Poland",
    "state": "Greater Poland Voivodeship",
    "city": "Powiat obornicki"
  },
  {
    "source_id": "ChIJQaeRo8RtBEcRQJRsNuDzVNE",
    "name": "Usługi Remontowo-Budowlane Aleksander Szeliga",
    "category": "Usługi Remontowo-Budowlane Aleksander Szeliga",
    "formatted_address": "4,2(5)",
    "phone_number": "+48727932480",
    "source_url": "https://www.google.com/maps/place/Us%C5%82ugi+Remontowo-Budowlane+Aleksander+Szeliga/data=!4m7!3m6!1s0x47046dc4a391a741:0xd154f3e0366c9440!8m2!3d52.6576077!4d16.8257604!16s%2Fg%2F11tg9nmyp3!19sChIJQaeRo8RtBEcRQJRsNuDzVNE?authuser=0&hl=tr&rclk=1",
    "website_url": "http://remonty-szeliga.com/",
    "rating_text": "4,2",
    "stars": null,
    "number_of_reviews": null,
    "price_level": "",
    "open_hours": "",
    "extraction_timestamp": "2025-06-07T17:50:11.745Z",
    "source_name": "google",
    "source_query": "Irrigation Equipment",
    "source_country": "PL",
    "country": "Poland",
    "state": "Greater Poland Voivodeship",
    "city": "Powiat obornicki"
  },
  {
    "source_id": "ChIJWey5mawTBEcRcMEvoX5ilTU",
    "name": "P.W. DOMSI Dominik Człapa",
    "category": "P.W. DOMSI Dominik Człapa",
    "formatted_address": "5,0(4)",
    "phone_number": "+48607453283",
    "source_url": "https://www.google.com/maps/place/P.W.+DOMSI+Dominik+Cz%C5%82apa/data=!4m7!3m6!1s0x470413ac99b9ec59:0x3595627ea12fc170!8m2!3d52.6508707!4d16.7918628!16s%2Fg%2F11ptylb4bh!19sChIJWey5mawTBEcRcMEvoX5ilTU?authuser=0&hl=tr&rclk=1",
    "website_url": "http://dc-instalacje.com/",
    "rating_text": "5,0",
    "stars": null,
    "number_of_reviews": null,
    "price_level": "",
    "open_hours": "",
    "extraction_timestamp": "2025-06-07T17:50:11.746Z",
    "source_name": "google",
    "source_query": "Irrigation Equipment",
    "source_country": "PL",
    "country": "Poland",
    "state": "Greater Poland Voivodeship",
    "city": "Powiat obornicki"
  },
  {
    "source_id": "ChIJGaOMcTUTBEcRLgKFaX3MLg4",
    "name": "Hydro-Service, Autoryzowany Instalator Junkers-Bosch",
    "category": "Hydro-Service, Autoryzowany Instalator Junkers-Bosch",
    "formatted_address": "Hydro-Service, Autoryzowany Instalator Junkers-Bosch",
    "phone_number": "+48602510787",
    "source_url": "https://www.google.com/maps/place/Hydro-Service,+Autoryzowany+Instalator+Junkers-Bosch/data=!4m7!3m6!1s0x47041335718ca319:0xe2ecc7d6985022e!8m2!3d52.6494287!4d16.7945866!16s%2Fg%2F11g_87164!19sChIJGaOMcTUTBEcRLgKFaX3MLg4?authuser=0&hl=tr&rclk=1",
    "website_url": "",
    "rating_text": "4,0",
    "stars": null,
    "number_of_reviews": null,
    "price_level": "",
    "open_hours": "",
    "extraction_timestamp": "2025-06-07T17:50:11.747Z",
    "source_name": "google",
    "source_query": "Irrigation Equipment",
    "source_country": "PL",
    "country": "Poland",
    "state": "Greater Poland Voivodeship",
    "city": "Powiat obornicki"
  },
  {
    "source_id": "ChIJCQyhfwhDBEcRZWKVa9QMG9A",
    "name": "Wa-Tech Spare parts for construction equipment - SERVICE",
    "category": "Wa-Tech Spare parts for construction equipment - SERVICE",
    "formatted_address": "4,5(88)",
    "phone_number": "+48663172124",
    "source_url": "https://www.google.com/maps/place/Wa-Tech+Spare+parts+for+construction+equipment+-+SERVICE/data=!4m7!3m6!1s0x470443087fa10c09:0xd01b0cd46b956265!8m2!3d52.4685583!4d16.8880679!16s%2Fg%2F1tdpqc52!19sChIJCQyhfwhDBEcRZWKVa9QMG9A?authuser=0&hl=tr&rclk=1",
    "website_url": "https://barracuda.sklep.pl/",
    "rating_text": "4,5",
    "stars": null,
    "number_of_reviews": null,
    "price_level": "",
    "open_hours": "",
    "extraction_timestamp": "2025-06-07T17:50:11.748Z",
    "source_name": "google",
    "source_query": "Irrigation Equipment",
    "source_country": "PL",
    "country": "Poland",
    "state": "Greater Poland Voivodeship",
    "city": "Powiat obornicki"
  },
  {
    "source_id": "ChIJ8Qn7EJRtBEcRNK7akagvqTk",
    "name": "TOŚ - INSTAL Łukasz Bączyk",
    "category": "TOŚ - INSTAL Łukasz Bączyk",
    "formatted_address": "5,0(2)",
    "phone_number": "+48793375112",
    "source_url": "https://www.google.com/maps/place/TO%C5%9A+-+INSTAL+%C5%81ukasz+B%C4%85czyk/data=!4m7!3m6!1s0x47046d9410fb09f1:0x39a92fa891daae34!8m2!3d52.6474986!4d16.809587!16s%2Fg%2F11p01kpql1!19sChIJ8Qn7EJRtBEcRNK7akagvqTk?authuser=0&hl=tr&rclk=1",
    "website_url": "",
    "rating_text": "5,0",
    "stars": null,
    "number_of_reviews": null,
    "price_level": "",
    "open_hours": "",
    "extraction_timestamp": "2025-06-07T17:50:11.749Z",
    "source_name": "google",
    "source_query": "Irrigation Equipment",
    "source_country": "PL",
    "country": "Poland",
    "state": "Greater Poland Voivodeship",
    "city": "Powiat obornicki"
  },
  {
    "source_id": "ChIJwxC1X09EBEcRLzaLJfk4rD8",
    "name": "OASE - Oczko Wodne Polski Autoryzowany Sklep internetowy Złoty Przedstawiciel Nawadnianie Podlewanie Hunter, Raibird,Rossi",
    "category": "OASE - Oczko Wodne Polski Autoryzowany Sklep internetowy Złoty Przedstawiciel Nawadnianie Podlewanie Hunter, Raibird,Rossi",
    "formatted_address": "OASE - Oczko Wodne Polski Autoryzowany Sklep internetowy Złoty Przedstawiciel Nawadnianie Podlewanie Hunter, Raibird,Rossi",
    "phone_number": "+48618842498",
    "source_url": "https://www.google.com/maps/place/OASE+-+Oczko+Wodne+Polski+Autoryzowany+Sklep+internetowy+Z%C5%82oty+Przedstawiciel+Nawadnianie+Podlewanie+Hunter,+Raibird,Rossi/data=!4m7!3m6!1s0x4704444f5fb510c3:0x3fac38f9258b362f!8m2!3d52.4364533!4d16.8327227!16s%2Fg%2F1hc96cvd0!19sChIJwxC1X09EBEcRLzaLJfk4rD8?authuser=0&hl=tr&rclk=1",
    "website_url": "",
    "rating_text": "4,6",
    "stars": null,
    "number_of_reviews": null,
    "price_level": "",
    "open_hours": "",
    "extraction_timestamp": "2025-06-07T17:50:11.749Z",
    "source_name": "google",
    "source_query": "Irrigation Equipment",
    "source_country": "PL",
    "country": "Poland",
    "state": "Greater Poland Voivodeship",
    "city": "Powiat obornicki"
  },
  {
    "source_id": "ChIJ5WfwgscOBEcRgW3EF2RROUI",
    "name": "GRENE",
    "category": "GRENE",
    "formatted_address": "4,7(32)",
    "phone_number": "+48510097561",
    "source_url": "https://www.google.com/maps/place/GRENE/data=!4m7!3m6!1s0x47040ec782f067e5:0x4239516417c46d81!8m2!3d52.8027312!4d16.7168381!16s%2Fg%2F11bzrkv48g!19sChIJ5WfwgscOBEcRgW3EF2RROUI?authuser=0&hl=tr&rclk=1",
    "website_url": "http://www.grene.pl/",
    "rating_text": "4,7",
    "stars": null,
    "number_of_reviews": null,
    "price_level": "",
    "open_hours": "",
    "extraction_timestamp": "2025-06-07T17:50:11.750Z",
    "source_name": "google",
    "source_query": "Irrigation Equipment",
    "source_country": "PL",
    "country": "Poland",
    "state": "Greater Poland Voivodeship",
    "city": "Powiat obornicki"
  },
  {
    "source_id": "ChIJQYZYU_daBEcRrc4mt6dBBko",
    "name": "HYDROGLOBAL - Przemyślane rozwiązania dla ujęć wody",
    "category": "HYDROGLOBAL - Przemyślane rozwiązania dla ujęć wody",
    "formatted_address": "4,5(8)",
    "phone_number": "+48612785475",
    "source_url": "https://www.google.com/maps/place/HYDROGLOBAL+-+Przemy%C5%9Blane+rozwi%C4%85zania+dla+uj%C4%99%C4%87+wody/data=!4m7!3m6!1s0x47045af753588641:0x4a0641a7b726cead!8m2!3d52.4872791!4d16.8563292!16s%2Fg%2F1wzt11_h!19sChIJQYZYU_daBEcRrc4mt6dBBko?authuser=0&hl=tr&rclk=1",
    "website_url": "http://www.hydroglobal.com/",
    "rating_text": "4,5",
    "stars": null,
    "number_of_reviews": null,
    "price_level": "",
    "open_hours": "",
    "extraction_timestamp": "2025-06-07T17:50:11.751Z",
    "source_name": "google",
    "source_query": "Irrigation Equipment",
    "source_country": "PL",
    "country": "Poland",
    "state": "Greater Poland Voivodeship",
    "city": "Powiat obornicki"
  },
  {
    "source_id": "ChIJE3Lz3bFXBEcRBgoAqS1zROk",
    "name": "Firma Handlowa \"Kram\" s.c. Iwona Krawczyk, Roman Krawczyk",
    "category": "Firma Handlowa \"Kram\" s.c. Iwona Krawczyk, Roman Krawczyk",
    "formatted_address": "Firma Handlowa \"Kram\" s.c. Iwona Krawczyk, Roman Krawczyk",
    "phone_number": "+48618171242",
    "source_url": "https://www.google.com/maps/place/Firma+Handlowa+%22Kram%22+s.c.+Iwona+Krawczyk,+Roman+Krawczyk/data=!4m7!3m6!1s0x470457b1ddf37213:0xe944732da9000a06!8m2!3d52.288937!4d17.046897!16s%2Fg%2F1tcw29hw!19sChIJE3Lz3bFXBEcRBgoAqS1zROk?authuser=0&hl=tr&rclk=1",
    "website_url": "http://fhkram.pl/",
    "rating_text": "4,6",
    "stars": null,
    "number_of_reviews": null,
    "price_level": "",
    "open_hours": "",
    "extraction_timestamp": "2025-06-07T17:50:11.752Z",
    "source_name": "google",
    "source_query": "Irrigation Equipment",
    "source_country": "PL",
    "country": "Poland",
    "state": "Greater Poland Voivodeship",
    "city": "Powiat obornicki"
  },
  {
    "source_id": "ChIJZ01zsslEBEcRe_YJp9GTrow",
    "name": "Plewa Marcin. Sanitary installations",
    "category": "Plewa Marcin. Sanitary installations",
    "formatted_address": "4,7(92)",
    "phone_number": "+48730359564",
    "source_url": "https://www.google.com/maps/place/Plewa+Marcin.+Sanitary+installations/data=!4m7!3m6!1s0x470444c9b2734d67:0x8cae93d1a709f67b!8m2!3d52.4264503!4d16.8610092!16s%2Fg%2F1thq8kcf!19sChIJZ01zsslEBEcRe_YJp9GTrow?authuser=0&hl=tr&rclk=1",
    "website_url": "http://www.plewainstalacje.pl/",
    "rating_text": "4,7",
    "stars": null,
    "number_of_reviews": null,
    "price_level": "",
    "open_hours": "",
    "extraction_timestamp": "2025-06-07T17:50:11.752Z",
    "source_name": "google",
    "source_query": "Irrigation Equipment",
    "source_country": "PL",
    "country": "Poland",
    "state": "Greater Poland Voivodeship",
    "city": "Powiat obornicki"
  },
  {
    "source_id": "ChIJ4zc6v4hZBEcRKah1mzKBwPg",
    "name": "PHU \"ADVISER\" - Systemy nawadniania",
    "category": "PHU \"ADVISER\" - Systemy nawadniania",
    "formatted_address": "4,8(123)",
    "phone_number": "+48618798700",
    "source_url": "https://www.google.com/maps/place/PHU+%22ADVISER%22+-+Systemy+nawadniania/data=!4m7!3m6!1s0x47045988bf3a37e3:0xf8c081329b75a829!8m2!3d52.3434333!4d17.0287055!16s%2Fg%2F1w3459w5!19sChIJ4zc6v4hZBEcRKah1mzKBwPg?authuser=0&hl=tr&rclk=1",
    "website_url": "http://www.phu-adviser.pl/",
    "rating_text": "4,8",
    "stars": null,
    "number_of_reviews": null,
    "price_level": "",
    "open_hours": "",
    "extraction_timestamp": "2025-06-07T17:50:11.753Z",
    "source_name": "google",
    "source_query": "Irrigation Equipment",
    "source_country": "PL",
    "country": "Poland",
    "state": "Greater Poland Voivodeship",
    "city": "Powiat obornicki"
  },
  {
    "source_id": "ChIJQ1ohPQ8XBEcRWBg-baAh3OU",
    "name": "Hydromar",
    "category": "Hydromar",
    "formatted_address": "4,2(19)",
    "phone_number": "+48612921984",
    "source_url": "https://www.google.com/maps/place/Hydromar/data=!4m7!3m6!1s0x4704170f3d215a43:0xe5dc21a06d3e1858!8m2!3d52.620958!4d16.5665889!16s%2Fg%2F1tp06t6y!19sChIJQ1ohPQ8XBEcRWBg-baAh3OU?authuser=0&hl=tr&rclk=1",
    "website_url": "https://www.hydromar.pl/",
    "rating_text": "4,2",
    "stars": null,
    "number_of_reviews": null,
    "price_level": "",
    "open_hours": "",
    "extraction_timestamp": "2025-06-07T17:50:11.754Z",
    "source_name": "google",
    "source_query": "Irrigation Equipment",
    "source_country": "PL",
    "country": "Poland",
    "state": "Greater Poland Voivodeship",
    "city": "Powiat obornicki"
  },
  {
    "source_id": "ChIJGQW86nR5BEcRQ5T2nktRkZM",
    "name": "Hydro-term Technika Grzewcza i Sanitarna Bartosz Markiel",
    "category": "Hydro-term Technika Grzewcza i Sanitarna Bartosz Markiel",
    "formatted_address": "4,5(16)",
    "phone_number": "",
    "source_url": "https://www.google.com/maps/place/Hydro-term+Technika+Grzewcza+i+Sanitarna+Bartosz+Markiel/data=!4m7!3m6!1s0x47047974eabc0519:0x9391514b9ef69443!8m2!3d52.814759!4d17.2176056!16s%2Fg%2F11k6xrc6g1!19sChIJGQW86nR5BEcRQ5T2nktRkZM?authuser=0&hl=tr&rclk=1",
    "website_url": "",
    "rating_text": "4,5",
    "stars": null,
    "number_of_reviews": null,
    "price_level": "",
    "open_hours": "",
    "extraction_timestamp": "2025-06-07T17:50:11.755Z",
    "source_name": "google",
    "source_query": "Irrigation Equipment",
    "source_country": "PL",
    "country": "Poland",
    "state": "Greater Poland Voivodeship",
    "city": "Powiat obornicki"
  },
  {
    "source_id": "ChIJ-ftLg7EXBEcRJrnqe3P14Hc",
    "name": "Stylowy Ogrodnik. Usługi ogrodnicze. Systemy nawadniające",
    "category": "Stylowy Ogrodnik. Usługi ogrodnicze. Systemy nawadniające",
    "formatted_address": "5,0(16)",
    "phone_number": "+48792772881",
    "source_url": "https://www.google.com/maps/place/Stylowy+Ogrodnik.+Us%C5%82ugi+ogrodnicze.+Systemy+nawadniaj%C4%85ce/data=!4m7!3m6!1s0x470417b1834bfbf9:0x77e0f5737beab926!8m2!3d52.5973027!4d16.6115318!16s%2Fg%2F11h0_9y4dl!19sChIJ-ftLg7EXBEcRJrnqe3P14Hc?authuser=0&hl=tr&rclk=1",
    "website_url": "https://stylowyogrodnik.pl/",
    "rating_text": "5,0",
    "stars": null,
    "number_of_reviews": null,
    "price_level": "",
    "open_hours": "",
    "extraction_timestamp": "2025-06-07T17:50:11.755Z",
    "source_name": "google",
    "source_query": "Irrigation Equipment",
    "source_country": "PL",
    "country": "Poland",
    "state": "Greater Poland Voivodeship",
    "city": "Powiat obornicki"
  },
  {
    "source_id": "ChIJtWcFLp3pBEcRLsKDqolJIng",
    "name": "TEST INSTALACJE – Hurtownia instalacyjna Września",
    "category": "TEST INSTALACJE – Hurtownia instalacyjna Września",
    "formatted_address": "4,7(33)",
    "phone_number": "+48616394733",
    "source_url": "https://www.google.com/maps/place/TEST+INSTALACJE+%E2%80%93+Hurtownia+instalacyjna+Wrze%C5%9Bnia/data=!4m7!3m6!1s0x4704e99d2e0567b5:0x78224989aa83c22e!8m2!3d52.3216706!4d17.5802512!16s%2Fg%2F11c50569y3!19sChIJtWcFLp3pBEcRLsKDqolJIng?authuser=0&hl=tr&rclk=1",
    "website_url": "https://testinstalacje.pl/",
    "rating_text": "4,7",
    "stars": null,
    "number_of_reviews": null,
    "price_level": "",
    "open_hours": "",
    "extraction_timestamp": "2025-06-07T17:50:11.756Z",
    "source_name": "google",
    "source_query": "Irrigation Equipment",
    "source_country": "PL",
    "country": "Poland",
    "state": "Greater Poland Voivodeship",
    "city": "Powiat obornicki"
  },
  {
    "source_id": "ChIJbz65xq-iBEcR6_DsQT9o3Z8",
    "name": "GRENE",
    "category": "GRENE",
    "formatted_address": "4,6(37)",
    "phone_number": "+48502898750",
    "source_url": "https://www.google.com/maps/place/GRENE/data=!4m7!3m6!1s0x4704a2afc6b93e6f:0x9fdd683f41ecf0eb!8m2!3d52.5695327!4d17.8220716!16s%2Fg%2F11c2nc5jw6!19sChIJbz65xq-iBEcR6_DsQT9o3Z8?authuser=0&hl=tr&rclk=1",
    "website_url": "http://www.grene.pl/",
    "rating_text": "4,6",
    "stars": null,
    "number_of_reviews": null,
    "price_level": "",
    "open_hours": "",
    "extraction_timestamp": "2025-06-07T17:50:11.757Z",
    "source_name": "google",
    "source_query": "Irrigation Equipment",
    "source_country": "PL",
    "country": "Poland",
    "state": "Greater Poland Voivodeship",
    "city": "Powiat obornicki"
  },
  {
    "source_id": "ChIJF0FzqaehBEcRWgD6MXB_CBA",
    "name": "SM-AGRO Powered by Kramp",
    "category": "SM-AGRO Powered by Kramp",
    "formatted_address": "4,8(44)",
    "phone_number": "+48523152254",
    "source_url": "https://www.google.com/maps/place/SM-AGRO+Powered+by+Kramp/data=!4m7!3m6!1s0x4704a1a7a9734117:0x10087f7031fa005a!8m2!3d52.6612299!4d17.9327416!16s%2Fg%2F1vrq8bnz!19sChIJF0FzqaehBEcRWgD6MXB_CBA?authuser=0&hl=tr&rclk=1",
    "website_url": "http://www.grene.pl/",
    "rating_text": "4,8",
    "stars": null,
    "number_of_reviews": null,
    "price_level": "",
    "open_hours": "",
    "extraction_timestamp": "2025-06-07T17:50:11.774Z",
    "source_name": "google",
    "source_query": "Irrigation Equipment",
    "source_country": "PL",
    "country": "Poland",
    "state": "Greater Poland Voivodeship",
    "city": "Powiat obornicki"
  },
  {
    "source_id": "ChIJq3ZuChspzY0RlAcbMNY5mRg",
    "name": "PODLEWAMY24.pl",
    "category": "PODLEWAMY24.pl",
    "formatted_address": "5,0(43)",
    "phone_number": "+48509215271",
    "source_url": "https://www.google.com/maps/place/PODLEWAMY24.pl/data=!4m7!3m6!1s0x8dcd291b0a6e76ab:0x189939d6301b0794!8m2!3d52.2778206!4d16.9790131!16s%2Fg%2F11rhfnnqkx!19sChIJq3ZuChspzY0RlAcbMNY5mRg?authuser=0&hl=tr&rclk=1",
    "website_url": "http://www.podlewamy24.pl/",
    "rating_text": "5,0",
    "stars": null,
    "number_of_reviews": null,
    "price_level": "",
    "open_hours": "",
    "extraction_timestamp": "2025-06-07T17:50:11.775Z",
    "source_name": "google",
    "source_query": "Irrigation Equipment",
    "source_country": "PL",
    "country": "Poland",
    "state": "Greater Poland Voivodeship",
    "city": "Powiat obornicki"
  }
]
