[
  {
    "source_id": "ChIJPeA6IIe1GkcRs7lqCjrhbjU",
    "name": "Power Group sp. z.o.o.",
    "category": "Power Group sp. z.o.o.",
    "formatted_address": "5,0(7)",
    "phone_number": "+48577499971",
    "source_url": "https://www.google.com/maps/place/Power+Group+sp.+z.o.o./data=!4m7!3m6!1s0x471ab587203ae03d:0x356ee13a0a6ab9b3!8m2!3d51.6586178!4d17.7934743!16s%2Fg%2F11v70hqbw5!19sChIJPeA6IIe1GkcRs7lqCjrhbjU?authuser=0&hl=tr&rclk=1",
    "website_url": "",
    "rating_text": "5,0",
    "stars": null,
    "number_of_reviews": null,
    "price_level": "",
    "open_hours": "",
    "extraction_timestamp": "2025-06-07T17:39:48.797Z",
    "source_name": "google",
    "source_query": "Irrigation Equipment",
    "source_country": "PL",
    "country": "Poland",
    "state": "Greater Poland Voivodeship",
    "city": "Powiat ostrowski"
  },
  {
    "source_id": "ChIJK2GjZAe3GkcRtYCUwk9ASmE",
    "name": "Grofi - Systemy nawadniania do domu i ogrodu",
    "category": "Grofi - Systemy nawadniania do domu i ogrodu",
    "formatted_address": "4,8(16)",
    "phone_number": "+48575716244",
    "source_url": "https://www.google.com/maps/place/Grofi+-+Systemy+nawadniania+do+domu+i+ogrodu/data=!4m7!3m6!1s0x471ab70764a3612b:0x614a404fc29480b5!8m2!3d51.612066!4d17.8638006!16s%2Fg%2F11y5_4bbdm!19sChIJK2GjZAe3GkcRtYCUwk9ASmE?authuser=0&hl=tr&rclk=1",
    "website_url": "",
    "rating_text": "4,8",
    "stars": null,
    "number_of_reviews": null,
    "price_level": "",
    "open_hours": "",
    "extraction_timestamp": "2025-06-07T17:39:48.798Z",
    "source_name": "google",
    "source_query": "Irrigation Equipment",
    "source_country": "PL",
    "country": "Poland",
    "state": "Greater Poland Voivodeship",
    "city": "Powiat ostrowski"
  },
  {
    "source_id": "ChIJv13aMo20GkcRuIJwITpZIug",
    "name": "ASHYDRO",
    "category": "ASHYDRO",
    "formatted_address": "5,0(5)",
    "phone_number": "+48508377657",
    "source_url": "https://www.google.com/maps/place/ASHYDRO/data=!4m7!3m6!1s0x471ab48d32da5dbf:0xe822593a217082b8!8m2!3d51.627431!4d17.762832!16s%2Fg%2F11b6_cnlmt!19sChIJv13aMo20GkcRuIJwITpZIug?authuser=0&hl=tr&rclk=1",
    "website_url": "",
    "rating_text": "5,0",
    "stars": null,
    "number_of_reviews": null,
    "price_level": "",
    "open_hours": "",
    "extraction_timestamp": "2025-06-07T17:39:48.800Z",
    "source_name": "google",
    "source_query": "Irrigation Equipment",
    "source_country": "PL",
    "country": "Poland",
    "state": "Greater Poland Voivodeship",
    "city": "Powiat ostrowski"
  },
  {
    "source_id": "ChIJv3VWorS1GkcR91vUXcnWjAo",
    "name": "Systemy pneumatyki. Sprężarki, kompresory, narzędzia",
    "category": "Systemy pneumatyki. Sprężarki, kompresory, narzędzia",
    "formatted_address": "Systemy pneumatyki. Sprężarki, kompresory, narzędzia",
    "phone_number": "+48625910444",
    "source_url": "https://www.google.com/maps/place/Systemy+pneumatyki.+Spr%C4%99%C5%BCarki,+kompresory,+narz%C4%99dzia/data=!4m7!3m6!1s0x471ab5b4a25675bf:0xa8cd6c95dd45bf7!8m2!3d51.6301252!4d17.8127133!16s%2Fg%2F1vm_wmyy!19sChIJv3VWorS1GkcR91vUXcnWjAo?authuser=0&hl=tr&rclk=1",
    "website_url": "",
    "rating_text": "4,1",
    "stars": null,
    "number_of_reviews": null,
    "price_level": "",
    "open_hours": "",
    "extraction_timestamp": "2025-06-07T17:39:48.802Z",
    "source_name": "google",
    "source_query": "Irrigation Equipment",
    "source_country": "PL",
    "country": "Poland",
    "state": "Greater Poland Voivodeship",
    "city": "Powiat ostrowski"
  },
  {
    "source_id": "ChIJodBz2Ku1GkcRpFFk9S5cnoQ",
    "name": "Producent Armatury LPG — GOK Regler und Armaturen Polska",
    "category": "Producent Armatury LPG — GOK Regler und Armaturen Polska",
    "formatted_address": "5,0(1)",
    "phone_number": "+48627358408",
    "source_url": "https://www.google.com/maps/place/Producent+Armatury+LPG+%E2%80%94+GOK+Regler+und+Armaturen+Polska/data=!4m7!3m6!1s0x471ab5abd873d0a1:0x849e5c2ef56451a4!8m2!3d51.6582233!4d17.7926164!16s%2Fg%2F11rfbk8grh!19sChIJodBz2Ku1GkcRpFFk9S5cnoQ?authuser=0&hl=tr&rclk=1",
    "website_url": "",
    "rating_text": "5,0",
    "stars": null,
    "number_of_reviews": null,
    "price_level": "",
    "open_hours": "",
    "extraction_timestamp": "2025-06-07T17:39:48.803Z",
    "source_name": "google",
    "source_query": "Irrigation Equipment",
    "source_country": "PL",
    "country": "Poland",
    "state": "Greater Poland Voivodeship",
    "city": "Powiat ostrowski"
  },
  {
    "source_id": "ChIJSYuOewW1GkcR_fJ7HyzyUZU",
    "name": "Du-San Technika Grzewcza i Sanitarna N. Dutkowska Sp.j.",
    "category": "Du-San Technika Grzewcza i Sanitarna N. Dutkowska Sp.j.",
    "formatted_address": "4,4(56)",
    "phone_number": "",
    "source_url": "https://www.google.com/maps/place/Du-San+Technika+Grzewcza+i+Sanitarna+N.+Dutkowska+Sp.j./data=!4m7!3m6!1s0x471ab5057b8e8b49:0x9551f22c1f7bf2fd!8m2!3d51.6566034!4d17.7824445!16s%2Fg%2F11h1j8dr7!19sChIJSYuOewW1GkcR_fJ7HyzyUZU?authuser=0&hl=tr&rclk=1",
    "website_url": "",
    "rating_text": "4,4",
    "stars": null,
    "number_of_reviews": null,
    "price_level": "",
    "open_hours": "",
    "extraction_timestamp": "2025-06-07T17:39:48.804Z",
    "source_name": "google",
    "source_query": "Irrigation Equipment",
    "source_country": "PL",
    "country": "Poland",
    "state": "Greater Poland Voivodeship",
    "city": "Powiat ostrowski"
  },
  {
    "source_id": "ChIJcR97xNAtBUcR__NeBCdOFjU",
    "name": "Słoneczny Doradca - pompy ciepła - usługi hydrauliczne - kotły c.o",
    "category": "Słoneczny Doradca - pompy ciepła - usługi hydrauliczne - kotły c.o",
    "formatted_address": "4,7(56)",
    "phone_number": "+48600600342",
    "source_url": "https://www.google.com/maps/place/S%C5%82oneczny+Doradca+-+pompy+ciep%C5%82a+-+us%C5%82ugi+hydrauliczne+-+kot%C5%82y+c.o/data=!4m7!3m6!1s0x47052dd0c47b1f71:0x35164e27045ef3ff!8m2!3d51.639729!4d17.7827231!16s%2Fg%2F11rscv369w!19sChIJcR97xNAtBUcR__NeBCdOFjU?authuser=0&hl=tr&rclk=1",
    "website_url": "",
    "rating_text": "4,7",
    "stars": null,
    "number_of_reviews": null,
    "price_level": "",
    "open_hours": "",
    "extraction_timestamp": "2025-06-07T17:39:48.805Z",
    "source_name": "google",
    "source_query": "Irrigation Equipment",
    "source_country": "PL",
    "country": "Poland",
    "state": "Greater Poland Voivodeship",
    "city": "Powiat ostrowski"
  },
  {
    "source_id": "ChIJd-CEXF1LBUcRiDVjaL9y16c",
    "name": "TRANS-BUD Piotr Szukalski - przydomowe oczyszczalnie ścieków, deszczówki, odwodnienia, drenaże",
    "category": "TRANS-BUD Piotr Szukalski - przydomowe oczyszczalnie ścieków, deszczówki, odwodnienia, drenaże",
    "formatted_address": "TRANS-BUD Piotr Szukalski - przydomowe oczyszczalnie ścieków, deszczówki, odwodnienia, drenaże",
    "phone_number": "+48726409035",
    "source_url": "https://www.google.com/maps/place/TRANS-BUD+Piotr+Szukalski+-+przydomowe+oczyszczalnie+%C5%9Bciek%C3%B3w,+deszcz%C3%B3wki,+odwodnienia,+drena%C5%BCe/data=!4m7!3m6!1s0x47054b5d5c84e077:0xa7d772bf68633588!8m2!3d51.6868285!4d17.7417392!16s%2Fg%2F11hdph3gt4!19sChIJd-CEXF1LBUcRiDVjaL9y16c?authuser=0&hl=tr&rclk=1",
    "website_url": "",
    "rating_text": "4,6",
    "stars": null,
    "number_of_reviews": null,
    "price_level": "",
    "open_hours": "",
    "extraction_timestamp": "2025-06-07T17:39:48.806Z",
    "source_name": "google",
    "source_query": "Irrigation Equipment",
    "source_country": "PL",
    "country": "Poland",
    "state": "Greater Poland Voivodeship",
    "city": "Powiat ostrowski"
  },
  {
    "source_id": "ChIJe4YPHdK1GkcRx7agDZMj4rs",
    "name": "Sanpol Ostrów Wlkp. - hurtownia instalacyjna, hydrauliczna, sanitarna",
    "category": "Sanpol Ostrów Wlkp. - hurtownia instalacyjna, hydrauliczna, sanitarna",
    "formatted_address": "Sanpol Ostrów Wlkp. - hurtownia instalacyjna, hydrauliczna, sanitarna",
    "phone_number": "+48627369631",
    "source_url": "https://www.google.com/maps/place/Sanpol+Ostr%C3%B3w+Wlkp.+-+hurtownia+instalacyjna,+hydrauliczna,+sanitarna/data=!4m7!3m6!1s0x471ab5d21d0f867b:0xbbe223930da0b6c7!8m2!3d51.6391299!4d17.8364589!16s%2Fg%2F11gzcvrzh!19sChIJe4YPHdK1GkcRx7agDZMj4rs?authuser=0&hl=tr&rclk=1",
    "website_url": "",
    "rating_text": "4,9",
    "stars": null,
    "number_of_reviews": null,
    "price_level": "",
    "open_hours": "",
    "extraction_timestamp": "2025-06-07T17:39:48.808Z",
    "source_name": "google",
    "source_query": "Irrigation Equipment",
    "source_country": "PL",
    "country": "Poland",
    "state": "Greater Poland Voivodeship",
    "city": "Powiat ostrowski"
  },
  {
    "source_id": "ChIJ4wkX5Wa0GkcRXbMzdSlZblY",
    "name": "Toro. Systemy automatycznego nawadniania trawników",
    "category": "Toro. Systemy automatycznego nawadniania trawników",
    "formatted_address": "5,0(1)",
    "phone_number": "+48503363519",
    "source_url": "https://www.google.com/maps/place/Toro.+Systemy+automatycznego+nawadniania+trawnik%C3%B3w/data=!4m7!3m6!1s0x471ab466e51709e3:0x566e59297533b35d!8m2!3d51.6210455!4d17.7829769!16s%2Fg%2F1w0hzc1t!19sChIJ4wkX5Wa0GkcRXbMzdSlZblY?authuser=0&hl=tr&rclk=1",
    "website_url": "",
    "rating_text": "5,0",
    "stars": null,
    "number_of_reviews": null,
    "price_level": "",
    "open_hours": "",
    "extraction_timestamp": "2025-06-07T17:39:48.809Z",
    "source_name": "google",
    "source_query": "Irrigation Equipment",
    "source_country": "PL",
    "country": "Poland",
    "state": "Greater Poland Voivodeship",
    "city": "Powiat ostrowski"
  },
  {
    "source_id": "ChIJJeAfcFq0GkcR9cJ4jnAvUTg",
    "name": "Wytwórnia zbiorników Powolny Andrzej",
    "category": "Wytwórnia zbiorników Powolny Andrzej",
    "formatted_address": "3,3(3)",
    "phone_number": "+48627351739",
    "source_url": "https://www.google.com/maps/place/Wytw%C3%B3rnia+zbiornik%C3%B3w+Powolny+Andrzej/data=!4m7!3m6!1s0x471ab45a701fe025:0x38512f708e78c2f5!8m2!3d51.6353283!4d17.7859147!16s%2Fg%2F1tk6z78p!19sChIJJeAfcFq0GkcR9cJ4jnAvUTg?authuser=0&hl=tr&rclk=1",
    "website_url": "",
    "rating_text": "3,3",
    "stars": null,
    "number_of_reviews": null,
    "price_level": "",
    "open_hours": "",
    "extraction_timestamp": "2025-06-07T17:39:48.810Z",
    "source_name": "google",
    "source_query": "Irrigation Equipment",
    "source_country": "PL",
    "country": "Poland",
    "state": "Greater Poland Voivodeship",
    "city": "Powiat ostrowski"
  },
  {
    "source_id": "ChIJSTBKD_K1GkcRKfreWQV6Tg0",
    "name": "SOLSTI - Odnawialne Źródła Energii",
    "category": "SOLSTI - Odnawialne Źródła Energii",
    "formatted_address": "5,0(33)",
    "phone_number": "+48798996827",
    "source_url": "https://www.google.com/maps/place/SOLSTI+-+Odnawialne+%C5%B9r%C3%B3d%C5%82a+Energii/data=!4m7!3m6!1s0x471ab5f20f4a3049:0xd4e7a0559defa29!8m2!3d51.6531187!4d17.8215543!16s%2Fg%2F11vbx5htq0!19sChIJSTBKD_K1GkcRKfreWQV6Tg0?authuser=0&hl=tr&rclk=1",
    "website_url": "",
    "rating_text": "5,0",
    "stars": null,
    "number_of_reviews": null,
    "price_level": "",
    "open_hours": "",
    "extraction_timestamp": "2025-06-07T17:39:48.811Z",
    "source_name": "google",
    "source_query": "Irrigation Equipment",
    "source_country": "PL",
    "country": "Poland",
    "state": "Greater Poland Voivodeship",
    "city": "Powiat ostrowski"
  },
  {
    "source_id": "ChIJh2YJ2KW1GkcRfwZvrKFobC8",
    "name": "Zakład Przemysłowych Systemów Automatyki",
    "category": "Zakład Przemysłowych Systemów Automatyki",
    "formatted_address": "4,4(10)",
    "phone_number": "+48627357961",
    "source_url": "https://www.google.com/maps/place/Zak%C5%82ad+Przemys%C5%82owych+System%C3%B3w+Automatyki/data=!4m7!3m6!1s0x471ab5a5d8096687:0x2f6c68a1ac6f067f!8m2!3d51.6558162!4d17.8026237!16s%2Fg%2F1tlbh9j9!19sChIJh2YJ2KW1GkcRfwZvrKFobC8?authuser=0&hl=tr&rclk=1",
    "website_url": "",
    "rating_text": "4,4",
    "stars": null,
    "number_of_reviews": null,
    "price_level": "",
    "open_hours": "",
    "extraction_timestamp": "2025-06-07T17:39:48.812Z",
    "source_name": "google",
    "source_query": "Irrigation Equipment",
    "source_country": "PL",
    "country": "Poland",
    "state": "Greater Poland Voivodeship",
    "city": "Powiat ostrowski"
  },
  {
    "source_id": "ChIJPRnudzS0GkcRnmghyPD_FbE",
    "name": "Servamet Serwa SKA",
    "category": "Servamet Serwa SKA",
    "formatted_address": "4,9(11)",
    "phone_number": "+48627361844",
    "source_url": "https://www.google.com/maps/place/Servamet+Serwa+SKA/data=!4m7!3m6!1s0x471ab43477ee193d:0xb115fff0c821689e!8m2!3d51.6366643!4d17.8223083!16s%2Fg%2F1vn_xqch!19sChIJPRnudzS0GkcRnmghyPD_FbE?authuser=0&hl=tr&rclk=1",
    "website_url": "",
    "rating_text": "4,9",
    "stars": null,
    "number_of_reviews": null,
    "price_level": "",
    "open_hours": "",
    "extraction_timestamp": "2025-06-07T17:39:48.813Z",
    "source_name": "google",
    "source_query": "Irrigation Equipment",
    "source_country": "PL",
    "country": "Poland",
    "state": "Greater Poland Voivodeship",
    "city": "Powiat ostrowski"
  },
  {
    "source_id": "ChIJ5ce-Fau1GkcRJ0T8Dkj90j4",
    "name": "Trzciński Waldemar. Instalacje wod-kan. c.o",
    "category": "Trzciński Waldemar. Instalacje wod-kan. c.o",
    "formatted_address": "5,0(21)",
    "phone_number": "+48505817550",
    "source_url": "https://www.google.com/maps/place/Trzci%C5%84ski+Waldemar.+Instalacje+wod-kan.+c.o/data=!4m7!3m6!1s0x471ab5ab15bec7e5:0x3ed2fd480efc4427!8m2!3d51.6463976!4d17.7901223!16s%2Fg%2F1wb8sf_v!19sChIJ5ce-Fau1GkcRJ0T8Dkj90j4?authuser=0&hl=tr&rclk=1",
    "website_url": "",
    "rating_text": "5,0",
    "stars": null,
    "number_of_reviews": null,
    "price_level": "",
    "open_hours": "",
    "extraction_timestamp": "2025-06-07T17:39:48.814Z",
    "source_name": "google",
    "source_query": "Irrigation Equipment",
    "source_country": "PL",
    "country": "Poland",
    "state": "Greater Poland Voivodeship",
    "city": "Powiat ostrowski"
  },
  {
    "source_id": "ChIJC2rmFsS1GkcRH5WQ21BhHoo",
    "name": "Rol-Gaz sp.j. Hurtownia materiałów i urządzeń spawalniczych",
    "category": "Rol-Gaz sp.j. Hurtownia materiałów i urządzeń spawalniczych",
    "formatted_address": "3,3(7)",
    "phone_number": "+48627364607",
    "source_url": "https://www.google.com/maps/place/Rol-Gaz+sp.j.+Hurtownia+materia%C5%82%C3%B3w+i+urz%C4%85dze%C5%84+spawalniczych/data=!4m7!3m6!1s0x471ab5c416e66a0b:0x8a1e6150db90951f!8m2!3d51.6533594!4d17.8357697!16s%2Fg%2F1w2yy64n!19sChIJC2rmFsS1GkcRH5WQ21BhHoo?authuser=0&hl=tr&rclk=1",
    "website_url": "",
    "rating_text": "3,3",
    "stars": null,
    "number_of_reviews": null,
    "price_level": "",
    "open_hours": "",
    "extraction_timestamp": "2025-06-07T17:39:48.815Z",
    "source_name": "google",
    "source_query": "Irrigation Equipment",
    "source_country": "PL",
    "country": "Poland",
    "state": "Greater Poland Voivodeship",
    "city": "Powiat ostrowski"
  },
  {
    "source_id": "ChIJ6UB0qEK3GkcRKnQ_9pjdif4",
    "name": "PIKO-INSTAL - Usługi Hydrauliczno - Gazowe",
    "category": "PIKO-INSTAL - Usługi Hydrauliczno - Gazowe",
    "formatted_address": "5,0(8)",
    "phone_number": "+48503160832",
    "source_url": "https://www.google.com/maps/place/PIKO-INSTAL+-+Us%C5%82ugi+Hydrauliczno+-+Gazowe/data=!4m7!3m6!1s0x471ab742a87440e9:0xfe89dd98f63f742a!8m2!3d51.6424897!4d17.8709569!16s%2Fg%2F11j0hphyq0!19sChIJ6UB0qEK3GkcRKnQ_9pjdif4?authuser=0&hl=tr&rclk=1",
    "website_url": "",
    "rating_text": "5,0",
    "stars": null,
    "number_of_reviews": null,
    "price_level": "",
    "open_hours": "",
    "extraction_timestamp": "2025-06-07T17:39:48.816Z",
    "source_name": "google",
    "source_query": "Irrigation Equipment",
    "source_country": "PL",
    "country": "Poland",
    "state": "Greater Poland Voivodeship",
    "city": "Powiat ostrowski"
  },
  {
    "source_id": "ChIJ_fW_38W1GkcRD3hElAvBWfQ",
    "name": "Aquademi Andrzej Michalski",
    "category": "Aquademi Andrzej Michalski",
    "formatted_address": "",
    "phone_number": "+48665267686",
    "source_url": "https://www.google.com/maps/place/Aquademi+Andrzej+Michalski/data=!4m7!3m6!1s0x471ab5c5dfbff5fd:0xf459c10b9444780f!8m2!3d51.6502343!4d17.8322907!16s%2Fg%2F11b6nntrnh!19sChIJ_fW_38W1GkcRD3hElAvBWfQ?authuser=0&hl=tr&rclk=1",
    "website_url": "",
    "rating_text": "",
    "stars": null,
    "number_of_reviews": null,
    "price_level": "",
    "open_hours": "",
    "extraction_timestamp": "2025-06-07T17:39:48.817Z",
    "source_name": "google",
    "source_query": "Irrigation Equipment",
    "source_country": "PL",
    "country": "Poland",
    "state": "Greater Poland Voivodeship",
    "city": "Powiat ostrowski"
  },
  {
    "source_id": "ChIJVSJ38P-0GkcRT0SBTvqUAz0",
    "name": "Eko-Instal. Montaż instalacji cieplnych",
    "category": "Eko-Instal. Montaż instalacji cieplnych",
    "formatted_address": "5,0(7)",
    "phone_number": "+48606792045",
    "source_url": "https://www.google.com/maps/place/Eko-Instal.+Monta%C5%BC+instalacji+cieplnych/data=!4m7!3m6!1s0x471ab4fff0772255:0x3d0394fa4e81444f!8m2!3d51.6447411!4d17.786776!16s%2Fg%2F1hc0zkgfz!19sChIJVSJ38P-0GkcRT0SBTvqUAz0?authuser=0&hl=tr&rclk=1",
    "website_url": "",
    "rating_text": "5,0",
    "stars": null,
    "number_of_reviews": null,
    "price_level": "",
    "open_hours": "",
    "extraction_timestamp": "2025-06-07T17:39:48.818Z",
    "source_name": "google",
    "source_query": "Irrigation Equipment",
    "source_country": "PL",
    "country": "Poland",
    "state": "Greater Poland Voivodeship",
    "city": "Powiat ostrowski"
  },
  {
    "source_id": "ChIJmf7RfU60GkcRET7QGNgZqGM",
    "name": "Przedsiębiorstwo Wielobranżowe Jacek Nowak",
    "category": "Przedsiębiorstwo Wielobranżowe Jacek Nowak",
    "formatted_address": "4,8(76)",
    "phone_number": "+48792212536",
    "source_url": "https://www.google.com/maps/place/Przedsi%C4%99biorstwo+Wielobran%C5%BCowe+Jacek+Nowak/data=!4m7!3m6!1s0x471ab44e7dd1fe99:0x63a819d818d03e11!8m2!3d51.6371917!4d17.8027875!16s%2Fg%2F11fzvls0nz!19sChIJmf7RfU60GkcRET7QGNgZqGM?authuser=0&hl=tr&rclk=1",
    "website_url": "",
    "rating_text": "4,8",
    "stars": null,
    "number_of_reviews": null,
    "price_level": "",
    "open_hours": "",
    "extraction_timestamp": "2025-06-07T17:39:48.818Z",
    "source_name": "google",
    "source_query": "Irrigation Equipment",
    "source_country": "PL",
    "country": "Poland",
    "state": "Greater Poland Voivodeship",
    "city": "Powiat ostrowski"
  },
  {
    "source_id": "ChIJ1z2vfIC1GkcRTtfrwjMT-2A",
    "name": "Projektowanie kuchni i łazienki Castorama",
    "category": "Projektowanie kuchni i łazienki Castorama",
    "formatted_address": "",
    "phone_number": "+48690680690",
    "source_url": "https://www.google.com/maps/place/Projektowanie+kuchni+i+%C5%82azienki+Castorama/data=!4m7!3m6!1s0x471ab5807caf3dd7:0x60fb1333c2ebd74e!8m2!3d51.6396224!4d17.8375286!16s%2Fg%2F11md2_vbkt!19sChIJ1z2vfIC1GkcRTtfrwjMT-2A?authuser=0&hl=tr&rclk=1",
    "website_url": "",
    "rating_text": "",
    "stars": null,
    "number_of_reviews": null,
    "price_level": "",
    "open_hours": "",
    "extraction_timestamp": "2025-06-07T17:39:48.819Z",
    "source_name": "google",
    "source_query": "Irrigation Equipment",
    "source_country": "PL",
    "country": "Poland",
    "state": "Greater Poland Voivodeship",
    "city": "Powiat ostrowski"
  },
  {
    "source_id": "ChIJ83bpnc61GkcRE2qFeyiQb3w",
    "name": "Intermarche Super",
    "category": "Intermarche Super",
    "formatted_address": "4,2(952)",
    "phone_number": "+48625927062",
    "source_url": "https://www.google.com/maps/place/Intermarche+Super/data=!4m7!3m6!1s0x471ab5ce9de976f3:0x7c6f90287b856a13!8m2!3d51.6437944!4d17.8304444!16s%2Fg%2F1tft_8xw!19sChIJ83bpnc61GkcRE2qFeyiQb3w?authuser=0&hl=tr&rclk=1",
    "website_url": "",
    "rating_text": "4,2",
    "stars": null,
    "number_of_reviews": null,
    "price_level": "",
    "open_hours": "",
    "extraction_timestamp": "2025-06-07T17:39:48.820Z",
    "source_name": "google",
    "source_query": "Irrigation Equipment",
    "source_country": "PL",
    "country": "Poland",
    "state": "Greater Poland Voivodeship",
    "city": "Powiat ostrowski"
  },
  {
    "source_id": "ChIJjYycPzS1GkcRH2HxeXZcCpQ",
    "name": "Castorama Smart",
    "category": "Castorama Smart",
    "formatted_address": "4,2(443)",
    "phone_number": "+48690680690",
    "source_url": "https://www.google.com/maps/place/Castorama+Smart/data=!4m7!3m6!1s0x471ab5343f9c8c8d:0x940a5c7679f1611f!8m2!3d51.6386945!4d17.8373998!16s%2Fg%2F11nmt4b9pq!19sChIJjYycPzS1GkcRH2HxeXZcCpQ?authuser=0&hl=tr&rclk=1",
    "website_url": "",
    "rating_text": "4,2",
    "stars": null,
    "number_of_reviews": null,
    "price_level": "",
    "open_hours": "",
    "extraction_timestamp": "2025-06-07T17:39:48.821Z",
    "source_name": "google",
    "source_query": "Irrigation Equipment",
    "source_country": "PL",
    "country": "Poland",
    "state": "Greater Poland Voivodeship",
    "city": "Powiat ostrowski"
  },
  {
    "source_id": "ChIJOzM-Nry1GkcR5PNjPAqP1cE",
    "name": "Budowa i Konserwacja Urządzeń Wodnych i Melioracyjnych",
    "category": "Budowa i Konserwacja Urządzeń Wodnych i Melioracyjnych",
    "formatted_address": "",
    "phone_number": "+48625920945",
    "source_url": "https://www.google.com/maps/place/Budowa+i+Konserwacja+Urz%C4%85dze%C5%84+Wodnych+i+Melioracyjnych/data=!4m7!3m6!1s0x471ab5bc363e333b:0xc1d58f0a3c63f3e4!8m2!3d51.6589767!4d17.8206143!16s%2Fg%2F1pty93gsp!19sChIJOzM-Nry1GkcR5PNjPAqP1cE?authuser=0&hl=tr&rclk=1",
    "website_url": "",
    "rating_text": "",
    "stars": null,
    "number_of_reviews": null,
    "price_level": "",
    "open_hours": "",
    "extraction_timestamp": "2025-06-07T17:39:48.822Z",
    "source_name": "google",
    "source_query": "Irrigation Equipment",
    "source_country": "PL",
    "country": "Poland",
    "state": "Greater Poland Voivodeship",
    "city": "Powiat ostrowski"
  },
  {
    "source_id": "ChIJixsG0Aa1GkcRrS_VlMx1Wyg",
    "name": "Czajka Marcin Sklep Spożywczo - Przemysłowy",
    "category": "Czajka Marcin Sklep Spożywczo - Przemysłowy",
    "formatted_address": "4,7(67)",
    "phone_number": "+48663751179",
    "source_url": "https://www.google.com/maps/place/Czajka+Marcin+Sklep+Spo%C5%BCywczo+-+Przemys%C5%82owy/data=!4m7!3m6!1s0x471ab506d0061b8b:0x285b75cc94d52fad!8m2!3d51.6515349!4d17.7869878!16s%2Fg%2F1tdyjzbc!19sChIJixsG0Aa1GkcRrS_VlMx1Wyg?authuser=0&hl=tr&rclk=1",
    "website_url": "",
    "rating_text": "4,7",
    "stars": null,
    "number_of_reviews": null,
    "price_level": "",
    "open_hours": "",
    "extraction_timestamp": "2025-06-07T17:39:48.823Z",
    "source_name": "google",
    "source_query": "Irrigation Equipment",
    "source_country": "PL",
    "country": "Poland",
    "state": "Greater Poland Voivodeship",
    "city": "Powiat ostrowski"
  },
  {
    "source_id": "ChIJSwGyK8S1GkcRk7vyy4OyrRM",
    "name": "PROTOM - Tomasz Szymczak",
    "category": "PROTOM - Tomasz Szymczak",
    "formatted_address": "5,0(6)",
    "phone_number": "+48508572743",
    "source_url": "https://www.google.com/maps/place/PROTOM+-+Tomasz+Szymczak/data=!4m7!3m6!1s0x471ab5c42bb2014b:0x13adb283cbf2bb93!8m2!3d51.6401538!4d17.890697!16s%2Fg%2F11n72y8qj8!19sChIJSwGyK8S1GkcRk7vyy4OyrRM?authuser=0&hl=tr&rclk=1",
    "website_url": "",
    "rating_text": "5,0",
    "stars": null,
    "number_of_reviews": null,
    "price_level": "",
    "open_hours": "",
    "extraction_timestamp": "2025-06-07T17:39:48.824Z",
    "source_name": "google",
    "source_query": "Irrigation Equipment",
    "source_country": "PL",
    "country": "Poland",
    "state": "Greater Poland Voivodeship",
    "city": "Powiat ostrowski"
  },
  {
    "source_id": "ChIJRbuBK93kxgkRrhAjZfgm7_M",
    "name": "Inst-Raf Rafał Kaczmarek",
    "category": "Inst-Raf Rafał Kaczmarek",
    "formatted_address": "5,0(1)",
    "phone_number": "+48601829533",
    "source_url": "https://www.google.com/maps/place/Inst-Raf+Rafa%C5%82+Kaczmarek/data=!4m7!3m6!1s0x9c6e4dd2b81bb45:0xf3ef26f8652310ae!8m2!3d51.953761!4d19.1343692!16s%2Fg%2F11y34v1cx6!19sChIJRbuBK93kxgkRrhAjZfgm7_M?authuser=0&hl=tr&rclk=1",
    "website_url": "",
    "rating_text": "5,0",
    "stars": null,
    "number_of_reviews": null,
    "price_level": "",
    "open_hours": "",
    "extraction_timestamp": "2025-06-07T17:39:48.825Z",
    "source_name": "google",
    "source_query": "Irrigation Equipment",
    "source_country": "PL",
    "country": "Poland",
    "state": "Greater Poland Voivodeship",
    "city": "Powiat ostrowski"
  },
  {
    "source_id": "ChIJQa1cCKC1GkcRgvq1OQvnyI8",
    "name": "Salon Łazienek i Techniki Grzewczej Armatura Kozłowski Ostrów Wielkopolski (hurtownia instalacyjna, hydrauliczna)",
    "category": "Salon Łazienek i Techniki Grzewczej Armatura Kozłowski Ostrów Wielkopolski (hurtownia instalacyjna, hydrauliczna)",
    "formatted_address": "Salon Łazienek i Techniki Grzewczej Armatura Kozłowski Ostrów Wielkopolski (hurtownia instalacyjna, hydrauliczna)",
    "phone_number": "+48625925810",
    "source_url": "https://www.google.com/maps/place/Salon+%C5%81azienek+i+Techniki+Grzewczej+Armatura+Koz%C5%82owski+Ostr%C3%B3w+Wielkopolski+%28hurtownia+instalacyjna,+hydrauliczna%29/data=!4m7!3m6!1s0x471ab5a0085cad41:0x8fc8e70b39b5fa82!8m2!3d51.6647713!4d17.8001308!16s%2Fg%2F11gzl84wh!19sChIJQa1cCKC1GkcRgvq1OQvnyI8?authuser=0&hl=tr&rclk=1",
    "website_url": "",
    "rating_text": "4,6",
    "stars": null,
    "number_of_reviews": null,
    "price_level": "",
    "open_hours": "",
    "extraction_timestamp": "2025-06-07T17:39:48.826Z",
    "source_name": "google",
    "source_query": "Irrigation Equipment",
    "source_country": "PL",
    "country": "Poland",
    "state": "Greater Poland Voivodeship",
    "city": "Powiat ostrowski"
  },
  {
    "source_id": "ChIJxwDYVbq1GkcRNk1XV-LV8ms",
    "name": "INSAN - wyposażenie łazienek, kabiny prysznicowe, meble łazienkowe, technika grzewcza",
    "category": "INSAN - wyposażenie łazienek, kabiny prysznicowe, meble łazienkowe, technika grzewcza",
    "formatted_address": "INSAN - wyposażenie łazienek, kabiny prysznicowe, meble łazienkowe, technika grzewcza",
    "phone_number": "+48625913366",
    "source_url": "https://www.google.com/maps/place/INSAN+-+wyposa%C5%BCenie+%C5%82azienek,+kabiny+prysznicowe,+meble+%C5%82azienkowe,+technika+grzewcza/data=!4m7!3m6!1s0x471ab5ba55d800c7:0x6bf2d5e257574d36!8m2!3d51.6543305!4d17.8144984!16s%2Fg%2F1thfd5dx!19sChIJxwDYVbq1GkcRNk1XV-LV8ms?authuser=0&hl=tr&rclk=1",
    "website_url": "",
    "rating_text": "4,7",
    "stars": null,
    "number_of_reviews": null,
    "price_level": "",
    "open_hours": "",
    "extraction_timestamp": "2025-06-07T17:39:48.827Z",
    "source_name": "google",
    "source_query": "Irrigation Equipment",
    "source_country": "PL",
    "country": "Poland",
    "state": "Greater Poland Voivodeship",
    "city": "Powiat ostrowski"
  },
  {
    "source_id": "ChIJVVVVVQnKGkcRd2aNroLxE_M",
    "name": "MINIKOP Roboty ziemne",
    "category": "MINIKOP Roboty ziemne",
    "formatted_address": "4,0(4)",
    "phone_number": "+48606329437",
    "source_url": "https://www.google.com/maps/place/MINIKOP+Roboty+ziemne/data=!4m7!3m6!1s0x471aca0955555555:0xf313f182ae8d6677!8m2!3d51.646258!4d17.729649!16s%2Fg%2F11j8l63r8l!19sChIJVVVVVQnKGkcRd2aNroLxE_M?authuser=0&hl=tr&rclk=1",
    "website_url": "",
    "rating_text": "4,0",
    "stars": null,
    "number_of_reviews": null,
    "price_level": "",
    "open_hours": "",
    "extraction_timestamp": "2025-06-07T17:39:48.828Z",
    "source_name": "google",
    "source_query": "Irrigation Equipment",
    "source_country": "PL",
    "country": "Poland",
    "state": "Greater Poland Voivodeship",
    "city": "Powiat ostrowski"
  },
  {
    "source_id": "ChIJFTaEaIBb_W8RG4avpU2uAgs",
    "name": "Plumbing Service Usługi Hydrauliczne Bartłomiej Fita",
    "category": "Plumbing Service Usługi Hydrauliczne Bartłomiej Fita",
    "formatted_address": "5,0(8)",
    "phone_number": "+48730270698",
    "source_url": "https://www.google.com/maps/place/Plumbing+Service+Us%C5%82ugi+Hydrauliczne+Bart%C5%82omiej+Fita/data=!4m7!3m6!1s0x6ffd5b8068843615:0xb02ae4da5af861b!8m2!3d51.6980949!4d17.8163168!16s%2Fg%2F11wr3lt8ff!19sChIJFTaEaIBb_W8RG4avpU2uAgs?authuser=0&hl=tr&rclk=1",
    "website_url": "",
    "rating_text": "5,0",
    "stars": null,
    "number_of_reviews": null,
    "price_level": "",
    "open_hours": "",
    "extraction_timestamp": "2025-06-07T17:39:48.829Z",
    "source_name": "google",
    "source_query": "Irrigation Equipment",
    "source_country": "PL",
    "country": "Poland",
    "state": "Greater Poland Voivodeship",
    "city": "Powiat ostrowski"
  }
]
