[
  {
    "source_id": "ChIJi_wadzcMBUcR1Q7CsAUmcbw",
    "name": "Efli Gostyń",
    "category": "Efli Gostyń",
    "formatted_address": "4,2(22)",
    "phone_number": "+48655720421",
    "source_url": "https://www.google.com/maps/place/Efli+Gosty%C5%84/data=!4m7!3m6!1s0x47050c37771afc8b:0xbc712605b0c20ed5!8m2!3d51.8751638!4d17.0143424!16s%2Fg%2F1tv22w0_!19sChIJi_wadzcMBUcR1Q7CsAUmcbw?authuser=0&hl=tr&rclk=1",
    "website_url": "",
    "rating_text": "4,2",
    "stars": null,
    "number_of_reviews": null,
    "price_level": "",
    "open_hours": "",
    "extraction_timestamp": "2025-06-07T17:24:41.386Z",
    "source_name": "google",
    "source_query": "Irrigation Equipment",
    "source_country": "PL",
    "country": "Poland",
    "state": "Greater Poland Voivodeship",
    "city": "Powiat gostyński"
  },
  {
    "source_id": "ChIJSx7-dSMMBUcRtikRKLvVN8U",
    "name": "Armatura sp.j. Sklep przemysłowy. Nowak U.T.A.",
    "category": "Armatura sp.j. Sklep przemysłowy. Nowak U.T.A.",
    "formatted_address": "4,7(60)",
    "phone_number": "+48655723325",
    "source_url": "https://www.google.com/maps/place/Armatura+sp.j.+Sklep+przemys%C5%82owy.+Nowak+U.T.A./data=!4m7!3m6!1s0x47050c2375fe1e4b:0xc537d5bb281129b6!8m2!3d51.886231!4d17.0100919!16s%2Fg%2F1tg2jcjx!19sChIJSx7-dSMMBUcRtikRKLvVN8U?authuser=0&hl=tr&rclk=1",
    "website_url": "",
    "rating_text": "4,7",
    "stars": null,
    "number_of_reviews": null,
    "price_level": "",
    "open_hours": "",
    "extraction_timestamp": "2025-06-07T17:24:41.387Z",
    "source_name": "google",
    "source_query": "Irrigation Equipment",
    "source_country": "PL",
    "country": "Poland",
    "state": "Greater Poland Voivodeship",
    "city": "Powiat gostyński"
  },
  {
    "source_id": "ChIJLSex-ApzBUcRCpj8De0_1NY",
    "name": "Agritech Techniczne Wyposażenie Rolnictwa",
    "category": "Agritech Techniczne Wyposażenie Rolnictwa",
    "formatted_address": "5,0(59)",
    "phone_number": "+48669738934",
    "source_url": "https://www.google.com/maps/place/Agritech+Techniczne+Wyposa%C5%BCenie+Rolnictwa/data=!4m7!3m6!1s0x4705730af8b1272d:0xd6d43fed0dfc980a!8m2!3d51.7740263!4d16.9777365!16s%2Fg%2F11h08qlbkb!19sChIJLSex-ApzBUcRCpj8De0_1NY?authuser=0&hl=tr&rclk=1",
    "website_url": "",
    "rating_text": "5,0",
    "stars": null,
    "number_of_reviews": null,
    "price_level": "",
    "open_hours": "",
    "extraction_timestamp": "2025-06-07T17:24:41.389Z",
    "source_name": "google",
    "source_query": "Irrigation Equipment",
    "source_country": "PL",
    "country": "Poland",
    "state": "Greater Poland Voivodeship",
    "city": "Powiat gostyński"
  },
  {
    "source_id": "ChIJ1cFYp1MMBUcRwdi59ZYLnJw",
    "name": "Autoryzowany Dealer DeLaval Jan Witkowski",
    "category": "Autoryzowany Dealer DeLaval Jan Witkowski",
    "formatted_address": "4,8(12)",
    "phone_number": "+48655722575",
    "source_url": "https://www.google.com/maps/place/Autoryzowany+Dealer+DeLaval+Jan+Witkowski/data=!4m7!3m6!1s0x47050c53a758c1d5:0x9c9c0b96f5b9d8c1!8m2!3d51.8574961!4d17.0138717!16s%2Fg%2F1vvdsxxn!19sChIJ1cFYp1MMBUcRwdi59ZYLnJw?authuser=0&hl=tr&rclk=1",
    "website_url": "",
    "rating_text": "4,8",
    "stars": null,
    "number_of_reviews": null,
    "price_level": "",
    "open_hours": "",
    "extraction_timestamp": "2025-06-07T17:24:41.390Z",
    "source_name": "google",
    "source_query": "Irrigation Equipment",
    "source_country": "PL",
    "country": "Poland",
    "state": "Greater Poland Voivodeship",
    "city": "Powiat gostyński"
  },
  {
    "source_id": "ChIJ1-EUTLgNBUcR8Ah2zv2Uqm8",
    "name": "Ekoenergetyka Piotr Małecki - energia odnawialna i fotowoltaika",
    "category": "Ekoenergetyka Piotr Małecki - energia odnawialna i fotowoltaika",
    "formatted_address": "4,4(7)",
    "phone_number": "+48695025000",
    "source_url": "https://www.google.com/maps/place/Ekoenergetyka+Piotr+Ma%C5%82ecki+-+energia+odnawialna+i+fotowoltaika/data=!4m7!3m6!1s0x47050db84c14e1d7:0x6faa94fdce7608f0!8m2!3d51.88397!4d17.079858!16s%2Fg%2F11kgrqqndl!19sChIJ1-EUTLgNBUcR8Ah2zv2Uqm8?authuser=0&hl=tr&rclk=1",
    "website_url": "",
    "rating_text": "4,4",
    "stars": null,
    "number_of_reviews": null,
    "price_level": "",
    "open_hours": "",
    "extraction_timestamp": "2025-06-07T17:24:41.391Z",
    "source_name": "google",
    "source_query": "Irrigation Equipment",
    "source_country": "PL",
    "country": "Poland",
    "state": "Greater Poland Voivodeship",
    "city": "Powiat gostyński"
  },
  {
    "source_id": "ChIJxX-J0zAMBUcRi1CsoNctuJg",
    "name": "HYDRO-INSTAL Armatura sanitarna, wyposażenie łazienek, technika grzewcza",
    "category": "HYDRO-INSTAL Armatura sanitarna, wyposażenie łazienek, technika grzewcza",
    "formatted_address": "HYDRO-INSTAL Armatura sanitarna, wyposażenie łazienek, technika grzewcza",
    "phone_number": "",
    "source_url": "https://www.google.com/maps/place/HYDRO-INSTAL+Armatura+sanitarna,+wyposa%C5%BCenie+%C5%82azienek,+technika+grzewcza/data=!4m7!3m6!1s0x47050c30d3897fc5:0x98b82dd7a0ac508b!8m2!3d51.8841787!4d17.0711948!16s%2Fg%2F1tmgb40c!19sChIJxX-J0zAMBUcRi1CsoNctuJg?authuser=0&hl=tr&rclk=1",
    "website_url": "",
    "rating_text": "4,8",
    "stars": null,
    "number_of_reviews": null,
    "price_level": "",
    "open_hours": "",
    "extraction_timestamp": "2025-06-07T17:24:41.392Z",
    "source_name": "google",
    "source_query": "Irrigation Equipment",
    "source_country": "PL",
    "country": "Poland",
    "state": "Greater Poland Voivodeship",
    "city": "Powiat gostyński"
  },
  {
    "source_id": "ChIJaWVNgjsMBUcRt5kdDZ_6qyE",
    "name": "Karbona Sp. z o.o.",
    "category": "Karbona Sp. z o.o.",
    "formatted_address": "4,5(2)",
    "phone_number": "+48655722240",
    "source_url": "https://www.google.com/maps/place/Karbona+Sp.+z+o.o./data=!4m7!3m6!1s0x47050c3b824d6569:0x21abfa9f0d1d99b7!8m2!3d51.88078!4d17.00881!16s%2Fg%2F1hc2fqk7y!19sChIJaWVNgjsMBUcRt5kdDZ_6qyE?authuser=0&hl=tr&rclk=1",
    "website_url": "",
    "rating_text": "4,5",
    "stars": null,
    "number_of_reviews": null,
    "price_level": "",
    "open_hours": "",
    "extraction_timestamp": "2025-06-07T17:24:41.393Z",
    "source_name": "google",
    "source_query": "Irrigation Equipment",
    "source_country": "PL",
    "country": "Poland",
    "state": "Greater Poland Voivodeship",
    "city": "Powiat gostyński"
  },
  {
    "source_id": "ChIJ5ezouQ0LBUcRKfWsqp6oPIo",
    "name": "K.G instal Krzysztof Gorwa",
    "category": "K.G instal Krzysztof Gorwa",
    "formatted_address": "4,9(13)",
    "phone_number": "+48663996171",
    "source_url": "https://www.google.com/maps/place/K.G+instal+Krzysztof+Gorwa/data=!4m7!3m6!1s0x47050b0db9e8ece5:0x8a3ca89eaaacf529!8m2!3d51.8783144!4d16.951145!16s%2Fg%2F11s4_gz2lc!19sChIJ5ezouQ0LBUcRKfWsqp6oPIo?authuser=0&hl=tr&rclk=1",
    "website_url": "",
    "rating_text": "4,9",
    "stars": null,
    "number_of_reviews": null,
    "price_level": "",
    "open_hours": "",
    "extraction_timestamp": "2025-06-07T17:24:41.394Z",
    "source_name": "google",
    "source_query": "Irrigation Equipment",
    "source_country": "PL",
    "country": "Poland",
    "state": "Greater Poland Voivodeship",
    "city": "Powiat gostyński"
  },
  {
    "source_id": "ChIJ8QdYDIBzBUcRLirZGsAgwqM",
    "name": "Elthermo",
    "category": "Elthermo",
    "formatted_address": "4,8(16)",
    "phone_number": "+48602356303",
    "source_url": "https://www.google.com/maps/place/Elthermo/data=!4m7!3m6!1s0x470573800c5807f1:0xa3c220c01ad92a2e!8m2!3d51.767523!4d16.986842!16s%2Fg%2F11jh94s7sn!19sChIJ8QdYDIBzBUcRLirZGsAgwqM?authuser=0&hl=tr&rclk=1",
    "website_url": "",
    "rating_text": "4,8",
    "stars": null,
    "number_of_reviews": null,
    "price_level": "",
    "open_hours": "",
    "extraction_timestamp": "2025-06-07T17:24:41.395Z",
    "source_name": "google",
    "source_query": "Irrigation Equipment",
    "source_country": "PL",
    "country": "Poland",
    "state": "Greater Poland Voivodeship",
    "city": "Powiat gostyński"
  },
  {
    "source_id": "ChIJfaw8Mo4NBUcRna1zJ06x0Ss",
    "name": "Technikar - serwis wózków widłowych, serwis maszyn budowlanych, wynajem",
    "category": "Technikar - serwis wózków widłowych, serwis maszyn budowlanych, wynajem",
    "formatted_address": "Technikar - serwis wózków widłowych, serwis maszyn budowlanych, wynajem",
    "phone_number": "+48727436797",
    "source_url": "https://www.google.com/maps/place/Technikar+-+serwis+w%C3%B3zk%C3%B3w+wid%C5%82owych,+serwis+maszyn+budowlanych,+wynajem/data=!4m7!3m6!1s0x47050d8e323cac7d:0x2bd1b14e2773ad9d!8m2!3d51.8369716!4d17.0355615!16s%2Fg%2F11srl0q_0g!19sChIJfaw8Mo4NBUcRna1zJ06x0Ss?authuser=0&hl=tr&rclk=1",
    "website_url": "",
    "rating_text": "5,0",
    "stars": null,
    "number_of_reviews": null,
    "price_level": "",
    "open_hours": "",
    "extraction_timestamp": "2025-06-07T17:24:41.396Z",
    "source_name": "google",
    "source_query": "Irrigation Equipment",
    "source_country": "PL",
    "country": "Poland",
    "state": "Greater Poland Voivodeship",
    "city": "Powiat gostyński"
  },
  {
    "source_id": "ChIJPZce8OEJBUcRIVsbpcRzLu8",
    "name": "Unicus Usługi Ogrodnicze Nowaczyk",
    "category": "Unicus Usługi Ogrodnicze Nowaczyk",
    "formatted_address": "4,6(19)",
    "phone_number": "+48602815312",
    "source_url": "https://www.google.com/maps/place/Unicus+Us%C5%82ugi+Ogrodnicze+Nowaczyk/data=!4m7!3m6!1s0x470509e1f01e973d:0xef2e73c4a51b5b21!8m2!3d51.897861!4d16.9626557!16s%2Fg%2F11qrl6ljjl!19sChIJPZce8OEJBUcRIVsbpcRzLu8?authuser=0&hl=tr&rclk=1",
    "website_url": "",
    "rating_text": "4,6",
    "stars": null,
    "number_of_reviews": null,
    "price_level": "",
    "open_hours": "",
    "extraction_timestamp": "2025-06-07T17:24:41.397Z",
    "source_name": "google",
    "source_query": "Irrigation Equipment",
    "source_country": "PL",
    "country": "Poland",
    "state": "Greater Poland Voivodeship",
    "city": "Powiat gostyński"
  },
  {
    "source_id": "ChIJvW-8e0INBUcR0xSwVBqimsg",
    "name": "Kubiktech-usługi hydrauliczne Jakub Sura Ogrzewanie Podłogowe Pogotowie Hydrauliczne Instalacje Sanitarne Hydraulik",
    "category": "Kubiktech-usługi hydrauliczne Jakub Sura Ogrzewanie Podłogowe Pogotowie Hydrauliczne Instalacje Sanitarne Hydraulik",
    "formatted_address": "5,0(4)",
    "phone_number": "+48727935375",
    "source_url": "https://www.google.com/maps/place/Kubiktech-us%C5%82ugi+hydrauliczne+Jakub+Sura+Ogrzewanie+Pod%C5%82ogowe+Pogotowie+Hydrauliczne+Instalacje+Sanitarne+Hydraulik/data=!4m7!3m6!1s0x47050d427bbc6fbd:0xc89aa21a54b014d3!8m2!3d51.8837291!4d17.0788374!16s%2Fg%2F11w7hbsq95!19sChIJvW-8e0INBUcR0xSwVBqimsg?authuser=0&hl=tr&rclk=1",
    "website_url": "",
    "rating_text": "5,0",
    "stars": null,
    "number_of_reviews": null,
    "price_level": "",
    "open_hours": "",
    "extraction_timestamp": "2025-06-07T17:24:41.398Z",
    "source_name": "google",
    "source_query": "Irrigation Equipment",
    "source_country": "PL",
    "country": "Poland",
    "state": "Greater Poland Voivodeship",
    "city": "Powiat gostyński"
  },
  {
    "source_id": "ChIJVZ2UPflyBUcRdSCyWoifVwM",
    "name": "KROSMAT SPÓŁKA JAWNA TOMASZ WRÓBLEWSKI, ŁUKASZ MATYLA",
    "category": "KROSMAT SPÓŁKA JAWNA TOMASZ WRÓBLEWSKI, ŁUKASZ MATYLA",
    "formatted_address": "KROSMAT SPÓŁKA JAWNA TOMASZ WRÓBLEWSKI, ŁUKASZ MATYLA",
    "phone_number": "+48655711238",
    "source_url": "https://www.google.com/maps/place/KROSMAT+SP%C3%93%C5%81KA+JAWNA+TOMASZ+WR%C3%93BLEWSKI,+%C5%81UKASZ+MATYLA/data=!4m7!3m6!1s0x470572f93d949d55:0x3579f885ab22075!8m2!3d51.7732774!4d16.9750292!16s%2Fg%2F1tgp8zwh!19sChIJVZ2UPflyBUcRdSCyWoifVwM?authuser=0&hl=tr&rclk=1",
    "website_url": "",
    "rating_text": "4,6",
    "stars": null,
    "number_of_reviews": null,
    "price_level": "",
    "open_hours": "",
    "extraction_timestamp": "2025-06-07T17:24:41.399Z",
    "source_name": "google",
    "source_query": "Irrigation Equipment",
    "source_country": "PL",
    "country": "Poland",
    "state": "Greater Poland Voivodeship",
    "city": "Powiat gostyński"
  },
  {
    "source_id": "ChIJA7-KdBINBUcRv9e1APOYK8o",
    "name": "Zakład Zielarski Kawon-Hurt Nowak Sp. J.",
    "category": "Zakład Zielarski Kawon-Hurt Nowak Sp. J.",
    "formatted_address": "3,9(21)",
    "phone_number": "+48655720822",
    "source_url": "https://www.google.com/maps/place/Zak%C5%82ad+Zielarski+Kawon-Hurt+Nowak+Sp.+J./data=!4m7!3m6!1s0x47050d12748abf03:0xca2b98f300b5d7bf!8m2!3d51.8473861!4d17.018772!16s%2Fg%2F1wj_rzpw!19sChIJA7-KdBINBUcRv9e1APOYK8o?authuser=0&hl=tr&rclk=1",
    "website_url": "",
    "rating_text": "3,9",
    "stars": null,
    "number_of_reviews": null,
    "price_level": "",
    "open_hours": "",
    "extraction_timestamp": "2025-06-07T17:24:41.401Z",
    "source_name": "google",
    "source_query": "Irrigation Equipment",
    "source_country": "PL",
    "country": "Poland",
    "state": "Greater Poland Voivodeship",
    "city": "Powiat gostyński"
  },
  {
    "source_id": "ChIJs3R64zcMBUcRPF60V6n19NU",
    "name": "Wencel. Pompy wody, głębinowne, pompy zatapialne, silniki elektryczne",
    "category": "Wencel. Pompy wody, głębinowne, pompy zatapialne, silniki elektryczne",
    "formatted_address": "Wencel. Pompy wody, głębinowne, pompy zatapialne, silniki elektryczne",
    "phone_number": "+48504054253",
    "source_url": "https://www.google.com/maps/place/Wencel.+Pompy+wody,+g%C5%82%C4%99binowne,+pompy+zatapialne,+silniki+elektryczne/data=!4m7!3m6!1s0x47050c37e37a74b3:0xd5f4f5a957b45e3c!8m2!3d51.8725775!4d17.012215!16s%2Fg%2F1hc7fgk4l!19sChIJs3R64zcMBUcRPF60V6n19NU?authuser=0&hl=tr&rclk=1",
    "website_url": "",
    "rating_text": "5,0",
    "stars": null,
    "number_of_reviews": null,
    "price_level": "",
    "open_hours": "",
    "extraction_timestamp": "2025-06-07T17:24:41.402Z",
    "source_name": "google",
    "source_query": "Irrigation Equipment",
    "source_country": "PL",
    "country": "Poland",
    "state": "Greater Poland Voivodeship",
    "city": "Powiat gostyński"
  },
  {
    "source_id": "ChIJtdPjXiMMBUcRhrlA9lB9o_I",
    "name": "Bricomarché",
    "category": "Bricomarché",
    "formatted_address": "4,0(1.121)",
    "phone_number": "+48655720140",
    "source_url": "https://www.google.com/maps/place/Bricomarch%C3%A9/data=!4m7!3m6!1s0x47050c235ee3d3b5:0xf2a37d50f640b986!8m2!3d51.8846609!4d17.0107148!16s%2Fg%2F1tdxcz_d!19sChIJtdPjXiMMBUcRhrlA9lB9o_I?authuser=0&hl=tr&rclk=1",
    "website_url": "",
    "rating_text": "4,0",
    "stars": null,
    "number_of_reviews": null,
    "price_level": "",
    "open_hours": "",
    "extraction_timestamp": "2025-06-07T17:24:41.404Z",
    "source_name": "google",
    "source_query": "Irrigation Equipment",
    "source_country": "PL",
    "country": "Poland",
    "state": "Greater Poland Voivodeship",
    "city": "Powiat gostyński"
  }
]
