[
  {
    "source_id": "ChIJH0tpQaD7BEcRYQQ-PETrOIQ",
    "name": "ASW TECHNIK",
    "category": "ASW TECHNIK",
    "formatted_address": "4,8(46)",
    "phone_number": "+48577887997",
    "source_url": "https://www.google.com/maps/place/ASW+TECHNIK/data=!4m7!3m6!1s0x4704fba041694b1f:0x8438eb443c3e0461!8m2!3d52.2275708!4d17.2607921!16s%2Fg%2F11h_sld0sr!19sChIJH0tpQaD7BEcRYQQ-PETrOIQ?authuser=0&hl=tr&rclk=1",
    "website_url": "",
    "rating_text": "4,8",
    "stars": null,
    "number_of_reviews": null,
    "price_level": "",
    "open_hours": "",
    "extraction_timestamp": "2025-06-07T17:48:39.022Z",
    "source_name": "google",
    "source_query": "Irrigation Equipment",
    "source_country": "PL",
    "country": "Poland",
    "state": "Greater Poland Voivodeship",
    "city": "Powiat średzki"
  },
  {
    "source_id": "ChIJZTUkncv7BEcRsv-FuPvJd0E",
    "name": "TEST INSTALACJE – Hurtownia instalacyjna Środa Wielkopolska",
    "category": "TEST INSTALACJE – Hurtownia instalacyjna Środa Wielkopolska",
    "formatted_address": "4,1(20)",
    "phone_number": "+48612856282",
    "source_url": "https://www.google.com/maps/place/TEST+INSTALACJE+%E2%80%93+Hurtownia+instalacyjna+%C5%9Aroda+Wielkopolska/data=!4m7!3m6!1s0x4704fbcb9d243565:0x4177c9fbb885ffb2!8m2!3d52.2386542!4d17.2761103!16s%2Fg%2F11n0p8cszw!19sChIJZTUkncv7BEcRsv-FuPvJd0E?authuser=0&hl=tr&rclk=1",
    "website_url": "",
    "rating_text": "4,1",
    "stars": null,
    "number_of_reviews": null,
    "price_level": "",
    "open_hours": "",
    "extraction_timestamp": "2025-06-07T17:48:39.022Z",
    "source_name": "google",
    "source_query": "Irrigation Equipment",
    "source_country": "PL",
    "country": "Poland",
    "state": "Greater Poland Voivodeship",
    "city": "Powiat średzki"
  },
  {
    "source_id": "ChIJh5yUCqH7BEcRmMfxvcU_1bk",
    "name": "InduPartner",
    "category": "InduPartner",
    "formatted_address": "5,0(2)",
    "phone_number": "+48612854487",
    "source_url": "https://www.google.com/maps/place/InduPartner/data=!4m7!3m6!1s0x4704fba10a949c87:0xb9d53fc5bdf1c798!8m2!3d52.2324617!4d17.2500708!16s%2Fg%2F11h109fk2!19sChIJh5yUCqH7BEcRmMfxvcU_1bk?authuser=0&hl=tr&rclk=1",
    "website_url": "",
    "rating_text": "5,0",
    "stars": null,
    "number_of_reviews": null,
    "price_level": "",
    "open_hours": "",
    "extraction_timestamp": "2025-06-07T17:48:39.023Z",
    "source_name": "google",
    "source_query": "Irrigation Equipment",
    "source_country": "PL",
    "country": "Poland",
    "state": "Greater Poland Voivodeship",
    "city": "Powiat średzki"
  },
  {
    "source_id": "ChIJV3QGaQT7BEcR_a5c-9ID-vg",
    "name": "San-Instal Krzysztof Michalak",
    "category": "San-Instal Krzysztof Michalak",
    "formatted_address": "4,5(6)",
    "phone_number": "+48537884522",
    "source_url": "https://www.google.com/maps/place/San-Instal+Krzysztof+Michalak/data=!4m7!3m6!1s0x4704fb0469067457:0xf8fa03d2fb5caefd!8m2!3d52.223062!4d17.280877!16s%2Fg%2F11gh27vvyf!19sChIJV3QGaQT7BEcR_a5c-9ID-vg?authuser=0&hl=tr&rclk=1",
    "website_url": "",
    "rating_text": "4,5",
    "stars": null,
    "number_of_reviews": null,
    "price_level": "",
    "open_hours": "",
    "extraction_timestamp": "2025-06-07T17:48:39.023Z",
    "source_name": "google",
    "source_query": "Irrigation Equipment",
    "source_country": "PL",
    "country": "Poland",
    "state": "Greater Poland Voivodeship",
    "city": "Powiat średzki"
  },
  {
    "source_id": "ChIJyzL7W0f7BEcR8QnhWuq5xfk",
    "name": "GRENE",
    "category": "GRENE",
    "formatted_address": "4,6(25)",
    "phone_number": "+48601900528",
    "source_url": "https://www.google.com/maps/place/GRENE/data=!4m7!3m6!1s0x4704fb475bfb32cb:0xf9c5b9ea5ae109f1!8m2!3d52.2219952!4d17.2932154!16s%2Fg%2F1thqfgdx!19sChIJyzL7W0f7BEcR8QnhWuq5xfk?authuser=0&hl=tr&rclk=1",
    "website_url": "",
    "rating_text": "4,6",
    "stars": null,
    "number_of_reviews": null,
    "price_level": "",
    "open_hours": "",
    "extraction_timestamp": "2025-06-07T17:48:39.023Z",
    "source_name": "google",
    "source_query": "Irrigation Equipment",
    "source_country": "PL",
    "country": "Poland",
    "state": "Greater Poland Voivodeship",
    "city": "Powiat średzki"
  },
  {
    "source_id": "ChIJyzL7W0f7BEcRIrwPg2IxjUQ",
    "name": "Łopatka. FH. Łopatka S.",
    "category": "Łopatka. FH. Łopatka S.",
    "formatted_address": "4,3(81)",
    "phone_number": "+48602299869",
    "source_url": "https://www.google.com/maps/place/%C5%81opatka.+FH.+%C5%81opatka+S./data=!4m7!3m6!1s0x4704fb475bfb32cb:0x448d3162830fbc22!8m2!3d52.2230714!4d17.2916644!16s%2Fg%2F1v299qj5!19sChIJyzL7W0f7BEcRIrwPg2IxjUQ?authuser=0&hl=tr&rclk=1",
    "website_url": "",
    "rating_text": "4,3",
    "stars": null,
    "number_of_reviews": null,
    "price_level": "",
    "open_hours": "",
    "extraction_timestamp": "2025-06-07T17:48:39.023Z",
    "source_name": "google",
    "source_query": "Irrigation Equipment",
    "source_country": "PL",
    "country": "Poland",
    "state": "Greater Poland Voivodeship",
    "city": "Powiat średzki"
  },
  {
    "source_id": "ChIJFdskLUb7BEcRYjm39Uc-uv4",
    "name": "P.P.H.U. Hydro-Pomp Michał Dydymski",
    "category": "P.P.H.U. Hydro-Pomp Michał Dydymski",
    "formatted_address": "5,0(1)",
    "phone_number": "+48612856771",
    "source_url": "https://www.google.com/maps/place/P.P.H.U.+Hydro-Pomp+Micha%C5%82+Dydymski/data=!4m7!3m6!1s0x4704fb462d24db15:0xfeba3e47f5b73962!8m2!3d52.2199578!4d17.2963723!16s%2Fg%2F1tdcq6vc!19sChIJFdskLUb7BEcRYjm39Uc-uv4?authuser=0&hl=tr&rclk=1",
    "website_url": "",
    "rating_text": "5,0",
    "stars": null,
    "number_of_reviews": null,
    "price_level": "",
    "open_hours": "",
    "extraction_timestamp": "2025-06-07T17:48:39.024Z",
    "source_name": "google",
    "source_query": "Irrigation Equipment",
    "source_country": "PL",
    "country": "Poland",
    "state": "Greater Poland Voivodeship",
    "city": "Powiat średzki"
  },
  {
    "source_id": "ChIJE3Lz3bFXBEcRBgoAqS1zROk",
    "name": "Firma Handlowa \"Kram\" s.c. Iwona Krawczyk, Roman Krawczyk",
    "category": "Firma Handlowa \"Kram\" s.c. Iwona Krawczyk, Roman Krawczyk",
    "formatted_address": "Firma Handlowa \"Kram\" s.c. Iwona Krawczyk, Roman Krawczyk",
    "phone_number": "+48618171242",
    "source_url": "https://www.google.com/maps/place/Firma+Handlowa+%22Kram%22+s.c.+Iwona+Krawczyk,+Roman+Krawczyk/data=!4m7!3m6!1s0x470457b1ddf37213:0xe944732da9000a06!8m2!3d52.288937!4d17.046897!16s%2Fg%2F1tcw29hw!19sChIJE3Lz3bFXBEcRBgoAqS1zROk?authuser=0&hl=tr&rclk=1",
    "website_url": "",
    "rating_text": "4,6",
    "stars": null,
    "number_of_reviews": null,
    "price_level": "",
    "open_hours": "",
    "extraction_timestamp": "2025-06-07T17:48:39.024Z",
    "source_name": "google",
    "source_query": "Irrigation Equipment",
    "source_country": "PL",
    "country": "Poland",
    "state": "Greater Poland Voivodeship",
    "city": "Powiat średzki"
  },
  {
    "source_id": "ChIJfbKnWD77BEcRAJA63QEgIZA",
    "name": "Piotr-instal. Instalacje wodne, kanalizacyjne, gazowe, grzewcze",
    "category": "Piotr-instal. Instalacje wodne, kanalizacyjne, gazowe, grzewcze",
    "formatted_address": "Piotr-instal. Instalacje wodne, kanalizacyjne, gazowe, grzewcze",
    "phone_number": "+48508352998",
    "source_url": "https://www.google.com/maps/place/Piotr-instal.+Instalacje+wodne,+kanalizacyjne,+gazowe,+grzewcze/data=!4m7!3m6!1s0x4704fb3e58a7b27d:0x90212001dd3a9000!8m2!3d52.2255218!4d17.2814791!16s%2Fg%2F11y1ns7qry!19sChIJfbKnWD77BEcRAJA63QEgIZA?authuser=0&hl=tr&rclk=1",
    "website_url": "",
    "rating_text": "4,5",
    "stars": null,
    "number_of_reviews": null,
    "price_level": "",
    "open_hours": "",
    "extraction_timestamp": "2025-06-07T17:48:39.024Z",
    "source_name": "google",
    "source_query": "Irrigation Equipment",
    "source_country": "PL",
    "country": "Poland",
    "state": "Greater Poland Voivodeship",
    "city": "Powiat średzki"
  },
  {
    "source_id": "ChIJPQhvQ8H7BEcRIBTYyv-iKrI",
    "name": "Zielona Magia Centrum ogrodnicze",
    "category": "Zielona Magia Centrum ogrodnicze",
    "formatted_address": "5,0(26)",
    "phone_number": "+48698358348",
    "source_url": "https://www.google.com/maps/place/Zielona+Magia+Centrum+ogrodnicze/data=!4m7!3m6!1s0x4704fbc1436f083d:0xb22aa2ffcad81420!8m2!3d52.2148789!4d17.2783445!16s%2Fg%2F11rfn4075h!19sChIJPQhvQ8H7BEcRIBTYyv-iKrI?authuser=0&hl=tr&rclk=1",
    "website_url": "",
    "rating_text": "5,0",
    "stars": null,
    "number_of_reviews": null,
    "price_level": "",
    "open_hours": "",
    "extraction_timestamp": "2025-06-07T17:48:39.025Z",
    "source_name": "google",
    "source_query": "Irrigation Equipment",
    "source_country": "PL",
    "country": "Poland",
    "state": "Greater Poland Voivodeship",
    "city": "Powiat średzki"
  },
  {
    "source_id": "ChIJmW6iYi8eBUcRl2pHgp-4HAw",
    "name": "Instal-Met",
    "category": "Instal-Met",
    "formatted_address": "4,6(134) · ₺₺",
    "phone_number": "+48612874455",
    "source_url": "https://www.google.com/maps/place/Instal-Met/data=!4m7!3m6!1s0x47051e2f62a26e99:0xc1cb89f82476a97!8m2!3d52.087736!4d17.406122!16s%2Fg%2F1w4vhmn2!19sChIJmW6iYi8eBUcRl2pHgp-4HAw?authuser=0&hl=tr&rclk=1",
    "website_url": "",
    "rating_text": "4,6",
    "stars": null,
    "number_of_reviews": null,
    "price_level": "",
    "open_hours": "",
    "extraction_timestamp": "2025-06-07T17:48:39.025Z",
    "source_name": "google",
    "source_query": "Irrigation Equipment",
    "source_country": "PL",
    "country": "Poland",
    "state": "Greater Poland Voivodeship",
    "city": "Powiat średzki"
  },
  {
    "source_id": "ChIJVTV3W_PzBEcR6gY0xwQi2_E",
    "name": "Deszczownie.com",
    "category": "Deszczownie.com",
    "formatted_address": "",
    "phone_number": "+48726000030",
    "source_url": "https://www.google.com/maps/place/Deszczownie.com/data=!4m7!3m6!1s0x4704f3f35b773555:0xf1db2204c73406ea!8m2!3d52.3623948!4d17.4021087!16s%2Fg%2F11y3pv4rxr!19sChIJVTV3W_PzBEcR6gY0xwQi2_E?authuser=0&hl=tr&rclk=1",
    "website_url": "",
    "rating_text": "",
    "stars": null,
    "number_of_reviews": null,
    "price_level": "",
    "open_hours": "",
    "extraction_timestamp": "2025-06-07T17:48:39.025Z",
    "source_name": "google",
    "source_query": "Irrigation Equipment",
    "source_country": "PL",
    "country": "Poland",
    "state": "Greater Poland Voivodeship",
    "city": "Powiat średzki"
  },
  {
    "source_id": "ChIJS74Y7nL9BEcRATf6fAXnzHo",
    "name": "ROLKA - trawniki i nawadniania - Trawa z rolki Poznań",
    "category": "ROLKA - trawniki i nawadniania - Trawa z rolki Poznań",
    "formatted_address": "4,8(25)",
    "phone_number": "+48730311000",
    "source_url": "https://www.google.com/maps/place/ROLKA+-+trawniki+i+nawadniania+-+Trawa+z+rolki+Pozna%C5%84/data=!4m7!3m6!1s0x4704fd72ee18be4b:0x7acce7057cfa3701!8m2!3d52.2468105!4d17.4843038!16s%2Fg%2F11xs837pl!19sChIJS74Y7nL9BEcRATf6fAXnzHo?authuser=0&hl=tr&rclk=1",
    "website_url": "",
    "rating_text": "4,8",
    "stars": null,
    "number_of_reviews": null,
    "price_level": "",
    "open_hours": "",
    "extraction_timestamp": "2025-06-07T17:48:39.026Z",
    "source_name": "google",
    "source_query": "Irrigation Equipment",
    "source_country": "PL",
    "country": "Poland",
    "state": "Greater Poland Voivodeship",
    "city": "Powiat średzki"
  },
  {
    "source_id": "ChIJy5KFaOz7BEcRmXpRVHnwyjU",
    "name": "Action Środa Wielkopolska",
    "category": "Action Środa Wielkopolska",
    "formatted_address": "4,5(188)",
    "phone_number": "+48326305898",
    "source_url": "https://www.google.com/maps/place/Action+%C5%9Aroda+Wielkopolska/data=!4m7!3m6!1s0x4704fbec688592cb:0x35caf07954517a99!8m2!3d52.2296566!4d17.2773713!16s%2Fg%2F11nntyggr5!19sChIJy5KFaOz7BEcRmXpRVHnwyjU?authuser=0&hl=tr&rclk=1",
    "website_url": "",
    "rating_text": "4,5",
    "stars": null,
    "number_of_reviews": null,
    "price_level": "",
    "open_hours": "",
    "extraction_timestamp": "2025-06-07T17:48:39.026Z",
    "source_name": "google",
    "source_query": "Irrigation Equipment",
    "source_country": "PL",
    "country": "Poland",
    "state": "Greater Poland Voivodeship",
    "city": "Powiat średzki"
  },
  {
    "source_id": "ChIJXzIODEf7BEcRVVNDTBQgqYA",
    "name": "Balcerek D., Białowąs B. Centrala Nasienna Sp.j",
    "category": "Balcerek D., Białowąs B. Centrala Nasienna Sp.j",
    "formatted_address": "Balcerek D., Białowąs B. Centrala Nasienna Sp.j",
    "phone_number": "+48612855981",
    "source_url": "https://www.google.com/maps/place/Balcerek+D.,+Bia%C5%82ow%C4%85s+B.+Centrala+Nasienna+Sp.j/data=!4m7!3m6!1s0x4704fb470c0e325f:0x80a920144c435355!8m2!3d52.2214321!4d17.2934128!16s%2Fg%2F1vlz91k2!19sChIJXzIODEf7BEcRVVNDTBQgqYA?authuser=0&hl=tr&rclk=1",
    "website_url": "",
    "rating_text": "4,6",
    "stars": null,
    "number_of_reviews": null,
    "price_level": "",
    "open_hours": "",
    "extraction_timestamp": "2025-06-07T17:48:39.026Z",
    "source_name": "google",
    "source_query": "Irrigation Equipment",
    "source_country": "PL",
    "country": "Poland",
    "state": "Greater Poland Voivodeship",
    "city": "Powiat średzki"
  },
  {
    "source_id": "ChIJtWcFLp3pBEcRLsKDqolJIng",
    "name": "TEST INSTALACJE – Hurtownia instalacyjna Września",
    "category": "TEST INSTALACJE – Hurtownia instalacyjna Września",
    "formatted_address": "4,7(33)",
    "phone_number": "+48616394733",
    "source_url": "https://www.google.com/maps/place/TEST+INSTALACJE+%E2%80%93+Hurtownia+instalacyjna+Wrze%C5%9Bnia/data=!4m7!3m6!1s0x4704e99d2e0567b5:0x78224989aa83c22e!8m2!3d52.3216706!4d17.5802512!16s%2Fg%2F11c50569y3!19sChIJtWcFLp3pBEcRLsKDqolJIng?authuser=0&hl=tr&rclk=1",
    "website_url": "",
    "rating_text": "4,7",
    "stars": null,
    "number_of_reviews": null,
    "price_level": "",
    "open_hours": "",
    "extraction_timestamp": "2025-06-07T17:48:39.026Z",
    "source_name": "google",
    "source_query": "Irrigation Equipment",
    "source_country": "PL",
    "country": "Poland",
    "state": "Greater Poland Voivodeship",
    "city": "Powiat średzki"
  },
  {
    "source_id": "ChIJY9wCcAlXBEcRvKXvN3Wjnqw",
    "name": "SUCHA POSADZKA - Osuszanie budynków | Wynajem osuszaczy",
    "category": "SUCHA POSADZKA - Osuszanie budynków | Wynajem osuszaczy",
    "formatted_address": "5,0(70)",
    "phone_number": "+48534326870",
    "source_url": "https://www.google.com/maps/place/SUCHA+POSADZKA+-+Osuszanie+budynk%C3%B3w+%7C+Wynajem+osuszaczy/data=!4m7!3m6!1s0x470457097002dc63:0xac9ea37537efa5bc!8m2!3d52.2552332!4d17.0639886!16s%2Fg%2F11r6vhn4l1!19sChIJY9wCcAlXBEcRvKXvN3Wjnqw?authuser=0&hl=tr&rclk=1",
    "website_url": "",
    "rating_text": "5,0",
    "stars": null,
    "number_of_reviews": null,
    "price_level": "",
    "open_hours": "",
    "extraction_timestamp": "2025-06-07T17:48:39.027Z",
    "source_name": "google",
    "source_query": "Irrigation Equipment",
    "source_country": "PL",
    "country": "Poland",
    "state": "Greater Poland Voivodeship",
    "city": "Powiat średzki"
  },
  {
    "source_id": "ChIJUfz2O5z7BEcRQIW8CtLDcA8",
    "name": "Firma GREENPLAN",
    "category": "Firma GREENPLAN",
    "formatted_address": "",
    "phone_number": "+48601750348",
    "source_url": "https://www.google.com/maps/place/Firma+GREENPLAN/data=!4m7!3m6!1s0x4704fb9c3bf6fc51:0xf70c3d20abc8540!8m2!3d51.7501812!4d16.7016812!16s%2Fg%2F1tlvn6x9!19sChIJUfz2O5z7BEcRQIW8CtLDcA8?authuser=0&hl=tr&rclk=1",
    "website_url": "",
    "rating_text": "",
    "stars": null,
    "number_of_reviews": null,
    "price_level": "",
    "open_hours": "",
    "extraction_timestamp": "2025-06-07T17:48:39.027Z",
    "source_name": "google",
    "source_query": "Irrigation Equipment",
    "source_country": "PL",
    "country": "Poland",
    "state": "Greater Poland Voivodeship",
    "city": "Powiat średzki"
  },
  {
    "source_id": "ChIJiyePc2r7BEcRKbTgeodGZbo",
    "name": "Green Bike Poland S.C.",
    "category": "Green Bike Poland S.C.",
    "formatted_address": "3,3(63)",
    "phone_number": "+48612853390",
    "source_url": "https://www.google.com/maps/place/Green+Bike+Poland+S.C./data=!4m7!3m6!1s0x4704fb6a738f278b:0xba6546877ae0b429!8m2!3d52.2209484!4d17.2811233!16s%2Fg%2F1hhk5qq0d!19sChIJiyePc2r7BEcRKbTgeodGZbo?authuser=0&hl=tr&rclk=1",
    "website_url": "",
    "rating_text": "3,3",
    "stars": null,
    "number_of_reviews": null,
    "price_level": "",
    "open_hours": "",
    "extraction_timestamp": "2025-06-07T17:48:39.027Z",
    "source_name": "google",
    "source_query": "Irrigation Equipment",
    "source_country": "PL",
    "country": "Poland",
    "state": "Greater Poland Voivodeship",
    "city": "Powiat średzki"
  },
  {
    "source_id": "ChIJzxUl_lj7BEcR2k4RlO6Mn2I",
    "name": "TIKO PLUS Janusz Nitsche. Technika grzewcza i sanitarna.",
    "category": "TIKO PLUS Janusz Nitsche. Technika grzewcza i sanitarna.",
    "formatted_address": "",
    "phone_number": "+48690099099",
    "source_url": "https://www.google.com/maps/place/TIKO+PLUS+Janusz+Nitsche.+Technika+grzewcza+i+sanitarna./data=!4m7!3m6!1s0x4704fb58fe2515cf:0x629f8cee94114eda!8m2!3d52.2291675!4d17.2669237!16s%2Fg%2F11w3gh9fth!19sChIJzxUl_lj7BEcR2k4RlO6Mn2I?authuser=0&hl=tr&rclk=1",
    "website_url": "",
    "rating_text": "",
    "stars": null,
    "number_of_reviews": null,
    "price_level": "",
    "open_hours": "",
    "extraction_timestamp": "2025-06-07T17:48:39.028Z",
    "source_name": "google",
    "source_query": "Irrigation Equipment",
    "source_country": "PL",
    "country": "Poland",
    "state": "Greater Poland Voivodeship",
    "city": "Powiat średzki"
  },
  {
    "source_id": "ChIJn0a4erv4BEcRNcQZ15h0ves",
    "name": "Fountain",
    "category": "Fountain",
    "formatted_address": "4,6(203)",
    "phone_number": "",
    "source_url": "https://www.google.com/maps/place/Fountain/data=!4m7!3m6!1s0x4704f8bb7ab8469f:0xebbd7498d719c435!8m2!3d52.2476919!4d17.0889508!16s%2Fg%2F11hcz1nd8r!19sChIJn0a4erv4BEcRNcQZ15h0ves?authuser=0&hl=tr&rclk=1",
    "website_url": "",
    "rating_text": "4,6",
    "stars": null,
    "number_of_reviews": null,
    "price_level": "",
    "open_hours": "",
    "extraction_timestamp": "2025-06-07T17:48:39.028Z",
    "source_name": "google",
    "source_query": "Irrigation Equipment",
    "source_country": "PL",
    "country": "Poland",
    "state": "Greater Poland Voivodeship",
    "city": "Powiat średzki"
  },
  {
    "source_id": "ChIJXw5MZYOhBUcR7q_WvkLcIW4",
    "name": "Sklep spożywczo-przemysłowy \"OLA\" Barbara Janiszewska",
    "category": "Sklep spożywczo-przemysłowy \"OLA\" Barbara Janiszewska",
    "formatted_address": "4,7(13)",
    "phone_number": "+48691672423",
    "source_url": "https://www.google.com/maps/place/Sklep+spo%C5%BCywczo-przemys%C5%82owy+%22OLA%22+Barbara+Janiszewska/data=!4m7!3m6!1s0x4705a183654c0e5f:0x6e21dc42bed6afee!8m2!3d51.8578609!4d16.8222517!16s%2Fg%2F11pc7db4dx!19sChIJXw5MZYOhBUcR7q_WvkLcIW4?authuser=0&hl=tr&rclk=1",
    "website_url": "",
    "rating_text": "4,7",
    "stars": null,
    "number_of_reviews": null,
    "price_level": "",
    "open_hours": "",
    "extraction_timestamp": "2025-06-07T17:48:39.028Z",
    "source_name": "google",
    "source_query": "Irrigation Equipment",
    "source_country": "PL",
    "country": "Poland",
    "state": "Greater Poland Voivodeship",
    "city": "Powiat średzki"
  },
  {
    "source_id": "ChIJaSPAdctOPEcRjT-skVQebEk",
    "name": "Maciej Roszyk",
    "category": "Maciej Roszyk",
    "formatted_address": "4,6(32)",
    "phone_number": "+48616583042",
    "source_url": "https://www.google.com/maps/place/Maciej+Roszyk/data=!4m7!3m6!1s0x473c4ecb75c02369:0x496c1e5491ac3f8d!8m2!3d52.1358623!4d17.3075929!16s%2Fg%2F1ptvt87cj!19sChIJaSPAdctOPEcRjT-skVQebEk?authuser=0&hl=tr&rclk=1",
    "website_url": "",
    "rating_text": "4,6",
    "stars": null,
    "number_of_reviews": null,
    "price_level": "",
    "open_hours": "",
    "extraction_timestamp": "2025-06-07T17:48:39.028Z",
    "source_name": "google",
    "source_query": "Irrigation Equipment",
    "source_country": "PL",
    "country": "Poland",
    "state": "Greater Poland Voivodeship",
    "city": "Powiat średzki"
  },
  {
    "source_id": "ChIJhe-sucDjBEcRqAQTFXsWb7I",
    "name": "Hand-Meats Polowczyk Sp.z.o.o.",
    "category": "Hand-Meats Polowczyk Sp.z.o.o.",
    "formatted_address": "4,6(152)",
    "phone_number": "+48612863608",
    "source_url": "https://www.google.com/maps/place/Hand-Meats+Polowczyk+Sp.z.o.o./data=!4m7!3m6!1s0x4704e3c0b9acef85:0xb26f167b151304a8!8m2!3d52.1635284!4d17.3809641!16s%2Fg%2F1tgn_hpn!19sChIJhe-sucDjBEcRqAQTFXsWb7I?authuser=0&hl=tr&rclk=1",
    "website_url": "",
    "rating_text": "4,6",
    "stars": null,
    "number_of_reviews": null,
    "price_level": "",
    "open_hours": "",
    "extraction_timestamp": "2025-06-07T17:48:39.029Z",
    "source_name": "google",
    "source_query": "Irrigation Equipment",
    "source_country": "PL",
    "country": "Poland",
    "state": "Greater Poland Voivodeship",
    "city": "Powiat średzki"
  },
  {
    "source_id": "ChIJB6y_v5J2HEcRlDfYx3xmc9M",
    "name": "Milex irrigation systems",
    "category": "Milex irrigation systems",
    "formatted_address": "4,6(37)",
    "phone_number": "+48242775222",
    "source_url": "https://www.google.com/maps/place/Milex+irrigation+systems/data=!4m7!3m6!1s0x471c7692bfbfac07:0xd373667cc7d83794!8m2!3d52.4690634!4d19.7520904!16s%2Fg%2F1w2yy67r!19sChIJB6y_v5J2HEcRlDfYx3xmc9M?authuser=0&hl=tr&rclk=1",
    "website_url": "",
    "rating_text": "4,6",
    "stars": null,
    "number_of_reviews": null,
    "price_level": "",
    "open_hours": "",
    "extraction_timestamp": "2025-06-07T17:48:39.029Z",
    "source_name": "google",
    "source_query": "Irrigation Equipment",
    "source_country": "PL",
    "country": "Poland",
    "state": "Greater Poland Voivodeship",
    "city": "Powiat średzki"
  },
  {
    "source_id": "ChIJQYZYU_daBEcRrc4mt6dBBko",
    "name": "HYDROGLOBAL - Przemyślane rozwiązania dla ujęć wody",
    "category": "HYDROGLOBAL - Przemyślane rozwiązania dla ujęć wody",
    "formatted_address": "4,5(8)",
    "phone_number": "+48612785475",
    "source_url": "https://www.google.com/maps/place/HYDROGLOBAL+-+Przemy%C5%9Blane+rozwi%C4%85zania+dla+uj%C4%99%C4%87+wody/data=!4m7!3m6!1s0x47045af753588641:0x4a0641a7b726cead!8m2!3d52.4872791!4d16.8563292!16s%2Fg%2F1wzt11_h!19sChIJQYZYU_daBEcRrc4mt6dBBko?authuser=0&hl=tr&rclk=1",
    "website_url": "",
    "rating_text": "4,5",
    "stars": null,
    "number_of_reviews": null,
    "price_level": "",
    "open_hours": "",
    "extraction_timestamp": "2025-06-07T17:48:39.029Z",
    "source_name": "google",
    "source_query": "Irrigation Equipment",
    "source_country": "PL",
    "country": "Poland",
    "state": "Greater Poland Voivodeship",
    "city": "Powiat średzki"
  },
  {
    "source_id": "ChIJvY2TaXdzBUcRmCTLPjPE-rk",
    "name": "Sklep spożywczo-warzywniczy ''u Pawła\"",
    "category": "Sklep spożywczo-warzywniczy ''u Pawła\"",
    "formatted_address": "4,0(12)",
    "phone_number": "",
    "source_url": "https://www.google.com/maps/place/Sklep+spo%C5%BCywczo-warzywniczy+%27%27u+Paw%C5%82a%22/data=!4m7!3m6!1s0x4705737769938dbd:0xb9fac4333ecb2498!8m2!3d51.7718487!4d16.9801319!16s%2Fg%2F11gjq1xrhk!19sChIJvY2TaXdzBUcRmCTLPjPE-rk?authuser=0&hl=tr&rclk=1",
    "website_url": "",
    "rating_text": "4,0",
    "stars": null,
    "number_of_reviews": null,
    "price_level": "",
    "open_hours": "",
    "extraction_timestamp": "2025-06-07T17:48:39.029Z",
    "source_name": "google",
    "source_query": "Irrigation Equipment",
    "source_country": "PL",
    "country": "Poland",
    "state": "Greater Poland Voivodeship",
    "city": "Powiat średzki"
  },
  {
    "source_id": "ChIJ-ftLg7EXBEcRJrnqe3P14Hc",
    "name": "Stylowy Ogrodnik. Usługi ogrodnicze. Systemy nawadniające",
    "category": "Stylowy Ogrodnik. Usługi ogrodnicze. Systemy nawadniające",
    "formatted_address": "5,0(16)",
    "phone_number": "+48792772881",
    "source_url": "https://www.google.com/maps/place/Stylowy+Ogrodnik.+Us%C5%82ugi+ogrodnicze.+Systemy+nawadniaj%C4%85ce/data=!4m7!3m6!1s0x470417b1834bfbf9:0x77e0f5737beab926!8m2!3d52.5973027!4d16.6115318!16s%2Fg%2F11h0_9y4dl!19sChIJ-ftLg7EXBEcRJrnqe3P14Hc?authuser=0&hl=tr&rclk=1",
    "website_url": "",
    "rating_text": "5,0",
    "stars": null,
    "number_of_reviews": null,
    "price_level": "",
    "open_hours": "",
    "extraction_timestamp": "2025-06-07T17:48:39.030Z",
    "source_name": "google",
    "source_query": "Irrigation Equipment",
    "source_country": "PL",
    "country": "Poland",
    "state": "Greater Poland Voivodeship",
    "city": "Powiat średzki"
  }
]
