[
  {
    "source_id": "ChIJO2d49raxBUcRHriyI3TvyWg",
    "name": "GASPIR. Gazy Techniczne, Materiały Spawalnicze",
    "category": "GASPIR. Gazy Techniczne, Materiały Spawalnicze",
    "formatted_address": "GASPIR. Gazy Techniczne, Materiały Spawalnicze",
    "phone_number": "+48516647499",
    "source_url": "https://www.google.com/maps/place/GASPIR.+Gazy+Techniczne,+Materia%C5%82y+Spawalnicze/data=!4m7!3m6!1s0x4705b1b6f678673b:0x68c9ef7423b2b81e!8m2!3d52.0830208!4d16.6665515!16s%2Fg%2F1thly46q!19sChIJO2d49raxBUcRHriyI3TvyWg?authuser=0&hl=tr&rclk=1",
    "website_url": "http://www.gaspir.pl/",
    "rating_text": "4,9",
    "stars": null,
    "number_of_reviews": null,
    "price_level": "",
    "open_hours": "",
    "extraction_timestamp": "2025-06-07T17:49:44.484Z",
    "source_name": "google",
    "source_query": "Irrigation Equipment",
    "source_country": "PL",
    "country": "Poland",
    "state": "Greater Poland Voivodeship",
    "city": "Powiat kościański"
  },
  {
    "source_id": "ChIJJX4kdP6oBUcRgBCQ2j4_m7g",
    "name": "INSTAL-FILTER SA Industrial Systems Air Protection",
    "category": "INSTAL-FILTER SA Industrial Systems Air Protection",
    "formatted_address": "3,3(10)",
    "phone_number": "+48655351200",
    "source_url": "https://www.google.com/maps/place/INSTAL-FILTER+SA+Industrial+Systems+Air+Protection/data=!4m7!3m6!1s0x4705a8fe74247e25:0xb89b3f3eda901080!8m2!3d52.0898624!4d16.6636458!16s%2Fg%2F11c52ybp21!19sChIJJX4kdP6oBUcRgBCQ2j4_m7g?authuser=0&hl=tr&rclk=1",
    "website_url": "http://instalfilter.pl/",
    "rating_text": "3,3",
    "stars": null,
    "number_of_reviews": null,
    "price_level": "",
    "open_hours": "",
    "extraction_timestamp": "2025-06-07T17:49:44.486Z",
    "source_name": "google",
    "source_query": "Irrigation Equipment",
    "source_country": "PL",
    "country": "Poland",
    "state": "Greater Poland Voivodeship",
    "city": "Powiat kościański"
  },
  {
    "source_id": "ChIJZ5rkM3OxBUcRZpPh1o1dyFQ",
    "name": "Undersun Kościan FOTOWOLTAIKA KLIMATYZACJE POMPY CIEPŁA",
    "category": "Undersun Kościan FOTOWOLTAIKA KLIMATYZACJE POMPY CIEPŁA",
    "formatted_address": "5,0(12)",
    "phone_number": "+48575107003",
    "source_url": "https://www.google.com/maps/place/Undersun+Ko%C5%9Bcian+FOTOWOLTAIKA+KLIMATYZACJE+POMPY+CIEP%C5%81A/data=!4m7!3m6!1s0x4705b17333e49a67:0x54c85d8dd6e19366!8m2!3d52.090604!4d16.663888!16s%2Fg%2F11fcqfljhj!19sChIJZ5rkM3OxBUcRZpPh1o1dyFQ?authuser=0&hl=tr&rclk=1",
    "website_url": "http://www.undersun.pl/",
    "rating_text": "5,0",
    "stars": null,
    "number_of_reviews": null,
    "price_level": "",
    "open_hours": "",
    "extraction_timestamp": "2025-06-07T17:49:44.488Z",
    "source_name": "google",
    "source_query": "Irrigation Equipment",
    "source_country": "PL",
    "country": "Poland",
    "state": "Greater Poland Voivodeship",
    "city": "Powiat kościański"
  },
  {
    "source_id": "ChIJq0Vq4duxBUcRMlPjmwh2sGY",
    "name": "Eco- Instal Sp. z o.o.",
    "category": "Eco- Instal Sp. z o.o.",
    "formatted_address": "3,2(10)",
    "phone_number": "+48655120595",
    "source_url": "https://www.google.com/maps/place/Eco-+Instal+Sp.+z+o.o./data=!4m7!3m6!1s0x4705b1dbe16a45ab:0x66b076089be35332!8m2!3d52.0787181!4d16.6648457!16s%2Fg%2F11j0kgwgf9!19sChIJq0Vq4duxBUcRMlPjmwh2sGY?authuser=0&hl=tr&rclk=1",
    "website_url": "",
    "rating_text": "3,2",
    "stars": null,
    "number_of_reviews": null,
    "price_level": "",
    "open_hours": "",
    "extraction_timestamp": "2025-06-07T17:49:44.489Z",
    "source_name": "google",
    "source_query": "Irrigation Equipment",
    "source_country": "PL",
    "country": "Poland",
    "state": "Greater Poland Voivodeship",
    "city": "Powiat kościański"
  },
  {
    "source_id": "ChIJMZFb0BSxBUcR6jk6m8OIGsg",
    "name": "Hg-Technika Przedsiębiorstwo Wielobranżowe Hubert Gidaszewski",
    "category": "Hg-Technika Przedsiębiorstwo Wielobranżowe Hubert Gidaszewski",
    "formatted_address": "5,0(2)",
    "phone_number": "+48513105441",
    "source_url": "https://www.google.com/maps/place/Hg-Technika+Przedsi%C4%99biorstwo+Wielobran%C5%BCowe+Hubert+Gidaszewski/data=!4m7!3m6!1s0x4705b114d05b9131:0xc81a88c39b3a39ea!8m2!3d52.081759!4d16.632003!16s%2Fg%2F11h008k2lm!19sChIJMZFb0BSxBUcR6jk6m8OIGsg?authuser=0&hl=tr&rclk=1",
    "website_url": "",
    "rating_text": "5,0",
    "stars": null,
    "number_of_reviews": null,
    "price_level": "",
    "open_hours": "",
    "extraction_timestamp": "2025-06-07T17:49:44.490Z",
    "source_name": "google",
    "source_query": "Irrigation Equipment",
    "source_country": "PL",
    "country": "Poland",
    "state": "Greater Poland Voivodeship",
    "city": "Powiat kościański"
  },
  {
    "source_id": "ChIJ82JFNviwBUcR5dOjwi7tqEs",
    "name": "Drwal-Dom, Jakub Glumiński, Autoryzowany Srebrny Diler Husqvarna",
    "category": "Drwal-Dom, Jakub Glumiński, Autoryzowany Srebrny Diler Husqvarna",
    "formatted_address": "Drwal-Dom, Jakub Glumiński, Autoryzowany Srebrny Diler Husqvarna",
    "phone_number": "+48668514810",
    "source_url": "https://www.google.com/maps/place/Drwal-Dom,+Jakub+Glumi%C5%84ski,+Autoryzowany+Srebrny+Diler+Husqvarna/data=!4m7!3m6!1s0x4705b0f8364562f3:0x4ba8ed2ec2a3d3e5!8m2!3d52.0721812!4d16.6327232!16s%2Fg%2F11clv6cjtv!19sChIJ82JFNviwBUcR5dOjwi7tqEs?authuser=0&hl=tr&rclk=1",
    "website_url": "https://drwaldom.pl/",
    "rating_text": "4,5",
    "stars": null,
    "number_of_reviews": null,
    "price_level": "",
    "open_hours": "",
    "extraction_timestamp": "2025-06-07T17:49:44.492Z",
    "source_name": "google",
    "source_query": "Irrigation Equipment",
    "source_country": "PL",
    "country": "Poland",
    "state": "Greater Poland Voivodeship",
    "city": "Powiat kościański"
  },
  {
    "source_id": "ChIJCZbhCrKxBUcR8d4vxIrpIl4",
    "name": "PSB Profi MAG-MIR",
    "category": "PSB Profi MAG-MIR",
    "formatted_address": "4,3(255)",
    "phone_number": "+48887680508",
    "source_url": "https://www.google.com/maps/place/PSB+Profi+MAG-MIR/data=!4m7!3m6!1s0x4705b1b20ae19609:0x5e22e98ac42fdef1!8m2!3d52.0812735!4d16.6556508!16s%2Fg%2F1tgh6859!19sChIJCZbhCrKxBUcR8d4vxIrpIl4?authuser=0&hl=tr&rclk=1",
    "website_url": "https://www.grupapsb.com.pl/sklep-psb-profi/mag-mir-koscian.html",
    "rating_text": "4,3",
    "stars": null,
    "number_of_reviews": null,
    "price_level": "",
    "open_hours": "",
    "extraction_timestamp": "2025-06-07T17:49:44.493Z",
    "source_name": "google",
    "source_query": "Irrigation Equipment",
    "source_country": "PL",
    "country": "Poland",
    "state": "Greater Poland Voivodeship",
    "city": "Powiat kościański"
  },
  {
    "source_id": "ChIJuWyCKbGxBUcRgB9_L_1p8C8",
    "name": "Marhem. PHU. Sprzedaż płytek ceramicznych, art. wyposażenia łazienek",
    "category": "Marhem. PHU. Sprzedaż płytek ceramicznych, art. wyposażenia łazienek",
    "formatted_address": "Marhem. PHU. Sprzedaż płytek ceramicznych, art. wyposażenia łazienek",
    "phone_number": "+48665300899",
    "source_url": "https://www.google.com/maps/place/Marhem.+PHU.+Sprzeda%C5%BC+p%C5%82ytek+ceramicznych,+art.+wyposa%C5%BCenia+%C5%82azienek/data=!4m7!3m6!1s0x4705b1b129826cb9:0x2ff069fd2f7f1f80!8m2!3d52.0837209!4d16.6655608!16s%2Fg%2F1tx45r79!19sChIJuWyCKbGxBUcRgB9_L_1p8C8?authuser=0&hl=tr&rclk=1",
    "website_url": "http://marhem.pl/",
    "rating_text": "4,6",
    "stars": null,
    "number_of_reviews": null,
    "price_level": "",
    "open_hours": "",
    "extraction_timestamp": "2025-06-07T17:49:44.494Z",
    "source_name": "google",
    "source_query": "Irrigation Equipment",
    "source_country": "PL",
    "country": "Poland",
    "state": "Greater Poland Voivodeship",
    "city": "Powiat kościański"
  },
  {
    "source_id": "ChIJ5UmeYgexBUcRSwlyEubFhHE",
    "name": "Kooltech Sp. z o.o.",
    "category": "Kooltech Sp. z o.o.",
    "formatted_address": "5,0(2)",
    "phone_number": "+48661316312",
    "source_url": "https://www.google.com/maps/place/Kooltech+Sp.+z+o.o./data=!4m7!3m6!1s0x4705b107629e49e5:0x7184c5e61272094b!8m2!3d52.086256!4d16.6436572!16s%2Fg%2F1tyzxprf!19sChIJ5UmeYgexBUcRSwlyEubFhHE?authuser=0&hl=tr&rclk=1",
    "website_url": "http://kooltech.pl/",
    "rating_text": "5,0",
    "stars": null,
    "number_of_reviews": null,
    "price_level": "",
    "open_hours": "",
    "extraction_timestamp": "2025-06-07T17:49:44.495Z",
    "source_name": "google",
    "source_query": "Irrigation Equipment",
    "source_country": "PL",
    "country": "Poland",
    "state": "Greater Poland Voivodeship",
    "city": "Powiat kościański"
  },
  {
    "source_id": "ChIJKasctIS5BUcReGZjmggxnME",
    "name": "Firma Handlowa RYNMAR Tadeusz Cichoszewski",
    "category": "Firma Handlowa RYNMAR Tadeusz Cichoszewski",
    "formatted_address": "4,8(4)",
    "phone_number": "+48655180598",
    "source_url": "https://www.google.com/maps/place/Firma+Handlowa+RYNMAR+Tadeusz+Cichoszewski/data=!4m7!3m6!1s0x4705b984b41cab29:0xc19c31089a636678!8m2!3d52.0159304!4d16.5205747!16s%2Fg%2F1tlc6s5w!19sChIJKasctIS5BUcReGZjmggxnME?authuser=0&hl=tr&rclk=1",
    "website_url": "http://www.rynmar.pl/",
    "rating_text": "4,8",
    "stars": null,
    "number_of_reviews": null,
    "price_level": "",
    "open_hours": "",
    "extraction_timestamp": "2025-06-07T17:49:44.497Z",
    "source_name": "google",
    "source_query": "Irrigation Equipment",
    "source_country": "PL",
    "country": "Poland",
    "state": "Greater Poland Voivodeship",
    "city": "Powiat kościański"
  },
  {
    "source_id": "ChIJwZBfLLKxBUcRFPKPzx49HLk",
    "name": "Widpol - serwis wózków widłowych - naprawa i wynajem",
    "category": "Widpol - serwis wózków widłowych - naprawa i wynajem",
    "formatted_address": "4,7(32)",
    "phone_number": "+48655120906",
    "source_url": "https://www.google.com/maps/place/Widpol+-+serwis+w%C3%B3zk%C3%B3w+wid%C5%82owych+-+naprawa+i+wynajem/data=!4m7!3m6!1s0x4705b1b22c5f90c1:0xb91c3d1ecf8ff214!8m2!3d52.081409!4d16.660608!16s%2Fg%2F11h13rsft!19sChIJwZBfLLKxBUcRFPKPzx49HLk?authuser=0&hl=tr&rclk=1",
    "website_url": "http://www.widpol.pl/",
    "rating_text": "4,7",
    "stars": null,
    "number_of_reviews": null,
    "price_level": "",
    "open_hours": "",
    "extraction_timestamp": "2025-06-07T17:49:44.498Z",
    "source_name": "google",
    "source_query": "Irrigation Equipment",
    "source_country": "PL",
    "country": "Poland",
    "state": "Greater Poland Voivodeship",
    "city": "Powiat kościański"
  },
  {
    "source_id": "ChIJ3ekFLLKxBUcRohhDbUccTY8",
    "name": "TomAqua Dystrybutory wody Dostawa i serwis Tomasz Grajewski",
    "category": "TomAqua Dystrybutory wody Dostawa i serwis Tomasz Grajewski",
    "formatted_address": "",
    "phone_number": "+48608063294",
    "source_url": "https://www.google.com/maps/place/TomAqua+Dystrybutory+wody+Dostawa+i+serwis+Tomasz+Grajewski/data=!4m7!3m6!1s0x4705b1b22c05e9dd:0x8f4d1c476d4318a2!8m2!3d52.0881428!4d16.6540138!16s%2Fg%2F11k9s4y0q9!19sChIJ3ekFLLKxBUcRohhDbUccTY8?authuser=0&hl=tr&rclk=1",
    "website_url": "",
    "rating_text": "",
    "stars": null,
    "number_of_reviews": null,
    "price_level": "",
    "open_hours": "",
    "extraction_timestamp": "2025-06-07T17:49:44.499Z",
    "source_name": "google",
    "source_query": "Irrigation Equipment",
    "source_country": "PL",
    "country": "Poland",
    "state": "Greater Poland Voivodeship",
    "city": "Powiat kościański"
  },
  {
    "source_id": "ChIJNwJou0JO3IoRaKzcaTqacO4",
    "name": "Genialny Ogród-Usługi Ogrodnicze",
    "category": "Genialny Ogród-Usługi Ogrodnicze",
    "formatted_address": "4,8(20)",
    "phone_number": "+48530136216",
    "source_url": "https://www.google.com/maps/place/Genialny+Ogr%C3%B3d-Us%C5%82ugi+Ogrodnicze/data=!4m7!3m6!1s0x8adc4e42bb680237:0xee709a3a69dcac68!8m2!3d52.0287216!4d16.6648398!16s%2Fg%2F11l6dd3z4t!19sChIJNwJou0JO3IoRaKzcaTqacO4?authuser=0&hl=tr&rclk=1",
    "website_url": "https://www.facebook.com/genialniogrodnicy",
    "rating_text": "4,8",
    "stars": null,
    "number_of_reviews": null,
    "price_level": "",
    "open_hours": "",
    "extraction_timestamp": "2025-06-07T17:49:44.533Z",
    "source_name": "google",
    "source_query": "Irrigation Equipment",
    "source_country": "PL",
    "country": "Poland",
    "state": "Greater Poland Voivodeship",
    "city": "Powiat kościański"
  },
  {
    "source_id": "ChIJfcZU2WCxBUcRc22OQHtS5is",
    "name": "Brukarstwo-ogrodzenia - Remonty - Wykończenia Wnętrz - usługi remontowo-budowlane Piotr Leśny Kościan",
    "category": "Brukarstwo-ogrodzenia - Remonty - Wykończenia Wnętrz - usługi remontowo-budowlane Piotr Leśny Kościan",
    "formatted_address": "4,7(14)",
    "phone_number": "+48608030713",
    "source_url": "https://www.google.com/maps/place/Brukarstwo-ogrodzenia+-+Remonty+-+Wyko%C5%84czenia+Wn%C4%99trz+-+us%C5%82ugi+remontowo-budowlane+Piotr+Le%C5%9Bny+Ko%C5%9Bcian/data=!4m7!3m6!1s0x4705b160d954c67d:0x2be6527b408e6d73!8m2!3d52.0856924!4d16.6432254!16s%2Fg%2F11vjfn0sby!19sChIJfcZU2WCxBUcRc22OQHtS5is?authuser=0&hl=tr&rclk=1",
    "website_url": "",
    "rating_text": "4,7",
    "stars": null,
    "number_of_reviews": null,
    "price_level": "",
    "open_hours": "",
    "extraction_timestamp": "2025-06-07T17:49:44.535Z",
    "source_name": "google",
    "source_query": "Irrigation Equipment",
    "source_country": "PL",
    "country": "Poland",
    "state": "Greater Poland Voivodeship",
    "city": "Powiat kościański"
  },
  {
    "source_id": "ChIJzw282KexBUcRzKac89fNzoI",
    "name": "GroomerShop.pl",
    "category": "GroomerShop.pl",
    "formatted_address": "4,8(250)",
    "phone_number": "+48616661220",
    "source_url": "https://www.google.com/maps/place/GroomerShop.pl/data=!4m7!3m6!1s0x4705b1a7d8bc0dcf:0x82cecdd7f39ca6cc!8m2!3d52.1026107!4d16.672981!16s%2Fg%2F1hm4d32rp!19sChIJzw282KexBUcRzKac89fNzoI?authuser=0&hl=tr&rclk=1",
    "website_url": "https://groomershop.pl/",
    "rating_text": "4,8",
    "stars": null,
    "number_of_reviews": null,
    "price_level": "",
    "open_hours": "",
    "extraction_timestamp": "2025-06-07T17:49:44.538Z",
    "source_name": "google",
    "source_query": "Irrigation Equipment",
    "source_country": "PL",
    "country": "Poland",
    "state": "Greater Poland Voivodeship",
    "city": "Powiat kościański"
  },
  {
    "source_id": "ChIJ45Sf37SxBUcRW2WIGhYIJ-U",
    "name": "Dorado sklep \"u Wiechcia\"",
    "category": "Dorado sklep \"u Wiechcia\"",
    "formatted_address": "4,3(1.100)",
    "phone_number": "+48655117385",
    "source_url": "https://www.google.com/maps/place/Dorado+sklep+%22u+Wiechcia%22/data=!4m7!3m6!1s0x4705b1b4df9f94e3:0xe52708161a88655b!8m2!3d52.0764689!4d16.666463!16s%2Fg%2F11b75jcqqp!19sChIJ45Sf37SxBUcRW2WIGhYIJ-U?authuser=0&hl=tr&rclk=1",
    "website_url": "http://www.uwiechcia.pl/",
    "rating_text": "4,3",
    "stars": null,
    "number_of_reviews": null,
    "price_level": "",
    "open_hours": "",
    "extraction_timestamp": "2025-06-07T17:49:44.542Z",
    "source_name": "google",
    "source_query": "Irrigation Equipment",
    "source_country": "PL",
    "country": "Poland",
    "state": "Greater Poland Voivodeship",
    "city": "Powiat kościański"
  },
  {
    "source_id": "ChIJgb9bwAyxBUcRbkzLVmoU4K0",
    "name": "OGRÓD-MAX Maciej Kaczmarek",
    "category": "OGRÓD-MAX Maciej Kaczmarek",
    "formatted_address": "4,3(21)",
    "phone_number": "+48601822699",
    "source_url": "https://www.google.com/maps/place/OGR%C3%93D-MAX+Maciej+Kaczmarek/data=!4m7!3m6!1s0x4705b10cc05bbf81:0xade0146a56cb4c6e!8m2!3d52.099415!4d16.6417199!16s%2Fg%2F11bxc6cnmj!19sChIJgb9bwAyxBUcRbkzLVmoU4K0?authuser=0&hl=tr&rclk=1",
    "website_url": "http://ogrod-max.pl/",
    "rating_text": "4,3",
    "stars": null,
    "number_of_reviews": null,
    "price_level": "",
    "open_hours": "",
    "extraction_timestamp": "2025-06-07T17:49:44.544Z",
    "source_name": "google",
    "source_query": "Irrigation Equipment",
    "source_country": "PL",
    "country": "Poland",
    "state": "Greater Poland Voivodeship",
    "city": "Powiat kościański"
  },
  {
    "source_id": "ChIJM8632fSfBUcRxb6JiOtd8pU",
    "name": "J.M.D Partner Serwis Pomp",
    "category": "J.M.D Partner Serwis Pomp",
    "formatted_address": "5,0(3)",
    "phone_number": "+48728310887",
    "source_url": "https://www.google.com/maps/place/J.M.D+Partner+Serwis+Pomp/data=!4m7!3m6!1s0x47059ff4d9b7ce33:0x95f25deb8889bec5!8m2!3d51.9725571!4d16.8275812!16s%2Fg%2F11sbl2ngqc!19sChIJM8632fSfBUcRxb6JiOtd8pU?authuser=0&hl=tr&rclk=1",
    "website_url": "http://www.jmd-partner.pl/",
    "rating_text": "5,0",
    "stars": null,
    "number_of_reviews": null,
    "price_level": "",
    "open_hours": "",
    "extraction_timestamp": "2025-06-07T17:49:44.545Z",
    "source_name": "google",
    "source_query": "Irrigation Equipment",
    "source_country": "PL",
    "country": "Poland",
    "state": "Greater Poland Voivodeship",
    "city": "Powiat kościański"
  },
  {
    "source_id": "ChIJ6wCBXuexBUcRpSgYHFnqm9c",
    "name": "Fungi-Chem Pianowo Sklep Ogrodniczy",
    "category": "Fungi-Chem Pianowo Sklep Ogrodniczy",
    "formatted_address": "4,6(70)",
    "phone_number": "+48606614833",
    "source_url": "https://www.google.com/maps/place/Fungi-Chem+Pianowo+Sklep+Ogrodniczy/data=!4m7!3m6!1s0x4705b1e75e8100eb:0xd79bea591c1828a5!8m2!3d52.1028945!4d16.671611!16s%2Fg%2F11j2yx3ytn!19sChIJ6wCBXuexBUcRpSgYHFnqm9c?authuser=0&hl=tr&rclk=1",
    "website_url": "https://fungichem.pl/",
    "rating_text": "4,6",
    "stars": null,
    "number_of_reviews": null,
    "price_level": "",
    "open_hours": "",
    "extraction_timestamp": "2025-06-07T17:49:44.547Z",
    "source_name": "google",
    "source_query": "Irrigation Equipment",
    "source_country": "PL",
    "country": "Poland",
    "state": "Greater Poland Voivodeship",
    "city": "Powiat kościański"
  },
  {
    "source_id": "ChIJg-dYDJ0JBUcRWiXQpHKgn04",
    "name": "BULUU Baseny i Ogrody Drozdek",
    "category": "BULUU Baseny i Ogrody Drozdek",
    "formatted_address": "5,0(12)",
    "phone_number": "+48725101584",
    "source_url": "https://www.google.com/maps/place/BULUU+Baseny+i+Ogrody+Drozdek/data=!4m7!3m6!1s0x4705099d0c58e783:0x4e9fa072a4d0255a!8m2!3d51.9794038!4d16.9387915!16s%2Fg%2F11lv8gz520!19sChIJg-dYDJ0JBUcRWiXQpHKgn04?authuser=0&hl=tr&rclk=1",
    "website_url": "",
    "rating_text": "5,0",
    "stars": null,
    "number_of_reviews": null,
    "price_level": "",
    "open_hours": "",
    "extraction_timestamp": "2025-06-07T17:49:44.548Z",
    "source_name": "google",
    "source_query": "Irrigation Equipment",
    "source_country": "PL",
    "country": "Poland",
    "state": "Greater Poland Voivodeship",
    "city": "Powiat kościański"
  },
  {
    "source_id": "ChIJudci_QJQBEcRlVnpAtMYNlk",
    "name": "Garden Center Straczkowscy",
    "category": "Garden Center Straczkowscy",
    "formatted_address": "4,4(308)",
    "phone_number": "",
    "source_url": "https://www.google.com/maps/place/Garden+Center+Straczkowscy/data=!4m7!3m6!1s0x47045002fd22d7b9:0x593618d302e95995!8m2!3d52.342706!4d16.871955!16s%2Fg%2F1v8y2r64!19sChIJudci_QJQBEcRlVnpAtMYNlk?authuser=0&hl=tr&rclk=1",
    "website_url": "http://www.straczkowscy.pl/",
    "rating_text": "4,4",
    "stars": null,
    "number_of_reviews": null,
    "price_level": "",
    "open_hours": "",
    "extraction_timestamp": "2025-06-07T17:49:44.549Z",
    "source_name": "google",
    "source_query": "Irrigation Equipment",
    "source_country": "PL",
    "country": "Poland",
    "state": "Greater Poland Voivodeship",
    "city": "Powiat kościański"
  },
  {
    "source_id": "ChIJWUf4xVxSBEcR8WyeuM9mWLI",
    "name": "Bereta Technika | Hydraulik Mosina",
    "category": "Bereta Technika | Hydraulik Mosina",
    "formatted_address": "5,0(25)",
    "phone_number": "+48576500012",
    "source_url": "https://www.google.com/maps/place/Bereta+Technika+%7C+Hydraulik+Mosina/data=!4m7!3m6!1s0x4704525cc5f84759:0xb25866cfb89e6cf1!8m2!3d52.2352642!4d16.8389866!16s%2Fg%2F11h6g1bjk1!19sChIJWUf4xVxSBEcR8WyeuM9mWLI?authuser=0&hl=tr&rclk=1",
    "website_url": "https://www.beretatechnika.pl/",
    "rating_text": "5,0",
    "stars": null,
    "number_of_reviews": null,
    "price_level": "",
    "open_hours": "",
    "extraction_timestamp": "2025-06-07T17:49:44.551Z",
    "source_name": "google",
    "source_query": "Irrigation Equipment",
    "source_country": "PL",
    "country": "Poland",
    "state": "Greater Poland Voivodeship",
    "city": "Powiat kościański"
  },
  {
    "source_id": "ChIJR5MBaxqxBUcRxEozbDpjuhk",
    "name": "Granit - Mar Usługi Kamieniarskie - cięcie płytek waterjet",
    "category": "Granit - Mar Usługi Kamieniarskie - cięcie płytek waterjet",
    "formatted_address": "4,3(30)",
    "phone_number": "+48655132929",
    "source_url": "https://www.google.com/maps/place/Granit+-+Mar+Us%C5%82ugi+Kamieniarskie+-+ci%C4%99cie+p%C5%82ytek+waterjet/data=!4m7!3m6!1s0x4705b11a6b019347:0x19ba633a6c334ac4!8m2!3d52.0906555!4d16.6243598!16s%2Fg%2F1tf5jbjx!19sChIJR5MBaxqxBUcRxEozbDpjuhk?authuser=0&hl=tr&rclk=1",
    "website_url": "http://www.granitmar.pl/",
    "rating_text": "4,3",
    "stars": null,
    "number_of_reviews": null,
    "price_level": "",
    "open_hours": "",
    "extraction_timestamp": "2025-06-07T17:49:44.552Z",
    "source_name": "google",
    "source_query": "Irrigation Equipment",
    "source_country": "PL",
    "country": "Poland",
    "state": "Greater Poland Voivodeship",
    "city": "Powiat kościański"
  },
  {
    "source_id": "ChIJKbbNUZPUBUcRZzH5Q_PEZ7Y",
    "name": "Z.U.H. Wojciech Rajewski",
    "category": "Z.U.H. Wojciech Rajewski",
    "formatted_address": "4,8(13)",
    "phone_number": "+48601643831",
    "source_url": "https://www.google.com/maps/place/Z.U.H.+Wojciech+Rajewski/data=!4m7!3m6!1s0x4705d49351cdb629:0xb667c4f343f93167!8m2!3d52.2544057!4d16.1341154!16s%2Fg%2F11ddx40f1p!19sChIJKbbNUZPUBUcRZzH5Q_PEZ7Y?authuser=0&hl=tr&rclk=1",
    "website_url": "",
    "rating_text": "4,8",
    "stars": null,
    "number_of_reviews": null,
    "price_level": "",
    "open_hours": "",
    "extraction_timestamp": "2025-06-07T17:49:44.553Z",
    "source_name": "google",
    "source_query": "Irrigation Equipment",
    "source_country": "PL",
    "country": "Poland",
    "state": "Greater Poland Voivodeship",
    "city": "Powiat kościański"
  },
  {
    "source_id": "ChIJUdwhqgOYBUcR3jwtTyYHSx4",
    "name": "Hydro-Partner Sp. z o.o.",
    "category": "Hydro-Partner Sp. z o.o.",
    "formatted_address": "4,6(40)",
    "phone_number": "+48655252850",
    "source_url": "https://www.google.com/maps/place/Hydro-Partner+Sp.+z+o.o./data=!4m7!3m6!1s0x47059803aa21dc51:0x1e4b07264f2d3cde!8m2!3d51.8630159!4d16.5752719!16s%2Fg%2F1vgw7b90!19sChIJUdwhqgOYBUcR3jwtTyYHSx4?authuser=0&hl=tr&rclk=1",
    "website_url": "http://www.hydro-partner.pl/",
    "rating_text": "4,6",
    "stars": null,
    "number_of_reviews": null,
    "price_level": "",
    "open_hours": "",
    "extraction_timestamp": "2025-06-07T17:49:44.554Z",
    "source_name": "google",
    "source_query": "Irrigation Equipment",
    "source_country": "PL",
    "country": "Poland",
    "state": "Greater Poland Voivodeship",
    "city": "Powiat kościański"
  },
  {
    "source_id": "ChIJv6Kfnx5uBUcRgKe6uYYbsU8",
    "name": "Lely Center w Krobi",
    "category": "Lely Center w Krobi",
    "formatted_address": "4,2(6)",
    "phone_number": "+48884035777",
    "source_url": "https://www.google.com/maps/place/Lely+Center+w+Krobi/data=!4m7!3m6!1s0x47056e1e9f9fa2bf:0x4fb11b86b9baa780!8m2!3d51.7040742!4d16.9929354!16s%2Fg%2F11gbksc8_5!19sChIJv6Kfnx5uBUcRgKe6uYYbsU8?authuser=0&hl=tr&rclk=1",
    "website_url": "https://www.lely.com/pl/centers/krobia/?gad_source=1&gclid=Cj0KCQjwncWvBhD_ARIsAEb2HW-LtaXn3zgItX3IER2f80IdZ4nJ7i7TDtZPDIhCjkG_w6yQ2WvqOJ0aAls4EALw_wcB",
    "rating_text": "4,2",
    "stars": null,
    "number_of_reviews": null,
    "price_level": "",
    "open_hours": "",
    "extraction_timestamp": "2025-06-07T17:49:44.555Z",
    "source_name": "google",
    "source_query": "Irrigation Equipment",
    "source_country": "PL",
    "country": "Poland",
    "state": "Greater Poland Voivodeship",
    "city": "Powiat kościański"
  },
  {
    "source_id": "ChIJbfw_EaNXBEcR_4WcJdE-X0w",
    "name": "P.H.P.U. ROMGAZ Roman Sobczak",
    "category": "P.H.P.U. ROMGAZ Roman Sobczak",
    "formatted_address": "4,4(7)",
    "phone_number": "+48616675475",
    "source_url": "https://www.google.com/maps/place/P.H.P.U.+ROMGAZ+Roman+Sobczak/data=!4m7!3m6!1s0x470457a3113ffc6d:0x4c5f3ed1259c85ff!8m2!3d52.2994135!4d17.050767!16s%2Fg%2F1tdl4v7y!19sChIJbfw_EaNXBEcR_4WcJdE-X0w?authuser=0&hl=tr&rclk=1",
    "website_url": "http://www.romgaz.net/",
    "rating_text": "4,4",
    "stars": null,
    "number_of_reviews": null,
    "price_level": "",
    "open_hours": "",
    "extraction_timestamp": "2025-06-07T17:49:44.556Z",
    "source_name": "google",
    "source_query": "Irrigation Equipment",
    "source_country": "PL",
    "country": "Poland",
    "state": "Greater Poland Voivodeship",
    "city": "Powiat kościański"
  },
  {
    "source_id": "ChIJoRC9EQmYBUcR8F2Svb-Ue_E",
    "name": "Studnie głębinowe Leszno - Firma Usługowo-Produkcyjno-Handlowa Karol Płaczek",
    "category": "Studnie głębinowe Leszno - Firma Usługowo-Produkcyjno-Handlowa Karol Płaczek",
    "formatted_address": "4,8(11)",
    "phone_number": "+48692474443",
    "source_url": "https://www.google.com/maps/place/Studnie+g%C5%82%C4%99binowe+Leszno+-+Firma+Us%C5%82ugowo-Produkcyjno-Handlowa+Karol+P%C5%82aczek/data=!4m7!3m6!1s0x4705980911bd10a1:0xf17b94bfbd925df0!8m2!3d51.8649455!4d16.5933801!16s%2Fg%2F1tczj59h!19sChIJoRC9EQmYBUcR8F2Svb-Ue_E?authuser=0&hl=tr&rclk=1",
    "website_url": "https://placzek.pl/",
    "rating_text": "4,8",
    "stars": null,
    "number_of_reviews": null,
    "price_level": "",
    "open_hours": "",
    "extraction_timestamp": "2025-06-07T17:49:44.557Z",
    "source_name": "google",
    "source_query": "Irrigation Equipment",
    "source_country": "PL",
    "country": "Poland",
    "state": "Greater Poland Voivodeship",
    "city": "Powiat kościański"
  },
  {
    "source_id": "ChIJZZl7ChmlBUcRsmsKN59yyZQ",
    "name": "Na Fali Wypożyczalnia sprzętu wodnego",
    "category": "Na Fali Wypożyczalnia sprzętu wodnego",
    "formatted_address": "4,6(12)",
    "phone_number": "+48570557527",
    "source_url": "https://www.google.com/maps/place/Na+Fali+Wypo%C5%BCyczalnia+sprz%C4%99tu+wodnego/data=!4m7!3m6!1s0x4705a5190a7b9965:0x94c9729f370a6bb2!8m2!3d51.9967918!4d16.708517!16s%2Fg%2F11hylc601_!19sChIJZZl7ChmlBUcRsmsKN59yyZQ?authuser=0&hl=tr&rclk=1",
    "website_url": "",
    "rating_text": "4,6",
    "stars": null,
    "number_of_reviews": null,
    "price_level": "",
    "open_hours": "",
    "extraction_timestamp": "2025-06-07T17:49:44.557Z",
    "source_name": "google",
    "source_query": "Irrigation Equipment",
    "source_country": "PL",
    "country": "Poland",
    "state": "Greater Poland Voivodeship",
    "city": "Powiat kościański"
  },
  {
    "source_id": "ChIJBVnjAp0ABUcRFWrER_0PBAg",
    "name": "Studzienki",
    "category": "Studzienki",
    "formatted_address": "4,6(9)",
    "phone_number": "+48795977712",
    "source_url": "https://www.google.com/maps/place/Studzienki/data=!4m7!3m6!1s0x4705009d02e35905:0x8040ffd47c46a15!8m2!3d52.0691871!4d17.0394171!16s%2Fg%2F11fmmdybt8!19sChIJBVnjAp0ABUcRFWrER_0PBAg?authuser=0&hl=tr&rclk=1",
    "website_url": "https://studzienki.pl/",
    "rating_text": "4,6",
    "stars": null,
    "number_of_reviews": null,
    "price_level": "",
    "open_hours": "",
    "extraction_timestamp": "2025-06-07T17:49:44.558Z",
    "source_name": "google",
    "source_query": "Irrigation Equipment",
    "source_country": "PL",
    "country": "Poland",
    "state": "Greater Poland Voivodeship",
    "city": "Powiat kościański"
  },
  {
    "source_id": "ChIJL2l4W0dSBEcRYYLVDPWdG7w",
    "name": "Orchidea - ogrody, tereny miejskie, pola golfowe, boiska piłkarskie. Nasze usługi oferujemy na terenie całej Polski.",
    "category": "Orchidea - ogrody, tereny miejskie, pola golfowe, boiska piłkarskie. Nasze usługi oferujemy na terenie całej Polski.",
    "formatted_address": "Orchidea - ogrody, tereny miejskie, pola golfowe, boiska piłkarskie. Nasze usługi oferujemy na terenie całej Polski.",
    "phone_number": "+48604633811",
    "source_url": "https://www.google.com/maps/place/Orchidea+-+ogrody,+tereny+miejskie,+pola+golfowe,+boiska+pi%C5%82karskie.+Nasze+us%C5%82ugi+oferujemy+na+terenie+ca%C5%82ej+Polski./data=!4m7!3m6!1s0x470452475b78692f:0xbc1b9df50cd58261!8m2!3d52.2297429!4d16.8055359!16s%2Fg%2F1wz51dw1!19sChIJL2l4W0dSBEcRYYLVDPWdG7w?authuser=0&hl=tr&rclk=1",
    "website_url": "http://ogrody-orchidea.pl/",
    "rating_text": "4,7",
    "stars": null,
    "number_of_reviews": null,
    "price_level": "",
    "open_hours": "",
    "extraction_timestamp": "2025-06-07T17:49:44.559Z",
    "source_name": "google",
    "source_query": "Irrigation Equipment",
    "source_country": "PL",
    "country": "Poland",
    "state": "Greater Poland Voivodeship",
    "city": "Powiat kościański"
  },
  {
    "source_id": "ChIJ-6uvQ2-9BUcRS7my4zP54Hw",
    "name": "M&K Gardens Usługi Ogrodnicze",
    "category": "M&K Gardens Usługi Ogrodnicze",
    "formatted_address": "5,0(1)",
    "phone_number": "+48502356099",
    "source_url": "https://www.google.com/maps/place/M%26K+Gardens+Us%C5%82ugi+Ogrodnicze/data=!4m7!3m6!1s0x4705bd6f43afabfb:0x7ce0f933e3b2b94b!8m2!3d51.9059244!4d16.5816602!16s%2Fg%2F11l2mk1bv4!19sChIJ-6uvQ2-9BUcRS7my4zP54Hw?authuser=0&hl=tr&rclk=1",
    "website_url": "https://www.facebook.com/profile.php?id=100092890975237",
    "rating_text": "5,0",
    "stars": null,
    "number_of_reviews": null,
    "price_level": "",
    "open_hours": "",
    "extraction_timestamp": "2025-06-07T17:49:44.560Z",
    "source_name": "google",
    "source_query": "Irrigation Equipment",
    "source_country": "PL",
    "country": "Poland",
    "state": "Greater Poland Voivodeship",
    "city": "Powiat kościański"
  },
  {
    "source_id": "ChIJubxHGPq9BUcR6xe8QazZjs4",
    "name": "Adamix Instal",
    "category": "Adamix Instal",
    "formatted_address": "4,7(3)",
    "phone_number": "+48605331388",
    "source_url": "https://www.google.com/maps/place/Adamix+Instal/data=!4m7!3m6!1s0x4705bdfa1847bcb9:0xce8ed9ac41bc17eb!8m2!3d51.8907893!4d16.5469657!16s%2Fg%2F11g49sdkz7!19sChIJubxHGPq9BUcR6xe8QazZjs4?authuser=0&hl=tr&rclk=1",
    "website_url": "",
    "rating_text": "4,7",
    "stars": null,
    "number_of_reviews": null,
    "price_level": "",
    "open_hours": "",
    "extraction_timestamp": "2025-06-07T17:49:44.561Z",
    "source_name": "google",
    "source_query": "Irrigation Equipment",
    "source_country": "PL",
    "country": "Poland",
    "state": "Greater Poland Voivodeship",
    "city": "Powiat kościański"
  }
]
