[
  {
    "source_id": "ChIJR6tWunDaBUcRQXD2zTNLKLg",
    "name": "\"AQUA - Grupa SBS\" sp. z o.o. Wolsztyn",
    "category": "\"AQUA - Grupa SBS\" sp. z o.o. Wolsztyn",
    "formatted_address": "4,4(35)",
    "phone_number": "+48683471626",
    "source_url": "https://www.google.com/maps/place/%22AQUA+-+Grupa+SBS%22+sp.+z+o.o.+Wolsztyn/data=!4m7!3m6!1s0x4705da70ba56ab47:0xb8284b33cdf67041!8m2!3d52.1234247!4d16.1232702!16s%2Fg%2F1tfl8c1v!19sChIJR6tWunDaBUcRQXD2zTNLKLg?authuser=0&hl=tr&rclk=1",
    "website_url": "https://aqua.net.pl/",
    "rating_text": "4,4",
    "stars": null,
    "number_of_reviews": null,
    "price_level": "",
    "open_hours": "",
    "extraction_timestamp": "2025-06-07T17:52:07.368Z",
    "source_name": "google",
    "source_query": "Irrigation Equipment",
    "source_country": "PL",
    "country": "Poland",
    "state": "Greater Poland Voivodeship",
    "city": "Powiat wolsztyński"
  },
  {
    "source_id": "ChIJbX8xZ7fGBUcR4gcYxAmUMck",
    "name": "BamarTech przydomowe oczyszczalnie ścieków",
    "category": "BamarTech przydomowe oczyszczalnie ścieków",
    "formatted_address": "4,8(77)",
    "phone_number": "+48500503818",
    "source_url": "https://www.google.com/maps/place/BamarTech+przydomowe+oczyszczalnie+%C5%9Bciek%C3%B3w/data=!4m7!3m6!1s0x4705c6b767317f6d:0xc9319409c41807e2!8m2!3d52.0889256!4d16.1051666!16s%2Fg%2F11b7lq89pt!19sChIJbX8xZ7fGBUcR4gcYxAmUMck?authuser=0&hl=tr&rclk=1",
    "website_url": "http://www.bamartech.pl/",
    "rating_text": "4,8",
    "stars": null,
    "number_of_reviews": null,
    "price_level": "",
    "open_hours": "",
    "extraction_timestamp": "2025-06-07T17:52:07.370Z",
    "source_name": "google",
    "source_query": "Irrigation Equipment",
    "source_country": "PL",
    "country": "Poland",
    "state": "Greater Poland Voivodeship",
    "city": "Powiat wolsztyński"
  },
  {
    "source_id": "ChIJE401m5zQBUcRDuKGKVvjq-s",
    "name": "P. H. U. WALIGÓRA Dawid Waligóra",
    "category": "P. H. U. WALIGÓRA Dawid Waligóra",
    "formatted_address": "4,7(13)",
    "phone_number": "+48684161115",
    "source_url": "https://www.google.com/maps/place/P.+H.+U.+WALIG%C3%93RA+Dawid+Walig%C3%B3ra/data=!4m7!3m6!1s0x4705d09c9b358d13:0xebabe35b2986e20e!8m2!3d52.1123986!4d16.137706!16s%2Fg%2F11f61xfgtl!19sChIJE401m5zQBUcRDuKGKVvjq-s?authuser=0&hl=tr&rclk=1",
    "website_url": "http://waligora-wolsztyn.pl/",
    "rating_text": "4,7",
    "stars": null,
    "number_of_reviews": null,
    "price_level": "",
    "open_hours": "",
    "extraction_timestamp": "2025-06-07T17:52:07.371Z",
    "source_name": "google",
    "source_query": "Irrigation Equipment",
    "source_country": "PL",
    "country": "Poland",
    "state": "Greater Poland Voivodeship",
    "city": "Powiat wolsztyński"
  },
  {
    "source_id": "ChIJ9_Kc2sjNBUcRFlZ-p1DCKwM",
    "name": "Biopolis",
    "category": "Biopolis",
    "formatted_address": "4,9(14)",
    "phone_number": "+48603225235",
    "source_url": "https://www.google.com/maps/place/Biopolis/data=!4m7!3m6!1s0x4705cdc8da9cf2f7:0x32bc250a77e5616!8m2!3d52.0889256!4d16.1051666!16s%2Fg%2F11jgt7_nh_!19sChIJ9_Kc2sjNBUcRFlZ-p1DCKwM?authuser=0&hl=tr&rclk=1",
    "website_url": "https://biopolis.pl/",
    "rating_text": "4,9",
    "stars": null,
    "number_of_reviews": null,
    "price_level": "",
    "open_hours": "",
    "extraction_timestamp": "2025-06-07T17:52:07.372Z",
    "source_name": "google",
    "source_query": "Irrigation Equipment",
    "source_country": "PL",
    "country": "Poland",
    "state": "Greater Poland Voivodeship",
    "city": "Powiat wolsztyński"
  },
  {
    "source_id": "ChIJ7dkcsQraBUcRydQVj4YcejI",
    "name": "Efli Group sp Z o. o. Sp k.",
    "category": "Efli Group sp Z o. o. Sp k.",
    "formatted_address": "4,0(4)",
    "phone_number": "+48607500232",
    "source_url": "https://www.google.com/maps/place/Efli+Group+sp+Z+o.+o.+Sp+k./data=!4m7!3m6!1s0x4705da0ab11cd9ed:0x327a1c868f15d4c9!8m2!3d52.1099648!4d16.1121183!16s%2Fg%2F11h42px6zl!19sChIJ7dkcsQraBUcRydQVj4YcejI?authuser=0&hl=tr&rclk=1",
    "website_url": "http://www.efli.pl/",
    "rating_text": "4,0",
    "stars": null,
    "number_of_reviews": null,
    "price_level": "",
    "open_hours": "",
    "extraction_timestamp": "2025-06-07T17:52:07.374Z",
    "source_name": "google",
    "source_query": "Irrigation Equipment",
    "source_country": "PL",
    "country": "Poland",
    "state": "Greater Poland Voivodeship",
    "city": "Powiat wolsztyński"
  },
  {
    "source_id": "ChIJE5Br4pjQBUcRsI59qRwwFGA",
    "name": "Hurtech. Hurtownia filtrów samochodowych i hydraulicznych. Sobczyński J.",
    "category": "Hurtech. Hurtownia filtrów samochodowych i hydraulicznych. Sobczyński J.",
    "formatted_address": "4,6(154)",
    "phone_number": "+48683472341",
    "source_url": "https://www.google.com/maps/place/Hurtech.+Hurtownia+filtr%C3%B3w+samochodowych+i+hydraulicznych.+Sobczy%C5%84ski+J./data=!4m7!3m6!1s0x4705d098e26b9013:0x6014301ca97d8eb0!8m2!3d52.1167313!4d16.1190378!16s%2Fg%2F1vfzcwjx!19sChIJE5Br4pjQBUcRsI59qRwwFGA?authuser=0&hl=tr&rclk=1",
    "website_url": "http://www.hurtech.pl/",
    "rating_text": "4,6",
    "stars": null,
    "number_of_reviews": null,
    "price_level": "",
    "open_hours": "",
    "extraction_timestamp": "2025-06-07T17:52:07.375Z",
    "source_name": "google",
    "source_query": "Irrigation Equipment",
    "source_country": "PL",
    "country": "Poland",
    "state": "Greater Poland Voivodeship",
    "city": "Powiat wolsztyński"
  },
  {
    "source_id": "ChIJR6tWunDaBUcRy9L4LxKMEvs",
    "name": "Ardom sp.j. Pawelscy",
    "category": "Ardom sp.j. Pawelscy",
    "formatted_address": "4,8(37)",
    "phone_number": "+48683842085",
    "source_url": "https://www.google.com/maps/place/Ardom+sp.j.+Pawelscy/data=!4m7!3m6!1s0x4705da70ba56ab47:0xfb128c122ff8d2cb!8m2!3d52.1042132!4d16.1223678!16s%2Fg%2F1hc5vc37g!19sChIJR6tWunDaBUcRy9L4LxKMEvs?authuser=0&hl=tr&rclk=1",
    "website_url": "http://ardom-pawelscy.com.pl/wp-test/?page_id=128",
    "rating_text": "4,8",
    "stars": null,
    "number_of_reviews": null,
    "price_level": "",
    "open_hours": "",
    "extraction_timestamp": "2025-06-07T17:52:07.377Z",
    "source_name": "google",
    "source_query": "Irrigation Equipment",
    "source_country": "PL",
    "country": "Poland",
    "state": "Greater Poland Voivodeship",
    "city": "Powiat wolsztyński"
  },
  {
    "source_id": "ChIJ___bMcvQBUcRsptxvvpFxGY",
    "name": "Pompy Wawrzyński Tomasz Wawrzyński",
    "category": "Pompy Wawrzyński Tomasz Wawrzyński",
    "formatted_address": "3,7(6)",
    "phone_number": "+48609346438",
    "source_url": "https://www.google.com/maps/place/Pompy+Wawrzy%C5%84ski+Tomasz+Wawrzy%C5%84ski/data=!4m7!3m6!1s0x4705d0cb31dbffff:0x66c445fabe719bb2!8m2!3d52.1383296!4d16.0968967!16s%2Fg%2F11t71n5xhb!19sChIJ___bMcvQBUcRsptxvvpFxGY?authuser=0&hl=tr&rclk=1",
    "website_url": "",
    "rating_text": "3,7",
    "stars": null,
    "number_of_reviews": null,
    "price_level": "",
    "open_hours": "",
    "extraction_timestamp": "2025-06-07T17:52:07.378Z",
    "source_name": "google",
    "source_query": "Irrigation Equipment",
    "source_country": "PL",
    "country": "Poland",
    "state": "Greater Poland Voivodeship",
    "city": "Powiat wolsztyński"
  },
  {
    "source_id": "ChIJq_o9YXx5BkcRlywyWM4oRt4",
    "name": "Hydro-Mat - Usługi hydrauliczne | Instalacje hydrauliczne | Hydraulik",
    "category": "Hydro-Mat - Usługi hydrauliczne | Instalacje hydrauliczne | Hydraulik",
    "formatted_address": "5,0(1)",
    "phone_number": "+48506432993",
    "source_url": "https://www.google.com/maps/place/Hydro-Mat+-+Us%C5%82ugi+hydrauliczne+%7C+Instalacje+hydrauliczne+%7C+Hydraulik/data=!4m7!3m6!1s0x4706797c613dfaab:0xde4628ce58322c97!8m2!3d52.3797562!4d17.744275!16s%2Fg%2F11s9ycp4_f!19sChIJq_o9YXx5BkcRlywyWM4oRt4?authuser=0&hl=tr&rclk=1",
    "website_url": "https://xn--usugihydrauliczne-33c.pl/",
    "rating_text": "5,0",
    "stars": null,
    "number_of_reviews": null,
    "price_level": "",
    "open_hours": "",
    "extraction_timestamp": "2025-06-07T17:52:07.379Z",
    "source_name": "google",
    "source_query": "Irrigation Equipment",
    "source_country": "PL",
    "country": "Poland",
    "state": "Greater Poland Voivodeship",
    "city": "Powiat wolsztyński"
  },
  {
    "source_id": "ChIJP8VSipjQBUcRzHMxQURR3OQ",
    "name": "Tyczyński Jan. Naprawa, sprzedaż Stihl",
    "category": "Tyczyński Jan. Naprawa, sprzedaż Stihl",
    "formatted_address": "Tyczyński Jan. Naprawa, sprzedaż Stihl",
    "phone_number": "+48510254098",
    "source_url": "https://www.google.com/maps/place/Tyczy%C5%84ski+Jan.+Naprawa,+sprzeda%C5%BC+Stihl/data=!4m7!3m6!1s0x4705d0988a52c53f:0xe4dc5144413173cc!8m2!3d52.1181961!4d16.1187317!16s%2Fg%2F1hc1gfwsj!19sChIJP8VSipjQBUcRzHMxQURR3OQ?authuser=0&hl=tr&rclk=1",
    "website_url": "http://tyczynski-serwis.pl/",
    "rating_text": "4,7",
    "stars": null,
    "number_of_reviews": null,
    "price_level": "",
    "open_hours": "",
    "extraction_timestamp": "2025-06-07T17:52:07.380Z",
    "source_name": "google",
    "source_query": "Irrigation Equipment",
    "source_country": "PL",
    "country": "Poland",
    "state": "Greater Poland Voivodeship",
    "city": "Powiat wolsztyński"
  },
  {
    "source_id": "ChIJUd80bXjaBUcRBG637IestT0",
    "name": "Rejonowy Związek Spółek Wodnych",
    "category": "Rejonowy Związek Spółek Wodnych",
    "formatted_address": "5,0(2)",
    "phone_number": "+48683843526",
    "source_url": "https://www.google.com/maps/place/Rejonowy+Zwi%C4%85zek+Sp%C3%B3%C5%82ek+Wodnych/data=!4m7!3m6!1s0x4705da786d34df51:0x3db5ac87ecb76e04!8m2!3d52.107968!4d16.128205!16s%2Fg%2F1tfd12nj!19sChIJUd80bXjaBUcRBG637IestT0?authuser=0&hl=tr&rclk=1",
    "website_url": "https://mapa.targeo.pl/rejonowy-zwiazek-spolek-wodnych-wolsztyn-ul-zeromskiego-16-64-200-wolsztyn~14159625/przedsiebiorstwo-firma/adres",
    "rating_text": "5,0",
    "stars": null,
    "number_of_reviews": null,
    "price_level": "",
    "open_hours": "",
    "extraction_timestamp": "2025-06-07T17:52:07.381Z",
    "source_name": "google",
    "source_query": "Irrigation Equipment",
    "source_country": "PL",
    "country": "Poland",
    "state": "Greater Poland Voivodeship",
    "city": "Powiat wolsztyński"
  },
  {
    "source_id": "ChIJ595jcT_ZBUcR5nL4XfprhB0",
    "name": "Thermo-Klima Jakub Matysik",
    "category": "Thermo-Klima Jakub Matysik",
    "formatted_address": "4,3(19)",
    "phone_number": "+48666117366",
    "source_url": "https://www.google.com/maps/place/Thermo-Klima+Jakub+Matysik/data=!4m7!3m6!1s0x4705d93f7163dee7:0x1d846bfa5df872e6!8m2!3d52.0744771!4d16.0443826!16s%2Fg%2F11q3yz4xfk!19sChIJ595jcT_ZBUcR5nL4XfprhB0?authuser=0&hl=tr&rclk=1",
    "website_url": "",
    "rating_text": "4,3",
    "stars": null,
    "number_of_reviews": null,
    "price_level": "",
    "open_hours": "",
    "extraction_timestamp": "2025-06-07T17:52:07.383Z",
    "source_name": "google",
    "source_query": "Irrigation Equipment",
    "source_country": "PL",
    "country": "Poland",
    "state": "Greater Poland Voivodeship",
    "city": "Powiat wolsztyński"
  },
  {
    "source_id": "ChIJgx9lenXaBUcRTKyQFM23u5k",
    "name": "THS System Sp. z o.o.",
    "category": "THS System Sp. z o.o.",
    "formatted_address": "",
    "phone_number": "+48618931871",
    "source_url": "https://www.google.com/maps/place/THS+System+Sp.+z+o.o./data=!4m7!3m6!1s0x4705da757a651f83:0x99bbb7cd1490ac4c!8m2!3d52.110075!4d16.1147157!16s%2Fg%2F1ptvrwp9g!19sChIJgx9lenXaBUcRTKyQFM23u5k?authuser=0&hl=tr&rclk=1",
    "website_url": "http://thssystem.pl/",
    "rating_text": "",
    "stars": null,
    "number_of_reviews": null,
    "price_level": "",
    "open_hours": "",
    "extraction_timestamp": "2025-06-07T17:52:07.383Z",
    "source_name": "google",
    "source_query": "Irrigation Equipment",
    "source_country": "PL",
    "country": "Poland",
    "state": "Greater Poland Voivodeship",
    "city": "Powiat wolsztyński"
  },
  {
    "source_id": "ChIJATNlIFLRBUcRFSOGN9QmoUE",
    "name": "DEK-PRO DEKARSTWO, FOTOWOLTAIKA OD A DO Z",
    "category": "DEK-PRO DEKARSTWO, FOTOWOLTAIKA OD A DO Z",
    "formatted_address": "DEK-PRO DEKARSTWO, FOTOWOLTAIKA OD A DO Z",
    "phone_number": "+48783772319",
    "source_url": "https://www.google.com/maps/place/DEK-PRO+DEKARSTWO,+FOTOWOLTAIKA+OD+A+DO+Z/data=!4m7!3m6!1s0x4705d15220653301:0x41a126d437862315!8m2!3d52.1193162!4d16.1298395!16s%2Fg%2F11fnxph52r!19sChIJATNlIFLRBUcRFSOGN9QmoUE?authuser=0&hl=tr&rclk=1",
    "website_url": "http://dek-pro.pl/",
    "rating_text": "5,0",
    "stars": null,
    "number_of_reviews": null,
    "price_level": "",
    "open_hours": "",
    "extraction_timestamp": "2025-06-07T17:52:07.385Z",
    "source_name": "google",
    "source_query": "Irrigation Equipment",
    "source_country": "PL",
    "country": "Poland",
    "state": "Greater Poland Voivodeship",
    "city": "Powiat wolsztyński"
  },
  {
    "source_id": "ChIJb7qDaqLQBUcRk5WnuU28_3E",
    "name": "Esencja Wina",
    "category": "Esencja Wina",
    "formatted_address": "4,7(66)",
    "phone_number": "+48600089649",
    "source_url": "https://www.google.com/maps/place/Esencja+Wina/data=!4m7!3m6!1s0x4705d0a26a83ba6f:0x71ffbc4db9a79593!8m2!3d52.117583!4d16.114028!16s%2Fg%2F11bzsdhn7g!19sChIJb7qDaqLQBUcRk5WnuU28_3E?authuser=0&hl=tr&rclk=1",
    "website_url": "http://www.esencjawina.pl/",
    "rating_text": "4,7",
    "stars": null,
    "number_of_reviews": null,
    "price_level": "",
    "open_hours": "",
    "extraction_timestamp": "2025-06-07T17:52:07.385Z",
    "source_name": "google",
    "source_query": "Irrigation Equipment",
    "source_country": "PL",
    "country": "Poland",
    "state": "Greater Poland Voivodeship",
    "city": "Powiat wolsztyński"
  },
  {
    "source_id": "ChIJGQS2KZfQBUcRKGsIB6_tebQ",
    "name": "Bicycle shop \"Tourist\"",
    "category": "Bicycle shop \"Tourist\"",
    "formatted_address": "4,5(122)",
    "phone_number": "+48536584236",
    "source_url": "https://www.google.com/maps/place/Bicycle+shop+%22Tourist%22/data=!4m7!3m6!1s0x4705d09729b60419:0xb479edaf07086b28!8m2!3d52.1224555!4d16.1259231!16s%2Fg%2F11g8k3phvf!19sChIJGQS2KZfQBUcRKGsIB6_tebQ?authuser=0&hl=tr&rclk=1",
    "website_url": "https://www.trekbikes.com/pl/pl_PL/store/168149/",
    "rating_text": "4,5",
    "stars": null,
    "number_of_reviews": null,
    "price_level": "",
    "open_hours": "",
    "extraction_timestamp": "2025-06-07T17:52:07.386Z",
    "source_name": "google",
    "source_query": "Irrigation Equipment",
    "source_country": "PL",
    "country": "Poland",
    "state": "Greater Poland Voivodeship",
    "city": "Powiat wolsztyński"
  },
  {
    "source_id": "ChIJ476F86HQBUcRgndtBrSNFRY",
    "name": "Sklep Sportowy Eva Sport",
    "category": "Sklep Sportowy Eva Sport",
    "formatted_address": "4,5(53)",
    "phone_number": "+48683471100",
    "source_url": "https://www.google.com/maps/place/Sklep+Sportowy+Eva+Sport/data=!4m7!3m6!1s0x4705d0a1f385bee3:0x16158db4066d7782!8m2!3d52.1161382!4d16.1129033!16s%2Fg%2F11f0l1d0pc!19sChIJ476F86HQBUcRgndtBrSNFRY?authuser=0&hl=tr&rclk=1",
    "website_url": "http://www.eva-sport.pl/",
    "rating_text": "4,5",
    "stars": null,
    "number_of_reviews": null,
    "price_level": "",
    "open_hours": "",
    "extraction_timestamp": "2025-06-07T17:52:07.388Z",
    "source_name": "google",
    "source_query": "Irrigation Equipment",
    "source_country": "PL",
    "country": "Poland",
    "state": "Greater Poland Voivodeship",
    "city": "Powiat wolsztyński"
  },
  {
    "source_id": "ChIJH2TXsVWG-IwRIiUvmgLFHNA",
    "name": "Zielona Pasja",
    "category": "Zielona Pasja",
    "formatted_address": "5,0(1)",
    "phone_number": "+48726961974",
    "source_url": "https://www.google.com/maps/place/Zielona+Pasja/data=!4m7!3m6!1s0x8cf88655b1d7641f:0xd01cc5029a2f2522!8m2!3d52.2063291!4d16.0610019!16s%2Fg%2F11tg99jrdh!19sChIJH2TXsVWG-IwRIiUvmgLFHNA?authuser=0&hl=tr&rclk=1",
    "website_url": "https://www.zielonapasja.online/",
    "rating_text": "5,0",
    "stars": null,
    "number_of_reviews": null,
    "price_level": "",
    "open_hours": "",
    "extraction_timestamp": "2025-06-07T17:52:07.389Z",
    "source_name": "google",
    "source_query": "Irrigation Equipment",
    "source_country": "PL",
    "country": "Poland",
    "state": "Greater Poland Voivodeship",
    "city": "Powiat wolsztyński"
  },
  {
    "source_id": "ChIJ2_c9NGJ2BkcRqpPgh0zGpU4",
    "name": "UNIKAL Sp. z o.o.",
    "category": "UNIKAL Sp. z o.o.",
    "formatted_address": "4,8(44)",
    "phone_number": "+48683526308",
    "source_url": "https://www.google.com/maps/place/UNIKAL+Sp.+z+o.o./data=!4m7!3m6!1s0x47067662343df7db:0x4ea5c64c87e093aa!8m2!3d52.0728232!4d15.8694939!16s%2Fg%2F11dxql7vv_!19sChIJ2_c9NGJ2BkcRqpPgh0zGpU4?authuser=0&hl=tr&rclk=1",
    "website_url": "http://www.unikal.com.pl/",
    "rating_text": "4,8",
    "stars": null,
    "number_of_reviews": null,
    "price_level": "",
    "open_hours": "",
    "extraction_timestamp": "2025-06-07T17:52:07.390Z",
    "source_name": "google",
    "source_query": "Irrigation Equipment",
    "source_country": "PL",
    "country": "Poland",
    "state": "Greater Poland Voivodeship",
    "city": "Powiat wolsztyński"
  },
  {
    "source_id": "ChIJw9GBV4zXBUcRpSVncnXjjyU",
    "name": "roltechnika",
    "category": "roltechnika",
    "formatted_address": "4,5(6)",
    "phone_number": "+48508133618",
    "source_url": "https://www.google.com/maps/place/roltechnika/data=!4m7!3m6!1s0x4705d78c5781d1c3:0x258fe375726725a5!8m2!3d52.1277867!4d15.9985933!16s%2Fg%2F11h35pcslr!19sChIJw9GBV4zXBUcRpSVncnXjjyU?authuser=0&hl=tr&rclk=1",
    "website_url": "http://roltechnika.com.pl/",
    "rating_text": "4,5",
    "stars": null,
    "number_of_reviews": null,
    "price_level": "",
    "open_hours": "",
    "extraction_timestamp": "2025-06-07T17:52:07.391Z",
    "source_name": "google",
    "source_query": "Irrigation Equipment",
    "source_country": "PL",
    "country": "Poland",
    "state": "Greater Poland Voivodeship",
    "city": "Powiat wolsztyński"
  },
  {
    "source_id": "ChIJ-R2-l9ORBEcRdO81qqZWVsg",
    "name": "Ptak Wypożyczalnia sprzętu budowlanego Gniezno Ptak Magdalena",
    "category": "Ptak Wypożyczalnia sprzętu budowlanego Gniezno Ptak Magdalena",
    "formatted_address": "4,9(217)",
    "phone_number": "+48668389989",
    "source_url": "https://www.google.com/maps/place/Ptak+Wypo%C5%BCyczalnia+sprz%C4%99tu+budowlanego+Gniezno+Ptak+Magdalena/data=!4m7!3m6!1s0x470491d397be1df9:0xc85656a6aa35ef74!8m2!3d52.5304919!4d17.5656107!16s%2Fg%2F11fpqhh8xp!19sChIJ-R2-l9ORBEcRdO81qqZWVsg?authuser=0&hl=tr&rclk=1",
    "website_url": "http://www.ptak-rent.pl/",
    "rating_text": "4,9",
    "stars": null,
    "number_of_reviews": null,
    "price_level": "",
    "open_hours": "",
    "extraction_timestamp": "2025-06-07T17:52:07.393Z",
    "source_name": "google",
    "source_query": "Irrigation Equipment",
    "source_country": "PL",
    "country": "Poland",
    "state": "Greater Poland Voivodeship",
    "city": "Powiat wolsztyński"
  },
  {
    "source_id": "ChIJQaAR7D37BEcRBa5PF0ULYcE",
    "name": "TEST Łukasz i Grzegorz Kiełbowicz sp. j",
    "category": "TEST Łukasz i Grzegorz Kiełbowicz sp. j",
    "formatted_address": "4,9(75)",
    "phone_number": "+48508635200",
    "source_url": "https://www.google.com/maps/place/TEST+%C5%81ukasz+i+Grzegorz+Kie%C5%82bowicz+sp.+j/data=!4m7!3m6!1s0x4704fb3dec11a041:0xc1610b45174fae05!8m2!3d52.5658269!4d17.6143399!16s%2Fg%2F1twyy791!19sChIJQaAR7D37BEcRBa5PF0ULYcE?authuser=0&hl=tr&rclk=1",
    "website_url": "https://testinstalacje.pl/",
    "rating_text": "4,9",
    "stars": null,
    "number_of_reviews": null,
    "price_level": "",
    "open_hours": "",
    "extraction_timestamp": "2025-06-07T17:52:07.394Z",
    "source_name": "google",
    "source_query": "Irrigation Equipment",
    "source_country": "PL",
    "country": "Poland",
    "state": "Greater Poland Voivodeship",
    "city": "Powiat wolsztyński"
  },
  {
    "source_id": "ChIJKbbNUZPUBUcRZzH5Q_PEZ7Y",
    "name": "Z.U.H. Wojciech Rajewski",
    "category": "Z.U.H. Wojciech Rajewski",
    "formatted_address": "4,8(13)",
    "phone_number": "+48601643831",
    "source_url": "https://www.google.com/maps/place/Z.U.H.+Wojciech+Rajewski/data=!4m7!3m6!1s0x4705d49351cdb629:0xb667c4f343f93167!8m2!3d52.2544057!4d16.1341154!16s%2Fg%2F11ddx40f1p!19sChIJKbbNUZPUBUcRZzH5Q_PEZ7Y?authuser=0&hl=tr&rclk=1",
    "website_url": "",
    "rating_text": "4,8",
    "stars": null,
    "number_of_reviews": null,
    "price_level": "",
    "open_hours": "",
    "extraction_timestamp": "2025-06-07T17:52:07.395Z",
    "source_name": "google",
    "source_query": "Irrigation Equipment",
    "source_country": "PL",
    "country": "Poland",
    "state": "Greater Poland Voivodeship",
    "city": "Powiat wolsztyński"
  },
  {
    "source_id": "ChIJvTqVqKLQBUcR5z08vSgAKTY",
    "name": "Plaża Wolsztyn",
    "category": "Plaża Wolsztyn",
    "formatted_address": "4,4(239)",
    "phone_number": "",
    "source_url": "https://www.google.com/maps/place/Pla%C5%BCa+Wolsztyn/data=!4m7!3m6!1s0x4705d0a2a8953abd:0x36290028bd3c3de7!8m2!3d52.1203731!4d16.1171036!16s%2Fg%2F11c4bc_mhl!19sChIJvTqVqKLQBUcR5z08vSgAKTY?authuser=0&hl=tr&rclk=1",
    "website_url": "",
    "rating_text": "4,4",
    "stars": null,
    "number_of_reviews": null,
    "price_level": "",
    "open_hours": "",
    "extraction_timestamp": "2025-06-07T17:52:07.396Z",
    "source_name": "google",
    "source_query": "Irrigation Equipment",
    "source_country": "PL",
    "country": "Poland",
    "state": "Greater Poland Voivodeship",
    "city": "Powiat wolsztyński"
  },
  {
    "source_id": "ChIJtWcFLp3pBEcRLsKDqolJIng",
    "name": "TEST INSTALACJE – Hurtownia instalacyjna Września",
    "category": "TEST INSTALACJE – Hurtownia instalacyjna Września",
    "formatted_address": "4,7(33)",
    "phone_number": "+48616394733",
    "source_url": "https://www.google.com/maps/place/TEST+INSTALACJE+%E2%80%93+Hurtownia+instalacyjna+Wrze%C5%9Bnia/data=!4m7!3m6!1s0x4704e99d2e0567b5:0x78224989aa83c22e!8m2!3d52.3216706!4d17.5802512!16s%2Fg%2F11c50569y3!19sChIJtWcFLp3pBEcRLsKDqolJIng?authuser=0&hl=tr&rclk=1",
    "website_url": "https://testinstalacje.pl/",
    "rating_text": "4,7",
    "stars": null,
    "number_of_reviews": null,
    "price_level": "",
    "open_hours": "",
    "extraction_timestamp": "2025-06-07T17:52:07.397Z",
    "source_name": "google",
    "source_query": "Irrigation Equipment",
    "source_country": "PL",
    "country": "Poland",
    "state": "Greater Poland Voivodeship",
    "city": "Powiat wolsztyński"
  },
  {
    "source_id": "ChIJZTUkncv7BEcRsv-FuPvJd0E",
    "name": "TEST INSTALACJE – Hurtownia instalacyjna Środa Wielkopolska",
    "category": "TEST INSTALACJE – Hurtownia instalacyjna Środa Wielkopolska",
    "formatted_address": "4,1(20)",
    "phone_number": "+48612856282",
    "source_url": "https://www.google.com/maps/place/TEST+INSTALACJE+%E2%80%93+Hurtownia+instalacyjna+%C5%9Aroda+Wielkopolska/data=!4m7!3m6!1s0x4704fbcb9d243565:0x4177c9fbb885ffb2!8m2!3d52.2386542!4d17.2761103!16s%2Fg%2F11n0p8cszw!19sChIJZTUkncv7BEcRsv-FuPvJd0E?authuser=0&hl=tr&rclk=1",
    "website_url": "https://testinstalacje.pl/",
    "rating_text": "4,1",
    "stars": null,
    "number_of_reviews": null,
    "price_level": "",
    "open_hours": "",
    "extraction_timestamp": "2025-06-07T17:52:07.398Z",
    "source_name": "google",
    "source_query": "Irrigation Equipment",
    "source_country": "PL",
    "country": "Poland",
    "state": "Greater Poland Voivodeship",
    "city": "Powiat wolsztyński"
  },
  {
    "source_id": "ChIJcfM6IBVnBkcRYeNXByF34oM",
    "name": "AGRO - Dariusz Neryng - Sklep Rolniczy - Akumulatory - Oleje - Łożyska- Narzędzia - Paski klinowe-TEC2000, Liqui Molyly",
    "category": "AGRO - Dariusz Neryng - Sklep Rolniczy - Akumulatory - Oleje - Łożyska- Narzędzia - Paski klinowe-TEC2000, Liqui Molyly",
    "formatted_address": "AGRO - Dariusz Neryng - Sklep Rolniczy - Akumulatory - Oleje - Łożyska- Narzędzia - Paski klinowe-TEC2000, Liqui Molyly",
    "phone_number": "+48683825973",
    "source_url": "https://www.google.com/maps/place/AGRO+-+Dariusz+Neryng+-+Sklep+Rolniczy+-+Akumulatory+-+Oleje+-+%C5%81o%C5%BCyska-+Narz%C4%99dzia+-+Paski+klinowe-TEC2000,+Liqui+Molyly/data=!4m7!3m6!1s0x47066715203af371:0x83e277210757e361!8m2!3d52.2500827!4d15.556792!16s%2Fg%2F1hf0035x3!19sChIJcfM6IBVnBkcRYeNXByF34oM?authuser=0&hl=tr&rclk=1",
    "website_url": "https://www.facebook.com/agro.neryng",
    "rating_text": "4,8",
    "stars": null,
    "number_of_reviews": null,
    "price_level": "",
    "open_hours": "",
    "extraction_timestamp": "2025-06-07T17:52:07.399Z",
    "source_name": "google",
    "source_query": "Irrigation Equipment",
    "source_country": "PL",
    "country": "Poland",
    "state": "Greater Poland Voivodeship",
    "city": "Powiat wolsztyński"
  },
  {
    "source_id": "ChIJS74Y7nL9BEcRATf6fAXnzHo",
    "name": "ROLKA - trawniki i nawadniania - Trawa z rolki Poznań",
    "category": "ROLKA - trawniki i nawadniania - Trawa z rolki Poznań",
    "formatted_address": "4,8(25)",
    "phone_number": "+48730311000",
    "source_url": "https://www.google.com/maps/place/ROLKA+-+trawniki+i+nawadniania+-+Trawa+z+rolki+Pozna%C5%84/data=!4m7!3m6!1s0x4704fd72ee18be4b:0x7acce7057cfa3701!8m2!3d52.2468105!4d17.4843038!16s%2Fg%2F11xs837pl!19sChIJS74Y7nL9BEcRATf6fAXnzHo?authuser=0&hl=tr&rclk=1",
    "website_url": "http://trawniki-nawadniania.pl/",
    "rating_text": "4,8",
    "stars": null,
    "number_of_reviews": null,
    "price_level": "",
    "open_hours": "",
    "extraction_timestamp": "2025-06-07T17:52:07.401Z",
    "source_name": "google",
    "source_query": "Irrigation Equipment",
    "source_country": "PL",
    "country": "Poland",
    "state": "Greater Poland Voivodeship",
    "city": "Powiat wolsztyński"
  },
  {
    "source_id": "ChIJmecjD7_QBUcR43VloMBXzPI",
    "name": "Plaża \"Ustronie\" Karpicko",
    "category": "Plaża \"Ustronie\" Karpicko",
    "formatted_address": "4,4(213)",
    "phone_number": "",
    "source_url": "https://www.google.com/maps/place/Pla%C5%BCa+%22Ustronie%22+Karpicko/data=!4m7!3m6!1s0x4705d0bf0f23e799:0xf2cc57c0a06575e3!8m2!3d52.1299603!4d16.1186885!16s%2Fg%2F11c2p0wy3q!19sChIJmecjD7_QBUcR43VloMBXzPI?authuser=0&hl=tr&rclk=1",
    "website_url": "",
    "rating_text": "4,4",
    "stars": null,
    "number_of_reviews": null,
    "price_level": "",
    "open_hours": "",
    "extraction_timestamp": "2025-06-07T17:52:07.402Z",
    "source_name": "google",
    "source_query": "Irrigation Equipment",
    "source_country": "PL",
    "country": "Poland",
    "state": "Greater Poland Voivodeship",
    "city": "Powiat wolsztyński"
  },
  {
    "source_id": "ChIJh4YwPmiTBUcR0LUx4UQ1iNE",
    "name": "GRENE",
    "category": "GRENE",
    "formatted_address": "3,9(18)",
    "phone_number": "+48655403508",
    "source_url": "https://www.google.com/maps/place/GRENE/data=!4m7!3m6!1s0x470593683e308687:0xd1883544e131b5d0!8m2!3d51.8093756!4d16.3191605!16s%2Fg%2F11bvvxcdkq!19sChIJh4YwPmiTBUcR0LUx4UQ1iNE?authuser=0&hl=tr&rclk=1",
    "website_url": "http://www.grene.pl/",
    "rating_text": "3,9",
    "stars": null,
    "number_of_reviews": null,
    "price_level": "",
    "open_hours": "",
    "extraction_timestamp": "2025-06-07T17:52:07.403Z",
    "source_name": "google",
    "source_query": "Irrigation Equipment",
    "source_country": "PL",
    "country": "Poland",
    "state": "Greater Poland Voivodeship",
    "city": "Powiat wolsztyński"
  }
]
