[
  {
    "source_id": "ChIJPbsDgg80G0cRPBYENgvzHyE",
    "name": "Przedsiębiorstwo \"Hydro-Tech\" Konin",
    "category": "Przedsiębiorstwo \"Hydro-Tech\" Konin",
    "formatted_address": "2,6(20)",
    "phone_number": "+48632453479",
    "source_url": "https://www.google.com/maps/place/Przedsi%C4%99biorstwo+%22Hydro-Tech%22+Konin/data=!4m7!3m6!1s0x471b340f8203bb3d:0x211ff30b3604163c!8m2!3d52.2389959!4d18.2345203!16s%2Fg%2F1tg59vq5!19sChIJPbsDgg80G0cRPBYENgvzHyE?authuser=0&hl=tr&rclk=1",
    "website_url": "",
    "rating_text": "2,6",
    "stars": null,
    "number_of_reviews": null,
    "price_level": "",
    "open_hours": "",
    "extraction_timestamp": "2025-06-07T17:27:30.629Z",
    "source_name": "google",
    "source_query": "Irrigation Equipment",
    "source_country": "PL",
    "country": "Poland",
    "state": "Greater Poland Voivodeship",
    "city": "Powiat koniński"
  },
  {
    "source_id": "ChIJhVwrcNAzG0cRjzUU0Yq_3CU",
    "name": "HYDROKON - Hydraulika Siłowa",
    "category": "HYDROKON - Hydraulika Siłowa",
    "formatted_address": "5,0(22)",
    "phone_number": "+48729888196",
    "source_url": "https://www.google.com/maps/place/HYDROKON+-+Hydraulika+Si%C5%82owa/data=!4m7!3m6!1s0x471b33d0702b5c85:0x25dcbf8ad114358f!8m2!3d52.2301251!4d18.2380595!16s%2Fg%2F11kt9hjhfg!19sChIJhVwrcNAzG0cRjzUU0Yq_3CU?authuser=0&hl=tr&rclk=1",
    "website_url": "",
    "rating_text": "5,0",
    "stars": null,
    "number_of_reviews": null,
    "price_level": "",
    "open_hours": "",
    "extraction_timestamp": "2025-06-07T17:27:30.630Z",
    "source_name": "google",
    "source_query": "Irrigation Equipment",
    "source_country": "PL",
    "country": "Poland",
    "state": "Greater Poland Voivodeship",
    "city": "Powiat koniński"
  },
  {
    "source_id": "ChIJYwGqQ0UxG0cR6G600ZJ7lwg",
    "name": "Hydro-Instal Konin Sp. z o.o.",
    "category": "Hydro-Instal Konin Sp. z o.o.",
    "formatted_address": "4,8(75)",
    "phone_number": "+48632429292",
    "source_url": "https://www.google.com/maps/place/Hydro-Instal+Konin+Sp.+z+o.o./data=!4m7!3m6!1s0x471b314543aa0163:0x8977b92d1b46ee8!8m2!3d52.2161777!4d18.2542151!16s%2Fg%2F1tvgt2cy!19sChIJYwGqQ0UxG0cR6G600ZJ7lwg?authuser=0&hl=tr&rclk=1",
    "website_url": "",
    "rating_text": "4,8",
    "stars": null,
    "number_of_reviews": null,
    "price_level": "",
    "open_hours": "",
    "extraction_timestamp": "2025-06-07T17:27:30.631Z",
    "source_name": "google",
    "source_query": "Irrigation Equipment",
    "source_country": "PL",
    "country": "Poland",
    "state": "Greater Poland Voivodeship",
    "city": "Powiat koniński"
  },
  {
    "source_id": "ChIJ8WjSDQQ0G0cRlurAMqQfSVc",
    "name": "Ferro Spółka z.o.o.",
    "category": "Ferro Spółka z.o.o.",
    "formatted_address": "4,6(9)",
    "phone_number": "+48632428819",
    "source_url": "https://www.google.com/maps/place/Ferro+Sp%C3%B3%C5%82ka+z.o.o./data=!4m7!3m6!1s0x471b34040dd268f1:0x57491fa432c0ea96!8m2!3d52.2362945!4d18.2407474!16s%2Fg%2F1tdbpmg7!19sChIJ8WjSDQQ0G0cRlurAMqQfSVc?authuser=0&hl=tr&rclk=1",
    "website_url": "",
    "rating_text": "4,6",
    "stars": null,
    "number_of_reviews": null,
    "price_level": "",
    "open_hours": "",
    "extraction_timestamp": "2025-06-07T17:27:30.632Z",
    "source_name": "google",
    "source_query": "Irrigation Equipment",
    "source_country": "PL",
    "country": "Poland",
    "state": "Greater Poland Voivodeship",
    "city": "Powiat koniński"
  },
  {
    "source_id": "ChIJJ4So7Ng2G0cR-pojczlIvRk",
    "name": "\" TERMO-TECHNIKA \" Technika grzewcza i instalacyjna",
    "category": "\" TERMO-TECHNIKA \" Technika grzewcza i instalacyjna",
    "formatted_address": "5,0(10)",
    "phone_number": "+48665531521",
    "source_url": "https://www.google.com/maps/place/%22+TERMO-TECHNIKA+%22+Technika+grzewcza+i+instalacyjna/data=!4m7!3m6!1s0x471b36d8eca88427:0x19bd483973239afa!8m2!3d52.2365745!4d18.2159209!16s%2Fg%2F1ptw96t32!19sChIJJ4So7Ng2G0cR-pojczlIvRk?authuser=0&hl=tr&rclk=1",
    "website_url": "",
    "rating_text": "5,0",
    "stars": null,
    "number_of_reviews": null,
    "price_level": "",
    "open_hours": "",
    "extraction_timestamp": "2025-06-07T17:27:30.633Z",
    "source_name": "google",
    "source_query": "Irrigation Equipment",
    "source_country": "PL",
    "country": "Poland",
    "state": "Greater Poland Voivodeship",
    "city": "Powiat koniński"
  },
  {
    "source_id": "ChIJL6WSECc3G0cR0cIZjFQOyyM",
    "name": "Laskowiec. Garden center",
    "category": "Laskowiec. Garden center",
    "formatted_address": "4,6(245)",
    "phone_number": "+48632479236",
    "source_url": "https://www.google.com/maps/place/Laskowiec.+Garden+center/data=!4m7!3m6!1s0x471b37271092a52f:0x23cb0e548c19c2d1!8m2!3d52.2317452!4d18.3177935!16s%2Fg%2F1wk6yj3q!19sChIJL6WSECc3G0cR0cIZjFQOyyM?authuser=0&hl=tr&rclk=1",
    "website_url": "",
    "rating_text": "4,6",
    "stars": null,
    "number_of_reviews": null,
    "price_level": "",
    "open_hours": "",
    "extraction_timestamp": "2025-06-07T17:27:30.634Z",
    "source_name": "google",
    "source_query": "Irrigation Equipment",
    "source_country": "PL",
    "country": "Poland",
    "state": "Greater Poland Voivodeship",
    "city": "Powiat koniński"
  },
  {
    "source_id": "ChIJMxysyRo1G0cRBxdQ1HKRxOo",
    "name": "REISAN Instalacje Gaz, wod-kan",
    "category": "REISAN Instalacje Gaz, wod-kan",
    "formatted_address": "REISAN Instalacje Gaz, wod-kan",
    "phone_number": "+48605133737",
    "source_url": "https://www.google.com/maps/place/REISAN+Instalacje+Gaz,+wod-kan/data=!4m7!3m6!1s0x471b351ac9ac1c33:0xeac49172d4501707!8m2!3d52.2376806!4d18.2112126!16s%2Fg%2F11y5611d4n!19sChIJMxysyRo1G0cRBxdQ1HKRxOo?authuser=0&hl=tr&rclk=1",
    "website_url": "",
    "rating_text": "5,0",
    "stars": null,
    "number_of_reviews": null,
    "price_level": "",
    "open_hours": "",
    "extraction_timestamp": "2025-06-07T17:27:30.635Z",
    "source_name": "google",
    "source_query": "Irrigation Equipment",
    "source_country": "PL",
    "country": "Poland",
    "state": "Greater Poland Voivodeship",
    "city": "Powiat koniński"
  },
  {
    "source_id": "ChIJ60u0JFs3G0cR_jpFnX6y7Ss",
    "name": "KLAJS - Fotowoltaika / Pompy ciepła / Klimatyzacja / Instalacje elektryczne, hydrauliczne",
    "category": "KLAJS - Fotowoltaika / Pompy ciepła / Klimatyzacja / Instalacje elektryczne, hydrauliczne",
    "formatted_address": "KLAJS - Fotowoltaika / Pompy ciepła / Klimatyzacja / Instalacje elektryczne, hydrauliczne",
    "phone_number": "+48693367166",
    "source_url": "https://www.google.com/maps/place/KLAJS+-+Fotowoltaika+%2F+Pompy+ciep%C5%82a+%2F+Klimatyzacja+%2F+Instalacje+elektryczne,+hydrauliczne/data=!4m7!3m6!1s0x471b375b24b44beb:0x2bedb27e9d453afe!8m2!3d52.2596108!4d18.3400905!16s%2Fg%2F11pvg9msk2!19sChIJ60u0JFs3G0cR_jpFnX6y7Ss?authuser=0&hl=tr&rclk=1",
    "website_url": "",
    "rating_text": "4,9",
    "stars": null,
    "number_of_reviews": null,
    "price_level": "",
    "open_hours": "",
    "extraction_timestamp": "2025-06-07T17:27:30.635Z",
    "source_name": "google",
    "source_query": "Irrigation Equipment",
    "source_country": "PL",
    "country": "Poland",
    "state": "Greater Poland Voivodeship",
    "city": "Powiat koniński"
  },
  {
    "source_id": "ChIJwcvZK48xG0cRsX6N4Rv2gTI",
    "name": "aleno.pl",
    "category": "aleno.pl",
    "formatted_address": "5,0(65)",
    "phone_number": "+48632441077",
    "source_url": "https://www.google.com/maps/place/aleno.pl/data=!4m7!3m6!1s0x471b318f2bd9cbc1:0x3281f61be18d7eb1!8m2!3d52.2081521!4d18.2572266!16s%2Fg%2F11wq7lm7q0!19sChIJwcvZK48xG0cRsX6N4Rv2gTI?authuser=0&hl=tr&rclk=1",
    "website_url": "",
    "rating_text": "5,0",
    "stars": null,
    "number_of_reviews": null,
    "price_level": "",
    "open_hours": "",
    "extraction_timestamp": "2025-06-07T17:27:30.636Z",
    "source_name": "google",
    "source_query": "Irrigation Equipment",
    "source_country": "PL",
    "country": "Poland",
    "state": "Greater Poland Voivodeship",
    "city": "Powiat koniński"
  },
  {
    "source_id": "ChIJvZRbqYozG0cRj9USGBaOKfI",
    "name": "AQUA - RUR PHU Barbara Januszkiewicz",
    "category": "AQUA - RUR PHU Barbara Januszkiewicz",
    "formatted_address": "5,0(1)",
    "phone_number": "+48632457110",
    "source_url": "https://www.google.com/maps/place/AQUA+-+RUR+PHU+Barbara+Januszkiewicz/data=!4m7!3m6!1s0x471b338aa95b94bd:0xf2298e161812d58f!8m2!3d52.2337903!4d18.2261613!16s%2Fg%2F1ts1ld5w!19sChIJvZRbqYozG0cRj9USGBaOKfI?authuser=0&hl=tr&rclk=1",
    "website_url": "",
    "rating_text": "5,0",
    "stars": null,
    "number_of_reviews": null,
    "price_level": "",
    "open_hours": "",
    "extraction_timestamp": "2025-06-07T17:27:30.637Z",
    "source_name": "google",
    "source_query": "Irrigation Equipment",
    "source_country": "PL",
    "country": "Poland",
    "state": "Greater Poland Voivodeship",
    "city": "Powiat koniński"
  },
  {
    "source_id": "ChIJx_IgRzkzG0cROxXcLd-Qoeg",
    "name": "Ekosystemy - Kompleksowe usługi ogrodnicze",
    "category": "Ekosystemy - Kompleksowe usługi ogrodnicze",
    "formatted_address": "5,0(3)",
    "phone_number": "+48601764697",
    "source_url": "https://www.google.com/maps/place/Ekosystemy+-+Kompleksowe+us%C5%82ugi+ogrodnicze/data=!4m7!3m6!1s0x471b33394720f2c7:0xe8a190df2ddc153b!8m2!3d52.2517812!4d18.1518541!16s%2Fg%2F11sgl1jyz6!19sChIJx_IgRzkzG0cROxXcLd-Qoeg?authuser=0&hl=tr&rclk=1",
    "website_url": "",
    "rating_text": "5,0",
    "stars": null,
    "number_of_reviews": null,
    "price_level": "",
    "open_hours": "",
    "extraction_timestamp": "2025-06-07T17:27:30.638Z",
    "source_name": "google",
    "source_query": "Irrigation Equipment",
    "source_country": "PL",
    "country": "Poland",
    "state": "Greater Poland Voivodeship",
    "city": "Powiat koniński"
  },
  {
    "source_id": "ChIJOezOcEExG0cRTcniczjcqd8",
    "name": "Art-Metal Sp. o.o.",
    "category": "Art-Metal Sp. o.o.",
    "formatted_address": "4,6(141)",
    "phone_number": "+48632445277",
    "source_url": "https://www.google.com/maps/place/Art-Metal+Sp.+o.o./data=!4m7!3m6!1s0x471b314170ceec39:0xdfa9dc3873e2c94d!8m2!3d52.2081415!4d18.2572694!16s%2Fg%2F1tj954xz!19sChIJOezOcEExG0cRTcniczjcqd8?authuser=0&hl=tr&rclk=1",
    "website_url": "",
    "rating_text": "4,6",
    "stars": null,
    "number_of_reviews": null,
    "price_level": "",
    "open_hours": "",
    "extraction_timestamp": "2025-06-07T17:27:30.639Z",
    "source_name": "google",
    "source_query": "Irrigation Equipment",
    "source_country": "PL",
    "country": "Poland",
    "state": "Greater Poland Voivodeship",
    "city": "Powiat koniński"
  },
  {
    "source_id": "ChIJ8UYNhVExG0cRVyVgOk9bOMU",
    "name": "Ciepłownia geotermalna",
    "category": "Ciepłownia geotermalna",
    "formatted_address": "4,0(6)",
    "phone_number": "",
    "source_url": "https://www.google.com/maps/place/Ciep%C5%82ownia+geotermalna/data=!4m7!3m6!1s0x471b3151850d46f1:0xc5385b4f3a602557!8m2!3d52.2190531!4d18.2572529!16s%2Fg%2F11rj02m88s!19sChIJ8UYNhVExG0cRVyVgOk9bOMU?authuser=0&hl=tr&rclk=1",
    "website_url": "",
    "rating_text": "4,0",
    "stars": null,
    "number_of_reviews": null,
    "price_level": "",
    "open_hours": "",
    "extraction_timestamp": "2025-06-07T17:27:30.639Z",
    "source_name": "google",
    "source_query": "Irrigation Equipment",
    "source_country": "PL",
    "country": "Poland",
    "state": "Greater Poland Voivodeship",
    "city": "Powiat koniński"
  },
  {
    "source_id": "ChIJmfZRRKpXAkcR1MoaeRxNjr0",
    "name": "Rolmet-Plus - Hydraulika Siłowa Punkt odbioru zamówień Konin",
    "category": "Rolmet-Plus - Hydraulika Siłowa Punkt odbioru zamówień Konin",
    "formatted_address": "4,8(9)",
    "phone_number": "+48516131594",
    "source_url": "https://www.google.com/maps/place/Rolmet-Plus+-+Hydraulika+Si%C5%82owa+Punkt+odbioru+zam%C3%B3wie%C5%84+Konin/data=!4m7!3m6!1s0x470257aa4451f699:0xbd8e4d1c791acad4!8m2!3d52.2301776!4d18.2380751!16s%2Fg%2F119v9_st0!19sChIJmfZRRKpXAkcR1MoaeRxNjr0?authuser=0&hl=tr&rclk=1",
    "website_url": "",
    "rating_text": "4,8",
    "stars": null,
    "number_of_reviews": null,
    "price_level": "",
    "open_hours": "",
    "extraction_timestamp": "2025-06-07T17:27:30.640Z",
    "source_name": "google",
    "source_query": "Irrigation Equipment",
    "source_country": "PL",
    "country": "Poland",
    "state": "Greater Poland Voivodeship",
    "city": "Powiat koniński"
  },
  {
    "source_id": "ChIJLb2lBkAxG0cRKvXsL49IQBQ",
    "name": "Studnie Głębinowe Konin WLKW",
    "category": "Studnie Głębinowe Konin WLKW",
    "formatted_address": "4,5(45)",
    "phone_number": "+48727648576",
    "source_url": "https://www.google.com/maps/place/Studnie+G%C5%82%C4%99binowe+Konin+WLKW/data=!4m7!3m6!1s0x471b314006a5bd2d:0x1440488f2fecf52a!8m2!3d52.1877727!4d18.2759017!16s%2Fg%2F11cmj3s039!19sChIJLb2lBkAxG0cRKvXsL49IQBQ?authuser=0&hl=tr&rclk=1",
    "website_url": "",
    "rating_text": "4,5",
    "stars": null,
    "number_of_reviews": null,
    "price_level": "",
    "open_hours": "",
    "extraction_timestamp": "2025-06-07T17:27:30.641Z",
    "source_name": "google",
    "source_query": "Irrigation Equipment",
    "source_country": "PL",
    "country": "Poland",
    "state": "Greater Poland Voivodeship",
    "city": "Powiat koniński"
  },
  {
    "source_id": "ChIJpfgyJb81G0cRom_2l5wAGtk",
    "name": "Grawel Wiesław Pospiech - agregaty prądotwórcze, zasilanie imprez",
    "category": "Grawel Wiesław Pospiech - agregaty prądotwórcze, zasilanie imprez",
    "formatted_address": "Grawel Wiesław Pospiech - agregaty prądotwórcze, zasilanie imprez",
    "phone_number": "+48601081520",
    "source_url": "https://www.google.com/maps/place/Grawel+Wies%C5%82aw+Pospiech+-+agregaty+pr%C4%85dotw%C3%B3rcze,+zasilanie+imprez/data=!4m7!3m6!1s0x471b35bf2532f8a5:0xd91a009c97f66fa2!8m2!3d52.289828!4d18.249898!16s%2Fg%2F11c0qfw6fk!19sChIJpfgyJb81G0cRom_2l5wAGtk?authuser=0&hl=tr&rclk=1",
    "website_url": "",
    "rating_text": "4,8",
    "stars": null,
    "number_of_reviews": null,
    "price_level": "",
    "open_hours": "",
    "extraction_timestamp": "2025-06-07T17:27:30.642Z",
    "source_name": "google",
    "source_query": "Irrigation Equipment",
    "source_country": "PL",
    "country": "Poland",
    "state": "Greater Poland Voivodeship",
    "city": "Powiat koniński"
  },
  {
    "source_id": "ChIJUdr6DBUxG0cRgyMTKjvOr4s",
    "name": "Hydrad. Hydraulika siłowa",
    "category": "Hydrad. Hydraulika siłowa",
    "formatted_address": "5,0(11)",
    "phone_number": "+48661121022",
    "source_url": "https://www.google.com/maps/place/Hydrad.+Hydraulika+si%C5%82owa/data=!4m7!3m6!1s0x471b31150cfada51:0x8bafce3b2a132383!8m2!3d52.2160415!4d18.2489218!16s%2Fg%2F11p7393slj!19sChIJUdr6DBUxG0cRgyMTKjvOr4s?authuser=0&hl=tr&rclk=1",
    "website_url": "",
    "rating_text": "5,0",
    "stars": null,
    "number_of_reviews": null,
    "price_level": "",
    "open_hours": "",
    "extraction_timestamp": "2025-06-07T17:27:30.643Z",
    "source_name": "google",
    "source_query": "Irrigation Equipment",
    "source_country": "PL",
    "country": "Poland",
    "state": "Greater Poland Voivodeship",
    "city": "Powiat koniński"
  },
  {
    "source_id": "ChIJvdHqGag3G0cRMMPykSMK2_A",
    "name": "Prusaqua - Hydraulik | Konin",
    "category": "Prusaqua - Hydraulik | Konin",
    "formatted_address": "4,9(19)",
    "phone_number": "+48669472995",
    "source_url": "https://www.google.com/maps/place/Prusaqua+-+Hydraulik+%7C+Konin/data=!4m7!3m6!1s0x471b37a819ead1bd:0xf0db0a2391f2c330!8m2!3d52.2356565!4d18.2639966!16s%2Fg%2F11rx3dn57z!19sChIJvdHqGag3G0cRMMPykSMK2_A?authuser=0&hl=tr&rclk=1",
    "website_url": "",
    "rating_text": "4,9",
    "stars": null,
    "number_of_reviews": null,
    "price_level": "",
    "open_hours": "",
    "extraction_timestamp": "2025-06-07T17:27:30.644Z",
    "source_name": "google",
    "source_query": "Irrigation Equipment",
    "source_country": "PL",
    "country": "Poland",
    "state": "Greater Poland Voivodeship",
    "city": "Powiat koniński"
  },
  {
    "source_id": "ChIJq6pW8P8zG0cRt36w1oz5XjM",
    "name": "Systemy Grzewcze",
    "category": "Systemy Grzewcze",
    "formatted_address": "",
    "phone_number": "+48501316286",
    "source_url": "https://www.google.com/maps/place/Systemy+Grzewcze/data=!4m7!3m6!1s0x471b33fff056aaab:0x335ef98cd6b07eb7!8m2!3d52.2287585!4d18.2434828!16s%2Fg%2F11h231jv4j!19sChIJq6pW8P8zG0cRt36w1oz5XjM?authuser=0&hl=tr&rclk=1",
    "website_url": "",
    "rating_text": "",
    "stars": null,
    "number_of_reviews": null,
    "price_level": "",
    "open_hours": "",
    "extraction_timestamp": "2025-06-07T17:27:30.645Z",
    "source_name": "google",
    "source_query": "Irrigation Equipment",
    "source_country": "PL",
    "country": "Poland",
    "state": "Greater Poland Voivodeship",
    "city": "Powiat koniński"
  },
  {
    "source_id": "ChIJN-XGgowxG0cRTBYtGFMYm-A",
    "name": "JagodaPro",
    "category": "JagodaPro",
    "formatted_address": "5,0(6)",
    "phone_number": "+48781080273",
    "source_url": "https://www.google.com/maps/place/JagodaPro/data=!4m7!3m6!1s0x471b318c82c6e537:0xe09b1853182d164c!8m2!3d52.2274787!4d18.2533016!16s%2Fg%2F11y3m_10z8!19sChIJN-XGgowxG0cRTBYtGFMYm-A?authuser=0&hl=tr&rclk=1",
    "website_url": "",
    "rating_text": "5,0",
    "stars": null,
    "number_of_reviews": null,
    "price_level": "",
    "open_hours": "",
    "extraction_timestamp": "2025-06-07T17:27:30.646Z",
    "source_name": "google",
    "source_query": "Irrigation Equipment",
    "source_country": "PL",
    "country": "Poland",
    "state": "Greater Poland Voivodeship",
    "city": "Powiat koniński"
  },
  {
    "source_id": "ChIJXYvCBbAxG0cR_fsFVEVnoDE",
    "name": "Rowerowy Młyn Konin - autoryzowany dealer KROSS",
    "category": "Rowerowy Młyn Konin - autoryzowany dealer KROSS",
    "formatted_address": "4,9(50)",
    "phone_number": "+48510818090",
    "source_url": "https://www.google.com/maps/place/Rowerowy+M%C5%82yn+Konin+-+autoryzowany+dealer+KROSS/data=!4m7!3m6!1s0x471b31b005c28b5d:0x31a067455405fbfd!8m2!3d52.2108109!4d18.2565711!16s%2Fg%2F11fvg899v6!19sChIJXYvCBbAxG0cR_fsFVEVnoDE?authuser=0&hl=tr&rclk=1",
    "website_url": "",
    "rating_text": "4,9",
    "stars": null,
    "number_of_reviews": null,
    "price_level": "",
    "open_hours": "",
    "extraction_timestamp": "2025-06-07T17:27:30.647Z",
    "source_name": "google",
    "source_query": "Irrigation Equipment",
    "source_country": "PL",
    "country": "Poland",
    "state": "Greater Poland Voivodeship",
    "city": "Powiat koniński"
  },
  {
    "source_id": "ChIJx9oJjKM1G0cRuCCEmzZEVyY",
    "name": "Usługi spawalnicze monterskie Konin ENERGOMAT",
    "category": "Usługi spawalnicze monterskie Konin ENERGOMAT",
    "formatted_address": "5,0(1)",
    "phone_number": "+48510491002",
    "source_url": "https://www.google.com/maps/place/Us%C5%82ugi+spawalnicze+monterskie+Konin+ENERGOMAT/data=!4m7!3m6!1s0x471b35a38c09dac7:0x265744369b8420b8!8m2!3d52.239178!4d18.2331047!16s%2Fg%2F11h1zxdf1s!19sChIJx9oJjKM1G0cRuCCEmzZEVyY?authuser=0&hl=tr&rclk=1",
    "website_url": "",
    "rating_text": "5,0",
    "stars": null,
    "number_of_reviews": null,
    "price_level": "",
    "open_hours": "",
    "extraction_timestamp": "2025-06-07T17:27:30.647Z",
    "source_name": "google",
    "source_query": "Irrigation Equipment",
    "source_country": "PL",
    "country": "Poland",
    "state": "Greater Poland Voivodeship",
    "city": "Powiat koniński"
  },
  {
    "source_id": "ChIJF0B2QtJJG0cR08PMFY7Cehg",
    "name": "Gracjan. Systemy uzdatniania wody",
    "category": "Gracjan. Systemy uzdatniania wody",
    "formatted_address": "2,0(1)",
    "phone_number": "+48632420407",
    "source_url": "https://www.google.com/maps/place/Gracjan.+Systemy+uzdatniania+wody/data=!4m7!3m6!1s0x471b49d242764017:0x187ac28e15ccc3d3!8m2!3d52.3081987!4d18.3602422!16s%2Fg%2F1ptx0kwdk!19sChIJF0B2QtJJG0cR08PMFY7Cehg?authuser=0&hl=tr&rclk=1",
    "website_url": "",
    "rating_text": "2,0",
    "stars": null,
    "number_of_reviews": null,
    "price_level": "",
    "open_hours": "",
    "extraction_timestamp": "2025-06-07T17:27:30.648Z",
    "source_name": "google",
    "source_query": "Irrigation Equipment",
    "source_country": "PL",
    "country": "Poland",
    "state": "Greater Poland Voivodeship",
    "city": "Powiat koniński"
  },
  {
    "source_id": "ChIJp0w7lf8zG0cRjQbReuud1Ow",
    "name": "Castorama",
    "category": "Castorama",
    "formatted_address": "4,3(3.118)",
    "phone_number": "+48632707100",
    "source_url": "https://www.google.com/maps/place/Castorama/data=!4m7!3m6!1s0x471b33ff953b4ca7:0xecd49deb7ad1068d!8m2!3d52.1847672!4d18.2299092!16s%2Fg%2F1tmqdz62!19sChIJp0w7lf8zG0cRjQbReuud1Ow?authuser=0&hl=tr&rclk=1",
    "website_url": "",
    "rating_text": "4,3",
    "stars": null,
    "number_of_reviews": null,
    "price_level": "",
    "open_hours": "",
    "extraction_timestamp": "2025-06-07T17:27:30.650Z",
    "source_name": "google",
    "source_query": "Irrigation Equipment",
    "source_country": "PL",
    "country": "Poland",
    "state": "Greater Poland Voivodeship",
    "city": "Powiat koniński"
  },
  {
    "source_id": "ChIJay3HYEExG0cRt_yzCzT5vik",
    "name": "Sportissimo Sport I Rehabilitacja",
    "category": "Sportissimo Sport I Rehabilitacja",
    "formatted_address": "4,6(107)",
    "phone_number": "+48632440167",
    "source_url": "https://www.google.com/maps/place/Sportissimo+Sport+I+Rehabilitacja/data=!4m7!3m6!1s0x471b314160c72d6b:0x29bef9340bb3fcb7!8m2!3d52.2102616!4d18.2566474!16s%2Fg%2F11b7qbwcp8!19sChIJay3HYEExG0cRt_yzCzT5vik?authuser=0&hl=tr&rclk=1",
    "website_url": "",
    "rating_text": "4,6",
    "stars": null,
    "number_of_reviews": null,
    "price_level": "",
    "open_hours": "",
    "extraction_timestamp": "2025-06-07T17:27:30.668Z",
    "source_name": "google",
    "source_query": "Irrigation Equipment",
    "source_country": "PL",
    "country": "Poland",
    "state": "Greater Poland Voivodeship",
    "city": "Powiat koniński"
  },
  {
    "source_id": "ChIJ5_GcFAg0G0cRfjxuPe0rWY0",
    "name": "Leroy Merlin",
    "category": "Leroy Merlin",
    "formatted_address": "4,3(2.004)",
    "phone_number": "+48632494800",
    "source_url": "https://www.google.com/maps/place/Leroy+Merlin/data=!4m7!3m6!1s0x471b3408149cf1e7:0x8d592bed3d6e3c7e!8m2!3d52.233029!4d18.2312178!16s%2Fg%2F11cmsyg1bg!19sChIJ5_GcFAg0G0cRfjxuPe0rWY0?authuser=0&hl=tr&rclk=1",
    "website_url": "",
    "rating_text": "4,3",
    "stars": null,
    "number_of_reviews": null,
    "price_level": "",
    "open_hours": "",
    "extraction_timestamp": "2025-06-07T17:27:30.670Z",
    "source_name": "google",
    "source_query": "Irrigation Equipment",
    "source_country": "PL",
    "country": "Poland",
    "state": "Greater Poland Voivodeship",
    "city": "Powiat koniński"
  },
  {
    "source_id": "ChIJI9zG8K42G0cRVXx086wq08c",
    "name": "Koneser alkoholi",
    "category": "Koneser alkoholi",
    "formatted_address": "4,9(25)",
    "phone_number": "+48796578981",
    "source_url": "https://www.google.com/maps/place/Koneser+alkoholi/data=!4m7!3m6!1s0x471b36aef0c6dc23:0xc7d32aacf3747c55!8m2!3d52.2343036!4d18.2601592!16s%2Fg%2F11g0214p08!19sChIJI9zG8K42G0cRVXx086wq08c?authuser=0&hl=tr&rclk=1",
    "website_url": "",
    "rating_text": "4,9",
    "stars": null,
    "number_of_reviews": null,
    "price_level": "",
    "open_hours": "",
    "extraction_timestamp": "2025-06-07T17:27:30.671Z",
    "source_name": "google",
    "source_query": "Irrigation Equipment",
    "source_country": "PL",
    "country": "Poland",
    "state": "Greater Poland Voivodeship",
    "city": "Powiat koniński"
  },
  {
    "source_id": "ChIJk513aXXBHg4RCd6p72blGA0",
    "name": "BUDIMAR",
    "category": "BUDIMAR",
    "formatted_address": "5,0(2)",
    "phone_number": "+48538198769",
    "source_url": "https://www.google.com/maps/place/BUDIMAR/data=!4m7!3m6!1s0xe1ec17569779d93:0xd18e566efa9de09!8m2!3d52.097736!4d18.1857653!16s%2Fg%2F11ww7cw11z!19sChIJk513aXXBHg4RCd6p72blGA0?authuser=0&hl=tr&rclk=1",
    "website_url": "",
    "rating_text": "5,0",
    "stars": null,
    "number_of_reviews": null,
    "price_level": "",
    "open_hours": "",
    "extraction_timestamp": "2025-06-07T17:27:30.672Z",
    "source_name": "google",
    "source_query": "Irrigation Equipment",
    "source_country": "PL",
    "country": "Poland",
    "state": "Greater Poland Voivodeship",
    "city": "Powiat koniński"
  },
  {
    "source_id": "ChIJQUDcewQ0G0cRwfPFBb0kvQc",
    "name": "GRODNO S.A. Hurtownia Elektryczna",
    "category": "GRODNO S.A. Hurtownia Elektryczna",
    "formatted_address": "4,6(14)",
    "phone_number": "+48504839976",
    "source_url": "https://www.google.com/maps/place/GRODNO+S.A.+Hurtownia+Elektryczna/data=!4m7!3m6!1s0x471b34047bdc4041:0x7bd24bd05c5f3c1!8m2!3d52.2376196!4d18.2389549!16s%2Fg%2F11gb3t9v5g!19sChIJQUDcewQ0G0cRwfPFBb0kvQc?authuser=0&hl=tr&rclk=1",
    "website_url": "",
    "rating_text": "4,6",
    "stars": null,
    "number_of_reviews": null,
    "price_level": "",
    "open_hours": "",
    "extraction_timestamp": "2025-06-07T17:27:30.673Z",
    "source_name": "google",
    "source_query": "Irrigation Equipment",
    "source_country": "PL",
    "country": "Poland",
    "state": "Greater Poland Voivodeship",
    "city": "Powiat koniński"
  }
]
