[
  {
    "source_id": "ChIJ1SFNibAtBUcRMKWhXWdxagE",
    "name": "GIELNIAK Energo-System PRODUCENT KOTŁÓW",
    "category": "GIELNIAK Energo-System PRODUCENT KOTŁÓW",
    "formatted_address": "4,6(26)",
    "phone_number": "+48625083066",
    "source_url": "https://www.google.com/maps/place/GIELNIAK+Energo-System+PRODUCENT+KOT%C5%81%C3%93W/data=!4m7!3m6!1s0x47052db0894d21d5:0x16a71675da1a530!8m2!3d51.8936896!4d17.8010919!16s%2Fg%2F1tmpj6gz!19sChIJ1SFNibAtBUcRMKWhXWdxagE?authuser=0&hl=tr&rclk=1",
    "website_url": "http://www.gielniak-energosystem.pl/",
    "rating_text": "4,6",
    "stars": null,
    "number_of_reviews": null,
    "price_level": "",
    "open_hours": "",
    "extraction_timestamp": "2025-06-07T17:21:00.336Z",
    "source_name": "google",
    "source_query": "Irrigation Equipment",
    "source_country": "PL",
    "country": "Poland",
    "state": "Greater Poland Voivodeship",
    "city": "Powiat pleszewski"
  },
  {
    "source_id": "ChIJ-ar9G8ktBUcRo8bCcFdjMtY",
    "name": "Tlen-Spaw s.c.",
    "category": "Tlen-Spaw s.c.",
    "formatted_address": "4,6(14)",
    "phone_number": "+48627422039",
    "source_url": "https://www.google.com/maps/place/Tlen-Spaw+s.c./data=!4m7!3m6!1s0x47052dc91bfdaaf9:0xd632635770c2c6a3!8m2!3d51.8991075!4d17.7848234!16s%2Fg%2F1hc604bxx!19sChIJ-ar9G8ktBUcRo8bCcFdjMtY?authuser=0&hl=tr&rclk=1",
    "website_url": "http://www.tlenspaw.pl/index.php?p1123,uchwyt-do-kredy-nr-kat-548960080140",
    "rating_text": "4,6",
    "stars": null,
    "number_of_reviews": null,
    "price_level": "",
    "open_hours": "",
    "extraction_timestamp": "2025-06-07T17:21:00.337Z",
    "source_name": "google",
    "source_query": "Irrigation Equipment",
    "source_country": "PL",
    "country": "Poland",
    "state": "Greater Poland Voivodeship",
    "city": "Powiat pleszewski"
  },
  {
    "source_id": "ChIJPWC2Y9otBUcRQUbHnbFuHFg",
    "name": "PHPU GIZEX Sp. z o.o.",
    "category": "PHPU GIZEX Sp. z o.o.",
    "formatted_address": "4,5(11)",
    "phone_number": "+48627422271",
    "source_url": "https://www.google.com/maps/place/PHPU+GIZEX+Sp.+z+o.o./data=!4m7!3m6!1s0x47052dda63b6603d:0x581c6eb19dc74641!8m2!3d51.9024874!4d17.7521036!16s%2Fg%2F1tgn_hq3!19sChIJPWC2Y9otBUcRQUbHnbFuHFg?authuser=0&hl=tr&rclk=1",
    "website_url": "",
    "rating_text": "4,5",
    "stars": null,
    "number_of_reviews": null,
    "price_level": "",
    "open_hours": "",
    "extraction_timestamp": "2025-06-07T17:21:00.339Z",
    "source_name": "google",
    "source_query": "Irrigation Equipment",
    "source_country": "PL",
    "country": "Poland",
    "state": "Greater Poland Voivodeship",
    "city": "Powiat pleszewski"
  },
  {
    "source_id": "ChIJx8Jjs0TWfQ0RS193ic7qU5s",
    "name": "WATER GARDEN . Zakładanie ogrodów ,usługi ogrodnicze , nawadnianie ogrodów, roboty koszące",
    "category": "WATER GARDEN . Zakładanie ogrodów ,usługi ogrodnicze , nawadnianie ogrodów, roboty koszące",
    "formatted_address": "WATER GARDEN . Zakładanie ogrodów ,usługi ogrodnicze , nawadnianie ogrodów, roboty koszące",
    "phone_number": "+48723878160",
    "source_url": "https://www.google.com/maps/place/WATER+GARDEN+.+Zak%C5%82adanie+ogrod%C3%B3w+,us%C5%82ugi+ogrodnicze+,+nawadnianie+ogrod%C3%B3w,+roboty+kosz%C4%85ce/data=!4m7!3m6!1s0xd7dd644b363c2c7:0x9b53eace89775f4b!8m2!3d51.82928!4d17.8410937!16s%2Fg%2F11rn4njbnl!19sChIJx8Jjs0TWfQ0RS193ic7qU5s?authuser=0&hl=tr&rclk=1",
    "website_url": "",
    "rating_text": "5,0",
    "stars": null,
    "number_of_reviews": null,
    "price_level": "",
    "open_hours": "",
    "extraction_timestamp": "2025-06-07T17:21:00.340Z",
    "source_name": "google",
    "source_query": "Irrigation Equipment",
    "source_country": "PL",
    "country": "Poland",
    "state": "Greater Poland Voivodeship",
    "city": "Powiat pleszewski"
  },
  {
    "source_id": "ChIJ0_FoHU0lBUcRXw1vDudVHpI",
    "name": "Z-WATER POLSKA Sp.zoo",
    "category": "Z-WATER POLSKA Sp.zoo",
    "formatted_address": "5,0(2)",
    "phone_number": "+48697989505",
    "source_url": "https://www.google.com/maps/place/Z-WATER+POLSKA+Sp.zoo/data=!4m7!3m6!1s0x4705254d1d68f1d3:0x921e55e70e6f0d5f!8m2!3d51.9423666!4d17.5683329!16s%2Fg%2F11v59cnjqk!19sChIJ0_FoHU0lBUcRXw1vDudVHpI?authuser=0&hl=tr&rclk=1",
    "website_url": "https://www.z-water.pl/",
    "rating_text": "5,0",
    "stars": null,
    "number_of_reviews": null,
    "price_level": "",
    "open_hours": "",
    "extraction_timestamp": "2025-06-07T17:21:00.342Z",
    "source_name": "google",
    "source_query": "Irrigation Equipment",
    "source_country": "PL",
    "country": "Poland",
    "state": "Greater Poland Voivodeship",
    "city": "Powiat pleszewski"
  },
  {
    "source_id": "ChIJ26BbucAtBUcRlke3VoMcYq0",
    "name": "F.H.U. Hydro-Pan",
    "category": "F.H.U. Hydro-Pan",
    "formatted_address": "4,1(7)",
    "phone_number": "",
    "source_url": "https://www.google.com/maps/place/F.H.U.+Hydro-Pan/data=!4m7!3m6!1s0x47052dc0b95ba0db:0xad621c8356b74796!8m2!3d51.8891558!4d17.7858934!16s%2Fg%2F11hc_4bjxs!19sChIJ26BbucAtBUcRlke3VoMcYq0?authuser=0&hl=tr&rclk=1",
    "website_url": "",
    "rating_text": "4,1",
    "stars": null,
    "number_of_reviews": null,
    "price_level": "",
    "open_hours": "",
    "extraction_timestamp": "2025-06-07T17:21:00.343Z",
    "source_name": "google",
    "source_query": "Irrigation Equipment",
    "source_country": "PL",
    "country": "Poland",
    "state": "Greater Poland Voivodeship",
    "city": "Powiat pleszewski"
  },
  {
    "source_id": "ChIJgy6tLagtBUcRBWs4wOpNODY",
    "name": "PPHU KONSTAL s.c.",
    "category": "PPHU KONSTAL s.c.",
    "formatted_address": "4,6(68)",
    "phone_number": "+48509865669",
    "source_url": "https://www.google.com/maps/place/PPHU+KONSTAL+s.c./data=!4m7!3m6!1s0x47052da82dad2e83:0x36384deac0386b05!8m2!3d51.8923721!4d17.8210868!16s%2Fg%2F1tg4_3k1!19sChIJgy6tLagtBUcRBWs4wOpNODY?authuser=0&hl=tr&rclk=1",
    "website_url": "https://kotly24.pl/",
    "rating_text": "4,6",
    "stars": null,
    "number_of_reviews": null,
    "price_level": "",
    "open_hours": "",
    "extraction_timestamp": "2025-06-07T17:21:00.344Z",
    "source_name": "google",
    "source_query": "Irrigation Equipment",
    "source_country": "PL",
    "country": "Poland",
    "state": "Greater Poland Voivodeship",
    "city": "Powiat pleszewski"
  },
  {
    "source_id": "ChIJgeVlALgtBUcRA_PSm6_wo7Q",
    "name": "Servamet SKA. HURTOWNIA SPAWALNICZO -NARZEDZIOWA, GAZY TECHNICZNE, AGREGATY PRĄDOTWÓRCZE, KOMPRESORY.",
    "category": "Servamet SKA. HURTOWNIA SPAWALNICZO -NARZEDZIOWA, GAZY TECHNICZNE, AGREGATY PRĄDOTWÓRCZE, KOMPRESORY.",
    "formatted_address": "Servamet SKA. HURTOWNIA SPAWALNICZO -NARZEDZIOWA, GAZY TECHNICZNE, AGREGATY PRĄDOTWÓRCZE, KOMPRESORY.",
    "phone_number": "+48625083017",
    "source_url": "https://www.google.com/maps/place/Servamet+SKA.+HURTOWNIA+SPAWALNICZO+-NARZEDZIOWA,+GAZY+TECHNICZNE,+AGREGATY+PR%C4%84DOTW%C3%93RCZE,+KOMPRESORY./data=!4m7!3m6!1s0x47052db80065e581:0xb4a3f0af9bd2f303!8m2!3d51.8938731!4d17.8198116!16s%2Fg%2F1tk9pgl6!19sChIJgeVlALgtBUcRA_PSm6_wo7Q?authuser=0&hl=tr&rclk=1",
    "website_url": "http://www.servamet.pl/",
    "rating_text": "5,0",
    "stars": null,
    "number_of_reviews": null,
    "price_level": "",
    "open_hours": "",
    "extraction_timestamp": "2025-06-07T17:21:00.346Z",
    "source_name": "google",
    "source_query": "Irrigation Equipment",
    "source_country": "PL",
    "country": "Poland",
    "state": "Greater Poland Voivodeship",
    "city": "Powiat pleszewski"
  },
  {
    "source_id": "ChIJb7NAEcctBUcRPELeJt-5CmM",
    "name": "PHU AKAJ PLUS Tomasz Moliński Hurt-Detal",
    "category": "PHU AKAJ PLUS Tomasz Moliński Hurt-Detal",
    "formatted_address": "5,0(6)",
    "phone_number": "+48570150805",
    "source_url": "https://www.google.com/maps/place/PHU+AKAJ+PLUS+Tomasz+Moli%C5%84ski+Hurt-Detal/data=!4m7!3m6!1s0x47052dc71140b36f:0x630ab9df26de423c!8m2!3d51.8926208!4d17.785424!16s%2Fg%2F1pty9khrx!19sChIJb7NAEcctBUcRPELeJt-5CmM?authuser=0&hl=tr&rclk=1",
    "website_url": "http://www.akaj.pl/",
    "rating_text": "5,0",
    "stars": null,
    "number_of_reviews": null,
    "price_level": "",
    "open_hours": "",
    "extraction_timestamp": "2025-06-07T17:21:00.347Z",
    "source_name": "google",
    "source_query": "Irrigation Equipment",
    "source_country": "PL",
    "country": "Poland",
    "state": "Greater Poland Voivodeship",
    "city": "Powiat pleszewski"
  },
  {
    "source_id": "ChIJEVabSc8tBUcRinbuEXGDjAY",
    "name": "Gawix Pleszew",
    "category": "Gawix Pleszew",
    "formatted_address": "3,0(2)",
    "phone_number": "+48627429038",
    "source_url": "https://www.google.com/maps/place/Gawix+Pleszew/data=!4m7!3m6!1s0x47052dcf499b5611:0x68c837111ee768a!8m2!3d51.8979099!4d17.782844!16s%2Fg%2F11fgxvm9nl!19sChIJEVabSc8tBUcRinbuEXGDjAY?authuser=0&hl=tr&rclk=1",
    "website_url": "http://gawix.pl/",
    "rating_text": "3,0",
    "stars": null,
    "number_of_reviews": null,
    "price_level": "",
    "open_hours": "",
    "extraction_timestamp": "2025-06-07T17:21:00.349Z",
    "source_name": "google",
    "source_query": "Irrigation Equipment",
    "source_country": "PL",
    "country": "Poland",
    "state": "Greater Poland Voivodeship",
    "city": "Powiat pleszewski"
  },
  {
    "source_id": "ChIJgYgXNo4tBUcRvHob0YkCPNc",
    "name": "Instalacje Sanitarne Hydro-Szul Piotr Szulczyński",
    "category": "Instalacje Sanitarne Hydro-Szul Piotr Szulczyński",
    "formatted_address": "4,2(5)",
    "phone_number": "+48538024993",
    "source_url": "https://www.google.com/maps/place/Instalacje+Sanitarne+Hydro-Szul+Piotr+Szulczy%C5%84ski/data=!4m7!3m6!1s0x47052d8e36178881:0xd73c0289d11b7abc!8m2!3d51.8897554!4d17.7673148!16s%2Fg%2F11w838v9ww!19sChIJgYgXNo4tBUcRvHob0YkCPNc?authuser=0&hl=tr&rclk=1",
    "website_url": "https://hydroszul.pl/",
    "rating_text": "4,2",
    "stars": null,
    "number_of_reviews": null,
    "price_level": "",
    "open_hours": "",
    "extraction_timestamp": "2025-06-07T17:21:00.350Z",
    "source_name": "google",
    "source_query": "Irrigation Equipment",
    "source_country": "PL",
    "country": "Poland",
    "state": "Greater Poland Voivodeship",
    "city": "Powiat pleszewski"
  },
  {
    "source_id": "ChIJ13gazcQtBUcRBRfyhuLGt-Q",
    "name": "UNITEP Hurtownia Online",
    "category": "UNITEP Hurtownia Online",
    "formatted_address": "5,0(3)",
    "phone_number": "+48731001003",
    "source_url": "https://www.google.com/maps/place/UNITEP+Hurtownia+Online/data=!4m7!3m6!1s0x47052dc4cd1a78d7:0xe4b7c6e286f21705!8m2!3d51.8889109!4d17.7746291!16s%2Fg%2F11bbrkckfr!19sChIJ13gazcQtBUcRBRfyhuLGt-Q?authuser=0&hl=tr&rclk=1",
    "website_url": "http://www.unitep.pl/",
    "rating_text": "5,0",
    "stars": null,
    "number_of_reviews": null,
    "price_level": "",
    "open_hours": "",
    "extraction_timestamp": "2025-06-07T17:21:00.351Z",
    "source_name": "google",
    "source_query": "Irrigation Equipment",
    "source_country": "PL",
    "country": "Poland",
    "state": "Greater Poland Voivodeship",
    "city": "Powiat pleszewski"
  },
  {
    "source_id": "ChIJj_GjRX4tBUcRNdMCOLpd4XI",
    "name": "ISW Instalacje Sanitarne Oskar Wojtkowiak",
    "category": "ISW Instalacje Sanitarne Oskar Wojtkowiak",
    "formatted_address": "5,0(3)",
    "phone_number": "+48607759937",
    "source_url": "https://www.google.com/maps/place/ISW+Instalacje+Sanitarne+Oskar+Wojtkowiak/data=!4m7!3m6!1s0x47052d7e45a3f18f:0x72e15dba3802d335!8m2!3d51.9009304!4d17.7658276!16s%2Fg%2F11szd2rpt5!19sChIJj_GjRX4tBUcRNdMCOLpd4XI?authuser=0&hl=tr&rclk=1",
    "website_url": "",
    "rating_text": "5,0",
    "stars": null,
    "number_of_reviews": null,
    "price_level": "",
    "open_hours": "",
    "extraction_timestamp": "2025-06-07T17:21:00.353Z",
    "source_name": "google",
    "source_query": "Irrigation Equipment",
    "source_country": "PL",
    "country": "Poland",
    "state": "Greater Poland Voivodeship",
    "city": "Powiat pleszewski"
  },
  {
    "source_id": "ChIJbaXJccY7BUcReQuIKCu_G5M",
    "name": "PROweld Łukasz Olejniczak",
    "category": "PROweld Łukasz Olejniczak",
    "formatted_address": "5,0(2)",
    "phone_number": "+48727772666",
    "source_url": "https://www.google.com/maps/place/PROweld+%C5%81ukasz+Olejniczak/data=!4m7!3m6!1s0x47053bc671c9a56d:0x931bbf2b28880b79!8m2!3d51.8513095!4d17.5955648!16s%2Fg%2F11rn4q80w4!19sChIJbaXJccY7BUcReQuIKCu_G5M?authuser=0&hl=tr&rclk=1",
    "website_url": "https://proweld.oferteo.pl/",
    "rating_text": "5,0",
    "stars": null,
    "number_of_reviews": null,
    "price_level": "",
    "open_hours": "",
    "extraction_timestamp": "2025-06-07T17:21:00.354Z",
    "source_name": "google",
    "source_query": "Irrigation Equipment",
    "source_country": "PL",
    "country": "Poland",
    "state": "Greater Poland Voivodeship",
    "city": "Powiat pleszewski"
  },
  {
    "source_id": "ChIJWdltVsEtBUcRwTDNo2X5T3g",
    "name": "ROLBUD- Pleszew",
    "category": "ROLBUD- Pleszew",
    "formatted_address": "4,5(14)",
    "phone_number": "+48627422183",
    "source_url": "https://www.google.com/maps/place/ROLBUD-+Pleszew/data=!4m7!3m6!1s0x47052dc1566dd959:0x784ff965a3cd30c1!8m2!3d51.8915191!4d17.7805937!16s%2Fg%2F1trvk3sd!19sChIJWdltVsEtBUcRwTDNo2X5T3g?authuser=0&hl=tr&rclk=1",
    "website_url": "http://www.rolbud.com/",
    "rating_text": "4,5",
    "stars": null,
    "number_of_reviews": null,
    "price_level": "",
    "open_hours": "",
    "extraction_timestamp": "2025-06-07T17:21:00.356Z",
    "source_name": "google",
    "source_query": "Irrigation Equipment",
    "source_country": "PL",
    "country": "Poland",
    "state": "Greater Poland Voivodeship",
    "city": "Powiat pleszewski"
  },
  {
    "source_id": "ChIJqW5Ync0tBUcRN-uZg6RZgos",
    "name": "Pompy Ciepła Montaż - HPU CoVent",
    "category": "Pompy Ciepła Montaż - HPU CoVent",
    "formatted_address": "5,0(7)",
    "phone_number": "+48603155226",
    "source_url": "https://www.google.com/maps/place/Pompy+Ciep%C5%82a+Monta%C5%BC+-+HPU+CoVent/data=!4m7!3m6!1s0x47052dcd9d586ea9:0x8b8259a48399eb37!8m2!3d51.8951021!4d17.7767691!16s%2Fg%2F11khbbyqxz!19sChIJqW5Ync0tBUcRN-uZg6RZgos?authuser=0&hl=tr&rclk=1",
    "website_url": "https://hpucovent.pl/",
    "rating_text": "5,0",
    "stars": null,
    "number_of_reviews": null,
    "price_level": "",
    "open_hours": "",
    "extraction_timestamp": "2025-06-07T17:21:00.357Z",
    "source_name": "google",
    "source_query": "Irrigation Equipment",
    "source_country": "PL",
    "country": "Poland",
    "state": "Greater Poland Voivodeship",
    "city": "Powiat pleszewski"
  },
  {
    "source_id": "ChIJ-_d2u7gtBUcRvfN9Uk46Ni8",
    "name": "Kotły 24 FHU J. Orłowski - Sprzedaż internetowa",
    "category": "Kotły 24 FHU J. Orłowski - Sprzedaż internetowa",
    "formatted_address": "5,0(2)",
    "phone_number": "+48532532262",
    "source_url": "https://www.google.com/maps/place/Kot%C5%82y+24+FHU+J.+Or%C5%82owski+-+Sprzeda%C5%BC+internetowa/data=!4m7!3m6!1s0x47052db8bb76f7fb:0x2f363a4e527df3bd!8m2!3d51.8865119!4d17.7797999!16s%2Fg%2F11l_gxwcf3!19sChIJ-_d2u7gtBUcRvfN9Uk46Ni8?authuser=0&hl=tr&rclk=1",
    "website_url": "http://www.kotly24.com/",
    "rating_text": "5,0",
    "stars": null,
    "number_of_reviews": null,
    "price_level": "",
    "open_hours": "",
    "extraction_timestamp": "2025-06-07T17:21:00.359Z",
    "source_name": "google",
    "source_query": "Irrigation Equipment",
    "source_country": "PL",
    "country": "Poland",
    "state": "Greater Poland Voivodeship",
    "city": "Powiat pleszewski"
  },
  {
    "source_id": "ChIJO1UtdJotBUcRXZBXPhGJq78",
    "name": "Sanitex",
    "category": "Sanitex",
    "formatted_address": "4,9(26)",
    "phone_number": "+48627418275",
    "source_url": "https://www.google.com/maps/place/Sanitex/data=!4m7!3m6!1s0x47052d9a742d553b:0xbfab89113e57905d!8m2!3d51.8602544!4d17.8008062!16s%2Fg%2F1tdkfbnc!19sChIJO1UtdJotBUcRXZBXPhGJq78?authuser=0&hl=tr&rclk=1",
    "website_url": "http://www.sanitex.pl/",
    "rating_text": "4,9",
    "stars": null,
    "number_of_reviews": null,
    "price_level": "",
    "open_hours": "",
    "extraction_timestamp": "2025-06-07T17:21:00.360Z",
    "source_name": "google",
    "source_query": "Irrigation Equipment",
    "source_country": "PL",
    "country": "Poland",
    "state": "Greater Poland Voivodeship",
    "city": "Powiat pleszewski"
  },
  {
    "source_id": "ChIJ8SpfQGMlBUcRyWMhywVufJg",
    "name": "FOLREC",
    "category": "FOLREC",
    "formatted_address": "5,0(44)",
    "phone_number": "+48533393351",
    "source_url": "https://www.google.com/maps/place/FOLREC/data=!4m7!3m6!1s0x47052563405f2af1:0x987c6e05cb2163c9!8m2!3d51.9409672!4d17.5485101!16s%2Fg%2F11fjs3vzn0!19sChIJ8SpfQGMlBUcRyWMhywVufJg?authuser=0&hl=tr&rclk=1",
    "website_url": "https://folrec.pl/",
    "rating_text": "5,0",
    "stars": null,
    "number_of_reviews": null,
    "price_level": "",
    "open_hours": "",
    "extraction_timestamp": "2025-06-07T17:21:00.361Z",
    "source_name": "google",
    "source_query": "Irrigation Equipment",
    "source_country": "PL",
    "country": "Poland",
    "state": "Greater Poland Voivodeship",
    "city": "Powiat pleszewski"
  },
  {
    "source_id": "ChIJ8ycGCrotBUcR8v2orLM9mCo",
    "name": "Bricomarché",
    "category": "Bricomarché",
    "formatted_address": "4,1(908)",
    "phone_number": "+48627688190",
    "source_url": "https://www.google.com/maps/place/Bricomarch%C3%A9/data=!4m7!3m6!1s0x47052dba0a0627f3:0x2a983db3aca8fdf2!8m2!3d51.8941616!4d17.7994371!16s%2Fg%2F11b6t2b351!19sChIJ8ycGCrotBUcR8v2orLM9mCo?authuser=0&hl=tr&rclk=1",
    "website_url": "https://www.bricomarche.pl/?posId=227",
    "rating_text": "4,1",
    "stars": null,
    "number_of_reviews": null,
    "price_level": "",
    "open_hours": "",
    "extraction_timestamp": "2025-06-07T17:21:00.363Z",
    "source_name": "google",
    "source_query": "Irrigation Equipment",
    "source_country": "PL",
    "country": "Poland",
    "state": "Greater Poland Voivodeship",
    "city": "Powiat pleszewski"
  },
  {
    "source_id": "ChIJ4x0MjfwtBUcRxDhKmIRQ9D0",
    "name": "M AGD-RTV Marcin Nowak",
    "category": "M AGD-RTV Marcin Nowak",
    "formatted_address": "5,0(54)",
    "phone_number": "+48604899112",
    "source_url": "https://www.google.com/maps/place/M+AGD-RTV+Marcin+Nowak/data=!4m7!3m6!1s0x47052dfc8d0c1de3:0x3df45084984a38c4!8m2!3d51.8955!4d17.7880975!16s%2Fg%2F11h11n0hdh!19sChIJ4x0MjfwtBUcRxDhKmIRQ9D0?authuser=0&hl=tr&rclk=1",
    "website_url": "",
    "rating_text": "5,0",
    "stars": null,
    "number_of_reviews": null,
    "price_level": "",
    "open_hours": "",
    "extraction_timestamp": "2025-06-07T17:21:00.364Z",
    "source_name": "google",
    "source_query": "Irrigation Equipment",
    "source_country": "PL",
    "country": "Poland",
    "state": "Greater Poland Voivodeship",
    "city": "Powiat pleszewski"
  },
  {
    "source_id": "ChIJBfakGusrBUcRGs74FharAfc",
    "name": "P.W. STALKOT - KOTŁY C.O.",
    "category": "P.W. STALKOT - KOTŁY C.O.",
    "formatted_address": "4,3(35)",
    "phone_number": "+48604814414",
    "source_url": "https://www.google.com/maps/place/P.W.+STALKOT+-+KOT%C5%81Y+C.O./data=!4m7!3m6!1s0x47052beb1aa4f605:0xf701ab1616f8ce1a!8m2!3d51.9595399!4d17.7963101!16s%2Fg%2F1tglxpjp!19sChIJBfakGusrBUcRGs74FharAfc?authuser=0&hl=tr&rclk=1",
    "website_url": "https://stalkot.pl/",
    "rating_text": "4,3",
    "stars": null,
    "number_of_reviews": null,
    "price_level": "",
    "open_hours": "",
    "extraction_timestamp": "2025-06-07T17:21:00.365Z",
    "source_name": "google",
    "source_query": "Irrigation Equipment",
    "source_country": "PL",
    "country": "Poland",
    "state": "Greater Poland Voivodeship",
    "city": "Powiat pleszewski"
  },
  {
    "source_id": "ChIJTR82-cItBUcRuyrNbcukz_w",
    "name": "Sklep Piwosza Hurt Detal",
    "category": "Sklep Piwosza Hurt Detal",
    "formatted_address": "4,9(20)",
    "phone_number": "+48535425425",
    "source_url": "https://www.google.com/maps/place/Sklep+Piwosza+Hurt+Detal/data=!4m7!3m6!1s0x47052dc2f9361f4d:0xfccfa4cb6dcd2abb!8m2!3d51.8898503!4d17.7748601!16s%2Fg%2F11fkmz4__2!19sChIJTR82-cItBUcRuyrNbcukz_w?authuser=0&hl=tr&rclk=1",
    "website_url": "http://www.skleppiwosza.pl/",
    "rating_text": "4,9",
    "stars": null,
    "number_of_reviews": null,
    "price_level": "",
    "open_hours": "",
    "extraction_timestamp": "2025-06-07T17:21:00.367Z",
    "source_name": "google",
    "source_query": "Irrigation Equipment",
    "source_country": "PL",
    "country": "Poland",
    "state": "Greater Poland Voivodeship",
    "city": "Powiat pleszewski"
  },
  {
    "source_id": "ChIJ40ssEMctBUcRd_-Owa0Nek0",
    "name": "Akces. Przedsiębiorstwo motoryzacyjne",
    "category": "Akces. Przedsiębiorstwo motoryzacyjne",
    "formatted_address": "4,6(163)",
    "phone_number": "+48627426892",
    "source_url": "https://www.google.com/maps/place/Akces.+Przedsi%C4%99biorstwo+motoryzacyjne/data=!4m7!3m6!1s0x47052dc7102c4be3:0x4d7a0dadc18eff77!8m2!3d51.892974!4d17.7863937!16s%2Fg%2F1tk9pgl8!19sChIJ40ssEMctBUcRd_-Owa0Nek0?authuser=0&hl=tr&rclk=1",
    "website_url": "",
    "rating_text": "4,6",
    "stars": null,
    "number_of_reviews": null,
    "price_level": "",
    "open_hours": "",
    "extraction_timestamp": "2025-06-07T17:21:00.368Z",
    "source_name": "google",
    "source_query": "Irrigation Equipment",
    "source_country": "PL",
    "country": "Poland",
    "state": "Greater Poland Voivodeship",
    "city": "Powiat pleszewski"
  },
  {
    "source_id": "ChIJF_eLSs8tBUcRdMSi5PNBb7o",
    "name": "VEGA ZABAWKI",
    "category": "VEGA ZABAWKI",
    "formatted_address": "4,7(9)",
    "phone_number": "+48515805515",
    "source_url": "https://www.google.com/maps/place/VEGA+ZABAWKI/data=!4m7!3m6!1s0x47052dcf4a8bf717:0xba6f41f3e4a2c474!8m2!3d51.8972232!4d17.7834534!16s%2Fg%2F11f04fty06!19sChIJF_eLSs8tBUcRdMSi5PNBb7o?authuser=0&hl=tr&rclk=1",
    "website_url": "",
    "rating_text": "4,7",
    "stars": null,
    "number_of_reviews": null,
    "price_level": "",
    "open_hours": "",
    "extraction_timestamp": "2025-06-07T17:21:00.369Z",
    "source_name": "google",
    "source_query": "Irrigation Equipment",
    "source_country": "PL",
    "country": "Poland",
    "state": "Greater Poland Voivodeship",
    "city": "Powiat pleszewski"
  },
  {
    "source_id": "ChIJdXY9unfSGkcR6kbpNcGnd20",
    "name": "Gołuchów - Plaża nad jeziorem",
    "category": "Gołuchów - Plaża nad jeziorem",
    "formatted_address": "4,3(254)",
    "phone_number": "",
    "source_url": "https://www.google.com/maps/place/Go%C5%82uch%C3%B3w+-+Pla%C5%BCa+nad+jeziorem/data=!4m7!3m6!1s0x471ad277ba3d7675:0x6d77a7c135e946ea!8m2!3d51.8416419!4d17.937922!16s%2Fg%2F1jkz5h84q!19sChIJdXY9unfSGkcR6kbpNcGnd20?authuser=0&hl=tr&rclk=1",
    "website_url": "",
    "rating_text": "4,3",
    "stars": null,
    "number_of_reviews": null,
    "price_level": "",
    "open_hours": "",
    "extraction_timestamp": "2025-06-07T17:21:00.370Z",
    "source_name": "google",
    "source_query": "Irrigation Equipment",
    "source_country": "PL",
    "country": "Poland",
    "state": "Greater Poland Voivodeship",
    "city": "Powiat pleszewski"
  },
  {
    "source_id": "ChIJq6q-AMYtBUcRV4c5GzV7Mk8",
    "name": "Sklep Zielarsko Medyczny Herbapolis Artur Kaszuba",
    "category": "Sklep Zielarsko Medyczny Herbapolis Artur Kaszuba",
    "formatted_address": "4,9(12)",
    "phone_number": "+48537386848",
    "source_url": "https://www.google.com/maps/place/Sklep+Zielarsko+Medyczny+Herbapolis+Artur+Kaszuba/data=!4m7!3m6!1s0x47052dc600beaaab:0x4f327b351b398757!8m2!3d51.8965379!4d17.7826203!16s%2Fg%2F11h0vqhym9!19sChIJq6q-AMYtBUcRV4c5GzV7Mk8?authuser=0&hl=tr&rclk=1",
    "website_url": "https://www.herbapolis.pl/",
    "rating_text": "4,9",
    "stars": null,
    "number_of_reviews": null,
    "price_level": "",
    "open_hours": "",
    "extraction_timestamp": "2025-06-07T17:21:00.371Z",
    "source_name": "google",
    "source_query": "Irrigation Equipment",
    "source_country": "PL",
    "country": "Poland",
    "state": "Greater Poland Voivodeship",
    "city": "Powiat pleszewski"
  },
  {
    "source_id": "ChIJh_Y77dItBUcRv3mCX0BPhp4",
    "name": "Przybylska Eugenia. FPHU. Sklep spożywczo - przemysłowy",
    "category": "Przybylska Eugenia. FPHU. Sklep spożywczo - przemysłowy",
    "formatted_address": "4,0(10)",
    "phone_number": "+48625080248",
    "source_url": "https://www.google.com/maps/place/Przybylska+Eugenia.+FPHU.+Sklep+spo%C5%BCywczo+-+przemys%C5%82owy/data=!4m7!3m6!1s0x47052dd2ed3bf687:0x9e864f405f8279bf!8m2!3d51.9063048!4d17.7785622!16s%2Fg%2F1tfwnnpt!19sChIJh_Y77dItBUcRv3mCX0BPhp4?authuser=0&hl=tr&rclk=1",
    "website_url": "",
    "rating_text": "4,0",
    "stars": null,
    "number_of_reviews": null,
    "price_level": "",
    "open_hours": "",
    "extraction_timestamp": "2025-06-07T17:21:00.372Z",
    "source_name": "google",
    "source_query": "Irrigation Equipment",
    "source_country": "PL",
    "country": "Poland",
    "state": "Greater Poland Voivodeship",
    "city": "Powiat pleszewski"
  },
  {
    "source_id": "ChIJqcdw_JEvBUcRIbf_D2UB2Fo",
    "name": "ROLBUD- Kotlin",
    "category": "ROLBUD- Kotlin",
    "formatted_address": "4,7(39)",
    "phone_number": "+48627405422",
    "source_url": "https://www.google.com/maps/place/ROLBUD-+Kotlin/data=!4m7!3m6!1s0x47052f91fc70c7a9:0x5ad801650fffb721!8m2!3d51.9116985!4d17.653932!16s%2Fg%2F11csr5r0xh!19sChIJqcdw_JEvBUcRIbf_D2UB2Fo?authuser=0&hl=tr&rclk=1",
    "website_url": "http://www.rolbud.com/",
    "rating_text": "4,7",
    "stars": null,
    "number_of_reviews": null,
    "price_level": "",
    "open_hours": "",
    "extraction_timestamp": "2025-06-07T17:21:00.373Z",
    "source_name": "google",
    "source_query": "Irrigation Equipment",
    "source_country": "PL",
    "country": "Poland",
    "state": "Greater Poland Voivodeship",
    "city": "Powiat pleszewski"
  },
  {
    "source_id": "ChIJQ-IMe0HeHkcRRU6eJq6-xEQ",
    "name": "BEREK Sylwia Berek stelaże meblowe, obróbka CNC",
    "category": "BEREK Sylwia Berek stelaże meblowe, obróbka CNC",
    "formatted_address": "BEREK Sylwia Berek stelaże meblowe, obróbka CNC",
    "phone_number": "+48627401319",
    "source_url": "https://www.google.com/maps/place/BEREK+Sylwia+Berek+stela%C5%BCe+meblowe,+obr%C3%B3bka+CNC/data=!4m7!3m6!1s0x471ede417b0ce243:0x44c4beae269e4e45!8m2!3d51.9249555!4d17.5374143!16s%2Fg%2F1pv0c0309!19sChIJQ-IMe0HeHkcRRU6eJq6-xEQ?authuser=0&hl=tr&rclk=1",
    "website_url": "http://www.berekmetal.pl/",
    "rating_text": "5,0",
    "stars": null,
    "number_of_reviews": null,
    "price_level": "",
    "open_hours": "",
    "extraction_timestamp": "2025-06-07T17:21:00.374Z",
    "source_name": "google",
    "source_query": "Irrigation Equipment",
    "source_country": "PL",
    "country": "Poland",
    "state": "Greater Poland Voivodeship",
    "city": "Powiat pleszewski"
  },
  {
    "source_id": "ChIJlzXnGYAjBUcRr9JusgYgChU",
    "name": "NIEMCZYK POL POSITION Agencja Reklamowa Jarocin. Usługi Marketingowe. Doradztwo Internetowe. Pozycjonowanie Stron WWW.",
    "category": "NIEMCZYK POL POSITION Agencja Reklamowa Jarocin. Usługi Marketingowe. Doradztwo Internetowe. Pozycjonowanie Stron WWW.",
    "formatted_address": "4,9(18)",
    "phone_number": "+48661455362",
    "source_url": "https://www.google.com/maps/place/NIEMCZYK+POL+POSITION+Agencja+Reklamowa+Jarocin.+Us%C5%82ugi+Marketingowe.+Doradztwo+Internetowe.+Pozycjonowanie+Stron+WWW./data=!4m7!3m6!1s0x4705238019e73597:0x150a2006b26ed2af!8m2!3d51.9480417!4d17.540181!16s%2Fg%2F11b7jg2lbw!19sChIJlzXnGYAjBUcRr9JusgYgChU?authuser=0&hl=tr&rclk=1",
    "website_url": "https://internetowydoradca.pl/",
    "rating_text": "4,9",
    "stars": null,
    "number_of_reviews": null,
    "price_level": "",
    "open_hours": "",
    "extraction_timestamp": "2025-06-07T17:21:00.383Z",
    "source_name": "google",
    "source_query": "Irrigation Equipment",
    "source_country": "PL",
    "country": "Poland",
    "state": "Greater Poland Voivodeship",
    "city": "Powiat pleszewski"
  },
  {
    "source_id": "ChIJJ0bHSsUlBUcRZ52YV8bfFqI",
    "name": "OGRODY \"Zielony\" Gajewski Grzegorz Jarocin",
    "category": "OGRODY \"Zielony\" Gajewski Grzegorz Jarocin",
    "formatted_address": "4,8(6)",
    "phone_number": "+48722100905",
    "source_url": "https://www.google.com/maps/place/OGRODY+%22Zielony%22+Gajewski+Grzegorz+Jarocin/data=!4m7!3m6!1s0x470525c54ac74627:0xa216dfc657989d67!8m2!3d51.9456628!4d17.5784526!16s%2Fg%2F11g_qzj_vx!19sChIJJ0bHSsUlBUcRZ52YV8bfFqI?authuser=0&hl=tr&rclk=1",
    "website_url": "http://www.ogrodyzielony.pl/",
    "rating_text": "4,8",
    "stars": null,
    "number_of_reviews": null,
    "price_level": "",
    "open_hours": "",
    "extraction_timestamp": "2025-06-07T17:21:00.384Z",
    "source_name": "google",
    "source_query": "Irrigation Equipment",
    "source_country": "PL",
    "country": "Poland",
    "state": "Greater Poland Voivodeship",
    "city": "Powiat pleszewski"
  }
]
