[
  {
    "source_id": "ChIJjSkyVVrlA0cR4LxRq4X4-_o",
    "name": "ASTA ENERGY SYSTEMS Sp. z o.o.",
    "category": "ASTA ENERGY SYSTEMS Sp. z o.o.",
    "formatted_address": "4,9(229)",
    "phone_number": "+48508018845",
    "source_url": "https://www.google.com/maps/place/ASTA+ENERGY+SYSTEMS+Sp.+z+o.o./data=!4m7!3m6!1s0x4703e55a5532298d:0xfafbf885ab51bce0!8m2!3d53.1147071!4d16.772922!16s%2Fg%2F11q8wxwgp7!19sChIJjSkyVVrlA0cR4LxRq4X4-_o?authuser=0&hl=tr&rclk=1",
    "website_url": "https://www.asta-energy.pl/?utm_source=google_profile&utm_campaign=localo&utm_medium=mainlink",
    "rating_text": "4,9",
    "stars": null,
    "number_of_reviews": null,
    "price_level": "",
    "open_hours": "",
    "extraction_timestamp": "2025-06-07T17:19:53.955Z",
    "source_name": "google",
    "source_query": "Irrigation Equipment",
    "source_country": "PL",
    "country": "Poland",
    "state": "Greater Poland Voivodeship",
    "city": "Powiat pilski"
  },
  {
    "source_id": "ChIJwzR9IIlWAUcR89v32VPJF-4",
    "name": "SPAWALNICTWO Bartosz Kiszczak (dawniej HARPOL)",
    "category": "SPAWALNICTWO Bartosz Kiszczak (dawniej HARPOL)",
    "formatted_address": "5,0(31)",
    "phone_number": "+48696449443",
    "source_url": "https://www.google.com/maps/place/SPAWALNICTWO+Bartosz+Kiszczak+%28dawniej+HARPOL%29/data=!4m7!3m6!1s0x47015689207d34c3:0xee17c953d9f7dbf3!8m2!3d53.139451!4d16.7503496!16s%2Fg%2F11ggdth09s!19sChIJwzR9IIlWAUcR89v32VPJF-4?authuser=0&hl=tr&rclk=1",
    "website_url": "http://harpol.com.pl/",
    "rating_text": "5,0",
    "stars": null,
    "number_of_reviews": null,
    "price_level": "",
    "open_hours": "",
    "extraction_timestamp": "2025-06-07T17:19:53.956Z",
    "source_name": "google",
    "source_query": "Irrigation Equipment",
    "source_country": "PL",
    "country": "Poland",
    "state": "Greater Poland Voivodeship",
    "city": "Powiat pilski"
  },
  {
    "source_id": "ChIJkSifA7nmA0cRWp6QLcycI1U",
    "name": "PPHU Technologie Grzewcze i Sanitarne",
    "category": "PPHU Technologie Grzewcze i Sanitarne",
    "formatted_address": "4,5(20)",
    "phone_number": "+48667749588",
    "source_url": "https://www.google.com/maps/place/PPHU+Technologie+Grzewcze+i+Sanitarne/data=!4m7!3m6!1s0x4703e6b9039f2891:0x55239ccc2d909e5a!8m2!3d53.1625658!4d16.76349!16s%2Fg%2F1tczp1h6!19sChIJkSifA7nmA0cRWp6QLcycI1U?authuser=0&hl=tr&rclk=1",
    "website_url": "http://www.technologiegrzewcze.pl/",
    "rating_text": "4,5",
    "stars": null,
    "number_of_reviews": null,
    "price_level": "",
    "open_hours": "",
    "extraction_timestamp": "2025-06-07T17:19:53.982Z",
    "source_name": "google",
    "source_query": "Irrigation Equipment",
    "source_country": "PL",
    "country": "Poland",
    "state": "Greater Poland Voivodeship",
    "city": "Powiat pilski"
  },
  {
    "source_id": "ChIJX5y2wlLlA0cRP9wTXjCmZuY",
    "name": "RG-HYDRO Studnie głębinowe",
    "category": "RG-HYDRO Studnie głębinowe",
    "formatted_address": "5,0(21)",
    "phone_number": "+48608056632",
    "source_url": "https://www.google.com/maps/place/RG-HYDRO+Studnie+g%C5%82%C4%99binowe/data=!4m7!3m6!1s0x4703e552c2b69c5f:0xe666a6305e13dc3f!8m2!3d53.140091!4d16.7400096!16s%2Fg%2F11v11162r7!19sChIJX5y2wlLlA0cRP9wTXjCmZuY?authuser=0&hl=tr&rclk=1",
    "website_url": "https://www.facebook.com/profile.php?id=100084564687630",
    "rating_text": "5,0",
    "stars": null,
    "number_of_reviews": null,
    "price_level": "",
    "open_hours": "",
    "extraction_timestamp": "2025-06-07T17:19:53.983Z",
    "source_name": "google",
    "source_query": "Irrigation Equipment",
    "source_country": "PL",
    "country": "Poland",
    "state": "Greater Poland Voivodeship",
    "city": "Powiat pilski"
  },
  {
    "source_id": "ChIJc2bh7QLlA0cRnLPN_B7cyR0",
    "name": "Ogrody Zakładanie Projektowanie Ogrodów Piła ZIELONI Nawadnianie Ogrodu Trawa z Rolki Ogrodnik",
    "category": "Ogrody Zakładanie Projektowanie Ogrodów Piła ZIELONI Nawadnianie Ogrodu Trawa z Rolki Ogrodnik",
    "formatted_address": "5,0(14)",
    "phone_number": "+48601425852",
    "source_url": "https://www.google.com/maps/place/Ogrody+Zak%C5%82adanie+Projektowanie+Ogrod%C3%B3w+Pi%C5%82a+ZIELONI+Nawadnianie+Ogrodu+Trawa+z+Rolki+Ogrodnik/data=!4m7!3m6!1s0x4703e502ede16673:0x1dc9dc1efccdb39c!8m2!3d53.15307!4d16.74962!16s%2Fg%2F11gtggk6xz!19sChIJc2bh7QLlA0cRnLPN_B7cyR0?authuser=0&hl=tr&rclk=1",
    "website_url": "https://www.nawadnianie.pila.pl/",
    "rating_text": "5,0",
    "stars": null,
    "number_of_reviews": null,
    "price_level": "",
    "open_hours": "",
    "extraction_timestamp": "2025-06-07T17:19:53.984Z",
    "source_name": "google",
    "source_query": "Irrigation Equipment",
    "source_country": "PL",
    "country": "Poland",
    "state": "Greater Poland Voivodeship",
    "city": "Powiat pilski"
  },
  {
    "source_id": "ChIJ_T6uO4PmA0cRdGix0unxmq8",
    "name": "Sanpol Piła- hurtownia instalacyjna, hydrauliczna, sanitarna",
    "category": "Sanpol Piła- hurtownia instalacyjna, hydrauliczna, sanitarna",
    "formatted_address": "Sanpol Piła- hurtownia instalacyjna, hydrauliczna, sanitarna",
    "phone_number": "+48618746839",
    "source_url": "https://www.google.com/maps/place/Sanpol+Pi%C5%82a-+hurtownia+instalacyjna,+hydrauliczna,+sanitarna/data=!4m7!3m6!1s0x4703e6833bae3efd:0xaf9af1e9d2b16874!8m2!3d53.1622044!4d16.7706962!16s%2Fg%2F11g_609mv!19sChIJ_T6uO4PmA0cRdGix0unxmq8?authuser=0&hl=tr&rclk=1",
    "website_url": "https://sanpol.pl/kontakt/sanpol-pila",
    "rating_text": "4,9",
    "stars": null,
    "number_of_reviews": null,
    "price_level": "",
    "open_hours": "",
    "extraction_timestamp": "2025-06-07T17:19:53.985Z",
    "source_name": "google",
    "source_query": "Irrigation Equipment",
    "source_country": "PL",
    "country": "Poland",
    "state": "Greater Poland Voivodeship",
    "city": "Powiat pilski"
  },
  {
    "source_id": "ChIJRwZlOcLjA0cRkSdcGC7KwnA",
    "name": "EKOPIL Sp. z o.o. - Producent urządzeń do przemysłu oraz oczyszczalni ścieków",
    "category": "EKOPIL Sp. z o.o. - Producent urządzeń do przemysłu oraz oczyszczalni ścieków",
    "formatted_address": "4,8(23)",
    "phone_number": "+48673517176",
    "source_url": "https://www.google.com/maps/place/EKOPIL+Sp.+z+o.o.+-+Producent+urz%C4%85dze%C5%84+do+przemys%C5%82u+oraz+oczyszczalni+%C5%9Bciek%C3%B3w/data=!4m7!3m6!1s0x4703e3c239650647:0x70c2ca2e185c2791!8m2!3d53.1565701!4d16.6819148!16s%2Fg%2F11b5s2d363!19sChIJRwZlOcLjA0cRkSdcGC7KwnA?authuser=0&hl=tr&rclk=1",
    "website_url": "http://www.ekopil.pl/",
    "rating_text": "4,8",
    "stars": null,
    "number_of_reviews": null,
    "price_level": "",
    "open_hours": "",
    "extraction_timestamp": "2025-06-07T17:19:53.986Z",
    "source_name": "google",
    "source_query": "Irrigation Equipment",
    "source_country": "PL",
    "country": "Poland",
    "state": "Greater Poland Voivodeship",
    "city": "Powiat pilski"
  },
  {
    "source_id": "ChIJI83Gz6jmA0cRiKQ79Ugo8rA",
    "name": "Hydro-Instal",
    "category": "Hydro-Instal",
    "formatted_address": "2,2(5)",
    "phone_number": "+48606960257",
    "source_url": "https://www.google.com/maps/place/Hydro-Instal/data=!4m7!3m6!1s0x4703e6a8cfc6cd23:0xb0f22848f53ba488!8m2!3d53.16926!4d16.7398731!16s%2Fg%2F1v0ljgmw!19sChIJI83Gz6jmA0cRiKQ79Ugo8rA?authuser=0&hl=tr&rclk=1",
    "website_url": "",
    "rating_text": "2,2",
    "stars": null,
    "number_of_reviews": null,
    "price_level": "",
    "open_hours": "",
    "extraction_timestamp": "2025-06-07T17:19:53.987Z",
    "source_name": "google",
    "source_query": "Irrigation Equipment",
    "source_country": "PL",
    "country": "Poland",
    "state": "Greater Poland Voivodeship",
    "city": "Powiat pilski"
  },
  {
    "source_id": "ChIJA8sbkqDlA0cRMYTNmXJrApg",
    "name": "KERAS Studnie Głębinowe",
    "category": "KERAS Studnie Głębinowe",
    "formatted_address": "5,0(130)",
    "phone_number": "+48511351636",
    "source_url": "https://www.google.com/maps/place/KERAS+Studnie+G%C5%82%C4%99binowe/data=!4m7!3m6!1s0x4703e5a0921bcb03:0x98026b7299cd8431!8m2!3d53.1523046!4d16.7533447!16s%2Fg%2F11s0t3rpk1!19sChIJA8sbkqDlA0cRMYTNmXJrApg?authuser=0&hl=tr&rclk=1",
    "website_url": "http://www.keras.pila.pl/",
    "rating_text": "5,0",
    "stars": null,
    "number_of_reviews": null,
    "price_level": "",
    "open_hours": "",
    "extraction_timestamp": "2025-06-07T17:19:53.988Z",
    "source_name": "google",
    "source_query": "Irrigation Equipment",
    "source_country": "PL",
    "country": "Poland",
    "state": "Greater Poland Voivodeship",
    "city": "Powiat pilski"
  },
  {
    "source_id": "ChIJUfn2Ig35A0cREW9fZ4029UM",
    "name": "IMTechnika sp. z o.o.",
    "category": "IMTechnika sp. z o.o.",
    "formatted_address": "4,4(17)",
    "phone_number": "+48883820388",
    "source_url": "https://www.google.com/maps/place/IMTechnika+sp.+z+o.o./data=!4m7!3m6!1s0x4703f90d22f6f951:0x43f5368d675f6f11!8m2!3d52.9756271!4d16.657836!16s%2Fg%2F11bw48_6mg!19sChIJUfn2Ig35A0cREW9fZ4029UM?authuser=0&hl=tr&rclk=1",
    "website_url": "http://imtechnika.pl/",
    "rating_text": "4,4",
    "stars": null,
    "number_of_reviews": null,
    "price_level": "",
    "open_hours": "",
    "extraction_timestamp": "2025-06-07T17:19:53.989Z",
    "source_name": "google",
    "source_query": "Irrigation Equipment",
    "source_country": "PL",
    "country": "Poland",
    "state": "Greater Poland Voivodeship",
    "city": "Powiat pilski"
  },
  {
    "source_id": "ChIJpeQT47nmA0cRias_L0-_P7c",
    "name": "Hydraulik Mikołajczak Przyłącza Sieci Wodociągowe Kanalizacyjne Pompownie Ścieków",
    "category": "Hydraulik Mikołajczak Przyłącza Sieci Wodociągowe Kanalizacyjne Pompownie Ścieków",
    "formatted_address": "5,0(4)",
    "phone_number": "+48672150941",
    "source_url": "https://www.google.com/maps/place/Hydraulik+Miko%C5%82ajczak+Przy%C5%82%C4%85cza+Sieci+Wodoci%C4%85gowe+Kanalizacyjne+Pompownie+%C5%9Aciek%C3%B3w/data=!4m7!3m6!1s0x4703e6b9e313e4a5:0xb73fbf4f2f3fab89!8m2!3d53.1678651!4d16.7209274!16s%2Fg%2F1hc21hmhc!19sChIJpeQT47nmA0cRias_L0-_P7c?authuser=0&hl=tr&rclk=1",
    "website_url": "http://www.hydraulik.pila.pl/",
    "rating_text": "5,0",
    "stars": null,
    "number_of_reviews": null,
    "price_level": "",
    "open_hours": "",
    "extraction_timestamp": "2025-06-07T17:19:53.990Z",
    "source_name": "google",
    "source_query": "Irrigation Equipment",
    "source_country": "PL",
    "country": "Poland",
    "state": "Greater Poland Voivodeship",
    "city": "Powiat pilski"
  },
  {
    "source_id": "ChIJZecWjCbkA0cRQG2pFfDiHiY",
    "name": "Pompy Ciepła Piła Sklep Instalacyjny Hydrauliczny M.K Piece CO Gazowe Pellet Ekogroszek",
    "category": "Pompy Ciepła Piła Sklep Instalacyjny Hydrauliczny M.K Piece CO Gazowe Pellet Ekogroszek",
    "formatted_address": "4,6(17)",
    "phone_number": "+48604873308",
    "source_url": "https://www.google.com/maps/place/Pompy+Ciep%C5%82a+Pi%C5%82a+Sklep+Instalacyjny+Hydrauliczny+M.K+Piece+CO+Gazowe+Pellet+Ekogroszek/data=!4m7!3m6!1s0x4703e4268c16e765:0x261ee2f015a96d40!8m2!3d53.1354202!4d16.7543784!16s%2Fg%2F1vp6yx14!19sChIJZecWjCbkA0cRQG2pFfDiHiY?authuser=0&hl=tr&rclk=1",
    "website_url": "https://www.pompycieplapila.pl/",
    "rating_text": "4,6",
    "stars": null,
    "number_of_reviews": null,
    "price_level": "",
    "open_hours": "",
    "extraction_timestamp": "2025-06-07T17:19:53.991Z",
    "source_name": "google",
    "source_query": "Irrigation Equipment",
    "source_country": "PL",
    "country": "Poland",
    "state": "Greater Poland Voivodeship",
    "city": "Powiat pilski"
  },
  {
    "source_id": "ChIJ7T3NkR7kA0cRJatMQU8xy7k",
    "name": "Ogrody Piła Projektowanie Zakładanie Budowa Ogrodów Sebastian Augustyn Aranżacja Ogrodu Wałcz Złotów",
    "category": "Ogrody Piła Projektowanie Zakładanie Budowa Ogrodów Sebastian Augustyn Aranżacja Ogrodu Wałcz Złotów",
    "formatted_address": "4,8(25)",
    "phone_number": "+48604542818",
    "source_url": "https://www.google.com/maps/place/Ogrody+Pi%C5%82a+Projektowanie+Zak%C5%82adanie+Budowa+Ogrod%C3%B3w+Sebastian+Augustyn+Aran%C5%BCacja+Ogrodu+Wa%C5%82cz+Z%C5%82ot%C3%B3w/data=!4m7!3m6!1s0x4703e41e91cd3ded:0xb9cb314f414cab25!8m2!3d53.1593243!4d16.7460942!16s%2Fg%2F113fsqsqh!19sChIJ7T3NkR7kA0cRJatMQU8xy7k?authuser=0&hl=tr&rclk=1",
    "website_url": "https://www.sosw.edu.pl/",
    "rating_text": "4,8",
    "stars": null,
    "number_of_reviews": null,
    "price_level": "",
    "open_hours": "",
    "extraction_timestamp": "2025-06-07T17:19:53.992Z",
    "source_name": "google",
    "source_query": "Irrigation Equipment",
    "source_country": "PL",
    "country": "Poland",
    "state": "Greater Poland Voivodeship",
    "city": "Powiat pilski"
  },
  {
    "source_id": "ChIJb8ew9yHkA0cRlwAlnSnlP-E",
    "name": "MAT Piła Instalacje Pompy Ciepła Kotły Piece C.O. Gazowe Pellet Ekogroszek Grzejniki Bojlery Sklep",
    "category": "MAT Piła Instalacje Pompy Ciepła Kotły Piece C.O. Gazowe Pellet Ekogroszek Grzejniki Bojlery Sklep",
    "formatted_address": "4,1(17)",
    "phone_number": "+48604873308",
    "source_url": "https://www.google.com/maps/place/MAT+Pi%C5%82a+Instalacje+Pompy+Ciep%C5%82a+Kot%C5%82y+Piece+C.O.+Gazowe+Pellet+Ekogroszek+Grzejniki+Bojlery+Sklep/data=!4m7!3m6!1s0x4703e421f7b0c76f:0xe13fe5299d250097!8m2!3d53.1355013!4d16.7535482!16s%2Fg%2F1tgnksdt!19sChIJb8ew9yHkA0cRlwAlnSnlP-E?authuser=0&hl=tr&rclk=1",
    "website_url": "http://www.sklepmatpila.pl/",
    "rating_text": "4,1",
    "stars": null,
    "number_of_reviews": null,
    "price_level": "",
    "open_hours": "",
    "extraction_timestamp": "2025-06-07T17:19:53.993Z",
    "source_name": "google",
    "source_query": "Irrigation Equipment",
    "source_country": "PL",
    "country": "Poland",
    "state": "Greater Poland Voivodeship",
    "city": "Powiat pilski"
  },
  {
    "source_id": "ChIJk2VO-Z3jA0cRoQsaz8l9KfY",
    "name": "Firma Usługowo -Handlowa Donder Paweł",
    "category": "Firma Usługowo -Handlowa Donder Paweł",
    "formatted_address": "4,9(16)",
    "phone_number": "+48600226148",
    "source_url": "https://www.google.com/maps/place/Firma+Us%C5%82ugowo+-Handlowa+Donder+Pawe%C5%82/data=!4m7!3m6!1s0x4703e39df94e6593:0xf6297dc9cf1a0ba1!8m2!3d53.162312!4d16.770814!16s%2Fg%2F11vb519p9t!19sChIJk2VO-Z3jA0cRoQsaz8l9KfY?authuser=0&hl=tr&rclk=1",
    "website_url": "",
    "rating_text": "4,9",
    "stars": null,
    "number_of_reviews": null,
    "price_level": "",
    "open_hours": "",
    "extraction_timestamp": "2025-06-07T17:19:53.994Z",
    "source_name": "google",
    "source_query": "Irrigation Equipment",
    "source_country": "PL",
    "country": "Poland",
    "state": "Greater Poland Voivodeship",
    "city": "Powiat pilski"
  },
  {
    "source_id": "ChIJT4U-3EPkA0cRegfverRQua0",
    "name": "Sanit-Bis, Lidia Muszyńska, Autoryzowany Top Partner Buderus, Tekla",
    "category": "Sanit-Bis, Lidia Muszyńska, Autoryzowany Top Partner Buderus, Tekla",
    "formatted_address": "Sanit-Bis, Lidia Muszyńska, Autoryzowany Top Partner Buderus, Tekla",
    "phone_number": "+48673519305",
    "source_url": "https://www.google.com/maps/place/Sanit-Bis,+Lidia+Muszy%C5%84ska,+Autoryzowany+Top+Partner+Buderus,+Tekla/data=!4m7!3m6!1s0x4703e443dc3e854f:0xadb950b47aef077a!8m2!3d53.1351645!4d16.7435712!16s%2Fg%2F1v299qdt!19sChIJT4U-3EPkA0cRegfverRQua0?authuser=0&hl=tr&rclk=1",
    "website_url": "https://sanitbis.pl/",
    "rating_text": "4,6",
    "stars": null,
    "number_of_reviews": null,
    "price_level": "",
    "open_hours": "",
    "extraction_timestamp": "2025-06-07T17:19:53.996Z",
    "source_name": "google",
    "source_query": "Irrigation Equipment",
    "source_country": "PL",
    "country": "Poland",
    "state": "Greater Poland Voivodeship",
    "city": "Powiat pilski"
  },
  {
    "source_id": "ChIJCXSvFGLkA0cR6DOcHoDiQ78",
    "name": "Remonty Piła MagBud Wykończenia Wnętrz Hydraulik Elektryk Malowanie Płytki Panele Ścianki Sufity",
    "category": "Remonty Piła MagBud Wykończenia Wnętrz Hydraulik Elektryk Malowanie Płytki Panele Ścianki Sufity",
    "formatted_address": "4,8(18)",
    "phone_number": "+48535532485",
    "source_url": "https://www.google.com/maps/place/Remonty+Pi%C5%82a+MagBud+Wyko%C5%84czenia+Wn%C4%99trz+Hydraulik+Elektryk+Malowanie+P%C5%82ytki+Panele+%C5%9Acianki+Sufity/data=!4m7!3m6!1s0x4703e46214af7409:0xbf43e2801e9c33e8!8m2!3d53.1234532!4d16.7202183!16s%2Fg%2F1tjtgzn1!19sChIJCXSvFGLkA0cR6DOcHoDiQ78?authuser=0&hl=tr&rclk=1",
    "website_url": "https://www.uslugiremontowe.pila.pl/",
    "rating_text": "4,8",
    "stars": null,
    "number_of_reviews": null,
    "price_level": "",
    "open_hours": "",
    "extraction_timestamp": "2025-06-07T17:19:53.996Z",
    "source_name": "google",
    "source_query": "Irrigation Equipment",
    "source_country": "PL",
    "country": "Poland",
    "state": "Greater Poland Voivodeship",
    "city": "Powiat pilski"
  },
  {
    "source_id": "ChIJ8____z9nAUcRYURVRrvPH_Q",
    "name": "GRENE",
    "category": "GRENE",
    "formatted_address": "4,6(52)",
    "phone_number": "+48672583361",
    "source_url": "https://www.google.com/maps/place/GRENE/data=!4m7!3m6!1s0x4701673ffffffff3:0xf41fcfbb46554461!8m2!3d53.263986!4d16.4902078!16s%2Fg%2F1thr5wj5!19sChIJ8____z9nAUcRYURVRrvPH_Q?authuser=0&hl=tr&rclk=1",
    "website_url": "http://www.grene.pl/",
    "rating_text": "4,6",
    "stars": null,
    "number_of_reviews": null,
    "price_level": "",
    "open_hours": "",
    "extraction_timestamp": "2025-06-07T17:19:53.997Z",
    "source_name": "google",
    "source_query": "Irrigation Equipment",
    "source_country": "PL",
    "country": "Poland",
    "state": "Greater Poland Voivodeship",
    "city": "Powiat pilski"
  },
  {
    "source_id": "ChIJlZ1SDazlA0cRZDMEndak5eE",
    "name": "Super Hydraulik Piła 24",
    "category": "Super Hydraulik Piła 24",
    "formatted_address": "4,6(39)",
    "phone_number": "+48789107510",
    "source_url": "https://www.google.com/maps/place/Super+Hydraulik+Pi%C5%82a+24/data=!4m7!3m6!1s0x4703e5ac0d529d95:0xe1e5a4d69d043364!8m2!3d53.1498862!4d16.7543924!16s%2Fg%2F11y2nq4rp_!19sChIJlZ1SDazlA0cRZDMEndak5eE?authuser=0&hl=tr&rclk=1",
    "website_url": "https://superhydraulik24.pl/pila/",
    "rating_text": "4,6",
    "stars": null,
    "number_of_reviews": null,
    "price_level": "",
    "open_hours": "",
    "extraction_timestamp": "2025-06-07T17:19:53.998Z",
    "source_name": "google",
    "source_query": "Irrigation Equipment",
    "source_country": "PL",
    "country": "Poland",
    "state": "Greater Poland Voivodeship",
    "city": "Powiat pilski"
  },
  {
    "source_id": "ChIJ4wtHg53mA0cR55XpM5hLEww",
    "name": "Małachowski Hurtownia Materiałów Budowlanych DOM I OGRÓD Piła",
    "category": "Małachowski Hurtownia Materiałów Budowlanych DOM I OGRÓD Piła",
    "formatted_address": "4,4(1.341)",
    "phone_number": "+48672119800",
    "source_url": "https://www.google.com/maps/place/Ma%C5%82achowski+Hurtownia+Materia%C5%82%C3%B3w+Budowlanych+DOM+I+OGR%C3%93D+Pi%C5%82a/data=!4m7!3m6!1s0x4703e69d83470be3:0xc134b9833e995e7!8m2!3d53.1621595!4d16.7687163!16s%2Fg%2F1tgxgs0m!19sChIJ4wtHg53mA0cR55XpM5hLEww?authuser=0&hl=tr&rclk=1",
    "website_url": "http://malachowski.net.pl/",
    "rating_text": "4,4",
    "stars": null,
    "number_of_reviews": null,
    "price_level": "",
    "open_hours": "",
    "extraction_timestamp": "2025-06-07T17:19:54.000Z",
    "source_name": "google",
    "source_query": "Irrigation Equipment",
    "source_country": "PL",
    "country": "Poland",
    "state": "Greater Poland Voivodeship",
    "city": "Powiat pilski"
  },
  {
    "source_id": "ChIJ1_9XO1HlA0cRwAOMXIHQzeY",
    "name": "Action Piła",
    "category": "Action Piła",
    "formatted_address": "4,7(121)",
    "phone_number": "+48326305898",
    "source_url": "https://www.google.com/maps/place/Action+Pi%C5%82a/data=!4m7!3m6!1s0x4703e5513b57ffd7:0xe6cdd0815c8c03c0!8m2!3d53.1504079!4d16.7251511!16s%2Fg%2F11kqtp764k!19sChIJ1_9XO1HlA0cRwAOMXIHQzeY?authuser=0&hl=tr&rclk=1",
    "website_url": "https://www.action.com/pl-pl/?utm_campaign=localbusiness&utm_source=google&utm_medium=organic&utm_content=A353",
    "rating_text": "4,7",
    "stars": null,
    "number_of_reviews": null,
    "price_level": "",
    "open_hours": "",
    "extraction_timestamp": "2025-06-07T17:19:54.000Z",
    "source_name": "google",
    "source_query": "Irrigation Equipment",
    "source_country": "PL",
    "country": "Poland",
    "state": "Greater Poland Voivodeship",
    "city": "Powiat pilski"
  },
  {
    "source_id": "ChIJAy6IYHvlA0cRcCq6K7OiXnM",
    "name": "+Dream s.c. Salon Łazienek i wnętrz",
    "category": "+Dream s.c. Salon Łazienek i wnętrz",
    "formatted_address": "4,6(44)",
    "phone_number": "+48603680376",
    "source_url": "https://www.google.com/maps/place/%2BDream+s.c.+Salon+%C5%81azienek+i+wn%C4%99trz/data=!4m7!3m6!1s0x4703e57b60882e03:0x735ea2b32bba2a70!8m2!3d53.1359377!4d16.7519645!16s%2Fg%2F11h_7b9jl5!19sChIJAy6IYHvlA0cRcCq6K7OiXnM?authuser=0&hl=tr&rclk=1",
    "website_url": "http://www.plusdream.pl/",
    "rating_text": "4,6",
    "stars": null,
    "number_of_reviews": null,
    "price_level": "",
    "open_hours": "",
    "extraction_timestamp": "2025-06-07T17:19:54.001Z",
    "source_name": "google",
    "source_query": "Irrigation Equipment",
    "source_country": "PL",
    "country": "Poland",
    "state": "Greater Poland Voivodeship",
    "city": "Powiat pilski"
  },
  {
    "source_id": "ChIJs_INBA7lA0cRXUoonYPA5EI",
    "name": "Action Piła",
    "category": "Action Piła",
    "formatted_address": "4,5(359)",
    "phone_number": "+48326305898",
    "source_url": "https://www.google.com/maps/place/Action+Pi%C5%82a/data=!4m7!3m6!1s0x4703e50e040df2b3:0x42e4c0839d284a5d!8m2!3d53.163051!4d16.755947!16s%2Fg%2F11pwwv3fqv!19sChIJs_INBA7lA0cRXUoonYPA5EI?authuser=0&hl=tr&rclk=1",
    "website_url": "https://www.action.com/pl-pl/sklepy/pia/?utm_campaign=localbusiness&utm_source=google&utm_medium=organic&utm_content=A179",
    "rating_text": "4,5",
    "stars": null,
    "number_of_reviews": null,
    "price_level": "",
    "open_hours": "",
    "extraction_timestamp": "2025-06-07T17:19:54.002Z",
    "source_name": "google",
    "source_query": "Irrigation Equipment",
    "source_country": "PL",
    "country": "Poland",
    "state": "Greater Poland Voivodeship",
    "city": "Powiat pilski"
  },
  {
    "source_id": "ChIJRyPoW0fkA0cRKzKnlODsexs",
    "name": "Gastro Centrum",
    "category": "Gastro Centrum",
    "formatted_address": "4,4(31)",
    "phone_number": "+48672100903",
    "source_url": "https://www.google.com/maps/place/Gastro+Centrum/data=!4m7!3m6!1s0x4703e4475be82347:0x1b7bece094a7322b!8m2!3d53.1323289!4d16.7534393!16s%2Fg%2F1vxcv346!19sChIJRyPoW0fkA0cRKzKnlODsexs?authuser=0&hl=tr&rclk=1",
    "website_url": "https://www.gastrocentrum.pl/",
    "rating_text": "4,4",
    "stars": null,
    "number_of_reviews": null,
    "price_level": "",
    "open_hours": "",
    "extraction_timestamp": "2025-06-07T17:19:54.002Z",
    "source_name": "google",
    "source_query": "Irrigation Equipment",
    "source_country": "PL",
    "country": "Poland",
    "state": "Greater Poland Voivodeship",
    "city": "Powiat pilski"
  },
  {
    "source_id": "ChIJM-ecNit-SUUR0JDIjLCfLXg",
    "name": "Hydro-Tech Studnie",
    "category": "Hydro-Tech Studnie",
    "formatted_address": "5,0(4)",
    "phone_number": "+48605172523",
    "source_url": "https://www.google.com/maps/place/Hydro-Tech+Studnie/data=!4m7!3m6!1s0x45497e2b369ce733:0x782d9fb08cc890d0!8m2!3d53.1443301!4d17.0444372!16s%2Fg%2F11x2vjjl2k!19sChIJM-ecNit-SUUR0JDIjLCfLXg?authuser=0&hl=tr&rclk=1",
    "website_url": "",
    "rating_text": "5,0",
    "stars": null,
    "number_of_reviews": null,
    "price_level": "",
    "open_hours": "",
    "extraction_timestamp": "2025-06-07T17:19:54.003Z",
    "source_name": "google",
    "source_query": "Irrigation Equipment",
    "source_country": "PL",
    "country": "Poland",
    "state": "Greater Poland Voivodeship",
    "city": "Powiat pilski"
  },
  {
    "source_id": "ChIJzwAivt76A0cRBawpYQms8zM",
    "name": "Pontex-Poniccy sp.j.",
    "category": "Pontex-Poniccy sp.j.",
    "formatted_address": "4,5(61)",
    "phone_number": "+48672840052",
    "source_url": "https://www.google.com/maps/place/Pontex-Poniccy+sp.j./data=!4m7!3m6!1s0x4703fadebe2200cf:0x33f3ac096129ac05!8m2!3d53.0586219!4d16.7305301!16s%2Fg%2F1tfrfgd0!19sChIJzwAivt76A0cRBawpYQms8zM?authuser=0&hl=tr&rclk=1",
    "website_url": "http://pontexujscie.pl/",
    "rating_text": "4,5",
    "stars": null,
    "number_of_reviews": null,
    "price_level": "",
    "open_hours": "",
    "extraction_timestamp": "2025-06-07T17:19:54.004Z",
    "source_name": "google",
    "source_query": "Irrigation Equipment",
    "source_country": "PL",
    "country": "Poland",
    "state": "Greater Poland Voivodeship",
    "city": "Powiat pilski"
  },
  {
    "source_id": "ChIJHX3H04zrA0cRtjfRU7H7rw4",
    "name": "Sklep rolniczo-techniczny Powered by Kramp Grabówno",
    "category": "Sklep rolniczo-techniczny Powered by Kramp Grabówno",
    "formatted_address": "4,3(42)",
    "phone_number": "+48660260318",
    "source_url": "https://www.google.com/maps/place/Sklep+rolniczo-techniczny+Powered+by+Kramp+Grab%C3%B3wno/data=!4m7!3m6!1s0x4703eb8cd3c77d1d:0xeaffbb153d137b6!8m2!3d53.1325108!4d17.0045522!16s%2Fg%2F11f54zpq5_!19sChIJHX3H04zrA0cRtjfRU7H7rw4?authuser=0&hl=tr&rclk=1",
    "website_url": "http://www.poweredbykramp.pl/",
    "rating_text": "4,3",
    "stars": null,
    "number_of_reviews": null,
    "price_level": "",
    "open_hours": "",
    "extraction_timestamp": "2025-06-07T17:19:54.004Z",
    "source_name": "google",
    "source_query": "Irrigation Equipment",
    "source_country": "PL",
    "country": "Poland",
    "state": "Greater Poland Voivodeship",
    "city": "Powiat pilski"
  },
  {
    "source_id": "ChIJdxVAFuzjA0cRjTIZqg6SyuY",
    "name": "Biochem Sp. z o.o. PUH",
    "category": "Biochem Sp. z o.o. PUH",
    "formatted_address": "5,0(1)",
    "phone_number": "+48672141087",
    "source_url": "https://www.google.com/maps/place/Biochem+Sp.+z+o.o.+PUH/data=!4m7!3m6!1s0x4703e3ec16401577:0xe6ca920eaa19328d!8m2!3d53.1530488!4d16.6925974!16s%2Fg%2F1v6p2_0d!19sChIJdxVAFuzjA0cRjTIZqg6SyuY?authuser=0&hl=tr&rclk=1",
    "website_url": "",
    "rating_text": "5,0",
    "stars": null,
    "number_of_reviews": null,
    "price_level": "",
    "open_hours": "",
    "extraction_timestamp": "2025-06-07T17:19:54.005Z",
    "source_name": "google",
    "source_query": "Irrigation Equipment",
    "source_country": "PL",
    "country": "Poland",
    "state": "Greater Poland Voivodeship",
    "city": "Powiat pilski"
  },
  {
    "source_id": "ChIJ4c182TrkA0cR_XrT0ppHjlM",
    "name": "Mantaj Zenon. Zakład Instalacji Sanitarnych",
    "category": "Mantaj Zenon. Zakład Instalacji Sanitarnych",
    "formatted_address": "4,3(3)",
    "phone_number": "+48672131200",
    "source_url": "https://www.google.com/maps/place/Mantaj+Zenon.+Zak%C5%82ad+Instalacji+Sanitarnych/data=!4m7!3m6!1s0x4703e43ad97ccde1:0x538e479ad2d37afd!8m2!3d53.1489804!4d16.7594729!16s%2Fg%2F1wyc30g5!19sChIJ4c182TrkA0cR_XrT0ppHjlM?authuser=0&hl=tr&rclk=1",
    "website_url": "",
    "rating_text": "4,3",
    "stars": null,
    "number_of_reviews": null,
    "price_level": "",
    "open_hours": "",
    "extraction_timestamp": "2025-06-07T17:19:54.005Z",
    "source_name": "google",
    "source_query": "Irrigation Equipment",
    "source_country": "PL",
    "country": "Poland",
    "state": "Greater Poland Voivodeship",
    "city": "Powiat pilski"
  },
  {
    "source_id": "ChIJ85oK5hfkA0cRCV4Zv2pFqco",
    "name": "Piltech Sebastian Kowalski Spółka Jawna",
    "category": "Piltech Sebastian Kowalski Spółka Jawna",
    "formatted_address": "4,3(19)",
    "phone_number": "+48672152121",
    "source_url": "https://www.google.com/maps/place/Piltech+Sebastian+Kowalski+Sp%C3%B3%C5%82ka+Jawna/data=!4m7!3m6!1s0x4703e417e60a9af3:0xcaa9456abf195e09!8m2!3d53.1516922!4d16.7472436!16s%2Fg%2F1tsyhx4k!19sChIJ85oK5hfkA0cRCV4Zv2pFqco?authuser=0&hl=tr&rclk=1",
    "website_url": "http://piltech.com.pl/",
    "rating_text": "4,3",
    "stars": null,
    "number_of_reviews": null,
    "price_level": "",
    "open_hours": "",
    "extraction_timestamp": "2025-06-07T17:19:54.006Z",
    "source_name": "google",
    "source_query": "Irrigation Equipment",
    "source_country": "PL",
    "country": "Poland",
    "state": "Greater Poland Voivodeship",
    "city": "Powiat pilski"
  },
  {
    "source_id": "ChIJoTJf8j_nA0cRGkmE0uaBS08",
    "name": "Hurtownia OTOS Przemysław Malinowski",
    "category": "Hurtownia OTOS Przemysław Malinowski",
    "formatted_address": "4,6(20)",
    "phone_number": "",
    "source_url": "https://www.google.com/maps/place/Hurtownia+OTOS+Przemys%C5%82aw+Malinowski/data=!4m7!3m6!1s0x4703e73ff25f32a1:0x4f4b81e6d284491a!8m2!3d53.2226543!4d16.792377!16s%2Fg%2F11cn_59ltk!19sChIJoTJf8j_nA0cRGkmE0uaBS08?authuser=0&hl=tr&rclk=1",
    "website_url": "https://hurtowniaotos.pl/",
    "rating_text": "4,6",
    "stars": null,
    "number_of_reviews": null,
    "price_level": "",
    "open_hours": "",
    "extraction_timestamp": "2025-06-07T17:19:54.007Z",
    "source_name": "google",
    "source_query": "Irrigation Equipment",
    "source_country": "PL",
    "country": "Poland",
    "state": "Greater Poland Voivodeship",
    "city": "Powiat pilski"
  },
  {
    "source_id": "ChIJk8NYTdqTA0cRY5IVO4k9S1M",
    "name": "GRENE",
    "category": "GRENE",
    "formatted_address": "4,0(7)",
    "phone_number": "+48609101760",
    "source_url": "https://www.google.com/maps/place/GRENE/data=!4m7!3m6!1s0x470393da4d58c393:0x534b3d893b159263!8m2!3d53.0279629!4d17.1188131!16s%2Fg%2F11fmp4tqyp!19sChIJk8NYTdqTA0cRY5IVO4k9S1M?authuser=0&hl=tr&rclk=1",
    "website_url": "http://www.grene.pl/",
    "rating_text": "4,0",
    "stars": null,
    "number_of_reviews": null,
    "price_level": "",
    "open_hours": "",
    "extraction_timestamp": "2025-06-07T17:19:54.007Z",
    "source_name": "google",
    "source_query": "Irrigation Equipment",
    "source_country": "PL",
    "country": "Poland",
    "state": "Greater Poland Voivodeship",
    "city": "Powiat pilski"
  },
  {
    "source_id": "ChIJcfknB1tdAUcRimziAN2n-HU",
    "name": "INSTAL-TECH Piotr Boinski",
    "category": "INSTAL-TECH Piotr Boinski",
    "formatted_address": "5,0(11)",
    "phone_number": "+48660992691",
    "source_url": "https://www.google.com/maps/place/INSTAL-TECH+Piotr+Boinski/data=!4m7!3m6!1s0x47015d5b0727f971:0x75f8a7dd00e26c8a!8m2!3d53.277503!4d16.4797809!16s%2Fg%2F11fwjz23bq!19sChIJcfknB1tdAUcRimziAN2n-HU?authuser=0&hl=tr&rclk=1",
    "website_url": "",
    "rating_text": "5,0",
    "stars": null,
    "number_of_reviews": null,
    "price_level": "",
    "open_hours": "",
    "extraction_timestamp": "2025-06-07T17:19:54.008Z",
    "source_name": "google",
    "source_query": "Irrigation Equipment",
    "source_country": "PL",
    "country": "Poland",
    "state": "Greater Poland Voivodeship",
    "city": "Powiat pilski"
  },
  {
    "source_id": "ChIJpwrrdooJiEoR9sGCYtDw7fY",
    "name": "Expert Gaz Arkadiusz Spychalski. Serwis urządzeń grzewczych",
    "category": "Expert Gaz Arkadiusz Spychalski. Serwis urządzeń grzewczych",
    "formatted_address": "5,0(14)",
    "phone_number": "+48880468846",
    "source_url": "https://www.google.com/maps/place/Expert+Gaz+Arkadiusz+Spychalski.+Serwis+urz%C4%85dze%C5%84+grzewczych/data=!4m7!3m6!1s0x4a88098a76eb0aa7:0xf6edf0d06282c1f6!8m2!3d53.0162058!4d16.9529053!16s%2Fg%2F11l1y2d3dq!19sChIJpwrrdooJiEoR9sGCYtDw7fY?authuser=0&hl=tr&rclk=1",
    "website_url": "",
    "rating_text": "5,0",
    "stars": null,
    "number_of_reviews": null,
    "price_level": "",
    "open_hours": "",
    "extraction_timestamp": "2025-06-07T17:19:54.008Z",
    "source_name": "google",
    "source_query": "Irrigation Equipment",
    "source_country": "PL",
    "country": "Poland",
    "state": "Greater Poland Voivodeship",
    "city": "Powiat pilski"
  },
  {
    "source_id": "ChIJ_9_c33vkA0cRm78-2BycQsQ",
    "name": "Plaża \"piaszczyste\"",
    "category": "Plaża \"piaszczyste\"",
    "formatted_address": "4,2(264)",
    "phone_number": "+48512080514",
    "source_url": "https://www.google.com/maps/place/Pla%C5%BCa+%22piaszczyste%22/data=!4m7!3m6!1s0x4703e47bdfdcdfff:0xc4429c1cd83ebf9b!8m2!3d53.1307191!4d16.7101029!16s%2Fg%2F11hdc3q82v!19sChIJ_9_c33vkA0cRm78-2BycQsQ?authuser=0&hl=tr&rclk=1",
    "website_url": "",
    "rating_text": "4,2",
    "stars": null,
    "number_of_reviews": null,
    "price_level": "",
    "open_hours": "",
    "extraction_timestamp": "2025-06-07T17:19:54.009Z",
    "source_name": "google",
    "source_query": "Irrigation Equipment",
    "source_country": "PL",
    "country": "Poland",
    "state": "Greater Poland Voivodeship",
    "city": "Powiat pilski"
  }
]
