[
  {
    "source_id": "ChIJI55nQ93MBUcRIybzvv8Urzs",
    "name": "HABA przydomowe i osiedlowe oczyszczalnie ścieków",
    "category": "HABA przydomowe i osiedlowe oczyszczalnie ścieków",
    "formatted_address": "4,9(486)",
    "phone_number": "+48613070172",
    "source_url": "https://www.google.com/maps/place/HABA+przydomowe+i+osiedlowe+oczyszczalnie+%C5%9Bciek%C3%B3w/data=!4m7!3m6!1s0x4705ccdd43679e23:0x3baf14ffbef32623!8m2!3d52.2417963!4d16.3268291!16s%2Fg%2F1tdmtb1j!19sChIJI55nQ93MBUcRIybzvv8Urzs?authuser=0&hl=tr&rclk=1",
    "website_url": "",
    "rating_text": "4,9",
    "stars": null,
    "number_of_reviews": null,
    "price_level": "",
    "open_hours": "",
    "extraction_timestamp": "2025-06-07T17:41:53.499Z",
    "source_name": "google",
    "source_query": "Irrigation Equipment",
    "source_country": "PL",
    "country": "Poland",
    "state": "Greater Poland Voivodeship",
    "city": "Powiat grodziski"
  },
  {
    "source_id": "ChIJT5-ht-3MBUcRfj9r0ngkQ80",
    "name": "DANFLOR Centrum Ogrodnicze, Autoryzowany Diler Husqvarna",
    "category": "DANFLOR Centrum Ogrodnicze, Autoryzowany Diler Husqvarna",
    "formatted_address": "DANFLOR Centrum Ogrodnicze, Autoryzowany Diler Husqvarna",
    "phone_number": "+48614445171",
    "source_url": "https://www.google.com/maps/place/DANFLOR+Centrum+Ogrodnicze,+Autoryzowany+Diler+Husqvarna/data=!4m7!3m6!1s0x4705ccedb7a19f4f:0xcd432478d26b3f7e!8m2!3d52.218807!4d16.364237!16s%2Fg%2F1tf2whpl!19sChIJT5-ht-3MBUcRfj9r0ngkQ80?authuser=0&hl=tr&rclk=1",
    "website_url": "",
    "rating_text": "4,5",
    "stars": null,
    "number_of_reviews": null,
    "price_level": "",
    "open_hours": "",
    "extraction_timestamp": "2025-06-07T17:41:53.500Z",
    "source_name": "google",
    "source_query": "Irrigation Equipment",
    "source_country": "PL",
    "country": "Poland",
    "state": "Greater Poland Voivodeship",
    "city": "Powiat grodziski"
  },
  {
    "source_id": "ChIJL7LvNNLNBUcR30Yqub8x3fM",
    "name": "EFLI GROUP Spółka z Ograniczoną Odpowiedzialnością Spółka Komandytowa",
    "category": "EFLI GROUP Spółka z Ograniczoną Odpowiedzialnością Spółka Komandytowa",
    "formatted_address": "4,9(14)",
    "phone_number": "+48607500037",
    "source_url": "https://www.google.com/maps/place/EFLI+GROUP+Sp%C3%B3%C5%82ka+z+Ograniczon%C4%85+Odpowiedzialno%C5%9Bci%C4%85+Sp%C3%B3%C5%82ka+Komandytowa/data=!4m7!3m6!1s0x4705cdd234efb22f:0xf3dd31bfb92a46df!8m2!3d52.2191154!4d16.3562051!16s%2Fg%2F11hz3_hbxg!19sChIJL7LvNNLNBUcR30Yqub8x3fM?authuser=0&hl=tr&rclk=1",
    "website_url": "",
    "rating_text": "4,9",
    "stars": null,
    "number_of_reviews": null,
    "price_level": "",
    "open_hours": "",
    "extraction_timestamp": "2025-06-07T17:41:53.501Z",
    "source_name": "google",
    "source_query": "Irrigation Equipment",
    "source_country": "PL",
    "country": "Poland",
    "state": "Greater Poland Voivodeship",
    "city": "Powiat grodziski"
  },
  {
    "source_id": "ChIJhTnOXpLMBUcR4JrDFaEl54M",
    "name": "Pago Sp. o.o. Cold store",
    "category": "Pago Sp. o.o. Cold store",
    "formatted_address": "3,8(267)",
    "phone_number": "+48614481343",
    "source_url": "https://www.google.com/maps/place/Pago+Sp.+o.o.+Cold+store/data=!4m7!3m6!1s0x4705cc925ece3985:0x83e725a115c39ae0!8m2!3d52.2166722!4d16.3782214!16s%2Fg%2F1tfz_sk8!19sChIJhTnOXpLMBUcR4JrDFaEl54M?authuser=0&hl=tr&rclk=1",
    "website_url": "",
    "rating_text": "3,8",
    "stars": null,
    "number_of_reviews": null,
    "price_level": "",
    "open_hours": "",
    "extraction_timestamp": "2025-06-07T17:41:53.502Z",
    "source_name": "google",
    "source_query": "Irrigation Equipment",
    "source_country": "PL",
    "country": "Poland",
    "state": "Greater Poland Voivodeship",
    "city": "Powiat grodziski"
  },
  {
    "source_id": "ChIJJVBDwIytBUcRWcmsQgPZbxU",
    "name": "NEO INSTALACJE - pompy ciepła, klimatyzacja, wentylacja, ogrzewanie, instalacje wod-kan",
    "category": "NEO INSTALACJE - pompy ciepła, klimatyzacja, wentylacja, ogrzewanie, instalacje wod-kan",
    "formatted_address": "NEO INSTALACJE - pompy ciepła, klimatyzacja, wentylacja, ogrzewanie, instalacje wod-kan",
    "phone_number": "+48661774385",
    "source_url": "https://www.google.com/maps/place/NEO+INSTALACJE+-+pompy+ciep%C5%82a,+klimatyzacja,+wentylacja,+ogrzewanie,+instalacje+wod-kan/data=!4m7!3m6!1s0x4705ad8cc0435025:0x156fd90342acc959!8m2!3d52.2351527!4d16.3470933!16s%2Fg%2F11fm16f44t!19sChIJJVBDwIytBUcRWcmsQgPZbxU?authuser=0&hl=tr&rclk=1",
    "website_url": "",
    "rating_text": "5,0",
    "stars": null,
    "number_of_reviews": null,
    "price_level": "",
    "open_hours": "",
    "extraction_timestamp": "2025-06-07T17:41:53.503Z",
    "source_name": "google",
    "source_query": "Irrigation Equipment",
    "source_country": "PL",
    "country": "Poland",
    "state": "Greater Poland Voivodeship",
    "city": "Powiat grodziski"
  },
  {
    "source_id": "ChIJJcs52bPKBUcRWL49DJ4Qru8",
    "name": "GRENE",
    "category": "GRENE",
    "formatted_address": "4,2(23)",
    "phone_number": "+48614472025",
    "source_url": "https://www.google.com/maps/place/GRENE/data=!4m7!3m6!1s0x4705cab3d939cb25:0xefae109e0c3dbe58!8m2!3d52.2234909!4d16.512436!16s%2Fg%2F11df6hyhm5!19sChIJJcs52bPKBUcRWL49DJ4Qru8?authuser=0&hl=tr&rclk=1",
    "website_url": "",
    "rating_text": "4,2",
    "stars": null,
    "number_of_reviews": null,
    "price_level": "",
    "open_hours": "",
    "extraction_timestamp": "2025-06-07T17:41:53.504Z",
    "source_name": "google",
    "source_query": "Irrigation Equipment",
    "source_country": "PL",
    "country": "Poland",
    "state": "Greater Poland Voivodeship",
    "city": "Powiat grodziski"
  },
  {
    "source_id": "ChIJ3QsGyRLNBUcRAy30D8D-WWY",
    "name": "Na Berlinku Mateusz Piosik",
    "category": "Na Berlinku Mateusz Piosik",
    "formatted_address": "4,5(43)",
    "phone_number": "+48695473141",
    "source_url": "https://www.google.com/maps/place/Na+Berlinku+Mateusz+Piosik/data=!4m7!3m6!1s0x4705cd12c9060bdd:0x6659fec00ff42d03!8m2!3d52.229518!4d16.3661576!16s%2Fg%2F11r_v2y21j!19sChIJ3QsGyRLNBUcRAy30D8D-WWY?authuser=0&hl=tr&rclk=1",
    "website_url": "",
    "rating_text": "4,5",
    "stars": null,
    "number_of_reviews": null,
    "price_level": "",
    "open_hours": "",
    "extraction_timestamp": "2025-06-07T17:41:53.505Z",
    "source_name": "google",
    "source_query": "Irrigation Equipment",
    "source_country": "PL",
    "country": "Poland",
    "state": "Greater Poland Voivodeship",
    "city": "Powiat grodziski"
  },
  {
    "source_id": "ChIJ3XvcacDMBUcRqyQ9Cf-RBYU",
    "name": "DORMAX - Salon Łazienek | Drzwi wewnętrzne i zewnętrzne | Tapety",
    "category": "DORMAX - Salon Łazienek | Drzwi wewnętrzne i zewnętrzne | Tapety",
    "formatted_address": "4,5(74)",
    "phone_number": "+48614440265",
    "source_url": "https://www.google.com/maps/place/DORMAX+-+Salon+%C5%81azienek+%7C+Drzwi+wewn%C4%99trzne+i+zewn%C4%99trzne+%7C+Tapety/data=!4m7!3m6!1s0x4705ccc069dc7bdd:0x850591ff093d24ab!8m2!3d52.2278334!4d16.3722395!16s%2Fg%2F1thk_k8d!19sChIJ3XvcacDMBUcRqyQ9Cf-RBYU?authuser=0&hl=tr&rclk=1",
    "website_url": "",
    "rating_text": "4,5",
    "stars": null,
    "number_of_reviews": null,
    "price_level": "",
    "open_hours": "",
    "extraction_timestamp": "2025-06-07T17:41:53.506Z",
    "source_name": "google",
    "source_query": "Irrigation Equipment",
    "source_country": "PL",
    "country": "Poland",
    "state": "Greater Poland Voivodeship",
    "city": "Powiat grodziski"
  },
  {
    "source_id": "ChIJCZi81fHMBUcRVnxI1izUUtg",
    "name": "Bricomarché",
    "category": "Bricomarché",
    "formatted_address": "4,3(900)",
    "phone_number": "+48501814409",
    "source_url": "https://www.google.com/maps/place/Bricomarch%C3%A9/data=!4m7!3m6!1s0x4705ccf1d5bc9809:0xd852d42cd6487c56!8m2!3d52.2179336!4d16.3583933!16s%2Fg%2F11c3ywcw6v!19sChIJCZi81fHMBUcRVnxI1izUUtg?authuser=0&hl=tr&rclk=1",
    "website_url": "",
    "rating_text": "4,3",
    "stars": null,
    "number_of_reviews": null,
    "price_level": "",
    "open_hours": "",
    "extraction_timestamp": "2025-06-07T17:41:53.507Z",
    "source_name": "google",
    "source_query": "Irrigation Equipment",
    "source_country": "PL",
    "country": "Poland",
    "state": "Greater Poland Voivodeship",
    "city": "Powiat grodziski"
  },
  {
    "source_id": "ChIJAby498HMBUcR9ybX8bVMBSU",
    "name": "Bukowsko - Grodziska Spółdzielnia Mleczarska",
    "category": "Bukowsko - Grodziska Spółdzielnia Mleczarska",
    "formatted_address": "4,7(16)",
    "phone_number": "+48614445018",
    "source_url": "https://www.google.com/maps/place/Bukowsko+-+Grodziska+Sp%C3%B3%C5%82dzielnia+Mleczarska/data=!4m7!3m6!1s0x4705ccc1f7b8bc01:0x25054cb5f1d726f7!8m2!3d52.2282931!4d16.367594!16s%2Fg%2F1tkkskvp!19sChIJAby498HMBUcR9ybX8bVMBSU?authuser=0&hl=tr&rclk=1",
    "website_url": "",
    "rating_text": "4,7",
    "stars": null,
    "number_of_reviews": null,
    "price_level": "",
    "open_hours": "",
    "extraction_timestamp": "2025-06-07T17:41:53.507Z",
    "source_name": "google",
    "source_query": "Irrigation Equipment",
    "source_country": "PL",
    "country": "Poland",
    "state": "Greater Poland Voivodeship",
    "city": "Powiat grodziski"
  },
  {
    "source_id": "ChIJ32Hw4yjNBUcRN1A1QsAN8Qw",
    "name": "Sunrise Energy - Instalacje Fotowoltaiczne Nowy Tomyśl",
    "category": "Sunrise Energy - Instalacje Fotowoltaiczne Nowy Tomyśl",
    "formatted_address": "4,4(55)",
    "phone_number": "+48728105424",
    "source_url": "https://www.google.com/maps/place/Sunrise+Energy+-+Instalacje+Fotowoltaiczne+Nowy+Tomy%C5%9Bl/data=!4m7!3m6!1s0x4705cd28e3f061df:0xcf10dc042355037!8m2!3d52.3038678!4d16.1246078!16s%2Fg%2F11fnxvktbk!19sChIJ32Hw4yjNBUcRN1A1QsAN8Qw?authuser=0&hl=tr&rclk=1",
    "website_url": "",
    "rating_text": "4,4",
    "stars": null,
    "number_of_reviews": null,
    "price_level": "",
    "open_hours": "",
    "extraction_timestamp": "2025-06-07T17:41:53.508Z",
    "source_name": "google",
    "source_query": "Irrigation Equipment",
    "source_country": "PL",
    "country": "Poland",
    "state": "Greater Poland Voivodeship",
    "city": "Powiat grodziski"
  },
  {
    "source_id": "ChIJbX8xZ7fGBUcR4gcYxAmUMck",
    "name": "BamarTech przydomowe oczyszczalnie ścieków",
    "category": "BamarTech przydomowe oczyszczalnie ścieków",
    "formatted_address": "4,8(77)",
    "phone_number": "+48500503818",
    "source_url": "https://www.google.com/maps/place/BamarTech+przydomowe+oczyszczalnie+%C5%9Bciek%C3%B3w/data=!4m7!3m6!1s0x4705c6b767317f6d:0xc9319409c41807e2!8m2!3d52.0889256!4d16.1051666!16s%2Fg%2F11b7lq89pt!19sChIJbX8xZ7fGBUcR4gcYxAmUMck?authuser=0&hl=tr&rclk=1",
    "website_url": "",
    "rating_text": "4,8",
    "stars": null,
    "number_of_reviews": null,
    "price_level": "",
    "open_hours": "",
    "extraction_timestamp": "2025-06-07T17:41:53.509Z",
    "source_name": "google",
    "source_query": "Irrigation Equipment",
    "source_country": "PL",
    "country": "Poland",
    "state": "Greater Poland Voivodeship",
    "city": "Powiat grodziski"
  },
  {
    "source_id": "ChIJSQdYdY_NBUcRi9HZCqQy2tU",
    "name": "Purbo Sp. z o.o.",
    "category": "Purbo Sp. z o.o.",
    "formatted_address": "5,0(3)",
    "phone_number": "+48614445354",
    "source_url": "https://www.google.com/maps/place/Purbo+Sp.+z+o.o./data=!4m7!3m6!1s0x4705cd8f75580749:0xd5da32a40ad9d18b!8m2!3d52.2139008!4d16.3656383!16s%2Fg%2F11s469l4_2!19sChIJSQdYdY_NBUcRi9HZCqQy2tU?authuser=0&hl=tr&rclk=1",
    "website_url": "",
    "rating_text": "5,0",
    "stars": null,
    "number_of_reviews": null,
    "price_level": "",
    "open_hours": "",
    "extraction_timestamp": "2025-06-07T17:41:53.510Z",
    "source_name": "google",
    "source_query": "Irrigation Equipment",
    "source_country": "PL",
    "country": "Poland",
    "state": "Greater Poland Voivodeship",
    "city": "Powiat grodziski"
  },
  {
    "source_id": "ChIJURdONMDMBUcRT44BNSxmCes",
    "name": "Hares. Hurtownia piwa, wina i napojów",
    "category": "Hares. Hurtownia piwa, wina i napojów",
    "formatted_address": "Hares. Hurtownia piwa, wina i napojów",
    "phone_number": "+48614445237",
    "source_url": "https://www.google.com/maps/place/Hares.+Hurtownia+piwa,+wina+i+napoj%C3%B3w/data=!4m7!3m6!1s0x4705ccc0344e1751:0xeb09662c35018e4f!8m2!3d52.2282974!4d16.3720811!16s%2Fg%2F1tds5djd!19sChIJURdONMDMBUcRT44BNSxmCes?authuser=0&hl=tr&rclk=1",
    "website_url": "",
    "rating_text": "4,3",
    "stars": null,
    "number_of_reviews": null,
    "price_level": "",
    "open_hours": "",
    "extraction_timestamp": "2025-06-07T17:41:53.511Z",
    "source_name": "google",
    "source_query": "Irrigation Equipment",
    "source_country": "PL",
    "country": "Poland",
    "state": "Greater Poland Voivodeship",
    "city": "Powiat grodziski"
  },
  {
    "source_id": "ChIJqetkIO3MBUcR8aLpWNt5pUs",
    "name": "PSB Mrówka",
    "category": "PSB Mrówka",
    "formatted_address": "4,4(703)",
    "phone_number": "+48668880210",
    "source_url": "https://www.google.com/maps/place/PSB+Mr%C3%B3wka/data=!4m7!3m6!1s0x4705cced2064eba9:0x4ba579db58e9a2f1!8m2!3d52.2185466!4d16.3665627!16s%2Fg%2F11cm3vjn5s!19sChIJqetkIO3MBUcR8aLpWNt5pUs?authuser=0&hl=tr&rclk=1",
    "website_url": "",
    "rating_text": "4,4",
    "stars": null,
    "number_of_reviews": null,
    "price_level": "",
    "open_hours": "",
    "extraction_timestamp": "2025-06-07T17:41:53.512Z",
    "source_name": "google",
    "source_query": "Irrigation Equipment",
    "source_country": "PL",
    "country": "Poland",
    "state": "Greater Poland Voivodeship",
    "city": "Powiat grodziski"
  },
  {
    "source_id": "ChIJ71zf0cHMBUcRB8h4PRaEsWk",
    "name": "KRYSTYNA KUREK SKLEP OGÓLNOSPOŻYWCZY Krystyna Kurek",
    "category": "KRYSTYNA KUREK SKLEP OGÓLNOSPOŻYWCZY Krystyna Kurek",
    "formatted_address": "4,6(8)",
    "phone_number": "+48661863520",
    "source_url": "https://www.google.com/maps/place/KRYSTYNA+KUREK+SKLEP+OG%C3%93LNOSPO%C5%BBYWCZY+Krystyna+Kurek/data=!4m7!3m6!1s0x4705ccc1d1df5cef:0x69b184163d78c807!8m2!3d52.2272526!4d16.3703756!16s%2Fg%2F1tl4br0g!19sChIJ71zf0cHMBUcRB8h4PRaEsWk?authuser=0&hl=tr&rclk=1",
    "website_url": "",
    "rating_text": "4,6",
    "stars": null,
    "number_of_reviews": null,
    "price_level": "",
    "open_hours": "",
    "extraction_timestamp": "2025-06-07T17:41:53.514Z",
    "source_name": "google",
    "source_query": "Irrigation Equipment",
    "source_country": "PL",
    "country": "Poland",
    "state": "Greater Poland Voivodeship",
    "city": "Powiat grodziski"
  },
  {
    "source_id": "ChIJ5zn8mw40BEcR9ztZxC5snYE",
    "name": "Ogrody Dariusz Pietrakowski",
    "category": "Ogrody Dariusz Pietrakowski",
    "formatted_address": "4,8(12)",
    "phone_number": "+48606643969",
    "source_url": "https://www.google.com/maps/place/Ogrody+Dariusz+Pietrakowski/data=!4m7!3m6!1s0x4704340e9bfc39e7:0x819d6c2ec4593bf7!8m2!3d52.3064617!4d16.4661363!16s%2Fg%2F1pp2vgdt_!19sChIJ5zn8mw40BEcR9ztZxC5snYE?authuser=0&hl=tr&rclk=1",
    "website_url": "",
    "rating_text": "4,8",
    "stars": null,
    "number_of_reviews": null,
    "price_level": "",
    "open_hours": "",
    "extraction_timestamp": "2025-06-07T17:41:53.515Z",
    "source_name": "google",
    "source_query": "Irrigation Equipment",
    "source_country": "PL",
    "country": "Poland",
    "state": "Greater Poland Voivodeship",
    "city": "Powiat grodziski"
  },
  {
    "source_id": "ChIJi21zuO3MBUcRBcu73lmGiu4",
    "name": "Max Elektro Adlech Grodzisk Wlkp. | Autoryzowany dealer KROSS",
    "category": "Max Elektro Adlech Grodzisk Wlkp. | Autoryzowany dealer KROSS",
    "formatted_address": "4,8(19)",
    "phone_number": "+48614440079",
    "source_url": "https://www.google.com/maps/place/Max+Elektro+Adlech+Grodzisk+Wlkp.+%7C+Autoryzowany+dealer+KROSS/data=!4m7!3m6!1s0x4705ccedb8736d8b:0xee8a8659debbcb05!8m2!3d52.2191373!4d16.3638281!16s%2Fg%2F11gxn21lrh!19sChIJi21zuO3MBUcRBcu73lmGiu4?authuser=0&hl=tr&rclk=1",
    "website_url": "",
    "rating_text": "4,8",
    "stars": null,
    "number_of_reviews": null,
    "price_level": "",
    "open_hours": "",
    "extraction_timestamp": "2025-06-07T17:41:53.516Z",
    "source_name": "google",
    "source_query": "Irrigation Equipment",
    "source_country": "PL",
    "country": "Poland",
    "state": "Greater Poland Voivodeship",
    "city": "Powiat grodziski"
  },
  {
    "source_id": "ChIJo0D41d3MBUcR_2KIa-mdgLM",
    "name": "Intermarché Super",
    "category": "Intermarché Super",
    "formatted_address": "4,1(835)",
    "phone_number": "+48614447879",
    "source_url": "https://www.google.com/maps/place/Intermarch%C3%A9+Super/data=!4m7!3m6!1s0x4705ccddd5f840a3:0xb3809de96b8862ff!8m2!3d52.2307824!4d16.3530991!16s%2Fg%2F1tfn1fhy!19sChIJo0D41d3MBUcR_2KIa-mdgLM?authuser=0&hl=tr&rclk=1",
    "website_url": "",
    "rating_text": "4,1",
    "stars": null,
    "number_of_reviews": null,
    "price_level": "",
    "open_hours": "",
    "extraction_timestamp": "2025-06-07T17:41:53.517Z",
    "source_name": "google",
    "source_query": "Irrigation Equipment",
    "source_country": "PL",
    "country": "Poland",
    "state": "Greater Poland Voivodeship",
    "city": "Powiat grodziski"
  },
  {
    "source_id": "ChIJsy3rVMLMBUcRIbUdILvvB_0",
    "name": "Azalia i Ogród. Centrum ogrodnicze",
    "category": "Azalia i Ogród. Centrum ogrodnicze",
    "formatted_address": "4,9(39)",
    "phone_number": "+48614446961",
    "source_url": "https://www.google.com/maps/place/Azalia+i+Ogr%C3%B3d.+Centrum+ogrodnicze/data=!4m7!3m6!1s0x4705ccc254eb2db3:0xfd07efbb201db521!8m2!3d52.2303509!4d16.3650604!16s%2Fg%2F1tj7292h!19sChIJsy3rVMLMBUcRIbUdILvvB_0?authuser=0&hl=tr&rclk=1",
    "website_url": "",
    "rating_text": "4,9",
    "stars": null,
    "number_of_reviews": null,
    "price_level": "",
    "open_hours": "",
    "extraction_timestamp": "2025-06-07T17:41:53.518Z",
    "source_name": "google",
    "source_query": "Irrigation Equipment",
    "source_country": "PL",
    "country": "Poland",
    "state": "Greater Poland Voivodeship",
    "city": "Powiat grodziski"
  },
  {
    "source_id": "ChIJr15GMSYzBEcR5M3MzHdzTmk",
    "name": "SunnyHouse",
    "category": "SunnyHouse",
    "formatted_address": "4,8(25)",
    "phone_number": "",
    "source_url": "https://www.google.com/maps/place/SunnyHouse/data=!4m7!3m6!1s0x4704332631465eaf:0x694e7377cccccde4!8m2!3d52.3020406!4d16.4140578!16s%2Fg%2F11hzz8kkfr!19sChIJr15GMSYzBEcR5M3MzHdzTmk?authuser=0&hl=tr&rclk=1",
    "website_url": "",
    "rating_text": "4,8",
    "stars": null,
    "number_of_reviews": null,
    "price_level": "",
    "open_hours": "",
    "extraction_timestamp": "2025-06-07T17:41:53.518Z",
    "source_name": "google",
    "source_query": "Irrigation Equipment",
    "source_country": "PL",
    "country": "Poland",
    "state": "Greater Poland Voivodeship",
    "city": "Powiat grodziski"
  },
  {
    "source_id": "ChIJbxvaicDMBUcRqXtAqacmzyA",
    "name": "Sklep wielobranżowy GS Samopomoc Chłopska",
    "category": "Sklep wielobranżowy GS Samopomoc Chłopska",
    "formatted_address": "4,3(28)",
    "phone_number": "+48614448840",
    "source_url": "https://www.google.com/maps/place/Sklep+wielobran%C5%BCowy+GS+Samopomoc+Ch%C5%82opska/data=!4m7!3m6!1s0x4705ccc089da1b6f:0x20cf26a7a9407ba9!8m2!3d52.230847!4d16.367653!16s%2Fg%2F1tcy2_pn!19sChIJbxvaicDMBUcRqXtAqacmzyA?authuser=0&hl=tr&rclk=1",
    "website_url": "",
    "rating_text": "4,3",
    "stars": null,
    "number_of_reviews": null,
    "price_level": "",
    "open_hours": "",
    "extraction_timestamp": "2025-06-07T17:41:53.519Z",
    "source_name": "google",
    "source_query": "Irrigation Equipment",
    "source_country": "PL",
    "country": "Poland",
    "state": "Greater Poland Voivodeship",
    "city": "Powiat grodziski"
  },
  {
    "source_id": "ChIJmUo_XJNLBEcRPkJmroYBo3A",
    "name": "Strykowo plaża",
    "category": "Strykowo plaża",
    "formatted_address": "4,4(422)",
    "phone_number": "",
    "source_url": "https://www.google.com/maps/place/Strykowo+pla%C5%BCa/data=!4m7!3m6!1s0x47044b935c3f4a99:0x70a30186ae66423e!8m2!3d52.2522711!4d16.6092487!16s%2Fg%2F11ghn02b9l!19sChIJmUo_XJNLBEcRPkJmroYBo3A?authuser=0&hl=tr&rclk=1",
    "website_url": "",
    "rating_text": "4,4",
    "stars": null,
    "number_of_reviews": null,
    "price_level": "",
    "open_hours": "",
    "extraction_timestamp": "2025-06-07T17:41:53.519Z",
    "source_name": "google",
    "source_query": "Irrigation Equipment",
    "source_country": "PL",
    "country": "Poland",
    "state": "Greater Poland Voivodeship",
    "city": "Powiat grodziski"
  },
  {
    "source_id": "ChIJTWvaoMobcaoRWJt166OMbqg",
    "name": "Instal-Tech. Systemy grzewcze i sanitarne Maciej Gładysz",
    "category": "Instal-Tech. Systemy grzewcze i sanitarne Maciej Gładysz",
    "formatted_address": "",
    "phone_number": "+48537082769",
    "source_url": "https://www.google.com/maps/place/Instal-Tech.+Systemy+grzewcze+i+sanitarne+Maciej+G%C5%82adysz/data=!4m7!3m6!1s0xaa711bcaa0da6b4d:0xa86e8ca3eb759b58!8m2!3d52.4170919!4d16.7080735!16s%2Fg%2F11vpn0xj75!19sChIJTWvaoMobcaoRWJt166OMbqg?authuser=0&hl=tr&rclk=1",
    "website_url": "",
    "rating_text": "",
    "stars": null,
    "number_of_reviews": null,
    "price_level": "",
    "open_hours": "",
    "extraction_timestamp": "2025-06-07T17:41:53.520Z",
    "source_name": "google",
    "source_query": "Irrigation Equipment",
    "source_country": "PL",
    "country": "Poland",
    "state": "Greater Poland Voivodeship",
    "city": "Powiat grodziski"
  },
  {
    "source_id": "ChIJ9_j1KwDNBUcRYSu-OtSINX0",
    "name": "Targowisko Miejskie w Grodzisku Wielkopolskim",
    "category": "Targowisko Miejskie w Grodzisku Wielkopolskim",
    "formatted_address": "4,3(4)",
    "phone_number": "",
    "source_url": "https://www.google.com/maps/place/Targowisko+Miejskie+w+Grodzisku+Wielkopolskim/data=!4m7!3m6!1s0x4705cd002bf5f8f7:0x7d3588d43abe2b61!8m2!3d52.229073!4d16.3697441!16s%2Fg%2F11y50hw6nn!19sChIJ9_j1KwDNBUcRYSu-OtSINX0?authuser=0&hl=tr&rclk=1",
    "website_url": "",
    "rating_text": "4,3",
    "stars": null,
    "number_of_reviews": null,
    "price_level": "",
    "open_hours": "",
    "extraction_timestamp": "2025-06-07T17:41:53.521Z",
    "source_name": "google",
    "source_query": "Irrigation Equipment",
    "source_country": "PL",
    "country": "Poland",
    "state": "Greater Poland Voivodeship",
    "city": "Powiat grodziski"
  },
  {
    "source_id": "ChIJn_PIxWHNBUcRkC3LS3LOjXY",
    "name": "Alkohole Konesera",
    "category": "Alkohole Konesera",
    "formatted_address": "4,4(31)",
    "phone_number": "+48881704098",
    "source_url": "https://www.google.com/maps/place/Alkohole+Konesera/data=!4m7!3m6!1s0x4705cd61c5c8f39f:0x768dce724bcb2d90!8m2!3d52.2312057!4d16.3509151!16s%2Fg%2F11k5j7fk8j!19sChIJn_PIxWHNBUcRkC3LS3LOjXY?authuser=0&hl=tr&rclk=1",
    "website_url": "",
    "rating_text": "4,4",
    "stars": null,
    "number_of_reviews": null,
    "price_level": "",
    "open_hours": "",
    "extraction_timestamp": "2025-06-07T17:41:53.521Z",
    "source_name": "google",
    "source_query": "Irrigation Equipment",
    "source_country": "PL",
    "country": "Poland",
    "state": "Greater Poland Voivodeship",
    "city": "Powiat grodziski"
  },
  {
    "source_id": "ChIJHQzxmfwqBEcR5N422VroDIc",
    "name": "Instal-Bud sp.j. Wyposażenie łazienek",
    "category": "Instal-Bud sp.j. Wyposażenie łazienek",
    "formatted_address": "4,6(21)",
    "phone_number": "+48614422197",
    "source_url": "https://www.google.com/maps/place/Instal-Bud+sp.j.+Wyposa%C5%BCenie+%C5%82azienek/data=!4m7!3m6!1s0x47042afc99f10c1d:0x870ce85ad936dee4!8m2!3d52.3169938!4d16.1305197!16s%2Fg%2F1tfhf3fk!19sChIJHQzxmfwqBEcR5N422VroDIc?authuser=0&hl=tr&rclk=1",
    "website_url": "",
    "rating_text": "4,6",
    "stars": null,
    "number_of_reviews": null,
    "price_level": "",
    "open_hours": "",
    "extraction_timestamp": "2025-06-07T17:41:53.523Z",
    "source_name": "google",
    "source_query": "Irrigation Equipment",
    "source_country": "PL",
    "country": "Poland",
    "state": "Greater Poland Voivodeship",
    "city": "Powiat grodziski"
  },
  {
    "source_id": "ChIJxeag9g9MBEcRlnPdax-trrU",
    "name": "Majchrzakowie Instalacje",
    "category": "Majchrzakowie Instalacje",
    "formatted_address": "5,0(1)",
    "phone_number": "+48664010231",
    "source_url": "https://www.google.com/maps/place/Majchrzakowie+Instalacje/data=!4m7!3m6!1s0x47044c0ff6a0e6c5:0xb5aead1f6bdd7396!8m2!3d52.276244!4d16.711077!16s%2Fg%2F11h48w9yty!19sChIJxeag9g9MBEcRlnPdax-trrU?authuser=0&hl=tr&rclk=1",
    "website_url": "",
    "rating_text": "5,0",
    "stars": null,
    "number_of_reviews": null,
    "price_level": "",
    "open_hours": "",
    "extraction_timestamp": "2025-06-07T17:41:53.523Z",
    "source_name": "google",
    "source_query": "Irrigation Equipment",
    "source_country": "PL",
    "country": "Poland",
    "state": "Greater Poland Voivodeship",
    "city": "Powiat grodziski"
  }
]
