[
  {
    "source_id": "ChIJqVj1afkWBEcRyBlHCLGiC5k",
    "name": "Elbaw. PHU. Silniki elektryczne, pompy wody, narzędzia",
    "category": "Elbaw. PHU. Silniki elektryczne, pompy wody, narzędzia",
    "formatted_address": "Elbaw. PHU. Silniki elektryczne, pompy wody, narzędzia",
    "phone_number": "+48612921094",
    "source_url": "https://www.google.com/maps/place/Elbaw.+PHU.+Silniki+elektryczne,+pompy+wody,+narz%C4%99dzia/data=!4m7!3m6!1s0x470416f969f558a9:0x990ba2b1084719c8!8m2!3d52.6166289!4d16.5912149!16s%2Fg%2F1tdl4v6c!19sChIJqVj1afkWBEcRyBlHCLGiC5k?authuser=0&hl=tr&rclk=1",
    "website_url": "",
    "rating_text": "4,5",
    "stars": null,
    "number_of_reviews": null,
    "price_level": "",
    "open_hours": "",
    "extraction_timestamp": "2025-06-07T17:34:45.002Z",
    "source_name": "google",
    "source_query": "Irrigation Equipment",
    "source_country": "PL",
    "country": "Poland",
    "state": "Greater Poland Voivodeship",
    "city": "Powiat szamotulski"
  },
  {
    "source_id": "ChIJqVj1afkWBEcR7l_1fqb7nCo",
    "name": "\"Elbaw\" Przedsiębiorstwo Usługowo-Handlowe Adam Wawrzyniak",
    "category": "\"Elbaw\" Przedsiębiorstwo Usługowo-Handlowe Adam Wawrzyniak",
    "formatted_address": "4,8(13)",
    "phone_number": "+48602666653",
    "source_url": "https://www.google.com/maps/place/%22Elbaw%22+Przedsi%C4%99biorstwo+Us%C5%82ugowo-Handlowe+Adam+Wawrzyniak/data=!4m7!3m6!1s0x470416f969f558a9:0x2a9cfba67ef55fee!8m2!3d52.61665!4d16.591286!16s%2Fg%2F1txnn4qb!19sChIJqVj1afkWBEcR7l_1fqb7nCo?authuser=0&hl=tr&rclk=1",
    "website_url": "",
    "rating_text": "4,8",
    "stars": null,
    "number_of_reviews": null,
    "price_level": "",
    "open_hours": "",
    "extraction_timestamp": "2025-06-07T17:34:45.004Z",
    "source_name": "google",
    "source_query": "Irrigation Equipment",
    "source_country": "PL",
    "country": "Poland",
    "state": "Greater Poland Voivodeship",
    "city": "Powiat szamotulski"
  },
  {
    "source_id": "ChIJ6ZwxDIlBBEcRQdkgYydfEhg",
    "name": "BZW Bruk Zieleń Woda - Dominik Rzepczyński",
    "category": "BZW Bruk Zieleń Woda - Dominik Rzepczyński",
    "formatted_address": "5,0(2)",
    "phone_number": "+48880670990",
    "source_url": "https://www.google.com/maps/place/BZW+Bruk+Ziele%C5%84+Woda+-+Dominik+Rzepczy%C5%84ski/data=!4m7!3m6!1s0x470441890c319ce9:0x18125f276320d941!8m2!3d52.5119822!4d16.7499267!16s%2Fg%2F11mcx3nslq!19sChIJ6ZwxDIlBBEcRQdkgYydfEhg?authuser=0&hl=tr&rclk=1",
    "website_url": "",
    "rating_text": "5,0",
    "stars": null,
    "number_of_reviews": null,
    "price_level": "",
    "open_hours": "",
    "extraction_timestamp": "2025-06-07T17:34:45.005Z",
    "source_name": "google",
    "source_query": "Irrigation Equipment",
    "source_country": "PL",
    "country": "Poland",
    "state": "Greater Poland Voivodeship",
    "city": "Powiat szamotulski"
  },
  {
    "source_id": "ChIJc4haWAAXBEcRZ1jXuyYLw1c",
    "name": "Efli Group Spółka z ograniczoną odpowiedzialnością Sp.K",
    "category": "Efli Group Spółka z ograniczoną odpowiedzialnością Sp.K",
    "formatted_address": "5,0(1)",
    "phone_number": "+48607502193",
    "source_url": "https://www.google.com/maps/place/Efli+Group+Sp%C3%B3%C5%82ka+z+ograniczon%C4%85+odpowiedzialno%C5%9Bci%C4%85+Sp.K/data=!4m7!3m6!1s0x47041700585a8873:0x57c30b26bbd75867!8m2!3d52.614213!4d16.5901739!16s%2Fg%2F11lf0p2m3w!19sChIJc4haWAAXBEcRZ1jXuyYLw1c?authuser=0&hl=tr&rclk=1",
    "website_url": "",
    "rating_text": "5,0",
    "stars": null,
    "number_of_reviews": null,
    "price_level": "",
    "open_hours": "",
    "extraction_timestamp": "2025-06-07T17:34:45.006Z",
    "source_name": "google",
    "source_query": "Irrigation Equipment",
    "source_country": "PL",
    "country": "Poland",
    "state": "Greater Poland Voivodeship",
    "city": "Powiat szamotulski"
  },
  {
    "source_id": "ChIJQ1ohPQ8XBEcRWBg-baAh3OU",
    "name": "Hydromar",
    "category": "Hydromar",
    "formatted_address": "4,2(19)",
    "phone_number": "+48612921984",
    "source_url": "https://www.google.com/maps/place/Hydromar/data=!4m7!3m6!1s0x4704170f3d215a43:0xe5dc21a06d3e1858!8m2!3d52.620958!4d16.5665889!16s%2Fg%2F1tp06t6y!19sChIJQ1ohPQ8XBEcRWBg-baAh3OU?authuser=0&hl=tr&rclk=1",
    "website_url": "",
    "rating_text": "4,2",
    "stars": null,
    "number_of_reviews": null,
    "price_level": "",
    "open_hours": "",
    "extraction_timestamp": "2025-06-07T17:34:45.006Z",
    "source_name": "google",
    "source_query": "Irrigation Equipment",
    "source_country": "PL",
    "country": "Poland",
    "state": "Greater Poland Voivodeship",
    "city": "Powiat szamotulski"
  },
  {
    "source_id": "ChIJEywbvPgWBEcRGG4kBbrT4nc",
    "name": "Artbud s.c. Technika grzewcza. Skąpscy A.T.",
    "category": "Artbud s.c. Technika grzewcza. Skąpscy A.T.",
    "formatted_address": "4,5(37)",
    "phone_number": "+48612923235",
    "source_url": "https://www.google.com/maps/place/Artbud+s.c.+Technika+grzewcza.+Sk%C4%85pscy+A.T./data=!4m7!3m6!1s0x470416f8bc1b2c13:0x77e2d3ba05246e18!8m2!3d52.6122877!4d16.5867698!16s%2Fg%2F1w15y3zy!19sChIJEywbvPgWBEcRGG4kBbrT4nc?authuser=0&hl=tr&rclk=1",
    "website_url": "",
    "rating_text": "4,5",
    "stars": null,
    "number_of_reviews": null,
    "price_level": "",
    "open_hours": "",
    "extraction_timestamp": "2025-06-07T17:34:45.007Z",
    "source_name": "google",
    "source_query": "Irrigation Equipment",
    "source_country": "PL",
    "country": "Poland",
    "state": "Greater Poland Voivodeship",
    "city": "Powiat szamotulski"
  },
  {
    "source_id": "ChIJT2A0nvsWBEcROVAYM3u3Brg",
    "name": "Hebo Sp. o.o.",
    "category": "Hebo Sp. o.o.",
    "formatted_address": "4,6(146)",
    "phone_number": "+48508983504",
    "source_url": "https://www.google.com/maps/place/Hebo+Sp.+o.o./data=!4m7!3m6!1s0x470416fb9e34604f:0xb806b77b33185039!8m2!3d52.6193768!4d16.5951908!16s%2Fg%2F1yfh_j0pk!19sChIJT2A0nvsWBEcROVAYM3u3Brg?authuser=0&hl=tr&rclk=1",
    "website_url": "",
    "rating_text": "4,6",
    "stars": null,
    "number_of_reviews": null,
    "price_level": "",
    "open_hours": "",
    "extraction_timestamp": "2025-06-07T17:34:45.008Z",
    "source_name": "google",
    "source_query": "Irrigation Equipment",
    "source_country": "PL",
    "country": "Poland",
    "state": "Greater Poland Voivodeship",
    "city": "Powiat szamotulski"
  },
  {
    "source_id": "ChIJ116TlgEXBEcRlkrR6mYFF7U",
    "name": "Bricomarché",
    "category": "Bricomarché",
    "formatted_address": "4,0(1.883)",
    "phone_number": "+48612929630",
    "source_url": "https://www.google.com/maps/place/Bricomarch%C3%A9/data=!4m7!3m6!1s0x4704170196935ed7:0xb5170566ead14a96!8m2!3d52.6183144!4d16.5779887!16s%2Fg%2F11g_c3fvs!19sChIJ116TlgEXBEcRlkrR6mYFF7U?authuser=0&hl=tr&rclk=1",
    "website_url": "",
    "rating_text": "4,0",
    "stars": null,
    "number_of_reviews": null,
    "price_level": "",
    "open_hours": "",
    "extraction_timestamp": "2025-06-07T17:34:45.011Z",
    "source_name": "google",
    "source_query": "Irrigation Equipment",
    "source_country": "PL",
    "country": "Poland",
    "state": "Greater Poland Voivodeship",
    "city": "Powiat szamotulski"
  },
  {
    "source_id": "ChIJ82XWjJwXBEcRD2Qjy5HXGqM",
    "name": "Semco Sp. z o.o. Sp.k. - Producent żywności ekologicznej",
    "category": "Semco Sp. z o.o. Sp.k. - Producent żywności ekologicznej",
    "formatted_address": "4,8(62)",
    "phone_number": "+48502556466",
    "source_url": "https://www.google.com/maps/place/Semco+Sp.+z+o.o.+Sp.k.+-+Producent+%C5%BCywno%C5%9Bci+ekologicznej/data=!4m7!3m6!1s0x4704179c8cd665f3:0xa31ad791cb23640f!8m2!3d52.6156766!4d16.5341012!16s%2Fg%2F1ttyvfkl!19sChIJ82XWjJwXBEcRD2Qjy5HXGqM?authuser=0&hl=tr&rclk=1",
    "website_url": "",
    "rating_text": "4,8",
    "stars": null,
    "number_of_reviews": null,
    "price_level": "",
    "open_hours": "",
    "extraction_timestamp": "2025-06-07T17:34:45.011Z",
    "source_name": "google",
    "source_query": "Irrigation Equipment",
    "source_country": "PL",
    "country": "Poland",
    "state": "Greater Poland Voivodeship",
    "city": "Powiat szamotulski"
  },
  {
    "source_id": "ChIJeSPOfAQXBEcRLs0aHXCEPtQ",
    "name": "ZINERON | Zbiorniki na ON, PB, RSM, AdBlue, Woda, Oczyszczalnie ścieków",
    "category": "ZINERON | Zbiorniki na ON, PB, RSM, AdBlue, Woda, Oczyszczalnie ścieków",
    "formatted_address": "ZINERON | Zbiorniki na ON, PB, RSM, AdBlue, Woda, Oczyszczalnie ścieków",
    "phone_number": "+48690855866",
    "source_url": "https://www.google.com/maps/place/ZINERON+%7C+Zbiorniki+na+ON,+PB,+RSM,+AdBlue,+Woda,+Oczyszczalnie+%C5%9Bciek%C3%B3w/data=!4m7!3m6!1s0x470417047cce2379:0xd43e84701d1acd2e!8m2!3d52.5941658!4d16.6112556!16s%2Fg%2F11h5snkynv!19sChIJeSPOfAQXBEcRLs0aHXCEPtQ?authuser=0&hl=tr&rclk=1",
    "website_url": "",
    "rating_text": "5,0",
    "stars": null,
    "number_of_reviews": null,
    "price_level": "",
    "open_hours": "",
    "extraction_timestamp": "2025-06-07T17:34:45.012Z",
    "source_name": "google",
    "source_query": "Irrigation Equipment",
    "source_country": "PL",
    "country": "Poland",
    "state": "Greater Poland Voivodeship",
    "city": "Powiat szamotulski"
  },
  {
    "source_id": "ChIJ-ftLg7EXBEcRJrnqe3P14Hc",
    "name": "Stylowy Ogrodnik. Usługi ogrodnicze. Systemy nawadniające",
    "category": "Stylowy Ogrodnik. Usługi ogrodnicze. Systemy nawadniające",
    "formatted_address": "5,0(16)",
    "phone_number": "+48792772881",
    "source_url": "https://www.google.com/maps/place/Stylowy+Ogrodnik.+Us%C5%82ugi+ogrodnicze.+Systemy+nawadniaj%C4%85ce/data=!4m7!3m6!1s0x470417b1834bfbf9:0x77e0f5737beab926!8m2!3d52.5973027!4d16.6115318!16s%2Fg%2F11h0_9y4dl!19sChIJ-ftLg7EXBEcRJrnqe3P14Hc?authuser=0&hl=tr&rclk=1",
    "website_url": "",
    "rating_text": "5,0",
    "stars": null,
    "number_of_reviews": null,
    "price_level": "",
    "open_hours": "",
    "extraction_timestamp": "2025-06-07T17:34:45.013Z",
    "source_name": "google",
    "source_query": "Irrigation Equipment",
    "source_country": "PL",
    "country": "Poland",
    "state": "Greater Poland Voivodeship",
    "city": "Powiat szamotulski"
  },
  {
    "source_id": "ChIJ04I5hooWBEcRN2Iv4Twf2oM",
    "name": "Centrum Ogrodnicze Werimax",
    "category": "Centrum Ogrodnicze Werimax",
    "formatted_address": "4,4(99)",
    "phone_number": "+48612926477",
    "source_url": "https://www.google.com/maps/place/Centrum+Ogrodnicze+Werimax/data=!4m7!3m6!1s0x4704168a863982d3:0x83da1f3ce12f6237!8m2!3d52.6087657!4d16.6184362!16s%2Fg%2F1tjwgfry!19sChIJ04I5hooWBEcRN2Iv4Twf2oM?authuser=0&hl=tr&rclk=1",
    "website_url": "",
    "rating_text": "4,4",
    "stars": null,
    "number_of_reviews": null,
    "price_level": "",
    "open_hours": "",
    "extraction_timestamp": "2025-06-07T17:34:45.014Z",
    "source_name": "google",
    "source_query": "Irrigation Equipment",
    "source_country": "PL",
    "country": "Poland",
    "state": "Greater Poland Voivodeship",
    "city": "Powiat szamotulski"
  },
  {
    "source_id": "ChIJR1Gy6FdHBEcRxLXa4mu3HY8",
    "name": "Fargo PW Centrum Ogrodnicze - Sklep Ogrodniczy i Rolniczy",
    "category": "Fargo PW Centrum Ogrodnicze - Sklep Ogrodniczy i Rolniczy",
    "formatted_address": "4,8(387)",
    "phone_number": "+48618146334",
    "source_url": "https://www.google.com/maps/place/Fargo+PW+Centrum+Ogrodnicze+-+Sklep+Ogrodniczy+i+Rolniczy/data=!4m7!3m6!1s0x47044757e8b25147:0x8f1db76be2dab5c4!8m2!3d52.4575027!4d16.6792707!16s%2Fg%2F1ptwzycf8!19sChIJR1Gy6FdHBEcRxLXa4mu3HY8?authuser=0&hl=tr&rclk=1",
    "website_url": "",
    "rating_text": "4,8",
    "stars": null,
    "number_of_reviews": null,
    "price_level": "",
    "open_hours": "",
    "extraction_timestamp": "2025-06-07T17:34:45.015Z",
    "source_name": "google",
    "source_query": "Irrigation Equipment",
    "source_country": "PL",
    "country": "Poland",
    "state": "Greater Poland Voivodeship",
    "city": "Powiat szamotulski"
  },
  {
    "source_id": "ChIJP_lX9sc4BEcRVdRxj6eVLJY",
    "name": "Korbanek Sp. o.o.",
    "category": "Korbanek Sp. o.o.",
    "formatted_address": "4,4(463)",
    "phone_number": "+48618961100",
    "source_url": "https://www.google.com/maps/place/Korbanek+Sp.+o.o./data=!4m7!3m6!1s0x470438c7f657f93f:0x962c95a78f71d455!8m2!3d52.4587541!4d16.6466483!16s%2Fg%2F1tgkf_1k!19sChIJP_lX9sc4BEcRVdRxj6eVLJY?authuser=0&hl=tr&rclk=1",
    "website_url": "",
    "rating_text": "4,4",
    "stars": null,
    "number_of_reviews": null,
    "price_level": "",
    "open_hours": "",
    "extraction_timestamp": "2025-06-07T17:34:45.016Z",
    "source_name": "google",
    "source_query": "Irrigation Equipment",
    "source_country": "PL",
    "country": "Poland",
    "state": "Greater Poland Voivodeship",
    "city": "Powiat szamotulski"
  },
  {
    "source_id": "ChIJx9dLaaM-BEcR0BMvflVq1Po",
    "name": "GRASSLAND FARMS",
    "category": "GRASSLAND FARMS",
    "formatted_address": "4,4(103)",
    "phone_number": "+48602382601",
    "source_url": "https://www.google.com/maps/place/GRASSLAND+FARMS/data=!4m7!3m6!1s0x47043ea3694bd7c7:0xfad46a557e2f13d0!8m2!3d52.5034131!4d16.5908032!16s%2Fg%2F1tlczwnb!19sChIJx9dLaaM-BEcR0BMvflVq1Po?authuser=0&hl=tr&rclk=1",
    "website_url": "",
    "rating_text": "4,4",
    "stars": null,
    "number_of_reviews": null,
    "price_level": "",
    "open_hours": "",
    "extraction_timestamp": "2025-06-07T17:34:45.017Z",
    "source_name": "google",
    "source_query": "Irrigation Equipment",
    "source_country": "PL",
    "country": "Poland",
    "state": "Greater Poland Voivodeship",
    "city": "Powiat szamotulski"
  },
  {
    "source_id": "ChIJ4zc6v4hZBEcRKah1mzKBwPg",
    "name": "PHU \"ADVISER\" - Systemy nawadniania",
    "category": "PHU \"ADVISER\" - Systemy nawadniania",
    "formatted_address": "4,8(123)",
    "phone_number": "+48618798700",
    "source_url": "https://www.google.com/maps/place/PHU+%22ADVISER%22+-+Systemy+nawadniania/data=!4m7!3m6!1s0x47045988bf3a37e3:0xf8c081329b75a829!8m2!3d52.3434333!4d17.0287055!16s%2Fg%2F1w3459w5!19sChIJ4zc6v4hZBEcRKah1mzKBwPg?authuser=0&hl=tr&rclk=1",
    "website_url": "",
    "rating_text": "4,8",
    "stars": null,
    "number_of_reviews": null,
    "price_level": "",
    "open_hours": "",
    "extraction_timestamp": "2025-06-07T17:34:45.018Z",
    "source_name": "google",
    "source_query": "Irrigation Equipment",
    "source_country": "PL",
    "country": "Poland",
    "state": "Greater Poland Voivodeship",
    "city": "Powiat szamotulski"
  },
  {
    "source_id": "ChIJc7BYaEQWBEcRKuuWU2nfVuU",
    "name": "ATKO.PL Sklep rolniczo-techniczny Powered by Kramp",
    "category": "ATKO.PL Sklep rolniczo-techniczny Powered by Kramp",
    "formatted_address": "4,6(53)",
    "phone_number": "+48601900526",
    "source_url": "https://www.google.com/maps/place/ATKO.PL+Sklep+rolniczo-techniczny+Powered+by+Kramp/data=!4m7!3m6!1s0x470416446858b073:0xe556df695396eb2a!8m2!3d52.5984665!4d16.5914162!16s%2Fg%2F1tdzpv15!19sChIJc7BYaEQWBEcRKuuWU2nfVuU?authuser=0&hl=tr&rclk=1",
    "website_url": "",
    "rating_text": "4,6",
    "stars": null,
    "number_of_reviews": null,
    "price_level": "",
    "open_hours": "",
    "extraction_timestamp": "2025-06-07T17:34:45.019Z",
    "source_name": "google",
    "source_query": "Irrigation Equipment",
    "source_country": "PL",
    "country": "Poland",
    "state": "Greater Poland Voivodeship",
    "city": "Powiat szamotulski"
  },
  {
    "source_id": "ChIJAduKWlhQBEcR_lic4Yg76mk",
    "name": "Agropomoc",
    "category": "Agropomoc",
    "formatted_address": "4,4(58)",
    "phone_number": "+48512236754",
    "source_url": "https://www.google.com/maps/place/Agropomoc/data=!4m7!3m6!1s0x470450585a8adb01:0x69ea3b88e19c58fe!8m2!3d52.4615211!4d16.6768669!16s%2Fg%2F11bv38f0mj!19sChIJAduKWlhQBEcR_lic4Yg76mk?authuser=0&hl=tr&rclk=1",
    "website_url": "",
    "rating_text": "4,4",
    "stars": null,
    "number_of_reviews": null,
    "price_level": "",
    "open_hours": "",
    "extraction_timestamp": "2025-06-07T17:34:45.019Z",
    "source_name": "google",
    "source_query": "Irrigation Equipment",
    "source_country": "PL",
    "country": "Poland",
    "state": "Greater Poland Voivodeship",
    "city": "Powiat szamotulski"
  },
  {
    "source_id": "ChIJUfn2Ig35A0cREW9fZ4029UM",
    "name": "IMTechnika sp. z o.o.",
    "category": "IMTechnika sp. z o.o.",
    "formatted_address": "4,4(17)",
    "phone_number": "+48883820388",
    "source_url": "https://www.google.com/maps/place/IMTechnika+sp.+z+o.o./data=!4m7!3m6!1s0x4703f90d22f6f951:0x43f5368d675f6f11!8m2!3d52.9756271!4d16.657836!16s%2Fg%2F11bw48_6mg!19sChIJUfn2Ig35A0cREW9fZ4029UM?authuser=0&hl=tr&rclk=1",
    "website_url": "",
    "rating_text": "4,4",
    "stars": null,
    "number_of_reviews": null,
    "price_level": "",
    "open_hours": "",
    "extraction_timestamp": "2025-06-07T17:34:45.020Z",
    "source_name": "google",
    "source_query": "Irrigation Equipment",
    "source_country": "PL",
    "country": "Poland",
    "state": "Greater Poland Voivodeship",
    "city": "Powiat szamotulski"
  },
  {
    "source_id": "ChIJsecaU1UWBEcRpp4uSeIOh_8",
    "name": "Sklep Monopolowy \"Setka\"",
    "category": "Sklep Monopolowy \"Setka\"",
    "formatted_address": "4,4(91)",
    "phone_number": "+48794988523",
    "source_url": "https://www.google.com/maps/place/Sklep+Monopolowy+%22Setka%22/data=!4m7!3m6!1s0x47041655531ae7b1:0xff870ee2492e9ea6!8m2!3d52.6130544!4d16.5781982!16s%2Fg%2F11g9g0cygq!19sChIJsecaU1UWBEcRpp4uSeIOh_8?authuser=0&hl=tr&rclk=1",
    "website_url": "",
    "rating_text": "4,4",
    "stars": null,
    "number_of_reviews": null,
    "price_level": "",
    "open_hours": "",
    "extraction_timestamp": "2025-06-07T17:34:45.021Z",
    "source_name": "google",
    "source_query": "Irrigation Equipment",
    "source_country": "PL",
    "country": "Poland",
    "state": "Greater Poland Voivodeship",
    "city": "Powiat szamotulski"
  },
  {
    "source_id": "ChIJQaeRo8RtBEcRQJRsNuDzVNE",
    "name": "Usługi Remontowo-Budowlane Aleksander Szeliga",
    "category": "Usługi Remontowo-Budowlane Aleksander Szeliga",
    "formatted_address": "4,2(5)",
    "phone_number": "+48727932480",
    "source_url": "https://www.google.com/maps/place/Us%C5%82ugi+Remontowo-Budowlane+Aleksander+Szeliga/data=!4m7!3m6!1s0x47046dc4a391a741:0xd154f3e0366c9440!8m2!3d52.6576077!4d16.8257604!16s%2Fg%2F11tg9nmyp3!19sChIJQaeRo8RtBEcRQJRsNuDzVNE?authuser=0&hl=tr&rclk=1",
    "website_url": "",
    "rating_text": "4,2",
    "stars": null,
    "number_of_reviews": null,
    "price_level": "",
    "open_hours": "",
    "extraction_timestamp": "2025-06-07T17:34:45.021Z",
    "source_name": "google",
    "source_query": "Irrigation Equipment",
    "source_country": "PL",
    "country": "Poland",
    "state": "Greater Poland Voivodeship",
    "city": "Powiat szamotulski"
  },
  {
    "source_id": "ChIJF2Kzz6ZsBEcRTjG6yvHTl1M",
    "name": "Sklep GS",
    "category": "Sklep GS",
    "formatted_address": "4,7(93)",
    "phone_number": "",
    "source_url": "https://www.google.com/maps/place/Sklep+GS/data=!4m7!3m6!1s0x47046ca6cfb36217:0x5397d3f1caba314e!8m2!3d52.6277565!4d16.8082881!16s%2Fg%2F11cnc98cnw!19sChIJF2Kzz6ZsBEcRTjG6yvHTl1M?authuser=0&hl=tr&rclk=1",
    "website_url": "",
    "rating_text": "4,7",
    "stars": null,
    "number_of_reviews": null,
    "price_level": "",
    "open_hours": "",
    "extraction_timestamp": "2025-06-07T17:34:45.022Z",
    "source_name": "google",
    "source_query": "Irrigation Equipment",
    "source_country": "PL",
    "country": "Poland",
    "state": "Greater Poland Voivodeship",
    "city": "Powiat szamotulski"
  },
  {
    "source_id": "ChIJJSKYSsRsBEcR-JEvV5NbtH8",
    "name": "POMPY PLUS INSTALACJE",
    "category": "POMPY PLUS INSTALACJE",
    "formatted_address": "4,7(91)",
    "phone_number": "+48784931522",
    "source_url": "https://www.google.com/maps/place/POMPY+PLUS+INSTALACJE/data=!4m7!3m6!1s0x47046cc44a982225:0x7fb45b93572f91f8!8m2!3d52.6520497!4d16.8193102!16s%2Fg%2F1tdb_bml!19sChIJJSKYSsRsBEcR-JEvV5NbtH8?authuser=0&hl=tr&rclk=1",
    "website_url": "",
    "rating_text": "4,7",
    "stars": null,
    "number_of_reviews": null,
    "price_level": "",
    "open_hours": "",
    "extraction_timestamp": "2025-06-07T17:34:45.023Z",
    "source_name": "google",
    "source_query": "Irrigation Equipment",
    "source_country": "PL",
    "country": "Poland",
    "state": "Greater Poland Voivodeship",
    "city": "Powiat szamotulski"
  },
  {
    "source_id": "ChIJnRYkVogZBEcRkUzcavzWApc",
    "name": "Rynek miasta Ostroróg",
    "category": "Rynek miasta Ostroróg",
    "formatted_address": "4,3(65)",
    "phone_number": "",
    "source_url": "https://www.google.com/maps/place/Rynek+miasta+Ostror%C3%B3g/data=!4m7!3m6!1s0x470419885624169d:0x9702d6fc6adc4c91!8m2!3d52.6264126!4d16.4494248!16s%2Fg%2F11gkt1_gs_!19sChIJnRYkVogZBEcRkUzcavzWApc?authuser=0&hl=tr&rclk=1",
    "website_url": "",
    "rating_text": "4,3",
    "stars": null,
    "number_of_reviews": null,
    "price_level": "",
    "open_hours": "",
    "extraction_timestamp": "2025-06-07T17:34:45.023Z",
    "source_name": "google",
    "source_query": "Irrigation Equipment",
    "source_country": "PL",
    "country": "Poland",
    "state": "Greater Poland Voivodeship",
    "city": "Powiat szamotulski"
  },
  {
    "source_id": "ChIJg5quLpkhBEcR8zy2J96DLdk",
    "name": "Plaża",
    "category": "Plaża",
    "formatted_address": "4,5(26)",
    "phone_number": "",
    "source_url": "https://www.google.com/maps/place/Pla%C5%BCa/data=!4m7!3m6!1s0x470421992eae9a83:0xd92d83de27b63cf3!8m2!3d52.5774769!4d16.3402674!16s%2Fg%2F11h4w5s10w!19sChIJg5quLpkhBEcR8zy2J96DLdk?authuser=0&hl=tr&rclk=1",
    "website_url": "",
    "rating_text": "4,5",
    "stars": null,
    "number_of_reviews": null,
    "price_level": "",
    "open_hours": "",
    "extraction_timestamp": "2025-06-07T17:34:45.024Z",
    "source_name": "google",
    "source_query": "Irrigation Equipment",
    "source_country": "PL",
    "country": "Poland",
    "state": "Greater Poland Voivodeship",
    "city": "Powiat szamotulski"
  },
  {
    "source_id": "ChIJDSw4288SBEcRrWmFGlixYQU",
    "name": "Gs Oborniki",
    "category": "Gs Oborniki",
    "formatted_address": "4,6(21)",
    "phone_number": "",
    "source_url": "https://www.google.com/maps/place/Gs+Oborniki/data=!4m7!3m6!1s0x470412cfdb382c0d:0x561b1581a8569ad!8m2!3d52.6836014!4d16.8059139!16s%2Fg%2F11gf97hq_v!19sChIJDSw4288SBEcRrWmFGlixYQU?authuser=0&hl=tr&rclk=1",
    "website_url": "",
    "rating_text": "4,6",
    "stars": null,
    "number_of_reviews": null,
    "price_level": "",
    "open_hours": "",
    "extraction_timestamp": "2025-06-07T17:34:45.024Z",
    "source_name": "google",
    "source_query": "Irrigation Equipment",
    "source_country": "PL",
    "country": "Poland",
    "state": "Greater Poland Voivodeship",
    "city": "Powiat szamotulski"
  },
  {
    "source_id": "ChIJNX2b9IZsBEcRhPF_4YC_SvE",
    "name": "Firma Budowlano Instalacyjna Maciej Smektała",
    "category": "Firma Budowlano Instalacyjna Maciej Smektała",
    "formatted_address": "5,0(1)",
    "phone_number": "+48724464741",
    "source_url": "https://www.google.com/maps/place/Firma+Budowlano+Instalacyjna+Maciej+Smekta%C5%82a/data=!4m7!3m6!1s0x47046c86f49b7d35:0xf14abf80e17ff184!8m2!3d52.6264498!4d16.8466698!16s%2Fg%2F1tctqc9m!19sChIJNX2b9IZsBEcRhPF_4YC_SvE?authuser=0&hl=tr&rclk=1",
    "website_url": "",
    "rating_text": "5,0",
    "stars": null,
    "number_of_reviews": null,
    "price_level": "",
    "open_hours": "",
    "extraction_timestamp": "2025-06-07T17:34:45.025Z",
    "source_name": "google",
    "source_query": "Irrigation Equipment",
    "source_country": "PL",
    "country": "Poland",
    "state": "Greater Poland Voivodeship",
    "city": "Powiat szamotulski"
  },
  {
    "source_id": "ChIJrVtoAsdsBEcRyWgSdbKlgXU",
    "name": "Bricomarché",
    "category": "Bricomarché",
    "formatted_address": "4,1(1.215)",
    "phone_number": "+48502359265",
    "source_url": "https://www.google.com/maps/place/Bricomarch%C3%A9/data=!4m7!3m6!1s0x47046cc702685bad:0x7581a5b2751268c9!8m2!3d52.646507!4d16.8179207!16s%2Fg%2F11fzfdnmv9!19sChIJrVtoAsdsBEcRyWgSdbKlgXU?authuser=0&hl=tr&rclk=1",
    "website_url": "",
    "rating_text": "4,1",
    "stars": null,
    "number_of_reviews": null,
    "price_level": "",
    "open_hours": "",
    "extraction_timestamp": "2025-06-07T17:34:45.027Z",
    "source_name": "google",
    "source_query": "Irrigation Equipment",
    "source_country": "PL",
    "country": "Poland",
    "state": "Greater Poland Voivodeship",
    "city": "Powiat szamotulski"
  },
  {
    "source_id": "ChIJ4U607dFtBEcRRMqSScfVgUs",
    "name": "Intermarche Oborniki",
    "category": "Intermarche Oborniki",
    "formatted_address": "4,1(1.306)",
    "phone_number": "+48519502408",
    "source_url": "https://www.google.com/maps/place/Intermarche+Oborniki/data=!4m7!3m6!1s0x47046dd1edb44ee1:0x4b81d5c74992ca44!8m2!3d52.6466772!4d16.8165734!16s%2Fg%2F1tgn89r8!19sChIJ4U607dFtBEcRRMqSScfVgUs?authuser=0&hl=tr&rclk=1",
    "website_url": "",
    "rating_text": "4,1",
    "stars": null,
    "number_of_reviews": null,
    "price_level": "",
    "open_hours": "",
    "extraction_timestamp": "2025-06-07T17:34:45.028Z",
    "source_name": "google",
    "source_query": "Irrigation Equipment",
    "source_country": "PL",
    "country": "Poland",
    "state": "Greater Poland Voivodeship",
    "city": "Powiat szamotulski"
  },
  {
    "source_id": "ChIJiZFUQuRBMogR6PgDX7dbDhE",
    "name": "Inżynier-Spawalnik",
    "category": "Inżynier-Spawalnik",
    "formatted_address": "5,0(1)",
    "phone_number": "",
    "source_url": "https://www.google.com/maps/place/In%C5%BCynier-Spawalnik/data=!4m7!3m6!1s0x883241e442549189:0x110e5bb75f03f8e8!8m2!3d51.953761!4d19.1343692!16s%2Fg%2F11lcs72qnf!19sChIJiZFUQuRBMogR6PgDX7dbDhE?authuser=0&hl=tr&rclk=1",
    "website_url": "",
    "rating_text": "5,0",
    "stars": null,
    "number_of_reviews": null,
    "price_level": "",
    "open_hours": "",
    "extraction_timestamp": "2025-06-07T17:34:45.029Z",
    "source_name": "google",
    "source_query": "Irrigation Equipment",
    "source_country": "PL",
    "country": "Poland",
    "state": "Greater Poland Voivodeship",
    "city": "Powiat szamotulski"
  }
]
