[
  {
    "source_id": "ChIJpxN0LgIrBEcRLhB7ebU6T9E",
    "name": "Hydro-Kan Stroński Dariusz",
    "category": "Hydro-Kan Stroński Dariusz",
    "formatted_address": "4,5(15)",
    "phone_number": "+48614425324",
    "source_url": "https://www.google.com/maps/place/Hydro-Kan+Stro%C5%84ski+Dariusz/data=!4m7!3m6!1s0x47042b022e7413a7:0xd14f3ab5797b102e!8m2!3d52.3139579!4d16.140127!16s%2Fg%2F113k3tpxv!19sChIJpxN0LgIrBEcRLhB7ebU6T9E?authuser=0&hl=tr&rclk=1",
    "website_url": "",
    "rating_text": "4,5",
    "stars": null,
    "number_of_reviews": null,
    "price_level": "",
    "open_hours": "",
    "extraction_timestamp": "2025-06-07T17:55:07.505Z",
    "source_name": "google",
    "source_query": "Irrigation Equipment",
    "source_country": "PL",
    "country": "Poland",
    "state": "Greater Poland Voivodeship",
    "city": "Powiat nowotomyski"
  },
  {
    "source_id": "ChIJWXlJPMsrBEcRPoc_4Y9MVTk",
    "name": "EFLI Nowy Tomyśl Hurtownia instalacyjna, instalacje grzewcze,sanitarne, kotły,rekuperacja",
    "category": "EFLI Nowy Tomyśl Hurtownia instalacyjna, instalacje grzewcze,sanitarne, kotły,rekuperacja",
    "formatted_address": "EFLI Nowy Tomyśl Hurtownia instalacyjna, instalacje grzewcze,sanitarne, kotły,rekuperacja",
    "phone_number": "+48530359589",
    "source_url": "https://www.google.com/maps/place/EFLI+Nowy+Tomy%C5%9Bl+Hurtownia+instalacyjna,+instalacje+grzewcze,sanitarne,+kot%C5%82y,rekuperacja/data=!4m7!3m6!1s0x47042bcb3c497959:0x39554c8fe13f873e!8m2!3d52.3132212!4d16.1092063!16s%2Fg%2F11gsmmrlps!19sChIJWXlJPMsrBEcRPoc_4Y9MVTk?authuser=0&hl=tr&rclk=1",
    "website_url": "",
    "rating_text": "4,7",
    "stars": null,
    "number_of_reviews": null,
    "price_level": "",
    "open_hours": "",
    "extraction_timestamp": "2025-06-07T17:55:07.533Z",
    "source_name": "google",
    "source_query": "Irrigation Equipment",
    "source_country": "PL",
    "country": "Poland",
    "state": "Greater Poland Voivodeship",
    "city": "Powiat nowotomyski"
  },
  {
    "source_id": "ChIJNZa9x98qBEcRbddQoOqPDOc",
    "name": "ENERGOBOX Elektronarzędzia, Autoryzowany Diler Husqvarna",
    "category": "ENERGOBOX Elektronarzędzia, Autoryzowany Diler Husqvarna",
    "formatted_address": "ENERGOBOX Elektronarzędzia, Autoryzowany Diler Husqvarna",
    "phone_number": "+48614423992",
    "source_url": "https://www.google.com/maps/place/ENERGOBOX+Elektronarz%C4%99dzia,+Autoryzowany+Diler+Husqvarna/data=!4m7!3m6!1s0x47042adfc7bd9635:0xe70c8feaa050d76d!8m2!3d52.3065299!4d16.1336649!16s%2Fg%2F1q62cysc4!19sChIJNZa9x98qBEcRbddQoOqPDOc?authuser=0&hl=tr&rclk=1",
    "website_url": "",
    "rating_text": "4,5",
    "stars": null,
    "number_of_reviews": null,
    "price_level": "",
    "open_hours": "",
    "extraction_timestamp": "2025-06-07T17:55:07.534Z",
    "source_name": "google",
    "source_query": "Irrigation Equipment",
    "source_country": "PL",
    "country": "Poland",
    "state": "Greater Poland Voivodeship",
    "city": "Powiat nowotomyski"
  },
  {
    "source_id": "ChIJ_egSu9g2BEcR1FC9t4NT_Bs",
    "name": "AGROSERWIS Sp. partnership - Wholesale of plant protection products",
    "category": "AGROSERWIS Sp. partnership - Wholesale of plant protection products",
    "formatted_address": "5,0(3)",
    "phone_number": "+48792780802",
    "source_url": "https://www.google.com/maps/place/AGROSERWIS+Sp.+partnership+-+Wholesale+of+plant+protection+products/data=!4m7!3m6!1s0x470436d8bb12e8fd:0x1bfc5383b7bd50d4!8m2!3d52.3602746!4d16.5079565!16s%2Fg%2F1tlbsf3r!19sChIJ_egSu9g2BEcR1FC9t4NT_Bs?authuser=0&hl=tr&rclk=1",
    "website_url": "",
    "rating_text": "5,0",
    "stars": null,
    "number_of_reviews": null,
    "price_level": "",
    "open_hours": "",
    "extraction_timestamp": "2025-06-07T17:55:07.534Z",
    "source_name": "google",
    "source_query": "Irrigation Equipment",
    "source_country": "PL",
    "country": "Poland",
    "state": "Greater Poland Voivodeship",
    "city": "Powiat nowotomyski"
  },
  {
    "source_id": "ChIJ32Hw4yjNBUcRN1A1QsAN8Qw",
    "name": "Sunrise Energy - Instalacje Fotowoltaiczne Nowy Tomyśl",
    "category": "Sunrise Energy - Instalacje Fotowoltaiczne Nowy Tomyśl",
    "formatted_address": "4,4(55)",
    "phone_number": "+48728105424",
    "source_url": "https://www.google.com/maps/place/Sunrise+Energy+-+Instalacje+Fotowoltaiczne+Nowy+Tomy%C5%9Bl/data=!4m7!3m6!1s0x4705cd28e3f061df:0xcf10dc042355037!8m2!3d52.3038678!4d16.1246078!16s%2Fg%2F11fnxvktbk!19sChIJ32Hw4yjNBUcRN1A1QsAN8Qw?authuser=0&hl=tr&rclk=1",
    "website_url": "",
    "rating_text": "4,4",
    "stars": null,
    "number_of_reviews": null,
    "price_level": "",
    "open_hours": "",
    "extraction_timestamp": "2025-06-07T17:55:07.535Z",
    "source_name": "google",
    "source_query": "Irrigation Equipment",
    "source_country": "PL",
    "country": "Poland",
    "state": "Greater Poland Voivodeship",
    "city": "Powiat nowotomyski"
  },
  {
    "source_id": "ChIJiUIox7YrBEcRkthg_xHmcGE",
    "name": "INSTALACYJNI",
    "category": "INSTALACYJNI",
    "formatted_address": "5,0(12)",
    "phone_number": "+48576665102",
    "source_url": "https://www.google.com/maps/place/INSTALACYJNI/data=!4m7!3m6!1s0x47042bb6c7284289:0x6170e611ff60d892!8m2!3d52.3326283!4d16.1619776!16s%2Fg%2F11cl_49x1_!19sChIJiUIox7YrBEcRkthg_xHmcGE?authuser=0&hl=tr&rclk=1",
    "website_url": "",
    "rating_text": "5,0",
    "stars": null,
    "number_of_reviews": null,
    "price_level": "",
    "open_hours": "",
    "extraction_timestamp": "2025-06-07T17:55:07.536Z",
    "source_name": "google",
    "source_query": "Irrigation Equipment",
    "source_country": "PL",
    "country": "Poland",
    "state": "Greater Poland Voivodeship",
    "city": "Powiat nowotomyski"
  },
  {
    "source_id": "ChIJLb7e-uAqBEcR8vGZCxvKVso",
    "name": "Bricomarché",
    "category": "Bricomarché",
    "formatted_address": "4,1(1.483)",
    "phone_number": "+48614420023",
    "source_url": "https://www.google.com/maps/place/Bricomarch%C3%A9/data=!4m7!3m6!1s0x47042ae0fadebe2d:0xca56ca1b0b99f1f2!8m2!3d52.305736!4d16.1271565!16s%2Fg%2F11gzwqj0c!19sChIJLb7e-uAqBEcR8vGZCxvKVso?authuser=0&hl=tr&rclk=1",
    "website_url": "",
    "rating_text": "4,1",
    "stars": null,
    "number_of_reviews": null,
    "price_level": "",
    "open_hours": "",
    "extraction_timestamp": "2025-06-07T17:55:07.538Z",
    "source_name": "google",
    "source_query": "Irrigation Equipment",
    "source_country": "PL",
    "country": "Poland",
    "state": "Greater Poland Voivodeship",
    "city": "Powiat nowotomyski"
  },
  {
    "source_id": "ChIJcSChdPsqBEcRvvxcsXYePag",
    "name": "Elektro-Mech Krawczyk, Autoryzowany Diler STIGA, FOGO oraz Lincoln Electric",
    "category": "Elektro-Mech Krawczyk, Autoryzowany Diler STIGA, FOGO oraz Lincoln Electric",
    "formatted_address": "Elektro-Mech Krawczyk, Autoryzowany Diler STIGA, FOGO oraz Lincoln Electric",
    "phone_number": "+48614451151",
    "source_url": "https://www.google.com/maps/place/Elektro-Mech+Krawczyk,+Autoryzowany+Diler+STIGA,+FOGO+oraz+Lincoln+Electric/data=!4m7!3m6!1s0x47042afb74a12071:0xa83d1e76b15cfcbe!8m2!3d52.3448765!4d16.104781!16s%2Fg%2F11byyj7jtl!19sChIJcSChdPsqBEcRvvxcsXYePag?authuser=0&hl=tr&rclk=1",
    "website_url": "",
    "rating_text": "4,8",
    "stars": null,
    "number_of_reviews": null,
    "price_level": "",
    "open_hours": "",
    "extraction_timestamp": "2025-06-07T17:55:07.539Z",
    "source_name": "google",
    "source_query": "Irrigation Equipment",
    "source_country": "PL",
    "country": "Poland",
    "state": "Greater Poland Voivodeship",
    "city": "Powiat nowotomyski"
  },
  {
    "source_id": "ChIJ04EEqf0qBEcRG8qjvT41Y9Y",
    "name": "Ardom Pawelscy sp.j.",
    "category": "Ardom Pawelscy sp.j.",
    "formatted_address": "4,5(70)",
    "phone_number": "+48614424100",
    "source_url": "https://www.google.com/maps/place/Ardom+Pawelscy+sp.j./data=!4m7!3m6!1s0x47042afda90481d3:0xd663353ebda3ca1b!8m2!3d52.3179329!4d16.13564!16s%2Fg%2F1v5_83jb!19sChIJ04EEqf0qBEcRG8qjvT41Y9Y?authuser=0&hl=tr&rclk=1",
    "website_url": "",
    "rating_text": "4,5",
    "stars": null,
    "number_of_reviews": null,
    "price_level": "",
    "open_hours": "",
    "extraction_timestamp": "2025-06-07T17:55:07.540Z",
    "source_name": "google",
    "source_query": "Irrigation Equipment",
    "source_country": "PL",
    "country": "Poland",
    "state": "Greater Poland Voivodeship",
    "city": "Powiat nowotomyski"
  },
  {
    "source_id": "ChIJHQzxmfwqBEcR5N422VroDIc",
    "name": "Instal-Bud sp.j. Wyposażenie łazienek",
    "category": "Instal-Bud sp.j. Wyposażenie łazienek",
    "formatted_address": "4,6(21)",
    "phone_number": "+48614422197",
    "source_url": "https://www.google.com/maps/place/Instal-Bud+sp.j.+Wyposa%C5%BCenie+%C5%82azienek/data=!4m7!3m6!1s0x47042afc99f10c1d:0x870ce85ad936dee4!8m2!3d52.3169938!4d16.1305197!16s%2Fg%2F1tfhf3fk!19sChIJHQzxmfwqBEcR5N422VroDIc?authuser=0&hl=tr&rclk=1",
    "website_url": "",
    "rating_text": "4,6",
    "stars": null,
    "number_of_reviews": null,
    "price_level": "",
    "open_hours": "",
    "extraction_timestamp": "2025-06-07T17:55:07.541Z",
    "source_name": "google",
    "source_query": "Irrigation Equipment",
    "source_country": "PL",
    "country": "Poland",
    "state": "Greater Poland Voivodeship",
    "city": "Powiat nowotomyski"
  },
  {
    "source_id": "ChIJF07gl-IqBEcRgTwLJ-x4oHk",
    "name": "Firma Zborała Sp. J.",
    "category": "Firma Zborała Sp. J.",
    "formatted_address": "4,6(42)",
    "phone_number": "+48614423374",
    "source_url": "https://www.google.com/maps/place/Firma+Zbora%C5%82a+Sp.+J./data=!4m7!3m6!1s0x47042ae297e04e17:0x79a078ec270b3c81!8m2!3d52.3133686!4d16.1353329!16s%2Fg%2F1tfs9jt8!19sChIJF07gl-IqBEcRgTwLJ-x4oHk?authuser=0&hl=tr&rclk=1",
    "website_url": "",
    "rating_text": "4,6",
    "stars": null,
    "number_of_reviews": null,
    "price_level": "",
    "open_hours": "",
    "extraction_timestamp": "2025-06-07T17:55:07.542Z",
    "source_name": "google",
    "source_query": "Irrigation Equipment",
    "source_country": "PL",
    "country": "Poland",
    "state": "Greater Poland Voivodeship",
    "city": "Powiat nowotomyski"
  },
  {
    "source_id": "ChIJ6Rd0mQErBEcRx_TMiVIIRn8",
    "name": "Spychała Hydraulika Siłowa Pneumatyka",
    "category": "Spychała Hydraulika Siłowa Pneumatyka",
    "formatted_address": "4,7(11)",
    "phone_number": "+48602476964",
    "source_url": "https://www.google.com/maps/place/Spycha%C5%82a+Hydraulika+Si%C5%82owa+Pneumatyka/data=!4m7!3m6!1s0x47042b01997417e9:0x7f46085289ccf4c7!8m2!3d52.3202772!4d16.1438597!16s%2Fg%2F11fx9kg77p!19sChIJ6Rd0mQErBEcRx_TMiVIIRn8?authuser=0&hl=tr&rclk=1",
    "website_url": "",
    "rating_text": "4,7",
    "stars": null,
    "number_of_reviews": null,
    "price_level": "",
    "open_hours": "",
    "extraction_timestamp": "2025-06-07T17:55:07.542Z",
    "source_name": "google",
    "source_query": "Irrigation Equipment",
    "source_country": "PL",
    "country": "Poland",
    "state": "Greater Poland Voivodeship",
    "city": "Powiat nowotomyski"
  },
  {
    "source_id": "ChIJRSuAw7QzBEcRydHbwdyC2p8",
    "name": "Pronet s.c. Krajewski, Chojnacki",
    "category": "Pronet s.c. Krajewski, Chojnacki",
    "formatted_address": "Pronet s.c. Krajewski, Chojnacki",
    "phone_number": "+48616222357",
    "source_url": "https://www.google.com/maps/place/Pronet+s.c.+Krajewski,+Chojnacki/data=!4m7!3m6!1s0x470433b4c3802b45:0x9fda82dcc1dbd1c9!8m2!3d52.3149189!4d16.142505!16s%2Fg%2F1pv00z3wb!19sChIJRSuAw7QzBEcRydHbwdyC2p8?authuser=0&hl=tr&rclk=1",
    "website_url": "",
    "rating_text": "5,0",
    "stars": null,
    "number_of_reviews": null,
    "price_level": "",
    "open_hours": "",
    "extraction_timestamp": "2025-06-07T17:55:07.543Z",
    "source_name": "google",
    "source_query": "Irrigation Equipment",
    "source_country": "PL",
    "country": "Poland",
    "state": "Greater Poland Voivodeship",
    "city": "Powiat nowotomyski"
  },
  {
    "source_id": "ChIJxSS0a-UqBEcRXbcTwvsCAHA",
    "name": "Radwansport Sklep Piłkarski Nowy Tomyśl",
    "category": "Radwansport Sklep Piłkarski Nowy Tomyśl",
    "formatted_address": "4,7(40)",
    "phone_number": "+48793030222",
    "source_url": "https://www.google.com/maps/place/Radwansport+Sklep+Pi%C5%82karski+Nowy+Tomy%C5%9Bl/data=!4m7!3m6!1s0x47042ae56bb424c5:0x700002fbc213b75d!8m2!3d52.3144641!4d16.1316588!16s%2Fg%2F11c5wxfr1l!19sChIJxSS0a-UqBEcRXbcTwvsCAHA?authuser=0&hl=tr&rclk=1",
    "website_url": "",
    "rating_text": "4,7",
    "stars": null,
    "number_of_reviews": null,
    "price_level": "",
    "open_hours": "",
    "extraction_timestamp": "2025-06-07T17:55:07.544Z",
    "source_name": "google",
    "source_query": "Irrigation Equipment",
    "source_country": "PL",
    "country": "Poland",
    "state": "Greater Poland Voivodeship",
    "city": "Powiat nowotomyski"
  },
  {
    "source_id": "ChIJT5-ht-3MBUcRfj9r0ngkQ80",
    "name": "DANFLOR Centrum Ogrodnicze, Autoryzowany Diler Husqvarna",
    "category": "DANFLOR Centrum Ogrodnicze, Autoryzowany Diler Husqvarna",
    "formatted_address": "DANFLOR Centrum Ogrodnicze, Autoryzowany Diler Husqvarna",
    "phone_number": "+48614445171",
    "source_url": "https://www.google.com/maps/place/DANFLOR+Centrum+Ogrodnicze,+Autoryzowany+Diler+Husqvarna/data=!4m7!3m6!1s0x4705ccedb7a19f4f:0xcd432478d26b3f7e!8m2!3d52.218807!4d16.364237!16s%2Fg%2F1tf2whpl!19sChIJT5-ht-3MBUcRfj9r0ngkQ80?authuser=0&hl=tr&rclk=1",
    "website_url": "",
    "rating_text": "4,5",
    "stars": null,
    "number_of_reviews": null,
    "price_level": "",
    "open_hours": "",
    "extraction_timestamp": "2025-06-07T17:55:07.545Z",
    "source_name": "google",
    "source_query": "Irrigation Equipment",
    "source_country": "PL",
    "country": "Poland",
    "state": "Greater Poland Voivodeship",
    "city": "Powiat nowotomyski"
  },
  {
    "source_id": "ChIJ8zctTlkrBEcRGrfvHhisuf4",
    "name": "MH Wiercenie studni szukanie wody",
    "category": "MH Wiercenie studni szukanie wody",
    "formatted_address": "4,6(11)",
    "phone_number": "+48727584642",
    "source_url": "https://www.google.com/maps/place/MH+Wiercenie+studni+szukanie+wody/data=!4m7!3m6!1s0x47042b594e2d37f3:0xfeb9ac181eefb71a!8m2!3d52.3198723!4d16.1481037!16s%2Fg%2F11j3rr69p7!19sChIJ8zctTlkrBEcRGrfvHhisuf4?authuser=0&hl=tr&rclk=1",
    "website_url": "",
    "rating_text": "4,6",
    "stars": null,
    "number_of_reviews": null,
    "price_level": "",
    "open_hours": "",
    "extraction_timestamp": "2025-06-07T17:55:07.545Z",
    "source_name": "google",
    "source_query": "Irrigation Equipment",
    "source_country": "PL",
    "country": "Poland",
    "state": "Greater Poland Voivodeship",
    "city": "Powiat nowotomyski"
  },
  {
    "source_id": "ChIJo9R3lWsrBEcRPbJV7KOXjlM",
    "name": "Action Nowy Tomyśl",
    "category": "Action Nowy Tomyśl",
    "formatted_address": "4,4(105)",
    "phone_number": "+48326305898",
    "source_url": "https://www.google.com/maps/place/Action+Nowy+Tomy%C5%9Bl/data=!4m7!3m6!1s0x47042b6b9577d4a3:0x538e97a3ec55b23d!8m2!3d52.3161247!4d16.1362299!16s%2Fg%2F11jt3jgrs2!19sChIJo9R3lWsrBEcRPbJV7KOXjlM?authuser=0&hl=tr&rclk=1",
    "website_url": "",
    "rating_text": "4,4",
    "stars": null,
    "number_of_reviews": null,
    "price_level": "",
    "open_hours": "",
    "extraction_timestamp": "2025-06-07T17:55:07.546Z",
    "source_name": "google",
    "source_query": "Irrigation Equipment",
    "source_country": "PL",
    "country": "Poland",
    "state": "Greater Poland Voivodeship",
    "city": "Powiat nowotomyski"
  },
  {
    "source_id": "ChIJP_lX9sc4BEcRVdRxj6eVLJY",
    "name": "Korbanek Sp. o.o.",
    "category": "Korbanek Sp. o.o.",
    "formatted_address": "4,4(463)",
    "phone_number": "+48618961100",
    "source_url": "https://www.google.com/maps/place/Korbanek+Sp.+o.o./data=!4m7!3m6!1s0x470438c7f657f93f:0x962c95a78f71d455!8m2!3d52.4587541!4d16.6466483!16s%2Fg%2F1tgkf_1k!19sChIJP_lX9sc4BEcRVdRxj6eVLJY?authuser=0&hl=tr&rclk=1",
    "website_url": "",
    "rating_text": "4,4",
    "stars": null,
    "number_of_reviews": null,
    "price_level": "",
    "open_hours": "",
    "extraction_timestamp": "2025-06-07T17:55:07.547Z",
    "source_name": "google",
    "source_query": "Irrigation Equipment",
    "source_country": "PL",
    "country": "Poland",
    "state": "Greater Poland Voivodeship",
    "city": "Powiat nowotomyski"
  },
  {
    "source_id": "ChIJadyeH5QrBEcROYjfit_sq7I",
    "name": "FILTR-TECH POLSKA",
    "category": "FILTR-TECH POLSKA",
    "formatted_address": "1,0(6)",
    "phone_number": "",
    "source_url": "https://www.google.com/maps/place/FILTR-TECH+POLSKA/data=!4m7!3m6!1s0x47042b941f9edc69:0xb2abecdf8adf8839!8m2!3d52.3182!4d16.132487!16s%2Fg%2F11s3j9bk7z!19sChIJadyeH5QrBEcROYjfit_sq7I?authuser=0&hl=tr&rclk=1",
    "website_url": "",
    "rating_text": "1,0",
    "stars": null,
    "number_of_reviews": null,
    "price_level": "",
    "open_hours": "",
    "extraction_timestamp": "2025-06-07T17:55:07.547Z",
    "source_name": "google",
    "source_query": "Irrigation Equipment",
    "source_country": "PL",
    "country": "Poland",
    "state": "Greater Poland Voivodeship",
    "city": "Powiat nowotomyski"
  },
  {
    "source_id": "ChIJCz9noa0rBEcR8NdTUy4YbRA",
    "name": "Fertyk Michał. Firma handlowo - usługowa",
    "category": "Fertyk Michał. Firma handlowo - usługowa",
    "formatted_address": "4,6(8)",
    "phone_number": "+48692113711",
    "source_url": "https://www.google.com/maps/place/Fertyk+Micha%C5%82.+Firma+handlowo+-+us%C5%82ugowa/data=!4m7!3m6!1s0x47042bada1673f0b:0x106d182e5353d7f0!8m2!3d52.3311815!4d16.1524217!16s%2Fg%2F11cmvx9n_c!19sChIJCz9noa0rBEcR8NdTUy4YbRA?authuser=0&hl=tr&rclk=1",
    "website_url": "",
    "rating_text": "4,6",
    "stars": null,
    "number_of_reviews": null,
    "price_level": "",
    "open_hours": "",
    "extraction_timestamp": "2025-06-07T17:55:07.548Z",
    "source_name": "google",
    "source_query": "Irrigation Equipment",
    "source_country": "PL",
    "country": "Poland",
    "state": "Greater Poland Voivodeship",
    "city": "Powiat nowotomyski"
  },
  {
    "source_id": "ChIJx9dLaaM-BEcR0BMvflVq1Po",
    "name": "GRASSLAND FARMS",
    "category": "GRASSLAND FARMS",
    "formatted_address": "4,4(103)",
    "phone_number": "+48602382601",
    "source_url": "https://www.google.com/maps/place/GRASSLAND+FARMS/data=!4m7!3m6!1s0x47043ea3694bd7c7:0xfad46a557e2f13d0!8m2!3d52.5034131!4d16.5908032!16s%2Fg%2F1tlczwnb!19sChIJx9dLaaM-BEcR0BMvflVq1Po?authuser=0&hl=tr&rclk=1",
    "website_url": "",
    "rating_text": "4,4",
    "stars": null,
    "number_of_reviews": null,
    "price_level": "",
    "open_hours": "",
    "extraction_timestamp": "2025-06-07T17:55:07.549Z",
    "source_name": "google",
    "source_query": "Irrigation Equipment",
    "source_country": "PL",
    "country": "Poland",
    "state": "Greater Poland Voivodeship",
    "city": "Powiat nowotomyski"
  },
  {
    "source_id": "ChIJ4a4FVytZZawRHyt-6zfZwSw",
    "name": "Alex hydraulik Poznań, instalator, usługi hydrauliczne, pogotowie hydrauliczne",
    "category": "Alex hydraulik Poznań, instalator, usługi hydrauliczne, pogotowie hydrauliczne",
    "formatted_address": "Alex hydraulik Poznań, instalator, usługi hydrauliczne, pogotowie hydrauliczne",
    "phone_number": "+48791119472",
    "source_url": "https://www.google.com/maps/place/Alex+hydraulik+Pozna%C5%84,+instalator,+us%C5%82ugi+hydrauliczne,+pogotowie+hydrauliczne/data=!4m7!3m6!1s0xac65592b5705aee1:0x2cc1d937eb7e2b1f!8m2!3d52.4161319!4d16.925274!16s%2Fg%2F11wy92ghx9!19sChIJ4a4FVytZZawRHyt-6zfZwSw?authuser=0&hl=tr&rclk=1",
    "website_url": "",
    "rating_text": "5,0",
    "stars": null,
    "number_of_reviews": null,
    "price_level": "",
    "open_hours": "",
    "extraction_timestamp": "2025-06-07T17:55:07.549Z",
    "source_name": "google",
    "source_query": "Irrigation Equipment",
    "source_country": "PL",
    "country": "Poland",
    "state": "Greater Poland Voivodeship",
    "city": "Powiat nowotomyski"
  },
  {
    "source_id": "ChIJeR9a34ErBEcR5sX5QSX-lbY",
    "name": "Hydraulik Nowy Tomyśl | MIERZOL",
    "category": "Hydraulik Nowy Tomyśl | MIERZOL",
    "formatted_address": "5,0(7)",
    "phone_number": "+48609887764",
    "source_url": "https://www.google.com/maps/place/Hydraulik+Nowy+Tomy%C5%9Bl+%7C+MIERZOL/data=!4m7!3m6!1s0x47042b81df5a1f79:0xb695fe2541f9c5e6!8m2!3d52.31584!4d16.1260115!16s%2Fg%2F11jfq7k6zg!19sChIJeR9a34ErBEcR5sX5QSX-lbY?authuser=0&hl=tr&rclk=1",
    "website_url": "",
    "rating_text": "5,0",
    "stars": null,
    "number_of_reviews": null,
    "price_level": "",
    "open_hours": "",
    "extraction_timestamp": "2025-06-07T17:55:07.550Z",
    "source_name": "google",
    "source_query": "Irrigation Equipment",
    "source_country": "PL",
    "country": "Poland",
    "state": "Greater Poland Voivodeship",
    "city": "Powiat nowotomyski"
  },
  {
    "source_id": "ChIJjUjVRAGP10ER-bzIY6ggWA8",
    "name": "Handyman / Złota Rączka Oleh Levenets",
    "category": "Handyman / Złota Rączka Oleh Levenets",
    "formatted_address": "5,0(21)",
    "phone_number": "+48692684991",
    "source_url": "https://www.google.com/maps/place/Handyman+%2F+Z%C5%82ota+R%C4%85czka+Oleh+Levenets/data=!4m7!3m6!1s0x41d78f0144d5488d:0xf5820a863c8bcf9!8m2!3d52.4170919!4d16.5111762!16s%2Fg%2F11x27p9dh5!19sChIJjUjVRAGP10ER-bzIY6ggWA8?authuser=0&hl=tr&rclk=1",
    "website_url": "",
    "rating_text": "5,0",
    "stars": null,
    "number_of_reviews": null,
    "price_level": "",
    "open_hours": "",
    "extraction_timestamp": "2025-06-07T17:55:07.550Z",
    "source_name": "google",
    "source_query": "Irrigation Equipment",
    "source_country": "PL",
    "country": "Poland",
    "state": "Greater Poland Voivodeship",
    "city": "Powiat nowotomyski"
  },
  {
    "source_id": "ChIJu7jUefczBEcRy7jsrBZt-l0",
    "name": "Al.Capone",
    "category": "Al.Capone",
    "formatted_address": "3,8(53)",
    "phone_number": "+48664172402",
    "source_url": "https://www.google.com/maps/place/Al.Capone/data=!4m7!3m6!1s0x470433f779d4b8bb:0x5dfa6d16acecb8cb!8m2!3d52.3088589!4d16.413767!16s%2Fg%2F11sl3vbw44!19sChIJu7jUefczBEcRy7jsrBZt-l0?authuser=0&hl=tr&rclk=1",
    "website_url": "",
    "rating_text": "3,8",
    "stars": null,
    "number_of_reviews": null,
    "price_level": "",
    "open_hours": "",
    "extraction_timestamp": "2025-06-07T17:55:07.551Z",
    "source_name": "google",
    "source_query": "Irrigation Equipment",
    "source_country": "PL",
    "country": "Poland",
    "state": "Greater Poland Voivodeship",
    "city": "Powiat nowotomyski"
  },
  {
    "source_id": "ChIJpSHK6_YqBEcRdgFqWmW5ucE",
    "name": "Toolproject Polcyn Sp. z o.o.",
    "category": "Toolproject Polcyn Sp. z o.o.",
    "formatted_address": "4,2(5)",
    "phone_number": "+48614445300",
    "source_url": "https://www.google.com/maps/place/Toolproject+Polcyn+Sp.+z+o.o./data=!4m7!3m6!1s0x47042af6ebca21a5:0xc1b9b9655a6a0176!8m2!3d52.3268573!4d16.1169305!16s%2Fg%2F1hc7qmj5l!19sChIJpSHK6_YqBEcRdgFqWmW5ucE?authuser=0&hl=tr&rclk=1",
    "website_url": "",
    "rating_text": "4,2",
    "stars": null,
    "number_of_reviews": null,
    "price_level": "",
    "open_hours": "",
    "extraction_timestamp": "2025-06-07T17:55:07.552Z",
    "source_name": "google",
    "source_query": "Irrigation Equipment",
    "source_country": "PL",
    "country": "Poland",
    "state": "Greater Poland Voivodeship",
    "city": "Powiat nowotomyski"
  },
  {
    "source_id": "ChIJX36_GeMqBEcRsf7Dg_tQLik",
    "name": "Galas Andrzej. Przezwajanie silników i naprawa elektronarzędzi",
    "category": "Galas Andrzej. Przezwajanie silników i naprawa elektronarzędzi",
    "formatted_address": "5,0(11)",
    "phone_number": "+48614422527",
    "source_url": "https://www.google.com/maps/place/Galas+Andrzej.+Przezwajanie+silnik%C3%B3w+i+naprawa+elektronarz%C4%99dzi/data=!4m7!3m6!1s0x47042ae319bf7e5f:0x292e50fb83c3feb1!8m2!3d52.3134426!4d16.1318351!16s%2Fg%2F1tfdc4vr!19sChIJX36_GeMqBEcRsf7Dg_tQLik?authuser=0&hl=tr&rclk=1",
    "website_url": "",
    "rating_text": "5,0",
    "stars": null,
    "number_of_reviews": null,
    "price_level": "",
    "open_hours": "",
    "extraction_timestamp": "2025-06-07T17:55:07.553Z",
    "source_name": "google",
    "source_query": "Irrigation Equipment",
    "source_country": "PL",
    "country": "Poland",
    "state": "Greater Poland Voivodeship",
    "city": "Powiat nowotomyski"
  },
  {
    "source_id": "ChIJ0wXFRMszBEcRKo1Q0Y75nAw",
    "name": "Instalacje sanitarne Instal Kaczmarek",
    "category": "Instalacje sanitarne Instal Kaczmarek",
    "formatted_address": "5,0(2)",
    "phone_number": "+48502187628",
    "source_url": "https://www.google.com/maps/place/Instalacje+sanitarne+Instal+Kaczmarek/data=!4m7!3m6!1s0x470433cb44c505d3:0xc9cf98ed1508d2a!8m2!3d52.315079!4d16.3980527!16s%2Fg%2F1v6wn00r!19sChIJ0wXFRMszBEcRKo1Q0Y75nAw?authuser=0&hl=tr&rclk=1",
    "website_url": "",
    "rating_text": "5,0",
    "stars": null,
    "number_of_reviews": null,
    "price_level": "",
    "open_hours": "",
    "extraction_timestamp": "2025-06-07T17:55:07.553Z",
    "source_name": "google",
    "source_query": "Irrigation Equipment",
    "source_country": "PL",
    "country": "Poland",
    "state": "Greater Poland Voivodeship",
    "city": "Powiat nowotomyski"
  }
]
