[
  {
    "source_id": "ChIJfYkDVvnFGkcRCEcun_IcbEM",
    "name": "aktywatory.pl | Biopreparaty bakterie do szamb i oczyszczalni | Chemia basenowa | Nawozy i środki ochrony roślin",
    "category": "aktywatory.pl | Biopreparaty bakterie do szamb i oczyszczalni | Chemia basenowa | Nawozy i środki ochrony roślin",
    "formatted_address": "4,8(39)",
    "phone_number": "+48506306906",
    "source_url": "https://www.google.com/maps/place/aktywatory.pl+%7C+Biopreparaty+bakterie+do+szamb+i+oczyszczalni+%7C+Chemia+basenowa+%7C+Nawozy+i+%C5%9Brodki+ochrony+ro%C5%9Blin/data=!4m7!3m6!1s0x471ac5f95603897d:0x436c1cf29f2e4708!8m2!3d51.7515076!4d18.1373287!16s%2Fg%2F1q6kk2b79!19sChIJfYkDVvnFGkcRCEcun_IcbEM?authuser=0&hl=tr&rclk=1",
    "website_url": "",
    "rating_text": "4,8",
    "stars": null,
    "number_of_reviews": null,
    "price_level": "",
    "open_hours": "",
    "extraction_timestamp": "2025-06-07T17:40:07.371Z",
    "source_name": "google",
    "source_query": "Irrigation Equipment",
    "source_country": "PL",
    "country": "Poland",
    "state": "Greater Poland Voivodeship",
    "city": "Powiat kaliski"
  },
  {
    "source_id": "ChIJhTVXiWbFGkcRWyfYdlxUv8A",
    "name": "Tlen-Spaw s.c.",
    "category": "Tlen-Spaw s.c.",
    "formatted_address": "4,4(47)",
    "phone_number": "+48728970900",
    "source_url": "https://www.google.com/maps/place/Tlen-Spaw+s.c./data=!4m7!3m6!1s0x471ac56689573585:0xc0bf545c76d8275b!8m2!3d51.7892438!4d18.0909312!16s%2Fg%2F1tdr2167!19sChIJhTVXiWbFGkcRWyfYdlxUv8A?authuser=0&hl=tr&rclk=1",
    "website_url": "",
    "rating_text": "4,4",
    "stars": null,
    "number_of_reviews": null,
    "price_level": "",
    "open_hours": "",
    "extraction_timestamp": "2025-06-07T17:40:07.372Z",
    "source_name": "google",
    "source_query": "Irrigation Equipment",
    "source_country": "PL",
    "country": "Poland",
    "state": "Greater Poland Voivodeship",
    "city": "Powiat kaliski"
  },
  {
    "source_id": "ChIJifG51gnFGkcRE-1U2O4Hz3o",
    "name": "3DSmart",
    "category": "3DSmart",
    "formatted_address": "5,0(69)",
    "phone_number": "+48577151315",
    "source_url": "https://www.google.com/maps/place/3DSmart/data=!4m7!3m6!1s0x471ac509d6b9f189:0x7acf07eed854ed13!8m2!3d51.7505032!4d18.0768332!16s%2Fg%2F11sylqpzh8!19sChIJifG51gnFGkcRE-1U2O4Hz3o?authuser=0&hl=tr&rclk=1",
    "website_url": "",
    "rating_text": "5,0",
    "stars": null,
    "number_of_reviews": null,
    "price_level": "",
    "open_hours": "",
    "extraction_timestamp": "2025-06-07T17:40:07.373Z",
    "source_name": "google",
    "source_query": "Irrigation Equipment",
    "source_country": "PL",
    "country": "Poland",
    "state": "Greater Poland Voivodeship",
    "city": "Powiat kaliski"
  },
  {
    "source_id": "ChIJ4SqzaQzPGkcRVS5YHRgFK8s",
    "name": "K-Bet Energy System",
    "category": "K-Bet Energy System",
    "formatted_address": "4,8(50)",
    "phone_number": "+48530605573",
    "source_url": "https://www.google.com/maps/place/K-Bet+Energy+System/data=!4m7!3m6!1s0x471acf0c69b32ae1:0xcb2b05181d582e55!8m2!3d51.7440409!4d18.0454349!16s%2Fg%2F11j8v6pw0s!19sChIJ4SqzaQzPGkcRVS5YHRgFK8s?authuser=0&hl=tr&rclk=1",
    "website_url": "",
    "rating_text": "4,8",
    "stars": null,
    "number_of_reviews": null,
    "price_level": "",
    "open_hours": "",
    "extraction_timestamp": "2025-06-07T17:40:07.374Z",
    "source_name": "google",
    "source_query": "Irrigation Equipment",
    "source_country": "PL",
    "country": "Poland",
    "state": "Greater Poland Voivodeship",
    "city": "Powiat kaliski"
  },
  {
    "source_id": "ChIJ7_ej3frFGkcRxnKTsa4G17c",
    "name": "MARTECH Mariusz Andrzejewski",
    "category": "MARTECH Mariusz Andrzejewski",
    "formatted_address": "4,5(10)",
    "phone_number": "+48625011640",
    "source_url": "https://www.google.com/maps/place/MARTECH+Mariusz+Andrzejewski/data=!4m7!3m6!1s0x471ac5fadda3f7ef:0xb7d706aeb19372c6!8m2!3d51.7417518!4d18.061754!16s%2Fg%2F1tf06dw4!19sChIJ7_ej3frFGkcRxnKTsa4G17c?authuser=0&hl=tr&rclk=1",
    "website_url": "",
    "rating_text": "4,5",
    "stars": null,
    "number_of_reviews": null,
    "price_level": "",
    "open_hours": "",
    "extraction_timestamp": "2025-06-07T17:40:07.400Z",
    "source_name": "google",
    "source_query": "Irrigation Equipment",
    "source_country": "PL",
    "country": "Poland",
    "state": "Greater Poland Voivodeship",
    "city": "Powiat kaliski"
  },
  {
    "source_id": "ChIJARsQ31fPGkcRPp9yuThQF7E",
    "name": "SCAPE sp. z o.o. | Infrastruktura dla architektury krajobrazu",
    "category": "SCAPE sp. z o.o. | Infrastruktura dla architektury krajobrazu",
    "formatted_address": "3,5(11)",
    "phone_number": "+48600044019",
    "source_url": "https://www.google.com/maps/place/SCAPE+sp.+z+o.o.+%7C+Infrastruktura+dla+architektury+krajobrazu/data=!4m7!3m6!1s0x471acf57df101b01:0xb1175038b9729f3e!8m2!3d51.7590375!4d18.0779258!16s%2Fg%2F1pxq7y5hn!19sChIJARsQ31fPGkcRPp9yuThQF7E?authuser=0&hl=tr&rclk=1",
    "website_url": "",
    "rating_text": "3,5",
    "stars": null,
    "number_of_reviews": null,
    "price_level": "",
    "open_hours": "",
    "extraction_timestamp": "2025-06-07T17:40:07.401Z",
    "source_name": "google",
    "source_query": "Irrigation Equipment",
    "source_country": "PL",
    "country": "Poland",
    "state": "Greater Poland Voivodeship",
    "city": "Powiat kaliski"
  },
  {
    "source_id": "ChIJI4lTlOgABUcRFXHcNEunf24",
    "name": "Aquaro",
    "category": "Aquaro",
    "formatted_address": "3,1(20)",
    "phone_number": "+48609636969",
    "source_url": "https://www.google.com/maps/place/Aquaro/data=!4m7!3m6!1s0x470500e894538923:0x6e7fa74b34dc7115!8m2!3d51.751307!4d18.069943!16s%2Fg%2F1hc340c2s!19sChIJI4lTlOgABUcRFXHcNEunf24?authuser=0&hl=tr&rclk=1",
    "website_url": "",
    "rating_text": "3,1",
    "stars": null,
    "number_of_reviews": null,
    "price_level": "",
    "open_hours": "",
    "extraction_timestamp": "2025-06-07T17:40:07.402Z",
    "source_name": "google",
    "source_query": "Irrigation Equipment",
    "source_country": "PL",
    "country": "Poland",
    "state": "Greater Poland Voivodeship",
    "city": "Powiat kaliski"
  },
  {
    "source_id": "ChIJRWpObLHFGkcReDC3XRF1ao0",
    "name": "Zamkniecie dzialalmosci",
    "category": "Zamkniecie dzialalmosci",
    "formatted_address": "5,0(1)",
    "phone_number": "",
    "source_url": "https://www.google.com/maps/place/Zamkniecie+dzialalmosci/data=!4m7!3m6!1s0x471ac5b16c4e6a45:0x8d6a75115db73078!8m2!3d51.7511517!4d18.0956779!16s%2Fg%2F11pcn73dk8!19sChIJRWpObLHFGkcReDC3XRF1ao0?authuser=0&hl=tr&rclk=1",
    "website_url": "",
    "rating_text": "5,0",
    "stars": null,
    "number_of_reviews": null,
    "price_level": "",
    "open_hours": "",
    "extraction_timestamp": "2025-06-07T17:40:07.402Z",
    "source_name": "google",
    "source_query": "Irrigation Equipment",
    "source_country": "PL",
    "country": "Poland",
    "state": "Greater Poland Voivodeship",
    "city": "Powiat kaliski"
  },
  {
    "source_id": "ChIJk6zIVw_FGkcRlu4FAF0fHXs",
    "name": "KOKOS INSTALACJE hydraulik Kalisz",
    "category": "KOKOS INSTALACJE hydraulik Kalisz",
    "formatted_address": "5,0(52)",
    "phone_number": "+48731869869",
    "source_url": "https://www.google.com/maps/place/KOKOS+INSTALACJE+hydraulik+Kalisz/data=!4m7!3m6!1s0x471ac50f57c8ac93:0x7b1d1f5d0005ee96!8m2!3d51.7695497!4d17.9862631!16s%2Fg%2F11r9p_zr0k!19sChIJk6zIVw_FGkcRlu4FAF0fHXs?authuser=0&hl=tr&rclk=1",
    "website_url": "",
    "rating_text": "5,0",
    "stars": null,
    "number_of_reviews": null,
    "price_level": "",
    "open_hours": "",
    "extraction_timestamp": "2025-06-07T17:40:07.403Z",
    "source_name": "google",
    "source_query": "Irrigation Equipment",
    "source_country": "PL",
    "country": "Poland",
    "state": "Greater Poland Voivodeship",
    "city": "Powiat kaliski"
  },
  {
    "source_id": "ChIJFSa94LzDGkcRSvlX4lGwdhI",
    "name": "Agro-System Piotr Jaskuła",
    "category": "Agro-System Piotr Jaskuła",
    "formatted_address": "4,9(11)",
    "phone_number": "+48531310340",
    "source_url": "https://www.google.com/maps/place/Agro-System+Piotr+Jasku%C5%82a/data=!4m7!3m6!1s0x471ac3bce0bd2615:0x1276b051e257f94a!8m2!3d51.7396478!4d18.2136949!16s%2Fg%2F1pty_th98!19sChIJFSa94LzDGkcRSvlX4lGwdhI?authuser=0&hl=tr&rclk=1",
    "website_url": "",
    "rating_text": "4,9",
    "stars": null,
    "number_of_reviews": null,
    "price_level": "",
    "open_hours": "",
    "extraction_timestamp": "2025-06-07T17:40:07.404Z",
    "source_name": "google",
    "source_query": "Irrigation Equipment",
    "source_country": "PL",
    "country": "Poland",
    "state": "Greater Poland Voivodeship",
    "city": "Powiat kaliski"
  },
  {
    "source_id": "ChIJcSJflMfHGkcR7ic2wQFGW1E",
    "name": "P.B DOBROCH Sp.z.o.o",
    "category": "P.B DOBROCH Sp.z.o.o",
    "formatted_address": "5,0(2)",
    "phone_number": "+48505136574",
    "source_url": "https://www.google.com/maps/place/P.B+DOBROCH+Sp.z.o.o/data=!4m7!3m6!1s0x471ac7c7945f2271:0x515b4601c13627ee!8m2!3d51.7142396!4d18.0821906!16s%2Fg%2F11pysf3s6t!19sChIJcSJflMfHGkcR7ic2wQFGW1E?authuser=0&hl=tr&rclk=1",
    "website_url": "",
    "rating_text": "5,0",
    "stars": null,
    "number_of_reviews": null,
    "price_level": "",
    "open_hours": "",
    "extraction_timestamp": "2025-06-07T17:40:07.405Z",
    "source_name": "google",
    "source_query": "Irrigation Equipment",
    "source_country": "PL",
    "country": "Poland",
    "state": "Greater Poland Voivodeship",
    "city": "Powiat kaliski"
  },
  {
    "source_id": "ChIJAQCkgkXEGkcRgJ0Vht-vAPo",
    "name": "Garden Products",
    "category": "Garden Products",
    "formatted_address": "5,0(11)",
    "phone_number": "+48668111200",
    "source_url": "https://www.google.com/maps/place/Garden+Products/data=!4m7!3m6!1s0x471ac44582a40001:0xfa00afdf86159d80!8m2!3d51.7586913!4d18.0916237!16s%2Fg%2F11h48wx5zv!19sChIJAQCkgkXEGkcRgJ0Vht-vAPo?authuser=0&hl=tr&rclk=1",
    "website_url": "",
    "rating_text": "5,0",
    "stars": null,
    "number_of_reviews": null,
    "price_level": "",
    "open_hours": "",
    "extraction_timestamp": "2025-06-07T17:40:07.406Z",
    "source_name": "google",
    "source_query": "Irrigation Equipment",
    "source_country": "PL",
    "country": "Poland",
    "state": "Greater Poland Voivodeship",
    "city": "Powiat kaliski"
  },
  {
    "source_id": "ChIJddISB3R4pg4R1f-wSpQ7I6w",
    "name": "Instalacje gazowe, podłączanie kuchenek, próby szczelności, kotłownie gazowe",
    "category": "Instalacje gazowe, podłączanie kuchenek, próby szczelności, kotłownie gazowe",
    "formatted_address": "Instalacje gazowe, podłączanie kuchenek, próby szczelności, kotłownie gazowe",
    "phone_number": "+48577908814",
    "source_url": "https://www.google.com/maps/place/Instalacje+gazowe,+pod%C5%82%C4%85czanie+kuchenek,+pr%C3%B3by+szczelno%C5%9Bci,+kot%C5%82ownie+gazowe/data=!4m7!3m6!1s0xea678740712d275:0xac233b944ab0ffd5!8m2!3d51.7091772!4d17.9862631!16s%2Fg%2F11k4m85kbj!19sChIJddISB3R4pg4R1f-wSpQ7I6w?authuser=0&hl=tr&rclk=1",
    "website_url": "",
    "rating_text": "5,0",
    "stars": null,
    "number_of_reviews": null,
    "price_level": "",
    "open_hours": "",
    "extraction_timestamp": "2025-06-07T17:40:07.407Z",
    "source_name": "google",
    "source_query": "Irrigation Equipment",
    "source_country": "PL",
    "country": "Poland",
    "state": "Greater Poland Voivodeship",
    "city": "Powiat kaliski"
  },
  {
    "source_id": "ChIJjXGDs5vFGkcRz6k0GidFaC0",
    "name": "Sanpol Kalisz - hurtownia instalacyjna, hydrauliczna, sanitarna",
    "category": "Sanpol Kalisz - hurtownia instalacyjna, hydrauliczna, sanitarna",
    "formatted_address": "Sanpol Kalisz - hurtownia instalacyjna, hydrauliczna, sanitarna",
    "phone_number": "+48623100710",
    "source_url": "https://www.google.com/maps/place/Sanpol+Kalisz+-+hurtownia+instalacyjna,+hydrauliczna,+sanitarna/data=!4m7!3m6!1s0x471ac59bb383718d:0x2d6845271a34a9cf!8m2!3d51.736962!4d18.050493!16s%2Fg%2F11fnwwb4rm!19sChIJjXGDs5vFGkcRz6k0GidFaC0?authuser=0&hl=tr&rclk=1",
    "website_url": "",
    "rating_text": "4,5",
    "stars": null,
    "number_of_reviews": null,
    "price_level": "",
    "open_hours": "",
    "extraction_timestamp": "2025-06-07T17:40:07.408Z",
    "source_name": "google",
    "source_query": "Irrigation Equipment",
    "source_country": "PL",
    "country": "Poland",
    "state": "Greater Poland Voivodeship",
    "city": "Powiat kaliski"
  },
  {
    "source_id": "ChIJD9Dl40PEGkcR7u_tToUp1pI",
    "name": "Magic Play - Amusement Machines",
    "category": "Magic Play - Amusement Machines",
    "formatted_address": "4,1(26)",
    "phone_number": "+48627532188",
    "source_url": "https://www.google.com/maps/place/Magic+Play+-+Amusement+Machines/data=!4m7!3m6!1s0x471ac443e3e5d00f:0x92d629854eedefee!8m2!3d51.7474707!4d18.1431323!16s%2Fg%2F11b6dd8p7c!19sChIJD9Dl40PEGkcR7u_tToUp1pI?authuser=0&hl=tr&rclk=1",
    "website_url": "",
    "rating_text": "4,1",
    "stars": null,
    "number_of_reviews": null,
    "price_level": "",
    "open_hours": "",
    "extraction_timestamp": "2025-06-07T17:40:07.409Z",
    "source_name": "google",
    "source_query": "Irrigation Equipment",
    "source_country": "PL",
    "country": "Poland",
    "state": "Greater Poland Voivodeship",
    "city": "Powiat kaliski"
  },
  {
    "source_id": "ChIJzQA5L_7FGkcRFAFyseCJgfs",
    "name": "Semi Sp. o.o. Wholesale Art. gardening",
    "category": "Semi Sp. o.o. Wholesale Art. gardening",
    "formatted_address": "4,6(13)",
    "phone_number": "+48517233193",
    "source_url": "https://www.google.com/maps/place/Semi+Sp.+o.o.+Wholesale+Art.+gardening/data=!4m7!3m6!1s0x471ac5fe2f3900cd:0xfb8189e0b1720114!8m2!3d51.7353499!4d18.0486079!16s%2Fg%2F1pty0g1_z!19sChIJzQA5L_7FGkcRFAFyseCJgfs?authuser=0&hl=tr&rclk=1",
    "website_url": "",
    "rating_text": "4,6",
    "stars": null,
    "number_of_reviews": null,
    "price_level": "",
    "open_hours": "",
    "extraction_timestamp": "2025-06-07T17:40:07.410Z",
    "source_name": "google",
    "source_query": "Irrigation Equipment",
    "source_country": "PL",
    "country": "Poland",
    "state": "Greater Poland Voivodeship",
    "city": "Powiat kaliski"
  },
  {
    "source_id": "ChIJAVXJ5f7FGkcRlVhCS-NnVYo",
    "name": "Salon Łazienek i Techniki Grzewczej Armatura Kozłowski Kalisz (hurtownia instalacyjna, hydrauliczna)",
    "category": "Salon Łazienek i Techniki Grzewczej Armatura Kozłowski Kalisz (hurtownia instalacyjna, hydrauliczna)",
    "formatted_address": "Salon Łazienek i Techniki Grzewczej Armatura Kozłowski Kalisz (hurtownia instalacyjna, hydrauliczna)",
    "phone_number": "+48627653038",
    "source_url": "https://www.google.com/maps/place/Salon+%C5%81azienek+i+Techniki+Grzewczej+Armatura+Koz%C5%82owski+Kalisz+%28hurtownia+instalacyjna,+hydrauliczna%29/data=!4m7!3m6!1s0x471ac5fee5c95501:0x8a5567e34b425895!8m2!3d51.7380246!4d18.0514779!16s%2Fg%2F11gzcvrzk!19sChIJAVXJ5f7FGkcRlVhCS-NnVYo?authuser=0&hl=tr&rclk=1",
    "website_url": "",
    "rating_text": "4,7",
    "stars": null,
    "number_of_reviews": null,
    "price_level": "",
    "open_hours": "",
    "extraction_timestamp": "2025-06-07T17:40:07.411Z",
    "source_name": "google",
    "source_query": "Irrigation Equipment",
    "source_country": "PL",
    "country": "Poland",
    "state": "Greater Poland Voivodeship",
    "city": "Powiat kaliski"
  },
  {
    "source_id": "ChIJH-V_bPnFGkcRwFdmkJO2KWI",
    "name": "AdMed Medical Partner s.c.",
    "category": "AdMed Medical Partner s.c.",
    "formatted_address": "5,0(278)",
    "phone_number": "+48627512402",
    "source_url": "https://www.google.com/maps/place/AdMed+Medical+Partner+s.c./data=!4m7!3m6!1s0x471ac5f96c7fe51f:0x6229b693906657c0!8m2!3d51.7323638!4d18.0485847!16s%2Fg%2F1pzw2tqzc!19sChIJH-V_bPnFGkcRwFdmkJO2KWI?authuser=0&hl=tr&rclk=1",
    "website_url": "",
    "rating_text": "5,0",
    "stars": null,
    "number_of_reviews": null,
    "price_level": "",
    "open_hours": "",
    "extraction_timestamp": "2025-06-07T17:40:07.413Z",
    "source_name": "google",
    "source_query": "Irrigation Equipment",
    "source_country": "PL",
    "country": "Poland",
    "state": "Greater Poland Voivodeship",
    "city": "Powiat kaliski"
  },
  {
    "source_id": "ChIJheTyjHXEGkcRyE_BfvV_xQk",
    "name": "GRENE",
    "category": "GRENE",
    "formatted_address": "4,3(37)",
    "phone_number": "+48627612182",
    "source_url": "https://www.google.com/maps/place/GRENE/data=!4m7!3m6!1s0x471ac4758cf2e485:0x9c57ff57ec14fc8!8m2!3d51.7401417!4d18.1775515!16s%2Fg%2F11bbrn13qd!19sChIJheTyjHXEGkcRyE_BfvV_xQk?authuser=0&hl=tr&rclk=1",
    "website_url": "",
    "rating_text": "4,3",
    "stars": null,
    "number_of_reviews": null,
    "price_level": "",
    "open_hours": "",
    "extraction_timestamp": "2025-06-07T17:40:07.414Z",
    "source_name": "google",
    "source_query": "Irrigation Equipment",
    "source_country": "PL",
    "country": "Poland",
    "state": "Greater Poland Voivodeship",
    "city": "Powiat kaliski"
  },
  {
    "source_id": "ChIJCfcHy__FGkcR36dHBr5RrB4",
    "name": "Monter Shop Samoobsługowa Hurtownia Instalacyjna",
    "category": "Monter Shop Samoobsługowa Hurtownia Instalacyjna",
    "formatted_address": "4,9(8)",
    "phone_number": "+48627272051",
    "source_url": "https://www.google.com/maps/place/Monter+Shop+Samoobs%C5%82ugowa+Hurtownia+Instalacyjna/data=!4m7!3m6!1s0x471ac5ffcb07f709:0x1eac51be0647a7df!8m2!3d51.7371864!4d18.051136!16s%2Fg%2F11f4m67tdd!19sChIJCfcHy__FGkcR36dHBr5RrB4?authuser=0&hl=tr&rclk=1",
    "website_url": "",
    "rating_text": "4,9",
    "stars": null,
    "number_of_reviews": null,
    "price_level": "",
    "open_hours": "",
    "extraction_timestamp": "2025-06-07T17:40:07.415Z",
    "source_name": "google",
    "source_query": "Irrigation Equipment",
    "source_country": "PL",
    "country": "Poland",
    "state": "Greater Poland Voivodeship",
    "city": "Powiat kaliski"
  },
  {
    "source_id": "ChIJVfsqgYLPGkcRKbmGn2iQXNI",
    "name": "Projektowanie kuchni i łazienki Castorama",
    "category": "Projektowanie kuchni i łazienki Castorama",
    "formatted_address": "5,0(1)",
    "phone_number": "+48627696253",
    "source_url": "https://www.google.com/maps/place/Projektowanie+kuchni+i+%C5%82azienki+Castorama/data=!4m7!3m6!1s0x471acf82812afb55:0xd25c90689f86b929!8m2!3d51.738129!4d18.0426057!16s%2Fg%2F11x6xvdqwp!19sChIJVfsqgYLPGkcRKbmGn2iQXNI?authuser=0&hl=tr&rclk=1",
    "website_url": "",
    "rating_text": "5,0",
    "stars": null,
    "number_of_reviews": null,
    "price_level": "",
    "open_hours": "",
    "extraction_timestamp": "2025-06-07T17:40:07.415Z",
    "source_name": "google",
    "source_query": "Irrigation Equipment",
    "source_country": "PL",
    "country": "Poland",
    "state": "Greater Poland Voivodeship",
    "city": "Powiat kaliski"
  },
  {
    "source_id": "ChIJMY9fJMjRGkcR8IfGuHFysUk",
    "name": "Agromar Części do ciągników i maszyn rolniczych",
    "category": "Agromar Części do ciągników i maszyn rolniczych",
    "formatted_address": "4,6(124)",
    "phone_number": "+48627512519",
    "source_url": "https://www.google.com/maps/place/Agromar+Cz%C4%99%C5%9Bci+do+ci%C4%85gnik%C3%B3w+i+maszyn+rolniczych/data=!4m7!3m6!1s0x471ad1c8245f8f31:0x49b17271b8c687f0!8m2!3d51.8443951!4d18.038665!16s%2Fg%2F11cs5wwbh6!19sChIJMY9fJMjRGkcR8IfGuHFysUk?authuser=0&hl=tr&rclk=1",
    "website_url": "",
    "rating_text": "4,6",
    "stars": null,
    "number_of_reviews": null,
    "price_level": "",
    "open_hours": "",
    "extraction_timestamp": "2025-06-07T17:40:07.416Z",
    "source_name": "google",
    "source_query": "Irrigation Equipment",
    "source_country": "PL",
    "country": "Poland",
    "state": "Greater Poland Voivodeship",
    "city": "Powiat kaliski"
  },
  {
    "source_id": "ChIJlaZDUfbFGkcRjzodlfgk2-Y",
    "name": "DYKA POLSKA oddział Kalisz",
    "category": "DYKA POLSKA oddział Kalisz",
    "formatted_address": "",
    "phone_number": "+48502132156",
    "source_url": "https://www.google.com/maps/place/DYKA+POLSKA+oddzia%C5%82+Kalisz/data=!4m7!3m6!1s0x471ac5f65143a695:0xe6db24f8951d3a8f!8m2!3d51.7695038!4d18.0718509!16s%2Fg%2F11shnr0b7y!19sChIJlaZDUfbFGkcRjzodlfgk2-Y?authuser=0&hl=tr&rclk=1",
    "website_url": "",
    "rating_text": "",
    "stars": null,
    "number_of_reviews": null,
    "price_level": "",
    "open_hours": "",
    "extraction_timestamp": "2025-06-07T17:40:07.417Z",
    "source_name": "google",
    "source_query": "Irrigation Equipment",
    "source_country": "PL",
    "country": "Poland",
    "state": "Greater Poland Voivodeship",
    "city": "Powiat kaliski"
  },
  {
    "source_id": "ChIJOYvU9IrFGkcRfM8siIgqKtY",
    "name": "Arsen",
    "category": "Arsen",
    "formatted_address": "4,7(218)",
    "phone_number": "+48627683585",
    "source_url": "https://www.google.com/maps/place/Arsen/data=!4m7!3m6!1s0x471ac58af4d48b39:0xd62a2a88882ccf7c!8m2!3d51.7575873!4d18.0605577!16s%2Fg%2F113dxbp6l!19sChIJOYvU9IrFGkcRfM8siIgqKtY?authuser=0&hl=tr&rclk=1",
    "website_url": "",
    "rating_text": "4,7",
    "stars": null,
    "number_of_reviews": null,
    "price_level": "",
    "open_hours": "",
    "extraction_timestamp": "2025-06-07T17:40:07.418Z",
    "source_name": "google",
    "source_query": "Irrigation Equipment",
    "source_country": "PL",
    "country": "Poland",
    "state": "Greater Poland Voivodeship",
    "city": "Powiat kaliski"
  },
  {
    "source_id": "ChIJC3W13enFGkcR08w6mwDqYYQ",
    "name": "Eozon Osuszanie Odgrzybianie Ozonowanie Lokalizacja wycieków Wynajem pomiary Wilgotności",
    "category": "Eozon Osuszanie Odgrzybianie Ozonowanie Lokalizacja wycieków Wynajem pomiary Wilgotności",
    "formatted_address": "5,0(4)",
    "phone_number": "+48601795219",
    "source_url": "https://www.google.com/maps/place/Eozon+Osuszanie+Odgrzybianie+Ozonowanie+Lokalizacja+wyciek%C3%B3w+Wynajem+pomiary+Wilgotno%C5%9Bci/data=!4m7!3m6!1s0x471ac5e9ddb5750b:0x8461ea009b3accd3!8m2!3d51.7637645!4d18.0822911!16s%2Fg%2F11ry2x2scs!19sChIJC3W13enFGkcR08w6mwDqYYQ?authuser=0&hl=tr&rclk=1",
    "website_url": "",
    "rating_text": "5,0",
    "stars": null,
    "number_of_reviews": null,
    "price_level": "",
    "open_hours": "",
    "extraction_timestamp": "2025-06-07T17:40:07.419Z",
    "source_name": "google",
    "source_query": "Irrigation Equipment",
    "source_country": "PL",
    "country": "Poland",
    "state": "Greater Poland Voivodeship",
    "city": "Powiat kaliski"
  },
  {
    "source_id": "ChIJCVOttu_FGkcRw24_8UDWg-M",
    "name": "INTERSPORT",
    "category": "INTERSPORT",
    "formatted_address": "4,1(47)",
    "phone_number": "+48124448888",
    "source_url": "https://www.google.com/maps/place/INTERSPORT/data=!4m7!3m6!1s0x471ac5efb6ad5309:0xe383d640f13f6ec3!8m2!3d51.7441776!4d18.0706968!16s%2Fg%2F11byflpbmx!19sChIJCVOttu_FGkcRw24_8UDWg-M?authuser=0&hl=tr&rclk=1",
    "website_url": "",
    "rating_text": "4,1",
    "stars": null,
    "number_of_reviews": null,
    "price_level": "",
    "open_hours": "",
    "extraction_timestamp": "2025-06-07T17:40:07.420Z",
    "source_name": "google",
    "source_query": "Irrigation Equipment",
    "source_country": "PL",
    "country": "Poland",
    "state": "Greater Poland Voivodeship",
    "city": "Powiat kaliski"
  },
  {
    "source_id": "ChIJPxAOm5q1GkcRurokjr43GYU",
    "name": "Adventure Park Piaski Szczygliczka",
    "category": "Adventure Park Piaski Szczygliczka",
    "formatted_address": "4,6(1.140)",
    "phone_number": "",
    "source_url": "https://www.google.com/maps/place/Adventure+Park+Piaski+Szczygliczka/data=!4m7!3m6!1s0x471ab59a9b0e103f:0x851937be8e24baba!8m2!3d51.6692029!4d17.8156831!16s%2Fg%2F1q6jzg7nf!19sChIJPxAOm5q1GkcRurokjr43GYU?authuser=0&hl=tr&rclk=1",
    "website_url": "",
    "rating_text": "4,6",
    "stars": null,
    "number_of_reviews": null,
    "price_level": "",
    "open_hours": "",
    "extraction_timestamp": "2025-06-07T17:40:07.422Z",
    "source_name": "google",
    "source_query": "Irrigation Equipment",
    "source_country": "PL",
    "country": "Poland",
    "state": "Greater Poland Voivodeship",
    "city": "Powiat kaliski"
  },
  {
    "source_id": "ChIJ59TlyZTFGkcRvz1PFMjp-Vw",
    "name": "Ryneczek Na Legionów",
    "category": "Ryneczek Na Legionów",
    "formatted_address": "4,1(636)",
    "phone_number": "",
    "source_url": "https://www.google.com/maps/place/Ryneczek+Na+Legion%C3%B3w/data=!4m7!3m6!1s0x471ac594c9e5d4e7:0x5cf9e9c8144f3dbf!8m2!3d51.7519113!4d18.0815296!16s%2Fg%2F11crztcmxv!19sChIJ59TlyZTFGkcRvz1PFMjp-Vw?authuser=0&hl=tr&rclk=1",
    "website_url": "",
    "rating_text": "4,1",
    "stars": null,
    "number_of_reviews": null,
    "price_level": "",
    "open_hours": "",
    "extraction_timestamp": "2025-06-07T17:40:07.423Z",
    "source_name": "google",
    "source_query": "Irrigation Equipment",
    "source_country": "PL",
    "country": "Poland",
    "state": "Greater Poland Voivodeship",
    "city": "Powiat kaliski"
  },
  {
    "source_id": "ChIJg4y0gPLFGkcRznTrkw22A30",
    "name": "Bricomarché",
    "category": "Bricomarché",
    "formatted_address": "4,3(1.534)",
    "phone_number": "+48625065320",
    "source_url": "https://www.google.com/maps/place/Bricomarch%C3%A9/data=!4m7!3m6!1s0x471ac5f280b48c83:0x7d03b60d93eb74ce!8m2!3d51.7508582!4d18.0689644!16s%2Fg%2F11dxr_c0gb!19sChIJg4y0gPLFGkcRznTrkw22A30?authuser=0&hl=tr&rclk=1",
    "website_url": "",
    "rating_text": "4,3",
    "stars": null,
    "number_of_reviews": null,
    "price_level": "",
    "open_hours": "",
    "extraction_timestamp": "2025-06-07T17:40:07.424Z",
    "source_name": "google",
    "source_query": "Irrigation Equipment",
    "source_country": "PL",
    "country": "Poland",
    "state": "Greater Poland Voivodeship",
    "city": "Powiat kaliski"
  }
]
