[
  {
    "source_id": "ChIJb_i9hQrGBEcRCd4KJHJa_CQ",
    "name": "Sklep rolniczo-techniczny Powered by Kramp Słupca",
    "category": "Sklep rolniczo-techniczny Powered by Kramp Słupca",
    "formatted_address": "4,3(87)",
    "phone_number": "+48632754962",
    "source_url": "https://www.google.com/maps/place/Sklep+rolniczo-techniczny+Powered+by+Kramp+S%C5%82upca/data=!4m7!3m6!1s0x4704c60a85bdf86f:0x24fc5a72240ade09!8m2!3d52.289646!4d17.8593689!16s%2Fg%2F1tft_7fh!19sChIJb_i9hQrGBEcRCd4KJHJa_CQ?authuser=0&hl=tr&rclk=1",
    "website_url": "",
    "rating_text": "4,3",
    "stars": null,
    "number_of_reviews": null,
    "price_level": "",
    "open_hours": "",
    "extraction_timestamp": "2025-06-07T17:27:59.140Z",
    "source_name": "google",
    "source_query": "Irrigation Equipment",
    "source_country": "PL",
    "country": "Poland",
    "state": "Greater Poland Voivodeship",
    "city": "Powiat słupecki"
  },
  {
    "source_id": "ChIJ_b56H3XGBEcRQ0ryLAkupic",
    "name": "Jupro-Taim Bis s.j. Technika grzewcza i sanitarna. Ścięgaj G.",
    "category": "Jupro-Taim Bis s.j. Technika grzewcza i sanitarna. Ścięgaj G.",
    "formatted_address": "4,6(15)",
    "phone_number": "+48632743775",
    "source_url": "https://www.google.com/maps/place/Jupro-Taim+Bis+s.j.+Technika+grzewcza+i+sanitarna.+%C5%9Aci%C4%99gaj+G./data=!4m7!3m6!1s0x4704c6751f7abefd:0x27a62e092cf24a43!8m2!3d52.2928029!4d17.8534548!16s%2Fg%2F1tmxd7xx!19sChIJ_b56H3XGBEcRQ0ryLAkupic?authuser=0&hl=tr&rclk=1",
    "website_url": "",
    "rating_text": "4,6",
    "stars": null,
    "number_of_reviews": null,
    "price_level": "",
    "open_hours": "",
    "extraction_timestamp": "2025-06-07T17:27:59.142Z",
    "source_name": "google",
    "source_query": "Irrigation Equipment",
    "source_country": "PL",
    "country": "Poland",
    "state": "Greater Poland Voivodeship",
    "city": "Powiat słupecki"
  },
  {
    "source_id": "ChIJJ-xgbxrGBEcRkcuD0NIqf3w",
    "name": "Rejonowy Związek Spółek Wodnych",
    "category": "Rejonowy Związek Spółek Wodnych",
    "formatted_address": "4,5(4)",
    "phone_number": "+48632743223",
    "source_url": "https://www.google.com/maps/place/Rejonowy+Zwi%C4%85zek+Sp%C3%B3%C5%82ek+Wodnych/data=!4m7!3m6!1s0x4704c61a6f60ec27:0x7c7f2ad2d083cb91!8m2!3d52.3011741!4d17.8795141!16s%2Fg%2F11h0vpw81t!19sChIJJ-xgbxrGBEcRkcuD0NIqf3w?authuser=0&hl=tr&rclk=1",
    "website_url": "",
    "rating_text": "4,5",
    "stars": null,
    "number_of_reviews": null,
    "price_level": "",
    "open_hours": "",
    "extraction_timestamp": "2025-06-07T17:27:59.143Z",
    "source_name": "google",
    "source_query": "Irrigation Equipment",
    "source_country": "PL",
    "country": "Poland",
    "state": "Greater Poland Voivodeship",
    "city": "Powiat słupecki"
  },
  {
    "source_id": "ChIJreQjaIzGBEcRahFfRhvYgqI",
    "name": "SANTERM Technika grzewcza i sanitarna Pompy ciepła Kotły gazowe Wyposażenie łazienek Rekuperacja Klimatyzacja Nawadnianie",
    "category": "SANTERM Technika grzewcza i sanitarna Pompy ciepła Kotły gazowe Wyposażenie łazienek Rekuperacja Klimatyzacja Nawadnianie",
    "formatted_address": "4,6(35)",
    "phone_number": "+48511930206",
    "source_url": "https://www.google.com/maps/place/SANTERM+Technika+grzewcza+i+sanitarna+Pompy+ciep%C5%82a+Kot%C5%82y+gazowe+Wyposa%C5%BCenie+%C5%82azienek+Rekuperacja+Klimatyzacja+Nawadnianie/data=!4m7!3m6!1s0x4704c68c6823e4ad:0xa282d81b465f116a!8m2!3d52.2875088!4d17.9055476!16s%2Fg%2F11c75xvz64!19sChIJreQjaIzGBEcRahFfRhvYgqI?authuser=0&hl=tr&rclk=1",
    "website_url": "",
    "rating_text": "4,6",
    "stars": null,
    "number_of_reviews": null,
    "price_level": "",
    "open_hours": "",
    "extraction_timestamp": "2025-06-07T17:27:59.169Z",
    "source_name": "google",
    "source_query": "Irrigation Equipment",
    "source_country": "PL",
    "country": "Poland",
    "state": "Greater Poland Voivodeship",
    "city": "Powiat słupecki"
  },
  {
    "source_id": "ChIJx_IgRzkzG0cROxXcLd-Qoeg",
    "name": "Ekosystemy - Kompleksowe usługi ogrodnicze",
    "category": "Ekosystemy - Kompleksowe usługi ogrodnicze",
    "formatted_address": "5,0(3)",
    "phone_number": "+48601764697",
    "source_url": "https://www.google.com/maps/place/Ekosystemy+-+Kompleksowe+us%C5%82ugi+ogrodnicze/data=!4m7!3m6!1s0x471b33394720f2c7:0xe8a190df2ddc153b!8m2!3d52.2517812!4d18.1518541!16s%2Fg%2F11sgl1jyz6!19sChIJx_IgRzkzG0cROxXcLd-Qoeg?authuser=0&hl=tr&rclk=1",
    "website_url": "",
    "rating_text": "5,0",
    "stars": null,
    "number_of_reviews": null,
    "price_level": "",
    "open_hours": "",
    "extraction_timestamp": "2025-06-07T17:27:59.171Z",
    "source_name": "google",
    "source_query": "Irrigation Equipment",
    "source_country": "PL",
    "country": "Poland",
    "state": "Greater Poland Voivodeship",
    "city": "Powiat słupecki"
  },
  {
    "source_id": "ChIJO57R0GrPBEcRcxxPWlzl3kA",
    "name": "SPAWMAR Mariusz Trawka",
    "category": "SPAWMAR Mariusz Trawka",
    "formatted_address": "5,0(2)",
    "phone_number": "+48516900730",
    "source_url": "https://www.google.com/maps/place/SPAWMAR+Mariusz+Trawka/data=!4m7!3m6!1s0x4704cf6ad0d19e3b:0x40dee55c5a4f1c73!8m2!3d52.2595319!4d17.9715574!16s%2Fg%2F11rxvt160s!19sChIJO57R0GrPBEcRcxxPWlzl3kA?authuser=0&hl=tr&rclk=1",
    "website_url": "",
    "rating_text": "5,0",
    "stars": null,
    "number_of_reviews": null,
    "price_level": "",
    "open_hours": "",
    "extraction_timestamp": "2025-06-07T17:27:59.172Z",
    "source_name": "google",
    "source_query": "Irrigation Equipment",
    "source_country": "PL",
    "country": "Poland",
    "state": "Greater Poland Voivodeship",
    "city": "Powiat słupecki"
  },
  {
    "source_id": "ChIJleEatGTHBEcRnrkQxsHqSeo",
    "name": "Izma-Instalbud",
    "category": "Izma-Instalbud",
    "formatted_address": "5,0(9)",
    "phone_number": "+48574403526",
    "source_url": "https://www.google.com/maps/place/Izma-Instalbud/data=!4m7!3m6!1s0x4704c764b41ae195:0xea49eac1c610b99e!8m2!3d52.2898201!4d17.8708724!16s%2Fg%2F11vz126ksl!19sChIJleEatGTHBEcRnrkQxsHqSeo?authuser=0&hl=tr&rclk=1",
    "website_url": "",
    "rating_text": "5,0",
    "stars": null,
    "number_of_reviews": null,
    "price_level": "",
    "open_hours": "",
    "extraction_timestamp": "2025-06-07T17:27:59.173Z",
    "source_name": "google",
    "source_query": "Irrigation Equipment",
    "source_country": "PL",
    "country": "Poland",
    "state": "Greater Poland Voivodeship",
    "city": "Powiat słupecki"
  },
  {
    "source_id": "ChIJtWcFLp3pBEcRLsKDqolJIng",
    "name": "TEST INSTALACJE – Hurtownia instalacyjna Września",
    "category": "TEST INSTALACJE – Hurtownia instalacyjna Września",
    "formatted_address": "4,7(33)",
    "phone_number": "+48616394733",
    "source_url": "https://www.google.com/maps/place/TEST+INSTALACJE+%E2%80%93+Hurtownia+instalacyjna+Wrze%C5%9Bnia/data=!4m7!3m6!1s0x4704e99d2e0567b5:0x78224989aa83c22e!8m2!3d52.3216706!4d17.5802512!16s%2Fg%2F11c50569y3!19sChIJtWcFLp3pBEcRLsKDqolJIng?authuser=0&hl=tr&rclk=1",
    "website_url": "",
    "rating_text": "4,7",
    "stars": null,
    "number_of_reviews": null,
    "price_level": "",
    "open_hours": "",
    "extraction_timestamp": "2025-06-07T17:27:59.174Z",
    "source_name": "google",
    "source_query": "Irrigation Equipment",
    "source_country": "PL",
    "country": "Poland",
    "state": "Greater Poland Voivodeship",
    "city": "Powiat słupecki"
  },
  {
    "source_id": "ChIJt9wEj__FBEcRffShUjLIvPM",
    "name": "KORNIK Max-dom. PHU",
    "category": "KORNIK Max-dom. PHU",
    "formatted_address": "4,7(108)",
    "phone_number": "+48632742247",
    "source_url": "https://www.google.com/maps/place/KORNIK+Max-dom.+PHU/data=!4m7!3m6!1s0x4704c5ff8f04dcb7:0xf3bcc83252a1f47d!8m2!3d52.2842221!4d17.8826308!16s%2Fg%2F1tql3gtb!19sChIJt9wEj__FBEcRffShUjLIvPM?authuser=0&hl=tr&rclk=1",
    "website_url": "",
    "rating_text": "4,7",
    "stars": null,
    "number_of_reviews": null,
    "price_level": "",
    "open_hours": "",
    "extraction_timestamp": "2025-06-07T17:27:59.175Z",
    "source_name": "google",
    "source_query": "Irrigation Equipment",
    "source_country": "PL",
    "country": "Poland",
    "state": "Greater Poland Voivodeship",
    "city": "Powiat słupecki"
  },
  {
    "source_id": "ChIJ76rAYRrGBEcRrgqiG9VFcPw",
    "name": "PSB Franspol",
    "category": "PSB Franspol",
    "formatted_address": "4,4(47)",
    "phone_number": "+48632751206",
    "source_url": "https://www.google.com/maps/place/PSB+Franspol/data=!4m7!3m6!1s0x4704c61a61c0aaef:0xfc7045d51ba20aae!8m2!3d52.300593!4d17.8793179!16s%2Fg%2F1vy7f8nr!19sChIJ76rAYRrGBEcRrgqiG9VFcPw?authuser=0&hl=tr&rclk=1",
    "website_url": "",
    "rating_text": "4,4",
    "stars": null,
    "number_of_reviews": null,
    "price_level": "",
    "open_hours": "",
    "extraction_timestamp": "2025-06-07T17:27:59.176Z",
    "source_name": "google",
    "source_query": "Irrigation Equipment",
    "source_country": "PL",
    "country": "Poland",
    "state": "Greater Poland Voivodeship",
    "city": "Powiat słupecki"
  },
  {
    "source_id": "ChIJozOhgQXGBEcRjPwqJnp1WSc",
    "name": "Bricomarché",
    "category": "Bricomarché",
    "formatted_address": "4,1(1.002)",
    "phone_number": "+48633067020",
    "source_url": "https://www.google.com/maps/place/Bricomarch%C3%A9/data=!4m7!3m6!1s0x4704c60581a133a3:0x2759757a262afc8c!8m2!3d52.2968856!4d17.8744814!16s%2Fg%2F11byyr79cm!19sChIJozOhgQXGBEcRjPwqJnp1WSc?authuser=0&hl=tr&rclk=1",
    "website_url": "",
    "rating_text": "4,1",
    "stars": null,
    "number_of_reviews": null,
    "price_level": "",
    "open_hours": "",
    "extraction_timestamp": "2025-06-07T17:27:59.179Z",
    "source_name": "google",
    "source_query": "Irrigation Equipment",
    "source_country": "PL",
    "country": "Poland",
    "state": "Greater Poland Voivodeship",
    "city": "Powiat słupecki"
  },
  {
    "source_id": "ChIJ24WMplPDBEcR6jeWyN6_bfg",
    "name": "MatKam Mateusz Krotoszyński",
    "category": "MatKam Mateusz Krotoszyński",
    "formatted_address": "4,6(9)",
    "phone_number": "+48516447591",
    "source_url": "https://www.google.com/maps/place/MatKam+Mateusz+Krotoszy%C5%84ski/data=!4m7!3m6!1s0x4704c353a68c85db:0xf86dbfdec89637ea!8m2!3d52.2911005!4d17.6440742!16s%2Fg%2F11ts3hgw80!19sChIJ24WMplPDBEcR6jeWyN6_bfg?authuser=0&hl=tr&rclk=1",
    "website_url": "",
    "rating_text": "4,6",
    "stars": null,
    "number_of_reviews": null,
    "price_level": "",
    "open_hours": "",
    "extraction_timestamp": "2025-06-07T17:27:59.180Z",
    "source_name": "google",
    "source_query": "Irrigation Equipment",
    "source_country": "PL",
    "country": "Poland",
    "state": "Greater Poland Voivodeship",
    "city": "Powiat słupecki"
  },
  {
    "source_id": "ChIJR2e_iu_dBEcRHayvDq1P5bs",
    "name": "GeoEnergia Września - Fotowoltaika • Klimatyzacje • Pompy Ciepla",
    "category": "GeoEnergia Września - Fotowoltaika • Klimatyzacje • Pompy Ciepla",
    "formatted_address": "5,0(34)",
    "phone_number": "+48720720466",
    "source_url": "https://www.google.com/maps/place/GeoEnergia+Wrze%C5%9Bnia+-+Fotowoltaika+%E2%80%A2+Klimatyzacje+%E2%80%A2+Pompy+Ciepla/data=!4m7!3m6!1s0x4704ddef8abf6747:0xbbe54fad0eafac1d!8m2!3d52.2034419!4d17.6542439!16s%2Fg%2F11m89spxgq!19sChIJR2e_iu_dBEcRHayvDq1P5bs?authuser=0&hl=tr&rclk=1",
    "website_url": "",
    "rating_text": "5,0",
    "stars": null,
    "number_of_reviews": null,
    "price_level": "",
    "open_hours": "",
    "extraction_timestamp": "2025-06-07T17:27:59.181Z",
    "source_name": "google",
    "source_query": "Irrigation Equipment",
    "source_country": "PL",
    "country": "Poland",
    "state": "Greater Poland Voivodeship",
    "city": "Powiat słupecki"
  },
  {
    "source_id": "ChIJSXdmq7ezBEcRE_gOIAwVky8",
    "name": "Firma Handlowo Usługowa Aplauz Antoni Kosiński",
    "category": "Firma Handlowo Usługowa Aplauz Antoni Kosiński",
    "formatted_address": "4,5(2)",
    "phone_number": "+48632683660",
    "source_url": "https://www.google.com/maps/place/Firma+Handlowo+Us%C5%82ugowa+Aplauz+Antoni+Kosi%C5%84ski/data=!4m7!3m6!1s0x4704b3b7ab667749:0x2f93150c200ef813!8m2!3d52.4902692!4d18.1626795!16s%2Fg%2F11j59t88nw!19sChIJSXdmq7ezBEcRE_gOIAwVky8?authuser=0&hl=tr&rclk=1",
    "website_url": "",
    "rating_text": "4,5",
    "stars": null,
    "number_of_reviews": null,
    "price_level": "",
    "open_hours": "",
    "extraction_timestamp": "2025-06-07T17:27:59.182Z",
    "source_name": "google",
    "source_query": "Irrigation Equipment",
    "source_country": "PL",
    "country": "Poland",
    "state": "Greater Poland Voivodeship",
    "city": "Powiat słupecki"
  },
  {
    "source_id": "ChIJU197lj7GBEcR-sI8bxAr2Wo",
    "name": "Sklep żeglarski Szopeneria.pl",
    "category": "Sklep żeglarski Szopeneria.pl",
    "formatted_address": "4,8(910)",
    "phone_number": "+48781776394",
    "source_url": "https://www.google.com/maps/place/Sklep+%C5%BCeglarski+Szopeneria.pl/data=!4m7!3m6!1s0x4704c63e967b5f53:0x6ad92b106f3cc2fa!8m2!3d52.3131692!4d17.8754052!16s%2Fg%2F1tg_85j4!19sChIJU197lj7GBEcR-sI8bxAr2Wo?authuser=0&hl=tr&rclk=1",
    "website_url": "",
    "rating_text": "4,8",
    "stars": null,
    "number_of_reviews": null,
    "price_level": "",
    "open_hours": "",
    "extraction_timestamp": "2025-06-07T17:27:59.184Z",
    "source_name": "google",
    "source_query": "Irrigation Equipment",
    "source_country": "PL",
    "country": "Poland",
    "state": "Greater Poland Voivodeship",
    "city": "Powiat słupecki"
  },
  {
    "source_id": "ChIJp87loZrGBEcROwsN6SuAUMU",
    "name": "ARMASAN express",
    "category": "ARMASAN express",
    "formatted_address": "4,7(9)",
    "phone_number": "+48531577726",
    "source_url": "https://www.google.com/maps/place/ARMASAN+express/data=!4m7!3m6!1s0x4704c69aa1e5cea7:0xc550802be90d0b3b!8m2!3d52.3099688!4d17.81797!16s%2Fg%2F1hc5h6p02!19sChIJp87loZrGBEcROwsN6SuAUMU?authuser=0&hl=tr&rclk=1",
    "website_url": "",
    "rating_text": "4,7",
    "stars": null,
    "number_of_reviews": null,
    "price_level": "",
    "open_hours": "",
    "extraction_timestamp": "2025-06-07T17:27:59.185Z",
    "source_name": "google",
    "source_query": "Irrigation Equipment",
    "source_country": "PL",
    "country": "Poland",
    "state": "Greater Poland Voivodeship",
    "city": "Powiat słupecki"
  },
  {
    "source_id": "ChIJb_i9hQrGBEcRXUgC2u8ZNrI",
    "name": "Market Budowlany Tex - Bis",
    "category": "Market Budowlany Tex - Bis",
    "formatted_address": "3,9(195)",
    "phone_number": "+48632754639",
    "source_url": "https://www.google.com/maps/place/Market+Budowlany+Tex+-+Bis/data=!4m7!3m6!1s0x4704c60a85bdf86f:0xb23619efda02485d!8m2!3d52.291075!4d17.8571985!16s%2Fg%2F1hc2bhq7x!19sChIJb_i9hQrGBEcRXUgC2u8ZNrI?authuser=0&hl=tr&rclk=1",
    "website_url": "",
    "rating_text": "3,9",
    "stars": null,
    "number_of_reviews": null,
    "price_level": "",
    "open_hours": "",
    "extraction_timestamp": "2025-06-07T17:27:59.186Z",
    "source_name": "google",
    "source_query": "Irrigation Equipment",
    "source_country": "PL",
    "country": "Poland",
    "state": "Greater Poland Voivodeship",
    "city": "Powiat słupecki"
  },
  {
    "source_id": "ChIJg1_QdwfGBEcRm6n8dK-Q0UY",
    "name": "Dziewiątka. Sklep elektroniczny. Części RTV i AGD",
    "category": "Dziewiątka. Sklep elektroniczny. Części RTV i AGD",
    "formatted_address": "4,0(85)",
    "phone_number": "+48632771339",
    "source_url": "https://www.google.com/maps/place/Dziewi%C4%85tka.+Sklep+elektroniczny.+Cz%C4%99%C5%9Bci+RTV+i+AGD/data=!4m7!3m6!1s0x4704c60777d05f83:0x46d190af74fca99b!8m2!3d52.288542!4d17.8741932!16s%2Fg%2F1pv157b5n!19sChIJg1_QdwfGBEcRm6n8dK-Q0UY?authuser=0&hl=tr&rclk=1",
    "website_url": "",
    "rating_text": "4,0",
    "stars": null,
    "number_of_reviews": null,
    "price_level": "",
    "open_hours": "",
    "extraction_timestamp": "2025-06-07T17:27:59.187Z",
    "source_name": "google",
    "source_query": "Irrigation Equipment",
    "source_country": "PL",
    "country": "Poland",
    "state": "Greater Poland Voivodeship",
    "city": "Powiat słupecki"
  },
  {
    "source_id": "ChIJ9-xYO_3FBEcRmY2BGKgluoA",
    "name": "Hildebrandt R. Handel art. spożywczo - monopolowymi",
    "category": "Hildebrandt R. Handel art. spożywczo - monopolowymi",
    "formatted_address": "4,1(15)",
    "phone_number": "+48632755320",
    "source_url": "https://www.google.com/maps/place/Hildebrandt+R.+Handel+art.+spo%C5%BCywczo+-+monopolowymi/data=!4m7!3m6!1s0x4704c5fd3b58ecf7:0x80ba25a818818d99!8m2!3d52.286401!4d17.869776!16s%2Fg%2F1hc1_kc9y!19sChIJ9-xYO_3FBEcRmY2BGKgluoA?authuser=0&hl=tr&rclk=1",
    "website_url": "",
    "rating_text": "4,1",
    "stars": null,
    "number_of_reviews": null,
    "price_level": "",
    "open_hours": "",
    "extraction_timestamp": "2025-06-07T17:27:59.188Z",
    "source_name": "google",
    "source_query": "Irrigation Equipment",
    "source_country": "PL",
    "country": "Poland",
    "state": "Greater Poland Voivodeship",
    "city": "Powiat słupecki"
  },
  {
    "source_id": "ChIJWU3Eew_GBEcRK3mYGLDTn3M",
    "name": "Sklep Zielarsko-Medyczny Nagietek",
    "category": "Sklep Zielarsko-Medyczny Nagietek",
    "formatted_address": "4,9(38)",
    "phone_number": "+48632755480",
    "source_url": "https://www.google.com/maps/place/Sklep+Zielarsko-Medyczny+Nagietek/data=!4m7!3m6!1s0x4704c60f7bc44d59:0x739fd3b01898792b!8m2!3d52.2887901!4d17.8734287!16s%2Fg%2F1tj9s0zt!19sChIJWU3Eew_GBEcRK3mYGLDTn3M?authuser=0&hl=tr&rclk=1",
    "website_url": "",
    "rating_text": "4,9",
    "stars": null,
    "number_of_reviews": null,
    "price_level": "",
    "open_hours": "",
    "extraction_timestamp": "2025-06-07T17:27:59.189Z",
    "source_name": "google",
    "source_query": "Irrigation Equipment",
    "source_country": "PL",
    "country": "Poland",
    "state": "Greater Poland Voivodeship",
    "city": "Powiat słupecki"
  },
  {
    "source_id": "ChIJwydVKWPpBEcRoRP0MAlOvEs",
    "name": "Metaltech Września Tomasz Jaśkiewicz",
    "category": "Metaltech Września Tomasz Jaśkiewicz",
    "formatted_address": "4,8(41)",
    "phone_number": "+48501295683",
    "source_url": "https://www.google.com/maps/place/Metaltech+Wrze%C5%9Bnia+Tomasz+Ja%C5%9Bkiewicz/data=!4m7!3m6!1s0x4704e963295527c3:0x4bbc4e0930f413a1!8m2!3d52.311359!4d17.5672473!16s%2Fg%2F1ptwwglf3!19sChIJwydVKWPpBEcRoRP0MAlOvEs?authuser=0&hl=tr&rclk=1",
    "website_url": "",
    "rating_text": "4,8",
    "stars": null,
    "number_of_reviews": null,
    "price_level": "",
    "open_hours": "",
    "extraction_timestamp": "2025-06-07T17:27:59.190Z",
    "source_name": "google",
    "source_query": "Irrigation Equipment",
    "source_country": "PL",
    "country": "Poland",
    "state": "Greater Poland Voivodeship",
    "city": "Powiat słupecki"
  },
  {
    "source_id": "ChIJPa-cj6t3smkRll80_oImOEc",
    "name": "ZIELONY FYRTEL",
    "category": "ZIELONY FYRTEL",
    "formatted_address": "5,0(23)",
    "phone_number": "+48691928659",
    "source_url": "https://www.google.com/maps/place/ZIELONY+FYRTEL/data=!4m7!3m6!1s0x69b277ab8f9caf3d:0x47382682fe345f96!8m2!3d52.4796484!4d17.6148753!16s%2Fg%2F11q4k3320f!19sChIJPa-cj6t3smkRll80_oImOEc?authuser=0&hl=tr&rclk=1",
    "website_url": "",
    "rating_text": "5,0",
    "stars": null,
    "number_of_reviews": null,
    "price_level": "",
    "open_hours": "",
    "extraction_timestamp": "2025-06-07T17:27:59.191Z",
    "source_name": "google",
    "source_query": "Irrigation Equipment",
    "source_country": "PL",
    "country": "Poland",
    "state": "Greater Poland Voivodeship",
    "city": "Powiat słupecki"
  },
  {
    "source_id": "ChIJOezOcEExG0cRTcniczjcqd8",
    "name": "Art-Metal Sp. o.o.",
    "category": "Art-Metal Sp. o.o.",
    "formatted_address": "4,6(141)",
    "phone_number": "+48632445277",
    "source_url": "https://www.google.com/maps/place/Art-Metal+Sp.+o.o./data=!4m7!3m6!1s0x471b314170ceec39:0xdfa9dc3873e2c94d!8m2!3d52.2081415!4d18.2572694!16s%2Fg%2F1tj954xz!19sChIJOezOcEExG0cRTcniczjcqd8?authuser=0&hl=tr&rclk=1",
    "website_url": "",
    "rating_text": "4,6",
    "stars": null,
    "number_of_reviews": null,
    "price_level": "",
    "open_hours": "",
    "extraction_timestamp": "2025-06-07T17:27:59.192Z",
    "source_name": "google",
    "source_query": "Irrigation Equipment",
    "source_country": "PL",
    "country": "Poland",
    "state": "Greater Poland Voivodeship",
    "city": "Powiat słupecki"
  },
  {
    "source_id": "ChIJmcKs4_O5BEcRvMVzbwVFCe0",
    "name": "Plaża Przybrodzin",
    "category": "Plaża Przybrodzin",
    "formatted_address": "4,4(789)",
    "phone_number": "",
    "source_url": "https://www.google.com/maps/place/Pla%C5%BCa+Przybrodzin/data=!4m7!3m6!1s0x4704b9f3e3acc299:0xed0945056f73c5bc!8m2!3d52.431896!4d17.9370331!16s%2Fg%2F11f6f_hsjt!19sChIJmcKs4_O5BEcRvMVzbwVFCe0?authuser=0&hl=tr&rclk=1",
    "website_url": "",
    "rating_text": "4,4",
    "stars": null,
    "number_of_reviews": null,
    "price_level": "",
    "open_hours": "",
    "extraction_timestamp": "2025-06-07T17:27:59.193Z",
    "source_name": "google",
    "source_query": "Irrigation Equipment",
    "source_country": "PL",
    "country": "Poland",
    "state": "Greater Poland Voivodeship",
    "city": "Powiat słupecki"
  },
  {
    "source_id": "ChIJ8WjSDQQ0G0cRlurAMqQfSVc",
    "name": "Ferro Spółka z.o.o.",
    "category": "Ferro Spółka z.o.o.",
    "formatted_address": "4,6(9)",
    "phone_number": "+48632428819",
    "source_url": "https://www.google.com/maps/place/Ferro+Sp%C3%B3%C5%82ka+z.o.o./data=!4m7!3m6!1s0x471b34040dd268f1:0x57491fa432c0ea96!8m2!3d52.2362945!4d18.2407474!16s%2Fg%2F1tdbpmg7!19sChIJ8WjSDQQ0G0cRlurAMqQfSVc?authuser=0&hl=tr&rclk=1",
    "website_url": "",
    "rating_text": "4,6",
    "stars": null,
    "number_of_reviews": null,
    "price_level": "",
    "open_hours": "",
    "extraction_timestamp": "2025-06-07T17:27:59.194Z",
    "source_name": "google",
    "source_query": "Irrigation Equipment",
    "source_country": "PL",
    "country": "Poland",
    "state": "Greater Poland Voivodeship",
    "city": "Powiat słupecki"
  },
  {
    "source_id": "ChIJffc7vv3FBEcRguCO5nJFPlE",
    "name": "Galeria Ostrowski Katarzyna Przybylska",
    "category": "Galeria Ostrowski Katarzyna Przybylska",
    "formatted_address": "4,8(33)",
    "phone_number": "+48609296335",
    "source_url": "https://www.google.com/maps/place/Galeria+Ostrowski+Katarzyna+Przybylska/data=!4m7!3m6!1s0x4704c5fdbe3bf77d:0x513e4572e68ee082!8m2!3d52.2862249!4d17.8739662!16s%2Fg%2F11fkmzdj70!19sChIJffc7vv3FBEcRguCO5nJFPlE?authuser=0&hl=tr&rclk=1",
    "website_url": "",
    "rating_text": "4,8",
    "stars": null,
    "number_of_reviews": null,
    "price_level": "",
    "open_hours": "",
    "extraction_timestamp": "2025-06-07T17:27:59.195Z",
    "source_name": "google",
    "source_query": "Irrigation Equipment",
    "source_country": "PL",
    "country": "Poland",
    "state": "Greater Poland Voivodeship",
    "city": "Powiat słupecki"
  },
  {
    "source_id": "ChIJJ4So7Ng2G0cR-pojczlIvRk",
    "name": "\" TERMO-TECHNIKA \" Technika grzewcza i instalacyjna",
    "category": "\" TERMO-TECHNIKA \" Technika grzewcza i instalacyjna",
    "formatted_address": "5,0(10)",
    "phone_number": "+48665531521",
    "source_url": "https://www.google.com/maps/place/%22+TERMO-TECHNIKA+%22+Technika+grzewcza+i+instalacyjna/data=!4m7!3m6!1s0x471b36d8eca88427:0x19bd483973239afa!8m2!3d52.2365745!4d18.2159209!16s%2Fg%2F1ptw96t32!19sChIJJ4So7Ng2G0cR-pojczlIvRk?authuser=0&hl=tr&rclk=1",
    "website_url": "",
    "rating_text": "5,0",
    "stars": null,
    "number_of_reviews": null,
    "price_level": "",
    "open_hours": "",
    "extraction_timestamp": "2025-06-07T17:27:59.197Z",
    "source_name": "google",
    "source_query": "Irrigation Equipment",
    "source_country": "PL",
    "country": "Poland",
    "state": "Greater Poland Voivodeship",
    "city": "Powiat słupecki"
  },
  {
    "source_id": "ChIJXZ3EeE-4BEcRik9nOybTS44",
    "name": "Wytwórnia Wód Mineralnych KAMENA",
    "category": "Wytwórnia Wód Mineralnych KAMENA",
    "formatted_address": "4,5(56)",
    "phone_number": "+48632776105",
    "source_url": "https://www.google.com/maps/place/Wytw%C3%B3rnia+W%C3%B3d+Mineralnych+KAMENA/data=!4m7!3m6!1s0x4704b84f78c49d5d:0x8e4bd3263b674f8a!8m2!3d52.3786539!4d17.9276293!16s%2Fg%2F1hc2pc97r!19sChIJXZ3EeE-4BEcRik9nOybTS44?authuser=0&hl=tr&rclk=1",
    "website_url": "",
    "rating_text": "4,5",
    "stars": null,
    "number_of_reviews": null,
    "price_level": "",
    "open_hours": "",
    "extraction_timestamp": "2025-06-07T17:27:59.198Z",
    "source_name": "google",
    "source_query": "Irrigation Equipment",
    "source_country": "PL",
    "country": "Poland",
    "state": "Greater Poland Voivodeship",
    "city": "Powiat słupecki"
  }
]
