[
  {
    "source_id": "ChIJ4zc6v4hZBEcRKah1mzKBwPg",
    "name": "PHU \"ADVISER\" - Systemy nawadniania",
    "category": "PHU \"ADVISER\" - Systemy nawadniania",
    "formatted_address": "4,8(123)",
    "phone_number": "+48618798700",
    "source_url": "https://www.google.com/maps/place/PHU+%22ADVISER%22+-+Systemy+nawadniania/data=!4m7!3m6!1s0x47045988bf3a37e3:0xf8c081329b75a829!8m2!3d52.3434333!4d17.0287055!16s%2Fg%2F1w3459w5!19sChIJ4zc6v4hZBEcRKah1mzKBwPg?authuser=0&hl=tr&rclk=1",
    "website_url": "http://www.phu-adviser.pl/",
    "rating_text": "4,8",
    "stars": null,
    "number_of_reviews": null,
    "price_level": "",
    "open_hours": "",
    "extraction_timestamp": "2025-06-07T17:54:56.727Z",
    "source_name": "google",
    "source_query": "Irrigation Equipment",
    "source_country": "PL",
    "country": "Poland",
    "state": "Greater Poland Voivodeship",
    "city": "Poznań"
  },
  {
    "source_id": "ChIJZ01zsslEBEcRe_YJp9GTrow",
    "name": "Plewa Marcin. Sanitary installations",
    "category": "Plewa Marcin. Sanitary installations",
    "formatted_address": "4,7(92)",
    "phone_number": "+48730359564",
    "source_url": "https://www.google.com/maps/place/Plewa+Marcin.+Sanitary+installations/data=!4m7!3m6!1s0x470444c9b2734d67:0x8cae93d1a709f67b!8m2!3d52.4264503!4d16.8610092!16s%2Fg%2F1thq8kcf!19sChIJZ01zsslEBEcRe_YJp9GTrow?authuser=0&hl=tr&rclk=1",
    "website_url": "http://www.plewainstalacje.pl/",
    "rating_text": "4,7",
    "stars": null,
    "number_of_reviews": null,
    "price_level": "",
    "open_hours": "",
    "extraction_timestamp": "2025-06-07T17:54:56.728Z",
    "source_name": "google",
    "source_query": "Irrigation Equipment",
    "source_country": "PL",
    "country": "Poland",
    "state": "Greater Poland Voivodeship",
    "city": "Poznań"
  },
  {
    "source_id": "ChIJqwlpg2FDBEcRbB3XgM41s1k",
    "name": "BONITA HAH Sp. z o.o. Sp.k.",
    "category": "BONITA HAH Sp. z o.o. Sp.k.",
    "formatted_address": "4,4(14)",
    "phone_number": "+48618523284",
    "source_url": "https://www.google.com/maps/place/BONITA+HAH+Sp.+z+o.o.+Sp.k./data=!4m7!3m6!1s0x47044361836909ab:0x59b335ce80d71d6c!8m2!3d52.4082317!4d16.9323373!16s%2Fg%2F1tdyv1mc!19sChIJqwlpg2FDBEcRbB3XgM41s1k?authuser=0&hl=tr&rclk=1",
    "website_url": "https://www.sklepnawadnianie.pl/",
    "rating_text": "4,4",
    "stars": null,
    "number_of_reviews": null,
    "price_level": "",
    "open_hours": "",
    "extraction_timestamp": "2025-06-07T17:54:56.729Z",
    "source_name": "google",
    "source_query": "Irrigation Equipment",
    "source_country": "PL",
    "country": "Poland",
    "state": "Greater Poland Voivodeship",
    "city": "Poznań"
  },
  {
    "source_id": "ChIJFVCITOVPBEcRG-lA_g1qlqk",
    "name": "Technika Wody",
    "category": "Technika Wody",
    "formatted_address": "4,6(288)",
    "phone_number": "+48502506622",
    "source_url": "https://www.google.com/maps/place/Technika+Wody/data=!4m7!3m6!1s0x47044fe54c885015:0xa9966a0dfe40e91b!8m2!3d52.3740842!4d16.819808!16s%2Fg%2F11b7vsdjf5!19sChIJFVCITOVPBEcRG-lA_g1qlqk?authuser=0&hl=tr&rclk=1",
    "website_url": "http://technikawody.pl/",
    "rating_text": "4,6",
    "stars": null,
    "number_of_reviews": null,
    "price_level": "",
    "open_hours": "",
    "extraction_timestamp": "2025-06-07T17:54:56.730Z",
    "source_name": "google",
    "source_query": "Irrigation Equipment",
    "source_country": "PL",
    "country": "Poland",
    "state": "Greater Poland Voivodeship",
    "city": "Poznań"
  },
  {
    "source_id": "ChIJNdzfHE1aBEcRdVxSGCgEKgw",
    "name": "Zakład Produkcji Urządzeń Sanitarnych i Elektrycznych PPRI-Żegrze Sp. z o.o.",
    "category": "Zakład Produkcji Urządzeń Sanitarnych i Elektrycznych PPRI-Żegrze Sp. z o.o.",
    "formatted_address": "3,8(5)",
    "phone_number": "",
    "source_url": "https://www.google.com/maps/place/Zak%C5%82ad+Produkcji+Urz%C4%85dze%C5%84+Sanitarnych+i+Elektrycznych+PPRI-%C5%BBegrze+Sp.+z+o.o./data=!4m7!3m6!1s0x47045a4d1cdfdc35:0xc2a042818525c75!8m2!3d52.3761531!4d16.9747344!16s%2Fg%2F1vzqqz3_!19sChIJNdzfHE1aBEcRdVxSGCgEKgw?authuser=0&hl=tr&rclk=1",
    "website_url": "https://www.zbiornikicisnieniowe.pl/",
    "rating_text": "3,8",
    "stars": null,
    "number_of_reviews": null,
    "price_level": "",
    "open_hours": "",
    "extraction_timestamp": "2025-06-07T17:54:56.730Z",
    "source_name": "google",
    "source_query": "Irrigation Equipment",
    "source_country": "PL",
    "country": "Poland",
    "state": "Greater Poland Voivodeship",
    "city": "Poznań"
  },
  {
    "source_id": "ChIJDRdd3QxFBEcRH2bGY1X5Y-0",
    "name": "Polaqua Group Sp. J.",
    "category": "Polaqua Group Sp. J.",
    "formatted_address": "4,6(40)",
    "phone_number": "+48618677648",
    "source_url": "https://www.google.com/maps/place/Polaqua+Group+Sp.+J./data=!4m7!3m6!1s0x4704450cdd5d170d:0xed63f95563c6661f!8m2!3d52.357685!4d16.8339614!16s%2Fg%2F11b7cq2nqb!19sChIJDRdd3QxFBEcRH2bGY1X5Y-0?authuser=0&hl=tr&rclk=1",
    "website_url": "http://www.polaquagroup.com/",
    "rating_text": "4,6",
    "stars": null,
    "number_of_reviews": null,
    "price_level": "",
    "open_hours": "",
    "extraction_timestamp": "2025-06-07T17:54:56.731Z",
    "source_name": "google",
    "source_query": "Irrigation Equipment",
    "source_country": "PL",
    "country": "Poland",
    "state": "Greater Poland Voivodeship",
    "city": "Poznań"
  },
  {
    "source_id": "ChIJi56vM2tbBEcRrYnmZzUWQ6s",
    "name": "Sklep Instalacyjny hydrauliczny Poznań – Doradca Energetyczny – pompy ciepła – kotły gazowe Poznań",
    "category": "Sklep Instalacyjny hydrauliczny Poznań – Doradca Energetyczny – pompy ciepła – kotły gazowe Poznań",
    "formatted_address": "5,0(25)",
    "phone_number": "+48509786200",
    "source_url": "https://www.google.com/maps/place/Sklep+Instalacyjny+hydrauliczny+Pozna%C5%84+%E2%80%93+Doradca+Energetyczny+%E2%80%93+pompy+ciep%C5%82a+%E2%80%93+kot%C5%82y+gazowe+Pozna%C5%84/data=!4m7!3m6!1s0x47045b6b33af9e8b:0xab43163567e689ad!8m2!3d52.3830683!4d16.9201901!16s%2Fg%2F11tdf74spl!19sChIJi56vM2tbBEcRrYnmZzUWQ6s?authuser=0&hl=tr&rclk=1",
    "website_url": "https://sklep-instalacyjny-hydrauliczny.localo.site/?utm_source=google_profile&utm_campaign=localo&utm_medium=mainlink",
    "rating_text": "5,0",
    "stars": null,
    "number_of_reviews": null,
    "price_level": "",
    "open_hours": "",
    "extraction_timestamp": "2025-06-07T17:54:56.733Z",
    "source_name": "google",
    "source_query": "Irrigation Equipment",
    "source_country": "PL",
    "country": "Poland",
    "state": "Greater Poland Voivodeship",
    "city": "Poznań"
  },
  {
    "source_id": "ChIJc9r7ngtDBEcRg6hZ09JSSrg",
    "name": "Inwater Sp. z o.o.",
    "category": "Inwater Sp. z o.o.",
    "formatted_address": "4,5(23)",
    "phone_number": "+48618429769",
    "source_url": "https://www.google.com/maps/place/Inwater+Sp.+z+o.o./data=!4m7!3m6!1s0x4704430b9efbda73:0xb84a52d2d359a883!8m2!3d52.4620562!4d16.8839233!16s%2Fg%2F1v8x0wsg!19sChIJc9r7ngtDBEcRg6hZ09JSSrg?authuser=0&hl=tr&rclk=1",
    "website_url": "https://inwater.pl/kontakt/",
    "rating_text": "4,5",
    "stars": null,
    "number_of_reviews": null,
    "price_level": "",
    "open_hours": "",
    "extraction_timestamp": "2025-06-07T17:54:56.734Z",
    "source_name": "google",
    "source_query": "Irrigation Equipment",
    "source_country": "PL",
    "country": "Poland",
    "state": "Greater Poland Voivodeship",
    "city": "Poznań"
  },
  {
    "source_id": "ChIJEYNh9BVbBEcRU46FivUtBqk",
    "name": "BONITA Systemy Nawadniania HUNTER, RAINBIRD, RIVULIS, zraszacze, sterowniki, elektrozawory.",
    "category": "BONITA Systemy Nawadniania HUNTER, RAINBIRD, RIVULIS, zraszacze, sterowniki, elektrozawory.",
    "formatted_address": "BONITA Systemy Nawadniania HUNTER, RAINBIRD, RIVULIS, zraszacze, sterowniki, elektrozawory.",
    "phone_number": "+48661888350",
    "source_url": "https://www.google.com/maps/place/BONITA+Systemy+Nawadniania+HUNTER,+RAINBIRD,+RIVULIS,+zraszacze,+sterowniki,+elektrozawory./data=!4m7!3m6!1s0x47045b15f4618311:0xa9062df58a858e53!8m2!3d52.3518922!4d16.9011694!16s%2Fg%2F11j4m4n340!19sChIJEYNh9BVbBEcRU46FivUtBqk?authuser=0&hl=tr&rclk=1",
    "website_url": "http://bonita.net.pl/",
    "rating_text": "4,9",
    "stars": null,
    "number_of_reviews": null,
    "price_level": "",
    "open_hours": "",
    "extraction_timestamp": "2025-06-07T17:54:56.735Z",
    "source_name": "google",
    "source_query": "Irrigation Equipment",
    "source_country": "PL",
    "country": "Poland",
    "state": "Greater Poland Voivodeship",
    "city": "Poznań"
  },
  {
    "source_id": "ChIJV8oKMG9DBEcRhxkRFioKa8k",
    "name": "Stelmaszyk Sp. J.",
    "category": "Stelmaszyk Sp. J.",
    "formatted_address": "4,6(94)",
    "phone_number": "+48618221190",
    "source_url": "https://www.google.com/maps/place/Stelmaszyk+Sp.+J./data=!4m7!3m6!1s0x4704436f300aca57:0xc96b0a2a16111987!8m2!3d52.4490968!4d16.8934735!16s%2Fg%2F1tj7zn_p!19sChIJV8oKMG9DBEcRhxkRFioKa8k?authuser=0&hl=tr&rclk=1",
    "website_url": "http://www.stelmaszyk.com.pl/",
    "rating_text": "4,6",
    "stars": null,
    "number_of_reviews": null,
    "price_level": "",
    "open_hours": "",
    "extraction_timestamp": "2025-06-07T17:54:56.737Z",
    "source_name": "google",
    "source_query": "Irrigation Equipment",
    "source_country": "PL",
    "country": "Poland",
    "state": "Greater Poland Voivodeship",
    "city": "Poznań"
  },
  {
    "source_id": "ChIJ6xXI4oZDBEcRuHj7AcwOWUQ",
    "name": "Ogrodnik Poznań Nawadnianie Ogrodu Automatyczne Nawadnianie",
    "category": "Ogrodnik Poznań Nawadnianie Ogrodu Automatyczne Nawadnianie",
    "formatted_address": "5,0(29)",
    "phone_number": "+48605157539",
    "source_url": "https://www.google.com/maps/place/Ogrodnik+Pozna%C5%84+Nawadnianie+Ogrodu+Automatyczne+Nawadnianie/data=!4m7!3m6!1s0x47044386e2c815eb:0x44590ecc01fb78b8!8m2!3d52.439058!4d16.842177!16s%2Fg%2F11jbmmkrmv!19sChIJ6xXI4oZDBEcRuHj7AcwOWUQ?authuser=0&hl=tr&rclk=1",
    "website_url": "https://www.automatycznenawadnianiepoznan.pl/",
    "rating_text": "5,0",
    "stars": null,
    "number_of_reviews": null,
    "price_level": "",
    "open_hours": "",
    "extraction_timestamp": "2025-06-07T17:54:56.738Z",
    "source_name": "google",
    "source_query": "Irrigation Equipment",
    "source_country": "PL",
    "country": "Poland",
    "state": "Greater Poland Voivodeship",
    "city": "Poznań"
  },
  {
    "source_id": "ChIJcwjpM35bBEcR5YRv0we6JSY",
    "name": "Aqua-Rur Plus Januszkiewicz Anna",
    "category": "Aqua-Rur Plus Januszkiewicz Anna",
    "formatted_address": "4,7(3)",
    "phone_number": "+48616529877",
    "source_url": "https://www.google.com/maps/place/Aqua-Rur+Plus+Januszkiewicz+Anna/data=!4m7!3m6!1s0x47045b7e33e90873:0x2625ba07d36f84e5!8m2!3d52.4224153!4d16.9790423!16s%2Fg%2F1tfr8x37!19sChIJcwjpM35bBEcR5YRv0we6JSY?authuser=0&hl=tr&rclk=1",
    "website_url": "http://www.aqua-rur.pl/",
    "rating_text": "4,7",
    "stars": null,
    "number_of_reviews": null,
    "price_level": "",
    "open_hours": "",
    "extraction_timestamp": "2025-06-07T17:54:56.738Z",
    "source_name": "google",
    "source_query": "Irrigation Equipment",
    "source_country": "PL",
    "country": "Poland",
    "state": "Greater Poland Voivodeship",
    "city": "Poznań"
  },
  {
    "source_id": "ChIJ_Y1uefFaBEcRJ_HCuCH6DzE",
    "name": "Tubes International - Centrala",
    "category": "Tubes International - Centrala",
    "formatted_address": "4,9(23)",
    "phone_number": "+48616530222",
    "source_url": "https://www.google.com/maps/place/Tubes+International+-+Centrala/data=!4m7!3m6!1s0x47045af1796e8dfd:0x310ffa21b8c2f127!8m2!3d52.3699873!4d16.938408!16s%2Fg%2F1ptx33nd9!19sChIJ_Y1uefFaBEcRJ_HCuCH6DzE?authuser=0&hl=tr&rclk=1",
    "website_url": "https://www.tubes-international.pl/",
    "rating_text": "4,9",
    "stars": null,
    "number_of_reviews": null,
    "price_level": "",
    "open_hours": "",
    "extraction_timestamp": "2025-06-07T17:54:56.739Z",
    "source_name": "google",
    "source_query": "Irrigation Equipment",
    "source_country": "PL",
    "country": "Poland",
    "state": "Greater Poland Voivodeship",
    "city": "Poznań"
  },
  {
    "source_id": "ChIJQYZYU_daBEcRrc4mt6dBBko",
    "name": "HYDROGLOBAL - Przemyślane rozwiązania dla ujęć wody",
    "category": "HYDROGLOBAL - Przemyślane rozwiązania dla ujęć wody",
    "formatted_address": "4,5(8)",
    "phone_number": "+48612785475",
    "source_url": "https://www.google.com/maps/place/HYDROGLOBAL+-+Przemy%C5%9Blane+rozwi%C4%85zania+dla+uj%C4%99%C4%87+wody/data=!4m7!3m6!1s0x47045af753588641:0x4a0641a7b726cead!8m2!3d52.4872791!4d16.8563292!16s%2Fg%2F1wzt11_h!19sChIJQYZYU_daBEcRrc4mt6dBBko?authuser=0&hl=tr&rclk=1",
    "website_url": "http://www.hydroglobal.com/",
    "rating_text": "4,5",
    "stars": null,
    "number_of_reviews": null,
    "price_level": "",
    "open_hours": "",
    "extraction_timestamp": "2025-06-07T17:54:56.741Z",
    "source_name": "google",
    "source_query": "Irrigation Equipment",
    "source_country": "PL",
    "country": "Poland",
    "state": "Greater Poland Voivodeship",
    "city": "Poznań"
  },
  {
    "source_id": "ChIJnc398spaBEcRj7v-9AgLfjY",
    "name": "Alsi Serwis Sp. z o.o.",
    "category": "Alsi Serwis Sp. z o.o.",
    "formatted_address": "4,1(9)",
    "phone_number": "+48501081033",
    "source_url": "https://www.google.com/maps/place/Alsi+Serwis+Sp.+z+o.o./data=!4m7!3m6!1s0x47045acaf2fdcd9d:0x367e0b08f4febb8f!8m2!3d52.3721925!4d16.890079!16s%2Fg%2F1td68ky8!19sChIJnc398spaBEcRj7v-9AgLfjY?authuser=0&hl=tr&rclk=1",
    "website_url": "https://alsiserwis.pl/",
    "rating_text": "4,1",
    "stars": null,
    "number_of_reviews": null,
    "price_level": "",
    "open_hours": "",
    "extraction_timestamp": "2025-06-07T17:54:56.741Z",
    "source_name": "google",
    "source_query": "Irrigation Equipment",
    "source_country": "PL",
    "country": "Poland",
    "state": "Greater Poland Voivodeship",
    "city": "Poznań"
  },
  {
    "source_id": "ChIJdU0ANU1FBEcR2moWCHkgDNg",
    "name": "Granimex- Uzdatnianie wody, Technologia basenowa, Odwrócona osmoza, Kondycjonowanie wody",
    "category": "Granimex- Uzdatnianie wody, Technologia basenowa, Odwrócona osmoza, Kondycjonowanie wody",
    "formatted_address": "Granimex- Uzdatnianie wody, Technologia basenowa, Odwrócona osmoza, Kondycjonowanie wody",
    "phone_number": "+48618305685",
    "source_url": "https://www.google.com/maps/place/Granimex-+Uzdatnianie+wody,+Technologia+basenowa,+Odwr%C3%B3cona+osmoza,+Kondycjonowanie+wody/data=!4m7!3m6!1s0x4704454d35004d75:0xd80c207908166ada!8m2!3d52.3731194!4d16.8887854!16s%2Fg%2F1tcvsk8q!19sChIJdU0ANU1FBEcR2moWCHkgDNg?authuser=0&hl=tr&rclk=1",
    "website_url": "https://www.granimex.com.pl/",
    "rating_text": "5,0",
    "stars": null,
    "number_of_reviews": null,
    "price_level": "",
    "open_hours": "",
    "extraction_timestamp": "2025-06-07T17:54:56.742Z",
    "source_name": "google",
    "source_query": "Irrigation Equipment",
    "source_country": "PL",
    "country": "Poland",
    "state": "Greater Poland Voivodeship",
    "city": "Poznań"
  },
  {
    "source_id": "ChIJQ9Wcp9laBEcRgVdx1f9fOZ8",
    "name": "Mikas Instalacje",
    "category": "Mikas Instalacje",
    "formatted_address": "4,7(58)",
    "phone_number": "+48616497070",
    "source_url": "https://www.google.com/maps/place/Mikas+Instalacje/data=!4m7!3m6!1s0x47045ad9a79cd543:0x9f395fffd5715781!8m2!3d52.3856728!4d16.9154114!16s%2Fg%2F1vn9msv6!19sChIJQ9Wcp9laBEcRgVdx1f9fOZ8?authuser=0&hl=tr&rclk=1",
    "website_url": "https://e-mikas.com.pl/",
    "rating_text": "4,7",
    "stars": null,
    "number_of_reviews": null,
    "price_level": "",
    "open_hours": "",
    "extraction_timestamp": "2025-06-07T17:54:56.743Z",
    "source_name": "google",
    "source_query": "Irrigation Equipment",
    "source_country": "PL",
    "country": "Poland",
    "state": "Greater Poland Voivodeship",
    "city": "Poznań"
  },
  {
    "source_id": "ChIJ0-UeNs5EBEcRWyFRaNGFPr0",
    "name": "Instalkos - Usługi hydrauliczne, Pompy ciepła, Ogrzewanie podłogowe, Instalacje gazowe.",
    "category": "Instalkos - Usługi hydrauliczne, Pompy ciepła, Ogrzewanie podłogowe, Instalacje gazowe.",
    "formatted_address": "Instalkos - Usługi hydrauliczne, Pompy ciepła, Ogrzewanie podłogowe, Instalacje gazowe.",
    "phone_number": "+48510485790",
    "source_url": "https://www.google.com/maps/place/Instalkos+-+Us%C5%82ugi+hydrauliczne,+Pompy+ciep%C5%82a,+Ogrzewanie+pod%C5%82ogowe,+Instalacje+gazowe./data=!4m7!3m6!1s0x470444ce361ee5d3:0xbd3e85d16851215b!8m2!3d52.4042737!4d16.8948005!16s%2Fg%2F11f54k7znf!19sChIJ0-UeNs5EBEcRWyFRaNGFPr0?authuser=0&hl=tr&rclk=1",
    "website_url": "http://instalkos.pl/",
    "rating_text": "5,0",
    "stars": null,
    "number_of_reviews": null,
    "price_level": "",
    "open_hours": "",
    "extraction_timestamp": "2025-06-07T17:54:56.744Z",
    "source_name": "google",
    "source_query": "Irrigation Equipment",
    "source_country": "PL",
    "country": "Poland",
    "state": "Greater Poland Voivodeship",
    "city": "Poznań"
  },
  {
    "source_id": "ChIJA0aoFFVaBEcRUDG0cZBTfKA",
    "name": "PROFITANK",
    "category": "PROFITANK",
    "formatted_address": "5,0(3)",
    "phone_number": "+48793003330",
    "source_url": "https://www.google.com/maps/place/PROFITANK/data=!4m7!3m6!1s0x47045a5514a84603:0xa07c539071b43150!8m2!3d52.3672361!4d16.9806108!16s%2Fg%2F11hyxnkjjg!19sChIJA0aoFFVaBEcRUDG0cZBTfKA?authuser=0&hl=tr&rclk=1",
    "website_url": "https://profitank.pl/kontakt/",
    "rating_text": "5,0",
    "stars": null,
    "number_of_reviews": null,
    "price_level": "",
    "open_hours": "",
    "extraction_timestamp": "2025-06-07T17:54:56.745Z",
    "source_name": "google",
    "source_query": "Irrigation Equipment",
    "source_country": "PL",
    "country": "Poland",
    "state": "Greater Poland Voivodeship",
    "city": "Poznań"
  },
  {
    "source_id": "ChIJwxC1X09EBEcRLzaLJfk4rD8",
    "name": "OASE - Oczko Wodne Polski Autoryzowany Sklep internetowy Złoty Przedstawiciel Nawadnianie Podlewanie Hunter, Raibird,Rossi",
    "category": "OASE - Oczko Wodne Polski Autoryzowany Sklep internetowy Złoty Przedstawiciel Nawadnianie Podlewanie Hunter, Raibird,Rossi",
    "formatted_address": "OASE - Oczko Wodne Polski Autoryzowany Sklep internetowy Złoty Przedstawiciel Nawadnianie Podlewanie Hunter, Raibird,Rossi",
    "phone_number": "+48618842498",
    "source_url": "https://www.google.com/maps/place/OASE+-+Oczko+Wodne+Polski+Autoryzowany+Sklep+internetowy+Z%C5%82oty+Przedstawiciel+Nawadnianie+Podlewanie+Hunter,+Raibird,Rossi/data=!4m7!3m6!1s0x4704444f5fb510c3:0x3fac38f9258b362f!8m2!3d52.4364533!4d16.8327227!16s%2Fg%2F1hc96cvd0!19sChIJwxC1X09EBEcRLzaLJfk4rD8?authuser=0&hl=tr&rclk=1",
    "website_url": "",
    "rating_text": "4,6",
    "stars": null,
    "number_of_reviews": null,
    "price_level": "",
    "open_hours": "",
    "extraction_timestamp": "2025-06-07T17:54:56.746Z",
    "source_name": "google",
    "source_query": "Irrigation Equipment",
    "source_country": "PL",
    "country": "Poland",
    "state": "Greater Poland Voivodeship",
    "city": "Poznań"
  },
  {
    "source_id": "ChIJ1fLMWVJPBEcRJPhBeWYu2o0",
    "name": "Suszarnia24h.pl",
    "category": "Suszarnia24h.pl",
    "formatted_address": "4,8(18)",
    "phone_number": "+48881743107",
    "source_url": "https://www.google.com/maps/place/Suszarnia24h.pl/data=!4m7!3m6!1s0x47044f5259ccf2d5:0x8dda2e667941f824!8m2!3d52.3930371!4d16.8374908!16s%2Fg%2F11q8gb7f6g!19sChIJ1fLMWVJPBEcRJPhBeWYu2o0?authuser=0&hl=tr&rclk=1",
    "website_url": "https://www.suszarnia24h.pl/",
    "rating_text": "4,8",
    "stars": null,
    "number_of_reviews": null,
    "price_level": "",
    "open_hours": "",
    "extraction_timestamp": "2025-06-07T17:54:56.747Z",
    "source_name": "google",
    "source_query": "Irrigation Equipment",
    "source_country": "PL",
    "country": "Poland",
    "state": "Greater Poland Voivodeship",
    "city": "Poznań"
  },
  {
    "source_id": "ChIJBd16xidEBEcR7aQ-QZu7yNw",
    "name": "INSTALDOM - Sprzedaż art. instalacyjno - sanitarnych",
    "category": "INSTALDOM - Sprzedaż art. instalacyjno - sanitarnych",
    "formatted_address": "4,8(207)",
    "phone_number": "+48606247761",
    "source_url": "https://www.google.com/maps/place/INSTALDOM+-+Sprzeda%C5%BC+art.+instalacyjno+-+sanitarnych/data=!4m7!3m6!1s0x47044427c67add05:0xdcc8bb9b413ea4ed!8m2!3d52.424116!4d16.785799!16s%2Fg%2F1wg5wq5y!19sChIJBd16xidEBEcR7aQ-QZu7yNw?authuser=0&hl=tr&rclk=1",
    "website_url": "",
    "rating_text": "4,8",
    "stars": null,
    "number_of_reviews": null,
    "price_level": "",
    "open_hours": "",
    "extraction_timestamp": "2025-06-07T17:54:56.748Z",
    "source_name": "google",
    "source_query": "Irrigation Equipment",
    "source_country": "PL",
    "country": "Poland",
    "state": "Greater Poland Voivodeship",
    "city": "Poznań"
  },
  {
    "source_id": "ChIJQzbH-L9EBEcRGcpQrYPmLms",
    "name": "TSM Osuszanie Budynków Szurgot Sp k",
    "category": "TSM Osuszanie Budynków Szurgot Sp k",
    "formatted_address": "5,0(86)",
    "phone_number": "+48533555883",
    "source_url": "https://www.google.com/maps/place/TSM+Osuszanie+Budynk%C3%B3w+Szurgot+Sp+k/data=!4m7!3m6!1s0x470444bff8c73643:0x6b2ee683ad50ca19!8m2!3d52.4157513!4d16.8818183!16s%2Fg%2F11b6q4xnx0!19sChIJQzbH-L9EBEcRGcpQrYPmLms?authuser=0&hl=tr&rclk=1",
    "website_url": "https://suszenie.com/osuszanie-poznan/",
    "rating_text": "5,0",
    "stars": null,
    "number_of_reviews": null,
    "price_level": "",
    "open_hours": "",
    "extraction_timestamp": "2025-06-07T17:54:56.749Z",
    "source_name": "google",
    "source_query": "Irrigation Equipment",
    "source_country": "PL",
    "country": "Poland",
    "state": "Greater Poland Voivodeship",
    "city": "Poznań"
  },
  {
    "source_id": "ChIJffzpBPhCBEcRTpIULusO5jg",
    "name": "Morasko Meteorite Nature Reserve",
    "category": "Morasko Meteorite Nature Reserve",
    "formatted_address": "4,6(1.479)",
    "phone_number": "",
    "source_url": "https://www.google.com/maps/place/Morasko+Meteorite+Nature+Reserve/data=!4m7!3m6!1s0x470442f804e9fc7d:0x38e60eeb2e14924e!8m2!3d52.4900898!4d16.896038!16zL20vMDNidHBf!19sChIJffzpBPhCBEcRTpIULusO5jg?authuser=0&hl=tr&rclk=1",
    "website_url": "",
    "rating_text": "4,6",
    "stars": null,
    "number_of_reviews": null,
    "price_level": "",
    "open_hours": "",
    "extraction_timestamp": "2025-06-07T17:54:56.750Z",
    "source_name": "google",
    "source_query": "Irrigation Equipment",
    "source_country": "PL",
    "country": "Poland",
    "state": "Greater Poland Voivodeship",
    "city": "Poznań"
  },
  {
    "source_id": "ChIJq3ZuChspzY0RlAcbMNY5mRg",
    "name": "PODLEWAMY24.pl",
    "category": "PODLEWAMY24.pl",
    "formatted_address": "5,0(43)",
    "phone_number": "+48509215271",
    "source_url": "https://www.google.com/maps/place/PODLEWAMY24.pl/data=!4m7!3m6!1s0x8dcd291b0a6e76ab:0x189939d6301b0794!8m2!3d52.2778206!4d16.9790131!16s%2Fg%2F11rhfnnqkx!19sChIJq3ZuChspzY0RlAcbMNY5mRg?authuser=0&hl=tr&rclk=1",
    "website_url": "http://www.podlewamy24.pl/",
    "rating_text": "5,0",
    "stars": null,
    "number_of_reviews": null,
    "price_level": "",
    "open_hours": "",
    "extraction_timestamp": "2025-06-07T17:54:56.751Z",
    "source_name": "google",
    "source_query": "Irrigation Equipment",
    "source_country": "PL",
    "country": "Poland",
    "state": "Greater Poland Voivodeship",
    "city": "Poznań"
  },
  {
    "source_id": "ChIJTY65tqhGBEcRck6R_fP2Bwk",
    "name": "Grundfos Pompy Sp. z o.o.",
    "category": "Grundfos Pompy Sp. z o.o.",
    "formatted_address": "3,8(4)",
    "phone_number": "+48616501300",
    "source_url": "https://www.google.com/maps/place/Grundfos+Pompy+Sp.+z+o.o./data=!4m7!3m6!1s0x470446a8b6b98e4d:0x907f6f3fd914e72!8m2!3d52.4401419!4d16.7865605!16s%2Fg%2F1tfpyk3d!19sChIJTY65tqhGBEcRck6R_fP2Bwk?authuser=0&hl=tr&rclk=1",
    "website_url": "https://www.grundfos.com/pl",
    "rating_text": "3,8",
    "stars": null,
    "number_of_reviews": null,
    "price_level": "",
    "open_hours": "",
    "extraction_timestamp": "2025-06-07T17:54:56.752Z",
    "source_name": "google",
    "source_query": "Irrigation Equipment",
    "source_country": "PL",
    "country": "Poland",
    "state": "Greater Poland Voivodeship",
    "city": "Poznań"
  },
  {
    "source_id": "ChIJyZjmqD1bBEcRYqRiUZRkcyk",
    "name": "ZIELONO MI - zakładanie, pielęgnacja, nawadnianie ogrodów i inne usługi ogrodnicze",
    "category": "ZIELONO MI - zakładanie, pielęgnacja, nawadnianie ogrodów i inne usługi ogrodnicze",
    "formatted_address": "ZIELONO MI - zakładanie, pielęgnacja, nawadnianie ogrodów i inne usługi ogrodnicze",
    "phone_number": "+48600554434",
    "source_url": "https://www.google.com/maps/place/ZIELONO+MI+-+zak%C5%82adanie,+piel%C4%99gnacja,+nawadnianie+ogrod%C3%B3w+i+inne+us%C5%82ugi+ogrodnicze/data=!4m7!3m6!1s0x47045b3da8e698c9:0x297364945162a462!8m2!3d52.4003319!4d16.9337693!16s%2Fg%2F1tdz83c3!19sChIJyZjmqD1bBEcRYqRiUZRkcyk?authuser=0&hl=tr&rclk=1",
    "website_url": "http://www.zielono-mi.com.pl/",
    "rating_text": "4,5",
    "stars": null,
    "number_of_reviews": null,
    "price_level": "",
    "open_hours": "",
    "extraction_timestamp": "2025-06-07T17:54:56.753Z",
    "source_name": "google",
    "source_query": "Irrigation Equipment",
    "source_country": "PL",
    "country": "Poland",
    "state": "Greater Poland Voivodeship",
    "city": "Poznań"
  },
  {
    "source_id": "ChIJG_rdICdFBEcR5tx-9jjIOW8",
    "name": "Metalik s.c.",
    "category": "Metalik s.c.",
    "formatted_address": "4,7(71)",
    "phone_number": "+48618617814",
    "source_url": "https://www.google.com/maps/place/Metalik+s.c./data=!4m7!3m6!1s0x4704452720ddfa1b:0x6f39c838f67edce6!8m2!3d52.3921397!4d16.8762206!16s%2Fg%2F1q62hzx47!19sChIJG_rdICdFBEcR5tx-9jjIOW8?authuser=0&hl=tr&rclk=1",
    "website_url": "http://www.metalik-sc.pl/",
    "rating_text": "4,7",
    "stars": null,
    "number_of_reviews": null,
    "price_level": "",
    "open_hours": "",
    "extraction_timestamp": "2025-06-07T17:54:56.755Z",
    "source_name": "google",
    "source_query": "Irrigation Equipment",
    "source_country": "PL",
    "country": "Poland",
    "state": "Greater Poland Voivodeship",
    "city": "Poznań"
  },
  {
    "source_id": "ChIJkY2el0dFBEcRE2J6wcV8zVk",
    "name": "AQUA TEAM 24H POGOTOWIE HYDRAULICZNE POZNAŃ UDRAŻNIANIE RUR",
    "category": "AQUA TEAM 24H POGOTOWIE HYDRAULICZNE POZNAŃ UDRAŻNIANIE RUR",
    "formatted_address": "4,7(43)",
    "phone_number": "+48503433057",
    "source_url": "https://www.google.com/maps/place/AQUA+TEAM+24H+POGOTOWIE+HYDRAULICZNE+POZNA%C5%83+UDRA%C5%BBNIANIE+RUR/data=!4m7!3m6!1s0x47044547979e8d91:0x59cd7cc5c17a6213!8m2!3d52.4242668!4d16.9162925!16s%2Fg%2F11jb8lsjrc!19sChIJkY2el0dFBEcRE2J6wcV8zVk?authuser=0&hl=tr&rclk=1",
    "website_url": "https://hydraulik-awarie-poznan.localo.site/?utm_source=google_profile&utm_campaign=localo&utm_medium=mainlink",
    "rating_text": "4,7",
    "stars": null,
    "number_of_reviews": null,
    "price_level": "",
    "open_hours": "",
    "extraction_timestamp": "2025-06-07T17:54:56.756Z",
    "source_name": "google",
    "source_query": "Irrigation Equipment",
    "source_country": "PL",
    "country": "Poland",
    "state": "Greater Poland Voivodeship",
    "city": "Poznań"
  },
  {
    "source_id": "ChIJ1fH8twRdBEcRWGX6D1tc3ZA",
    "name": "Kardoliński Zbigniew. Pompy głębinowe, hydroforowe, ściekowe",
    "category": "Kardoliński Zbigniew. Pompy głębinowe, hydroforowe, ściekowe",
    "formatted_address": "Kardoliński Zbigniew. Pompy głębinowe, hydroforowe, ściekowe",
    "phone_number": "",
    "source_url": "https://www.google.com/maps/place/Kardoli%C5%84ski+Zbigniew.+Pompy+g%C5%82%C4%99binowe,+hydroforowe,+%C5%9Bciekowe/data=!4m7!3m6!1s0x47045d04b7fcf1d5:0x90dd5c5b0ffa6558!8m2!3d52.4712374!4d16.9991202!16s%2Fg%2F1tfwj1tc!19sChIJ1fH8twRdBEcRWGX6D1tc3ZA?authuser=0&hl=tr&rclk=1",
    "website_url": "http://www.pompykardolinski.pl/",
    "rating_text": "4,8",
    "stars": null,
    "number_of_reviews": null,
    "price_level": "",
    "open_hours": "",
    "extraction_timestamp": "2025-06-07T17:54:56.756Z",
    "source_name": "google",
    "source_query": "Irrigation Equipment",
    "source_country": "PL",
    "country": "Poland",
    "state": "Greater Poland Voivodeship",
    "city": "Poznań"
  },
  {
    "source_id": "ChIJUQow7dhEBEcROIEBsyxOuHE",
    "name": "Domowa Uprawa",
    "category": "Domowa Uprawa",
    "formatted_address": "4,4(63)",
    "phone_number": "+48788516592",
    "source_url": "https://www.google.com/maps/place/Domowa+Uprawa/data=!4m7!3m6!1s0x470444d8ed300a51:0x71b84e2cb3018138!8m2!3d52.3955619!4d16.8794529!16s%2Fg%2F12hk1kgtr!19sChIJUQow7dhEBEcROIEBsyxOuHE?authuser=0&hl=tr&rclk=1",
    "website_url": "https://domowauprawa.pl/",
    "rating_text": "4,4",
    "stars": null,
    "number_of_reviews": null,
    "price_level": "",
    "open_hours": "",
    "extraction_timestamp": "2025-06-07T17:54:56.757Z",
    "source_name": "google",
    "source_query": "Irrigation Equipment",
    "source_country": "PL",
    "country": "Poland",
    "state": "Greater Poland Voivodeship",
    "city": "Poznań"
  },
  {
    "source_id": "ChIJfbzPRsZFBEcR9dFkwo9BoVw",
    "name": "Grambet Grupa SBS M i M. Gucia Sp. k. - Hurtownia instalacyjna i detaliczna sprzedaż urządzeń grzewczych, c.o i armatury",
    "category": "Grambet Grupa SBS M i M. Gucia Sp. k. - Hurtownia instalacyjna i detaliczna sprzedaż urządzeń grzewczych, c.o i armatury",
    "formatted_address": "Grambet Grupa SBS M i M. Gucia Sp. k. - Hurtownia instalacyjna i detaliczna sprzedaż urządzeń grzewczych, c.o i armatury",
    "phone_number": "+48618143770",
    "source_url": "https://www.google.com/maps/place/Grambet+Grupa+SBS+M+i+M.+Gucia+Sp.+k.+-+Hurtownia+instalacyjna+i+detaliczna+sprzeda%C5%BC+urz%C4%85dze%C5%84+grzewczych,+c.o+i+armatury/data=!4m7!3m6!1s0x470445c646cfbc7d:0x5ca1418fc264d1f5!8m2!3d52.393734!4d16.796723!16s%2Fg%2F1td415qy!19sChIJfbzPRsZFBEcR9dFkwo9BoVw?authuser=0&hl=tr&rclk=1",
    "website_url": "http://www.grambet.pl/",
    "rating_text": "4,7",
    "stars": null,
    "number_of_reviews": null,
    "price_level": "",
    "open_hours": "",
    "extraction_timestamp": "2025-06-07T17:54:56.758Z",
    "source_name": "google",
    "source_query": "Irrigation Equipment",
    "source_country": "PL",
    "country": "Poland",
    "state": "Greater Poland Voivodeship",
    "city": "Poznań"
  },
  {
    "source_id": "ChIJLxgXTnseWaMR0nvrdK85-Vc",
    "name": "Alkan Pogotowie Wod-Kan",
    "category": "Alkan Pogotowie Wod-Kan",
    "formatted_address": "4,7(88)",
    "phone_number": "+48503373736",
    "source_url": "https://www.google.com/maps/place/Alkan+Pogotowie+Wod-Kan/data=!4m7!3m6!1s0xa3591e7b4e17182f:0x57f939af74eb7bd2!8m2!3d51.5452265!4d17.8885242!16s%2Fg%2F11t4w_p15v!19sChIJLxgXTnseWaMR0nvrdK85-Vc?authuser=0&hl=tr&rclk=1",
    "website_url": "https://alkan-poznan.pl/",
    "rating_text": "4,7",
    "stars": null,
    "number_of_reviews": null,
    "price_level": "",
    "open_hours": "",
    "extraction_timestamp": "2025-06-07T17:54:56.759Z",
    "source_name": "google",
    "source_query": "Irrigation Equipment",
    "source_country": "PL",
    "country": "Poland",
    "state": "Greater Poland Voivodeship",
    "city": "Poznań"
  },
  {
    "source_id": "ChIJmZX5SURbBEcRH19fmgPX0nM",
    "name": "Ulgaz - Shop Gas Industry",
    "category": "Ulgaz - Shop Gas Industry",
    "formatted_address": "4,5(43)",
    "phone_number": "+48618526263",
    "source_url": "https://www.google.com/maps/place/Ulgaz+-+Shop+Gas+Industry/data=!4m7!3m6!1s0x47045b4449f99599:0x73d2d7039a5f5f1f!8m2!3d52.4263386!4d16.9335512!16s%2Fg%2F1td36yr4!19sChIJmZX5SURbBEcRH19fmgPX0nM?authuser=0&hl=tr&rclk=1",
    "website_url": "https://www.ulgaz.pl/",
    "rating_text": "4,5",
    "stars": null,
    "number_of_reviews": null,
    "price_level": "",
    "open_hours": "",
    "extraction_timestamp": "2025-06-07T17:54:56.760Z",
    "source_name": "google",
    "source_query": "Irrigation Equipment",
    "source_country": "PL",
    "country": "Poland",
    "state": "Greater Poland Voivodeship",
    "city": "Poznań"
  }
]
