[
  {
    "source_id": "ChIJUfn2Ig35A0cREW9fZ4029UM",
    "name": "IMTechnika sp. z o.o.",
    "category": "IMTechnika sp. z o.o.",
    "formatted_address": "4,4(17)",
    "phone_number": "+48883820388",
    "source_url": "https://www.google.com/maps/place/IMTechnika+sp.+z+o.o./data=!4m7!3m6!1s0x4703f90d22f6f951:0x43f5368d675f6f11!8m2!3d52.9756271!4d16.657836!16s%2Fg%2F11bw48_6mg!19sChIJUfn2Ig35A0cREW9fZ4029UM?authuser=0&hl=tr&rclk=1",
    "website_url": "http://imtechnika.pl/",
    "rating_text": "4,4",
    "stars": null,
    "number_of_reviews": null,
    "price_level": "",
    "open_hours": "",
    "extraction_timestamp": "2025-06-07T17:28:46.100Z",
    "source_name": "google",
    "source_query": "Irrigation Equipment",
    "source_country": "PL",
    "country": "Poland",
    "state": "Greater Poland Voivodeship",
    "city": "Połajewo"
  },
  {
    "source_id": "ChIJ4zc6v4hZBEcRKah1mzKBwPg",
    "name": "PHU \"ADVISER\" - Systemy nawadniania",
    "category": "PHU \"ADVISER\" - Systemy nawadniania",
    "formatted_address": "4,8(123)",
    "phone_number": "+48618798700",
    "source_url": "https://www.google.com/maps/place/PHU+%22ADVISER%22+-+Systemy+nawadniania/data=!4m7!3m6!1s0x47045988bf3a37e3:0xf8c081329b75a829!8m2!3d52.3434333!4d17.0287055!16s%2Fg%2F1w3459w5!19sChIJ4zc6v4hZBEcRKah1mzKBwPg?authuser=0&hl=tr&rclk=1",
    "website_url": "http://www.phu-adviser.pl/",
    "rating_text": "4,8",
    "stars": null,
    "number_of_reviews": null,
    "price_level": "",
    "open_hours": "",
    "extraction_timestamp": "2025-06-07T17:28:46.102Z",
    "source_name": "google",
    "source_query": "Irrigation Equipment",
    "source_country": "PL",
    "country": "Poland",
    "state": "Greater Poland Voivodeship",
    "city": "Połajewo"
  },
  {
    "source_id": "ChIJFVCITOVPBEcRG-lA_g1qlqk",
    "name": "Technika Wody",
    "category": "Technika Wody",
    "formatted_address": "4,6(288)",
    "phone_number": "+48502506622",
    "source_url": "https://www.google.com/maps/place/Technika+Wody/data=!4m7!3m6!1s0x47044fe54c885015:0xa9966a0dfe40e91b!8m2!3d52.3740842!4d16.819808!16s%2Fg%2F11b7vsdjf5!19sChIJFVCITOVPBEcRG-lA_g1qlqk?authuser=0&hl=tr&rclk=1",
    "website_url": "http://technikawody.pl/",
    "rating_text": "4,6",
    "stars": null,
    "number_of_reviews": null,
    "price_level": "",
    "open_hours": "",
    "extraction_timestamp": "2025-06-07T17:28:46.103Z",
    "source_name": "google",
    "source_query": "Irrigation Equipment",
    "source_country": "PL",
    "country": "Poland",
    "state": "Greater Poland Voivodeship",
    "city": "Połajewo"
  },
  {
    "source_id": "ChIJ82fDPAv7BEcR0t557L9SvKI",
    "name": "Agro-Weld Arkadiusz Cegłowski",
    "category": "Agro-Weld Arkadiusz Cegłowski",
    "formatted_address": "5,0(15)",
    "phone_number": "+48725140257",
    "source_url": "https://www.google.com/maps/place/Agro-Weld+Arkadiusz+Ceg%C5%82owski/data=!4m7!3m6!1s0x4704fb0b3cc367f3:0xa2bc52bfec79ded2!8m2!3d52.2281481!4d17.2572359!16s%2Fg%2F11gbf9cdj_!19sChIJ82fDPAv7BEcR0t557L9SvKI?authuser=0&hl=tr&rclk=1",
    "website_url": "https://agro-weld.pl/",
    "rating_text": "5,0",
    "stars": null,
    "number_of_reviews": null,
    "price_level": "",
    "open_hours": "",
    "extraction_timestamp": "2025-06-07T17:28:46.105Z",
    "source_name": "google",
    "source_query": "Irrigation Equipment",
    "source_country": "PL",
    "country": "Poland",
    "state": "Greater Poland Voivodeship",
    "city": "Połajewo"
  },
  {
    "source_id": "ChIJh5yUCqH7BEcRmMfxvcU_1bk",
    "name": "InduPartner",
    "category": "InduPartner",
    "formatted_address": "5,0(2)",
    "phone_number": "+48612854487",
    "source_url": "https://www.google.com/maps/place/InduPartner/data=!4m7!3m6!1s0x4704fba10a949c87:0xb9d53fc5bdf1c798!8m2!3d52.2324617!4d17.2500708!16s%2Fg%2F11h109fk2!19sChIJh5yUCqH7BEcRmMfxvcU_1bk?authuser=0&hl=tr&rclk=1",
    "website_url": "http://indupartner.pl/",
    "rating_text": "5,0",
    "stars": null,
    "number_of_reviews": null,
    "price_level": "",
    "open_hours": "",
    "extraction_timestamp": "2025-06-07T17:28:46.106Z",
    "source_name": "google",
    "source_query": "Irrigation Equipment",
    "source_country": "PL",
    "country": "Poland",
    "state": "Greater Poland Voivodeship",
    "city": "Połajewo"
  },
  {
    "source_id": "ChIJV63pw7kOBEcR_6E7wQg5Il4",
    "name": "Sklep Spożywczy \"Tęcza\"",
    "category": "Sklep Spożywczy \"Tęcza\"",
    "formatted_address": "4,8(4)",
    "phone_number": "",
    "source_url": "https://www.google.com/maps/place/Sklep+Spo%C5%BCywczy+%22T%C4%99cza%22/data=!4m7!3m6!1s0x47040eb9c3e9ad57:0x5e223908c13ba1ff!8m2!3d52.7996099!4d16.7329246!16s%2Fg%2F11c453k9gs!19sChIJV63pw7kOBEcR_6E7wQg5Il4?authuser=0&hl=tr&rclk=1",
    "website_url": "",
    "rating_text": "4,8",
    "stars": null,
    "number_of_reviews": null,
    "price_level": "",
    "open_hours": "",
    "extraction_timestamp": "2025-06-07T17:28:46.108Z",
    "source_name": "google",
    "source_query": "Irrigation Equipment",
    "source_country": "PL",
    "country": "Poland",
    "state": "Greater Poland Voivodeship",
    "city": "Połajewo"
  },
  {
    "source_id": "ChIJOcWoToO26GMReNvhll3JWj4",
    "name": "Hydreen.pl | Automatyczne systemy nawadniające. Projektowanie, dostawa, montaż, serwis.",
    "category": "Hydreen.pl | Automatyczne systemy nawadniające. Projektowanie, dostawa, montaż, serwis.",
    "formatted_address": "Hydreen.pl | Automatyczne systemy nawadniające. Projektowanie, dostawa, montaż, serwis.",
    "phone_number": "+48694429669",
    "source_url": "https://www.google.com/maps/place/Hydreen.pl+%7C+Automatyczne+systemy+nawadniaj%C4%85ce.+Projektowanie,+dostawa,+monta%C5%BC,+serwis./data=!4m7!3m6!1s0x63e8b6834ea8c539:0x3e5ac95d96e1db78!8m2!3d54.1601!4d19.4437316!16s%2Fg%2F11m67mc1_m!19sChIJOcWoToO26GMReNvhll3JWj4?authuser=0&hl=tr&rclk=1",
    "website_url": "https://www.hydreen.pl/",
    "rating_text": "5,0",
    "stars": null,
    "number_of_reviews": null,
    "price_level": "",
    "open_hours": "",
    "extraction_timestamp": "2025-06-07T17:28:46.110Z",
    "source_name": "google",
    "source_query": "Irrigation Equipment",
    "source_country": "PL",
    "country": "Poland",
    "state": "Greater Poland Voivodeship",
    "city": "Połajewo"
  },
  {
    "source_id": "ChIJB6y_v5J2HEcRlDfYx3xmc9M",
    "name": "Milex irrigation systems",
    "category": "Milex irrigation systems",
    "formatted_address": "4,6(37)",
    "phone_number": "+48242775222",
    "source_url": "https://www.google.com/maps/place/Milex+irrigation+systems/data=!4m7!3m6!1s0x471c7692bfbfac07:0xd373667cc7d83794!8m2!3d52.4690634!4d19.7520904!16s%2Fg%2F1w2yy67r!19sChIJB6y_v5J2HEcRlDfYx3xmc9M?authuser=0&hl=tr&rclk=1",
    "website_url": "https://www.milex.pl/",
    "rating_text": "4,6",
    "stars": null,
    "number_of_reviews": null,
    "price_level": "",
    "open_hours": "",
    "extraction_timestamp": "2025-06-07T17:28:46.111Z",
    "source_name": "google",
    "source_query": "Irrigation Equipment",
    "source_country": "PL",
    "country": "Poland",
    "state": "Greater Poland Voivodeship",
    "city": "Połajewo"
  },
  {
    "source_id": "ChIJVTV3W_PzBEcR6gY0xwQi2_E",
    "name": "Deszczownie.com",
    "category": "Deszczownie.com",
    "formatted_address": "",
    "phone_number": "+48726000030",
    "source_url": "https://www.google.com/maps/place/Deszczownie.com/data=!4m7!3m6!1s0x4704f3f35b773555:0xf1db2204c73406ea!8m2!3d52.3623948!4d17.4021087!16s%2Fg%2F11y3pv4rxr!19sChIJVTV3W_PzBEcR6gY0xwQi2_E?authuser=0&hl=tr&rclk=1",
    "website_url": "https://www.deszczownie.com/",
    "rating_text": "",
    "stars": null,
    "number_of_reviews": null,
    "price_level": "",
    "open_hours": "",
    "extraction_timestamp": "2025-06-07T17:28:46.113Z",
    "source_name": "google",
    "source_query": "Irrigation Equipment",
    "source_country": "PL",
    "country": "Poland",
    "state": "Greater Poland Voivodeship",
    "city": "Połajewo"
  }
]
