[
  {
    "source_id": "ChIJB6y_v5J2HEcRlDfYx3xmc9M",
    "name": "Milex irrigation systems",
    "category": "Milex irrigation systems",
    "formatted_address": "4,6(37)",
    "phone_number": "+48242775222",
    "source_url": "https://www.google.com/maps/place/Milex+irrigation+systems/data=!4m7!3m6!1s0x471c7692bfbfac07:0xd373667cc7d83794!8m2!3d52.4690634!4d19.7520904!16s%2Fg%2F1w2yy67r!19sChIJB6y_v5J2HEcRlDfYx3xmc9M?authuser=0&hl=tr&rclk=1",
    "website_url": "https://www.milex.pl/",
    "rating_text": "4,6",
    "stars": null,
    "number_of_reviews": null,
    "price_level": "",
    "open_hours": "",
    "extraction_timestamp": "2025-06-07T17:29:26.759Z",
    "source_name": "google",
    "source_query": "Irrigation Equipment",
    "source_country": "PL",
    "country": "Poland",
    "state": "Greater Poland Voivodeship",
    "city": "Przedecz"
  },
  {
    "source_id": "ChIJ4VGdsoqXD0cRj7XDKBsbQCU",
    "name": "Hydro-Dyna",
    "category": "Hydro-Dyna",
    "formatted_address": "4,9(65)",
    "phone_number": "+48512339394",
    "source_url": "https://www.google.com/maps/place/Hydro-Dyna/data=!4m7!3m6!1s0x470f978ab29d51e1:0x25401b1b28c3b58f!8m2!3d51.1887671!4d16.6656378!16s%2Fg%2F1th273bz!19sChIJ4VGdsoqXD0cRj7XDKBsbQCU?authuser=0&hl=tr&rclk=1",
    "website_url": "https://www.hydro-dyna.pl/",
    "rating_text": "4,9",
    "stars": null,
    "number_of_reviews": null,
    "price_level": "",
    "open_hours": "",
    "extraction_timestamp": "2025-06-07T17:29:26.760Z",
    "source_name": "google",
    "source_query": "Irrigation Equipment",
    "source_country": "PL",
    "country": "Poland",
    "state": "Greater Poland Voivodeship",
    "city": "Przedecz"
  },
  {
    "source_id": "ChIJu5bX-rKTD0cRb-JUCiAszIw",
    "name": "Drips - Systemy Nawadniania Nawodnienia Ogrodów i Upraw",
    "category": "Drips - Systemy Nawadniania Nawodnienia Ogrodów i Upraw",
    "formatted_address": "4,3(12)",
    "phone_number": "+48509854937",
    "source_url": "https://www.google.com/maps/place/Drips+-+Systemy+Nawadniania+Nawodnienia+Ogrod%C3%B3w+i+Upraw/data=!4m7!3m6!1s0x470f93b2fad796bb:0x8ccc2c200a54e26f!8m2!3d51.2493923!4d16.9335226!16s%2Fg%2F11sp5jd_l6!19sChIJu5bX-rKTD0cRb-JUCiAszIw?authuser=0&hl=tr&rclk=1",
    "website_url": "http://www.nawodnienia-drips.pl/",
    "rating_text": "4,3",
    "stars": null,
    "number_of_reviews": null,
    "price_level": "",
    "open_hours": "",
    "extraction_timestamp": "2025-06-07T17:29:26.760Z",
    "source_name": "google",
    "source_query": "Irrigation Equipment",
    "source_country": "PL",
    "country": "Poland",
    "state": "Greater Poland Voivodeship",
    "city": "Przedecz"
  },
  {
    "source_id": "ChIJmUgDE-VuG0cRRXTNwpf7qHI",
    "name": "Bis sp.j. FH. Woźniak J., Modrzejewski M.",
    "category": "Bis sp.j. FH. Woźniak J., Modrzejewski M.",
    "formatted_address": "Bis sp.j. FH. Woźniak J., Modrzejewski M.",
    "phone_number": "+48632738747",
    "source_url": "https://www.google.com/maps/place/Bis+sp.j.+FH.+Wo%C5%BAniak+J.,+Modrzejewski+M./data=!4m7!3m6!1s0x471b6ee513034899:0x72a8fb97c2cd7445!8m2!3d52.333858!4d18.8998434!16s%2Fg%2F1tf06dwp!19sChIJmUgDE-VuG0cRRXTNwpf7qHI?authuser=0&hl=tr&rclk=1",
    "website_url": "",
    "rating_text": "4,3",
    "stars": null,
    "number_of_reviews": null,
    "price_level": "",
    "open_hours": "",
    "extraction_timestamp": "2025-06-07T17:29:26.760Z",
    "source_name": "google",
    "source_query": "Irrigation Equipment",
    "source_country": "PL",
    "country": "Poland",
    "state": "Greater Poland Voivodeship",
    "city": "Przedecz"
  },
  {
    "source_id": "ChIJuURpljPKHkcRbHI_RgEM7_8",
    "name": "Sprinkler Sp. z o.o.",
    "category": "Sprinkler Sp. z o.o.",
    "formatted_address": "5,0(2)",
    "phone_number": "+48662141039",
    "source_url": "https://www.google.com/maps/place/Sprinkler+Sp.+z+o.o./data=!4m7!3m6!1s0x471eca33966944b9:0xffef0c01463f726c!8m2!3d52.2406666!4d20.9087774!16s%2Fg%2F11f10g71_3!19sChIJuURpljPKHkcRbHI_RgEM7_8?authuser=0&hl=tr&rclk=1",
    "website_url": "http://www.sprinkler.pl/",
    "rating_text": "5,0",
    "stars": null,
    "number_of_reviews": null,
    "price_level": "",
    "open_hours": "",
    "extraction_timestamp": "2025-06-07T17:29:26.760Z",
    "source_name": "google",
    "source_query": "Irrigation Equipment",
    "source_country": "PL",
    "country": "Poland",
    "state": "Greater Poland Voivodeship",
    "city": "Przedecz"
  },
  {
    "source_id": "ChIJdRnGeDBaBEcRpyx7M8s1JkQ",
    "name": "Wirtgen Polska Sp. z o.o.",
    "category": "Wirtgen Polska Sp. z o.o.",
    "formatted_address": "4,4(31)",
    "phone_number": "+48618982100",
    "source_url": "https://www.google.com/maps/place/Wirtgen+Polska+Sp.+z+o.o./data=!4m7!3m6!1s0x47045a3078c61975:0x442635cb337b2ca7!8m2!3d52.3665338!4d16.9940075!16s%2Fg%2F1pv043rwn!19sChIJdRnGeDBaBEcRpyx7M8s1JkQ?authuser=0&hl=tr&rclk=1",
    "website_url": "https://www.wirtgen-group.com/polska/",
    "rating_text": "4,4",
    "stars": null,
    "number_of_reviews": null,
    "price_level": "",
    "open_hours": "",
    "extraction_timestamp": "2025-06-07T17:29:26.760Z",
    "source_name": "google",
    "source_query": "Irrigation Equipment",
    "source_country": "PL",
    "country": "Poland",
    "state": "Greater Poland Voivodeship",
    "city": "Przedecz"
  },
  {
    "source_id": "ChIJG3BY94rNB0cRYr59_NTw5XI",
    "name": "Patek",
    "category": "Patek",
    "formatted_address": "4,9(19)",
    "phone_number": "+48508288250",
    "source_url": "https://www.google.com/maps/place/Patek/data=!4m7!3m6!1s0x4707cd8af758701b:0x72e5f0d4fc7dbe62!8m2!3d51.9470665!4d14.7588764!16s%2Fg%2F11b5qwvwgx!19sChIJG3BY94rNB0cRYr59_NTw5XI?authuser=0&hl=tr&rclk=1",
    "website_url": "http://www.patek.com.pl/",
    "rating_text": "4,9",
    "stars": null,
    "number_of_reviews": null,
    "price_level": "",
    "open_hours": "",
    "extraction_timestamp": "2025-06-07T17:29:26.761Z",
    "source_name": "google",
    "source_query": "Irrigation Equipment",
    "source_country": "PL",
    "country": "Poland",
    "state": "Greater Poland Voivodeship",
    "city": "Przedecz"
  },
  {
    "source_id": "ChIJOcWoToO26GMReNvhll3JWj4",
    "name": "Hydreen.pl | Automatyczne systemy nawadniające. Projektowanie, dostawa, montaż, serwis.",
    "category": "Hydreen.pl | Automatyczne systemy nawadniające. Projektowanie, dostawa, montaż, serwis.",
    "formatted_address": "Hydreen.pl | Automatyczne systemy nawadniające. Projektowanie, dostawa, montaż, serwis.",
    "phone_number": "+48694429669",
    "source_url": "https://www.google.com/maps/place/Hydreen.pl+%7C+Automatyczne+systemy+nawadniaj%C4%85ce.+Projektowanie,+dostawa,+monta%C5%BC,+serwis./data=!4m7!3m6!1s0x63e8b6834ea8c539:0x3e5ac95d96e1db78!8m2!3d54.1601!4d19.4437316!16s%2Fg%2F11m67mc1_m!19sChIJOcWoToO26GMReNvhll3JWj4?authuser=0&hl=tr&rclk=1",
    "website_url": "https://www.hydreen.pl/",
    "rating_text": "5,0",
    "stars": null,
    "number_of_reviews": null,
    "price_level": "",
    "open_hours": "",
    "extraction_timestamp": "2025-06-07T17:29:26.761Z",
    "source_name": "google",
    "source_query": "Irrigation Equipment",
    "source_country": "PL",
    "country": "Poland",
    "state": "Greater Poland Voivodeship",
    "city": "Przedecz"
  },
  {
    "source_id": "ChIJtXACk_FuG0cRQDMm_7r3C2U",
    "name": "Sklep Polski",
    "category": "Sklep Polski",
    "formatted_address": "4,1(92)",
    "phone_number": "+48508288536",
    "source_url": "https://www.google.com/maps/place/Sklep+Polski/data=!4m7!3m6!1s0x471b6ef1930270b5:0x650bf7baff263340!8m2!3d52.330463!4d18.9025294!16s%2Fg%2F1tdnc_pb!19sChIJtXACk_FuG0cRQDMm_7r3C2U?authuser=0&hl=tr&rclk=1",
    "website_url": "https://www.skleppolski.pl/",
    "rating_text": "4,1",
    "stars": null,
    "number_of_reviews": null,
    "price_level": "",
    "open_hours": "",
    "extraction_timestamp": "2025-06-07T17:29:26.761Z",
    "source_name": "google",
    "source_query": "Irrigation Equipment",
    "source_country": "PL",
    "country": "Poland",
    "state": "Greater Poland Voivodeship",
    "city": "Przedecz"
  },
  {
    "source_id": "ChIJc7xs1UzEA0cRp95OYuZwBiY",
    "name": "FH Ideal",
    "category": "FH Ideal",
    "formatted_address": "3,3(9)",
    "phone_number": "+48602828000",
    "source_url": "https://www.google.com/maps/place/FH+Ideal/data=!4m7!3m6!1s0x4703c44cd56cbc73:0x260670e6624edea7!8m2!3d53.3655152!4d17.0669221!16s%2Fg%2F1ptz6j025!19sChIJc7xs1UzEA0cRp95OYuZwBiY?authuser=0&hl=tr&rclk=1",
    "website_url": "http://www.zootechnika.sklep.pl/",
    "rating_text": "3,3",
    "stars": null,
    "number_of_reviews": null,
    "price_level": "",
    "open_hours": "",
    "extraction_timestamp": "2025-06-07T17:29:26.761Z",
    "source_name": "google",
    "source_query": "Irrigation Equipment",
    "source_country": "PL",
    "country": "Poland",
    "state": "Greater Poland Voivodeship",
    "city": "Przedecz"
  },
  {
    "source_id": "ChIJb1ZHE-RuG0cR9CstEbS90-c",
    "name": "Dino",
    "category": "Dino",
    "formatted_address": "4,4(154)",
    "phone_number": "",
    "source_url": "https://www.google.com/maps/place/Dino/data=!4m7!3m6!1s0x471b6ee41347566f:0xe7d3bdb4112d2bf4!8m2!3d52.3361071!4d18.9005248!16s%2Fg%2F11d_75gll4!19sChIJb1ZHE-RuG0cR9CstEbS90-c?authuser=0&hl=tr&rclk=1",
    "website_url": "https://marketdino.pl/",
    "rating_text": "4,4",
    "stars": null,
    "number_of_reviews": null,
    "price_level": "",
    "open_hours": "",
    "extraction_timestamp": "2025-06-07T17:29:26.761Z",
    "source_name": "google",
    "source_query": "Irrigation Equipment",
    "source_country": "PL",
    "country": "Poland",
    "state": "Greater Poland Voivodeship",
    "city": "Przedecz"
  },
  {
    "source_id": "ChIJ9eAay8yGGUcRGWYFIrSsGAU",
    "name": "AMJ Agro",
    "category": "AMJ Agro",
    "formatted_address": "4,6(29)",
    "phone_number": "+48698120806",
    "source_url": "https://www.google.com/maps/place/AMJ+Agro/data=!4m7!3m6!1s0x471986cccb1ae0f5:0x518acb422056619!8m2!3d51.601262!4d19.896457!16s%2Fg%2F11cm17zyqp!19sChIJ9eAay8yGGUcRGWYFIrSsGAU?authuser=0&hl=tr&rclk=1",
    "website_url": "https://amjagro.pl/",
    "rating_text": "4,6",
    "stars": null,
    "number_of_reviews": null,
    "price_level": "",
    "open_hours": "",
    "extraction_timestamp": "2025-06-07T17:29:26.762Z",
    "source_name": "google",
    "source_query": "Irrigation Equipment",
    "source_country": "PL",
    "country": "Poland",
    "state": "Greater Poland Voivodeship",
    "city": "Przedecz"
  },
  {
    "source_id": "ChIJO6IE14h2HEcRqwVewm2QatA",
    "name": "Józef Milewski Milex",
    "category": "Józef Milewski Milex",
    "formatted_address": "4,0(1)",
    "phone_number": "",
    "source_url": "https://www.google.com/maps/place/J%C3%B3zef+Milewski+Milex/data=!4m7!3m6!1s0x471c7688d704a23b:0xd06a906dc25e05ab!8m2!3d52.4693309!4d19.7492681!16s%2Fg%2F11h0vqcf69!19sChIJO6IE14h2HEcRqwVewm2QatA?authuser=0&hl=tr&rclk=1",
    "website_url": "",
    "rating_text": "4,0",
    "stars": null,
    "number_of_reviews": null,
    "price_level": "",
    "open_hours": "",
    "extraction_timestamp": "2025-06-07T17:29:26.762Z",
    "source_name": "google",
    "source_query": "Irrigation Equipment",
    "source_country": "PL",
    "country": "Poland",
    "state": "Greater Poland Voivodeship",
    "city": "Przedecz"
  },
  {
    "source_id": "ChIJ9cxinJg2GUcRmPrTTmBsRZw",
    "name": "Ekro Knyż Sp.j",
    "category": "Ekro Knyż Sp.j",
    "formatted_address": "4,8(32)",
    "phone_number": "+48604933325",
    "source_url": "https://www.google.com/maps/place/Ekro+Kny%C5%BC+Sp.j/data=!4m7!3m6!1s0x471936989c62ccf5:0x9c456c604ed3fa98!8m2!3d52.1262586!4d20.8581138!16s%2Fg%2F1tdnc_kr!19sChIJ9cxinJg2GUcRmPrTTmBsRZw?authuser=0&hl=tr&rclk=1",
    "website_url": "http://ekro.com.pl/",
    "rating_text": "4,8",
    "stars": null,
    "number_of_reviews": null,
    "price_level": "",
    "open_hours": "",
    "extraction_timestamp": "2025-06-07T17:29:26.762Z",
    "source_name": "google",
    "source_query": "Irrigation Equipment",
    "source_country": "PL",
    "country": "Poland",
    "state": "Greater Poland Voivodeship",
    "city": "Przedecz"
  },
  {
    "source_id": "ChIJz0SiU1hQBEcReGRvYjOdQnE",
    "name": "Powers Maszyny Sp z o.o.",
    "category": "Powers Maszyny Sp z o.o.",
    "formatted_address": "4,6(12)",
    "phone_number": "+48616247552",
    "source_url": "https://www.google.com/maps/place/Powers+Maszyny+Sp+z+o.o./data=!4m7!3m6!1s0x4704505853a244cf:0x71429d33626f6478!8m2!3d52.3151282!4d16.9125351!16s%2Fg%2F1pp2vcph4!19sChIJz0SiU1hQBEcReGRvYjOdQnE?authuser=0&hl=tr&rclk=1",
    "website_url": "http://www.powers.pl/",
    "rating_text": "4,6",
    "stars": null,
    "number_of_reviews": null,
    "price_level": "",
    "open_hours": "",
    "extraction_timestamp": "2025-06-07T17:29:26.762Z",
    "source_name": "google",
    "source_query": "Irrigation Equipment",
    "source_country": "PL",
    "country": "Poland",
    "state": "Greater Poland Voivodeship",
    "city": "Przedecz"
  },
  {
    "source_id": "ChIJO1TAnf1SEEcRxpTM-9y_8qw",
    "name": "Netafim-Irygacja Sp. z o.o.",
    "category": "Netafim-Irygacja Sp. z o.o.",
    "formatted_address": "",
    "phone_number": "+48774747629",
    "source_url": "https://www.google.com/maps/place/Netafim-Irygacja+Sp.+z+o.o./data=!4m7!3m6!1s0x471052fd9dc0543b:0xacf2bfdcfbcc94c6!8m2!3d50.6677361!4d17.9125785!16s%2Fg%2F1tnmqfmr!19sChIJO1TAnf1SEEcRxpTM-9y_8qw?authuser=0&hl=tr&rclk=1",
    "website_url": "http://www.agrofim.pl/",
    "rating_text": "",
    "stars": null,
    "number_of_reviews": null,
    "price_level": "",
    "open_hours": "",
    "extraction_timestamp": "2025-06-07T17:29:26.762Z",
    "source_name": "google",
    "source_query": "Irrigation Equipment",
    "source_country": "PL",
    "country": "Poland",
    "state": "Greater Poland Voivodeship",
    "city": "Przedecz"
  },
  {
    "source_id": "ChIJZRabHgBvG0cRpnXzlnZhlY4",
    "name": "Forever Sklep",
    "category": "Forever Sklep",
    "formatted_address": "",
    "phone_number": "+48505500699",
    "source_url": "https://www.google.com/maps/place/Forever+Sklep/data=!4m7!3m6!1s0x471b6f001e9b1665:0x8e95617696f375a6!8m2!3d52.3342682!4d18.8991063!16s%2Fg%2F11y5l_bycy!19sChIJZRabHgBvG0cRpnXzlnZhlY4?authuser=0&hl=tr&rclk=1",
    "website_url": "https://thealoeveraco.shop/jj1KAUga",
    "rating_text": "",
    "stars": null,
    "number_of_reviews": null,
    "price_level": "",
    "open_hours": "",
    "extraction_timestamp": "2025-06-07T17:29:26.763Z",
    "source_name": "google",
    "source_query": "Irrigation Equipment",
    "source_country": "PL",
    "country": "Poland",
    "state": "Greater Poland Voivodeship",
    "city": "Przedecz"
  },
  {
    "source_id": "ChIJkT3tZAIdFEcRal_OjlT6f-8",
    "name": "PERROT-POLSKA Sp. z o.o.",
    "category": "PERROT-POLSKA Sp. z o.o.",
    "formatted_address": "4,0(8)",
    "phone_number": "+48338575100",
    "source_url": "https://www.google.com/maps/place/PERROT-POLSKA+Sp.+z+o.o./data=!4m7!3m6!1s0x47141d0264ed3d91:0xef7ffa548ece5f6a!8m2!3d49.7643489!4d18.8059105!16s%2Fg%2F1tzzt7b0!19sChIJkT3tZAIdFEcRal_OjlT6f-8?authuser=0&hl=tr&rclk=1",
    "website_url": "",
    "rating_text": "4,0",
    "stars": null,
    "number_of_reviews": null,
    "price_level": "",
    "open_hours": "",
    "extraction_timestamp": "2025-06-07T17:29:26.763Z",
    "source_name": "google",
    "source_query": "Irrigation Equipment",
    "source_country": "PL",
    "country": "Poland",
    "state": "Greater Poland Voivodeship",
    "city": "Przedecz"
  },
  {
    "source_id": "ChIJ76WAmPBgGUcRnx47bXjXTwU",
    "name": "Agrofim Poland Sp. z o.o.",
    "category": "Agrofim Poland Sp. z o.o.",
    "formatted_address": "3,8(6)",
    "phone_number": "+48468332266",
    "source_url": "https://www.google.com/maps/place/Agrofim+Poland+Sp.+z+o.o./data=!4m7!3m6!1s0x471960f09880a5ef:0x54fd7786d3b1e9f!8m2!3d51.9616303!4d20.1543898!16s%2Fg%2F1tdnjw7b!19sChIJ76WAmPBgGUcRnx47bXjXTwU?authuser=0&hl=tr&rclk=1",
    "website_url": "http://agrofim.pl/",
    "rating_text": "3,8",
    "stars": null,
    "number_of_reviews": null,
    "price_level": "",
    "open_hours": "",
    "extraction_timestamp": "2025-06-07T17:29:26.763Z",
    "source_name": "google",
    "source_query": "Irrigation Equipment",
    "source_country": "PL",
    "country": "Poland",
    "state": "Greater Poland Voivodeship",
    "city": "Przedecz"
  },
  {
    "source_id": "ChIJGctNoFQqG0cRa5fqUTjfPWc",
    "name": "Markens",
    "category": "Markens",
    "formatted_address": "4,3(23)",
    "phone_number": "+48632485323",
    "source_url": "https://www.google.com/maps/place/Markens/data=!4m7!3m6!1s0x471b2a54a04dcb19:0x673ddf3851ea976b!8m2!3d52.0381951!4d18.0575461!16s%2Fg%2F11bxc630nf!19sChIJGctNoFQqG0cRa5fqUTjfPWc?authuser=0&hl=tr&rclk=1",
    "website_url": "",
    "rating_text": "4,3",
    "stars": null,
    "number_of_reviews": null,
    "price_level": "",
    "open_hours": "",
    "extraction_timestamp": "2025-06-07T17:29:26.779Z",
    "source_name": "google",
    "source_query": "Irrigation Equipment",
    "source_country": "PL",
    "country": "Poland",
    "state": "Greater Poland Voivodeship",
    "city": "Przedecz"
  },
  {
    "source_id": "ChIJWcxed3dtG0cRHBT4NjM4LUA",
    "name": "POLOmarket",
    "category": "POLOmarket",
    "formatted_address": "3,9(222)",
    "phone_number": "+48632730401",
    "source_url": "https://www.google.com/maps/place/POLOmarket/data=!4m7!3m6!1s0x471b6d77775ecc59:0x402d383336f8141c!8m2!3d52.2496001!4d18.9117068!16s%2Fg%2F1hc1wwwpy!19sChIJWcxed3dtG0cRHBT4NjM4LUA?authuser=0&hl=tr&rclk=1",
    "website_url": "https://www.polomarket.pl/",
    "rating_text": "3,9",
    "stars": null,
    "number_of_reviews": null,
    "price_level": "",
    "open_hours": "",
    "extraction_timestamp": "2025-06-07T17:29:26.780Z",
    "source_name": "google",
    "source_query": "Irrigation Equipment",
    "source_country": "PL",
    "country": "Poland",
    "state": "Greater Poland Voivodeship",
    "city": "Przedecz"
  },
  {
    "source_id": "ChIJt-hwLbvNGkcRMBcwQOVZO2M",
    "name": "Market Spoźywczy",
    "category": "Market Spoźywczy",
    "formatted_address": "4,5(10)",
    "phone_number": "",
    "source_url": "https://www.google.com/maps/place/Market+Spo%C5%BAywczy/data=!4m7!3m6!1s0x471acdbb2d70e8b7:0x633b59e540301730!8m2!3d51.8137001!4d17.9160737!16s%2Fg%2F11fp8v051f!19sChIJt-hwLbvNGkcRMBcwQOVZO2M?authuser=0&hl=tr&rclk=1",
    "website_url": "",
    "rating_text": "4,5",
    "stars": null,
    "number_of_reviews": null,
    "price_level": "",
    "open_hours": "",
    "extraction_timestamp": "2025-06-07T17:29:26.780Z",
    "source_name": "google",
    "source_query": "Irrigation Equipment",
    "source_country": "PL",
    "country": "Poland",
    "state": "Greater Poland Voivodeship",
    "city": "Przedecz"
  },
  {
    "source_id": "ChIJG_kQaHvSGkcRV70Lql5iUGM",
    "name": "Sklep Polski",
    "category": "Sklep Polski",
    "formatted_address": "4,2(13)",
    "phone_number": "",
    "source_url": "https://www.google.com/maps/place/Sklep+Polski/data=!4m7!3m6!1s0x471ad27b6810f91b:0x6350625eaa0bbd57!8m2!3d51.8497069!4d17.9330111!16s%2Fg%2F11fct6g5ct!19sChIJG_kQaHvSGkcRV70Lql5iUGM?authuser=0&hl=tr&rclk=1",
    "website_url": "",
    "rating_text": "4,2",
    "stars": null,
    "number_of_reviews": null,
    "price_level": "",
    "open_hours": "",
    "extraction_timestamp": "2025-06-07T17:29:26.781Z",
    "source_name": "google",
    "source_query": "Irrigation Equipment",
    "source_country": "PL",
    "country": "Poland",
    "state": "Greater Poland Voivodeship",
    "city": "Przedecz"
  },
  {
    "source_id": "ChIJx0rFmiedHUcRcW6cadmFzws",
    "name": "Gramś Jolanta. Sklep spożywczo - przemysłowy",
    "category": "Gramś Jolanta. Sklep spożywczo - przemysłowy",
    "formatted_address": "4,9(14)",
    "phone_number": "+48895194188",
    "source_url": "https://www.google.com/maps/place/Gram%C5%9B+Jolanta.+Sklep+spo%C5%BCywczo+-+przemys%C5%82owy/data=!4m7!3m6!1s0x471d9d279ac54ac7:0xbcf85d9699c6e71!8m2!3d52.03835!4d18.0565122!16s%2Fg%2F1td1nmtr!19sChIJx0rFmiedHUcRcW6cadmFzws?authuser=0&hl=tr&rclk=1",
    "website_url": "",
    "rating_text": "4,9",
    "stars": null,
    "number_of_reviews": null,
    "price_level": "",
    "open_hours": "",
    "extraction_timestamp": "2025-06-07T17:29:26.781Z",
    "source_name": "google",
    "source_query": "Irrigation Equipment",
    "source_country": "PL",
    "country": "Poland",
    "state": "Greater Poland Voivodeship",
    "city": "Przedecz"
  },
  {
    "source_id": "ChIJf7p6PyplG0cR_UPn4NIIBPo",
    "name": "Ponal s.c. Gralak Z.K., Nowakowska M.",
    "category": "Ponal s.c. Gralak Z.K., Nowakowska M.",
    "formatted_address": "Ponal s.c. Gralak Z.K., Nowakowska M.",
    "phone_number": "+48542848195",
    "source_url": "https://www.google.com/maps/place/Ponal+s.c.+Gralak+Z.K.,+Nowakowska+M./data=!4m7!3m6!1s0x471b652a3f7aba7f:0xfa0408d2e0e743fd!8m2!3d52.404429!4d19.030047!16s%2Fg%2F1tf80bpw!19sChIJf7p6PyplG0cR_UPn4NIIBPo?authuser=0&hl=tr&rclk=1",
    "website_url": "",
    "rating_text": "4,5",
    "stars": null,
    "number_of_reviews": null,
    "price_level": "",
    "open_hours": "",
    "extraction_timestamp": "2025-06-07T17:29:26.782Z",
    "source_name": "google",
    "source_query": "Irrigation Equipment",
    "source_country": "PL",
    "country": "Poland",
    "state": "Greater Poland Voivodeship",
    "city": "Przedecz"
  },
  {
    "source_id": "ChIJqX3AJd9wG0cRKItmQxGVK7Q",
    "name": "Sklep Spożywczy",
    "category": "Sklep Spożywczy",
    "formatted_address": "4,6(35)",
    "phone_number": "",
    "source_url": "https://www.google.com/maps/place/Sklep+Spo%C5%BCywczy/data=!4m7!3m6!1s0x471b70df25c07da9:0xb42b951143668b28!8m2!3d52.3144082!4d19.0842047!16s%2Fg%2F11gdhdmdqy!19sChIJqX3AJd9wG0cRKItmQxGVK7Q?authuser=0&hl=tr&rclk=1",
    "website_url": "",
    "rating_text": "4,6",
    "stars": null,
    "number_of_reviews": null,
    "price_level": "",
    "open_hours": "",
    "extraction_timestamp": "2025-06-07T17:29:26.783Z",
    "source_name": "google",
    "source_query": "Irrigation Equipment",
    "source_country": "PL",
    "country": "Poland",
    "state": "Greater Poland Voivodeship",
    "city": "Przedecz"
  },
  {
    "source_id": "ChIJoTnyDNANG0cR5IjZxxoDprI",
    "name": "DELIKATESY DAMMAR",
    "category": "DELIKATESY DAMMAR",
    "formatted_address": "4,9(16)",
    "phone_number": "+48607836184",
    "source_url": "https://www.google.com/maps/place/DELIKATESY+DAMMAR/data=!4m7!3m6!1s0x471b0dd00cf239a1:0xb2a6031ac7d988e4!8m2!3d52.1887885!4d18.9093796!16s%2Fg%2F11n7wrgwsr!19sChIJoTnyDNANG0cR5IjZxxoDprI?authuser=0&hl=tr&rclk=1",
    "website_url": "",
    "rating_text": "4,9",
    "stars": null,
    "number_of_reviews": null,
    "price_level": "",
    "open_hours": "",
    "extraction_timestamp": "2025-06-07T17:29:26.784Z",
    "source_name": "google",
    "source_query": "Irrigation Equipment",
    "source_country": "PL",
    "country": "Poland",
    "state": "Greater Poland Voivodeship",
    "city": "Przedecz"
  },
  {
    "source_id": "ChIJQfEoFaRqG0cRfuqNm2e1i8Y",
    "name": "MINI -MAX",
    "category": "MINI -MAX",
    "formatted_address": "4,5(44)",
    "phone_number": "",
    "source_url": "https://www.google.com/maps/place/MINI+-MAX/data=!4m7!3m6!1s0x471b6aa41528f141:0xc68bb5679b8dea7e!8m2!3d52.2615475!4d18.6790994!16s%2Fg%2F11fzb0xtc5!19sChIJQfEoFaRqG0cRfuqNm2e1i8Y?authuser=0&hl=tr&rclk=1",
    "website_url": "",
    "rating_text": "4,5",
    "stars": null,
    "number_of_reviews": null,
    "price_level": "",
    "open_hours": "",
    "extraction_timestamp": "2025-06-07T17:29:26.784Z",
    "source_name": "google",
    "source_query": "Irrigation Equipment",
    "source_country": "PL",
    "country": "Poland",
    "state": "Greater Poland Voivodeship",
    "city": "Przedecz"
  },
  {
    "source_id": "ChIJBQ713HVCG0cR80_hBZ-GnUA",
    "name": "Sklep \"U Wojtka\"",
    "category": "Sklep \"U Wojtka\"",
    "formatted_address": "4,6(11)",
    "phone_number": "",
    "source_url": "https://www.google.com/maps/place/Sklep+%22U+Wojtka%22/data=!4m7!3m6!1s0x471b4275dcf50e05:0x409d869f05e14ff3!8m2!3d52.3534505!4d18.7303996!16s%2Fg%2F11f_dp9831!19sChIJBQ713HVCG0cR80_hBZ-GnUA?authuser=0&hl=tr&rclk=1",
    "website_url": "",
    "rating_text": "4,6",
    "stars": null,
    "number_of_reviews": null,
    "price_level": "",
    "open_hours": "",
    "extraction_timestamp": "2025-06-07T17:29:26.784Z",
    "source_name": "google",
    "source_query": "Irrigation Equipment",
    "source_country": "PL",
    "country": "Poland",
    "state": "Greater Poland Voivodeship",
    "city": "Przedecz"
  },
  {
    "source_id": "ChIJH3IJk3F7G0cReiLyX2FYy1Y",
    "name": "Sklep Spożywczo Monopolowy Wanda Mikorska",
    "category": "Sklep Spożywczo Monopolowy Wanda Mikorska",
    "formatted_address": "4,8(9)",
    "phone_number": "",
    "source_url": "https://www.google.com/maps/place/Sklep+Spo%C5%BCywczo+Monopolowy+Wanda+Mikorska/data=!4m7!3m6!1s0x471b7b719309721f:0x56cb58615ff2227a!8m2!3d52.425089!4d19.1077559!16s%2Fg%2F11g6bkbbtl!19sChIJH3IJk3F7G0cReiLyX2FYy1Y?authuser=0&hl=tr&rclk=1",
    "website_url": "",
    "rating_text": "4,8",
    "stars": null,
    "number_of_reviews": null,
    "price_level": "",
    "open_hours": "",
    "extraction_timestamp": "2025-06-07T17:29:26.785Z",
    "source_name": "google",
    "source_query": "Irrigation Equipment",
    "source_country": "PL",
    "country": "Poland",
    "state": "Greater Poland Voivodeship",
    "city": "Przedecz"
  },
  {
    "source_id": "ChIJbX6Gg3dtG0cR2gIaJinMImM",
    "name": "Donata. Sklep spożywczy",
    "category": "Donata. Sklep spożywczy",
    "formatted_address": "4,7(21)",
    "phone_number": "+48632730500",
    "source_url": "https://www.google.com/maps/place/Donata.+Sklep+spo%C5%BCywczy/data=!4m7!3m6!1s0x471b6d7783867e6d:0x6322cc29261a02da!8m2!3d52.25013!4d18.9123134!16s%2Fg%2F1tcwvgly!19sChIJbX6Gg3dtG0cR2gIaJinMImM?authuser=0&hl=tr&rclk=1",
    "website_url": "",
    "rating_text": "4,7",
    "stars": null,
    "number_of_reviews": null,
    "price_level": "",
    "open_hours": "",
    "extraction_timestamp": "2025-06-07T17:29:26.786Z",
    "source_name": "google",
    "source_query": "Irrigation Equipment",
    "source_country": "PL",
    "country": "Poland",
    "state": "Greater Poland Voivodeship",
    "city": "Przedecz"
  },
  {
    "source_id": "ChIJsftSjx_YBEcR4x4hCvcIbHw",
    "name": "John Matysiak a bakery",
    "category": "John Matysiak a bakery",
    "formatted_address": "4,6(122) · ₺",
    "phone_number": "+48627411441",
    "source_url": "https://www.google.com/maps/place/John+Matysiak+a+bakery/data=!4m7!3m6!1s0x4704d81f8f52fbb1:0x7c6c08f70a211ee3!8m2!3d52.0684827!4d17.7368568!16s%2Fg%2F1wbfz30w!19sChIJsftSjx_YBEcR4x4hCvcIbHw?authuser=0&hl=tr&rclk=1",
    "website_url": "https://www.facebook.com/profile.php?id=100053518545499",
    "rating_text": "4,6",
    "stars": null,
    "number_of_reviews": null,
    "price_level": "",
    "open_hours": "",
    "extraction_timestamp": "2025-06-07T17:29:26.787Z",
    "source_name": "google",
    "source_query": "Irrigation Equipment",
    "source_country": "PL",
    "country": "Poland",
    "state": "Greater Poland Voivodeship",
    "city": "Przedecz"
  },
  {
    "source_id": "ChIJG0gIRojFGkcRDZ_jOrZMGJI",
    "name": "Decathlon Kalisz",
    "category": "Decathlon Kalisz",
    "formatted_address": "4,4(2.093)",
    "phone_number": "+48625024400",
    "source_url": "https://www.google.com/maps/place/Decathlon+Kalisz/data=!4m7!3m6!1s0x471ac5884608481b:0x92184cb63ae39f0d!8m2!3d51.7637502!4d18.0599284!16s%2Fg%2F12hxvmtp5!19sChIJG0gIRojFGkcRDZ_jOrZMGJI?authuser=0&hl=tr&rclk=1",
    "website_url": "https://www.decathlon.pl/store-view/sport-shop-kalisz-0070069700697?utm_source=google&utm_medium=organic&utm_campaign=google_business_website",
    "rating_text": "4,4",
    "stars": null,
    "number_of_reviews": null,
    "price_level": "",
    "open_hours": "",
    "extraction_timestamp": "2025-06-07T17:29:26.789Z",
    "source_name": "google",
    "source_query": "Irrigation Equipment",
    "source_country": "PL",
    "country": "Poland",
    "state": "Greater Poland Voivodeship",
    "city": "Przedecz"
  },
  {
    "source_id": "ChIJt0XxHVJDG0cRAHYIvec0jHo",
    "name": "Twój Market",
    "category": "Twój Market",
    "formatted_address": "4,4(70)",
    "phone_number": "+48801555559",
    "source_url": "https://www.google.com/maps/place/Tw%C3%B3j+Market/data=!4m7!3m6!1s0x471b43521df145b7:0x7a8c34e7bd087600!8m2!3d52.3455747!4d18.6629525!16s%2Fg%2F11rgzrhv6v!19sChIJt0XxHVJDG0cRAHYIvec0jHo?authuser=0&hl=tr&rclk=1",
    "website_url": "https://twojmarket.pl/",
    "rating_text": "4,4",
    "stars": null,
    "number_of_reviews": null,
    "price_level": "",
    "open_hours": "",
    "extraction_timestamp": "2025-06-07T17:29:26.789Z",
    "source_name": "google",
    "source_query": "Irrigation Equipment",
    "source_country": "PL",
    "country": "Poland",
    "state": "Greater Poland Voivodeship",
    "city": "Przedecz"
  },
  {
    "source_id": "ChIJCVOttu_FGkcRw24_8UDWg-M",
    "name": "INTERSPORT",
    "category": "INTERSPORT",
    "formatted_address": "4,1(47)",
    "phone_number": "+48124448888",
    "source_url": "https://www.google.com/maps/place/INTERSPORT/data=!4m7!3m6!1s0x471ac5efb6ad5309:0xe383d640f13f6ec3!8m2!3d51.7441776!4d18.0706968!16s%2Fg%2F11byflpbmx!19sChIJCVOttu_FGkcRw24_8UDWg-M?authuser=0&hl=tr&rclk=1",
    "website_url": "https://www.intersport.pl/?utm_source=google_location&utm_medium=organic&utm_campaign=kaliszamber",
    "rating_text": "4,1",
    "stars": null,
    "number_of_reviews": null,
    "price_level": "",
    "open_hours": "",
    "extraction_timestamp": "2025-06-07T17:29:26.790Z",
    "source_name": "google",
    "source_query": "Irrigation Equipment",
    "source_country": "PL",
    "country": "Poland",
    "state": "Greater Poland Voivodeship",
    "city": "Przedecz"
  }
]
