[
  {
    "source_id": "ChIJ-SH3S7rGBUcRWrvDEU84M3Y",
    "name": "WODSTAL Instalacje Sanitarne , Grzewcze , Wyposażenie łazienek",
    "category": "WODSTAL Instalacje Sanitarne , Grzewcze , Wyposażenie łazienek",
    "formatted_address": "WODSTAL Instalacje Sanitarne , Grzewcze , Wyposażenie łazienek",
    "phone_number": "+48691640740",
    "source_url": "https://www.google.com/maps/place/WODSTAL+Instalacje+Sanitarne+,+Grzewcze+,+Wyposa%C5%BCenie+%C5%82azienek/data=!4m7!3m6!1s0x4705c6ba4bf721f9:0x7633384f11c3bb5a!8m2!3d52.0076166!4d16.3075841!16s%2Fg%2F1ptxy0tdx!19sChIJ-SH3S7rGBUcRWrvDEU84M3Y?authuser=0&hl=tr&rclk=1",
    "website_url": "",
    "rating_text": "4,9",
    "stars": null,
    "number_of_reviews": null,
    "price_level": "",
    "open_hours": "",
    "extraction_timestamp": "2025-06-07T17:14:45.507Z",
    "source_name": "google",
    "source_query": "Irrigation Equipment",
    "source_country": "PL",
    "country": "Poland",
    "state": "Greater Poland Voivodeship",
    "city": "Przemęt"
  },
  {
    "source_id": "ChIJKasctIS5BUcReGZjmggxnME",
    "name": "Firma Handlowa RYNMAR Tadeusz Cichoszewski",
    "category": "Firma Handlowa RYNMAR Tadeusz Cichoszewski",
    "formatted_address": "4,8(4)",
    "phone_number": "+48655180598",
    "source_url": "https://www.google.com/maps/place/Firma+Handlowa+RYNMAR+Tadeusz+Cichoszewski/data=!4m7!3m6!1s0x4705b984b41cab29:0xc19c31089a636678!8m2!3d52.0159304!4d16.5205747!16s%2Fg%2F1tlc6s5w!19sChIJKasctIS5BUcReGZjmggxnME?authuser=0&hl=tr&rclk=1",
    "website_url": "http://www.rynmar.pl/",
    "rating_text": "4,8",
    "stars": null,
    "number_of_reviews": null,
    "price_level": "",
    "open_hours": "",
    "extraction_timestamp": "2025-06-07T17:14:45.508Z",
    "source_name": "google",
    "source_query": "Irrigation Equipment",
    "source_country": "PL",
    "country": "Poland",
    "state": "Greater Poland Voivodeship",
    "city": "Przemęt"
  },
  {
    "source_id": "ChIJq6BIPTmVBUcRVCEmK-n4hmc",
    "name": "HYDRAINSTAL | Kompleksowe Instalacje Hydrauliczne | Jakub Nędzyk",
    "category": "HYDRAINSTAL | Kompleksowe Instalacje Hydrauliczne | Jakub Nędzyk",
    "formatted_address": "5,0(11)",
    "phone_number": "+48795581988",
    "source_url": "https://www.google.com/maps/place/HYDRAINSTAL+%7C+Kompleksowe+Instalacje+Hydrauliczne+%7C+Jakub+N%C4%99dzyk/data=!4m7!3m6!1s0x470595393d48a0ab:0x6786f8e92b262154!8m2!3d51.8781175!4d16.3636586!16s%2Fg%2F11x7b_57fm!19sChIJq6BIPTmVBUcRVCEmK-n4hmc?authuser=0&hl=tr&rclk=1",
    "website_url": "",
    "rating_text": "5,0",
    "stars": null,
    "number_of_reviews": null,
    "price_level": "",
    "open_hours": "",
    "extraction_timestamp": "2025-06-07T17:14:45.509Z",
    "source_name": "google",
    "source_query": "Irrigation Equipment",
    "source_country": "PL",
    "country": "Poland",
    "state": "Greater Poland Voivodeship",
    "city": "Przemęt"
  },
  {
    "source_id": "ChIJT85hCLfGBUcR-HWds0vPIro",
    "name": "Vidapro",
    "category": "Vidapro",
    "formatted_address": "",
    "phone_number": "+48606800521",
    "source_url": "https://www.google.com/maps/place/Vidapro/data=!4m7!3m6!1s0x4705c6b70861ce4f:0xba22cf4bb39d75f8!8m2!3d52.0062129!4d16.3011548!16s%2Fg%2F11fl0xsdfp!19sChIJT85hCLfGBUcR-HWds0vPIro?authuser=0&hl=tr&rclk=1",
    "website_url": "",
    "rating_text": "",
    "stars": null,
    "number_of_reviews": null,
    "price_level": "",
    "open_hours": "",
    "extraction_timestamp": "2025-06-07T17:14:45.510Z",
    "source_name": "google",
    "source_query": "Irrigation Equipment",
    "source_country": "PL",
    "country": "Poland",
    "state": "Greater Poland Voivodeship",
    "city": "Przemęt"
  },
  {
    "source_id": "ChIJc0zyfrfGBUcRROpOADrk_gg",
    "name": "Livio",
    "category": "Livio",
    "formatted_address": "4,8(4)",
    "phone_number": "",
    "source_url": "https://www.google.com/maps/place/Livio/data=!4m7!3m6!1s0x4705c6b77ef24c73:0x8fee43a004eea44!8m2!3d52.0078745!4d16.3020179!16s%2Fg%2F11j1j6t7tk!19sChIJc0zyfrfGBUcRROpOADrk_gg?authuser=0&hl=tr&rclk=1",
    "website_url": "",
    "rating_text": "4,8",
    "stars": null,
    "number_of_reviews": null,
    "price_level": "",
    "open_hours": "",
    "extraction_timestamp": "2025-06-07T17:14:45.510Z",
    "source_name": "google",
    "source_query": "Irrigation Equipment",
    "source_country": "PL",
    "country": "Poland",
    "state": "Greater Poland Voivodeship",
    "city": "Przemęt"
  },
  {
    "source_id": "ChIJUdwhqgOYBUcR3jwtTyYHSx4",
    "name": "Hydro-Partner Sp. z o.o.",
    "category": "Hydro-Partner Sp. z o.o.",
    "formatted_address": "4,6(40)",
    "phone_number": "+48655252850",
    "source_url": "https://www.google.com/maps/place/Hydro-Partner+Sp.+z+o.o./data=!4m7!3m6!1s0x47059803aa21dc51:0x1e4b07264f2d3cde!8m2!3d51.8630159!4d16.5752719!16s%2Fg%2F1vgw7b90!19sChIJUdwhqgOYBUcR3jwtTyYHSx4?authuser=0&hl=tr&rclk=1",
    "website_url": "http://www.hydro-partner.pl/",
    "rating_text": "4,6",
    "stars": null,
    "number_of_reviews": null,
    "price_level": "",
    "open_hours": "",
    "extraction_timestamp": "2025-06-07T17:14:45.511Z",
    "source_name": "google",
    "source_query": "Irrigation Equipment",
    "source_country": "PL",
    "country": "Poland",
    "state": "Greater Poland Voivodeship",
    "city": "Przemęt"
  },
  {
    "source_id": "ChIJLTXD_VDHBUcRASNYZR2_K34",
    "name": "Biedronka",
    "category": "Biedronka",
    "formatted_address": "4,3(273)",
    "phone_number": "+48800080010",
    "source_url": "https://www.google.com/maps/place/Biedronka/data=!4m7!3m6!1s0x4705c750fdc3352d:0x7e2bbf1d65582301!8m2!3d52.0115089!4d16.2959899!16s%2Fg%2F11lqlhgwyv!19sChIJLTXD_VDHBUcRASNYZR2_K34?authuser=0&hl=tr&rclk=1",
    "website_url": "https://www.biedronka.pl/pl?utm_source=gmb",
    "rating_text": "4,3",
    "stars": null,
    "number_of_reviews": null,
    "price_level": "",
    "open_hours": "",
    "extraction_timestamp": "2025-06-07T17:14:45.512Z",
    "source_name": "google",
    "source_query": "Irrigation Equipment",
    "source_country": "PL",
    "country": "Poland",
    "state": "Greater Poland Voivodeship",
    "city": "Przemęt"
  },
  {
    "source_id": "ChIJS0DMarbGBUcRbVn0Kyan60A",
    "name": "Market Dino",
    "category": "Market Dino",
    "formatted_address": "4,2(211)",
    "phone_number": "",
    "source_url": "https://www.google.com/maps/place/Market+Dino/data=!4m7!3m6!1s0x4705c6b66acc404b:0x40eba7262bf4596d!8m2!3d52.0038153!4d16.3020721!16s%2Fg%2F11cnd5f_j_!19sChIJS0DMarbGBUcRbVn0Kyan60A?authuser=0&hl=tr&rclk=1",
    "website_url": "https://marketdino.pl/",
    "rating_text": "4,2",
    "stars": null,
    "number_of_reviews": null,
    "price_level": "",
    "open_hours": "",
    "extraction_timestamp": "2025-06-07T17:14:45.513Z",
    "source_name": "google",
    "source_query": "Irrigation Equipment",
    "source_country": "PL",
    "country": "Poland",
    "state": "Greater Poland Voivodeship",
    "city": "Przemęt"
  },
  {
    "source_id": "ChIJJVLgZrfGBUcRiRayClL4d6o",
    "name": "Chata Polska sklep spożywczy",
    "category": "Chata Polska sklep spożywczy",
    "formatted_address": "4,3(91)",
    "phone_number": "+48655496215",
    "source_url": "https://www.google.com/maps/place/Chata+Polska+sklep+spo%C5%BCywczy/data=!4m7!3m6!1s0x4705c6b766e05225:0xaa77f8520ab21689!8m2!3d52.0062199!4d16.301196!16s%2Fg%2F1hc8r3kbk!19sChIJJVLgZrfGBUcRiRayClL4d6o?authuser=0&hl=tr&rclk=1",
    "website_url": "http://www.chatapolska.pl/",
    "rating_text": "4,3",
    "stars": null,
    "number_of_reviews": null,
    "price_level": "",
    "open_hours": "",
    "extraction_timestamp": "2025-06-07T17:14:45.514Z",
    "source_name": "google",
    "source_query": "Irrigation Equipment",
    "source_country": "PL",
    "country": "Poland",
    "state": "Greater Poland Voivodeship",
    "city": "Przemęt"
  },
  {
    "source_id": "ChIJB6y_v5J2HEcRlDfYx3xmc9M",
    "name": "Milex irrigation systems",
    "category": "Milex irrigation systems",
    "formatted_address": "4,6(37)",
    "phone_number": "+48242775222",
    "source_url": "https://www.google.com/maps/place/Milex+irrigation+systems/data=!4m7!3m6!1s0x471c7692bfbfac07:0xd373667cc7d83794!8m2!3d52.4690634!4d19.7520904!16s%2Fg%2F1w2yy67r!19sChIJB6y_v5J2HEcRlDfYx3xmc9M?authuser=0&hl=tr&rclk=1",
    "website_url": "https://www.milex.pl/",
    "rating_text": "4,6",
    "stars": null,
    "number_of_reviews": null,
    "price_level": "",
    "open_hours": "",
    "extraction_timestamp": "2025-06-07T17:14:45.515Z",
    "source_name": "google",
    "source_query": "Irrigation Equipment",
    "source_country": "PL",
    "country": "Poland",
    "state": "Greater Poland Voivodeship",
    "city": "Przemęt"
  },
  {
    "source_id": "ChIJJTU_0ADHBUcRw_zBqh2A7VE",
    "name": "Sklep spożywczy Aldona Kapska",
    "category": "Sklep spożywczy Aldona Kapska",
    "formatted_address": "5,0(10)",
    "phone_number": "+48655496514",
    "source_url": "https://www.google.com/maps/place/Sklep+spo%C5%BCywczy+Aldona+Kapska/data=!4m7!3m6!1s0x4705c700d03f3525:0x51ed801daac1fcc3!8m2!3d52.0078522!4d16.3020926!16s%2Fg%2F11n5b71sgn!19sChIJJTU_0ADHBUcRw_zBqh2A7VE?authuser=0&hl=tr&rclk=1",
    "website_url": "",
    "rating_text": "5,0",
    "stars": null,
    "number_of_reviews": null,
    "price_level": "",
    "open_hours": "",
    "extraction_timestamp": "2025-06-07T17:14:45.516Z",
    "source_name": "google",
    "source_query": "Irrigation Equipment",
    "source_country": "PL",
    "country": "Poland",
    "state": "Greater Poland Voivodeship",
    "city": "Przemęt"
  },
  {
    "source_id": "ChIJdU0ANU1FBEcR2moWCHkgDNg",
    "name": "Granimex- Uzdatnianie wody, Technologia basenowa, Odwrócona osmoza, Kondycjonowanie wody",
    "category": "Granimex- Uzdatnianie wody, Technologia basenowa, Odwrócona osmoza, Kondycjonowanie wody",
    "formatted_address": "Granimex- Uzdatnianie wody, Technologia basenowa, Odwrócona osmoza, Kondycjonowanie wody",
    "phone_number": "+48618305685",
    "source_url": "https://www.google.com/maps/place/Granimex-+Uzdatnianie+wody,+Technologia+basenowa,+Odwr%C3%B3cona+osmoza,+Kondycjonowanie+wody/data=!4m7!3m6!1s0x4704454d35004d75:0xd80c207908166ada!8m2!3d52.3731194!4d16.8887854!16s%2Fg%2F1tcvsk8q!19sChIJdU0ANU1FBEcR2moWCHkgDNg?authuser=0&hl=tr&rclk=1",
    "website_url": "https://www.granimex.com.pl/",
    "rating_text": "5,0",
    "stars": null,
    "number_of_reviews": null,
    "price_level": "",
    "open_hours": "",
    "extraction_timestamp": "2025-06-07T17:14:45.517Z",
    "source_name": "google",
    "source_query": "Irrigation Equipment",
    "source_country": "PL",
    "country": "Poland",
    "state": "Greater Poland Voivodeship",
    "city": "Przemęt"
  },
  {
    "source_id": "ChIJA21CEP7DBUcRyh1LQJ3TsvY",
    "name": "Glam Travel",
    "category": "Glam Travel",
    "formatted_address": "",
    "phone_number": "+48664449979",
    "source_url": "https://www.google.com/maps/place/Glam+Travel/data=!4m7!3m6!1s0x4705c3fe10426d03:0xf6b2d39d404b1dca!8m2!3d52.0189997!4d16.3083711!16s%2Fg%2F11wff2hw1j!19sChIJA21CEP7DBUcRyh1LQJ3TsvY?authuser=0&hl=tr&rclk=1",
    "website_url": "http://www.glam-trip.com/",
    "rating_text": "",
    "stars": null,
    "number_of_reviews": null,
    "price_level": "",
    "open_hours": "",
    "extraction_timestamp": "2025-06-07T17:14:45.518Z",
    "source_name": "google",
    "source_query": "Irrigation Equipment",
    "source_country": "PL",
    "country": "Poland",
    "state": "Greater Poland Voivodeship",
    "city": "Przemęt"
  },
  {
    "source_id": "ChIJyekNTLrGBUcR63ZwDJDwyGw",
    "name": "Avena. Apteka",
    "category": "Avena. Apteka",
    "formatted_address": "4,9(16)",
    "phone_number": "+48784387970",
    "source_url": "https://www.google.com/maps/place/Avena.+Apteka/data=!4m7!3m6!1s0x4705c6ba4c0de9c9:0x6cc8f0900c7076eb!8m2!3d52.0051129!4d16.3009579!16s%2Fg%2F1vyn2kwb!19sChIJyekNTLrGBUcR63ZwDJDwyGw?authuser=0&hl=tr&rclk=1",
    "website_url": "http://www.apteka-avena.pl/",
    "rating_text": "4,9",
    "stars": null,
    "number_of_reviews": null,
    "price_level": "",
    "open_hours": "",
    "extraction_timestamp": "2025-06-07T17:14:45.519Z",
    "source_name": "google",
    "source_query": "Irrigation Equipment",
    "source_country": "PL",
    "country": "Poland",
    "state": "Greater Poland Voivodeship",
    "city": "Przemęt"
  }
]
