[
  {
    "source_id": "ChIJK2GjZAe3GkcRtYCUwk9ASmE",
    "name": "Grofi - Systemy nawadniania do domu i ogrodu",
    "category": "Grofi - Systemy nawadniania do domu i ogrodu",
    "formatted_address": "4,8(16)",
    "phone_number": "+48575716244",
    "source_url": "https://www.google.com/maps/place/Grofi+-+Systemy+nawadniania+do+domu+i+ogrodu/data=!4m7!3m6!1s0x471ab70764a3612b:0x614a404fc29480b5!8m2!3d51.612066!4d17.8638006!16s%2Fg%2F11y5_4bbdm!19sChIJK2GjZAe3GkcRtYCUwk9ASmE?authuser=0&hl=tr&rclk=1",
    "website_url": "http://grofi.pl/",
    "rating_text": "4,8",
    "stars": null,
    "number_of_reviews": null,
    "price_level": "",
    "open_hours": "",
    "extraction_timestamp": "2025-06-07T17:50:01.514Z",
    "source_name": "google",
    "source_query": "Irrigation Equipment",
    "source_country": "PL",
    "country": "Poland",
    "state": "Greater Poland Voivodeship",
    "city": "Przygodzice"
  },
  {
    "source_id": "ChIJv3VWorS1GkcR91vUXcnWjAo",
    "name": "Systemy pneumatyki. Sprężarki, kompresory, narzędzia",
    "category": "Systemy pneumatyki. Sprężarki, kompresory, narzędzia",
    "formatted_address": "Systemy pneumatyki. Sprężarki, kompresory, narzędzia",
    "phone_number": "+48625910444",
    "source_url": "https://www.google.com/maps/place/Systemy+pneumatyki.+Spr%C4%99%C5%BCarki,+kompresory,+narz%C4%99dzia/data=!4m7!3m6!1s0x471ab5b4a25675bf:0xa8cd6c95dd45bf7!8m2!3d51.6301252!4d17.8127133!16s%2Fg%2F1vm_wmyy!19sChIJv3VWorS1GkcR91vUXcnWjAo?authuser=0&hl=tr&rclk=1",
    "website_url": "http://www.systemypneumatyki.pl/",
    "rating_text": "4,1",
    "stars": null,
    "number_of_reviews": null,
    "price_level": "",
    "open_hours": "",
    "extraction_timestamp": "2025-06-07T17:50:01.523Z",
    "source_name": "google",
    "source_query": "Irrigation Equipment",
    "source_country": "PL",
    "country": "Poland",
    "state": "Greater Poland Voivodeship",
    "city": "Przygodzice"
  },
  {
    "source_id": "ChIJqzWtP36xGkcRBhOhExk3UD0",
    "name": "InstalacjeBMG -SKLEP-HYDRAULIKA-ELEKTRYKA",
    "category": "InstalacjeBMG -SKLEP-HYDRAULIKA-ELEKTRYKA",
    "formatted_address": "5,0(1)",
    "phone_number": "+48724144244",
    "source_url": "https://www.google.com/maps/place/InstalacjeBMG+-SKLEP-HYDRAULIKA-ELEKTRYKA/data=!4m7!3m6!1s0x471ab17e3fad35ab:0x3d50371913a11306!8m2!3d51.5831058!4d17.8226431!16s%2Fg%2F11rn0rfr3h!19sChIJqzWtP36xGkcRBhOhExk3UD0?authuser=0&hl=tr&rclk=1",
    "website_url": "",
    "rating_text": "5,0",
    "stars": null,
    "number_of_reviews": null,
    "price_level": "",
    "open_hours": "",
    "extraction_timestamp": "2025-06-07T17:50:01.524Z",
    "source_name": "google",
    "source_query": "Irrigation Equipment",
    "source_country": "PL",
    "country": "Poland",
    "state": "Greater Poland Voivodeship",
    "city": "Przygodzice"
  },
  {
    "source_id": "ChIJJeAfcFq0GkcR9cJ4jnAvUTg",
    "name": "Wytwórnia zbiorników Powolny Andrzej",
    "category": "Wytwórnia zbiorników Powolny Andrzej",
    "formatted_address": "3,3(3)",
    "phone_number": "+48627351739",
    "source_url": "https://www.google.com/maps/place/Wytw%C3%B3rnia+zbiornik%C3%B3w+Powolny+Andrzej/data=!4m7!3m6!1s0x471ab45a701fe025:0x38512f708e78c2f5!8m2!3d51.6353283!4d17.7859147!16s%2Fg%2F1tk6z78p!19sChIJJeAfcFq0GkcR9cJ4jnAvUTg?authuser=0&hl=tr&rclk=1",
    "website_url": "https://www.zbiorniki-powolny.com.pl/",
    "rating_text": "3,3",
    "stars": null,
    "number_of_reviews": null,
    "price_level": "",
    "open_hours": "",
    "extraction_timestamp": "2025-06-07T17:50:01.524Z",
    "source_name": "google",
    "source_query": "Irrigation Equipment",
    "source_country": "PL",
    "country": "Poland",
    "state": "Greater Poland Voivodeship",
    "city": "Przygodzice"
  },
  {
    "source_id": "ChIJv13aMo20GkcRuIJwITpZIug",
    "name": "ASHYDRO",
    "category": "ASHYDRO",
    "formatted_address": "5,0(5)",
    "phone_number": "+48508377657",
    "source_url": "https://www.google.com/maps/place/ASHYDRO/data=!4m7!3m6!1s0x471ab48d32da5dbf:0xe822593a217082b8!8m2!3d51.627431!4d17.762832!16s%2Fg%2F11b6_cnlmt!19sChIJv13aMo20GkcRuIJwITpZIug?authuser=0&hl=tr&rclk=1",
    "website_url": "http://www.ashydro.pl/",
    "rating_text": "5,0",
    "stars": null,
    "number_of_reviews": null,
    "price_level": "",
    "open_hours": "",
    "extraction_timestamp": "2025-06-07T17:50:01.529Z",
    "source_name": "google",
    "source_query": "Irrigation Equipment",
    "source_country": "PL",
    "country": "Poland",
    "state": "Greater Poland Voivodeship",
    "city": "Przygodzice"
  },
  {
    "source_id": "ChIJcwYypTizGkcRjPtIA-yYuZ4",
    "name": "Insal Technic Paweł Kaźmierczak",
    "category": "Insal Technic Paweł Kaźmierczak",
    "formatted_address": "5,0(14)",
    "phone_number": "+48512533213",
    "source_url": "https://www.google.com/maps/place/Insal+Technic+Pawe%C5%82+Ka%C5%BAmierczak/data=!4m7!3m6!1s0x471ab338a5320673:0x9eb998ec0348fb8c!8m2!3d51.596719!4d17.752439!16s%2Fg%2F11fs9wyky4!19sChIJcwYypTizGkcRjPtIA-yYuZ4?authuser=0&hl=tr&rclk=1",
    "website_url": "",
    "rating_text": "5,0",
    "stars": null,
    "number_of_reviews": null,
    "price_level": "",
    "open_hours": "",
    "extraction_timestamp": "2025-06-07T17:50:01.530Z",
    "source_name": "google",
    "source_query": "Irrigation Equipment",
    "source_country": "PL",
    "country": "Poland",
    "state": "Greater Poland Voivodeship",
    "city": "Przygodzice"
  },
  {
    "source_id": "ChIJowXzP1WxGkcRxlBcRdHFduE",
    "name": "Shell",
    "category": "Shell",
    "formatted_address": "3,9(80) · ₺₺",
    "phone_number": "+48511832171",
    "source_url": "https://www.google.com/maps/place/Shell/data=!4m7!3m6!1s0x471ab1553ff305a3:0xe176c5d1455c50c6!8m2!3d51.59517!4d17.8221621!16s%2Fg%2F1tdm2gws!19sChIJowXzP1WxGkcRxlBcRdHFduE?authuser=0&hl=tr&rclk=1",
    "website_url": "https://find.shell.com/pl/fuel/10034841-4209-przygodzice/pl_PL",
    "rating_text": "3,9",
    "stars": null,
    "number_of_reviews": null,
    "price_level": "",
    "open_hours": "",
    "extraction_timestamp": "2025-06-07T17:50:01.531Z",
    "source_name": "google",
    "source_query": "Irrigation Equipment",
    "source_country": "PL",
    "country": "Poland",
    "state": "Greater Poland Voivodeship",
    "city": "Przygodzice"
  },
  {
    "source_id": "ChIJBaRSN5e1GkcRzJeQI4s-AiI",
    "name": "Biedronka",
    "category": "Biedronka",
    "formatted_address": "4,3(102)",
    "phone_number": "+48800080010",
    "source_url": "https://www.google.com/maps/place/Biedronka/data=!4m7!3m6!1s0x471ab5973752a405:0x22023e8b239097cc!8m2!3d51.600791!4d17.8153219!16s%2Fg%2F11sd2yr110!19sChIJBaRSN5e1GkcRzJeQI4s-AiI?authuser=0&hl=tr&rclk=1",
    "website_url": "https://www.biedronka.pl/pl?utm_source=gmb",
    "rating_text": "4,3",
    "stars": null,
    "number_of_reviews": null,
    "price_level": "",
    "open_hours": "",
    "extraction_timestamp": "2025-06-07T17:50:01.532Z",
    "source_name": "google",
    "source_query": "Irrigation Equipment",
    "source_country": "PL",
    "country": "Poland",
    "state": "Greater Poland Voivodeship",
    "city": "Przygodzice"
  }
]
