[
  {
    "source_id": "ChIJ88XpwgIcG0cRxLQxGwwrA1E",
    "name": "Jubilat",
    "category": "Jubilat",
    "formatted_address": "4,3(147)",
    "phone_number": "",
    "source_url": "https://www.google.com/maps/place/Jubilat/data=!4m7!3m6!1s0x471b1c02c2e9c5f3:0x51032b0c1b31b4c4!8m2!3d51.9843531!4d18.6125257!16s%2Fg%2F12htq1rc2!19sChIJ88XpwgIcG0cRxLQxGwwrA1E?authuser=0&hl=tr&rclk=1",
    "website_url": "https://mapa.targeo.pl/jubilat-szkolna-1-62-731-przykona~17360764/spozywczy-przemyslowy-sklep/adres",
    "rating_text": "4,3",
    "stars": null,
    "number_of_reviews": null,
    "price_level": "",
    "open_hours": "",
    "extraction_timestamp": "2025-06-07T17:51:56.994Z",
    "source_name": "google",
    "source_query": "Irrigation Equipment",
    "source_country": "PL",
    "country": "Poland",
    "state": "Greater Poland Voivodeship",
    "city": "Przykona"
  },
  {
    "source_id": "ChIJB6y_v5J2HEcRlDfYx3xmc9M",
    "name": "Milex irrigation systems",
    "category": "Milex irrigation systems",
    "formatted_address": "4,6(37)",
    "phone_number": "+48242775222",
    "source_url": "https://www.google.com/maps/place/Milex+irrigation+systems/data=!4m7!3m6!1s0x471c7692bfbfac07:0xd373667cc7d83794!8m2!3d52.4690634!4d19.7520904!16s%2Fg%2F1w2yy67r!19sChIJB6y_v5J2HEcRlDfYx3xmc9M?authuser=0&hl=tr&rclk=1",
    "website_url": "https://www.milex.pl/",
    "rating_text": "4,6",
    "stars": null,
    "number_of_reviews": null,
    "price_level": "",
    "open_hours": "",
    "extraction_timestamp": "2025-06-07T17:51:56.998Z",
    "source_name": "google",
    "source_query": "Irrigation Equipment",
    "source_country": "PL",
    "country": "Poland",
    "state": "Greater Poland Voivodeship",
    "city": "Przykona"
  },
  {
    "source_id": "ChIJUfn2Ig35A0cREW9fZ4029UM",
    "name": "IMTechnika sp. z o.o.",
    "category": "IMTechnika sp. z o.o.",
    "formatted_address": "4,4(17)",
    "phone_number": "+48883820388",
    "source_url": "https://www.google.com/maps/place/IMTechnika+sp.+z+o.o./data=!4m7!3m6!1s0x4703f90d22f6f951:0x43f5368d675f6f11!8m2!3d52.9756271!4d16.657836!16s%2Fg%2F11bw48_6mg!19sChIJUfn2Ig35A0cREW9fZ4029UM?authuser=0&hl=tr&rclk=1",
    "website_url": "http://imtechnika.pl/",
    "rating_text": "4,4",
    "stars": null,
    "number_of_reviews": null,
    "price_level": "",
    "open_hours": "",
    "extraction_timestamp": "2025-06-07T17:51:57.001Z",
    "source_name": "google",
    "source_query": "Irrigation Equipment",
    "source_country": "PL",
    "country": "Poland",
    "state": "Greater Poland Voivodeship",
    "city": "Przykona"
  },
  {
    "source_id": "ChIJNdzfHE1aBEcRdVxSGCgEKgw",
    "name": "Zakład Produkcji Urządzeń Sanitarnych i Elektrycznych PPRI-Żegrze Sp. z o.o.",
    "category": "Zakład Produkcji Urządzeń Sanitarnych i Elektrycznych PPRI-Żegrze Sp. z o.o.",
    "formatted_address": "3,8(5)",
    "phone_number": "",
    "source_url": "https://www.google.com/maps/place/Zak%C5%82ad+Produkcji+Urz%C4%85dze%C5%84+Sanitarnych+i+Elektrycznych+PPRI-%C5%BBegrze+Sp.+z+o.o./data=!4m7!3m6!1s0x47045a4d1cdfdc35:0xc2a042818525c75!8m2!3d52.3761531!4d16.9747344!16s%2Fg%2F1vzqqz3_!19sChIJNdzfHE1aBEcRdVxSGCgEKgw?authuser=0&hl=tr&rclk=1",
    "website_url": "https://www.zbiornikicisnieniowe.pl/",
    "rating_text": "3,8",
    "stars": null,
    "number_of_reviews": null,
    "price_level": "",
    "open_hours": "",
    "extraction_timestamp": "2025-06-07T17:51:57.003Z",
    "source_name": "google",
    "source_query": "Irrigation Equipment",
    "source_country": "PL",
    "country": "Poland",
    "state": "Greater Poland Voivodeship",
    "city": "Przykona"
  },
  {
    "source_id": "ChIJBxoL5AIcG0cRrRJzwOmy3Kc",
    "name": "Pod Skorpionem. Apteka",
    "category": "Pod Skorpionem. Apteka",
    "formatted_address": "4,4(9)",
    "phone_number": "+48632786190",
    "source_url": "https://www.google.com/maps/place/Pod+Skorpionem.+Apteka/data=!4m7!3m6!1s0x471b1c02e40b1a07:0xa7dcb2e9c07312ad!8m2!3d51.985411!4d18.6147559!16s%2Fg%2F1pv5zf_6p!19sChIJBxoL5AIcG0cRrRJzwOmy3Kc?authuser=0&hl=tr&rclk=1",
    "website_url": "",
    "rating_text": "4,4",
    "stars": null,
    "number_of_reviews": null,
    "price_level": "",
    "open_hours": "",
    "extraction_timestamp": "2025-06-07T17:51:57.004Z",
    "source_name": "google",
    "source_query": "Irrigation Equipment",
    "source_country": "PL",
    "country": "Poland",
    "state": "Greater Poland Voivodeship",
    "city": "Przykona"
  },
  {
    "source_id": "ChIJS8Tud74dG0cR-JCSKaMgErs",
    "name": "Dino",
    "category": "Dino",
    "formatted_address": "4,4(158)",
    "phone_number": "",
    "source_url": "https://www.google.com/maps/place/Dino/data=!4m7!3m6!1s0x471b1dbe77eec44b:0xbb1220a3299290f8!8m2!3d51.9864318!4d18.6149293!16s%2Fg%2F11jw5njmw9!19sChIJS8Tud74dG0cR-JCSKaMgErs?authuser=0&hl=tr&rclk=1",
    "website_url": "https://marketdino.pl/",
    "rating_text": "4,4",
    "stars": null,
    "number_of_reviews": null,
    "price_level": "",
    "open_hours": "",
    "extraction_timestamp": "2025-06-07T17:51:57.005Z",
    "source_name": "google",
    "source_query": "Irrigation Equipment",
    "source_country": "PL",
    "country": "Poland",
    "state": "Greater Poland Voivodeship",
    "city": "Przykona"
  },
  {
    "source_id": "ChIJLQg_eupdBEcRdiumEXeO1m4",
    "name": "WaterGreen-Systems Sp. z o.o. Systemy Nawadniania - sprzedaż , montaż , serwis.",
    "category": "WaterGreen-Systems Sp. z o.o. Systemy Nawadniania - sprzedaż , montaż , serwis.",
    "formatted_address": "WaterGreen-Systems Sp. z o.o. Systemy Nawadniania - sprzedaż , montaż , serwis.",
    "phone_number": "+48601773701",
    "source_url": "https://www.google.com/maps/place/WaterGreen-Systems+Sp.+z+o.o.+Systemy+Nawadniania+-+sprzeda%C5%BC+,+monta%C5%BC+,+serwis./data=!4m7!3m6!1s0x47045dea7a3f082d:0x6ed68e7711a62b76!8m2!3d52.4443283!4d17.0354739!16s%2Fg%2F11j7k4tmx3!19sChIJLQg_eupdBEcRdiumEXeO1m4?authuser=0&hl=tr&rclk=1",
    "website_url": "http://www.watergreen.pl/",
    "rating_text": "",
    "stars": null,
    "number_of_reviews": null,
    "price_level": "",
    "open_hours": "",
    "extraction_timestamp": "2025-06-07T17:51:57.007Z",
    "source_name": "google",
    "source_query": "Irrigation Equipment",
    "source_country": "PL",
    "country": "Poland",
    "state": "Greater Poland Voivodeship",
    "city": "Przykona"
  },
  {
    "source_id": "ChIJv0hNf95KGkcRnRWNY1Nsl6c",
    "name": "Poldrip",
    "category": "Poldrip",
    "formatted_address": "4,6(12)",
    "phone_number": "+48662789555",
    "source_url": "https://www.google.com/maps/place/Poldrip/data=!4m7!3m6!1s0x471a4ade7f4d48bf:0xa7976c53638d159d!8m2!3d51.7694982!4d19.3328193!16s%2Fg%2F1pty2psn6!19sChIJv0hNf95KGkcRnRWNY1Nsl6c?authuser=0&hl=tr&rclk=1",
    "website_url": "http://poldrip.pl/",
    "rating_text": "4,6",
    "stars": null,
    "number_of_reviews": null,
    "price_level": "",
    "open_hours": "",
    "extraction_timestamp": "2025-06-07T17:51:57.008Z",
    "source_name": "google",
    "source_query": "Irrigation Equipment",
    "source_country": "PL",
    "country": "Poland",
    "state": "Greater Poland Voivodeship",
    "city": "Przykona"
  },
  {
    "source_id": "ChIJuURpljPKHkcRbHI_RgEM7_8",
    "name": "Sprinkler Sp. z o.o.",
    "category": "Sprinkler Sp. z o.o.",
    "formatted_address": "5,0(2)",
    "phone_number": "+48662141039",
    "source_url": "https://www.google.com/maps/place/Sprinkler+Sp.+z+o.o./data=!4m7!3m6!1s0x471eca33966944b9:0xffef0c01463f726c!8m2!3d52.2406666!4d20.9087774!16s%2Fg%2F11f10g71_3!19sChIJuURpljPKHkcRbHI_RgEM7_8?authuser=0&hl=tr&rclk=1",
    "website_url": "http://www.sprinkler.pl/",
    "rating_text": "5,0",
    "stars": null,
    "number_of_reviews": null,
    "price_level": "",
    "open_hours": "",
    "extraction_timestamp": "2025-06-07T17:51:57.011Z",
    "source_name": "google",
    "source_query": "Irrigation Equipment",
    "source_country": "PL",
    "country": "Poland",
    "state": "Greater Poland Voivodeship",
    "city": "Przykona"
  },
  {
    "source_id": "ChIJA6JYetBEBEcRSesm_bQs_GE",
    "name": "Tractorpool - Farm Machinery, Agricultural equipment.",
    "category": "Tractorpool - Farm Machinery, Agricultural equipment.",
    "formatted_address": "Tractorpool - Farm Machinery, Agricultural equipment.",
    "phone_number": "+48618862914",
    "source_url": "https://www.google.com/maps/place/Tractorpool+-+Farm+Machinery,+Agricultural+equipment./data=!4m7!3m6!1s0x470444d07a58a203:0x61fc2cb4fd26eb49!8m2!3d52.381122!4d16.886331!16s%2Fg%2F1hm2sj2sl!19sChIJA6JYetBEBEcRSesm_bQs_GE?authuser=0&hl=tr&rclk=1",
    "website_url": "http://www.traktorpool.pl/",
    "rating_text": "3,0",
    "stars": null,
    "number_of_reviews": null,
    "price_level": "",
    "open_hours": "",
    "extraction_timestamp": "2025-06-07T17:51:57.012Z",
    "source_name": "google",
    "source_query": "Irrigation Equipment",
    "source_country": "PL",
    "country": "Poland",
    "state": "Greater Poland Voivodeship",
    "city": "Przykona"
  },
  {
    "source_id": "ChIJVTV3W_PzBEcR6gY0xwQi2_E",
    "name": "Deszczownie.com",
    "category": "Deszczownie.com",
    "formatted_address": "",
    "phone_number": "+48726000030",
    "source_url": "https://www.google.com/maps/place/Deszczownie.com/data=!4m7!3m6!1s0x4704f3f35b773555:0xf1db2204c73406ea!8m2!3d52.3623948!4d17.4021087!16s%2Fg%2F11y3pv4rxr!19sChIJVTV3W_PzBEcR6gY0xwQi2_E?authuser=0&hl=tr&rclk=1",
    "website_url": "https://www.deszczownie.com/",
    "rating_text": "",
    "stars": null,
    "number_of_reviews": null,
    "price_level": "",
    "open_hours": "",
    "extraction_timestamp": "2025-06-07T17:51:57.013Z",
    "source_name": "google",
    "source_query": "Irrigation Equipment",
    "source_country": "PL",
    "country": "Poland",
    "state": "Greater Poland Voivodeship",
    "city": "Przykona"
  },
  {
    "source_id": "ChIJ76WAmPBgGUcRnx47bXjXTwU",
    "name": "Agrofim Poland Sp. z o.o.",
    "category": "Agrofim Poland Sp. z o.o.",
    "formatted_address": "3,8(6)",
    "phone_number": "+48468332266",
    "source_url": "https://www.google.com/maps/place/Agrofim+Poland+Sp.+z+o.o./data=!4m7!3m6!1s0x471960f09880a5ef:0x54fd7786d3b1e9f!8m2!3d51.9616303!4d20.1543898!16s%2Fg%2F1tdnjw7b!19sChIJ76WAmPBgGUcRnx47bXjXTwU?authuser=0&hl=tr&rclk=1",
    "website_url": "http://agrofim.pl/",
    "rating_text": "3,8",
    "stars": null,
    "number_of_reviews": null,
    "price_level": "",
    "open_hours": "",
    "extraction_timestamp": "2025-06-07T17:51:57.014Z",
    "source_name": "google",
    "source_query": "Irrigation Equipment",
    "source_country": "PL",
    "country": "Poland",
    "state": "Greater Poland Voivodeship",
    "city": "Przykona"
  }
]
