[
  {
    "source_id": "ChIJR2e_iu_dBEcRHayvDq1P5bs",
    "name": "GeoEnergia Września - Fotowoltaika • Klimatyzacje • Pompy Ciepla",
    "category": "GeoEnergia Września - Fotowoltaika • Klimatyzacje • Pompy Ciepla",
    "formatted_address": "5,0(34)",
    "phone_number": "+48720720466",
    "source_url": "https://www.google.com/maps/place/GeoEnergia+Wrze%C5%9Bnia+-+Fotowoltaika+%E2%80%A2+Klimatyzacje+%E2%80%A2+Pompy+Ciepla/data=!4m7!3m6!1s0x4704ddef8abf6747:0xbbe54fad0eafac1d!8m2!3d52.2034419!4d17.6542439!16s%2Fg%2F11m89spxgq!19sChIJR2e_iu_dBEcRHayvDq1P5bs?authuser=0&hl=tr&rclk=1",
    "website_url": "",
    "rating_text": "5,0",
    "stars": null,
    "number_of_reviews": null,
    "price_level": "",
    "open_hours": "",
    "extraction_timestamp": "2025-06-07T17:21:17.645Z",
    "source_name": "google",
    "source_query": "Irrigation Equipment",
    "source_country": "PL",
    "country": "Poland",
    "state": "Greater Poland Voivodeship",
    "city": "Pyzdry"
  },
  {
    "source_id": "ChIJzbaWyEDbBEcR3it-4EMldxU",
    "name": "POLOmarket",
    "category": "POLOmarket",
    "formatted_address": "4,2(181)",
    "phone_number": "+48518012122",
    "source_url": "https://www.google.com/maps/place/POLOmarket/data=!4m7!3m6!1s0x4704db40c896b6cd:0x15772543e07e2bde!8m2!3d52.1729718!4d17.6876703!16s%2Fg%2F11gvwv5d5w!19sChIJzbaWyEDbBEcR3it-4EMldxU?authuser=0&hl=tr&rclk=1",
    "website_url": "",
    "rating_text": "4,2",
    "stars": null,
    "number_of_reviews": null,
    "price_level": "",
    "open_hours": "",
    "extraction_timestamp": "2025-06-07T17:21:17.646Z",
    "source_name": "google",
    "source_query": "Irrigation Equipment",
    "source_country": "PL",
    "country": "Poland",
    "state": "Greater Poland Voivodeship",
    "city": "Pyzdry"
  },
  {
    "source_id": "ChIJh6aS7UXbBEcR4-Dppk-DKzw",
    "name": "BAJKA",
    "category": "BAJKA",
    "formatted_address": "5,0(3)",
    "phone_number": "",
    "source_url": "https://www.google.com/maps/place/BAJKA/data=!4m7!3m6!1s0x4704db45ed92a687:0x3c2b834fa6e9e0e3!8m2!3d52.1661648!4d17.6880433!16s%2Fg%2F11qn9jx_wb!19sChIJh6aS7UXbBEcR4-Dppk-DKzw?authuser=0&hl=tr&rclk=1",
    "website_url": "",
    "rating_text": "5,0",
    "stars": null,
    "number_of_reviews": null,
    "price_level": "",
    "open_hours": "",
    "extraction_timestamp": "2025-06-07T17:21:17.646Z",
    "source_name": "google",
    "source_query": "Irrigation Equipment",
    "source_country": "PL",
    "country": "Poland",
    "state": "Greater Poland Voivodeship",
    "city": "Pyzdry"
  },
  {
    "source_id": "ChIJ4zc6v4hZBEcRKah1mzKBwPg",
    "name": "PHU \"ADVISER\" - Systemy nawadniania",
    "category": "PHU \"ADVISER\" - Systemy nawadniania",
    "formatted_address": "4,8(123)",
    "phone_number": "+48618798700",
    "source_url": "https://www.google.com/maps/place/PHU+%22ADVISER%22+-+Systemy+nawadniania/data=!4m7!3m6!1s0x47045988bf3a37e3:0xf8c081329b75a829!8m2!3d52.3434333!4d17.0287055!16s%2Fg%2F1w3459w5!19sChIJ4zc6v4hZBEcRKah1mzKBwPg?authuser=0&hl=tr&rclk=1",
    "website_url": "",
    "rating_text": "4,8",
    "stars": null,
    "number_of_reviews": null,
    "price_level": "",
    "open_hours": "",
    "extraction_timestamp": "2025-06-07T17:21:17.647Z",
    "source_name": "google",
    "source_query": "Irrigation Equipment",
    "source_country": "PL",
    "country": "Poland",
    "state": "Greater Poland Voivodeship",
    "city": "Pyzdry"
  },
  {
    "source_id": "ChIJofOCCPfbBEcR8icUqfHx94U",
    "name": "SAM OLA GROSZEK",
    "category": "SAM OLA GROSZEK",
    "formatted_address": "4,5(22)",
    "phone_number": "+48632767191",
    "source_url": "https://www.google.com/maps/place/SAM+OLA+GROSZEK/data=!4m7!3m6!1s0x4704dbf70882f3a1:0x85f7f1f1a91427f2!8m2!3d52.1675555!4d17.6887599!16s%2Fg%2F11h8jnd8b1!19sChIJofOCCPfbBEcR8icUqfHx94U?authuser=0&hl=tr&rclk=1",
    "website_url": "",
    "rating_text": "4,5",
    "stars": null,
    "number_of_reviews": null,
    "price_level": "",
    "open_hours": "",
    "extraction_timestamp": "2025-06-07T17:21:17.648Z",
    "source_name": "google",
    "source_query": "Irrigation Equipment",
    "source_country": "PL",
    "country": "Poland",
    "state": "Greater Poland Voivodeship",
    "city": "Pyzdry"
  },
  {
    "source_id": "ChIJRbMKWonbBEcROZJ3L3uc6jI",
    "name": "Sklep Polski",
    "category": "Sklep Polski",
    "formatted_address": "4,1(40)",
    "phone_number": "+48512013146",
    "source_url": "https://www.google.com/maps/place/Sklep+Polski/data=!4m7!3m6!1s0x4704db895a0ab345:0x32ea9c7b2f779239!8m2!3d52.1696969!4d17.6823984!16s%2Fg%2F11hb58bljc!19sChIJRbMKWonbBEcROZJ3L3uc6jI?authuser=0&hl=tr&rclk=1",
    "website_url": "",
    "rating_text": "4,1",
    "stars": null,
    "number_of_reviews": null,
    "price_level": "",
    "open_hours": "",
    "extraction_timestamp": "2025-06-07T17:21:17.649Z",
    "source_name": "google",
    "source_query": "Irrigation Equipment",
    "source_country": "PL",
    "country": "Poland",
    "state": "Greater Poland Voivodeship",
    "city": "Pyzdry"
  },
  {
    "source_id": "ChIJ34pOOSbbBEcRbVH5ZFvqR8A",
    "name": "Dino",
    "category": "Dino",
    "formatted_address": "4,5(33)",
    "phone_number": "",
    "source_url": "https://www.google.com/maps/place/Dino/data=!4m7!3m6!1s0x4704db26394e8adf:0xc047ea5b64f9516d!8m2!3d52.1731888!4d17.6882511!16s%2Fg%2F11nmr59n98!19sChIJ34pOOSbbBEcRbVH5ZFvqR8A?authuser=0&hl=tr&rclk=1",
    "website_url": "",
    "rating_text": "4,5",
    "stars": null,
    "number_of_reviews": null,
    "price_level": "",
    "open_hours": "",
    "extraction_timestamp": "2025-06-07T17:21:17.650Z",
    "source_name": "google",
    "source_query": "Irrigation Equipment",
    "source_country": "PL",
    "country": "Poland",
    "state": "Greater Poland Voivodeship",
    "city": "Pyzdry"
  },
  {
    "source_id": "ChIJMa5woo3bBEcRAuClkBUiwZg",
    "name": "Dino",
    "category": "Dino",
    "formatted_address": "4,2(224)",
    "phone_number": "",
    "source_url": "https://www.google.com/maps/place/Dino/data=!4m7!3m6!1s0x4704db8da270ae31:0x98c1221590a5e002!8m2!3d52.1661434!4d17.6870567!16s%2Fg%2F1tgnqc2g!19sChIJMa5woo3bBEcRAuClkBUiwZg?authuser=0&hl=tr&rclk=1",
    "website_url": "",
    "rating_text": "4,2",
    "stars": null,
    "number_of_reviews": null,
    "price_level": "",
    "open_hours": "",
    "extraction_timestamp": "2025-06-07T17:21:17.651Z",
    "source_name": "google",
    "source_query": "Irrigation Equipment",
    "source_country": "PL",
    "country": "Poland",
    "state": "Greater Poland Voivodeship",
    "city": "Pyzdry"
  },
  {
    "source_id": "ChIJjU8F_PLbBEcRzDMGHPusxc8",
    "name": "AUTO-CZĘŚCI SP. Z O.O.",
    "category": "AUTO-CZĘŚCI SP. Z O.O.",
    "formatted_address": "4,7(24)",
    "phone_number": "+48533173663",
    "source_url": "https://www.google.com/maps/place/AUTO-CZ%C4%98%C5%9ACI+SP.+Z+O.O./data=!4m7!3m6!1s0x4704dbf2fc054f8d:0xcfc5acfb1c0633cc!8m2!3d52.1600036!4d17.6816278!16s%2Fg%2F11h6g11cgg!19sChIJjU8F_PLbBEcRzDMGHPusxc8?authuser=0&hl=tr&rclk=1",
    "website_url": "",
    "rating_text": "4,7",
    "stars": null,
    "number_of_reviews": null,
    "price_level": "",
    "open_hours": "",
    "extraction_timestamp": "2025-06-07T17:21:17.652Z",
    "source_name": "google",
    "source_query": "Irrigation Equipment",
    "source_country": "PL",
    "country": "Poland",
    "state": "Greater Poland Voivodeship",
    "city": "Pyzdry"
  },
  {
    "source_id": "ChIJ47KI-yHbBEcR4yYSfSWYrhs",
    "name": "Biedronka",
    "category": "Biedronka",
    "formatted_address": "4,2(264)",
    "phone_number": "+48800080010",
    "source_url": "https://www.google.com/maps/place/Biedronka/data=!4m7!3m6!1s0x4704db21fb88b2e3:0x1bae98257d1226e3!8m2!3d52.1753176!4d17.685528!16s%2Fg%2F11llr87qlj!19sChIJ47KI-yHbBEcR4yYSfSWYrhs?authuser=0&hl=tr&rclk=1",
    "website_url": "",
    "rating_text": "4,2",
    "stars": null,
    "number_of_reviews": null,
    "price_level": "",
    "open_hours": "",
    "extraction_timestamp": "2025-06-07T17:21:17.652Z",
    "source_name": "google",
    "source_query": "Irrigation Equipment",
    "source_country": "PL",
    "country": "Poland",
    "state": "Greater Poland Voivodeship",
    "city": "Pyzdry"
  },
  {
    "source_id": "ChIJB6y_v5J2HEcRlDfYx3xmc9M",
    "name": "Milex irrigation systems",
    "category": "Milex irrigation systems",
    "formatted_address": "4,6(37)",
    "phone_number": "+48242775222",
    "source_url": "https://www.google.com/maps/place/Milex+irrigation+systems/data=!4m7!3m6!1s0x471c7692bfbfac07:0xd373667cc7d83794!8m2!3d52.4690634!4d19.7520904!16s%2Fg%2F1w2yy67r!19sChIJB6y_v5J2HEcRlDfYx3xmc9M?authuser=0&hl=tr&rclk=1",
    "website_url": "",
    "rating_text": "4,6",
    "stars": null,
    "number_of_reviews": null,
    "price_level": "",
    "open_hours": "",
    "extraction_timestamp": "2025-06-07T17:21:17.654Z",
    "source_name": "google",
    "source_query": "Irrigation Equipment",
    "source_country": "PL",
    "country": "Poland",
    "state": "Greater Poland Voivodeship",
    "city": "Pyzdry"
  },
  {
    "source_id": "ChIJMa5woo3bBEcRWYms6n1WDTs",
    "name": "Plus. Sklep kosmetyczny. Popielarska K.",
    "category": "Plus. Sklep kosmetyczny. Popielarska K.",
    "formatted_address": "5,0(1)",
    "phone_number": "+48604796355",
    "source_url": "https://www.google.com/maps/place/Plus.+Sklep+kosmetyczny.+Popielarska+K./data=!4m7!3m6!1s0x4704db8da270ae31:0x3b0d567deaac8959!8m2!3d52.1673669!4d17.6873587!16s%2Fg%2F1tgfc1v6!19sChIJMa5woo3bBEcRWYms6n1WDTs?authuser=0&hl=tr&rclk=1",
    "website_url": "",
    "rating_text": "5,0",
    "stars": null,
    "number_of_reviews": null,
    "price_level": "",
    "open_hours": "",
    "extraction_timestamp": "2025-06-07T17:21:17.654Z",
    "source_name": "google",
    "source_query": "Irrigation Equipment",
    "source_country": "PL",
    "country": "Poland",
    "state": "Greater Poland Voivodeship",
    "city": "Pyzdry"
  },
  {
    "source_id": "ChIJkymaz43bBEcR_CpOzIVQmaU",
    "name": "Delikatesy Centrum",
    "category": "Delikatesy Centrum",
    "formatted_address": "4,2(141)",
    "phone_number": "+48693320556",
    "source_url": "https://www.google.com/maps/place/Delikatesy+Centrum/data=!4m7!3m6!1s0x4704db8dcf9a2993:0xa5995085cc4e2afc!8m2!3d52.1678813!4d17.6869747!16s%2Fg%2F11bv1lzqdz!19sChIJkymaz43bBEcR_CpOzIVQmaU?authuser=0&hl=tr&rclk=1",
    "website_url": "",
    "rating_text": "4,2",
    "stars": null,
    "number_of_reviews": null,
    "price_level": "",
    "open_hours": "",
    "extraction_timestamp": "2025-06-07T17:21:17.655Z",
    "source_name": "google",
    "source_query": "Irrigation Equipment",
    "source_country": "PL",
    "country": "Poland",
    "state": "Greater Poland Voivodeship",
    "city": "Pyzdry"
  },
  {
    "source_id": "ChIJVTV3W_PzBEcR6gY0xwQi2_E",
    "name": "Deszczownie.com",
    "category": "Deszczownie.com",
    "formatted_address": "",
    "phone_number": "+48726000030",
    "source_url": "https://www.google.com/maps/place/Deszczownie.com/data=!4m7!3m6!1s0x4704f3f35b773555:0xf1db2204c73406ea!8m2!3d52.3623948!4d17.4021087!16s%2Fg%2F11y3pv4rxr!19sChIJVTV3W_PzBEcR6gY0xwQi2_E?authuser=0&hl=tr&rclk=1",
    "website_url": "",
    "rating_text": "",
    "stars": null,
    "number_of_reviews": null,
    "price_level": "",
    "open_hours": "",
    "extraction_timestamp": "2025-06-07T17:21:17.657Z",
    "source_name": "google",
    "source_query": "Irrigation Equipment",
    "source_country": "PL",
    "country": "Poland",
    "state": "Greater Poland Voivodeship",
    "city": "Pyzdry"
  }
]
