[
  {
    "source_id": "ChIJjz9EQE7OBUcR92gSM3HlPdA",
    "name": "Ciorga Andrzej. Hurtownia materiałów budowlanych",
    "category": "Ciorga Andrzej. Hurtownia materiałów budowlanych",
    "formatted_address": "4,4(23)",
    "phone_number": "+48614441062",
    "source_url": "https://www.google.com/maps/place/Ciorga+Andrzej.+Hurtownia+materia%C5%82%C3%B3w+budowlanych/data=!4m7!3m6!1s0x4705ce4e40443f8f:0xd03de571331268f7!8m2!3d52.1378736!4d16.269032!16s%2Fg%2F1ts1lbsv!19sChIJjz9EQE7OBUcR92gSM3HlPdA?authuser=0&hl=tr&rclk=1",
    "website_url": "",
    "rating_text": "4,4",
    "stars": null,
    "number_of_reviews": null,
    "price_level": "",
    "open_hours": "",
    "extraction_timestamp": "2025-06-07T17:38:35.420Z",
    "source_name": "google",
    "source_query": "Irrigation Equipment",
    "source_country": "PL",
    "country": "Poland",
    "state": "Greater Poland Voivodeship",
    "city": "Rakoniewice"
  },
  {
    "source_id": "ChIJB6y_v5J2HEcRlDfYx3xmc9M",
    "name": "Milex irrigation systems",
    "category": "Milex irrigation systems",
    "formatted_address": "4,6(37)",
    "phone_number": "+48242775222",
    "source_url": "https://www.google.com/maps/place/Milex+irrigation+systems/data=!4m7!3m6!1s0x471c7692bfbfac07:0xd373667cc7d83794!8m2!3d52.4690634!4d19.7520904!16s%2Fg%2F1w2yy67r!19sChIJB6y_v5J2HEcRlDfYx3xmc9M?authuser=0&hl=tr&rclk=1",
    "website_url": "",
    "rating_text": "4,6",
    "stars": null,
    "number_of_reviews": null,
    "price_level": "",
    "open_hours": "",
    "extraction_timestamp": "2025-06-07T17:38:35.422Z",
    "source_name": "google",
    "source_query": "Irrigation Equipment",
    "source_country": "PL",
    "country": "Poland",
    "state": "Greater Poland Voivodeship",
    "city": "Rakoniewice"
  },
  {
    "source_id": "ChIJeTct9E3OBUcRuinWujPhNUg",
    "name": "Elprod S.C. Hurtownia Elektrotechniczna",
    "category": "Elprod S.C. Hurtownia Elektrotechniczna",
    "formatted_address": "5,0(3)",
    "phone_number": "+48604571821",
    "source_url": "https://www.google.com/maps/place/Elprod+S.C.+Hurtownia+Elektrotechniczna/data=!4m7!3m6!1s0x4705ce4df42d3779:0x4835e133bad629ba!8m2!3d52.1381885!4d16.2693483!16s%2Fg%2F1hc36fkrb!19sChIJeTct9E3OBUcRuinWujPhNUg?authuser=0&hl=tr&rclk=1",
    "website_url": "",
    "rating_text": "5,0",
    "stars": null,
    "number_of_reviews": null,
    "price_level": "",
    "open_hours": "",
    "extraction_timestamp": "2025-06-07T17:38:35.423Z",
    "source_name": "google",
    "source_query": "Irrigation Equipment",
    "source_country": "PL",
    "country": "Poland",
    "state": "Greater Poland Voivodeship",
    "city": "Rakoniewice"
  },
  {
    "source_id": "ChIJLeP3N1DOBUcREFVsWAEeJ0Y",
    "name": "POLOmarket",
    "category": "POLOmarket",
    "formatted_address": "4,0(254)",
    "phone_number": "+48614441606",
    "source_url": "https://www.google.com/maps/place/POLOmarket/data=!4m7!3m6!1s0x4705ce5037f7e32d:0x46271e01586c5510!8m2!3d52.136486!4d16.272264!16s%2Fg%2F1hc1s1hgl!19sChIJLeP3N1DOBUcREFVsWAEeJ0Y?authuser=0&hl=tr&rclk=1",
    "website_url": "",
    "rating_text": "4,0",
    "stars": null,
    "number_of_reviews": null,
    "price_level": "",
    "open_hours": "",
    "extraction_timestamp": "2025-06-07T17:38:35.425Z",
    "source_name": "google",
    "source_query": "Irrigation Equipment",
    "source_country": "PL",
    "country": "Poland",
    "state": "Greater Poland Voivodeship",
    "city": "Rakoniewice"
  },
  {
    "source_id": "ChIJw9GBV4zXBUcRpSVncnXjjyU",
    "name": "roltechnika",
    "category": "roltechnika",
    "formatted_address": "4,5(6)",
    "phone_number": "+48508133618",
    "source_url": "https://www.google.com/maps/place/roltechnika/data=!4m7!3m6!1s0x4705d78c5781d1c3:0x258fe375726725a5!8m2!3d52.1277867!4d15.9985933!16s%2Fg%2F11h35pcslr!19sChIJw9GBV4zXBUcRpSVncnXjjyU?authuser=0&hl=tr&rclk=1",
    "website_url": "",
    "rating_text": "4,5",
    "stars": null,
    "number_of_reviews": null,
    "price_level": "",
    "open_hours": "",
    "extraction_timestamp": "2025-06-07T17:38:35.457Z",
    "source_name": "google",
    "source_query": "Irrigation Equipment",
    "source_country": "PL",
    "country": "Poland",
    "state": "Greater Poland Voivodeship",
    "city": "Rakoniewice"
  },
  {
    "source_id": "ChIJC8fnNUXOBUcR_xPZo4UYfkg",
    "name": "Biedronka",
    "category": "Biedronka",
    "formatted_address": "4,2(557)",
    "phone_number": "+48800080010",
    "source_url": "https://www.google.com/maps/place/Biedronka/data=!4m7!3m6!1s0x4705ce4535e7c70b:0x487e1885a3d913ff!8m2!3d52.1438135!4d16.2755286!16s%2Fg%2F11b5wp0wb1!19sChIJC8fnNUXOBUcR_xPZo4UYfkg?authuser=0&hl=tr&rclk=1",
    "website_url": "",
    "rating_text": "4,2",
    "stars": null,
    "number_of_reviews": null,
    "price_level": "",
    "open_hours": "",
    "extraction_timestamp": "2025-06-07T17:38:35.459Z",
    "source_name": "google",
    "source_query": "Irrigation Equipment",
    "source_country": "PL",
    "country": "Poland",
    "state": "Greater Poland Voivodeship",
    "city": "Rakoniewice"
  },
  {
    "source_id": "ChIJIV6LZz3PBUcRTst9S0Iifq8",
    "name": "TECHKOMŁG",
    "category": "TECHKOMŁG",
    "formatted_address": "3,9(12)",
    "phone_number": "+48614438924",
    "source_url": "https://www.google.com/maps/place/TECHKOM%C5%81G/data=!4m7!3m6!1s0x4705cf3d678b5e21:0xaf7e22424b7dcb4e!8m2!3d52.138377!4d16.2741501!16s%2Fg%2F11h439dc36!19sChIJIV6LZz3PBUcRTst9S0Iifq8?authuser=0&hl=tr&rclk=1",
    "website_url": "",
    "rating_text": "3,9",
    "stars": null,
    "number_of_reviews": null,
    "price_level": "",
    "open_hours": "",
    "extraction_timestamp": "2025-06-07T17:38:35.460Z",
    "source_name": "google",
    "source_query": "Irrigation Equipment",
    "source_country": "PL",
    "country": "Poland",
    "state": "Greater Poland Voivodeship",
    "city": "Rakoniewice"
  },
  {
    "source_id": "ChIJi8Kf50zOBUcRxqimIodpo8Q",
    "name": "Dino",
    "category": "Dino",
    "formatted_address": "4,1(266)",
    "phone_number": "",
    "source_url": "https://www.google.com/maps/place/Dino/data=!4m7!3m6!1s0x4705ce4ce79fc28b:0xc4a3698722a6a8c6!8m2!3d52.1352264!4d16.2697877!16s%2Fg%2F1td9p76h!19sChIJi8Kf50zOBUcRxqimIodpo8Q?authuser=0&hl=tr&rclk=1",
    "website_url": "",
    "rating_text": "4,1",
    "stars": null,
    "number_of_reviews": null,
    "price_level": "",
    "open_hours": "",
    "extraction_timestamp": "2025-06-07T17:38:35.461Z",
    "source_name": "google",
    "source_query": "Irrigation Equipment",
    "source_country": "PL",
    "country": "Poland",
    "state": "Greater Poland Voivodeship",
    "city": "Rakoniewice"
  },
  {
    "source_id": "ChIJi8Kf50zOBUcRreEmYnoS1dY",
    "name": "Jedynka. Delikatesy",
    "category": "Jedynka. Delikatesy",
    "formatted_address": "4,8(42)",
    "phone_number": "+48614442965",
    "source_url": "https://www.google.com/maps/place/Jedynka.+Delikatesy/data=!4m7!3m6!1s0x4705ce4ce79fc28b:0xd6d5127a6226e1ad!8m2!3d52.1371108!4d16.2720827!16s%2Fg%2F1wk7pkst!19sChIJi8Kf50zOBUcRreEmYnoS1dY?authuser=0&hl=tr&rclk=1",
    "website_url": "",
    "rating_text": "4,8",
    "stars": null,
    "number_of_reviews": null,
    "price_level": "",
    "open_hours": "",
    "extraction_timestamp": "2025-06-07T17:38:35.462Z",
    "source_name": "google",
    "source_query": "Irrigation Equipment",
    "source_country": "PL",
    "country": "Poland",
    "state": "Greater Poland Voivodeship",
    "city": "Rakoniewice"
  },
  {
    "source_id": "ChIJW266203OBUcRRZ-kKrjPlU0",
    "name": "Caro. Hurtownia piwa i napojów",
    "category": "Caro. Hurtownia piwa i napojów",
    "formatted_address": "1,0(1)",
    "phone_number": "+48614441608",
    "source_url": "https://www.google.com/maps/place/Caro.+Hurtownia+piwa+i+napoj%C3%B3w/data=!4m7!3m6!1s0x4705ce4ddbba6e5b:0x4d95cfb82aa49f45!8m2!3d52.1371603!4d16.2696811!16s%2Fg%2F1tfh3bxz!19sChIJW266203OBUcRRZ-kKrjPlU0?authuser=0&hl=tr&rclk=1",
    "website_url": "",
    "rating_text": "1,0",
    "stars": null,
    "number_of_reviews": null,
    "price_level": "",
    "open_hours": "",
    "extraction_timestamp": "2025-06-07T17:38:35.463Z",
    "source_name": "google",
    "source_query": "Irrigation Equipment",
    "source_country": "PL",
    "country": "Poland",
    "state": "Greater Poland Voivodeship",
    "city": "Rakoniewice"
  },
  {
    "source_id": "ChIJ_fcLvNXPBUcR4x0EyWAVQZo",
    "name": "Dino",
    "category": "Dino",
    "formatted_address": "4,5(6)",
    "phone_number": "",
    "source_url": "https://www.google.com/maps/place/Dino/data=!4m7!3m6!1s0x4705cfd5bc0bf7fd:0x9a411560c9041de3!8m2!3d52.145348!4d16.2846666!16s%2Fg%2F11wwgs6j_7!19sChIJ_fcLvNXPBUcR4x0EyWAVQZo?authuser=0&hl=tr&rclk=1",
    "website_url": "",
    "rating_text": "4,5",
    "stars": null,
    "number_of_reviews": null,
    "price_level": "",
    "open_hours": "",
    "extraction_timestamp": "2025-06-07T17:38:35.464Z",
    "source_name": "google",
    "source_query": "Irrigation Equipment",
    "source_country": "PL",
    "country": "Poland",
    "state": "Greater Poland Voivodeship",
    "city": "Rakoniewice"
  },
  {
    "source_id": "ChIJd2Nr1FHOBUcR-vTpKZ2Pa_s",
    "name": "Delikatesy Centrum",
    "category": "Delikatesy Centrum",
    "formatted_address": "4,2(104)",
    "phone_number": "+48614441045",
    "source_url": "https://www.google.com/maps/place/Delikatesy+Centrum/data=!4m7!3m6!1s0x4705ce51d46b6377:0xfb6b8f9d29e9f4fa!8m2!3d52.1397882!4d16.2739844!16s%2Fg%2F11hd7y_wq5!19sChIJd2Nr1FHOBUcR-vTpKZ2Pa_s?authuser=0&hl=tr&rclk=1",
    "website_url": "",
    "rating_text": "4,2",
    "stars": null,
    "number_of_reviews": null,
    "price_level": "",
    "open_hours": "",
    "extraction_timestamp": "2025-06-07T17:38:35.465Z",
    "source_name": "google",
    "source_query": "Irrigation Equipment",
    "source_country": "PL",
    "country": "Poland",
    "state": "Greater Poland Voivodeship",
    "city": "Rakoniewice"
  },
  {
    "source_id": "ChIJyTFUgVLOBUcR5IyxjpCEIXI",
    "name": "Auto-Bazar S.C.",
    "category": "Auto-Bazar S.C.",
    "formatted_address": "4,5(22)",
    "phone_number": "+48501361235",
    "source_url": "https://www.google.com/maps/place/Auto-Bazar+S.C./data=!4m7!3m6!1s0x4705ce52815431c9:0x722184908eb18ce4!8m2!3d52.1466311!4d16.2849371!16s%2Fg%2F1tg4_3kx!19sChIJyTFUgVLOBUcR5IyxjpCEIXI?authuser=0&hl=tr&rclk=1",
    "website_url": "",
    "rating_text": "4,5",
    "stars": null,
    "number_of_reviews": null,
    "price_level": "",
    "open_hours": "",
    "extraction_timestamp": "2025-06-07T17:38:35.466Z",
    "source_name": "google",
    "source_query": "Irrigation Equipment",
    "source_country": "PL",
    "country": "Poland",
    "state": "Greater Poland Voivodeship",
    "city": "Rakoniewice"
  },
  {
    "source_id": "ChIJFbohO07OBUcRgE2CCMeOdnc",
    "name": "Lemański Longin. Sklep spożywczy",
    "category": "Lemański Longin. Sklep spożywczy",
    "formatted_address": "4,5(12)",
    "phone_number": "+48604511807",
    "source_url": "https://www.google.com/maps/place/Lema%C5%84ski+Longin.+Sklep+spo%C5%BCywczy/data=!4m7!3m6!1s0x4705ce4e3b21ba15:0x77768ec708824d80!8m2!3d52.1386787!4d16.2734133!16s%2Fg%2F1th093_x!19sChIJFbohO07OBUcRgE2CCMeOdnc?authuser=0&hl=tr&rclk=1",
    "website_url": "",
    "rating_text": "4,5",
    "stars": null,
    "number_of_reviews": null,
    "price_level": "",
    "open_hours": "",
    "extraction_timestamp": "2025-06-07T17:38:35.467Z",
    "source_name": "google",
    "source_query": "Irrigation Equipment",
    "source_country": "PL",
    "country": "Poland",
    "state": "Greater Poland Voivodeship",
    "city": "Rakoniewice"
  },
  {
    "source_id": "ChIJ26SGV0zOBUcRc6pd9svcNaA",
    "name": "Sklep i warsztat samochodowy - Auto Motor",
    "category": "Sklep i warsztat samochodowy - Auto Motor",
    "formatted_address": "5,0(29)",
    "phone_number": "+48791764400",
    "source_url": "https://www.google.com/maps/place/Sklep+i+warsztat+samochodowy+-+Auto+Motor/data=!4m7!3m6!1s0x4705ce4c5786a4db:0xa035dccbf65daa73!8m2!3d52.1302242!4d16.272526!16s%2Fg%2F11gdg9gygs!19sChIJ26SGV0zOBUcRc6pd9svcNaA?authuser=0&hl=tr&rclk=1",
    "website_url": "",
    "rating_text": "5,0",
    "stars": null,
    "number_of_reviews": null,
    "price_level": "",
    "open_hours": "",
    "extraction_timestamp": "2025-06-07T17:38:35.468Z",
    "source_name": "google",
    "source_query": "Irrigation Equipment",
    "source_country": "PL",
    "country": "Poland",
    "state": "Greater Poland Voivodeship",
    "city": "Rakoniewice"
  },
  {
    "source_id": "ChIJL5Hr7enMBUcR0Xn_a3J71-k",
    "name": "AUTO-HANDEL KUBIAK",
    "category": "AUTO-HANDEL KUBIAK",
    "formatted_address": "4,6(17)",
    "phone_number": "+48604501175",
    "source_url": "https://www.google.com/maps/place/AUTO-HANDEL+KUBIAK/data=!4m7!3m6!1s0x4705cce9edeb912f:0xe9d77b726bff79d1!8m2!3d52.1456327!4d16.2900881!16s%2Fg%2F1tfm9yqv!19sChIJL5Hr7enMBUcR0Xn_a3J71-k?authuser=0&hl=tr&rclk=1",
    "website_url": "",
    "rating_text": "4,6",
    "stars": null,
    "number_of_reviews": null,
    "price_level": "",
    "open_hours": "",
    "extraction_timestamp": "2025-06-07T17:38:35.469Z",
    "source_name": "google",
    "source_query": "Irrigation Equipment",
    "source_country": "PL",
    "country": "Poland",
    "state": "Greater Poland Voivodeship",
    "city": "Rakoniewice"
  },
  {
    "source_id": "ChIJLeP3N1DOBUcR5d3htG0YtnQ",
    "name": "Kryś Katarzyna. Sklep zoologiczny",
    "category": "Kryś Katarzyna. Sklep zoologiczny",
    "formatted_address": "5,0(1)",
    "phone_number": "+48614441646",
    "source_url": "https://www.google.com/maps/place/Kry%C5%9B+Katarzyna.+Sklep+zoologiczny/data=!4m7!3m6!1s0x4705ce5037f7e32d:0x74b6186db4e1dde5!8m2!3d52.140358!4d16.276579!16s%2Fg%2F1hc2kdblm!19sChIJLeP3N1DOBUcR5d3htG0YtnQ?authuser=0&hl=tr&rclk=1",
    "website_url": "",
    "rating_text": "5,0",
    "stars": null,
    "number_of_reviews": null,
    "price_level": "",
    "open_hours": "",
    "extraction_timestamp": "2025-06-07T17:38:35.470Z",
    "source_name": "google",
    "source_query": "Irrigation Equipment",
    "source_country": "PL",
    "country": "Poland",
    "state": "Greater Poland Voivodeship",
    "city": "Rakoniewice"
  },
  {
    "source_id": "ChIJb3PRes3PBUcRZv9IysWYOKw",
    "name": "Piekarnia Mik-mar",
    "category": "Piekarnia Mik-mar",
    "formatted_address": "4,2(12)",
    "phone_number": "",
    "source_url": "https://www.google.com/maps/place/Piekarnia+Mik-mar/data=!4m7!3m6!1s0x4705cfcd7ad1736f:0xac3898c5ca48ff66!8m2!3d52.1386372!4d16.2739396!16s%2Fg%2F11f9_dn84p!19sChIJb3PRes3PBUcRZv9IysWYOKw?authuser=0&hl=tr&rclk=1",
    "website_url": "",
    "rating_text": "4,2",
    "stars": null,
    "number_of_reviews": null,
    "price_level": "",
    "open_hours": "",
    "extraction_timestamp": "2025-06-07T17:38:35.470Z",
    "source_name": "google",
    "source_query": "Irrigation Equipment",
    "source_country": "PL",
    "country": "Poland",
    "state": "Greater Poland Voivodeship",
    "city": "Rakoniewice"
  },
  {
    "source_id": "ChIJP_YUZlHOBUcRieNeHAY5yp0",
    "name": "Kaja. FH. Marzena G.",
    "category": "Kaja. FH. Marzena G.",
    "formatted_address": "5,0(1)",
    "phone_number": "+48614441782",
    "source_url": "https://www.google.com/maps/place/Kaja.+FH.+Marzena+G./data=!4m7!3m6!1s0x4705ce516614f63f:0x9dca39061c5ee389!8m2!3d52.1393161!4d16.2769995!16s%2Fg%2F1thnmh06!19sChIJP_YUZlHOBUcRieNeHAY5yp0?authuser=0&hl=tr&rclk=1",
    "website_url": "",
    "rating_text": "5,0",
    "stars": null,
    "number_of_reviews": null,
    "price_level": "",
    "open_hours": "",
    "extraction_timestamp": "2025-06-07T17:38:35.471Z",
    "source_name": "google",
    "source_query": "Irrigation Equipment",
    "source_country": "PL",
    "country": "Poland",
    "state": "Greater Poland Voivodeship",
    "city": "Rakoniewice"
  },
  {
    "source_id": "ChIJZZ57UUzOBUcRXcfEKy9q8KQ",
    "name": "Sklep spożywczo - przemysłowy. FH",
    "category": "Sklep spożywczo - przemysłowy. FH",
    "formatted_address": "",
    "phone_number": "+48614441613",
    "source_url": "https://www.google.com/maps/place/Sklep+spo%C5%BCywczo+-+przemys%C5%82owy.+FH/data=!4m7!3m6!1s0x4705ce4c517b9e65:0xa4f06a2f2bc4c75d!8m2!3d52.1358504!4d16.2663215!16s%2Fg%2F1vyk1688!19sChIJZZ57UUzOBUcRXcfEKy9q8KQ?authuser=0&hl=tr&rclk=1",
    "website_url": "",
    "rating_text": "",
    "stars": null,
    "number_of_reviews": null,
    "price_level": "",
    "open_hours": "",
    "extraction_timestamp": "2025-06-07T17:38:35.472Z",
    "source_name": "google",
    "source_query": "Irrigation Equipment",
    "source_country": "PL",
    "country": "Poland",
    "state": "Greater Poland Voivodeship",
    "city": "Rakoniewice"
  },
  {
    "source_id": "ChIJxZTSQBWhBEcRF4aeNWXNi-w",
    "name": "Gardenbaum - Kompleksowe usługi ogrodnicze",
    "category": "Gardenbaum - Kompleksowe usługi ogrodnicze",
    "formatted_address": "5,0(7)",
    "phone_number": "+48575437261",
    "source_url": "https://www.google.com/maps/place/Gardenbaum+-+Kompleksowe+us%C5%82ugi+ogrodnicze/data=!4m7!3m6!1s0x4704a11540d294c5:0xec8bcd65359e8617!8m2!3d52.668365!4d17.9625112!16s%2Fg%2F11mwyx6wz6!19sChIJxZTSQBWhBEcRF4aeNWXNi-w?authuser=0&hl=tr&rclk=1",
    "website_url": "",
    "rating_text": "5,0",
    "stars": null,
    "number_of_reviews": null,
    "price_level": "",
    "open_hours": "",
    "extraction_timestamp": "2025-06-07T17:38:35.473Z",
    "source_name": "google",
    "source_query": "Irrigation Equipment",
    "source_country": "PL",
    "country": "Poland",
    "state": "Greater Poland Voivodeship",
    "city": "Rakoniewice"
  },
  {
    "source_id": "ChIJJVBDwIytBUcRWcmsQgPZbxU",
    "name": "NEO INSTALACJE - pompy ciepła, klimatyzacja, wentylacja, ogrzewanie, instalacje wod-kan",
    "category": "NEO INSTALACJE - pompy ciepła, klimatyzacja, wentylacja, ogrzewanie, instalacje wod-kan",
    "formatted_address": "NEO INSTALACJE - pompy ciepła, klimatyzacja, wentylacja, ogrzewanie, instalacje wod-kan",
    "phone_number": "+48661774385",
    "source_url": "https://www.google.com/maps/place/NEO+INSTALACJE+-+pompy+ciep%C5%82a,+klimatyzacja,+wentylacja,+ogrzewanie,+instalacje+wod-kan/data=!4m7!3m6!1s0x4705ad8cc0435025:0x156fd90342acc959!8m2!3d52.2351527!4d16.3470933!16s%2Fg%2F11fm16f44t!19sChIJJVBDwIytBUcRWcmsQgPZbxU?authuser=0&hl=tr&rclk=1",
    "website_url": "",
    "rating_text": "5,0",
    "stars": null,
    "number_of_reviews": null,
    "price_level": "",
    "open_hours": "",
    "extraction_timestamp": "2025-06-07T17:38:35.474Z",
    "source_name": "google",
    "source_query": "Irrigation Equipment",
    "source_country": "PL",
    "country": "Poland",
    "state": "Greater Poland Voivodeship",
    "city": "Rakoniewice"
  },
  {
    "source_id": "ChIJw25PviETBkcRfrEuTAtQJlE",
    "name": "Automatyczne systemy nawadniania, trawniki z rolki, ogrody Zielona Góra",
    "category": "Automatyczne systemy nawadniania, trawniki z rolki, ogrody Zielona Góra",
    "formatted_address": "Automatyczne systemy nawadniania, trawniki z rolki, ogrody Zielona Góra",
    "phone_number": "+48733010631",
    "source_url": "https://www.google.com/maps/place/Automatyczne+systemy+nawadniania,+trawniki+z+rolki,+ogrody+Zielona+G%C3%B3ra/data=!4m7!3m6!1s0x47061321be4f6ec3:0x5126500b4c2eb17e!8m2!3d52.4663784!4d16.8857997!16s%2Fg%2F12cns_87k!19sChIJw25PviETBkcRfrEuTAtQJlE?authuser=0&hl=tr&rclk=1",
    "website_url": "",
    "rating_text": "4,0",
    "stars": null,
    "number_of_reviews": null,
    "price_level": "",
    "open_hours": "",
    "extraction_timestamp": "2025-06-07T17:38:35.474Z",
    "source_name": "google",
    "source_query": "Irrigation Equipment",
    "source_country": "PL",
    "country": "Poland",
    "state": "Greater Poland Voivodeship",
    "city": "Rakoniewice"
  },
  {
    "source_id": "ChIJ2WaF3qBEBEcRkh3RiSlpbG8",
    "name": "Dankar Usługi Budowlane WOD-KAN I C.O. Kosztorysowanie Danuta Pyssa Pogotowie 24H Usuwanie awarii wodociągowych",
    "category": "Dankar Usługi Budowlane WOD-KAN I C.O. Kosztorysowanie Danuta Pyssa Pogotowie 24H Usuwanie awarii wodociągowych",
    "formatted_address": "3,8(5)",
    "phone_number": "+48606261146",
    "source_url": "https://www.google.com/maps/place/Dankar+Us%C5%82ugi+Budowlane+WOD-KAN+I+C.O.+Kosztorysowanie+Danuta+Pyssa+Pogotowie+24H+Usuwanie+awarii+wodoci%C4%85gowych/data=!4m7!3m6!1s0x470444a0de8566d9:0x6f6c692989d11d92!8m2!3d52.4340201!4d16.8965348!16s%2Fg%2F1tm__y40!19sChIJ2WaF3qBEBEcRkh3RiSlpbG8?authuser=0&hl=tr&rclk=1",
    "website_url": "",
    "rating_text": "3,8",
    "stars": null,
    "number_of_reviews": null,
    "price_level": "",
    "open_hours": "",
    "extraction_timestamp": "2025-06-07T17:38:35.475Z",
    "source_name": "google",
    "source_query": "Irrigation Equipment",
    "source_country": "PL",
    "country": "Poland",
    "state": "Greater Poland Voivodeship",
    "city": "Rakoniewice"
  },
  {
    "source_id": "ChIJTWvaoMobcaoRWJt166OMbqg",
    "name": "Instal-Tech. Systemy grzewcze i sanitarne Maciej Gładysz",
    "category": "Instal-Tech. Systemy grzewcze i sanitarne Maciej Gładysz",
    "formatted_address": "",
    "phone_number": "+48537082769",
    "source_url": "https://www.google.com/maps/place/Instal-Tech.+Systemy+grzewcze+i+sanitarne+Maciej+G%C5%82adysz/data=!4m7!3m6!1s0xaa711bcaa0da6b4d:0xa86e8ca3eb759b58!8m2!3d52.4170919!4d16.7080735!16s%2Fg%2F11vpn0xj75!19sChIJTWvaoMobcaoRWJt166OMbqg?authuser=0&hl=tr&rclk=1",
    "website_url": "",
    "rating_text": "",
    "stars": null,
    "number_of_reviews": null,
    "price_level": "",
    "open_hours": "",
    "extraction_timestamp": "2025-06-07T17:38:35.476Z",
    "source_name": "google",
    "source_query": "Irrigation Equipment",
    "source_country": "PL",
    "country": "Poland",
    "state": "Greater Poland Voivodeship",
    "city": "Rakoniewice"
  },
  {
    "source_id": "ChIJKbbNUZPUBUcRZzH5Q_PEZ7Y",
    "name": "Z.U.H. Wojciech Rajewski",
    "category": "Z.U.H. Wojciech Rajewski",
    "formatted_address": "4,8(13)",
    "phone_number": "+48601643831",
    "source_url": "https://www.google.com/maps/place/Z.U.H.+Wojciech+Rajewski/data=!4m7!3m6!1s0x4705d49351cdb629:0xb667c4f343f93167!8m2!3d52.2544057!4d16.1341154!16s%2Fg%2F11ddx40f1p!19sChIJKbbNUZPUBUcRZzH5Q_PEZ7Y?authuser=0&hl=tr&rclk=1",
    "website_url": "",
    "rating_text": "4,8",
    "stars": null,
    "number_of_reviews": null,
    "price_level": "",
    "open_hours": "",
    "extraction_timestamp": "2025-06-07T17:38:35.477Z",
    "source_name": "google",
    "source_query": "Irrigation Equipment",
    "source_country": "PL",
    "country": "Poland",
    "state": "Greater Poland Voivodeship",
    "city": "Rakoniewice"
  },
  {
    "source_id": "ChIJU8SveFhbBEcREIcndETbbmA",
    "name": "LORIEN GROUP",
    "category": "LORIEN GROUP",
    "formatted_address": "4,5(8)",
    "phone_number": "+48618288855",
    "source_url": "https://www.google.com/maps/place/LORIEN+GROUP/data=!4m7!3m6!1s0x47045b5878afc453:0x606edb4474278710!8m2!3d52.3755298!4d16.8700621!16s%2Fg%2F1td579qv!19sChIJU8SveFhbBEcREIcndETbbmA?authuser=0&hl=tr&rclk=1",
    "website_url": "",
    "rating_text": "4,5",
    "stars": null,
    "number_of_reviews": null,
    "price_level": "",
    "open_hours": "",
    "extraction_timestamp": "2025-06-07T17:38:35.477Z",
    "source_name": "google",
    "source_query": "Irrigation Equipment",
    "source_country": "PL",
    "country": "Poland",
    "state": "Greater Poland Voivodeship",
    "city": "Rakoniewice"
  },
  {
    "source_id": "ChIJabNkd4vFBEcRtABO3Q9eghM",
    "name": "U Mietka",
    "category": "U Mietka",
    "formatted_address": "4,7(13)",
    "phone_number": "",
    "source_url": "https://www.google.com/maps/place/U+Mietka/data=!4m7!3m6!1s0x4704c58b7764b369:0x13825e0fdd4e00b4!8m2!3d52.2648129!4d17.8631247!16s%2Fg%2F11j47__y36!19sChIJabNkd4vFBEcRtABO3Q9eghM?authuser=0&hl=tr&rclk=1",
    "website_url": "",
    "rating_text": "4,7",
    "stars": null,
    "number_of_reviews": null,
    "price_level": "",
    "open_hours": "",
    "extraction_timestamp": "2025-06-07T17:38:35.477Z",
    "source_name": "google",
    "source_query": "Irrigation Equipment",
    "source_country": "PL",
    "country": "Poland",
    "state": "Greater Poland Voivodeship",
    "city": "Rakoniewice"
  },
  {
    "source_id": "ChIJp87loZrGBEcROwsN6SuAUMU",
    "name": "ARMASAN express",
    "category": "ARMASAN express",
    "formatted_address": "4,7(9)",
    "phone_number": "+48531577726",
    "source_url": "https://www.google.com/maps/place/ARMASAN+express/data=!4m7!3m6!1s0x4704c69aa1e5cea7:0xc550802be90d0b3b!8m2!3d52.3099688!4d17.81797!16s%2Fg%2F1hc5h6p02!19sChIJp87loZrGBEcROwsN6SuAUMU?authuser=0&hl=tr&rclk=1",
    "website_url": "",
    "rating_text": "4,7",
    "stars": null,
    "number_of_reviews": null,
    "price_level": "",
    "open_hours": "",
    "extraction_timestamp": "2025-06-07T17:38:35.489Z",
    "source_name": "google",
    "source_query": "Irrigation Equipment",
    "source_country": "PL",
    "country": "Poland",
    "state": "Greater Poland Voivodeship",
    "city": "Rakoniewice"
  },
  {
    "source_id": "ChIJozOhgQXGBEcRjPwqJnp1WSc",
    "name": "Bricomarché",
    "category": "Bricomarché",
    "formatted_address": "4,1(1.002)",
    "phone_number": "+48633067020",
    "source_url": "https://www.google.com/maps/place/Bricomarch%C3%A9/data=!4m7!3m6!1s0x4704c60581a133a3:0x2759757a262afc8c!8m2!3d52.2968856!4d17.8744814!16s%2Fg%2F11byyr79cm!19sChIJozOhgQXGBEcRjPwqJnp1WSc?authuser=0&hl=tr&rclk=1",
    "website_url": "",
    "rating_text": "4,1",
    "stars": null,
    "number_of_reviews": null,
    "price_level": "",
    "open_hours": "",
    "extraction_timestamp": "2025-06-07T17:38:35.492Z",
    "source_name": "google",
    "source_query": "Irrigation Equipment",
    "source_country": "PL",
    "country": "Poland",
    "state": "Greater Poland Voivodeship",
    "city": "Rakoniewice"
  },
  {
    "source_id": "ChIJvSvYeKDHBEcR-KLbao3BDOk",
    "name": "Sklep Ogrodowczyk",
    "category": "Sklep Ogrodowczyk",
    "formatted_address": "4,5(54)",
    "phone_number": "",
    "source_url": "https://www.google.com/maps/place/Sklep+Ogrodowczyk/data=!4m7!3m6!1s0x4704c7a078d82bbd:0xe90cc18d6adba2f8!8m2!3d52.316929!4d17.8186031!16s%2Fg%2F11k69mj8pp!19sChIJvSvYeKDHBEcR-KLbao3BDOk?authuser=0&hl=tr&rclk=1",
    "website_url": "",
    "rating_text": "4,5",
    "stars": null,
    "number_of_reviews": null,
    "price_level": "",
    "open_hours": "",
    "extraction_timestamp": "2025-06-07T17:38:35.493Z",
    "source_name": "google",
    "source_query": "Irrigation Equipment",
    "source_country": "PL",
    "country": "Poland",
    "state": "Greater Poland Voivodeship",
    "city": "Rakoniewice"
  }
]
