[
  {
    "source_id": "ChIJIf_KXcg1BUcRmQqJdyQTHRc",
    "name": "Tube System",
    "category": "Tube System",
    "formatted_address": "4,5(8)",
    "phone_number": "+48606181459",
    "source_url": "https://www.google.com/maps/place/Tube+System/data=!4m7!3m6!1s0x470535c85dcaff21:0x171d132477890a99!8m2!3d51.7064329!4d17.7133611!16s%2Fg%2F11gsbd_n_6!19sChIJIf_KXcg1BUcRmQqJdyQTHRc?authuser=0&hl=tr&rclk=1",
    "website_url": "http://tubesystem.eu/",
    "rating_text": "4,5",
    "stars": null,
    "number_of_reviews": null,
    "price_level": "",
    "open_hours": "",
    "extraction_timestamp": "2025-06-07T17:34:25.824Z",
    "source_name": "google",
    "source_query": "Irrigation Equipment",
    "source_country": "PL",
    "country": "Poland",
    "state": "Greater Poland Voivodeship",
    "city": "Raszków"
  },
  {
    "source_id": "ChIJgfgT29s1BUcR4Vv0kLhQ4I4",
    "name": "Hydros Hydraulika Siłowa Szymon Domagała",
    "category": "Hydros Hydraulika Siłowa Szymon Domagała",
    "formatted_address": "5,0(2)",
    "phone_number": "+48691311008",
    "source_url": "https://www.google.com/maps/place/Hydros+Hydraulika+Si%C5%82owa+Szymon+Domaga%C5%82a/data=!4m7!3m6!1s0x470535dbdb13f881:0x8ee050b890f45be1!8m2!3d51.6994982!4d17.7374191!16s%2Fg%2F11tm_xx8tb!19sChIJgfgT29s1BUcR4Vv0kLhQ4I4?authuser=0&hl=tr&rclk=1",
    "website_url": "",
    "rating_text": "5,0",
    "stars": null,
    "number_of_reviews": null,
    "price_level": "",
    "open_hours": "",
    "extraction_timestamp": "2025-06-07T17:34:25.826Z",
    "source_name": "google",
    "source_query": "Irrigation Equipment",
    "source_country": "PL",
    "country": "Poland",
    "state": "Greater Poland Voivodeship",
    "city": "Raszków"
  },
  {
    "source_id": "ChIJv3VWorS1GkcR91vUXcnWjAo",
    "name": "Systemy pneumatyki. Sprężarki, kompresory, narzędzia",
    "category": "Systemy pneumatyki. Sprężarki, kompresory, narzędzia",
    "formatted_address": "Systemy pneumatyki. Sprężarki, kompresory, narzędzia",
    "phone_number": "+48625910444",
    "source_url": "https://www.google.com/maps/place/Systemy+pneumatyki.+Spr%C4%99%C5%BCarki,+kompresory,+narz%C4%99dzia/data=!4m7!3m6!1s0x471ab5b4a25675bf:0xa8cd6c95dd45bf7!8m2!3d51.6301252!4d17.8127133!16s%2Fg%2F1vm_wmyy!19sChIJv3VWorS1GkcR91vUXcnWjAo?authuser=0&hl=tr&rclk=1",
    "website_url": "http://www.systemypneumatyki.pl/",
    "rating_text": "4,1",
    "stars": null,
    "number_of_reviews": null,
    "price_level": "",
    "open_hours": "",
    "extraction_timestamp": "2025-06-07T17:34:25.828Z",
    "source_name": "google",
    "source_query": "Irrigation Equipment",
    "source_country": "PL",
    "country": "Poland",
    "state": "Greater Poland Voivodeship",
    "city": "Raszków"
  },
  {
    "source_id": "ChIJB6y_v5J2HEcRlDfYx3xmc9M",
    "name": "Milex irrigation systems",
    "category": "Milex irrigation systems",
    "formatted_address": "4,6(37)",
    "phone_number": "+48242775222",
    "source_url": "https://www.google.com/maps/place/Milex+irrigation+systems/data=!4m7!3m6!1s0x471c7692bfbfac07:0xd373667cc7d83794!8m2!3d52.4690634!4d19.7520904!16s%2Fg%2F1w2yy67r!19sChIJB6y_v5J2HEcRlDfYx3xmc9M?authuser=0&hl=tr&rclk=1",
    "website_url": "https://www.milex.pl/",
    "rating_text": "4,6",
    "stars": null,
    "number_of_reviews": null,
    "price_level": "",
    "open_hours": "",
    "extraction_timestamp": "2025-06-07T17:34:25.829Z",
    "source_name": "google",
    "source_query": "Irrigation Equipment",
    "source_country": "PL",
    "country": "Poland",
    "state": "Greater Poland Voivodeship",
    "city": "Raszków"
  },
  {
    "source_id": "ChIJ0dwRjWw1BUcRQhgF76ezgBo",
    "name": "Odido",
    "category": "Odido",
    "formatted_address": "4,3(58)",
    "phone_number": "+48627343421",
    "source_url": "https://www.google.com/maps/place/Odido/data=!4m7!3m6!1s0x4705356c8d11dcd1:0x1a80b3a7ef051842!8m2!3d51.7187543!4d17.7277906!16s%2Fg%2F113hmrwph!19sChIJ0dwRjWw1BUcRQhgF76ezgBo?authuser=0&hl=tr&rclk=1",
    "website_url": "http://sklepy-odido.pl/",
    "rating_text": "4,3",
    "stars": null,
    "number_of_reviews": null,
    "price_level": "",
    "open_hours": "",
    "extraction_timestamp": "2025-06-07T17:34:25.831Z",
    "source_name": "google",
    "source_query": "Irrigation Equipment",
    "source_country": "PL",
    "country": "Poland",
    "state": "Greater Poland Voivodeship",
    "city": "Raszków"
  },
  {
    "source_id": "ChIJv13aMo20GkcRuIJwITpZIug",
    "name": "ASHYDRO",
    "category": "ASHYDRO",
    "formatted_address": "5,0(5)",
    "phone_number": "+48508377657",
    "source_url": "https://www.google.com/maps/place/ASHYDRO/data=!4m7!3m6!1s0x471ab48d32da5dbf:0xe822593a217082b8!8m2!3d51.627431!4d17.762832!16s%2Fg%2F11b6_cnlmt!19sChIJv13aMo20GkcRuIJwITpZIug?authuser=0&hl=tr&rclk=1",
    "website_url": "http://www.ashydro.pl/",
    "rating_text": "5,0",
    "stars": null,
    "number_of_reviews": null,
    "price_level": "",
    "open_hours": "",
    "extraction_timestamp": "2025-06-07T17:34:25.832Z",
    "source_name": "google",
    "source_query": "Irrigation Equipment",
    "source_country": "PL",
    "country": "Poland",
    "state": "Greater Poland Voivodeship",
    "city": "Raszków"
  },
  {
    "source_id": "ChIJAYnP5tg1BUcRIctYhlAQJlM",
    "name": "Chata Polska",
    "category": "Chata Polska",
    "formatted_address": "4,5(21)",
    "phone_number": "",
    "source_url": "https://www.google.com/maps/place/Chata+Polska/data=!4m7!3m6!1s0x470535d8e6cf8901:0x532610508658cb21!8m2!3d51.7186553!4d17.7280823!16s%2Fg%2F11fplz6vpl!19sChIJAYnP5tg1BUcRIctYhlAQJlM?authuser=0&hl=tr&rclk=1",
    "website_url": "https://www.chatapolska.pl/nowa-chata-w-raszkowie-juz-otwarta33,1962.html",
    "rating_text": "4,5",
    "stars": null,
    "number_of_reviews": null,
    "price_level": "",
    "open_hours": "",
    "extraction_timestamp": "2025-06-07T17:34:25.834Z",
    "source_name": "google",
    "source_query": "Irrigation Equipment",
    "source_country": "PL",
    "country": "Poland",
    "state": "Greater Poland Voivodeship",
    "city": "Raszków"
  },
  {
    "source_id": "ChIJfTmhfGw1BUcRWcskjpxXDHw",
    "name": "Dino",
    "category": "Dino",
    "formatted_address": "4,2(205)",
    "phone_number": "",
    "source_url": "https://www.google.com/maps/place/Dino/data=!4m7!3m6!1s0x4705356c7ca1397d:0x7c0c579c8e24cb59!8m2!3d51.7164973!4d17.7284655!16s%2Fg%2F1tjkdhq9!19sChIJfTmhfGw1BUcRWcskjpxXDHw?authuser=0&hl=tr&rclk=1",
    "website_url": "https://marketdino.pl/",
    "rating_text": "4,2",
    "stars": null,
    "number_of_reviews": null,
    "price_level": "",
    "open_hours": "",
    "extraction_timestamp": "2025-06-07T17:34:25.835Z",
    "source_name": "google",
    "source_query": "Irrigation Equipment",
    "source_country": "PL",
    "country": "Poland",
    "state": "Greater Poland Voivodeship",
    "city": "Raszków"
  },
  {
    "source_id": "ChIJRaJaqkI1BUcRN9YQNVSENaQ",
    "name": "Sklep spożywczo przemysłowy",
    "category": "Sklep spożywczo przemysłowy",
    "formatted_address": "4,3(3)",
    "phone_number": "",
    "source_url": "https://www.google.com/maps/place/Sklep+spo%C5%BCywczo+przemys%C5%82owy/data=!4m7!3m6!1s0x47053542aa5aa245:0xa43584543510d637!8m2!3d51.7150696!4d17.722334!16s%2Fg%2F11hyzbgn72!19sChIJRaJaqkI1BUcRN9YQNVSENaQ?authuser=0&hl=tr&rclk=1",
    "website_url": "",
    "rating_text": "4,3",
    "stars": null,
    "number_of_reviews": null,
    "price_level": "",
    "open_hours": "",
    "extraction_timestamp": "2025-06-07T17:34:25.846Z",
    "source_name": "google",
    "source_query": "Irrigation Equipment",
    "source_country": "PL",
    "country": "Poland",
    "state": "Greater Poland Voivodeship",
    "city": "Raszków"
  },
  {
    "source_id": "ChIJy_fff2Y1BUcRuzEZRCr2OMI",
    "name": "Biedronka",
    "category": "Biedronka",
    "formatted_address": "4,1(394)",
    "phone_number": "+48800080010",
    "source_url": "https://www.google.com/maps/place/Biedronka/data=!4m7!3m6!1s0x470535667fdff7cb:0xc238f62a441931bb!8m2!3d51.7095985!4d17.72546!16s%2Fg%2F1hc4ssx3g!19sChIJy_fff2Y1BUcRuzEZRCr2OMI?authuser=0&hl=tr&rclk=1",
    "website_url": "https://www.biedronka.pl/pl?utm_source=gmb",
    "rating_text": "4,1",
    "stars": null,
    "number_of_reviews": null,
    "price_level": "",
    "open_hours": "",
    "extraction_timestamp": "2025-06-07T17:34:25.848Z",
    "source_name": "google",
    "source_query": "Irrigation Equipment",
    "source_country": "PL",
    "country": "Poland",
    "state": "Greater Poland Voivodeship",
    "city": "Raszków"
  },
  {
    "source_id": "ChIJOzM-Nry1GkcR5PNjPAqP1cE",
    "name": "Budowa i Konserwacja Urządzeń Wodnych i Melioracyjnych",
    "category": "Budowa i Konserwacja Urządzeń Wodnych i Melioracyjnych",
    "formatted_address": "",
    "phone_number": "+48625920945",
    "source_url": "https://www.google.com/maps/place/Budowa+i+Konserwacja+Urz%C4%85dze%C5%84+Wodnych+i+Melioracyjnych/data=!4m7!3m6!1s0x471ab5bc363e333b:0xc1d58f0a3c63f3e4!8m2!3d51.6589767!4d17.8206143!16s%2Fg%2F1pty93gsp!19sChIJOzM-Nry1GkcR5PNjPAqP1cE?authuser=0&hl=tr&rclk=1",
    "website_url": "http://www.bikuwim.pl/",
    "rating_text": "",
    "stars": null,
    "number_of_reviews": null,
    "price_level": "",
    "open_hours": "",
    "extraction_timestamp": "2025-06-07T17:34:25.849Z",
    "source_name": "google",
    "source_query": "Irrigation Equipment",
    "source_country": "PL",
    "country": "Poland",
    "state": "Greater Poland Voivodeship",
    "city": "Raszków"
  },
  {
    "source_id": "ChIJy09YQIc1BUcRv2BOkW7paJg",
    "name": "Dino",
    "category": "Dino",
    "formatted_address": "4,5(86)",
    "phone_number": "",
    "source_url": "https://www.google.com/maps/place/Dino/data=!4m7!3m6!1s0x4705358740584fcb:0x9868e96e914e60bf!8m2!3d51.7060176!4d17.7259375!16s%2Fg%2F11jh1s6mh4!19sChIJy09YQIc1BUcRv2BOkW7paJg?authuser=0&hl=tr&rclk=1",
    "website_url": "https://marketdino.pl/",
    "rating_text": "4,5",
    "stars": null,
    "number_of_reviews": null,
    "price_level": "",
    "open_hours": "",
    "extraction_timestamp": "2025-06-07T17:34:25.850Z",
    "source_name": "google",
    "source_query": "Irrigation Equipment",
    "source_country": "PL",
    "country": "Poland",
    "state": "Greater Poland Voivodeship",
    "city": "Raszków"
  }
]
