[
  {
    "source_id": "ChIJp8u68957BUcRpz11aisQ7yM",
    "name": "Efli Group sp Z o. o. Sp. K.",
    "category": "Efli Group sp Z o. o. Sp. K.",
    "formatted_address": "4,7(24)",
    "phone_number": "+48665795628",
    "source_url": "https://www.google.com/maps/place/Efli+Group+sp+Z+o.+o.+Sp.+K./data=!4m7!3m6!1s0x47057bdef3bacba7:0x23ef102b6a753da7!8m2!3d51.6156731!4d16.8694605!16s%2Fg%2F11nms27_px!19sChIJp8u68957BUcRpz11aisQ7yM?authuser=0&hl=tr&rclk=1",
    "website_url": "",
    "rating_text": "4,7",
    "stars": null,
    "number_of_reviews": null,
    "price_level": "",
    "open_hours": "",
    "extraction_timestamp": "2025-06-07T17:21:27.997Z",
    "source_name": "google",
    "source_query": "Irrigation Equipment",
    "source_country": "PL",
    "country": "Poland",
    "state": "Greater Poland Voivodeship",
    "city": "Rawicz"
  },
  {
    "source_id": "ChIJaftkLwJ7BUcRgL7CHzh3Kao",
    "name": "Sklep wielobranżowy Rolnik - elektronarzędzia i armatura sanitarna",
    "category": "Sklep wielobranżowy Rolnik - elektronarzędzia i armatura sanitarna",
    "formatted_address": "4,8(13)",
    "phone_number": "+48501358500",
    "source_url": "https://www.google.com/maps/place/Sklep+wielobran%C5%BCowy+Rolnik+-+elektronarz%C4%99dzia+i+armatura+sanitarna/data=!4m7!3m6!1s0x47057b022f64fb69:0xaa2977381fc2be80!8m2!3d51.6088895!4d16.8706047!16s%2Fg%2F1tg66t51!19sChIJaftkLwJ7BUcRgL7CHzh3Kao?authuser=0&hl=tr&rclk=1",
    "website_url": "",
    "rating_text": "4,8",
    "stars": null,
    "number_of_reviews": null,
    "price_level": "",
    "open_hours": "",
    "extraction_timestamp": "2025-06-07T17:21:27.999Z",
    "source_name": "google",
    "source_query": "Irrigation Equipment",
    "source_country": "PL",
    "country": "Poland",
    "state": "Greater Poland Voivodeship",
    "city": "Rawicz"
  },
  {
    "source_id": "ChIJ37BVwgJ7BUcRQCkNVSoCUEg",
    "name": "AGRITECH Sklep rolniczo-techniczny Powered by Kramp",
    "category": "AGRITECH Sklep rolniczo-techniczny Powered by Kramp",
    "formatted_address": "4,3(48)",
    "phone_number": "+48655464158",
    "source_url": "https://www.google.com/maps/place/AGRITECH+Sklep+rolniczo-techniczny+Powered+by+Kramp/data=!4m7!3m6!1s0x47057b02c255b0df:0x4850022a550d2940!8m2!3d51.6085165!4d16.8752983!16s%2Fg%2F1tgjj_bm!19sChIJ37BVwgJ7BUcRQCkNVSoCUEg?authuser=0&hl=tr&rclk=1",
    "website_url": "",
    "rating_text": "4,3",
    "stars": null,
    "number_of_reviews": null,
    "price_level": "",
    "open_hours": "",
    "extraction_timestamp": "2025-06-07T17:21:28.001Z",
    "source_name": "google",
    "source_query": "Irrigation Equipment",
    "source_country": "PL",
    "country": "Poland",
    "state": "Greater Poland Voivodeship",
    "city": "Rawicz"
  },
  {
    "source_id": "ChIJXXNVKlB6BUcRJIuEZhAyMzw",
    "name": "MDS Jakub Musiałowski",
    "category": "MDS Jakub Musiałowski",
    "formatted_address": "4,0(13)",
    "phone_number": "+48655454300",
    "source_url": "https://www.google.com/maps/place/MDS+Jakub+Musia%C5%82owski/data=!4m7!3m6!1s0x47057a502a55735d:0x3c33321066848b24!8m2!3d51.612033!4d16.856197!16s%2Fg%2F11b_05tj54!19sChIJXXNVKlB6BUcRJIuEZhAyMzw?authuser=0&hl=tr&rclk=1",
    "website_url": "",
    "rating_text": "4,0",
    "stars": null,
    "number_of_reviews": null,
    "price_level": "",
    "open_hours": "",
    "extraction_timestamp": "2025-06-07T17:21:28.004Z",
    "source_name": "google",
    "source_query": "Irrigation Equipment",
    "source_country": "PL",
    "country": "Poland",
    "state": "Greater Poland Voivodeship",
    "city": "Rawicz"
  },
  {
    "source_id": "ChIJI0W90R17BUcRhz791v8jdkc",
    "name": "Agromech - części do maszyn rolniczych.",
    "category": "Agromech - części do maszyn rolniczych.",
    "formatted_address": "4,6(18)",
    "phone_number": "+48655452092",
    "source_url": "https://www.google.com/maps/place/Agromech+-+cz%C4%99%C5%9Bci+do+maszyn+rolniczych./data=!4m7!3m6!1s0x47057b1dd1bd4523:0x477623ffd6fd3e87!8m2!3d51.6066035!4d16.8836395!16s%2Fg%2F11gd1w2ytn!19sChIJI0W90R17BUcRhz791v8jdkc?authuser=0&hl=tr&rclk=1",
    "website_url": "",
    "rating_text": "4,6",
    "stars": null,
    "number_of_reviews": null,
    "price_level": "",
    "open_hours": "",
    "extraction_timestamp": "2025-06-07T17:21:28.018Z",
    "source_name": "google",
    "source_query": "Irrigation Equipment",
    "source_country": "PL",
    "country": "Poland",
    "state": "Greater Poland Voivodeship",
    "city": "Rawicz"
  },
  {
    "source_id": "ChIJ9zUeDsl7BUcRMNXazXbkIzo",
    "name": "PHU WO-GAZ TECHNIKA GRZEWCZA I SANITARNA, SERWIS KOTŁÓW GAZOWYCH",
    "category": "PHU WO-GAZ TECHNIKA GRZEWCZA I SANITARNA, SERWIS KOTŁÓW GAZOWYCH",
    "formatted_address": "PHU WO-GAZ TECHNIKA GRZEWCZA I SANITARNA, SERWIS KOTŁÓW GAZOWYCH",
    "phone_number": "+48655464888",
    "source_url": "https://www.google.com/maps/place/PHU+WO-GAZ+TECHNIKA+GRZEWCZA+I+SANITARNA,+SERWIS+KOT%C5%81%C3%93W+GAZOWYCH/data=!4m7!3m6!1s0x47057bc90e1e35f7:0x3a23e476cddad530!8m2!3d51.6074389!4d16.861723!16s%2Fg%2F11c6w18v5z!19sChIJ9zUeDsl7BUcRMNXazXbkIzo?authuser=0&hl=tr&rclk=1",
    "website_url": "",
    "rating_text": "4,1",
    "stars": null,
    "number_of_reviews": null,
    "price_level": "",
    "open_hours": "",
    "extraction_timestamp": "2025-06-07T17:21:28.020Z",
    "source_name": "google",
    "source_query": "Irrigation Equipment",
    "source_country": "PL",
    "country": "Poland",
    "state": "Greater Poland Voivodeship",
    "city": "Rawicz"
  },
  {
    "source_id": "ChIJb-bGoK17BUcRI-ttsmIpzd4",
    "name": "Przedsiębiorstwo E powietrza Sklep detektywistyczny Podsłuchy Wykrywanie lokalizatorów gps",
    "category": "Przedsiębiorstwo E powietrza Sklep detektywistyczny Podsłuchy Wykrywanie lokalizatorów gps",
    "formatted_address": "5,0(1)",
    "phone_number": "+48501420833",
    "source_url": "https://www.google.com/maps/place/Przedsi%C4%99biorstwo+E+powietrza+Sklep+detektywistyczny+Pods%C5%82uchy+Wykrywanie+lokalizator%C3%B3w+gps/data=!4m7!3m6!1s0x47057bada0c6e66f:0xdecd2962b26deb23!8m2!3d51.6113!4d16.849437!16s%2Fg%2F1hm5q17__!19sChIJb-bGoK17BUcRI-ttsmIpzd4?authuser=0&hl=tr&rclk=1",
    "website_url": "",
    "rating_text": "5,0",
    "stars": null,
    "number_of_reviews": null,
    "price_level": "",
    "open_hours": "",
    "extraction_timestamp": "2025-06-07T17:21:28.021Z",
    "source_name": "google",
    "source_query": "Irrigation Equipment",
    "source_country": "PL",
    "country": "Poland",
    "state": "Greater Poland Voivodeship",
    "city": "Rawicz"
  },
  {
    "source_id": "ChIJB3DbLQJ7BUcRpm-5nYLw8HQ",
    "name": "MATI",
    "category": "MATI",
    "formatted_address": "4,4(35)",
    "phone_number": "+48655451727",
    "source_url": "https://www.google.com/maps/place/MATI/data=!4m7!3m6!1s0x47057b022ddb7007:0x74f0f0829db96fa6!8m2!3d51.608547!4d16.870587!16s%2Fg%2F1tfkd8xc!19sChIJB3DbLQJ7BUcRpm-5nYLw8HQ?authuser=0&hl=tr&rclk=1",
    "website_url": "",
    "rating_text": "4,4",
    "stars": null,
    "number_of_reviews": null,
    "price_level": "",
    "open_hours": "",
    "extraction_timestamp": "2025-06-07T17:21:28.022Z",
    "source_name": "google",
    "source_query": "Irrigation Equipment",
    "source_country": "PL",
    "country": "Poland",
    "state": "Greater Poland Voivodeship",
    "city": "Rawicz"
  },
  {
    "source_id": "ChIJJYiAVw57BUcRP_OPen8N1OI",
    "name": "Water Control",
    "category": "Water Control",
    "formatted_address": "",
    "phone_number": "+48605359281",
    "source_url": "https://www.google.com/maps/place/Water+Control/data=!4m7!3m6!1s0x47057b0e57808825:0xe2d40d7f7a8ff33f!8m2!3d51.6223059!4d16.8528449!16s%2Fg%2F11txtvclgc!19sChIJJYiAVw57BUcRP_OPen8N1OI?authuser=0&hl=tr&rclk=1",
    "website_url": "",
    "rating_text": "",
    "stars": null,
    "number_of_reviews": null,
    "price_level": "",
    "open_hours": "",
    "extraction_timestamp": "2025-06-07T17:21:28.023Z",
    "source_name": "google",
    "source_query": "Irrigation Equipment",
    "source_country": "PL",
    "country": "Poland",
    "state": "Greater Poland Voivodeship",
    "city": "Rawicz"
  },
  {
    "source_id": "ChIJ8YcislR6BUcRsVm2Wz4aZ2o",
    "name": "Rataj Mariusz Eltech-Bis",
    "category": "Rataj Mariusz Eltech-Bis",
    "formatted_address": "4,9(11)",
    "phone_number": "+48502549385",
    "source_url": "https://www.google.com/maps/place/Rataj+Mariusz+Eltech-Bis/data=!4m7!3m6!1s0x47057a54b22287f1:0x6a671a3e5bb659b1!8m2!3d51.613152!4d16.857736!16s%2Fg%2F1tdqyf9x!19sChIJ8YcislR6BUcRsVm2Wz4aZ2o?authuser=0&hl=tr&rclk=1",
    "website_url": "",
    "rating_text": "4,9",
    "stars": null,
    "number_of_reviews": null,
    "price_level": "",
    "open_hours": "",
    "extraction_timestamp": "2025-06-07T17:21:28.025Z",
    "source_name": "google",
    "source_query": "Irrigation Equipment",
    "source_country": "PL",
    "country": "Poland",
    "state": "Greater Poland Voivodeship",
    "city": "Rawicz"
  },
  {
    "source_id": "ChIJHSW4b6p7BUcR-qfMHUWqTy4",
    "name": "Agravia. Sklep ogrodniczy. Ptaszyński B.",
    "category": "Agravia. Sklep ogrodniczy. Ptaszyński B.",
    "formatted_address": "3,9(46)",
    "phone_number": "+48655464887",
    "source_url": "https://www.google.com/maps/place/Agravia.+Sklep+ogrodniczy.+Ptaszy%C5%84ski+B./data=!4m7!3m6!1s0x47057baa6fb8251d:0x2e4faa451dcca7fa!8m2!3d51.6088183!4d16.8624953!16s%2Fg%2F1tj4frpx!19sChIJHSW4b6p7BUcR-qfMHUWqTy4?authuser=0&hl=tr&rclk=1",
    "website_url": "",
    "rating_text": "3,9",
    "stars": null,
    "number_of_reviews": null,
    "price_level": "",
    "open_hours": "",
    "extraction_timestamp": "2025-06-07T17:21:28.026Z",
    "source_name": "google",
    "source_query": "Irrigation Equipment",
    "source_country": "PL",
    "country": "Poland",
    "state": "Greater Poland Voivodeship",
    "city": "Rawicz"
  },
  {
    "source_id": "ChIJQzjQHzt7BUcRBNmMTqJ9Btg",
    "name": "Firma Plewka",
    "category": "Firma Plewka",
    "formatted_address": "5,0(13)",
    "phone_number": "+48728301826",
    "source_url": "https://www.google.com/maps/place/Firma+Plewka/data=!4m7!3m6!1s0x47057b3b1fd03843:0xd8067da24e8cd904!8m2!3d51.6133503!4d16.866317!16s%2Fg%2F11h2j_pb1w!19sChIJQzjQHzt7BUcRBNmMTqJ9Btg?authuser=0&hl=tr&rclk=1",
    "website_url": "",
    "rating_text": "5,0",
    "stars": null,
    "number_of_reviews": null,
    "price_level": "",
    "open_hours": "",
    "extraction_timestamp": "2025-06-07T17:21:28.027Z",
    "source_name": "google",
    "source_query": "Irrigation Equipment",
    "source_country": "PL",
    "country": "Poland",
    "state": "Greater Poland Voivodeship",
    "city": "Rawicz"
  },
  {
    "source_id": "ChIJmfQm4AZ7BUcRidfCX66s4Ko",
    "name": "Bricomarché",
    "category": "Bricomarché",
    "formatted_address": "4,1(757)",
    "phone_number": "+48655454514",
    "source_url": "https://www.google.com/maps/place/Bricomarch%C3%A9/data=!4m7!3m6!1s0x47057b06e026f499:0xaae0acae5fc2d789!8m2!3d51.6046127!4d16.8635624!16s%2Fg%2F11_k2hcfz!19sChIJmfQm4AZ7BUcRidfCX66s4Ko?authuser=0&hl=tr&rclk=1",
    "website_url": "",
    "rating_text": "4,1",
    "stars": null,
    "number_of_reviews": null,
    "price_level": "",
    "open_hours": "",
    "extraction_timestamp": "2025-06-07T17:21:28.028Z",
    "source_name": "google",
    "source_query": "Irrigation Equipment",
    "source_country": "PL",
    "country": "Poland",
    "state": "Greater Poland Voivodeship",
    "city": "Rawicz"
  },
  {
    "source_id": "ChIJN__EHgB7BUcRZUQsRDeZnk0",
    "name": "MAGRA",
    "category": "MAGRA",
    "formatted_address": "4,3(47)",
    "phone_number": "+48655452173",
    "source_url": "https://www.google.com/maps/place/MAGRA/data=!4m7!3m6!1s0x47057b001ec4ff37:0x4d9e9937442c4465!8m2!3d51.6115862!4d16.8653629!16s%2Fg%2F1tlwdbsv!19sChIJN__EHgB7BUcRZUQsRDeZnk0?authuser=0&hl=tr&rclk=1",
    "website_url": "",
    "rating_text": "4,3",
    "stars": null,
    "number_of_reviews": null,
    "price_level": "",
    "open_hours": "",
    "extraction_timestamp": "2025-06-07T17:21:28.030Z",
    "source_name": "google",
    "source_query": "Irrigation Equipment",
    "source_country": "PL",
    "country": "Poland",
    "state": "Greater Poland Voivodeship",
    "city": "Rawicz"
  },
  {
    "source_id": "ChIJoaOB0at7BUcRRlPZKFBCTBM",
    "name": "PREWENTPOL - legalizacja i naprawa gaśnic, przeglądy hydrantów",
    "category": "PREWENTPOL - legalizacja i naprawa gaśnic, przeglądy hydrantów",
    "formatted_address": "PREWENTPOL - legalizacja i naprawa gaśnic, przeglądy hydrantów",
    "phone_number": "+48609742177",
    "source_url": "https://www.google.com/maps/place/PREWENTPOL+-+legalizacja+i+naprawa+ga%C5%9Bnic,+przegl%C4%85dy+hydrant%C3%B3w/data=!4m7!3m6!1s0x47057babd181a3a1:0x134c425028d95346!8m2!3d51.6190321!4d16.8681869!16s%2Fg%2F1tfcgghd!19sChIJoaOB0at7BUcRRlPZKFBCTBM?authuser=0&hl=tr&rclk=1",
    "website_url": "",
    "rating_text": "4,1",
    "stars": null,
    "number_of_reviews": null,
    "price_level": "",
    "open_hours": "",
    "extraction_timestamp": "2025-06-07T17:21:28.031Z",
    "source_name": "google",
    "source_query": "Irrigation Equipment",
    "source_country": "PL",
    "country": "Poland",
    "state": "Greater Poland Voivodeship",
    "city": "Rawicz"
  },
  {
    "source_id": "ChIJz5lTXfl6BUcRVzDZ2dpD2mk",
    "name": "Dutch bikes NAROWERY.PL",
    "category": "Dutch bikes NAROWERY.PL",
    "formatted_address": "4,6(258)",
    "phone_number": "+48506804780",
    "source_url": "https://www.google.com/maps/place/Dutch+bikes+NAROWERY.PL/data=!4m7!3m6!1s0x47057af95d5399cf:0x69da43dad9d93057!8m2!3d51.6193419!4d16.8730708!16s%2Fg%2F1tptp9fj!19sChIJz5lTXfl6BUcRVzDZ2dpD2mk?authuser=0&hl=tr&rclk=1",
    "website_url": "",
    "rating_text": "4,6",
    "stars": null,
    "number_of_reviews": null,
    "price_level": "",
    "open_hours": "",
    "extraction_timestamp": "2025-06-07T17:21:28.032Z",
    "source_name": "google",
    "source_query": "Irrigation Equipment",
    "source_country": "PL",
    "country": "Poland",
    "state": "Greater Poland Voivodeship",
    "city": "Rawicz"
  },
  {
    "source_id": "ChIJOUq8f-d7BUcRbVA0uQ9JTmw",
    "name": "Firma Plewka Instalatorstwo Elektryczno Klimatyzacyjne",
    "category": "Firma Plewka Instalatorstwo Elektryczno Klimatyzacyjne",
    "formatted_address": "5,0(3)",
    "phone_number": "+48609774476",
    "source_url": "https://www.google.com/maps/place/Firma+Plewka+Instalatorstwo+Elektryczno+Klimatyzacyjne/data=!4m7!3m6!1s0x47057be77fbc4a39:0x6c4e490fb934506d!8m2!3d51.6133513!4d16.8663348!16s%2Fg%2F11v5t3tq45!19sChIJOUq8f-d7BUcRbVA0uQ9JTmw?authuser=0&hl=tr&rclk=1",
    "website_url": "",
    "rating_text": "5,0",
    "stars": null,
    "number_of_reviews": null,
    "price_level": "",
    "open_hours": "",
    "extraction_timestamp": "2025-06-07T17:21:28.033Z",
    "source_name": "google",
    "source_query": "Irrigation Equipment",
    "source_country": "PL",
    "country": "Poland",
    "state": "Greater Poland Voivodeship",
    "city": "Rawicz"
  },
  {
    "source_id": "ChIJV8S8jWp7BUcRkkxQm2m0i5Y",
    "name": "DAWIKOP - Usługi Minikoparka",
    "category": "DAWIKOP - Usługi Minikoparka",
    "formatted_address": "4,3(8)",
    "phone_number": "+48608415162",
    "source_url": "https://www.google.com/maps/place/DAWIKOP+-+Us%C5%82ugi+Minikoparka/data=!4m7!3m6!1s0x47057b6a8dbcc457:0x968bb4699b504c92!8m2!3d51.5874928!4d16.8776751!16s%2Fg%2F113gvg3sl!19sChIJV8S8jWp7BUcRkkxQm2m0i5Y?authuser=0&hl=tr&rclk=1",
    "website_url": "",
    "rating_text": "4,3",
    "stars": null,
    "number_of_reviews": null,
    "price_level": "",
    "open_hours": "",
    "extraction_timestamp": "2025-06-07T17:21:28.034Z",
    "source_name": "google",
    "source_query": "Irrigation Equipment",
    "source_country": "PL",
    "country": "Poland",
    "state": "Greater Poland Voivodeship",
    "city": "Rawicz"
  },
  {
    "source_id": "ChIJd56hwJd7BUcRiqnjw7L8Sko",
    "name": "Action Rawicz",
    "category": "Action Rawicz",
    "formatted_address": "4,6(80)",
    "phone_number": "+48326305898",
    "source_url": "https://www.google.com/maps/place/Action+Rawicz/data=!4m7!3m6!1s0x47057b97c0a19e77:0x4a4afcb2c3e3a98a!8m2!3d51.608794!4d16.8659582!16s%2Fg%2F11tg2cttz6!19sChIJd56hwJd7BUcRiqnjw7L8Sko?authuser=0&hl=tr&rclk=1",
    "website_url": "",
    "rating_text": "4,6",
    "stars": null,
    "number_of_reviews": null,
    "price_level": "",
    "open_hours": "",
    "extraction_timestamp": "2025-06-07T17:21:28.035Z",
    "source_name": "google",
    "source_query": "Irrigation Equipment",
    "source_country": "PL",
    "country": "Poland",
    "state": "Greater Poland Voivodeship",
    "city": "Rawicz"
  },
  {
    "source_id": "ChIJFbVrcY97BUcRmZLCWEsr1s4",
    "name": "Ogrody Rurek",
    "category": "Ogrody Rurek",
    "formatted_address": "5,0(2)",
    "phone_number": "+48736782352",
    "source_url": "https://www.google.com/maps/place/Ogrody+Rurek/data=!4m7!3m6!1s0x47057b8f716bb515:0xced62b4b58c29299!8m2!3d51.605006!4d16.836578!16s%2Fg%2F11k9pzrpx_!19sChIJFbVrcY97BUcRmZLCWEsr1s4?authuser=0&hl=tr&rclk=1",
    "website_url": "",
    "rating_text": "5,0",
    "stars": null,
    "number_of_reviews": null,
    "price_level": "",
    "open_hours": "",
    "extraction_timestamp": "2025-06-07T17:21:28.036Z",
    "source_name": "google",
    "source_query": "Irrigation Equipment",
    "source_country": "PL",
    "country": "Poland",
    "state": "Greater Poland Voivodeship",
    "city": "Rawicz"
  },
  {
    "source_id": "ChIJvXGccwh7BUcR14rmMSpyik0",
    "name": "Sklep Spożywczo Przemysłowy \"U Kowala\"",
    "category": "Sklep Spożywczo Przemysłowy \"U Kowala\"",
    "formatted_address": "4,2(19)",
    "phone_number": "",
    "source_url": "https://www.google.com/maps/place/Sklep+Spo%C5%BCywczo+Przemys%C5%82owy+%22U+Kowala%22/data=!4m7!3m6!1s0x47057b08739c71bd:0x4d8a722a31e68ad7!8m2!3d51.6014174!4d16.8594552!16s%2Fg%2F11g8ksrlnp!19sChIJvXGccwh7BUcR14rmMSpyik0?authuser=0&hl=tr&rclk=1",
    "website_url": "",
    "rating_text": "4,2",
    "stars": null,
    "number_of_reviews": null,
    "price_level": "",
    "open_hours": "",
    "extraction_timestamp": "2025-06-07T17:21:28.037Z",
    "source_name": "google",
    "source_query": "Irrigation Equipment",
    "source_country": "PL",
    "country": "Poland",
    "state": "Greater Poland Voivodeship",
    "city": "Rawicz"
  },
  {
    "source_id": "ChIJCSykAv96BUcRvFE7L-hXU-I",
    "name": "Martes Sport",
    "category": "Martes Sport",
    "formatted_address": "4,2(164)",
    "phone_number": "+48515856668",
    "source_url": "https://www.google.com/maps/place/Martes+Sport/data=!4m7!3m6!1s0x47057aff02a42c09:0xe25357e82f3b51bc!8m2!3d51.6133586!4d16.8696701!16s%2Fg%2F11gfh2bkm6!19sChIJCSykAv96BUcRvFE7L-hXU-I?authuser=0&hl=tr&rclk=1",
    "website_url": "",
    "rating_text": "4,2",
    "stars": null,
    "number_of_reviews": null,
    "price_level": "",
    "open_hours": "",
    "extraction_timestamp": "2025-06-07T17:21:28.038Z",
    "source_name": "google",
    "source_query": "Irrigation Equipment",
    "source_country": "PL",
    "country": "Poland",
    "state": "Greater Poland Voivodeship",
    "city": "Rawicz"
  },
  {
    "source_id": "ChIJ_57RiKt7BUcRHI5EfsUwJgA",
    "name": "Polowczyk Adriana. Sklep warzywno - owocowy",
    "category": "Polowczyk Adriana. Sklep warzywno - owocowy",
    "formatted_address": "4,4(54) · ₺₺",
    "phone_number": "+48795491853",
    "source_url": "https://www.google.com/maps/place/Polowczyk+Adriana.+Sklep+warzywno+-+owocowy/data=!4m7!3m6!1s0x47057bab88d19eff:0x2630c57e448e1c!8m2!3d51.609734!4d16.8549471!16s%2Fg%2F1tgn_hqk!19sChIJ_57RiKt7BUcRHI5EfsUwJgA?authuser=0&hl=tr&rclk=1",
    "website_url": "",
    "rating_text": "4,4",
    "stars": null,
    "number_of_reviews": null,
    "price_level": "",
    "open_hours": "",
    "extraction_timestamp": "2025-06-07T17:21:28.039Z",
    "source_name": "google",
    "source_query": "Irrigation Equipment",
    "source_country": "PL",
    "country": "Poland",
    "state": "Greater Poland Voivodeship",
    "city": "Rawicz"
  },
  {
    "source_id": "ChIJmQEmFwB7BUcRD7OIlEfbHgU",
    "name": "Nadzór Wodny Rawicz",
    "category": "Nadzór Wodny Rawicz",
    "formatted_address": "",
    "phone_number": "+48538566025",
    "source_url": "https://www.google.com/maps/place/Nadz%C3%B3r+Wodny+Rawicz/data=!4m7!3m6!1s0x47057b0017260199:0x51edb479488b30f!8m2!3d51.6123608!4d16.8666853!16s%2Fg%2F11lp4v7wy1!19sChIJmQEmFwB7BUcRD7OIlEfbHgU?authuser=0&hl=tr&rclk=1",
    "website_url": "",
    "rating_text": "",
    "stars": null,
    "number_of_reviews": null,
    "price_level": "",
    "open_hours": "",
    "extraction_timestamp": "2025-06-07T17:21:28.040Z",
    "source_name": "google",
    "source_query": "Irrigation Equipment",
    "source_country": "PL",
    "country": "Poland",
    "state": "Greater Poland Voivodeship",
    "city": "Rawicz"
  },
  {
    "source_id": "ChIJg9Ga_l97BUcRt4Yw3QWmPNg",
    "name": "PSB Mrówka",
    "category": "PSB Mrówka",
    "formatted_address": "4,5(438)",
    "phone_number": "+48880594134",
    "source_url": "https://www.google.com/maps/place/PSB+Mr%C3%B3wka/data=!4m7!3m6!1s0x47057b5ffe9ad183:0xd83ca605dd3086b7!8m2!3d51.6234509!4d16.853063!16s%2Fg%2F11ns5414j2!19sChIJg9Ga_l97BUcRt4Yw3QWmPNg?authuser=0&hl=tr&rclk=1",
    "website_url": "",
    "rating_text": "4,5",
    "stars": null,
    "number_of_reviews": null,
    "price_level": "",
    "open_hours": "",
    "extraction_timestamp": "2025-06-07T17:21:28.041Z",
    "source_name": "google",
    "source_query": "Irrigation Equipment",
    "source_country": "PL",
    "country": "Poland",
    "state": "Greater Poland Voivodeship",
    "city": "Rawicz"
  },
  {
    "source_id": "ChIJl3YIYqh7BUcRxttTVWXoV34",
    "name": "Jelinowski Jerzy. Firma handlowa",
    "category": "Jelinowski Jerzy. Firma handlowa",
    "formatted_address": "5,0(2)",
    "phone_number": "+48655452138",
    "source_url": "https://www.google.com/maps/place/Jelinowski+Jerzy.+Firma+handlowa/data=!4m7!3m6!1s0x47057ba862087697:0x7e57e8655553dbc6!8m2!3d51.603451!4d16.854576!16s%2Fg%2F1hc1mm8m8!19sChIJl3YIYqh7BUcRxttTVWXoV34?authuser=0&hl=tr&rclk=1",
    "website_url": "",
    "rating_text": "5,0",
    "stars": null,
    "number_of_reviews": null,
    "price_level": "",
    "open_hours": "",
    "extraction_timestamp": "2025-06-07T17:21:28.042Z",
    "source_name": "google",
    "source_query": "Irrigation Equipment",
    "source_country": "PL",
    "country": "Poland",
    "state": "Greater Poland Voivodeship",
    "city": "Rawicz"
  },
  {
    "source_id": "ChIJy914Zx97BUcRLeJjZWfgjFc",
    "name": "Chata Polska",
    "category": "Chata Polska",
    "formatted_address": "4,4(302)",
    "phone_number": "",
    "source_url": "https://www.google.com/maps/place/Chata+Polska/data=!4m7!3m6!1s0x47057b1f6778ddcb:0x578ce0676563e22d!8m2!3d51.6059222!4d16.8511828!16s%2Fg%2F11fj2ms98z!19sChIJy914Zx97BUcRLeJjZWfgjFc?authuser=0&hl=tr&rclk=1",
    "website_url": "",
    "rating_text": "4,4",
    "stars": null,
    "number_of_reviews": null,
    "price_level": "",
    "open_hours": "",
    "extraction_timestamp": "2025-06-07T17:21:28.042Z",
    "source_name": "google",
    "source_query": "Irrigation Equipment",
    "source_country": "PL",
    "country": "Poland",
    "state": "Greater Poland Voivodeship",
    "city": "Rawicz"
  },
  {
    "source_id": "ChIJ_ZS_gAB7BUcRmHA_wWQiMCQ",
    "name": "Labijak Zbigniew. Handel detaliczny art. spożywczymi",
    "category": "Labijak Zbigniew. Handel detaliczny art. spożywczymi",
    "formatted_address": "4,1(19)",
    "phone_number": "+48655454732",
    "source_url": "https://www.google.com/maps/place/Labijak+Zbigniew.+Handel+detaliczny+art.+spo%C5%BCywczymi/data=!4m7!3m6!1s0x47057b0080bf94fd:0x24302264c13f7098!8m2!3d51.609315!4d16.8626184!16s%2Fg%2F1td415tp!19sChIJ_ZS_gAB7BUcRmHA_wWQiMCQ?authuser=0&hl=tr&rclk=1",
    "website_url": "",
    "rating_text": "4,1",
    "stars": null,
    "number_of_reviews": null,
    "price_level": "",
    "open_hours": "",
    "extraction_timestamp": "2025-06-07T17:21:28.043Z",
    "source_name": "google",
    "source_query": "Irrigation Equipment",
    "source_country": "PL",
    "country": "Poland",
    "state": "Greater Poland Voivodeship",
    "city": "Rawicz"
  }
]
