[
  {
    "source_id": "ChIJkw0_CDhSBEcR6y55jxUbSaM",
    "name": "Grupa Hydro",
    "category": "Grupa Hydro",
    "formatted_address": "4,5(2)",
    "phone_number": "+48618132209",
    "source_url": "https://www.google.com/maps/place/Grupa+Hydro/data=!4m7!3m6!1s0x47045238083f0d93:0xa3491b158f792eeb!8m2!3d52.244731!4d16.854441!16s%2Fg%2F1tg4k26t!19sChIJkw0_CDhSBEcR6y55jxUbSaM?authuser=0&hl=tr&rclk=1",
    "website_url": "http://www.placzabaw.com.pl/",
    "rating_text": "4,5",
    "stars": null,
    "number_of_reviews": null,
    "price_level": "",
    "open_hours": "",
    "extraction_timestamp": "2025-06-07T17:19:27.252Z",
    "source_name": "google",
    "source_query": "Irrigation Equipment",
    "source_country": "PL",
    "country": "Poland",
    "state": "Greater Poland Voivodeship",
    "city": "Rogalinek"
  },
  {
    "source_id": "ChIJL97K7GxUBEcRujUApKZmsck",
    "name": "Rolpima. Maszyny Rolnicze, Importer maszyn rolniczych.",
    "category": "Rolpima. Maszyny Rolnicze, Importer maszyn rolniczych.",
    "formatted_address": "Rolpima. Maszyny Rolnicze, Importer maszyn rolniczych.",
    "phone_number": "+48603864496",
    "source_url": "https://www.google.com/maps/place/Rolpima.+Maszyny+Rolnicze,+Importer+maszyn+rolniczych./data=!4m7!3m6!1s0x4704546ceccade2f:0xc9b166a6a40035ba!8m2!3d52.2289389!4d16.949359!16s%2Fg%2F11ggb3gjbf!19sChIJL97K7GxUBEcRujUApKZmsck?authuser=0&hl=tr&rclk=1",
    "website_url": "http://rolpima.pl/",
    "rating_text": "4,5",
    "stars": null,
    "number_of_reviews": null,
    "price_level": "",
    "open_hours": "",
    "extraction_timestamp": "2025-06-07T17:19:27.254Z",
    "source_name": "google",
    "source_query": "Irrigation Equipment",
    "source_country": "PL",
    "country": "Poland",
    "state": "Greater Poland Voivodeship",
    "city": "Rogalinek"
  },
  {
    "source_id": "ChIJDWZhr9xTBEcR-A5kBRVqTLc",
    "name": "U Grażyny",
    "category": "U Grażyny",
    "formatted_address": "4,1(149)",
    "phone_number": "+48618302572",
    "source_url": "https://www.google.com/maps/place/U+Gra%C5%BCyny/data=!4m7!3m6!1s0x470453dcaf61660d:0xb74c6a1505640ef8!8m2!3d52.2495323!4d16.9000408!16s%2Fg%2F11fy_29cxt!19sChIJDWZhr9xTBEcR-A5kBRVqTLc?authuser=0&hl=tr&rclk=1",
    "website_url": "",
    "rating_text": "4,1",
    "stars": null,
    "number_of_reviews": null,
    "price_level": "",
    "open_hours": "",
    "extraction_timestamp": "2025-06-07T17:19:27.256Z",
    "source_name": "google",
    "source_query": "Irrigation Equipment",
    "source_country": "PL",
    "country": "Poland",
    "state": "Greater Poland Voivodeship",
    "city": "Rogalinek"
  },
  {
    "source_id": "ChIJ45JB6mlDBEcR__dhF4hl_T8",
    "name": "Agrii Polska Sp.z.o.o.",
    "category": "Agrii Polska Sp.z.o.o.",
    "formatted_address": "4,5(22)",
    "phone_number": "+48616708888",
    "source_url": "https://www.google.com/maps/place/Agrii+Polska+Sp.z.o.o./data=!4m7!3m6!1s0x47044369ea4192e3:0x3ffd65881761f7ff!8m2!3d52.447053!4d16.9069442!16s%2Fg%2F1tnmqdvf!19sChIJ45JB6mlDBEcR__dhF4hl_T8?authuser=0&hl=tr&rclk=1",
    "website_url": "http://www.agrii.pl/",
    "rating_text": "4,5",
    "stars": null,
    "number_of_reviews": null,
    "price_level": "",
    "open_hours": "",
    "extraction_timestamp": "2025-06-07T17:19:27.258Z",
    "source_name": "google",
    "source_query": "Irrigation Equipment",
    "source_country": "PL",
    "country": "Poland",
    "state": "Greater Poland Voivodeship",
    "city": "Rogalinek"
  },
  {
    "source_id": "ChIJ6TigCPtbBEcRDr5Mlbvqz0s",
    "name": "REXEL",
    "category": "REXEL",
    "formatted_address": "3,2(11)",
    "phone_number": "+48618768946",
    "source_url": "https://www.google.com/maps/place/REXEL/data=!4m7!3m6!1s0x47045bfb08a038e9:0x4bcfeabb954cbe0e!8m2!3d52.4074751!4d17.0285672!16s%2Fg%2F1th0lll2!19sChIJ6TigCPtbBEcRDr5Mlbvqz0s?authuser=0&hl=tr&rclk=1",
    "website_url": "http://www.rexel.com.pl/",
    "rating_text": "3,2",
    "stars": null,
    "number_of_reviews": null,
    "price_level": "",
    "open_hours": "",
    "extraction_timestamp": "2025-06-07T17:19:27.260Z",
    "source_name": "google",
    "source_query": "Irrigation Equipment",
    "source_country": "PL",
    "country": "Poland",
    "state": "Greater Poland Voivodeship",
    "city": "Rogalinek"
  },
  {
    "source_id": "ChIJgQW-YYpTBEcR1ITAVNbx-4Q",
    "name": "Groszek",
    "category": "Groszek",
    "formatted_address": "4,6(44)",
    "phone_number": "",
    "source_url": "https://www.google.com/maps/place/Groszek/data=!4m7!3m6!1s0x4704538a61be0581:0x84fbf1d654c084d4!8m2!3d52.2494988!4d16.8982719!16s%2Fg%2F11lgpqcgvz!19sChIJgQW-YYpTBEcR1ITAVNbx-4Q?authuser=0&hl=tr&rclk=1",
    "website_url": "https://www.facebook.com/Groszek-Rogalinek-103911108198540",
    "rating_text": "4,6",
    "stars": null,
    "number_of_reviews": null,
    "price_level": "",
    "open_hours": "",
    "extraction_timestamp": "2025-06-07T17:19:27.261Z",
    "source_name": "google",
    "source_query": "Irrigation Equipment",
    "source_country": "PL",
    "country": "Poland",
    "state": "Greater Poland Voivodeship",
    "city": "Rogalinek"
  },
  {
    "source_id": "ChIJ2WaF3qBEBEcRkh3RiSlpbG8",
    "name": "Dankar Usługi Budowlane WOD-KAN I C.O. Kosztorysowanie Danuta Pyssa Pogotowie 24H Usuwanie awarii wodociągowych",
    "category": "Dankar Usługi Budowlane WOD-KAN I C.O. Kosztorysowanie Danuta Pyssa Pogotowie 24H Usuwanie awarii wodociągowych",
    "formatted_address": "3,8(5)",
    "phone_number": "+48606261146",
    "source_url": "https://www.google.com/maps/place/Dankar+Us%C5%82ugi+Budowlane+WOD-KAN+I+C.O.+Kosztorysowanie+Danuta+Pyssa+Pogotowie+24H+Usuwanie+awarii+wodoci%C4%85gowych/data=!4m7!3m6!1s0x470444a0de8566d9:0x6f6c692989d11d92!8m2!3d52.4340201!4d16.8965348!16s%2Fg%2F1tm__y40!19sChIJ2WaF3qBEBEcRkh3RiSlpbG8?authuser=0&hl=tr&rclk=1",
    "website_url": "http://www.dankar.biz/",
    "rating_text": "3,8",
    "stars": null,
    "number_of_reviews": null,
    "price_level": "",
    "open_hours": "",
    "extraction_timestamp": "2025-06-07T17:19:27.263Z",
    "source_name": "google",
    "source_query": "Irrigation Equipment",
    "source_country": "PL",
    "country": "Poland",
    "state": "Greater Poland Voivodeship",
    "city": "Rogalinek"
  },
  {
    "source_id": "ChIJB6y_v5J2HEcRlDfYx3xmc9M",
    "name": "Milex irrigation systems",
    "category": "Milex irrigation systems",
    "formatted_address": "4,6(37)",
    "phone_number": "+48242775222",
    "source_url": "https://www.google.com/maps/place/Milex+irrigation+systems/data=!4m7!3m6!1s0x471c7692bfbfac07:0xd373667cc7d83794!8m2!3d52.4690634!4d19.7520904!16s%2Fg%2F1w2yy67r!19sChIJB6y_v5J2HEcRlDfYx3xmc9M?authuser=0&hl=tr&rclk=1",
    "website_url": "https://www.milex.pl/",
    "rating_text": "4,6",
    "stars": null,
    "number_of_reviews": null,
    "price_level": "",
    "open_hours": "",
    "extraction_timestamp": "2025-06-07T17:19:27.265Z",
    "source_name": "google",
    "source_query": "Irrigation Equipment",
    "source_country": "PL",
    "country": "Poland",
    "state": "Greater Poland Voivodeship",
    "city": "Rogalinek"
  },
  {
    "source_id": "ChIJfwFzbxBFBEcRn7xY2iu3RtU",
    "name": "Wielkopolski Ośrodek Doradztwa Rolniczego w Poznaniu",
    "category": "Wielkopolski Ośrodek Doradztwa Rolniczego w Poznaniu",
    "formatted_address": "3,9(20)",
    "phone_number": "+48618685272",
    "source_url": "https://www.google.com/maps/place/Wielkopolski+O%C5%9Brodek+Doradztwa+Rolniczego+w+Poznaniu/data=!4m7!3m6!1s0x470445106f73017f:0xd546b72bda58bc9f!8m2!3d52.3867242!4d16.8493122!16s%2Fg%2F1tj1qsdz!19sChIJfwFzbxBFBEcRn7xY2iu3RtU?authuser=0&hl=tr&rclk=1",
    "website_url": "http://www.wodr.poznan.pl/",
    "rating_text": "3,9",
    "stars": null,
    "number_of_reviews": null,
    "price_level": "",
    "open_hours": "",
    "extraction_timestamp": "2025-06-07T17:19:27.267Z",
    "source_name": "google",
    "source_query": "Irrigation Equipment",
    "source_country": "PL",
    "country": "Poland",
    "state": "Greater Poland Voivodeship",
    "city": "Rogalinek"
  },
  {
    "source_id": "ChIJG8s0LkdSBEcRLiiOnnQja64",
    "name": "Macierzanka",
    "category": "Macierzanka",
    "formatted_address": "4,4(15)",
    "phone_number": "+48618938521",
    "source_url": "https://www.google.com/maps/place/Macierzanka/data=!4m7!3m6!1s0x470452472e34cb1b:0xae6b23749e8e282e!8m2!3d52.2511209!4d16.8960351!16s%2Fg%2F1ptytk8m4!19sChIJG8s0LkdSBEcRLiiOnnQja64?authuser=0&hl=tr&rclk=1",
    "website_url": "http://www.aptekawdomu.pl/",
    "rating_text": "4,4",
    "stars": null,
    "number_of_reviews": null,
    "price_level": "",
    "open_hours": "",
    "extraction_timestamp": "2025-06-07T17:19:27.269Z",
    "source_name": "google",
    "source_query": "Irrigation Equipment",
    "source_country": "PL",
    "country": "Poland",
    "state": "Greater Poland Voivodeship",
    "city": "Rogalinek"
  },
  {
    "source_id": "ChIJZSZT8jtTBEcROf57F_6C6wg",
    "name": "Sklep Rabat",
    "category": "Sklep Rabat",
    "formatted_address": "5,0(3)",
    "phone_number": "",
    "source_url": "https://www.google.com/maps/place/Sklep+Rabat/data=!4m7!3m6!1s0x4704533bf2532665:0x8eb82fe177bfe39!8m2!3d52.2536894!4d16.8948724!16s%2Fg%2F11t75_f32j!19sChIJZSZT8jtTBEcROf57F_6C6wg?authuser=0&hl=tr&rclk=1",
    "website_url": "",
    "rating_text": "5,0",
    "stars": null,
    "number_of_reviews": null,
    "price_level": "",
    "open_hours": "",
    "extraction_timestamp": "2025-06-07T17:19:27.270Z",
    "source_name": "google",
    "source_query": "Irrigation Equipment",
    "source_country": "PL",
    "country": "Poland",
    "state": "Greater Poland Voivodeship",
    "city": "Rogalinek"
  },
  {
    "source_id": "ChIJ8zTKQVNfBEcRtT5PBGHLMZA",
    "name": "Grupa Weba",
    "category": "Grupa Weba",
    "formatted_address": "4,2(26)",
    "phone_number": "+48618158600",
    "source_url": "https://www.google.com/maps/place/Grupa+Weba/data=!4m7!3m6!1s0x47045f5341ca34f3:0x9031cb61044f3eb5!8m2!3d52.4147768!4d16.9751039!16s%2Fg%2F1tg59t6v!19sChIJ8zTKQVNfBEcRtT5PBGHLMZA?authuser=0&hl=tr&rclk=1",
    "website_url": "http://weba.com.pl/",
    "rating_text": "4,2",
    "stars": null,
    "number_of_reviews": null,
    "price_level": "",
    "open_hours": "",
    "extraction_timestamp": "2025-06-07T17:19:27.271Z",
    "source_name": "google",
    "source_query": "Irrigation Equipment",
    "source_country": "PL",
    "country": "Poland",
    "state": "Greater Poland Voivodeship",
    "city": "Rogalinek"
  },
  {
    "source_id": "ChIJVTV3W_PzBEcR6gY0xwQi2_E",
    "name": "Deszczownie.com",
    "category": "Deszczownie.com",
    "formatted_address": "",
    "phone_number": "+48726000030",
    "source_url": "https://www.google.com/maps/place/Deszczownie.com/data=!4m7!3m6!1s0x4704f3f35b773555:0xf1db2204c73406ea!8m2!3d52.3623948!4d17.4021087!16s%2Fg%2F11y3pv4rxr!19sChIJVTV3W_PzBEcR6gY0xwQi2_E?authuser=0&hl=tr&rclk=1",
    "website_url": "https://www.deszczownie.com/",
    "rating_text": "",
    "stars": null,
    "number_of_reviews": null,
    "price_level": "",
    "open_hours": "",
    "extraction_timestamp": "2025-06-07T17:19:27.280Z",
    "source_name": "google",
    "source_query": "Irrigation Equipment",
    "source_country": "PL",
    "country": "Poland",
    "state": "Greater Poland Voivodeship",
    "city": "Rogalinek"
  }
]
