[
  {
    "source_id": "ChIJtYeyvN1zBEcR6noD_r1poQs",
    "name": "FAKT Armatura",
    "category": "FAKT Armatura",
    "formatted_address": "4,8(43)",
    "phone_number": "+48672617371",
    "source_url": "https://www.google.com/maps/place/FAKT+Armatura/data=!4m7!3m6!1s0x470473ddbcb287b5:0xba169bdfe037aea!8m2!3d52.751154!4d16.982685!16s%2Fg%2F1tmxpq97!19sChIJtYeyvN1zBEcR6noD_r1poQs?authuser=0&hl=tr&rclk=1",
    "website_url": "",
    "rating_text": "4,8",
    "stars": null,
    "number_of_reviews": null,
    "price_level": "",
    "open_hours": "",
    "extraction_timestamp": "2025-06-07T17:52:17.354Z",
    "source_name": "google",
    "source_query": "Irrigation Equipment",
    "source_country": "PL",
    "country": "Poland",
    "state": "Greater Poland Voivodeship",
    "city": "Rogoźno"
  },
  {
    "source_id": "ChIJK7WQ-W9xBEcRm-6B5jDtkGo",
    "name": "Agrogama F.H.P.U.Kuźma i Keli Sp.Jawna Narzędzia, elektronarzędzia, śruby",
    "category": "Agrogama F.H.P.U.Kuźma i Keli Sp.Jawna Narzędzia, elektronarzędzia, śruby",
    "formatted_address": "Agrogama F.H.P.U.Kuźma i Keli Sp.Jawna Narzędzia, elektronarzędzia, śruby",
    "phone_number": "+48672619808",
    "source_url": "https://www.google.com/maps/place/Agrogama+F.H.P.U.Ku%C5%BAma+i+Keli+Sp.Jawna+Narz%C4%99dzia,+elektronarz%C4%99dzia,+%C5%9Bruby/data=!4m7!3m6!1s0x4704716ff990b52b:0x6a90ed30e681ee9b!8m2!3d52.7416256!4d17.0050633!16s%2Fg%2F1tdzdpwn!19sChIJK7WQ-W9xBEcRm-6B5jDtkGo?authuser=0&hl=tr&rclk=1",
    "website_url": "",
    "rating_text": "4,5",
    "stars": null,
    "number_of_reviews": null,
    "price_level": "",
    "open_hours": "",
    "extraction_timestamp": "2025-06-07T17:52:17.355Z",
    "source_name": "google",
    "source_query": "Irrigation Equipment",
    "source_country": "PL",
    "country": "Poland",
    "state": "Greater Poland Voivodeship",
    "city": "Rogoźno"
  },
  {
    "source_id": "ChIJBZ0hyuBzBEcROJaXC8w3x4A",
    "name": "SANET Sławomir Ruks",
    "category": "SANET Sławomir Ruks",
    "formatted_address": "4,7(26)",
    "phone_number": "+48672619004",
    "source_url": "https://www.google.com/maps/place/SANET+S%C5%82awomir+Ruks/data=!4m7!3m6!1s0x470473e0ca219d05:0x80c737cc0b979638!8m2!3d52.753356!4d16.9884381!16s%2Fg%2F1tdhkjml!19sChIJBZ0hyuBzBEcROJaXC8w3x4A?authuser=0&hl=tr&rclk=1",
    "website_url": "",
    "rating_text": "4,7",
    "stars": null,
    "number_of_reviews": null,
    "price_level": "",
    "open_hours": "",
    "extraction_timestamp": "2025-06-07T17:52:17.356Z",
    "source_name": "google",
    "source_query": "Irrigation Equipment",
    "source_country": "PL",
    "country": "Poland",
    "state": "Greater Poland Voivodeship",
    "city": "Rogoźno"
  },
  {
    "source_id": "ChIJE9-thJtzBEcRSeRakYKlzuM",
    "name": "PPHU Renata Kinach Oleje - Smary - Zakuwanie węży",
    "category": "PPHU Renata Kinach Oleje - Smary - Zakuwanie węży",
    "formatted_address": "4,9(27)",
    "phone_number": "+48669422784",
    "source_url": "https://www.google.com/maps/place/PPHU+Renata+Kinach+Oleje+-+Smary+-+Zakuwanie+w%C4%99%C5%BCy/data=!4m7!3m6!1s0x4704739b84addf13:0xe3cea582915ae449!8m2!3d52.7551732!4d16.9959206!16s%2Fg%2F11qsxr9__c!19sChIJE9-thJtzBEcRSeRakYKlzuM?authuser=0&hl=tr&rclk=1",
    "website_url": "",
    "rating_text": "4,9",
    "stars": null,
    "number_of_reviews": null,
    "price_level": "",
    "open_hours": "",
    "extraction_timestamp": "2025-06-07T17:52:17.357Z",
    "source_name": "google",
    "source_query": "Irrigation Equipment",
    "source_country": "PL",
    "country": "Poland",
    "state": "Greater Poland Voivodeship",
    "city": "Rogoźno"
  },
  {
    "source_id": "ChIJBZ0hyuBzBEcR7b2SQLJY6Qw",
    "name": "Rowag. Urządzenia do przemysłu paszowego, zbożowo-młynarskiego i spożywczego",
    "category": "Rowag. Urządzenia do przemysłu paszowego, zbożowo-młynarskiego i spożywczego",
    "formatted_address": "Rowag. Urządzenia do przemysłu paszowego, zbożowo-młynarskiego i spożywczego",
    "phone_number": "+48672618355",
    "source_url": "https://www.google.com/maps/place/Rowag.+Urz%C4%85dzenia+do+przemys%C5%82u+paszowego,+zbo%C5%BCowo-m%C5%82ynarskiego+i+spo%C5%BCywczego/data=!4m7!3m6!1s0x470473e0ca219d05:0xce958b24092bded!8m2!3d52.7535946!4d16.9878821!16s%2Fg%2F1tj7291b!19sChIJBZ0hyuBzBEcR7b2SQLJY6Qw?authuser=0&hl=tr&rclk=1",
    "website_url": "",
    "rating_text": "3,7",
    "stars": null,
    "number_of_reviews": null,
    "price_level": "",
    "open_hours": "",
    "extraction_timestamp": "2025-06-07T17:52:17.358Z",
    "source_name": "google",
    "source_query": "Irrigation Equipment",
    "source_country": "PL",
    "country": "Poland",
    "state": "Greater Poland Voivodeship",
    "city": "Rogoźno"
  },
  {
    "source_id": "ChIJjWQldNtzBEcRCIhrvYMj0v4",
    "name": "WIEMAR, Instalacje sanitarne, Autoryzowany Instalator Junkers-Bosch",
    "category": "WIEMAR, Instalacje sanitarne, Autoryzowany Instalator Junkers-Bosch",
    "formatted_address": "WIEMAR, Instalacje sanitarne, Autoryzowany Instalator Junkers-Bosch",
    "phone_number": "+48505363898",
    "source_url": "https://www.google.com/maps/place/WIEMAR,+Instalacje+sanitarne,+Autoryzowany+Instalator+Junkers-Bosch/data=!4m7!3m6!1s0x470473db7425648d:0xfed22383bd6b8808!8m2!3d52.7468!4d16.9786!16s%2Fg%2F11c3_9vpnv!19sChIJjWQldNtzBEcRCIhrvYMj0v4?authuser=0&hl=tr&rclk=1",
    "website_url": "",
    "rating_text": "4,5",
    "stars": null,
    "number_of_reviews": null,
    "price_level": "",
    "open_hours": "",
    "extraction_timestamp": "2025-06-07T17:52:17.359Z",
    "source_name": "google",
    "source_query": "Irrigation Equipment",
    "source_country": "PL",
    "country": "Poland",
    "state": "Greater Poland Voivodeship",
    "city": "Rogoźno"
  },
  {
    "source_id": "ChIJiXAD1eFzBEcRbISkKh2EcfY",
    "name": "KJM Grupa Handlowa",
    "category": "KJM Grupa Handlowa",
    "formatted_address": "4,5(53)",
    "phone_number": "",
    "source_url": "https://www.google.com/maps/place/KJM+Grupa+Handlowa/data=!4m7!3m6!1s0x470473e1d5037089:0xf671841d2aa4846c!8m2!3d52.7524735!4d16.9912054!16s%2Fg%2F11fm5mzl96!19sChIJiXAD1eFzBEcRbISkKh2EcfY?authuser=0&hl=tr&rclk=1",
    "website_url": "",
    "rating_text": "4,5",
    "stars": null,
    "number_of_reviews": null,
    "price_level": "",
    "open_hours": "",
    "extraction_timestamp": "2025-06-07T17:52:17.359Z",
    "source_name": "google",
    "source_query": "Irrigation Equipment",
    "source_country": "PL",
    "country": "Poland",
    "state": "Greater Poland Voivodeship",
    "city": "Rogoźno"
  },
  {
    "source_id": "ChIJaTmLnAdbBEcRh0PGc9ql6wI",
    "name": "cubepools",
    "category": "cubepools",
    "formatted_address": "4,7(39)",
    "phone_number": "+48502344777",
    "source_url": "https://www.google.com/maps/place/cubepools/data=!4m7!3m6!1s0x47045b079c8b3969:0x2eba5da73c64387!8m2!3d52.7521919!4d16.9686685!16s%2Fg%2F11h4g02w0p!19sChIJaTmLnAdbBEcRh0PGc9ql6wI?authuser=0&hl=tr&rclk=1",
    "website_url": "",
    "rating_text": "4,7",
    "stars": null,
    "number_of_reviews": null,
    "price_level": "",
    "open_hours": "",
    "extraction_timestamp": "2025-06-07T17:52:17.360Z",
    "source_name": "google",
    "source_query": "Irrigation Equipment",
    "source_country": "PL",
    "country": "Poland",
    "state": "Greater Poland Voivodeship",
    "city": "Rogoźno"
  },
  {
    "source_id": "ChIJK9kfbTh4BEcRM3svr3T5R7k",
    "name": "AGROHOSE PRZEWODY HYDRAULICZNE",
    "category": "AGROHOSE PRZEWODY HYDRAULICZNE",
    "formatted_address": "5,0(25)",
    "phone_number": "+48607719861",
    "source_url": "https://www.google.com/maps/place/AGROHOSE+PRZEWODY+HYDRAULICZNE/data=!4m7!3m6!1s0x470478386d1fd92b:0xb947f974af2f7b33!8m2!3d52.800697!4d17.190384!16s%2Fg%2F1ptxrm4wp!19sChIJK9kfbTh4BEcRM3svr3T5R7k?authuser=0&hl=tr&rclk=1",
    "website_url": "",
    "rating_text": "5,0",
    "stars": null,
    "number_of_reviews": null,
    "price_level": "",
    "open_hours": "",
    "extraction_timestamp": "2025-06-07T17:52:17.361Z",
    "source_name": "google",
    "source_query": "Irrigation Equipment",
    "source_country": "PL",
    "country": "Poland",
    "state": "Greater Poland Voivodeship",
    "city": "Rogoźno"
  },
  {
    "source_id": "ChIJGyDXsN9zBEcRSVS-qtm-I7c",
    "name": "Invest-Eco sp. z o.o. | przydomowe oczyszczalnie ścieków",
    "category": "Invest-Eco sp. z o.o. | przydomowe oczyszczalnie ścieków",
    "formatted_address": "",
    "phone_number": "+48601880975",
    "source_url": "https://www.google.com/maps/place/Invest-Eco+sp.+z+o.o.+%7C+przydomowe+oczyszczalnie+%C5%9Bciek%C3%B3w/data=!4m7!3m6!1s0x470473dfb0d7201b:0xb723bed9aabe5449!8m2!3d52.7500621!4d16.9895025!16s%2Fg%2F11gz75dff!19sChIJGyDXsN9zBEcRSVS-qtm-I7c?authuser=0&hl=tr&rclk=1",
    "website_url": "",
    "rating_text": "",
    "stars": null,
    "number_of_reviews": null,
    "price_level": "",
    "open_hours": "",
    "extraction_timestamp": "2025-06-07T17:52:17.362Z",
    "source_name": "google",
    "source_query": "Irrigation Equipment",
    "source_country": "PL",
    "country": "Poland",
    "state": "Greater Poland Voivodeship",
    "city": "Rogoźno"
  },
  {
    "source_id": "ChIJkXVZgVxxBEcRcXFrGPxi0UI",
    "name": "Firma Handlowa Jedynka Katarzyna Gabryszak",
    "category": "Firma Handlowa Jedynka Katarzyna Gabryszak",
    "formatted_address": "4,6(84)",
    "phone_number": "+48504261288",
    "source_url": "https://www.google.com/maps/place/Firma+Handlowa+Jedynka+Katarzyna+Gabryszak/data=!4m7!3m6!1s0x4704715c81597591:0x42d162fc186b7171!8m2!3d52.7539231!4d17.008993!16s%2Fg%2F1tggs6th!19sChIJkXVZgVxxBEcRcXFrGPxi0UI?authuser=0&hl=tr&rclk=1",
    "website_url": "",
    "rating_text": "4,6",
    "stars": null,
    "number_of_reviews": null,
    "price_level": "",
    "open_hours": "",
    "extraction_timestamp": "2025-06-07T17:52:17.362Z",
    "source_name": "google",
    "source_query": "Irrigation Equipment",
    "source_country": "PL",
    "country": "Poland",
    "state": "Greater Poland Voivodeship",
    "city": "Rogoźno"
  },
  {
    "source_id": "ChIJ-1m13y53BEcRiWjPWszGpgg",
    "name": "Kurz Włodzimierz Zakład Usług Pożarniczych Oginik 2",
    "category": "Kurz Włodzimierz Zakład Usług Pożarniczych Oginik 2",
    "formatted_address": "",
    "phone_number": "+48602755154",
    "source_url": "https://www.google.com/maps/place/Kurz+W%C5%82odzimierz+Zak%C5%82ad+Us%C5%82ug+Po%C5%BCarniczych+Oginik+2/data=!4m7!3m6!1s0x4704772edfb559fb:0x8a6c6cc5acf6889!8m2!3d52.7678098!4d17.0759937!16s%2Fg%2F1tdz3j8b!19sChIJ-1m13y53BEcRiWjPWszGpgg?authuser=0&hl=tr&rclk=1",
    "website_url": "",
    "rating_text": "",
    "stars": null,
    "number_of_reviews": null,
    "price_level": "",
    "open_hours": "",
    "extraction_timestamp": "2025-06-07T17:52:17.363Z",
    "source_name": "google",
    "source_query": "Irrigation Equipment",
    "source_country": "PL",
    "country": "Poland",
    "state": "Greater Poland Voivodeship",
    "city": "Rogoźno"
  },
  {
    "source_id": "ChIJeSdysVdxBEcRew3oiVZ7-VA",
    "name": "\"AQUABELLIS\" Sp. z o.o.",
    "category": "\"AQUABELLIS\" Sp. z o.o.",
    "formatted_address": "2,9(10)",
    "phone_number": "+48672618500",
    "source_url": "https://www.google.com/maps/place/%22AQUABELLIS%22+Sp.+z+o.o./data=!4m7!3m6!1s0x47047157b1722779:0x50f97b5689e80d7b!8m2!3d52.762965!4d17.0043259!16s%2Fg%2F1tjdvm2z!19sChIJeSdysVdxBEcRew3oiVZ7-VA?authuser=0&hl=tr&rclk=1",
    "website_url": "",
    "rating_text": "2,9",
    "stars": null,
    "number_of_reviews": null,
    "price_level": "",
    "open_hours": "",
    "extraction_timestamp": "2025-06-07T17:52:17.364Z",
    "source_name": "google",
    "source_query": "Irrigation Equipment",
    "source_country": "PL",
    "country": "Poland",
    "state": "Greater Poland Voivodeship",
    "city": "Rogoźno"
  },
  {
    "source_id": "ChIJL-M7BeBzBEcRcjYUlIMZW-4",
    "name": "Sklep SporTurystyka",
    "category": "Sklep SporTurystyka",
    "formatted_address": "4,2(40)",
    "phone_number": "",
    "source_url": "https://www.google.com/maps/place/Sklep+SporTurystyka/data=!4m7!3m6!1s0x470473e0053be32f:0xee5b198394143672!8m2!3d52.7518763!4d16.9936184!16s%2Fg%2F11dfx3c_gf!19sChIJL-M7BeBzBEcRcjYUlIMZW-4?authuser=0&hl=tr&rclk=1",
    "website_url": "",
    "rating_text": "4,2",
    "stars": null,
    "number_of_reviews": null,
    "price_level": "",
    "open_hours": "",
    "extraction_timestamp": "2025-06-07T17:52:17.364Z",
    "source_name": "google",
    "source_query": "Irrigation Equipment",
    "source_country": "PL",
    "country": "Poland",
    "state": "Greater Poland Voivodeship",
    "city": "Rogoźno"
  },
  {
    "source_id": "ChIJ4cZ5W_5xBEcRQdkqjeYravA",
    "name": "SOL-SPAW - ogrodzenia, bramy, balustrady, konstrukcje stalowe, schody, spawanie tig",
    "category": "SOL-SPAW - ogrodzenia, bramy, balustrady, konstrukcje stalowe, schody, spawanie tig",
    "formatted_address": "SOL-SPAW - ogrodzenia, bramy, balustrady, konstrukcje stalowe, schody, spawanie tig",
    "phone_number": "+48798963291",
    "source_url": "https://www.google.com/maps/place/SOL-SPAW+-+ogrodzenia,+bramy,+balustrady,+konstrukcje+stalowe,+schody,+spawanie+tig/data=!4m7!3m6!1s0x470471fe5b79c6e1:0xf06a2be68d2ad941!8m2!3d52.7450349!4d16.9968499!16s%2Fg%2F11p56v9cpv!19sChIJ4cZ5W_5xBEcRQdkqjeYravA?authuser=0&hl=tr&rclk=1",
    "website_url": "",
    "rating_text": "5,0",
    "stars": null,
    "number_of_reviews": null,
    "price_level": "",
    "open_hours": "",
    "extraction_timestamp": "2025-06-07T17:52:17.365Z",
    "source_name": "google",
    "source_query": "Irrigation Equipment",
    "source_country": "PL",
    "country": "Poland",
    "state": "Greater Poland Voivodeship",
    "city": "Rogoźno"
  },
  {
    "source_id": "ChIJ_6Q4G91zBEcR1OVDtlviH60",
    "name": "Przybylska Władysława. Wytwarzanie wieńców",
    "category": "Przybylska Władysława. Wytwarzanie wieńców",
    "formatted_address": "5,0(1)",
    "phone_number": "+48672618223",
    "source_url": "https://www.google.com/maps/place/Przybylska+W%C5%82adys%C5%82awa.+Wytwarzanie+wie%C5%84c%C3%B3w/data=!4m7!3m6!1s0x470473dd1b38a4ff:0xad1fe25bb643e5d4!8m2!3d52.7508009!4d16.9803359!16s%2Fg%2F11g_n36ck!19sChIJ_6Q4G91zBEcR1OVDtlviH60?authuser=0&hl=tr&rclk=1",
    "website_url": "",
    "rating_text": "5,0",
    "stars": null,
    "number_of_reviews": null,
    "price_level": "",
    "open_hours": "",
    "extraction_timestamp": "2025-06-07T17:52:17.365Z",
    "source_name": "google",
    "source_query": "Irrigation Equipment",
    "source_country": "PL",
    "country": "Poland",
    "state": "Greater Poland Voivodeship",
    "city": "Rogoźno"
  },
  {
    "source_id": "ChIJg8K58OhzBEcRJlSCdv75ujg",
    "name": "Robak Katarzyna i Tomasz Sklep rowerowy akcesoria i serwis",
    "category": "Robak Katarzyna i Tomasz Sklep rowerowy akcesoria i serwis",
    "formatted_address": "4,6(20)",
    "phone_number": "+48502028190",
    "source_url": "https://www.google.com/maps/place/Robak+Katarzyna+i+Tomasz+Sklep+rowerowy+akcesoria+i+serwis/data=!4m7!3m6!1s0x470473e8f0b9c283:0x38baf9fe76825426!8m2!3d52.7571969!4d16.9750209!16s%2Fg%2F1vq73k8l!19sChIJg8K58OhzBEcRJlSCdv75ujg?authuser=0&hl=tr&rclk=1",
    "website_url": "",
    "rating_text": "4,6",
    "stars": null,
    "number_of_reviews": null,
    "price_level": "",
    "open_hours": "",
    "extraction_timestamp": "2025-06-07T17:52:17.366Z",
    "source_name": "google",
    "source_query": "Irrigation Equipment",
    "source_country": "PL",
    "country": "Poland",
    "state": "Greater Poland Voivodeship",
    "city": "Rogoźno"
  },
  {
    "source_id": "ChIJ8XIF8WBxBEcRw49syGkKeww",
    "name": "K Power Usługi Elektryczne - Monitoring Bezprzewodowy",
    "category": "K Power Usługi Elektryczne - Monitoring Bezprzewodowy",
    "formatted_address": "1,0(1)",
    "phone_number": "+48511879179",
    "source_url": "https://www.google.com/maps/place/K+Power+Us%C5%82ugi+Elektryczne+-+Monitoring+Bezprzewodowy/data=!4m7!3m6!1s0x47047160f10572f1:0xc7b0a69c86c8fc3!8m2!3d52.747593!4d16.9977269!16s%2Fg%2F11r9mn5wq!19sChIJ8XIF8WBxBEcRw49syGkKeww?authuser=0&hl=tr&rclk=1",
    "website_url": "",
    "rating_text": "1,0",
    "stars": null,
    "number_of_reviews": null,
    "price_level": "",
    "open_hours": "",
    "extraction_timestamp": "2025-06-07T17:52:17.367Z",
    "source_name": "google",
    "source_query": "Irrigation Equipment",
    "source_country": "PL",
    "country": "Poland",
    "state": "Greater Poland Voivodeship",
    "city": "Rogoźno"
  },
  {
    "source_id": "ChIJtwEGgltxBEcROZqWesIOU4Y",
    "name": "FELIKS Budownictwo Sp. z o.o.",
    "category": "FELIKS Budownictwo Sp. z o.o.",
    "formatted_address": "5,0(1)",
    "phone_number": "+48665821027",
    "source_url": "https://www.google.com/maps/place/FELIKS+Budownictwo+Sp.+z+o.o./data=!4m7!3m6!1s0x4704715b820601b7:0x86530ec27a969a39!8m2!3d52.754827!4d17.00882!16s%2Fg%2F1tfrw5tg!19sChIJtwEGgltxBEcROZqWesIOU4Y?authuser=0&hl=tr&rclk=1",
    "website_url": "",
    "rating_text": "5,0",
    "stars": null,
    "number_of_reviews": null,
    "price_level": "",
    "open_hours": "",
    "extraction_timestamp": "2025-06-07T17:52:17.368Z",
    "source_name": "google",
    "source_query": "Irrigation Equipment",
    "source_country": "PL",
    "country": "Poland",
    "state": "Greater Poland Voivodeship",
    "city": "Rogoźno"
  },
  {
    "source_id": "ChIJB6y_v5J2HEcRlDfYx3xmc9M",
    "name": "Milex irrigation systems",
    "category": "Milex irrigation systems",
    "formatted_address": "4,6(37)",
    "phone_number": "+48242775222",
    "source_url": "https://www.google.com/maps/place/Milex+irrigation+systems/data=!4m7!3m6!1s0x471c7692bfbfac07:0xd373667cc7d83794!8m2!3d52.4690634!4d19.7520904!16s%2Fg%2F1w2yy67r!19sChIJB6y_v5J2HEcRlDfYx3xmc9M?authuser=0&hl=tr&rclk=1",
    "website_url": "",
    "rating_text": "4,6",
    "stars": null,
    "number_of_reviews": null,
    "price_level": "",
    "open_hours": "",
    "extraction_timestamp": "2025-06-07T17:52:17.368Z",
    "source_name": "google",
    "source_query": "Irrigation Equipment",
    "source_country": "PL",
    "country": "Poland",
    "state": "Greater Poland Voivodeship",
    "city": "Rogoźno"
  }
]
