[
  {
    "source_id": "ChIJ6ZwxDIlBBEcRQdkgYydfEhg",
    "name": "BZW Bruk Zieleń Woda - Dominik Rzepczyński",
    "category": "BZW Bruk Zieleń Woda - Dominik Rzepczyński",
    "formatted_address": "5,0(2)",
    "phone_number": "+48880670990",
    "source_url": "https://www.google.com/maps/place/BZW+Bruk+Ziele%C5%84+Woda+-+Dominik+Rzepczy%C5%84ski/data=!4m7!3m6!1s0x470441890c319ce9:0x18125f276320d941!8m2!3d52.5119822!4d16.7499267!16s%2Fg%2F11mcx3nslq!19sChIJ6ZwxDIlBBEcRQdkgYydfEhg?authuser=0&hl=tr&rclk=1",
    "website_url": "",
    "rating_text": "5,0",
    "stars": null,
    "number_of_reviews": null,
    "price_level": "",
    "open_hours": "",
    "extraction_timestamp": "2025-06-07T17:16:33.243Z",
    "source_name": "google",
    "source_query": "Irrigation Equipment",
    "source_country": "PL",
    "country": "Poland",
    "state": "Greater Poland Voivodeship",
    "city": "Rokietnica"
  },
  {
    "source_id": "ChIJKdaoI1tABEcRgKmAyOjvW9k",
    "name": "PHU BASECO",
    "category": "PHU BASECO",
    "formatted_address": "5,0(22)",
    "phone_number": "+48501554711",
    "source_url": "https://www.google.com/maps/place/PHU+BASECO/data=!4m7!3m6!1s0x4704405b23a8d629:0xd95befe8c880a980!8m2!3d52.5100943!4d16.755976!16s%2Fg%2F11c6dlgbh8!19sChIJKdaoI1tABEcRgKmAyOjvW9k?authuser=0&hl=tr&rclk=1",
    "website_url": "",
    "rating_text": "5,0",
    "stars": null,
    "number_of_reviews": null,
    "price_level": "",
    "open_hours": "",
    "extraction_timestamp": "2025-06-07T17:16:33.243Z",
    "source_name": "google",
    "source_query": "Irrigation Equipment",
    "source_country": "PL",
    "country": "Poland",
    "state": "Greater Poland Voivodeship",
    "city": "Rokietnica"
  },
  {
    "source_id": "ChIJVypcDe1ABEcRAFGL6yNXkb4",
    "name": "Eco Partner Ogrzewanie sp. z o.o.",
    "category": "Eco Partner Ogrzewanie sp. z o.o.",
    "formatted_address": "4,9(296)",
    "phone_number": "+48616429988",
    "source_url": "https://www.google.com/maps/place/Eco+Partner+Ogrzewanie+sp.+z+o.o./data=!4m7!3m6!1s0x470440ed0d5c2a57:0xbe915723eb8b5100!8m2!3d52.5097186!4d16.7653386!16s%2Fg%2F1v6p2_0_!19sChIJVypcDe1ABEcRAFGL6yNXkb4?authuser=0&hl=tr&rclk=1",
    "website_url": "",
    "rating_text": "4,9",
    "stars": null,
    "number_of_reviews": null,
    "price_level": "",
    "open_hours": "",
    "extraction_timestamp": "2025-06-07T17:16:33.243Z",
    "source_name": "google",
    "source_query": "Irrigation Equipment",
    "source_country": "PL",
    "country": "Poland",
    "state": "Greater Poland Voivodeship",
    "city": "Rokietnica"
  },
  {
    "source_id": "ChIJuyKP5FZbBEcRDhZpYm9zbf8",
    "name": "Elkompres-Bis. Sprężarki sprzedaż i serwis. Uzdatnianie sprężonego powietrza",
    "category": "Elkompres-Bis. Sprężarki sprzedaż i serwis. Uzdatnianie sprężonego powietrza",
    "formatted_address": "4,7(3)",
    "phone_number": "+48603221105",
    "source_url": "https://www.google.com/maps/place/Elkompres-Bis.+Spr%C4%99%C5%BCarki+sprzeda%C5%BC+i+serwis.+Uzdatnianie+spr%C4%99%C5%BConego+powietrza/data=!4m7!3m6!1s0x47045b56e48f22bb:0xff6d736f6269160e!8m2!3d52.5020585!4d16.7223167!16s%2Fg%2F1tg38t6j!19sChIJuyKP5FZbBEcRDhZpYm9zbf8?authuser=0&hl=tr&rclk=1",
    "website_url": "",
    "rating_text": "4,7",
    "stars": null,
    "number_of_reviews": null,
    "price_level": "",
    "open_hours": "",
    "extraction_timestamp": "2025-06-07T17:16:33.244Z",
    "source_name": "google",
    "source_query": "Irrigation Equipment",
    "source_country": "PL",
    "country": "Poland",
    "state": "Greater Poland Voivodeship",
    "city": "Rokietnica"
  },
  {
    "source_id": "ChIJ0bB0vBtBBEcR2X4YBHoM8KQ",
    "name": "Budmix - Hurtownia Remontowo Budowlana - Rokietnica",
    "category": "Budmix - Hurtownia Remontowo Budowlana - Rokietnica",
    "formatted_address": "4,7(110)",
    "phone_number": "+48574262246",
    "source_url": "https://www.google.com/maps/place/Budmix+-+Hurtownia+Remontowo+Budowlana+-+Rokietnica/data=!4m7!3m6!1s0x4704411bbc74b0d1:0xa4f00c7a04187ed9!8m2!3d52.509631!4d16.7559034!16s%2Fg%2F11g18zttvs!19sChIJ0bB0vBtBBEcR2X4YBHoM8KQ?authuser=0&hl=tr&rclk=1",
    "website_url": "",
    "rating_text": "4,7",
    "stars": null,
    "number_of_reviews": null,
    "price_level": "",
    "open_hours": "",
    "extraction_timestamp": "2025-06-07T17:16:33.244Z",
    "source_name": "google",
    "source_query": "Irrigation Equipment",
    "source_country": "PL",
    "country": "Poland",
    "state": "Greater Poland Voivodeship",
    "city": "Rokietnica"
  },
  {
    "source_id": "ChIJe74A4TBBBEcR04L0t7TZxBk",
    "name": "PO-SAN INSTALACJE Paweł Olejniczak",
    "category": "PO-SAN INSTALACJE Paweł Olejniczak",
    "formatted_address": "4,7(15)",
    "phone_number": "+48783473996",
    "source_url": "https://www.google.com/maps/place/PO-SAN+INSTALACJE+Pawe%C5%82+Olejniczak/data=!4m7!3m6!1s0x47044130e100be7b:0x19c4d9b4b7f482d3!8m2!3d52.504756!4d16.7435136!16s%2Fg%2F11mqj6vxj_!19sChIJe74A4TBBBEcR04L0t7TZxBk?authuser=0&hl=tr&rclk=1",
    "website_url": "",
    "rating_text": "4,7",
    "stars": null,
    "number_of_reviews": null,
    "price_level": "",
    "open_hours": "",
    "extraction_timestamp": "2025-06-07T17:16:33.244Z",
    "source_name": "google",
    "source_query": "Irrigation Equipment",
    "source_country": "PL",
    "country": "Poland",
    "state": "Greater Poland Voivodeship",
    "city": "Rokietnica"
  },
  {
    "source_id": "ChIJu_3LjPlBBEcR6zlKFM3iWro",
    "name": "Sklep z wyposażeniem do basenów Basendom",
    "category": "Sklep z wyposażeniem do basenów Basendom",
    "formatted_address": "4,8(68)",
    "phone_number": "+48669990788",
    "source_url": "https://www.google.com/maps/place/Sklep+z+wyposa%C5%BCeniem+do+basen%C3%B3w+Basendom/data=!4m7!3m6!1s0x470441f98ccbfdbb:0xba5ae2cd144a39eb!8m2!3d52.5061739!4d16.7271847!16s%2Fg%2F11h61ldyk0!19sChIJu_3LjPlBBEcR6zlKFM3iWro?authuser=0&hl=tr&rclk=1",
    "website_url": "",
    "rating_text": "4,8",
    "stars": null,
    "number_of_reviews": null,
    "price_level": "",
    "open_hours": "",
    "extraction_timestamp": "2025-06-07T17:16:33.245Z",
    "source_name": "google",
    "source_query": "Irrigation Equipment",
    "source_country": "PL",
    "country": "Poland",
    "state": "Greater Poland Voivodeship",
    "city": "Rokietnica"
  },
  {
    "source_id": "ChIJQYZYU_daBEcRrc4mt6dBBko",
    "name": "HYDROGLOBAL - Przemyślane rozwiązania dla ujęć wody",
    "category": "HYDROGLOBAL - Przemyślane rozwiązania dla ujęć wody",
    "formatted_address": "4,5(8)",
    "phone_number": "+48612785475",
    "source_url": "https://www.google.com/maps/place/HYDROGLOBAL+-+Przemy%C5%9Blane+rozwi%C4%85zania+dla+uj%C4%99%C4%87+wody/data=!4m7!3m6!1s0x47045af753588641:0x4a0641a7b726cead!8m2!3d52.4872791!4d16.8563292!16s%2Fg%2F1wzt11_h!19sChIJQYZYU_daBEcRrc4mt6dBBko?authuser=0&hl=tr&rclk=1",
    "website_url": "",
    "rating_text": "4,5",
    "stars": null,
    "number_of_reviews": null,
    "price_level": "",
    "open_hours": "",
    "extraction_timestamp": "2025-06-07T17:16:33.245Z",
    "source_name": "google",
    "source_query": "Irrigation Equipment",
    "source_country": "PL",
    "country": "Poland",
    "state": "Greater Poland Voivodeship",
    "city": "Rokietnica"
  },
  {
    "source_id": "ChIJ9ciPCaD1DSgRjObpHwhfZlw",
    "name": "Gregory Usługi Dla Domu Grzegorz Wyszkowski Hydraulik Poznań Elektryk Poznań Rokietnica",
    "category": "Gregory Usługi Dla Domu Grzegorz Wyszkowski Hydraulik Poznań Elektryk Poznań Rokietnica",
    "formatted_address": "5,0(296)",
    "phone_number": "+48692059953",
    "source_url": "https://www.google.com/maps/place/Gregory+Us%C5%82ugi+Dla+Domu+Grzegorz+Wyszkowski+Hydraulik+Pozna%C5%84+Elektryk+Pozna%C5%84+Rokietnica/data=!4m7!3m6!1s0x280df5a0098fc8f5:0x5c665f081fe9e68c!8m2!3d52.4970117!4d16.7315347!16s%2Fg%2F11k4yrkzql!19sChIJ9ciPCaD1DSgRjObpHwhfZlw?authuser=0&hl=tr&rclk=1",
    "website_url": "",
    "rating_text": "5,0",
    "stars": null,
    "number_of_reviews": null,
    "price_level": "",
    "open_hours": "",
    "extraction_timestamp": "2025-06-07T17:16:33.245Z",
    "source_name": "google",
    "source_query": "Irrigation Equipment",
    "source_country": "PL",
    "country": "Poland",
    "state": "Greater Poland Voivodeship",
    "city": "Rokietnica"
  },
  {
    "source_id": "ChIJfe-190hBBEcR-qyOc58zDq0",
    "name": "Pogotowie techniczne wod-kan Adrian Zybała",
    "category": "Pogotowie techniczne wod-kan Adrian Zybała",
    "formatted_address": "5,0(20)",
    "phone_number": "+48575391291",
    "source_url": "https://www.google.com/maps/place/Pogotowie+techniczne+wod-kan+Adrian+Zyba%C5%82a/data=!4m7!3m6!1s0x47044148f7b5ef7d:0xad0e339f738eacfa!8m2!3d52.5240665!4d16.728013!16s%2Fg%2F11t7qcmjy0!19sChIJfe-190hBBEcR-qyOc58zDq0?authuser=0&hl=tr&rclk=1",
    "website_url": "",
    "rating_text": "5,0",
    "stars": null,
    "number_of_reviews": null,
    "price_level": "",
    "open_hours": "",
    "extraction_timestamp": "2025-06-07T17:16:33.246Z",
    "source_name": "google",
    "source_query": "Irrigation Equipment",
    "source_country": "PL",
    "country": "Poland",
    "state": "Greater Poland Voivodeship",
    "city": "Rokietnica"
  },
  {
    "source_id": "ChIJ_ampQRw82m8RLQ8shx4Unrk",
    "name": "E-zbiorniki.pl",
    "category": "E-zbiorniki.pl",
    "formatted_address": "",
    "phone_number": "+48616609444",
    "source_url": "https://www.google.com/maps/place/E-zbiorniki.pl/data=!4m7!3m6!1s0x6fda3c1c41a9a9fd:0xb99e141e872c0f2d!8m2!3d52.5170783!4d16.7631048!16s%2Fg%2F11t8d8dwvh!19sChIJ_ampQRw82m8RLQ8shx4Unrk?authuser=0&hl=tr&rclk=1",
    "website_url": "",
    "rating_text": "",
    "stars": null,
    "number_of_reviews": null,
    "price_level": "",
    "open_hours": "",
    "extraction_timestamp": "2025-06-07T17:16:33.246Z",
    "source_name": "google",
    "source_query": "Irrigation Equipment",
    "source_country": "PL",
    "country": "Poland",
    "state": "Greater Poland Voivodeship",
    "city": "Rokietnica"
  },
  {
    "source_id": "ChIJBQg9aUFBBEcRxaMQmOf2oj4",
    "name": "Bass SUP Spot",
    "category": "Bass SUP Spot",
    "formatted_address": "4,6(20)",
    "phone_number": "+48570775735",
    "source_url": "https://www.google.com/maps/place/Bass+SUP+Spot/data=!4m7!3m6!1s0x47044141693d0805:0x3ea2f6e79810a3c5!8m2!3d52.4749062!4d16.7821956!16s%2Fg%2F11g8cpv77z!19sChIJBQg9aUFBBEcRxaMQmOf2oj4?authuser=0&hl=tr&rclk=1",
    "website_url": "",
    "rating_text": "4,6",
    "stars": null,
    "number_of_reviews": null,
    "price_level": "",
    "open_hours": "",
    "extraction_timestamp": "2025-06-07T17:16:33.246Z",
    "source_name": "google",
    "source_query": "Irrigation Equipment",
    "source_country": "PL",
    "country": "Poland",
    "state": "Greater Poland Voivodeship",
    "city": "Rokietnica"
  }
]
