[
  {
    "source_id": "ChIJuxSd01RGBUcR4CcjlLhuGao",
    "name": "ROLBUD-Rozdrażew",
    "category": "ROLBUD-Rozdrażew",
    "formatted_address": "4,0(4)",
    "phone_number": "+48627222510",
    "source_url": "https://www.google.com/maps/place/ROLBUD-Rozdra%C5%BCew/data=!4m7!3m6!1s0x47054654d39d14bb:0xaa196eb8942327e0!8m2!3d51.7828712!4d17.5025447!16s%2Fg%2F113gj_r1q!19sChIJuxSd01RGBUcR4CcjlLhuGao?authuser=0&hl=tr&rclk=1",
    "website_url": "",
    "rating_text": "4,0",
    "stars": null,
    "number_of_reviews": null,
    "price_level": "",
    "open_hours": "",
    "extraction_timestamp": "2025-06-07T17:12:32.084Z",
    "source_name": "google",
    "source_query": "Irrigation Equipment",
    "source_country": "PL",
    "country": "Poland",
    "state": "Greater Poland Voivodeship",
    "city": "Rozdrażew"
  },
  {
    "source_id": "ChIJkeuJf1Y5BUcR9saFwdrztng",
    "name": "Kamil. PH. Udzik D.",
    "category": "Kamil. PH. Udzik D.",
    "formatted_address": "4,5(8)",
    "phone_number": "+48601568747",
    "source_url": "https://www.google.com/maps/place/Kamil.+PH.+Udzik+D./data=!4m7!3m6!1s0x470539567f89eb91:0x78b6f3dac185c6f6!8m2!3d51.780872!4d17.504807!16s%2Fg%2F1tt0pv1l!19sChIJkeuJf1Y5BUcR9saFwdrztng?authuser=0&hl=tr&rclk=1",
    "website_url": "",
    "rating_text": "4,5",
    "stars": null,
    "number_of_reviews": null,
    "price_level": "",
    "open_hours": "",
    "extraction_timestamp": "2025-06-07T17:12:32.087Z",
    "source_name": "google",
    "source_query": "Irrigation Equipment",
    "source_country": "PL",
    "country": "Poland",
    "state": "Greater Poland Voivodeship",
    "city": "Rozdrażew"
  },
  {
    "source_id": "ChIJAXNvStY5BUcRafBH_Pt8ZjY",
    "name": "Dino",
    "category": "Dino",
    "formatted_address": "4,3(48)",
    "phone_number": "",
    "source_url": "https://www.google.com/maps/place/Dino/data=!4m7!3m6!1s0x470539d64a6f7301:0x36667cfbfc47f069!8m2!3d51.7720336!4d17.5011425!16s%2Fg%2F11pwwrzkhy!19sChIJAXNvStY5BUcRafBH_Pt8ZjY?authuser=0&hl=tr&rclk=1",
    "website_url": "",
    "rating_text": "4,3",
    "stars": null,
    "number_of_reviews": null,
    "price_level": "",
    "open_hours": "",
    "extraction_timestamp": "2025-06-07T17:12:32.088Z",
    "source_name": "google",
    "source_query": "Irrigation Equipment",
    "source_country": "PL",
    "country": "Poland",
    "state": "Greater Poland Voivodeship",
    "city": "Rozdrażew"
  },
  {
    "source_id": "ChIJHxWd01RGBUcRNzs1iAw4MnY",
    "name": "Dino",
    "category": "Dino",
    "formatted_address": "4,2(128)",
    "phone_number": "",
    "source_url": "https://www.google.com/maps/place/Dino/data=!4m7!3m6!1s0x47054654d39d151f:0x7632380c88353b37!8m2!3d51.7826665!4d17.5032089!16s%2Fg%2F1vmr02fl!19sChIJHxWd01RGBUcRNzs1iAw4MnY?authuser=0&hl=tr&rclk=1",
    "website_url": "",
    "rating_text": "4,2",
    "stars": null,
    "number_of_reviews": null,
    "price_level": "",
    "open_hours": "",
    "extraction_timestamp": "2025-06-07T17:12:32.090Z",
    "source_name": "google",
    "source_query": "Irrigation Equipment",
    "source_country": "PL",
    "country": "Poland",
    "state": "Greater Poland Voivodeship",
    "city": "Rozdrażew"
  },
  {
    "source_id": "ChIJ1XC1OzE5BUcRNBCT2KBjdtc",
    "name": "Biedronka",
    "category": "Biedronka",
    "formatted_address": "4,4(102)",
    "phone_number": "+48800080010",
    "source_url": "https://www.google.com/maps/place/Biedronka/data=!4m7!3m6!1s0x470539313bb570d5:0xd77663a0d8931034!8m2!3d51.7682312!4d17.4982835!16s%2Fg%2F11rj4twz4y!19sChIJ1XC1OzE5BUcRNBCT2KBjdtc?authuser=0&hl=tr&rclk=1",
    "website_url": "",
    "rating_text": "4,4",
    "stars": null,
    "number_of_reviews": null,
    "price_level": "",
    "open_hours": "",
    "extraction_timestamp": "2025-06-07T17:12:32.091Z",
    "source_name": "google",
    "source_query": "Irrigation Equipment",
    "source_country": "PL",
    "country": "Poland",
    "state": "Greater Poland Voivodeship",
    "city": "Rozdrażew"
  },
  {
    "source_id": "ChIJoS-V8Z46BUcRQv7f_WZCmGQ",
    "name": "Jaga. Sklep spożywczy. Udzik M.",
    "category": "Jaga. Sklep spożywczy. Udzik M.",
    "formatted_address": "4,0(6)",
    "phone_number": "+48627221399",
    "source_url": "https://www.google.com/maps/place/Jaga.+Sklep+spo%C5%BCywczy.+Udzik+M./data=!4m7!3m6!1s0x47053a9ef1952fa1:0x64984266fddffe42!8m2!3d51.7810297!4d17.5051318!16s%2Fg%2F1ptvt86vx!19sChIJoS-V8Z46BUcRQv7f_WZCmGQ?authuser=0&hl=tr&rclk=1",
    "website_url": "",
    "rating_text": "4,0",
    "stars": null,
    "number_of_reviews": null,
    "price_level": "",
    "open_hours": "",
    "extraction_timestamp": "2025-06-07T17:12:32.092Z",
    "source_name": "google",
    "source_query": "Irrigation Equipment",
    "source_country": "PL",
    "country": "Poland",
    "state": "Greater Poland Voivodeship",
    "city": "Rozdrażew"
  },
  {
    "source_id": "ChIJB6y_v5J2HEcRlDfYx3xmc9M",
    "name": "Milex irrigation systems",
    "category": "Milex irrigation systems",
    "formatted_address": "4,6(37)",
    "phone_number": "+48242775222",
    "source_url": "https://www.google.com/maps/place/Milex+irrigation+systems/data=!4m7!3m6!1s0x471c7692bfbfac07:0xd373667cc7d83794!8m2!3d52.4690634!4d19.7520904!16s%2Fg%2F1w2yy67r!19sChIJB6y_v5J2HEcRlDfYx3xmc9M?authuser=0&hl=tr&rclk=1",
    "website_url": "",
    "rating_text": "4,6",
    "stars": null,
    "number_of_reviews": null,
    "price_level": "",
    "open_hours": "",
    "extraction_timestamp": "2025-06-07T17:12:32.094Z",
    "source_name": "google",
    "source_query": "Irrigation Equipment",
    "source_country": "PL",
    "country": "Poland",
    "state": "Greater Poland Voivodeship",
    "city": "Rozdrażew"
  },
  {
    "source_id": "ChIJdRnGeDBaBEcRpyx7M8s1JkQ",
    "name": "Wirtgen Polska Sp. z o.o.",
    "category": "Wirtgen Polska Sp. z o.o.",
    "formatted_address": "4,4(31)",
    "phone_number": "+48618982100",
    "source_url": "https://www.google.com/maps/place/Wirtgen+Polska+Sp.+z+o.o./data=!4m7!3m6!1s0x47045a3078c61975:0x442635cb337b2ca7!8m2!3d52.3665338!4d16.9940075!16s%2Fg%2F1pv043rwn!19sChIJdRnGeDBaBEcRpyx7M8s1JkQ?authuser=0&hl=tr&rclk=1",
    "website_url": "",
    "rating_text": "4,4",
    "stars": null,
    "number_of_reviews": null,
    "price_level": "",
    "open_hours": "",
    "extraction_timestamp": "2025-06-07T17:12:32.096Z",
    "source_name": "google",
    "source_query": "Irrigation Equipment",
    "source_country": "PL",
    "country": "Poland",
    "state": "Greater Poland Voivodeship",
    "city": "Rozdrażew"
  },
  {
    "source_id": "ChIJxUaLRdw5BUcRZaBrQ0fGszc",
    "name": "Handel Częściami TOM-CARS Tomasz Zmyślony",
    "category": "Handel Częściami TOM-CARS Tomasz Zmyślony",
    "formatted_address": "5,0(5)",
    "phone_number": "+48609407246",
    "source_url": "https://www.google.com/maps/place/Handel+Cz%C4%99%C5%9Bciami+TOM-CARS+Tomasz+Zmy%C5%9Blony/data=!4m7!3m6!1s0x470539dc458b46c5:0x37b3c647436ba065!8m2!3d51.7859097!4d17.5012017!16s%2Fg%2F11tn7xsv48!19sChIJxUaLRdw5BUcRZaBrQ0fGszc?authuser=0&hl=tr&rclk=1",
    "website_url": "",
    "rating_text": "5,0",
    "stars": null,
    "number_of_reviews": null,
    "price_level": "",
    "open_hours": "",
    "extraction_timestamp": "2025-06-07T17:12:32.097Z",
    "source_name": "google",
    "source_query": "Irrigation Equipment",
    "source_country": "PL",
    "country": "Poland",
    "state": "Greater Poland Voivodeship",
    "city": "Rozdrażew"
  },
  {
    "source_id": "ChIJn_6dO7I5BUcRJ4nDofFpuFg",
    "name": "Baking M.J.M. Czwojda S.C.",
    "category": "Baking M.J.M. Czwojda S.C.",
    "formatted_address": "4,3(9) · ₺",
    "phone_number": "+48880340513",
    "source_url": "https://www.google.com/maps/place/Baking+M.J.M.+Czwojda+S.C./data=!4m7!3m6!1s0x470539b23b9dfe9f:0x58b869f1a1c38927!8m2!3d51.780636!4d17.5050209!16s%2Fg%2F11cnwgl7z9!19sChIJn_6dO7I5BUcRJ4nDofFpuFg?authuser=0&hl=tr&rclk=1",
    "website_url": "",
    "rating_text": "4,3",
    "stars": null,
    "number_of_reviews": null,
    "price_level": "",
    "open_hours": "",
    "extraction_timestamp": "2025-06-07T17:12:32.099Z",
    "source_name": "google",
    "source_query": "Irrigation Equipment",
    "source_country": "PL",
    "country": "Poland",
    "state": "Greater Poland Voivodeship",
    "city": "Rozdrażew"
  },
  {
    "source_id": "ChIJG4wt8blcBEcRBwsybo5yrmY",
    "name": "Rais-Tools Sp. o.o.",
    "category": "Rais-Tools Sp. o.o.",
    "formatted_address": "5,0(3)",
    "phone_number": "+48698684212",
    "source_url": "https://www.google.com/maps/place/Rais-Tools+Sp.+o.o./data=!4m7!3m6!1s0x47045cb9f12d8c1b:0x66ae728e6e320b07!8m2!3d52.5463854!4d16.3594181!16s%2Fg%2F1tc_jvfp!19sChIJG4wt8blcBEcRBwsybo5yrmY?authuser=0&hl=tr&rclk=1",
    "website_url": "",
    "rating_text": "5,0",
    "stars": null,
    "number_of_reviews": null,
    "price_level": "",
    "open_hours": "",
    "extraction_timestamp": "2025-06-07T17:12:32.100Z",
    "source_name": "google",
    "source_query": "Irrigation Equipment",
    "source_country": "PL",
    "country": "Poland",
    "state": "Greater Poland Voivodeship",
    "city": "Rozdrażew"
  },
  {
    "source_id": "ChIJVTV3W_PzBEcR6gY0xwQi2_E",
    "name": "Deszczownie.com",
    "category": "Deszczownie.com",
    "formatted_address": "",
    "phone_number": "+48726000030",
    "source_url": "https://www.google.com/maps/place/Deszczownie.com/data=!4m7!3m6!1s0x4704f3f35b773555:0xf1db2204c73406ea!8m2!3d52.3623948!4d17.4021087!16s%2Fg%2F11y3pv4rxr!19sChIJVTV3W_PzBEcR6gY0xwQi2_E?authuser=0&hl=tr&rclk=1",
    "website_url": "",
    "rating_text": "",
    "stars": null,
    "number_of_reviews": null,
    "price_level": "",
    "open_hours": "",
    "extraction_timestamp": "2025-06-07T17:12:32.102Z",
    "source_name": "google",
    "source_query": "Irrigation Equipment",
    "source_country": "PL",
    "country": "Poland",
    "state": "Greater Poland Voivodeship",
    "city": "Rozdrażew"
  }
]
