[
  {
    "source_id": "ChIJ8YPKyPOAEEcRzWMnpWlIcgY",
    "name": "DARMORW Serwis Automatyka Przemysłowa - naprawa maszyn i urządzeń przemysłowych",
    "category": "DARMORW Serwis Automatyka Przemysłowa - naprawa maszyn i urządzeń przemysłowych",
    "formatted_address": "",
    "phone_number": "+48724341906",
    "source_url": "https://www.google.com/maps/place/DARMORW+Serwis+Automatyka+Przemys%C5%82owa+-+naprawa+maszyn+i+urz%C4%85dze%C5%84+przemys%C5%82owych/data=!4m7!3m6!1s0x471080f3c8ca83f1:0x6724869a52763cd!8m2!3d51.1398998!4d17.8466249!16s%2Fg%2F1trpjydc!19sChIJ8YPKyPOAEEcRzWMnpWlIcgY?authuser=0&hl=tr&rclk=1",
    "website_url": "",
    "rating_text": "",
    "stars": null,
    "number_of_reviews": null,
    "price_level": "",
    "open_hours": "",
    "extraction_timestamp": "2025-06-07T17:32:32.857Z",
    "source_name": "google",
    "source_query": "Irrigation Equipment",
    "source_country": "PL",
    "country": "Poland",
    "state": "Greater Poland Voivodeship",
    "city": "Rychtal"
  },
  {
    "source_id": "ChIJKSkAuIkSEEcRBzxQHkfuEsw",
    "name": "ABC. Sklep wielobranżowy",
    "category": "ABC. Sklep wielobranżowy",
    "formatted_address": "4,0(1)",
    "phone_number": "+48627816048",
    "source_url": "https://www.google.com/maps/place/ABC.+Sklep+wielobran%C5%BCowy/data=!4m7!3m6!1s0x47101289b8002929:0xcc12ee471e503c07!8m2!3d51.1446941!4d17.8492856!16s%2Fg%2F1tdxc_qs!19sChIJKSkAuIkSEEcRBzxQHkfuEsw?authuser=0&hl=tr&rclk=1",
    "website_url": "",
    "rating_text": "4,0",
    "stars": null,
    "number_of_reviews": null,
    "price_level": "",
    "open_hours": "",
    "extraction_timestamp": "2025-06-07T17:32:32.859Z",
    "source_name": "google",
    "source_query": "Irrigation Equipment",
    "source_country": "PL",
    "country": "Poland",
    "state": "Greater Poland Voivodeship",
    "city": "Rychtal"
  },
  {
    "source_id": "ChIJW87-XYgSEEcRy6uF5NAZpqQ",
    "name": "Dino",
    "category": "Dino",
    "formatted_address": "4,0(251)",
    "phone_number": "",
    "source_url": "https://www.google.com/maps/place/Dino/data=!4m7!3m6!1s0x471012885dfece5b:0xa4a619d0e485abcb!8m2!3d51.1464664!4d17.8502331!16s%2Fg%2F11b7lpt9xd!19sChIJW87-XYgSEEcRy6uF5NAZpqQ?authuser=0&hl=tr&rclk=1",
    "website_url": "",
    "rating_text": "4,0",
    "stars": null,
    "number_of_reviews": null,
    "price_level": "",
    "open_hours": "",
    "extraction_timestamp": "2025-06-07T17:32:32.860Z",
    "source_name": "google",
    "source_query": "Irrigation Equipment",
    "source_country": "PL",
    "country": "Poland",
    "state": "Greater Poland Voivodeship",
    "city": "Rychtal"
  },
  {
    "source_id": "ChIJd1YzftsNEEcR1GZYBxFlbRY",
    "name": "D-M Instal Mateusz Lar",
    "category": "D-M Instal Mateusz Lar",
    "formatted_address": "5,0(1)",
    "phone_number": "+48785068005",
    "source_url": "https://www.google.com/maps/place/D-M+Instal+Mateusz+Lar/data=!4m7!3m6!1s0x47100ddb7e335677:0x166d6511075866d4!8m2!3d51.1735309!4d17.8878989!16s%2Fg%2F11k7czvq_w!19sChIJd1YzftsNEEcR1GZYBxFlbRY?authuser=0&hl=tr&rclk=1",
    "website_url": "",
    "rating_text": "5,0",
    "stars": null,
    "number_of_reviews": null,
    "price_level": "",
    "open_hours": "",
    "extraction_timestamp": "2025-06-07T17:32:32.862Z",
    "source_name": "google",
    "source_query": "Irrigation Equipment",
    "source_country": "PL",
    "country": "Poland",
    "state": "Greater Poland Voivodeship",
    "city": "Rychtal"
  },
  {
    "source_id": "ChIJkWwhLMASEEcRyN5qXlH8fSI",
    "name": "Sklep spożywczy GS Rychtal",
    "category": "Sklep spożywczy GS Rychtal",
    "formatted_address": "4,2(6)",
    "phone_number": "",
    "source_url": "https://www.google.com/maps/place/Sklep+spo%C5%BCywczy+GS+Rychtal/data=!4m7!3m6!1s0x471012c02c216c91:0x227dfc515e6adec8!8m2!3d51.131735!4d17.869829!16s%2Fg%2F11c6v9rdzl!19sChIJkWwhLMASEEcRyN5qXlH8fSI?authuser=0&hl=tr&rclk=1",
    "website_url": "",
    "rating_text": "4,2",
    "stars": null,
    "number_of_reviews": null,
    "price_level": "",
    "open_hours": "",
    "extraction_timestamp": "2025-06-07T17:32:32.863Z",
    "source_name": "google",
    "source_query": "Irrigation Equipment",
    "source_country": "PL",
    "country": "Poland",
    "state": "Greater Poland Voivodeship",
    "city": "Rychtal"
  },
  {
    "source_id": "ChIJB6y_v5J2HEcRlDfYx3xmc9M",
    "name": "Milex irrigation systems",
    "category": "Milex irrigation systems",
    "formatted_address": "4,6(37)",
    "phone_number": "+48242775222",
    "source_url": "https://www.google.com/maps/place/Milex+irrigation+systems/data=!4m7!3m6!1s0x471c7692bfbfac07:0xd373667cc7d83794!8m2!3d52.4690634!4d19.7520904!16s%2Fg%2F1w2yy67r!19sChIJB6y_v5J2HEcRlDfYx3xmc9M?authuser=0&hl=tr&rclk=1",
    "website_url": "",
    "rating_text": "4,6",
    "stars": null,
    "number_of_reviews": null,
    "price_level": "",
    "open_hours": "",
    "extraction_timestamp": "2025-06-07T17:32:32.865Z",
    "source_name": "google",
    "source_query": "Irrigation Equipment",
    "source_country": "PL",
    "country": "Poland",
    "state": "Greater Poland Voivodeship",
    "city": "Rychtal"
  },
  {
    "source_id": "ChIJkTxpuIkSEEcR8-UwMCqKsIo",
    "name": "Deliaktesy Centrum",
    "category": "Deliaktesy Centrum",
    "formatted_address": "4,3(143)",
    "phone_number": "+48627814747",
    "source_url": "https://www.google.com/maps/place/Deliaktesy+Centrum/data=!4m7!3m6!1s0x47101289b8693c91:0x8ab08a2a3030e5f3!8m2!3d51.1445894!4d17.8473503!16s%2Fg%2F11bw8lxp86!19sChIJkTxpuIkSEEcR8-UwMCqKsIo?authuser=0&hl=tr&rclk=1",
    "website_url": "",
    "rating_text": "4,3",
    "stars": null,
    "number_of_reviews": null,
    "price_level": "",
    "open_hours": "",
    "extraction_timestamp": "2025-06-07T17:32:32.866Z",
    "source_name": "google",
    "source_query": "Irrigation Equipment",
    "source_country": "PL",
    "country": "Poland",
    "state": "Greater Poland Voivodeship",
    "city": "Rychtal"
  },
  {
    "source_id": "ChIJiSCc8UgTEEcRYXMzg2QV698",
    "name": "Biedronka",
    "category": "Biedronka",
    "formatted_address": "4,2(71)",
    "phone_number": "+48800080010",
    "source_url": "https://www.google.com/maps/place/Biedronka/data=!4m7!3m6!1s0x47101348f19c2089:0xdfeb156483337361!8m2!3d51.1445847!4d17.8453216!16s%2Fg%2F11txj4lc12!19sChIJiSCc8UgTEEcRYXMzg2QV698?authuser=0&hl=tr&rclk=1",
    "website_url": "",
    "rating_text": "4,2",
    "stars": null,
    "number_of_reviews": null,
    "price_level": "",
    "open_hours": "",
    "extraction_timestamp": "2025-06-07T17:32:32.868Z",
    "source_name": "google",
    "source_query": "Irrigation Equipment",
    "source_country": "PL",
    "country": "Poland",
    "state": "Greater Poland Voivodeship",
    "city": "Rychtal"
  }
]
