[
  {
    "source_id": "ChIJUfn2Ig35A0cREW9fZ4029UM",
    "name": "IMTechnika sp. z o.o.",
    "category": "IMTechnika sp. z o.o.",
    "formatted_address": "4,4(17)",
    "phone_number": "+48883820388",
    "source_url": "https://www.google.com/maps/place/IMTechnika+sp.+z+o.o./data=!4m7!3m6!1s0x4703f90d22f6f951:0x43f5368d675f6f11!8m2!3d52.9756271!4d16.657836!16s%2Fg%2F11bw48_6mg!19sChIJUfn2Ig35A0cREW9fZ4029UM?authuser=0&hl=tr&rclk=1",
    "website_url": "",
    "rating_text": "4,4",
    "stars": null,
    "number_of_reviews": null,
    "price_level": "",
    "open_hours": "",
    "extraction_timestamp": "2025-06-07T17:57:08.947Z",
    "source_name": "google",
    "source_query": "Irrigation Equipment",
    "source_country": "PL",
    "country": "Poland",
    "state": "Greater Poland Voivodeship",
    "city": "Ryczywół"
  },
  {
    "source_id": "ChIJQfXilnULBEcRFbsWn_bxl1w",
    "name": "Dino",
    "category": "Dino",
    "formatted_address": "4,3(210)",
    "phone_number": "",
    "source_url": "https://www.google.com/maps/place/Dino/data=!4m7!3m6!1s0x47040b7596e2f541:0x5c97f1f69f16bb15!8m2!3d52.8144563!4d16.837434!16s%2Fg%2F11c71kgbg0!19sChIJQfXilnULBEcRFbsWn_bxl1w?authuser=0&hl=tr&rclk=1",
    "website_url": "",
    "rating_text": "4,3",
    "stars": null,
    "number_of_reviews": null,
    "price_level": "",
    "open_hours": "",
    "extraction_timestamp": "2025-06-07T17:57:08.947Z",
    "source_name": "google",
    "source_query": "Irrigation Equipment",
    "source_country": "PL",
    "country": "Poland",
    "state": "Greater Poland Voivodeship",
    "city": "Ryczywół"
  },
  {
    "source_id": "ChIJHfjKMXYLBEcRVDA-Z04vN4k",
    "name": "Kaczmarek Dariusz. Sklep Motoryzacyjny",
    "category": "Kaczmarek Dariusz. Sklep Motoryzacyjny",
    "formatted_address": "4,6(12)",
    "phone_number": "+48672837615",
    "source_url": "https://www.google.com/maps/place/Kaczmarek+Dariusz.+Sklep+Motoryzacyjny/data=!4m7!3m6!1s0x47040b7631caf81d:0x89372f4e673e3054!8m2!3d52.8103095!4d16.8344479!16s%2Fg%2F11h0vq1cyd!19sChIJHfjKMXYLBEcRVDA-Z04vN4k?authuser=0&hl=tr&rclk=1",
    "website_url": "",
    "rating_text": "4,6",
    "stars": null,
    "number_of_reviews": null,
    "price_level": "",
    "open_hours": "",
    "extraction_timestamp": "2025-06-07T17:57:08.947Z",
    "source_name": "google",
    "source_query": "Irrigation Equipment",
    "source_country": "PL",
    "country": "Poland",
    "state": "Greater Poland Voivodeship",
    "city": "Ryczywół"
  },
  {
    "source_id": "ChIJ5yKMPDQLBEcR8leVo7SVlTs",
    "name": "Sklep Max Handel Art. Przemysłowymi",
    "category": "Sklep Max Handel Art. Przemysłowymi",
    "formatted_address": "5,0(1)",
    "phone_number": "+48604146951",
    "source_url": "https://www.google.com/maps/place/Sklep+Max+Handel+Art.+Przemys%C5%82owymi/data=!4m7!3m6!1s0x47040b343c8c22e7:0x3b9595b4a39557f2!8m2!3d52.8120537!4d16.8361952!16s%2Fg%2F11krgqtx4f!19sChIJ5yKMPDQLBEcR8leVo7SVlTs?authuser=0&hl=tr&rclk=1",
    "website_url": "",
    "rating_text": "5,0",
    "stars": null,
    "number_of_reviews": null,
    "price_level": "",
    "open_hours": "",
    "extraction_timestamp": "2025-06-07T17:57:08.948Z",
    "source_name": "google",
    "source_query": "Irrigation Equipment",
    "source_country": "PL",
    "country": "Poland",
    "state": "Greater Poland Voivodeship",
    "city": "Ryczywół"
  },
  {
    "source_id": "ChIJQYZYU_daBEcRrc4mt6dBBko",
    "name": "HYDROGLOBAL - Przemyślane rozwiązania dla ujęć wody",
    "category": "HYDROGLOBAL - Przemyślane rozwiązania dla ujęć wody",
    "formatted_address": "4,5(8)",
    "phone_number": "+48612785475",
    "source_url": "https://www.google.com/maps/place/HYDROGLOBAL+-+Przemy%C5%9Blane+rozwi%C4%85zania+dla+uj%C4%99%C4%87+wody/data=!4m7!3m6!1s0x47045af753588641:0x4a0641a7b726cead!8m2!3d52.4872791!4d16.8563292!16s%2Fg%2F1wzt11_h!19sChIJQYZYU_daBEcRrc4mt6dBBko?authuser=0&hl=tr&rclk=1",
    "website_url": "",
    "rating_text": "4,5",
    "stars": null,
    "number_of_reviews": null,
    "price_level": "",
    "open_hours": "",
    "extraction_timestamp": "2025-06-07T17:57:08.948Z",
    "source_name": "google",
    "source_query": "Irrigation Equipment",
    "source_country": "PL",
    "country": "Poland",
    "state": "Greater Poland Voivodeship",
    "city": "Ryczywół"
  },
  {
    "source_id": "ChIJa2hLXnYLBEcR-S7GMPUkT98",
    "name": "Biedronka",
    "category": "Biedronka",
    "formatted_address": "4,1(375)",
    "phone_number": "+48800080010",
    "source_url": "https://www.google.com/maps/place/Biedronka/data=!4m7!3m6!1s0x47040b765e4b686b:0xdf4f24f530c62ef9!8m2!3d52.8112115!4d16.8370404!16s%2Fg%2F11b5wj97yg!19sChIJa2hLXnYLBEcR-S7GMPUkT98?authuser=0&hl=tr&rclk=1",
    "website_url": "",
    "rating_text": "4,1",
    "stars": null,
    "number_of_reviews": null,
    "price_level": "",
    "open_hours": "",
    "extraction_timestamp": "2025-06-07T17:57:08.948Z",
    "source_name": "google",
    "source_query": "Irrigation Equipment",
    "source_country": "PL",
    "country": "Poland",
    "state": "Greater Poland Voivodeship",
    "city": "Ryczywół"
  },
  {
    "source_id": "ChIJG4wt8blcBEcRBwsybo5yrmY",
    "name": "Rais-Tools Sp. o.o.",
    "category": "Rais-Tools Sp. o.o.",
    "formatted_address": "5,0(3)",
    "phone_number": "+48698684212",
    "source_url": "https://www.google.com/maps/place/Rais-Tools+Sp.+o.o./data=!4m7!3m6!1s0x47045cb9f12d8c1b:0x66ae728e6e320b07!8m2!3d52.5463854!4d16.3594181!16s%2Fg%2F1tc_jvfp!19sChIJG4wt8blcBEcRBwsybo5yrmY?authuser=0&hl=tr&rclk=1",
    "website_url": "",
    "rating_text": "5,0",
    "stars": null,
    "number_of_reviews": null,
    "price_level": "",
    "open_hours": "",
    "extraction_timestamp": "2025-06-07T17:57:08.949Z",
    "source_name": "google",
    "source_query": "Irrigation Equipment",
    "source_country": "PL",
    "country": "Poland",
    "state": "Greater Poland Voivodeship",
    "city": "Ryczywół"
  },
  {
    "source_id": "ChIJ4-VwFBwLBEcR3GNrwLL8fGM",
    "name": "Piekarnia Sendal Ryczywół",
    "category": "Piekarnia Sendal Ryczywół",
    "formatted_address": "5,0(1)",
    "phone_number": "+48886914414",
    "source_url": "https://www.google.com/maps/place/Piekarnia+Sendal+Ryczyw%C3%B3%C5%82/data=!4m7!3m6!1s0x47040b1c1470e5e3:0x637cfcb2c06b63dc!8m2!3d52.8130077!4d16.834958!16s%2Fg%2F11wppp2km6!19sChIJ4-VwFBwLBEcR3GNrwLL8fGM?authuser=0&hl=tr&rclk=1",
    "website_url": "",
    "rating_text": "5,0",
    "stars": null,
    "number_of_reviews": null,
    "price_level": "",
    "open_hours": "",
    "extraction_timestamp": "2025-06-07T17:57:08.949Z",
    "source_name": "google",
    "source_query": "Irrigation Equipment",
    "source_country": "PL",
    "country": "Poland",
    "state": "Greater Poland Voivodeship",
    "city": "Ryczywół"
  },
  {
    "source_id": "ChIJoZj88XULBEcR8lJXLV3ohi4",
    "name": "Nowa. Apteka. Melkowska-Dreger M.",
    "category": "Nowa. Apteka. Melkowska-Dreger M.",
    "formatted_address": "3,6(15)",
    "phone_number": "",
    "source_url": "https://www.google.com/maps/place/Nowa.+Apteka.+Melkowska-Dreger+M./data=!4m7!3m6!1s0x47040b75f1fc98a1:0x2e86e85d2d5752f2!8m2!3d52.8095665!4d16.8343393!16s%2Fg%2F1hc667n_t!19sChIJoZj88XULBEcR8lJXLV3ohi4?authuser=0&hl=tr&rclk=1",
    "website_url": "",
    "rating_text": "3,6",
    "stars": null,
    "number_of_reviews": null,
    "price_level": "",
    "open_hours": "",
    "extraction_timestamp": "2025-06-07T17:57:08.949Z",
    "source_name": "google",
    "source_query": "Irrigation Equipment",
    "source_country": "PL",
    "country": "Poland",
    "state": "Greater Poland Voivodeship",
    "city": "Ryczywół"
  },
  {
    "source_id": "ChIJB6y_v5J2HEcRlDfYx3xmc9M",
    "name": "Milex irrigation systems",
    "category": "Milex irrigation systems",
    "formatted_address": "4,6(37)",
    "phone_number": "+48242775222",
    "source_url": "https://www.google.com/maps/place/Milex+irrigation+systems/data=!4m7!3m6!1s0x471c7692bfbfac07:0xd373667cc7d83794!8m2!3d52.4690634!4d19.7520904!16s%2Fg%2F1w2yy67r!19sChIJB6y_v5J2HEcRlDfYx3xmc9M?authuser=0&hl=tr&rclk=1",
    "website_url": "",
    "rating_text": "4,6",
    "stars": null,
    "number_of_reviews": null,
    "price_level": "",
    "open_hours": "",
    "extraction_timestamp": "2025-06-07T17:57:08.949Z",
    "source_name": "google",
    "source_query": "Irrigation Equipment",
    "source_country": "PL",
    "country": "Poland",
    "state": "Greater Poland Voivodeship",
    "city": "Ryczywół"
  },
  {
    "source_id": "ChIJVTV3W_PzBEcR6gY0xwQi2_E",
    "name": "Deszczownie.com",
    "category": "Deszczownie.com",
    "formatted_address": "",
    "phone_number": "+48726000030",
    "source_url": "https://www.google.com/maps/place/Deszczownie.com/data=!4m7!3m6!1s0x4704f3f35b773555:0xf1db2204c73406ea!8m2!3d52.3623948!4d17.4021087!16s%2Fg%2F11y3pv4rxr!19sChIJVTV3W_PzBEcR6gY0xwQi2_E?authuser=0&hl=tr&rclk=1",
    "website_url": "",
    "rating_text": "",
    "stars": null,
    "number_of_reviews": null,
    "price_level": "",
    "open_hours": "",
    "extraction_timestamp": "2025-06-07T17:57:08.949Z",
    "source_name": "google",
    "source_query": "Irrigation Equipment",
    "source_country": "PL",
    "country": "Poland",
    "state": "Greater Poland Voivodeship",
    "city": "Ryczywół"
  }
]
