[
  {
    "source_id": "ChIJUdwhqgOYBUcR3jwtTyYHSx4",
    "name": "Hydro-Partner Sp. z o.o.",
    "category": "Hydro-Partner Sp. z o.o.",
    "formatted_address": "4,6(40)",
    "phone_number": "+48655252850",
    "source_url": "https://www.google.com/maps/place/Hydro-Partner+Sp.+z+o.o./data=!4m7!3m6!1s0x47059803aa21dc51:0x1e4b07264f2d3cde!8m2!3d51.8630159!4d16.5752719!16s%2Fg%2F1vgw7b90!19sChIJUdwhqgOYBUcR3jwtTyYHSx4?authuser=0&hl=tr&rclk=1",
    "website_url": "",
    "rating_text": "4,6",
    "stars": null,
    "number_of_reviews": null,
    "price_level": "",
    "open_hours": "",
    "extraction_timestamp": "2025-06-07T17:45:14.334Z",
    "source_name": "google",
    "source_query": "Irrigation Equipment",
    "source_country": "PL",
    "country": "Poland",
    "state": "Greater Poland Voivodeship",
    "city": "Rydzyna"
  },
  {
    "source_id": "ChIJ__8vRjGYBUcRbRkFMNRnGzI",
    "name": "NOVATECH silowniki24.pl",
    "category": "NOVATECH silowniki24.pl",
    "formatted_address": "5,0(2)",
    "phone_number": "+48660678158",
    "source_url": "https://www.google.com/maps/place/NOVATECH+silowniki24.pl/data=!4m7!3m6!1s0x47059831462fffff:0x321b67d43005196d!8m2!3d51.8340968!4d16.5760434!16s%2Fg%2F11m2dzxfrx!19sChIJ__8vRjGYBUcRbRkFMNRnGzI?authuser=0&hl=tr&rclk=1",
    "website_url": "",
    "rating_text": "5,0",
    "stars": null,
    "number_of_reviews": null,
    "price_level": "",
    "open_hours": "",
    "extraction_timestamp": "2025-06-07T17:45:14.335Z",
    "source_name": "google",
    "source_query": "Irrigation Equipment",
    "source_country": "PL",
    "country": "Poland",
    "state": "Greater Poland Voivodeship",
    "city": "Rydzyna"
  },
  {
    "source_id": "ChIJyUvLztWXBUcRsLslPcmitPE",
    "name": "HYDRO KAN INSTAL J. SZCZERBAL, P. SIADEK - SPÓŁKA JAWNA",
    "category": "HYDRO KAN INSTAL J. SZCZERBAL, P. SIADEK - SPÓŁKA JAWNA",
    "formatted_address": "HYDRO KAN INSTAL J. SZCZERBAL, P. SIADEK - SPÓŁKA JAWNA",
    "phone_number": "+48500125737",
    "source_url": "https://www.google.com/maps/place/HYDRO+KAN+INSTAL+J.+SZCZERBAL,+P.+SIADEK+-+SP%C3%93%C5%81KA+JAWNA/data=!4m7!3m6!1s0x470597d5cecb4bc9:0xf1b4a2c93d25bbb0!8m2!3d51.847698!4d16.5429689!16s%2Fg%2F11lcmw3rwr!19sChIJyUvLztWXBUcRsLslPcmitPE?authuser=0&hl=tr&rclk=1",
    "website_url": "",
    "rating_text": "5,0",
    "stars": null,
    "number_of_reviews": null,
    "price_level": "",
    "open_hours": "",
    "extraction_timestamp": "2025-06-07T17:45:14.336Z",
    "source_name": "google",
    "source_query": "Irrigation Equipment",
    "source_country": "PL",
    "country": "Poland",
    "state": "Greater Poland Voivodeship",
    "city": "Rydzyna"
  },
  {
    "source_id": "ChIJbzEKpbCeBUcR6puYu5io9Zg",
    "name": "Sklep spożywczo - monopolowy Rydzyńskiej Spółki Handlowej",
    "category": "Sklep spożywczo - monopolowy Rydzyńskiej Spółki Handlowej",
    "formatted_address": "4,4(14)",
    "phone_number": "+48655380585",
    "source_url": "https://www.google.com/maps/place/Sklep+spo%C5%BCywczo+-+monopolowy+Rydzy%C5%84skiej+Sp%C3%B3%C5%82ki+Handlowej/data=!4m7!3m6!1s0x47059eb0a50a316f:0x98f5a898bb989bea!8m2!3d51.7866578!4d16.6676598!16s%2Fg%2F1tjymf03!19sChIJbzEKpbCeBUcR6puYu5io9Zg?authuser=0&hl=tr&rclk=1",
    "website_url": "",
    "rating_text": "4,4",
    "stars": null,
    "number_of_reviews": null,
    "price_level": "",
    "open_hours": "",
    "extraction_timestamp": "2025-06-07T17:45:14.338Z",
    "source_name": "google",
    "source_query": "Irrigation Equipment",
    "source_country": "PL",
    "country": "Poland",
    "state": "Greater Poland Voivodeship",
    "city": "Rydzyna"
  },
  {
    "source_id": "ChIJB60QpdmXBUcRCjWJPOr46YQ",
    "name": "Hydro - Partner",
    "category": "Hydro - Partner",
    "formatted_address": "5,0(1)",
    "phone_number": "+48661962067",
    "source_url": "https://www.google.com/maps/place/Hydro+-+Partner/data=!4m7!3m6!1s0x470597d9a510ad07:0x84e9f8ea3c89350a!8m2!3d51.8580745!4d16.5588146!16s%2Fg%2F11v0gy8z3w!19sChIJB60QpdmXBUcRCjWJPOr46YQ?authuser=0&hl=tr&rclk=1",
    "website_url": "",
    "rating_text": "5,0",
    "stars": null,
    "number_of_reviews": null,
    "price_level": "",
    "open_hours": "",
    "extraction_timestamp": "2025-06-07T17:45:14.339Z",
    "source_name": "google",
    "source_query": "Irrigation Equipment",
    "source_country": "PL",
    "country": "Poland",
    "state": "Greater Poland Voivodeship",
    "city": "Rydzyna"
  },
  {
    "source_id": "ChIJ1V719G-fBUcR04Cavw8QHYQ",
    "name": "Hydraulik Dziubek",
    "category": "Hydraulik Dziubek",
    "formatted_address": "",
    "phone_number": "+48792878976",
    "source_url": "https://www.google.com/maps/place/Hydraulik+Dziubek/data=!4m7!3m6!1s0x47059f6ff4f55ed5:0x841d100fbf9a80d3!8m2!3d51.7939947!4d16.6625496!16s%2Fg%2F11w__vg43p!19sChIJ1V719G-fBUcR04Cavw8QHYQ?authuser=0&hl=tr&rclk=1",
    "website_url": "",
    "rating_text": "",
    "stars": null,
    "number_of_reviews": null,
    "price_level": "",
    "open_hours": "",
    "extraction_timestamp": "2025-06-07T17:45:14.341Z",
    "source_name": "google",
    "source_query": "Irrigation Equipment",
    "source_country": "PL",
    "country": "Poland",
    "state": "Greater Poland Voivodeship",
    "city": "Rydzyna"
  },
  {
    "source_id": "ChIJJRc8YbqeBUcRToVlZfmxMD8",
    "name": "Dino",
    "category": "Dino",
    "formatted_address": "4,2(281)",
    "phone_number": "",
    "source_url": "https://www.google.com/maps/place/Dino/data=!4m7!3m6!1s0x47059eba613c1725:0x3f30b1f96565854e!8m2!3d51.783805!4d16.6696115!16s%2Fg%2F1tff1r2p!19sChIJJRc8YbqeBUcRToVlZfmxMD8?authuser=0&hl=tr&rclk=1",
    "website_url": "",
    "rating_text": "4,2",
    "stars": null,
    "number_of_reviews": null,
    "price_level": "",
    "open_hours": "",
    "extraction_timestamp": "2025-06-07T17:45:14.342Z",
    "source_name": "google",
    "source_query": "Irrigation Equipment",
    "source_country": "PL",
    "country": "Poland",
    "state": "Greater Poland Voivodeship",
    "city": "Rydzyna"
  },
  {
    "source_id": "ChIJReBiftqfBUcRm-yB-SZn5bs",
    "name": "Sklep internetowy www.sianko.eu",
    "category": "Sklep internetowy www.sianko.eu",
    "formatted_address": "5,0(7)",
    "phone_number": "+48609793777",
    "source_url": "https://www.google.com/maps/place/Sklep+internetowy+www.sianko.eu/data=!4m7!3m6!1s0x47059fda7e62e045:0xbbe56726f981ec9b!8m2!3d51.7770014!4d16.6505622!16s%2Fg%2F11w37j2xd9!19sChIJReBiftqfBUcRm-yB-SZn5bs?authuser=0&hl=tr&rclk=1",
    "website_url": "",
    "rating_text": "5,0",
    "stars": null,
    "number_of_reviews": null,
    "price_level": "",
    "open_hours": "",
    "extraction_timestamp": "2025-06-07T17:45:14.344Z",
    "source_name": "google",
    "source_query": "Irrigation Equipment",
    "source_country": "PL",
    "country": "Poland",
    "state": "Greater Poland Voivodeship",
    "city": "Rydzyna"
  },
  {
    "source_id": "ChIJ9xXf0v-fBUcRQxauTzD7wQ8",
    "name": "Fabryczka Lodów",
    "category": "Fabryczka Lodów",
    "formatted_address": "4,5(72)",
    "phone_number": "",
    "source_url": "https://www.google.com/maps/place/Fabryczka+Lod%C3%B3w/data=!4m7!3m6!1s0x47059fffd2df15f7:0xfc1fb304fae1643!8m2!3d51.786651!4d16.6673176!16s%2Fg%2F11h4km7vx4!19sChIJ9xXf0v-fBUcRQxauTzD7wQ8?authuser=0&hl=tr&rclk=1",
    "website_url": "",
    "rating_text": "4,5",
    "stars": null,
    "number_of_reviews": null,
    "price_level": "",
    "open_hours": "",
    "extraction_timestamp": "2025-06-07T17:45:14.346Z",
    "source_name": "google",
    "source_query": "Irrigation Equipment",
    "source_country": "PL",
    "country": "Poland",
    "state": "Greater Poland Voivodeship",
    "city": "Rydzyna"
  },
  {
    "source_id": "ChIJ3-TBFTGZBUcRtN8c8DJYhRQ",
    "name": "Biedronka",
    "category": "Biedronka",
    "formatted_address": "4,2(374)",
    "phone_number": "+48800080010",
    "source_url": "https://www.google.com/maps/place/Biedronka/data=!4m7!3m6!1s0x4705993115c1e4df:0x14855832f01cdfb4!8m2!3d51.7961025!4d16.6573914!16s%2Fg%2F11fqsbtvqc!19sChIJ3-TBFTGZBUcRtN8c8DJYhRQ?authuser=0&hl=tr&rclk=1",
    "website_url": "",
    "rating_text": "4,2",
    "stars": null,
    "number_of_reviews": null,
    "price_level": "",
    "open_hours": "",
    "extraction_timestamp": "2025-06-07T17:45:14.347Z",
    "source_name": "google",
    "source_query": "Irrigation Equipment",
    "source_country": "PL",
    "country": "Poland",
    "state": "Greater Poland Voivodeship",
    "city": "Rydzyna"
  },
  {
    "source_id": "ChIJB6y_v5J2HEcRlDfYx3xmc9M",
    "name": "Milex irrigation systems",
    "category": "Milex irrigation systems",
    "formatted_address": "4,6(37)",
    "phone_number": "+48242775222",
    "source_url": "https://www.google.com/maps/place/Milex+irrigation+systems/data=!4m7!3m6!1s0x471c7692bfbfac07:0xd373667cc7d83794!8m2!3d52.4690634!4d19.7520904!16s%2Fg%2F1w2yy67r!19sChIJB6y_v5J2HEcRlDfYx3xmc9M?authuser=0&hl=tr&rclk=1",
    "website_url": "",
    "rating_text": "4,6",
    "stars": null,
    "number_of_reviews": null,
    "price_level": "",
    "open_hours": "",
    "extraction_timestamp": "2025-06-07T17:45:14.348Z",
    "source_name": "google",
    "source_query": "Irrigation Equipment",
    "source_country": "PL",
    "country": "Poland",
    "state": "Greater Poland Voivodeship",
    "city": "Rydzyna"
  },
  {
    "source_id": "ChIJj9CfM7eeBUcRo-PISoZpSH4",
    "name": "Sklep Spożywczy ABC",
    "category": "Sklep Spożywczy ABC",
    "formatted_address": "4,1(25)",
    "phone_number": "",
    "source_url": "https://www.google.com/maps/place/Sklep+Spo%C5%BCywczy+ABC/data=!4m7!3m6!1s0x47059eb7339fd08f:0x7e4869864ac8e3a3!8m2!3d51.7876143!4d16.6658767!16s%2Fg%2F11f4_3qlnq!19sChIJj9CfM7eeBUcRo-PISoZpSH4?authuser=0&hl=tr&rclk=1",
    "website_url": "",
    "rating_text": "4,1",
    "stars": null,
    "number_of_reviews": null,
    "price_level": "",
    "open_hours": "",
    "extraction_timestamp": "2025-06-07T17:45:14.349Z",
    "source_name": "google",
    "source_query": "Irrigation Equipment",
    "source_country": "PL",
    "country": "Poland",
    "state": "Greater Poland Voivodeship",
    "city": "Rydzyna"
  },
  {
    "source_id": "ChIJzeWOj7SeBUcRBCyE6-uK32M",
    "name": "Sklep spożywczy",
    "category": "Sklep spożywczy",
    "formatted_address": "3,3(14)",
    "phone_number": "+48655380728",
    "source_url": "https://www.google.com/maps/place/Sklep+spo%C5%BCywczy/data=!4m7!3m6!1s0x47059eb48f8ee5cd:0x63df8aebeb842c04!8m2!3d51.7893643!4d16.6568807!16s%2Fg%2F1tdb2zsk!19sChIJzeWOj7SeBUcRBCyE6-uK32M?authuser=0&hl=tr&rclk=1",
    "website_url": "",
    "rating_text": "3,3",
    "stars": null,
    "number_of_reviews": null,
    "price_level": "",
    "open_hours": "",
    "extraction_timestamp": "2025-06-07T17:45:14.350Z",
    "source_name": "google",
    "source_query": "Irrigation Equipment",
    "source_country": "PL",
    "country": "Poland",
    "state": "Greater Poland Voivodeship",
    "city": "Rydzyna"
  },
  {
    "source_id": "ChIJhZDBax-fBUcRbC5DMsx9Iss",
    "name": "Cukiernia Hoffmann - Rydzyna - Rynek",
    "category": "Cukiernia Hoffmann - Rydzyna - Rynek",
    "formatted_address": "5,0(3)",
    "phone_number": "+48691884390",
    "source_url": "https://www.google.com/maps/place/Cukiernia+Hoffmann+-+Rydzyna+-+Rynek/data=!4m7!3m6!1s0x47059f1f6bc19085:0xcb227dcc32432e6c!8m2!3d51.786598!4d16.666836!16s%2Fg%2F11qycq1nm3!19sChIJhZDBax-fBUcRbC5DMsx9Iss?authuser=0&hl=tr&rclk=1",
    "website_url": "",
    "rating_text": "5,0",
    "stars": null,
    "number_of_reviews": null,
    "price_level": "",
    "open_hours": "",
    "extraction_timestamp": "2025-06-07T17:45:14.351Z",
    "source_name": "google",
    "source_query": "Irrigation Equipment",
    "source_country": "PL",
    "country": "Poland",
    "state": "Greater Poland Voivodeship",
    "city": "Rydzyna"
  },
  {
    "source_id": "ChIJX0ZHorCeBUcRK83Z_gZFLlA",
    "name": "Apteka \"Nova\" S.C.",
    "category": "Apteka \"Nova\" S.C.",
    "formatted_address": "4,0(2)",
    "phone_number": "",
    "source_url": "https://www.google.com/maps/place/Apteka+%22Nova%22+S.C./data=!4m7!3m6!1s0x47059eb0a247465f:0x502e4506fed9cd2b!8m2!3d51.7859914!4d16.6670668!16s%2Fg%2F11fkmzlzk4!19sChIJX0ZHorCeBUcRK83Z_gZFLlA?authuser=0&hl=tr&rclk=1",
    "website_url": "",
    "rating_text": "4,0",
    "stars": null,
    "number_of_reviews": null,
    "price_level": "",
    "open_hours": "",
    "extraction_timestamp": "2025-06-07T17:45:14.352Z",
    "source_name": "google",
    "source_query": "Irrigation Equipment",
    "source_country": "PL",
    "country": "Poland",
    "state": "Greater Poland Voivodeship",
    "city": "Rydzyna"
  },
  {
    "source_id": "ChIJFwn2vaWeBUcRPkq8UU1YHV8",
    "name": "Krasicka Renata. Sklep spożywczo - przemysłowy",
    "category": "Krasicka Renata. Sklep spożywczo - przemysłowy",
    "formatted_address": "4,8(8)",
    "phone_number": "+48655380097",
    "source_url": "https://www.google.com/maps/place/Krasicka+Renata.+Sklep+spo%C5%BCywczo+-+przemys%C5%82owy/data=!4m7!3m6!1s0x47059ea5bdf60917:0x5f1d584d51bc4a3e!8m2!3d51.7767136!4d16.6545206!16s%2Fg%2F1hc8gfk2h!19sChIJFwn2vaWeBUcRPkq8UU1YHV8?authuser=0&hl=tr&rclk=1",
    "website_url": "",
    "rating_text": "4,8",
    "stars": null,
    "number_of_reviews": null,
    "price_level": "",
    "open_hours": "",
    "extraction_timestamp": "2025-06-07T17:45:14.353Z",
    "source_name": "google",
    "source_query": "Irrigation Equipment",
    "source_country": "PL",
    "country": "Poland",
    "state": "Greater Poland Voivodeship",
    "city": "Rydzyna"
  },
  {
    "source_id": "ChIJr592nrCeBUcR_IUEdGaw4Ws",
    "name": "Apteka św. Anny Maciej Cegielski",
    "category": "Apteka św. Anny Maciej Cegielski",
    "formatted_address": "4,1(11)",
    "phone_number": "+48655380104",
    "source_url": "https://www.google.com/maps/place/Apteka+%C5%9Bw.+Anny+Maciej+Cegielski/data=!4m7!3m6!1s0x47059eb09e769faf:0x6be1b066740485fc!8m2!3d51.78548!4d16.6671729!16s%2Fg%2F11f4r0yh_w!19sChIJr592nrCeBUcR_IUEdGaw4Ws?authuser=0&hl=tr&rclk=1",
    "website_url": "",
    "rating_text": "4,1",
    "stars": null,
    "number_of_reviews": null,
    "price_level": "",
    "open_hours": "",
    "extraction_timestamp": "2025-06-07T17:45:14.354Z",
    "source_name": "google",
    "source_query": "Irrigation Equipment",
    "source_country": "PL",
    "country": "Poland",
    "state": "Greater Poland Voivodeship",
    "city": "Rydzyna"
  },
  {
    "source_id": "ChIJqQQ5u7CeBUcR2xCPBZC3Gdg",
    "name": "Apteka Rydzyna",
    "category": "Apteka Rydzyna",
    "formatted_address": "4,0(4)",
    "phone_number": "",
    "source_url": "https://www.google.com/maps/place/Apteka+Rydzyna/data=!4m7!3m6!1s0x47059eb0bb3904a9:0xd819b790058f10db!8m2!3d51.7863009!4d16.666753!16s%2Fg%2F11h6g174bp!19sChIJqQQ5u7CeBUcR2xCPBZC3Gdg?authuser=0&hl=tr&rclk=1",
    "website_url": "",
    "rating_text": "4,0",
    "stars": null,
    "number_of_reviews": null,
    "price_level": "",
    "open_hours": "",
    "extraction_timestamp": "2025-06-07T17:45:14.354Z",
    "source_name": "google",
    "source_query": "Irrigation Equipment",
    "source_country": "PL",
    "country": "Poland",
    "state": "Greater Poland Voivodeship",
    "city": "Rydzyna"
  },
  {
    "source_id": "ChIJG4wt8blcBEcRBwsybo5yrmY",
    "name": "Rais-Tools Sp. o.o.",
    "category": "Rais-Tools Sp. o.o.",
    "formatted_address": "5,0(3)",
    "phone_number": "+48698684212",
    "source_url": "https://www.google.com/maps/place/Rais-Tools+Sp.+o.o./data=!4m7!3m6!1s0x47045cb9f12d8c1b:0x66ae728e6e320b07!8m2!3d52.5463854!4d16.3594181!16s%2Fg%2F1tc_jvfp!19sChIJG4wt8blcBEcRBwsybo5yrmY?authuser=0&hl=tr&rclk=1",
    "website_url": "",
    "rating_text": "5,0",
    "stars": null,
    "number_of_reviews": null,
    "price_level": "",
    "open_hours": "",
    "extraction_timestamp": "2025-06-07T17:45:14.355Z",
    "source_name": "google",
    "source_query": "Irrigation Equipment",
    "source_country": "PL",
    "country": "Poland",
    "state": "Greater Poland Voivodeship",
    "city": "Rydzyna"
  },
  {
    "source_id": "ChIJH4af03aZBUcR8aQz54hT9Jg",
    "name": "Garden Fantasy Sp. z o.o.",
    "category": "Garden Fantasy Sp. z o.o.",
    "formatted_address": "5,0(1)",
    "phone_number": "+48604353018",
    "source_url": "https://www.google.com/maps/place/Garden+Fantasy+Sp.+z+o.o./data=!4m7!3m6!1s0x47059976d39f861f:0x98f45388e733a4f1!8m2!3d51.8247869!4d16.5804385!16s%2Fg%2F11styk1mw_!19sChIJH4af03aZBUcR8aQz54hT9Jg?authuser=0&hl=tr&rclk=1",
    "website_url": "",
    "rating_text": "5,0",
    "stars": null,
    "number_of_reviews": null,
    "price_level": "",
    "open_hours": "",
    "extraction_timestamp": "2025-06-07T17:45:14.356Z",
    "source_name": "google",
    "source_query": "Irrigation Equipment",
    "source_country": "PL",
    "country": "Poland",
    "state": "Greater Poland Voivodeship",
    "city": "Rydzyna"
  },
  {
    "source_id": "ChIJVVZm00OYBUcRWtZJvL-BzWc",
    "name": "Pełczyk Wojciech. Układy pompowe i automatyka",
    "category": "Pełczyk Wojciech. Układy pompowe i automatyka",
    "formatted_address": "5,0(2)",
    "phone_number": "+48655201580",
    "source_url": "https://www.google.com/maps/place/Pe%C5%82czyk+Wojciech.+Uk%C5%82ady+pompowe+i+automatyka/data=!4m7!3m6!1s0x47059843d3665655:0x67cd81bfbc49d65a!8m2!3d51.8268008!4d16.5950931!16s%2Fg%2F1tf3mmj7!19sChIJVVZm00OYBUcRWtZJvL-BzWc?authuser=0&hl=tr&rclk=1",
    "website_url": "",
    "rating_text": "5,0",
    "stars": null,
    "number_of_reviews": null,
    "price_level": "",
    "open_hours": "",
    "extraction_timestamp": "2025-06-07T17:45:14.357Z",
    "source_name": "google",
    "source_query": "Irrigation Equipment",
    "source_country": "PL",
    "country": "Poland",
    "state": "Greater Poland Voivodeship",
    "city": "Rydzyna"
  },
  {
    "source_id": "ChIJh4YwPmiTBUcR0LUx4UQ1iNE",
    "name": "GRENE",
    "category": "GRENE",
    "formatted_address": "3,9(18)",
    "phone_number": "+48655403508",
    "source_url": "https://www.google.com/maps/place/GRENE/data=!4m7!3m6!1s0x470593683e308687:0xd1883544e131b5d0!8m2!3d51.8093756!4d16.3191605!16s%2Fg%2F11bvvxcdkq!19sChIJh4YwPmiTBUcR0LUx4UQ1iNE?authuser=0&hl=tr&rclk=1",
    "website_url": "",
    "rating_text": "3,9",
    "stars": null,
    "number_of_reviews": null,
    "price_level": "",
    "open_hours": "",
    "extraction_timestamp": "2025-06-07T17:45:14.358Z",
    "source_name": "google",
    "source_query": "Irrigation Equipment",
    "source_country": "PL",
    "country": "Poland",
    "state": "Greater Poland Voivodeship",
    "city": "Rydzyna"
  },
  {
    "source_id": "ChIJKbbNUZPUBUcRZzH5Q_PEZ7Y",
    "name": "Z.U.H. Wojciech Rajewski",
    "category": "Z.U.H. Wojciech Rajewski",
    "formatted_address": "4,8(13)",
    "phone_number": "+48601643831",
    "source_url": "https://www.google.com/maps/place/Z.U.H.+Wojciech+Rajewski/data=!4m7!3m6!1s0x4705d49351cdb629:0xb667c4f343f93167!8m2!3d52.2544057!4d16.1341154!16s%2Fg%2F11ddx40f1p!19sChIJKbbNUZPUBUcRZzH5Q_PEZ7Y?authuser=0&hl=tr&rclk=1",
    "website_url": "",
    "rating_text": "4,8",
    "stars": null,
    "number_of_reviews": null,
    "price_level": "",
    "open_hours": "",
    "extraction_timestamp": "2025-06-07T17:45:14.359Z",
    "source_name": "google",
    "source_query": "Irrigation Equipment",
    "source_country": "PL",
    "country": "Poland",
    "state": "Greater Poland Voivodeship",
    "city": "Rydzyna"
  },
  {
    "source_id": "ChIJ-6uvQ2-9BUcRS7my4zP54Hw",
    "name": "M&K Gardens Usługi Ogrodnicze",
    "category": "M&K Gardens Usługi Ogrodnicze",
    "formatted_address": "5,0(1)",
    "phone_number": "+48502356099",
    "source_url": "https://www.google.com/maps/place/M%26K+Gardens+Us%C5%82ugi+Ogrodnicze/data=!4m7!3m6!1s0x4705bd6f43afabfb:0x7ce0f933e3b2b94b!8m2!3d51.9059244!4d16.5816602!16s%2Fg%2F11l2mk1bv4!19sChIJ-6uvQ2-9BUcRS7my4zP54Hw?authuser=0&hl=tr&rclk=1",
    "website_url": "",
    "rating_text": "5,0",
    "stars": null,
    "number_of_reviews": null,
    "price_level": "",
    "open_hours": "",
    "extraction_timestamp": "2025-06-07T17:45:14.360Z",
    "source_name": "google",
    "source_query": "Irrigation Equipment",
    "source_country": "PL",
    "country": "Poland",
    "state": "Greater Poland Voivodeship",
    "city": "Rydzyna"
  },
  {
    "source_id": "ChIJCZtI2kqYBUcRZNKDyZAnQsk",
    "name": "Bomis - Ogrzewanie, Łazienka, Klimatyzacja Leszno",
    "category": "Bomis - Ogrzewanie, Łazienka, Klimatyzacja Leszno",
    "formatted_address": "Bomis - Ogrzewanie, Łazienka, Klimatyzacja Leszno",
    "phone_number": "+48697830930",
    "source_url": "https://www.google.com/maps/place/Bomis+-+Ogrzewanie,+%C5%81azienka,+Klimatyzacja+Leszno/data=!4m7!3m6!1s0x4705984ada489b09:0xc9422790c983d264!8m2!3d51.827822!4d16.583249!16s%2Fg%2F1ptw8sfzq!19sChIJCZtI2kqYBUcRZNKDyZAnQsk?authuser=0&hl=tr&rclk=1",
    "website_url": "",
    "rating_text": "3,7",
    "stars": null,
    "number_of_reviews": null,
    "price_level": "",
    "open_hours": "",
    "extraction_timestamp": "2025-06-07T17:45:14.362Z",
    "source_name": "google",
    "source_query": "Irrigation Equipment",
    "source_country": "PL",
    "country": "Poland",
    "state": "Greater Poland Voivodeship",
    "city": "Rydzyna"
  },
  {
    "source_id": "ChIJy-u0iw70BUcRavretSmoPOw",
    "name": "GRENE",
    "category": "GRENE",
    "formatted_address": "4,4(52)",
    "phone_number": "+48768341465",
    "source_url": "https://www.google.com/maps/place/GRENE/data=!4m7!3m6!1s0x4705f40e8bb4ebcb:0xec3ca829b5defa6a!8m2!3d51.6711914!4d16.0962069!16s%2Fg%2F1th6cjy_!19sChIJy-u0iw70BUcRavretSmoPOw?authuser=0&hl=tr&rclk=1",
    "website_url": "",
    "rating_text": "4,4",
    "stars": null,
    "number_of_reviews": null,
    "price_level": "",
    "open_hours": "",
    "extraction_timestamp": "2025-06-07T17:45:14.363Z",
    "source_name": "google",
    "source_query": "Irrigation Equipment",
    "source_country": "PL",
    "country": "Poland",
    "state": "Greater Poland Voivodeship",
    "city": "Rydzyna"
  },
  {
    "source_id": "ChIJNQKIjSOYBUcR7IcYwpkL258",
    "name": "Grupa Mo Sp. z o. o., Sp. k.",
    "category": "Grupa Mo Sp. z o. o., Sp. k.",
    "formatted_address": "Grupa Mo Sp. z o. o., Sp. k.",
    "phone_number": "+48655296363",
    "source_url": "https://www.google.com/maps/place/Grupa+Mo+Sp.+z+o.+o.,+Sp.+k./data=!4m7!3m6!1s0x470598238d880235:0x9fdb0b99c21887ec!8m2!3d51.845893!4d16.5700622!16s%2Fg%2F1tczclsp!19sChIJNQKIjSOYBUcR7IcYwpkL258?authuser=0&hl=tr&rclk=1",
    "website_url": "",
    "rating_text": "4,0",
    "stars": null,
    "number_of_reviews": null,
    "price_level": "",
    "open_hours": "",
    "extraction_timestamp": "2025-06-07T17:45:14.364Z",
    "source_name": "google",
    "source_query": "Irrigation Equipment",
    "source_country": "PL",
    "country": "Poland",
    "state": "Greater Poland Voivodeship",
    "city": "Rydzyna"
  },
  {
    "source_id": "ChIJLwUZFVwUBUcRa7LbIQ6KkgA",
    "name": "Agro Centnas Ryszard Woltmann i Synowie",
    "category": "Agro Centnas Ryszard Woltmann i Synowie",
    "formatted_address": "4,9(14)",
    "phone_number": "+48508223815",
    "source_url": "https://www.google.com/maps/place/Agro+Centnas+Ryszard+Woltmann+i+Synowie/data=!4m7!3m6!1s0x4705145c1519052f:0x928a0e21dbb26b!8m2!3d51.8246266!4d17.2278031!16s%2Fg%2F1tj7zp2j!19sChIJLwUZFVwUBUcRa7LbIQ6KkgA?authuser=0&hl=tr&rclk=1",
    "website_url": "",
    "rating_text": "4,9",
    "stars": null,
    "number_of_reviews": null,
    "price_level": "",
    "open_hours": "",
    "extraction_timestamp": "2025-06-07T17:45:14.365Z",
    "source_name": "google",
    "source_query": "Irrigation Equipment",
    "source_country": "PL",
    "country": "Poland",
    "state": "Greater Poland Voivodeship",
    "city": "Rydzyna"
  }
]
