[
  {
    "source_id": "ChIJPTk2MCbLG0cR1oM5JjupLwY",
    "name": "WJ GROUNDWATER Sp. z o.o.",
    "category": "WJ GROUNDWATER Sp. z o.o.",
    "formatted_address": "5,0(7)",
    "phone_number": "+48573977078",
    "source_url": "https://www.google.com/maps/place/WJ+GROUNDWATER+Sp.+z+o.o./data=!4m7!3m6!1s0x471bcb263036393d:0x62fa93b263983d6!8m2!3d51.7362319!4d19.4324197!16s%2Fg%2F11cls8x39w!19sChIJPTk2MCbLG0cR1oM5JjupLwY?authuser=0&hl=tr&rclk=1",
    "website_url": "http://www.wjgl.pl/",
    "rating_text": "5,0",
    "stars": null,
    "number_of_reviews": null,
    "price_level": "",
    "open_hours": "",
    "extraction_timestamp": "2025-06-07T17:39:38.733Z",
    "source_name": "google",
    "source_query": "Irrigation Equipment",
    "source_country": "PL",
    "country": "Poland",
    "state": "Greater Poland Voivodeship",
    "city": "Rzgów Pierwszy"
  },
  {
    "source_id": "ChIJl58TqXU0GkcR4O8r1nHeisw",
    "name": "Hydro Extrusion Poland",
    "category": "Hydro Extrusion Poland",
    "formatted_address": "2,1(189)",
    "phone_number": "+48426836300",
    "source_url": "https://www.google.com/maps/place/Hydro+Extrusion+Poland/data=!4m7!3m6!1s0x471a3475a9139f97:0xcc8ade71d62befe0!8m2!3d51.6992773!4d19.4714066!16s%2Fg%2F1hm4xrb30!19sChIJl58TqXU0GkcR4O8r1nHeisw?authuser=0&hl=tr&rclk=1",
    "website_url": "http://www.hydro.com/",
    "rating_text": "2,1",
    "stars": null,
    "number_of_reviews": null,
    "price_level": "",
    "open_hours": "",
    "extraction_timestamp": "2025-06-07T17:39:38.734Z",
    "source_name": "google",
    "source_query": "Irrigation Equipment",
    "source_country": "PL",
    "country": "Poland",
    "state": "Greater Poland Voivodeship",
    "city": "Rzgów Pierwszy"
  },
  {
    "source_id": "ChIJB6y_v5J2HEcRlDfYx3xmc9M",
    "name": "Milex irrigation systems",
    "category": "Milex irrigation systems",
    "formatted_address": "4,6(37)",
    "phone_number": "+48242775222",
    "source_url": "https://www.google.com/maps/place/Milex+irrigation+systems/data=!4m7!3m6!1s0x471c7692bfbfac07:0xd373667cc7d83794!8m2!3d52.4690634!4d19.7520904!16s%2Fg%2F1w2yy67r!19sChIJB6y_v5J2HEcRlDfYx3xmc9M?authuser=0&hl=tr&rclk=1",
    "website_url": "https://www.milex.pl/",
    "rating_text": "4,6",
    "stars": null,
    "number_of_reviews": null,
    "price_level": "",
    "open_hours": "",
    "extraction_timestamp": "2025-06-07T17:39:38.736Z",
    "source_name": "google",
    "source_query": "Irrigation Equipment",
    "source_country": "PL",
    "country": "Poland",
    "state": "Greater Poland Voivodeship",
    "city": "Rzgów Pierwszy"
  },
  {
    "source_id": "ChIJS8Zh7bbSBEcRAWchlbt2vyI",
    "name": "Delikatesy Centrum",
    "category": "Delikatesy Centrum",
    "formatted_address": "4,0(198) · ₺₺",
    "phone_number": "+48571404198",
    "source_url": "https://www.google.com/maps/place/Delikatesy+Centrum/data=!4m7!3m6!1s0x4704d2b6ed61c64b:0x22bf76bb95216701!8m2!3d52.1540084!4d18.0503899!16s%2Fg%2F11g6rkgkx3!19sChIJS8Zh7bbSBEcRAWchlbt2vyI?authuser=0&hl=tr&rclk=1",
    "website_url": "https://www.delikatesy.pl/",
    "rating_text": "4,0",
    "stars": null,
    "number_of_reviews": null,
    "price_level": "",
    "open_hours": "",
    "extraction_timestamp": "2025-06-07T17:39:38.738Z",
    "source_name": "google",
    "source_query": "Irrigation Equipment",
    "source_country": "PL",
    "country": "Poland",
    "state": "Greater Poland Voivodeship",
    "city": "Rzgów Pierwszy"
  }
]
