[
  {
    "source_id": "ChIJw9GBV4zXBUcRpSVncnXjjyU",
    "name": "roltechnika",
    "category": "roltechnika",
    "formatted_address": "4,5(6)",
    "phone_number": "+48508133618",
    "source_url": "https://www.google.com/maps/place/roltechnika/data=!4m7!3m6!1s0x4705d78c5781d1c3:0x258fe375726725a5!8m2!3d52.1277867!4d15.9985933!16s%2Fg%2F11h35pcslr!19sChIJw9GBV4zXBUcRpSVncnXjjyU?authuser=0&hl=tr&rclk=1",
    "website_url": "",
    "rating_text": "4,5",
    "stars": null,
    "number_of_reviews": null,
    "price_level": "",
    "open_hours": "",
    "extraction_timestamp": "2025-06-07T18:02:23.048Z",
    "source_name": "google",
    "source_query": "Irrigation Equipment",
    "source_country": "PL",
    "country": "Poland",
    "state": "Greater Poland Voivodeship",
    "city": "Siedlec"
  },
  {
    "source_id": "ChIJI9YXe5LXBUcRMxDLWUurutM",
    "name": "Del-Bud. Sprzedaż materiałów budowlanych",
    "category": "Del-Bud. Sprzedaż materiałów budowlanych",
    "formatted_address": "4,7(44)",
    "phone_number": "+48721385454",
    "source_url": "https://www.google.com/maps/place/Del-Bud.+Sprzeda%C5%BC+materia%C5%82%C3%B3w+budowlanych/data=!4m7!3m6!1s0x4705d7927b17d623:0xd3baab4b59cb1033!8m2!3d52.1416063!4d15.9882355!16s%2Fg%2F1td11zh1!19sChIJI9YXe5LXBUcRMxDLWUurutM?authuser=0&hl=tr&rclk=1",
    "website_url": "",
    "rating_text": "4,7",
    "stars": null,
    "number_of_reviews": null,
    "price_level": "",
    "open_hours": "",
    "extraction_timestamp": "2025-06-07T18:02:23.050Z",
    "source_name": "google",
    "source_query": "Irrigation Equipment",
    "source_country": "PL",
    "country": "Poland",
    "state": "Greater Poland Voivodeship",
    "city": "Siedlec"
  },
  {
    "source_id": "ChIJwcZAc-3XBUcR_fvDFEqvQqs",
    "name": "Firma Handlowa \"DEL-BUD\" Leszek Drzewiecki",
    "category": "Firma Handlowa \"DEL-BUD\" Leszek Drzewiecki",
    "formatted_address": "5,0(1)",
    "phone_number": "+48721385454",
    "source_url": "https://www.google.com/maps/place/Firma+Handlowa+%22DEL-BUD%22+Leszek+Drzewiecki/data=!4m7!3m6!1s0x4705d7ed7340c6c1:0xab42af4a14c3fbfd!8m2!3d52.1412117!4d15.9896058!16s%2Fg%2F11hyxnlqn8!19sChIJwcZAc-3XBUcR_fvDFEqvQqs?authuser=0&hl=tr&rclk=1",
    "website_url": "",
    "rating_text": "5,0",
    "stars": null,
    "number_of_reviews": null,
    "price_level": "",
    "open_hours": "",
    "extraction_timestamp": "2025-06-07T18:02:23.051Z",
    "source_name": "google",
    "source_query": "Irrigation Equipment",
    "source_country": "PL",
    "country": "Poland",
    "state": "Greater Poland Voivodeship",
    "city": "Siedlec"
  },
  {
    "source_id": "ChIJV_OFEYLXBUcRWuh8ofxmeh4",
    "name": "Sklep Firmowy Dębowa Polska",
    "category": "Sklep Firmowy Dębowa Polska",
    "formatted_address": "5,0(1)",
    "phone_number": "+48782800300",
    "source_url": "https://www.google.com/maps/place/Sklep+Firmowy+D%C4%99bowa+Polska/data=!4m7!3m6!1s0x4705d7821185f357:0x1e7a66fca17ce85a!8m2!3d52.1341948!4d16.0097921!16s%2Fg%2F11kq7jft6f!19sChIJV_OFEYLXBUcRWuh8ofxmeh4?authuser=0&hl=tr&rclk=1",
    "website_url": "",
    "rating_text": "5,0",
    "stars": null,
    "number_of_reviews": null,
    "price_level": "",
    "open_hours": "",
    "extraction_timestamp": "2025-06-07T18:02:23.052Z",
    "source_name": "google",
    "source_query": "Irrigation Equipment",
    "source_country": "PL",
    "country": "Poland",
    "state": "Greater Poland Voivodeship",
    "city": "Siedlec"
  },
  {
    "source_id": "ChIJ237Vh5LXBUcRVHMNECVhPAc",
    "name": "Dino",
    "category": "Dino",
    "formatted_address": "4,3(193)",
    "phone_number": "",
    "source_url": "https://www.google.com/maps/place/Dino/data=!4m7!3m6!1s0x4705d79287d57edb:0x73c6125100d7354!8m2!3d52.1333099!4d16.0127855!16s%2Fg%2F11fxzw6th4!19sChIJ237Vh5LXBUcRVHMNECVhPAc?authuser=0&hl=tr&rclk=1",
    "website_url": "",
    "rating_text": "4,3",
    "stars": null,
    "number_of_reviews": null,
    "price_level": "",
    "open_hours": "",
    "extraction_timestamp": "2025-06-07T18:02:23.054Z",
    "source_name": "google",
    "source_query": "Irrigation Equipment",
    "source_country": "PL",
    "country": "Poland",
    "state": "Greater Poland Voivodeship",
    "city": "Siedlec"
  },
  {
    "source_id": "ChIJ2yz9RPHXBUcRHVfqGmJSlRE",
    "name": "Biedronka",
    "category": "Biedronka",
    "formatted_address": "4,2(250)",
    "phone_number": "+48800080010",
    "source_url": "https://www.google.com/maps/place/Biedronka/data=!4m7!3m6!1s0x4705d7f144fd2cdb:0x119552621aea571d!8m2!3d52.1338781!4d16.0116281!16s%2Fg%2F11n0b06zkb!19sChIJ2yz9RPHXBUcRHVfqGmJSlRE?authuser=0&hl=tr&rclk=1",
    "website_url": "",
    "rating_text": "4,2",
    "stars": null,
    "number_of_reviews": null,
    "price_level": "",
    "open_hours": "",
    "extraction_timestamp": "2025-06-07T18:02:23.055Z",
    "source_name": "google",
    "source_query": "Irrigation Equipment",
    "source_country": "PL",
    "country": "Poland",
    "state": "Greater Poland Voivodeship",
    "city": "Siedlec"
  },
  {
    "source_id": "ChIJ92ZGde3XBUcRXstb_7VZDcU",
    "name": "Delikatesy Centrum",
    "category": "Delikatesy Centrum",
    "formatted_address": "4,1(142)",
    "phone_number": "+48683848524",
    "source_url": "https://www.google.com/maps/place/Delikatesy+Centrum/data=!4m7!3m6!1s0x4705d7ed754666f7:0xc50d59b5ff5bcb5e!8m2!3d52.1382009!4d15.9997601!16s%2Fg%2F1hc1c_41c!19sChIJ92ZGde3XBUcRXstb_7VZDcU?authuser=0&hl=tr&rclk=1",
    "website_url": "",
    "rating_text": "4,1",
    "stars": null,
    "number_of_reviews": null,
    "price_level": "",
    "open_hours": "",
    "extraction_timestamp": "2025-06-07T18:02:23.056Z",
    "source_name": "google",
    "source_query": "Irrigation Equipment",
    "source_country": "PL",
    "country": "Poland",
    "state": "Greater Poland Voivodeship",
    "city": "Siedlec"
  }
]
