[
  {
    "source_id": "ChIJK2GjZAe3GkcRtYCUwk9ASmE",
    "name": "Grofi - Systemy nawadniania do domu i ogrodu",
    "category": "Grofi - Systemy nawadniania do domu i ogrodu",
    "formatted_address": "4,8(16)",
    "phone_number": "+48575716244",
    "source_url": "https://www.google.com/maps/place/Grofi+-+Systemy+nawadniania+do+domu+i+ogrodu/data=!4m7!3m6!1s0x471ab70764a3612b:0x614a404fc29480b5!8m2!3d51.612066!4d17.8638006!16s%2Fg%2F11y5_4bbdm!19sChIJK2GjZAe3GkcRtYCUwk9ASmE?authuser=0&hl=tr&rclk=1",
    "website_url": "",
    "rating_text": "4,8",
    "stars": null,
    "number_of_reviews": null,
    "price_level": "",
    "open_hours": "",
    "extraction_timestamp": "2025-06-07T17:31:18.331Z",
    "source_name": "google",
    "source_query": "Irrigation Equipment",
    "source_country": "PL",
    "country": "Poland",
    "state": "Greater Poland Voivodeship",
    "city": "Sieroszewice"
  },
  {
    "source_id": "ChIJE1LyQXC5GkcReaYk7xtVbBU",
    "name": "JM ENERGY - Agregaty prądotwórcze / kompresory / Maszyny Budowlane",
    "category": "JM ENERGY - Agregaty prądotwórcze / kompresory / Maszyny Budowlane",
    "formatted_address": "5,0(5)",
    "phone_number": "+48669432664",
    "source_url": "https://www.google.com/maps/place/JM+ENERGY+-+Agregaty+pr%C4%85dotw%C3%B3rcze+%2F+kompresory+%2F+Maszyny+Budowlane/data=!4m7!3m6!1s0x471ab97041f25213:0x156c551bef24a679!8m2!3d51.6354221!4d18.0032579!16s%2Fg%2F11lh3t9ph4!19sChIJE1LyQXC5GkcReaYk7xtVbBU?authuser=0&hl=tr&rclk=1",
    "website_url": "",
    "rating_text": "5,0",
    "stars": null,
    "number_of_reviews": null,
    "price_level": "",
    "open_hours": "",
    "extraction_timestamp": "2025-06-07T17:31:18.332Z",
    "source_name": "google",
    "source_query": "Irrigation Equipment",
    "source_country": "PL",
    "country": "Poland",
    "state": "Greater Poland Voivodeship",
    "city": "Sieroszewice"
  },
  {
    "source_id": "ChIJWbdArnq3GkcRovo4kJHYgY8",
    "name": "Majster budowlane ABC/Sklep Firmowy ŚNIEŻKA",
    "category": "Majster budowlane ABC/Sklep Firmowy ŚNIEŻKA",
    "formatted_address": "4,8(93)",
    "phone_number": "+48627396571",
    "source_url": "https://www.google.com/maps/place/Majster+budowlane+ABC%2FSklep+Firmowy+%C5%9ANIE%C5%BBKA/data=!4m7!3m6!1s0x471ab77aae40b759:0x8f81d8919038faa2!8m2!3d51.6354313!4d17.9543876!16s%2Fg%2F11h717zvl3!19sChIJWbdArnq3GkcRovo4kJHYgY8?authuser=0&hl=tr&rclk=1",
    "website_url": "",
    "rating_text": "4,8",
    "stars": null,
    "number_of_reviews": null,
    "price_level": "",
    "open_hours": "",
    "extraction_timestamp": "2025-06-07T17:31:18.333Z",
    "source_name": "google",
    "source_query": "Irrigation Equipment",
    "source_country": "PL",
    "country": "Poland",
    "state": "Greater Poland Voivodeship",
    "city": "Sieroszewice"
  },
  {
    "source_id": "ChIJ05WlWUy3GkcRwaANs77VM3Q",
    "name": "JK Jacek Kowański Pogotowie Techniczne",
    "category": "JK Jacek Kowański Pogotowie Techniczne",
    "formatted_address": "",
    "phone_number": "+48603321469",
    "source_url": "https://www.google.com/maps/place/JK+Jacek+Kowa%C5%84ski+Pogotowie+Techniczne/data=!4m7!3m6!1s0x471ab74c59a595d3:0x7433d5beb30da0c1!8m2!3d51.6352263!4d17.9653521!16s%2Fg%2F11gk1s9dqq!19sChIJ05WlWUy3GkcRwaANs77VM3Q?authuser=0&hl=tr&rclk=1",
    "website_url": "",
    "rating_text": "",
    "stars": null,
    "number_of_reviews": null,
    "price_level": "",
    "open_hours": "",
    "extraction_timestamp": "2025-06-07T17:31:18.334Z",
    "source_name": "google",
    "source_query": "Irrigation Equipment",
    "source_country": "PL",
    "country": "Poland",
    "state": "Greater Poland Voivodeship",
    "city": "Sieroszewice"
  },
  {
    "source_id": "ChIJFSa94LzDGkcRSvlX4lGwdhI",
    "name": "Agro-System Piotr Jaskuła",
    "category": "Agro-System Piotr Jaskuła",
    "formatted_address": "4,9(11)",
    "phone_number": "+48531310340",
    "source_url": "https://www.google.com/maps/place/Agro-System+Piotr+Jasku%C5%82a/data=!4m7!3m6!1s0x471ac3bce0bd2615:0x1276b051e257f94a!8m2!3d51.7396478!4d18.2136949!16s%2Fg%2F1pty_th98!19sChIJFSa94LzDGkcRSvlX4lGwdhI?authuser=0&hl=tr&rclk=1",
    "website_url": "",
    "rating_text": "4,9",
    "stars": null,
    "number_of_reviews": null,
    "price_level": "",
    "open_hours": "",
    "extraction_timestamp": "2025-06-07T17:31:18.335Z",
    "source_name": "google",
    "source_query": "Irrigation Equipment",
    "source_country": "PL",
    "country": "Poland",
    "state": "Greater Poland Voivodeship",
    "city": "Sieroszewice"
  },
  {
    "source_id": "ChIJv13aMo20GkcRuIJwITpZIug",
    "name": "ASHYDRO",
    "category": "ASHYDRO",
    "formatted_address": "5,0(5)",
    "phone_number": "+48508377657",
    "source_url": "https://www.google.com/maps/place/ASHYDRO/data=!4m7!3m6!1s0x471ab48d32da5dbf:0xe822593a217082b8!8m2!3d51.627431!4d17.762832!16s%2Fg%2F11b6_cnlmt!19sChIJv13aMo20GkcRuIJwITpZIug?authuser=0&hl=tr&rclk=1",
    "website_url": "",
    "rating_text": "5,0",
    "stars": null,
    "number_of_reviews": null,
    "price_level": "",
    "open_hours": "",
    "extraction_timestamp": "2025-06-07T17:31:18.336Z",
    "source_name": "google",
    "source_query": "Irrigation Equipment",
    "source_country": "PL",
    "country": "Poland",
    "state": "Greater Poland Voivodeship",
    "city": "Sieroszewice"
  },
  {
    "source_id": "ChIJJaUKWNl7G0cR7ntWKxioINo",
    "name": "Agricola Hydraulika Siłowa",
    "category": "Agricola Hydraulika Siłowa",
    "formatted_address": "4,6(239)",
    "phone_number": "+48542844000",
    "source_url": "https://www.google.com/maps/place/Agricola+Hydraulika+Si%C5%82owa/data=!4m7!3m6!1s0x471b7bd9580aa525:0xda20a8182b567bee!8m2!3d52.4025839!4d19.1676066!16s%2Fg%2F1tk8mbkz!19sChIJJaUKWNl7G0cR7ntWKxioINo?authuser=0&hl=tr&rclk=1",
    "website_url": "",
    "rating_text": "4,6",
    "stars": null,
    "number_of_reviews": null,
    "price_level": "",
    "open_hours": "",
    "extraction_timestamp": "2025-06-07T17:31:18.337Z",
    "source_name": "google",
    "source_query": "Irrigation Equipment",
    "source_country": "PL",
    "country": "Poland",
    "state": "Greater Poland Voivodeship",
    "city": "Sieroszewice"
  },
  {
    "source_id": "ChIJbYDKLZK3GkcRW7xMdgGW0wM",
    "name": "Dino",
    "category": "Dino",
    "formatted_address": "4,4(235)",
    "phone_number": "",
    "source_url": "https://www.google.com/maps/place/Dino/data=!4m7!3m6!1s0x471ab7922dca806d:0x3d39601764cbc5b!8m2!3d51.6356221!4d17.9566789!16s%2Fg%2F11dxmktpkw!19sChIJbYDKLZK3GkcRW7xMdgGW0wM?authuser=0&hl=tr&rclk=1",
    "website_url": "",
    "rating_text": "4,4",
    "stars": null,
    "number_of_reviews": null,
    "price_level": "",
    "open_hours": "",
    "extraction_timestamp": "2025-06-07T17:31:18.338Z",
    "source_name": "google",
    "source_query": "Irrigation Equipment",
    "source_country": "PL",
    "country": "Poland",
    "state": "Greater Poland Voivodeship",
    "city": "Sieroszewice"
  },
  {
    "source_id": "ChIJf1mQAJK3GkcRcD5ib68_FvU",
    "name": "Lewiatan",
    "category": "Lewiatan",
    "formatted_address": "4,5(36)",
    "phone_number": "+48627396896",
    "source_url": "https://www.google.com/maps/place/Lewiatan/data=!4m7!3m6!1s0x471ab7920090597f:0xf5163faf6f623e70!8m2!3d51.6347519!4d17.9605228!16s%2Fg%2F11h1854lm!19sChIJf1mQAJK3GkcRcD5ib68_FvU?authuser=0&hl=tr&rclk=1",
    "website_url": "",
    "rating_text": "4,5",
    "stars": null,
    "number_of_reviews": null,
    "price_level": "",
    "open_hours": "",
    "extraction_timestamp": "2025-06-07T17:31:18.339Z",
    "source_name": "google",
    "source_query": "Irrigation Equipment",
    "source_country": "PL",
    "country": "Poland",
    "state": "Greater Poland Voivodeship",
    "city": "Sieroszewice"
  },
  {
    "source_id": "ChIJ3Q5jJYy3GkcROQJ70cJyQBw",
    "name": "Sklep Spożywczy - Maćko",
    "category": "Sklep Spożywczy - Maćko",
    "formatted_address": "4,3(79)",
    "phone_number": "+48627204990",
    "source_url": "https://www.google.com/maps/place/Sklep+Spo%C5%BCywczy+-+Ma%C4%87ko/data=!4m7!3m6!1s0x471ab78c25630edd:0x1c4072c2d17b0239!8m2!3d51.6344813!4d17.9651822!16s%2Fg%2F11ghmwpv5s!19sChIJ3Q5jJYy3GkcROQJ70cJyQBw?authuser=0&hl=tr&rclk=1",
    "website_url": "",
    "rating_text": "4,3",
    "stars": null,
    "number_of_reviews": null,
    "price_level": "",
    "open_hours": "",
    "extraction_timestamp": "2025-06-07T17:31:18.340Z",
    "source_name": "google",
    "source_query": "Irrigation Equipment",
    "source_country": "PL",
    "country": "Poland",
    "state": "Greater Poland Voivodeship",
    "city": "Sieroszewice"
  },
  {
    "source_id": "ChIJB6y_v5J2HEcRlDfYx3xmc9M",
    "name": "Milex irrigation systems",
    "category": "Milex irrigation systems",
    "formatted_address": "4,6(37)",
    "phone_number": "+48242775222",
    "source_url": "https://www.google.com/maps/place/Milex+irrigation+systems/data=!4m7!3m6!1s0x471c7692bfbfac07:0xd373667cc7d83794!8m2!3d52.4690634!4d19.7520904!16s%2Fg%2F1w2yy67r!19sChIJB6y_v5J2HEcRlDfYx3xmc9M?authuser=0&hl=tr&rclk=1",
    "website_url": "",
    "rating_text": "4,6",
    "stars": null,
    "number_of_reviews": null,
    "price_level": "",
    "open_hours": "",
    "extraction_timestamp": "2025-06-07T17:31:18.341Z",
    "source_name": "google",
    "source_query": "Irrigation Equipment",
    "source_country": "PL",
    "country": "Poland",
    "state": "Greater Poland Voivodeship",
    "city": "Sieroszewice"
  },
  {
    "source_id": "ChIJeZpoURUjtCQR6bdlEWxDW-E",
    "name": "Wymarzony Trawnik",
    "category": "Wymarzony Trawnik",
    "formatted_address": "5,0(1)",
    "phone_number": "+48607225807",
    "source_url": "https://www.google.com/maps/place/Wymarzony+Trawnik/data=!4m7!3m6!1s0x24b4231551689a79:0xe15b436c1165b7e9!8m2!3d51.5977433!4d17.781033!16s%2Fg%2F11vqhqf3j0!19sChIJeZpoURUjtCQR6bdlEWxDW-E?authuser=0&hl=tr&rclk=1",
    "website_url": "",
    "rating_text": "5,0",
    "stars": null,
    "number_of_reviews": null,
    "price_level": "",
    "open_hours": "",
    "extraction_timestamp": "2025-06-07T17:31:18.342Z",
    "source_name": "google",
    "source_query": "Irrigation Equipment",
    "source_country": "PL",
    "country": "Poland",
    "state": "Greater Poland Voivodeship",
    "city": "Sieroszewice"
  }
]
