[
  {
    "source_id": "ChIJbVwphqKYBkcRWaWXqqYcutQ",
    "name": "Wakepark Sieraków",
    "category": "Wakepark Sieraków",
    "formatted_address": "4,6(61)",
    "phone_number": "+48721134428",
    "source_url": "https://www.google.com/maps/place/Wakepark+Sierak%C3%B3w/data=!4m7!3m6!1s0x470698a286295c6d:0xd4ba1ca6aa97a559!8m2!3d52.6285479!4d16.0997272!16s%2Fg%2F11fxwtxhzy!19sChIJbVwphqKYBkcRWaWXqqYcutQ?authuser=0&hl=tr&rclk=1",
    "website_url": "",
    "rating_text": "4,6",
    "stars": null,
    "number_of_reviews": null,
    "price_level": "",
    "open_hours": "",
    "extraction_timestamp": "2025-06-07T17:40:26.171Z",
    "source_name": "google",
    "source_query": "Irrigation Equipment",
    "source_country": "PL",
    "country": "Poland",
    "state": "Greater Poland Voivodeship",
    "city": "Sieraków"
  },
  {
    "source_id": "ChIJH6Bgp1ijBkcR3Xv9FnPUUKg",
    "name": "RYB-CO Instalacje Sanitarne i c.o Piotr Rybarczyk",
    "category": "RYB-CO Instalacje Sanitarne i c.o Piotr Rybarczyk",
    "formatted_address": "5,0(3)",
    "phone_number": "+48605409111",
    "source_url": "https://www.google.com/maps/place/RYB-CO+Instalacje+Sanitarne+i+c.o+Piotr+Rybarczyk/data=!4m7!3m6!1s0x4706a358a760a01f:0xa850d47316fd7bdd!8m2!3d52.6479057!4d16.0840175!16s%2Fg%2F11j10nq2jd!19sChIJH6Bgp1ijBkcR3Xv9FnPUUKg?authuser=0&hl=tr&rclk=1",
    "website_url": "",
    "rating_text": "5,0",
    "stars": null,
    "number_of_reviews": null,
    "price_level": "",
    "open_hours": "",
    "extraction_timestamp": "2025-06-07T17:40:26.172Z",
    "source_name": "google",
    "source_query": "Irrigation Equipment",
    "source_country": "PL",
    "country": "Poland",
    "state": "Greater Poland Voivodeship",
    "city": "Sieraków"
  },
  {
    "source_id": "ChIJB6y_v5J2HEcRlDfYx3xmc9M",
    "name": "Milex irrigation systems",
    "category": "Milex irrigation systems",
    "formatted_address": "4,6(37)",
    "phone_number": "+48242775222",
    "source_url": "https://www.google.com/maps/place/Milex+irrigation+systems/data=!4m7!3m6!1s0x471c7692bfbfac07:0xd373667cc7d83794!8m2!3d52.4690634!4d19.7520904!16s%2Fg%2F1w2yy67r!19sChIJB6y_v5J2HEcRlDfYx3xmc9M?authuser=0&hl=tr&rclk=1",
    "website_url": "https://www.milex.pl/",
    "rating_text": "4,6",
    "stars": null,
    "number_of_reviews": null,
    "price_level": "",
    "open_hours": "",
    "extraction_timestamp": "2025-06-07T17:40:26.173Z",
    "source_name": "google",
    "source_query": "Irrigation Equipment",
    "source_country": "PL",
    "country": "Poland",
    "state": "Greater Poland Voivodeship",
    "city": "Sieraków"
  },
  {
    "source_id": "ChIJi483KzSXBkcREzgFQpdQ04c",
    "name": "Consor Energia Fotowoltaika, Turbiny Wiatrowe",
    "category": "Consor Energia Fotowoltaika, Turbiny Wiatrowe",
    "formatted_address": "Consor Energia Fotowoltaika, Turbiny Wiatrowe",
    "phone_number": "+48722111770",
    "source_url": "https://www.google.com/maps/place/Consor+Energia+Fotowoltaika,+Turbiny+Wiatrowe/data=!4m7!3m6!1s0x470697342b378f8b:0x87d3509742053813!8m2!3d52.6029169!4d15.8899931!16s%2Fg%2F11h4tbsbs6!19sChIJi483KzSXBkcREzgFQpdQ04c?authuser=0&hl=tr&rclk=1",
    "website_url": "https://consorenergia.pl/?utm_source=google&utm_medium=organic&utm_campaign=gmf&utm_content=miedzychod",
    "rating_text": "5,0",
    "stars": null,
    "number_of_reviews": null,
    "price_level": "",
    "open_hours": "",
    "extraction_timestamp": "2025-06-07T17:40:26.174Z",
    "source_name": "google",
    "source_query": "Irrigation Equipment",
    "source_country": "PL",
    "country": "Poland",
    "state": "Greater Poland Voivodeship",
    "city": "Sieraków"
  },
  {
    "source_id": "ChIJ10nae3yiBkcRiv22sn64hrQ",
    "name": "Polak - Sklep Spożywczy Lidia Kaczmarek",
    "category": "Polak - Sklep Spożywczy Lidia Kaczmarek",
    "formatted_address": "4,6(109)",
    "phone_number": "+48503095054",
    "source_url": "https://www.google.com/maps/place/Polak+-+Sklep+Spo%C5%BCywczy+Lidia+Kaczmarek/data=!4m7!3m6!1s0x4706a27c7bda49d7:0xb486b87eb2b6fd8a!8m2!3d52.6471676!4d16.0846151!16s%2Fg%2F11g6mr3xxf!19sChIJ10nae3yiBkcRiv22sn64hrQ?authuser=0&hl=tr&rclk=1",
    "website_url": "",
    "rating_text": "4,6",
    "stars": null,
    "number_of_reviews": null,
    "price_level": "",
    "open_hours": "",
    "extraction_timestamp": "2025-06-07T17:40:26.175Z",
    "source_name": "google",
    "source_query": "Irrigation Equipment",
    "source_country": "PL",
    "country": "Poland",
    "state": "Greater Poland Voivodeship",
    "city": "Sieraków"
  },
  {
    "source_id": "ChIJU_W-qmKiBkcRuTgQu4uz3cw",
    "name": "Lewiatan Sieraków",
    "category": "Lewiatan Sieraków",
    "formatted_address": "4,3(264)",
    "phone_number": "+48612952304",
    "source_url": "https://www.google.com/maps/place/Lewiatan+Sierak%C3%B3w/data=!4m7!3m6!1s0x4706a262aabef553:0xccddb38bbb1038b9!8m2!3d52.6510991!4d16.0795879!16s%2Fg%2F1hc2rhzh7!19sChIJU_W-qmKiBkcRuTgQu4uz3cw?authuser=0&hl=tr&rclk=1",
    "website_url": "http://www.lewiatan.pl/",
    "rating_text": "4,3",
    "stars": null,
    "number_of_reviews": null,
    "price_level": "",
    "open_hours": "",
    "extraction_timestamp": "2025-06-07T17:40:26.176Z",
    "source_name": "google",
    "source_query": "Irrigation Equipment",
    "source_country": "PL",
    "country": "Poland",
    "state": "Greater Poland Voivodeship",
    "city": "Sieraków"
  },
  {
    "source_id": "ChIJ5yCz4-SWBkcRiuS2UT65__Y",
    "name": "A. Z. Agora Grupa SBS Sp. z o. o.",
    "category": "A. Z. Agora Grupa SBS Sp. z o. o.",
    "formatted_address": "4,6(72)",
    "phone_number": "+48957482680",
    "source_url": "https://www.google.com/maps/place/A.+Z.+Agora+Grupa+SBS+Sp.+z+o.+o./data=!4m7!3m6!1s0x470696e4e3b320e7:0xf6ffb93e51b6e48a!8m2!3d52.6064567!4d15.9107618!16s%2Fg%2F1trpph8z!19sChIJ5yCz4-SWBkcRiuS2UT65__Y?authuser=0&hl=tr&rclk=1",
    "website_url": "http://www.azagora.pl/",
    "rating_text": "4,6",
    "stars": null,
    "number_of_reviews": null,
    "price_level": "",
    "open_hours": "",
    "extraction_timestamp": "2025-06-07T17:40:26.177Z",
    "source_name": "google",
    "source_query": "Irrigation Equipment",
    "source_country": "PL",
    "country": "Poland",
    "state": "Greater Poland Voivodeship",
    "city": "Sieraków"
  },
  {
    "source_id": "ChIJRetOw3qiBkcRBJbpnoScfy8",
    "name": "Biedronka",
    "category": "Biedronka",
    "formatted_address": "4,2(996)",
    "phone_number": "+48800080010",
    "source_url": "https://www.google.com/maps/place/Biedronka/data=!4m7!3m6!1s0x4706a27ac34eeb45:0x2f7f9c849ee99604!8m2!3d52.6479794!4d16.0898593!16s%2Fg%2F1vxfywc4!19sChIJRetOw3qiBkcRBJbpnoScfy8?authuser=0&hl=tr&rclk=1",
    "website_url": "https://www.biedronka.pl/pl?utm_source=gmb",
    "rating_text": "4,2",
    "stars": null,
    "number_of_reviews": null,
    "price_level": "",
    "open_hours": "",
    "extraction_timestamp": "2025-06-07T17:40:26.178Z",
    "source_name": "google",
    "source_query": "Irrigation Equipment",
    "source_country": "PL",
    "country": "Poland",
    "state": "Greater Poland Voivodeship",
    "city": "Sieraków"
  },
  {
    "source_id": "ChIJ-XGBMX2iBkcRUuAarHAaENo",
    "name": "Drogeria Vica",
    "category": "Drogeria Vica",
    "formatted_address": "4,8(25)",
    "phone_number": "+48785370355",
    "source_url": "https://www.google.com/maps/place/Drogeria+Vica/data=!4m7!3m6!1s0x4706a27d318171f9:0xda101a70ac1ae052!8m2!3d52.650425!4d16.0817219!16s%2Fg%2F11dzd82nm7!19sChIJ-XGBMX2iBkcRUuAarHAaENo?authuser=0&hl=tr&rclk=1",
    "website_url": "http://vica.pl/",
    "rating_text": "4,8",
    "stars": null,
    "number_of_reviews": null,
    "price_level": "",
    "open_hours": "",
    "extraction_timestamp": "2025-06-07T17:40:26.178Z",
    "source_name": "google",
    "source_query": "Irrigation Equipment",
    "source_country": "PL",
    "country": "Poland",
    "state": "Greater Poland Voivodeship",
    "city": "Sieraków"
  },
  {
    "source_id": "ChIJZTUHsmKiBkcR7ovSlx2uXc8",
    "name": "Napoleon Cafe Sieraków",
    "category": "Napoleon Cafe Sieraków",
    "formatted_address": "4,6(372) · ₺₺",
    "phone_number": "+48696742984",
    "source_url": "https://www.google.com/maps/place/Napoleon+Cafe+Sierak%C3%B3w/data=!4m7!3m6!1s0x4706a262b2073565:0xcf5dae1d97d28bee!8m2!3d52.651522!4d16.079502!16s%2Fg%2F1ygbb8jzf!19sChIJZTUHsmKiBkcR7ovSlx2uXc8?authuser=0&hl=tr&rclk=1",
    "website_url": "http://www.napoleon-cafe-sierakow.com/",
    "rating_text": "4,6",
    "stars": null,
    "number_of_reviews": null,
    "price_level": "",
    "open_hours": "",
    "extraction_timestamp": "2025-06-07T17:40:26.180Z",
    "source_name": "google",
    "source_query": "Irrigation Equipment",
    "source_country": "PL",
    "country": "Poland",
    "state": "Greater Poland Voivodeship",
    "city": "Sieraków"
  },
  {
    "source_id": "ChIJ94vJjnyiBkcRl4oBtTQc00Q",
    "name": "Cukiernia CUKRUŚ - Tomasz Bartkowski",
    "category": "Cukiernia CUKRUŚ - Tomasz Bartkowski",
    "formatted_address": "4,6(225) · ₺",
    "phone_number": "+48612952082",
    "source_url": "https://www.google.com/maps/place/Cukiernia+CUKRU%C5%9A+-+Tomasz+Bartkowski/data=!4m7!3m6!1s0x4706a27c8ec98bf7:0x44d31c34b5018a97!8m2!3d52.647993!4d16.084322!16s%2Fg%2F1tm1p4rp!19sChIJ94vJjnyiBkcRl4oBtTQc00Q?authuser=0&hl=tr&rclk=1",
    "website_url": "https://www.facebook.com/Cukiernia-Cukru%C5%9B-Tomasz-Bartkowski-1089222954461872/",
    "rating_text": "4,6",
    "stars": null,
    "number_of_reviews": null,
    "price_level": "",
    "open_hours": "",
    "extraction_timestamp": "2025-06-07T17:40:26.181Z",
    "source_name": "google",
    "source_query": "Irrigation Equipment",
    "source_country": "PL",
    "country": "Poland",
    "state": "Greater Poland Voivodeship",
    "city": "Sieraków"
  },
  {
    "source_id": "ChIJkT_FeH6jBkcRkoCjbYoJ3oI",
    "name": "Dino",
    "category": "Dino",
    "formatted_address": "4,3(288)",
    "phone_number": "",
    "source_url": "https://www.google.com/maps/place/Dino/data=!4m7!3m6!1s0x4706a37e78c53f91:0x82de098a6da38092!8m2!3d52.6464664!4d16.0844689!16s%2Fg%2F11fd45kdwx!19sChIJkT_FeH6jBkcRkoCjbYoJ3oI?authuser=0&hl=tr&rclk=1",
    "website_url": "https://marketdino.pl/",
    "rating_text": "4,3",
    "stars": null,
    "number_of_reviews": null,
    "price_level": "",
    "open_hours": "",
    "extraction_timestamp": "2025-06-07T17:40:26.181Z",
    "source_name": "google",
    "source_query": "Irrigation Equipment",
    "source_country": "PL",
    "country": "Poland",
    "state": "Greater Poland Voivodeship",
    "city": "Sieraków"
  },
  {
    "source_id": "ChIJEwi-S_CWBkcRsoDZuHXztNM",
    "name": "Bricomarche (Elmat)",
    "category": "Bricomarche (Elmat)",
    "formatted_address": "4,3(256)",
    "phone_number": "+48957482858",
    "source_url": "https://www.google.com/maps/place/Bricomarche+%28Elmat%29/data=!4m7!3m6!1s0x470696f04bbe0813:0xd3b4f375b8d980b2!8m2!3d52.609847!4d15.9057083!16s%2Fg%2F1v4prpwp!19sChIJEwi-S_CWBkcRsoDZuHXztNM?authuser=0&hl=tr&rclk=1",
    "website_url": "https://www.facebook.com/BricomarcheMiedzychod",
    "rating_text": "4,3",
    "stars": null,
    "number_of_reviews": null,
    "price_level": "",
    "open_hours": "",
    "extraction_timestamp": "2025-06-07T17:40:26.182Z",
    "source_name": "google",
    "source_query": "Irrigation Equipment",
    "source_country": "PL",
    "country": "Poland",
    "state": "Greater Poland Voivodeship",
    "city": "Sieraków"
  },
  {
    "source_id": "ChIJt098lHuiBkcRiJGkaVpwUzI",
    "name": "Delikatesy Centrum",
    "category": "Delikatesy Centrum",
    "formatted_address": "4,2(507) · ₺₺",
    "phone_number": "+48571404184",
    "source_url": "https://www.google.com/maps/place/Delikatesy+Centrum/data=!4m7!3m6!1s0x4706a27b947c4fb7:0x3253705a69a49188!8m2!3d52.646395!4d16.0860608!16s%2Fg%2F11b6_j264f!19sChIJt098lHuiBkcRiJGkaVpwUzI?authuser=0&hl=tr&rclk=1",
    "website_url": "https://www.delikatesy.pl/",
    "rating_text": "4,2",
    "stars": null,
    "number_of_reviews": null,
    "price_level": "",
    "open_hours": "",
    "extraction_timestamp": "2025-06-07T17:40:26.184Z",
    "source_name": "google",
    "source_query": "Irrigation Equipment",
    "source_country": "PL",
    "country": "Poland",
    "state": "Greater Poland Voivodeship",
    "city": "Sieraków"
  },
  {
    "source_id": "ChIJo-OyfKKYBkcRGjdJChCQqXg",
    "name": "Plaża nad Jeziorem Jaroszewskim",
    "category": "Plaża nad Jeziorem Jaroszewskim",
    "formatted_address": "4,5(931)",
    "phone_number": "",
    "source_url": "https://www.google.com/maps/place/Pla%C5%BCa+nad+Jeziorem+Jaroszewskim/data=!4m7!3m6!1s0x470698a27cb2e3a3:0x78a990100a49371a!8m2!3d52.6293408!4d16.0998869!16s%2Fg%2F11c46dtn3w!19sChIJo-OyfKKYBkcRGjdJChCQqXg?authuser=0&hl=tr&rclk=1",
    "website_url": "",
    "rating_text": "4,5",
    "stars": null,
    "number_of_reviews": null,
    "price_level": "",
    "open_hours": "",
    "extraction_timestamp": "2025-06-07T17:40:26.184Z",
    "source_name": "google",
    "source_query": "Irrigation Equipment",
    "source_country": "PL",
    "country": "Poland",
    "state": "Greater Poland Voivodeship",
    "city": "Sieraków"
  },
  {
    "source_id": "ChIJQSinYhOZBkcR1VjKpDDALk4",
    "name": "SINGH Sklep spożywczo-przemysłowy",
    "category": "SINGH Sklep spożywczo-przemysłowy",
    "formatted_address": "5,0(8)",
    "phone_number": "",
    "source_url": "https://www.google.com/maps/place/SINGH+Sklep+spo%C5%BCywczo-przemys%C5%82owy/data=!4m7!3m6!1s0x4706991362a72841:0x4e2ec030a4ca58d5!8m2!3d52.634462!4d16.101874!16s%2Fg%2F11sqktdgrj!19sChIJQSinYhOZBkcR1VjKpDDALk4?authuser=0&hl=tr&rclk=1",
    "website_url": "",
    "rating_text": "5,0",
    "stars": null,
    "number_of_reviews": null,
    "price_level": "",
    "open_hours": "",
    "extraction_timestamp": "2025-06-07T17:40:26.185Z",
    "source_name": "google",
    "source_query": "Irrigation Equipment",
    "source_country": "PL",
    "country": "Poland",
    "state": "Greater Poland Voivodeship",
    "city": "Sieraków"
  },
  {
    "source_id": "ChIJ7XiBPeuWBkcRfFvSMPXhG0Q",
    "name": "Laufpompa",
    "category": "Laufpompa",
    "formatted_address": "4,6(257)",
    "phone_number": "",
    "source_url": "https://www.google.com/maps/place/Laufpompa/data=!4m7!3m6!1s0x470696eb3d8178ed:0x441be1f530d25b7c!8m2!3d52.6053153!4d15.8959682!16s%2Fg%2F122kcq53!19sChIJ7XiBPeuWBkcRfFvSMPXhG0Q?authuser=0&hl=tr&rclk=1",
    "website_url": "http://www.polskaniezwykla.pl/web/place/17810,miedzychod-laufpompa.html",
    "rating_text": "4,6",
    "stars": null,
    "number_of_reviews": null,
    "price_level": "",
    "open_hours": "",
    "extraction_timestamp": "2025-06-07T17:40:26.185Z",
    "source_name": "google",
    "source_query": "Irrigation Equipment",
    "source_country": "PL",
    "country": "Poland",
    "state": "Greater Poland Voivodeship",
    "city": "Sieraków"
  },
  {
    "source_id": "ChIJJ4J8NC7UHkcRP7FGIERtCQ4",
    "name": "SE Equipment Poland Sp. z o.o.",
    "category": "SE Equipment Poland Sp. z o.o.",
    "formatted_address": "4,6(22)",
    "phone_number": "+48224878413",
    "source_url": "https://www.google.com/maps/place/SE+Equipment+Poland+Sp.+z+o.o./data=!4m7!3m6!1s0x471ed42e347c8227:0xe096d442046b13f!8m2!3d52.3963322!4d21.1707059!16s%2Fg%2F1pp2v07jd!19sChIJJ4J8NC7UHkcRP7FGIERtCQ4?authuser=0&hl=tr&rclk=1",
    "website_url": "http://www.seequipment.pl/",
    "rating_text": "4,6",
    "stars": null,
    "number_of_reviews": null,
    "price_level": "",
    "open_hours": "",
    "extraction_timestamp": "2025-06-07T17:40:26.186Z",
    "source_name": "google",
    "source_query": "Irrigation Equipment",
    "source_country": "PL",
    "country": "Poland",
    "state": "Greater Poland Voivodeship",
    "city": "Sieraków"
  },
  {
    "source_id": "ChIJpRxj1qGYBkcRoyolqHl6qEA",
    "name": "Nasz Sklep",
    "category": "Nasz Sklep",
    "formatted_address": "4,7(12)",
    "phone_number": "",
    "source_url": "https://www.google.com/maps/place/Nasz+Sklep/data=!4m7!3m6!1s0x470698a1d6631ca5:0x40a87a79a8252aa3!8m2!3d52.6338713!4d16.1018291!16s%2Fg%2F11tczn3nj9!19sChIJpRxj1qGYBkcRoyolqHl6qEA?authuser=0&hl=tr&rclk=1",
    "website_url": "",
    "rating_text": "4,7",
    "stars": null,
    "number_of_reviews": null,
    "price_level": "",
    "open_hours": "",
    "extraction_timestamp": "2025-06-07T17:40:26.186Z",
    "source_name": "google",
    "source_query": "Irrigation Equipment",
    "source_country": "PL",
    "country": "Poland",
    "state": "Greater Poland Voivodeship",
    "city": "Sieraków"
  },
  {
    "source_id": "ChIJT340uD-jBkcReqU_EfcG3Nc",
    "name": "Pole Biwakowe",
    "category": "Pole Biwakowe",
    "formatted_address": "4,6(98)",
    "phone_number": "",
    "source_url": "https://www.google.com/maps/place/Pole+Biwakowe/data=!4m7!3m6!1s0x4706a33fb8347e4f:0xd7dc06f7113fa57a!8m2!3d52.682853!4d16.07952!16s%2Fg%2F11g4d4tqd1!19sChIJT340uD-jBkcReqU_EfcG3Nc?authuser=0&hl=tr&rclk=1",
    "website_url": "https://grupabiwakowa.pl/pole-biwakowe-sierakow/",
    "rating_text": "4,6",
    "stars": null,
    "number_of_reviews": null,
    "price_level": "",
    "open_hours": "",
    "extraction_timestamp": "2025-06-07T17:40:26.187Z",
    "source_name": "google",
    "source_query": "Irrigation Equipment",
    "source_country": "PL",
    "country": "Poland",
    "state": "Greater Poland Voivodeship",
    "city": "Sieraków"
  },
  {
    "source_id": "ChIJwxC1X09EBEcRLzaLJfk4rD8",
    "name": "OASE - Oczko Wodne Polski Autoryzowany Sklep internetowy Złoty Przedstawiciel Nawadnianie Podlewanie Hunter, Raibird,Rossi",
    "category": "OASE - Oczko Wodne Polski Autoryzowany Sklep internetowy Złoty Przedstawiciel Nawadnianie Podlewanie Hunter, Raibird,Rossi",
    "formatted_address": "OASE - Oczko Wodne Polski Autoryzowany Sklep internetowy Złoty Przedstawiciel Nawadnianie Podlewanie Hunter, Raibird,Rossi",
    "phone_number": "+48618842498",
    "source_url": "https://www.google.com/maps/place/OASE+-+Oczko+Wodne+Polski+Autoryzowany+Sklep+internetowy+Z%C5%82oty+Przedstawiciel+Nawadnianie+Podlewanie+Hunter,+Raibird,Rossi/data=!4m7!3m6!1s0x4704444f5fb510c3:0x3fac38f9258b362f!8m2!3d52.4364533!4d16.8327227!16s%2Fg%2F1hc96cvd0!19sChIJwxC1X09EBEcRLzaLJfk4rD8?authuser=0&hl=tr&rclk=1",
    "website_url": "",
    "rating_text": "4,6",
    "stars": null,
    "number_of_reviews": null,
    "price_level": "",
    "open_hours": "",
    "extraction_timestamp": "2025-06-07T17:40:26.188Z",
    "source_name": "google",
    "source_query": "Irrigation Equipment",
    "source_country": "PL",
    "country": "Poland",
    "state": "Greater Poland Voivodeship",
    "city": "Sieraków"
  },
  {
    "source_id": "ChIJzXF7VaAfB0cRYsdEqMILYWM",
    "name": "Zielone ZOO Askana",
    "category": "Zielone ZOO Askana",
    "formatted_address": "2,2(44)",
    "phone_number": "+48887295012",
    "source_url": "https://www.google.com/maps/place/Zielone+ZOO+Askana/data=!4m7!3m6!1s0x47071fa0557b71cd:0x63610bc2a844c762!8m2!3d52.7309454!4d15.2246977!16s%2Fg%2F11g69yn02b!19sChIJzXF7VaAfB0cRYsdEqMILYWM?authuser=0&hl=tr&rclk=1",
    "website_url": "",
    "rating_text": "2,2",
    "stars": null,
    "number_of_reviews": null,
    "price_level": "",
    "open_hours": "",
    "extraction_timestamp": "2025-06-07T17:40:26.189Z",
    "source_name": "google",
    "source_query": "Irrigation Equipment",
    "source_country": "PL",
    "country": "Poland",
    "state": "Greater Poland Voivodeship",
    "city": "Sieraków"
  },
  {
    "source_id": "ChIJ6ZwxDIlBBEcRQdkgYydfEhg",
    "name": "BZW Bruk Zieleń Woda - Dominik Rzepczyński",
    "category": "BZW Bruk Zieleń Woda - Dominik Rzepczyński",
    "formatted_address": "5,0(2)",
    "phone_number": "+48880670990",
    "source_url": "https://www.google.com/maps/place/BZW+Bruk+Ziele%C5%84+Woda+-+Dominik+Rzepczy%C5%84ski/data=!4m7!3m6!1s0x470441890c319ce9:0x18125f276320d941!8m2!3d52.5119822!4d16.7499267!16s%2Fg%2F11mcx3nslq!19sChIJ6ZwxDIlBBEcRQdkgYydfEhg?authuser=0&hl=tr&rclk=1",
    "website_url": "",
    "rating_text": "5,0",
    "stars": null,
    "number_of_reviews": null,
    "price_level": "",
    "open_hours": "",
    "extraction_timestamp": "2025-06-07T17:40:26.189Z",
    "source_name": "google",
    "source_query": "Irrigation Equipment",
    "source_country": "PL",
    "country": "Poland",
    "state": "Greater Poland Voivodeship",
    "city": "Sieraków"
  },
  {
    "source_id": "ChIJzw282KexBUcRzKac89fNzoI",
    "name": "GroomerShop.pl",
    "category": "GroomerShop.pl",
    "formatted_address": "4,8(250)",
    "phone_number": "+48616661220",
    "source_url": "https://www.google.com/maps/place/GroomerShop.pl/data=!4m7!3m6!1s0x4705b1a7d8bc0dcf:0x82cecdd7f39ca6cc!8m2!3d52.1026107!4d16.672981!16s%2Fg%2F1hm4d32rp!19sChIJzw282KexBUcRzKac89fNzoI?authuser=0&hl=tr&rclk=1",
    "website_url": "https://groomershop.pl/",
    "rating_text": "4,8",
    "stars": null,
    "number_of_reviews": null,
    "price_level": "",
    "open_hours": "",
    "extraction_timestamp": "2025-06-07T17:40:26.190Z",
    "source_name": "google",
    "source_query": "Irrigation Equipment",
    "source_country": "PL",
    "country": "Poland",
    "state": "Greater Poland Voivodeship",
    "city": "Sieraków"
  },
  {
    "source_id": "ChIJD4tH1yagBkcRQNXrrmSkPK8",
    "name": "Plaża w Chrzypsku Wielkim",
    "category": "Plaża w Chrzypsku Wielkim",
    "formatted_address": "4,5(328)",
    "phone_number": "",
    "source_url": "https://www.google.com/maps/place/Pla%C5%BCa+w+Chrzypsku+Wielkim/data=!4m7!3m6!1s0x4706a026d7478b0f:0xaf3ca464aeebd540!8m2!3d52.6240079!4d16.2160075!16s%2Fg%2F11g72z0067!19sChIJD4tH1yagBkcRQNXrrmSkPK8?authuser=0&hl=tr&rclk=1",
    "website_url": "",
    "rating_text": "4,5",
    "stars": null,
    "number_of_reviews": null,
    "price_level": "",
    "open_hours": "",
    "extraction_timestamp": "2025-06-07T17:40:26.191Z",
    "source_name": "google",
    "source_query": "Irrigation Equipment",
    "source_country": "PL",
    "country": "Poland",
    "state": "Greater Poland Voivodeship",
    "city": "Sieraków"
  },
  {
    "source_id": "ChIJV0HENARpBEcRAnzMlHqesR8",
    "name": "Lovely Doggy",
    "category": "Lovely Doggy",
    "formatted_address": "5,0(8)",
    "phone_number": "+48572250345",
    "source_url": "https://www.google.com/maps/place/Lovely+Doggy/data=!4m7!3m6!1s0x4704690434c44157:0x1fb19e7a94cc7c02!8m2!3d52.428665!4d16.854481!16s%2Fg%2F11khw540g8!19sChIJV0HENARpBEcRAnzMlHqesR8?authuser=0&hl=tr&rclk=1",
    "website_url": "http://lovelydoggy.pl/",
    "rating_text": "5,0",
    "stars": null,
    "number_of_reviews": null,
    "price_level": "",
    "open_hours": "",
    "extraction_timestamp": "2025-06-07T17:40:26.191Z",
    "source_name": "google",
    "source_query": "Irrigation Equipment",
    "source_country": "PL",
    "country": "Poland",
    "state": "Greater Poland Voivodeship",
    "city": "Sieraków"
  },
  {
    "source_id": "ChIJR1Gy6FdHBEcRxLXa4mu3HY8",
    "name": "Fargo PW Centrum Ogrodnicze - Sklep Ogrodniczy i Rolniczy",
    "category": "Fargo PW Centrum Ogrodnicze - Sklep Ogrodniczy i Rolniczy",
    "formatted_address": "4,8(387)",
    "phone_number": "+48618146334",
    "source_url": "https://www.google.com/maps/place/Fargo+PW+Centrum+Ogrodnicze+-+Sklep+Ogrodniczy+i+Rolniczy/data=!4m7!3m6!1s0x47044757e8b25147:0x8f1db76be2dab5c4!8m2!3d52.4575027!4d16.6792707!16s%2Fg%2F1ptwzycf8!19sChIJR1Gy6FdHBEcRxLXa4mu3HY8?authuser=0&hl=tr&rclk=1",
    "website_url": "https://fargotarnowo.pl/",
    "rating_text": "4,8",
    "stars": null,
    "number_of_reviews": null,
    "price_level": "",
    "open_hours": "",
    "extraction_timestamp": "2025-06-07T17:40:26.192Z",
    "source_name": "google",
    "source_query": "Irrigation Equipment",
    "source_country": "PL",
    "country": "Poland",
    "state": "Greater Poland Voivodeship",
    "city": "Sieraków"
  },
  {
    "source_id": "ChIJpV_X-7FEBEcR0p8658dFcbw",
    "name": "Cztery Łapy",
    "category": "Cztery Łapy",
    "formatted_address": "4,8(185)",
    "phone_number": "+48516949326",
    "source_url": "https://www.google.com/maps/place/Cztery+%C5%81apy/data=!4m7!3m6!1s0x470444b1fbd75fa5:0xbc7145c7e73a9fd2!8m2!3d52.4222201!4d16.909402!16s%2Fg%2F1jkwkdy09!19sChIJpV_X-7FEBEcR0p8658dFcbw?authuser=0&hl=tr&rclk=1",
    "website_url": "http://www.czterylapysklep.com/",
    "rating_text": "4,8",
    "stars": null,
    "number_of_reviews": null,
    "price_level": "",
    "open_hours": "",
    "extraction_timestamp": "2025-06-07T17:40:26.193Z",
    "source_name": "google",
    "source_query": "Irrigation Equipment",
    "source_country": "PL",
    "country": "Poland",
    "state": "Greater Poland Voivodeship",
    "city": "Sieraków"
  },
  {
    "source_id": "ChIJ-6uvQ2-9BUcRS7my4zP54Hw",
    "name": "M&K Gardens Usługi Ogrodnicze",
    "category": "M&K Gardens Usługi Ogrodnicze",
    "formatted_address": "5,0(1)",
    "phone_number": "+48502356099",
    "source_url": "https://www.google.com/maps/place/M%26K+Gardens+Us%C5%82ugi+Ogrodnicze/data=!4m7!3m6!1s0x4705bd6f43afabfb:0x7ce0f933e3b2b94b!8m2!3d51.9059244!4d16.5816602!16s%2Fg%2F11l2mk1bv4!19sChIJ-6uvQ2-9BUcRS7my4zP54Hw?authuser=0&hl=tr&rclk=1",
    "website_url": "https://www.facebook.com/profile.php?id=100092890975237",
    "rating_text": "5,0",
    "stars": null,
    "number_of_reviews": null,
    "price_level": "",
    "open_hours": "",
    "extraction_timestamp": "2025-06-07T17:40:26.193Z",
    "source_name": "google",
    "source_query": "Irrigation Equipment",
    "source_country": "PL",
    "country": "Poland",
    "state": "Greater Poland Voivodeship",
    "city": "Sieraków"
  },
  {
    "source_id": "ChIJR_3ZupldAUcR9n8Hx8fzp1o",
    "name": "Sklep Zoologiczny Wałcz Zoo-Raj s.c. Marek i Zdzisława Cygan",
    "category": "Sklep Zoologiczny Wałcz Zoo-Raj s.c. Marek i Zdzisława Cygan",
    "formatted_address": "4,1(95)",
    "phone_number": "+48512542064",
    "source_url": "https://www.google.com/maps/place/Sklep+Zoologiczny+Wa%C5%82cz+Zoo-Raj+s.c.+Marek+i+Zdzis%C5%82awa+Cygan/data=!4m7!3m6!1s0x47015d99bad9fd47:0x5aa7f3c7c7077ff6!8m2!3d53.272458!4d16.470091!16s%2Fg%2F1tglf__g!19sChIJR_3ZupldAUcR9n8Hx8fzp1o?authuser=0&hl=tr&rclk=1",
    "website_url": "http://www.zoo-raj.pl/",
    "rating_text": "4,1",
    "stars": null,
    "number_of_reviews": null,
    "price_level": "",
    "open_hours": "",
    "extraction_timestamp": "2025-06-07T17:40:26.194Z",
    "source_name": "google",
    "source_query": "Irrigation Equipment",
    "source_country": "PL",
    "country": "Poland",
    "state": "Greater Poland Voivodeship",
    "city": "Sieraków"
  }
]
