[
  {
    "source_id": "ChIJ8dcpi5jJGkcRZdU1aWdkQZA",
    "name": "Home & More Sp. z o.o. - Pompy Ciep≈Ça / Klimatyzacja / Fotowoltaika",
    "category": "Home & More Sp. z o.o. - Pompy Ciep≈Ça / Klimatyzacja / Fotowoltaika",
    "formatted_address": "5,0(16)",
    "phone_number": "+48504421516",
    "source_url": "https://www.google.com/maps/place/Home+%26+More+Sp.+z+o.o.+-+Pompy+Ciep%C5%82a+%2F+Klimatyzacja+%2F+Fotowoltaika/data=!4m7!3m6!1s0x471ac9988b29d7f1:0x904164676935d565!8m2!3d51.7072779!4d17.9942039!16s%2Fg%2F11tnvt_8_c!19sChIJ8dcpi5jJGkcRZdU1aWdkQZA?authuser=0&hl=tr&rclk=1",
    "website_url": "",
    "rating_text": "5,0",
    "stars": null,
    "number_of_reviews": null,
    "price_level": "",
    "open_hours": "",
    "extraction_timestamp": "2025-06-07T17:57:19.764Z",
    "source_name": "google",
    "source_query": "Irrigation Equipment",
    "source_country": "PL",
    "country": "Poland",
    "state": "Greater Poland Voivodeship",
    "city": "Skalmierzyce"
  },
  {
    "source_id": "ChIJv3VWorS1GkcR91vUXcnWjAo",
    "name": "Systemy pneumatyki. Sprƒô≈ºarki, kompresory, narzƒôdzia",
    "category": "Systemy pneumatyki. Sprƒô≈ºarki, kompresory, narzƒôdzia",
    "formatted_address": "Systemy pneumatyki. Sprƒô≈ºarki, kompresory, narzƒôdzia",
    "phone_number": "+48625910444",
    "source_url": "https://www.google.com/maps/place/Systemy+pneumatyki.+Spr%C4%99%C5%BCarki,+kompresory,+narz%C4%99dzia/data=!4m7!3m6!1s0x471ab5b4a25675bf:0xa8cd6c95dd45bf7!8m2!3d51.6301252!4d17.8127133!16s%2Fg%2F1vm_wmyy!19sChIJv3VWorS1GkcR91vUXcnWjAo?authuser=0&hl=tr&rclk=1",
    "website_url": "",
    "rating_text": "4,1",
    "stars": null,
    "number_of_reviews": null,
    "price_level": "",
    "open_hours": "",
    "extraction_timestamp": "2025-06-07T17:57:19.766Z",
    "source_name": "google",
    "source_query": "Irrigation Equipment",
    "source_country": "PL",
    "country": "Poland",
    "state": "Greater Poland Voivodeship",
    "city": "Skalmierzyce"
  },
  {
    "source_id": "ChIJJ5wCWe3IGkcRAvqi6pZr1jo",
    "name": "Walczak Andrzej",
    "category": "Walczak Andrzej",
    "formatted_address": "4,6(20)",
    "phone_number": "",
    "source_url": "https://www.google.com/maps/place/Walczak+Andrzej/data=!4m7!3m6!1s0x471ac8ed59029c27:0x3ad66b96eaa2fa02!8m2!3d51.7026894!4d17.9771888!16s%2Fg%2F11c3k4_rbh!19sChIJJ5wCWe3IGkcRAvqi6pZr1jo?authuser=0&hl=tr&rclk=1",
    "website_url": "",
    "rating_text": "4,6",
    "stars": null,
    "number_of_reviews": null,
    "price_level": "",
    "open_hours": "",
    "extraction_timestamp": "2025-06-07T17:57:19.766Z",
    "source_name": "google",
    "source_query": "Irrigation Equipment",
    "source_country": "PL",
    "country": "Poland",
    "state": "Greater Poland Voivodeship",
    "city": "Skalmierzyce"
  },
  {
    "source_id": "ChIJRWpObLHFGkcReDC3XRF1ao0",
    "name": "Zamkniecie dzialalmosci",
    "category": "Zamkniecie dzialalmosci",
    "formatted_address": "5,0(1)",
    "phone_number": "",
    "source_url": "https://www.google.com/maps/place/Zamkniecie+dzialalmosci/data=!4m7!3m6!1s0x471ac5b16c4e6a45:0x8d6a75115db73078!8m2!3d51.7511517!4d18.0956779!16s%2Fg%2F11pcn73dk8!19sChIJRWpObLHFGkcReDC3XRF1ao0?authuser=0&hl=tr&rclk=1",
    "website_url": "",
    "rating_text": "5,0",
    "stars": null,
    "number_of_reviews": null,
    "price_level": "",
    "open_hours": "",
    "extraction_timestamp": "2025-06-07T17:57:19.766Z",
    "source_name": "google",
    "source_query": "Irrigation Equipment",
    "source_country": "PL",
    "country": "Poland",
    "state": "Greater Poland Voivodeship",
    "city": "Skalmierzyce"
  },
  {
    "source_id": "ChIJwzAt43vJGkcR64rkqwHyfjM",
    "name": "P.U.H. \" BRUCKI \" ADAM BRUCKI",
    "category": "P.U.H. \" BRUCKI \" ADAM BRUCKI",
    "formatted_address": "",
    "phone_number": "+48600320889",
    "source_url": "https://www.google.com/maps/place/P.U.H.+%22+BRUCKI+%22+ADAM+BRUCKI/data=!4m7!3m6!1s0x471ac97be32d30c3:0x337ef201abe48aeb!8m2!3d51.7059462!4d17.9891655!16s%2Fg%2F11lm2nstfv!19sChIJwzAt43vJGkcR64rkqwHyfjM?authuser=0&hl=tr&rclk=1",
    "website_url": "",
    "rating_text": "",
    "stars": null,
    "number_of_reviews": null,
    "price_level": "",
    "open_hours": "",
    "extraction_timestamp": "2025-06-07T17:57:19.767Z",
    "source_name": "google",
    "source_query": "Irrigation Equipment",
    "source_country": "PL",
    "country": "Poland",
    "state": "Greater Poland Voivodeship",
    "city": "Skalmierzyce"
  },
  {
    "source_id": "ChIJr2nz7WTIGkcRvXG0MVSqf6E",
    "name": "ABC",
    "category": "ABC",
    "formatted_address": "4,5(8)",
    "phone_number": "",
    "source_url": "https://www.google.com/maps/place/ABC/data=!4m7!3m6!1s0x471ac864edf369af:0xa17faa5431b471bd!8m2!3d51.692618!4d17.99568!16s%2Fg%2F11gdlyv1c9!19sChIJr2nz7WTIGkcRvXG0MVSqf6E?authuser=0&hl=tr&rclk=1",
    "website_url": "",
    "rating_text": "4,5",
    "stars": null,
    "number_of_reviews": null,
    "price_level": "",
    "open_hours": "",
    "extraction_timestamp": "2025-06-07T17:57:19.767Z",
    "source_name": "google",
    "source_query": "Irrigation Equipment",
    "source_country": "PL",
    "country": "Poland",
    "state": "Greater Poland Voivodeship",
    "city": "Skalmierzyce"
  },
  {
    "source_id": "ChIJz8srWmvJGkcRUi0FPxEh5_0",
    "name": "moonfin.pl - Salon Wƒôdkarski",
    "category": "moonfin.pl - Salon Wƒôdkarski",
    "formatted_address": "4,7(216)",
    "phone_number": "+48666621821",
    "source_url": "https://www.google.com/maps/place/moonfin.pl+-+Salon+W%C4%99dkarski/data=!4m7!3m6!1s0x471ac96b5a2bcbcf:0xfde721113f052d52!8m2!3d51.6988353!4d17.9532701!16s%2Fg%2F11jyggfr3x!19sChIJz8srWmvJGkcRUi0FPxEh5_0?authuser=0&hl=tr&rclk=1",
    "website_url": "",
    "rating_text": "4,7",
    "stars": null,
    "number_of_reviews": null,
    "price_level": "",
    "open_hours": "",
    "extraction_timestamp": "2025-06-07T17:57:19.768Z",
    "source_name": "google",
    "source_query": "Irrigation Equipment",
    "source_country": "PL",
    "country": "Poland",
    "state": "Greater Poland Voivodeship",
    "city": "Skalmierzyce"
  },
  {
    "source_id": "ChIJB6y_v5J2HEcRlDfYx3xmc9M",
    "name": "Milex irrigation systems",
    "category": "Milex irrigation systems",
    "formatted_address": "4,6(37)",
    "phone_number": "+48242775222",
    "source_url": "https://www.google.com/maps/place/Milex+irrigation+systems/data=!4m7!3m6!1s0x471c7692bfbfac07:0xd373667cc7d83794!8m2!3d52.4690634!4d19.7520904!16s%2Fg%2F1w2yy67r!19sChIJB6y_v5J2HEcRlDfYx3xmc9M?authuser=0&hl=tr&rclk=1",
    "website_url": "",
    "rating_text": "4,6",
    "stars": null,
    "number_of_reviews": null,
    "price_level": "",
    "open_hours": "",
    "extraction_timestamp": "2025-06-07T17:57:19.769Z",
    "source_name": "google",
    "source_query": "Irrigation Equipment",
    "source_country": "PL",
    "country": "Poland",
    "state": "Greater Poland Voivodeship",
    "city": "Skalmierzyce"
  },
  {
    "source_id": "ChIJlegA2aHJGkcR32QxsHCI6Eo",
    "name": "Mercedes-Benz Auto Partner J. i A. Garcarek",
    "category": "Mercedes-Benz Auto Partner J. i A. Garcarek",
    "formatted_address": "4,7(1.729)",
    "phone_number": "+48627629200",
    "source_url": "https://www.google.com/maps/place/Mercedes-Benz+Auto+Partner+J.+i+A.+Garcarek/data=!4m7!3m6!1s0x471ac9a1d900e895:0x4ae88870b03164df!8m2!3d51.6971654!4d17.9468092!16s%2Fg%2F1wl4pbry!19sChIJlegA2aHJGkcR32QxsHCI6Eo?authuser=0&hl=tr&rclk=1",
    "website_url": "",
    "rating_text": "4,7",
    "stars": null,
    "number_of_reviews": null,
    "price_level": "",
    "open_hours": "",
    "extraction_timestamp": "2025-06-07T17:57:19.771Z",
    "source_name": "google",
    "source_query": "Irrigation Equipment",
    "source_country": "PL",
    "country": "Poland",
    "state": "Greater Poland Voivodeship",
    "city": "Skalmierzyce"
  },
  {
    "source_id": "ChIJyybZ-27JGkcR5GCC3QpH3mo",
    "name": "Sklep zoologiczny miau-hau",
    "category": "Sklep zoologiczny miau-hau",
    "formatted_address": "4,7(15)",
    "phone_number": "+48665841400",
    "source_url": "https://www.google.com/maps/place/Sklep+zoologiczny+miau-hau/data=!4m7!3m6!1s0x471ac96efbd926cb:0x6ade470add8260e4!8m2!3d51.7088512!4d17.9913196!16s%2Fg%2F11px1xk812!19sChIJyybZ-27JGkcR5GCC3QpH3mo?authuser=0&hl=tr&rclk=1",
    "website_url": "",
    "rating_text": "4,7",
    "stars": null,
    "number_of_reviews": null,
    "price_level": "",
    "open_hours": "",
    "extraction_timestamp": "2025-06-07T17:57:19.772Z",
    "source_name": "google",
    "source_query": "Irrigation Equipment",
    "source_country": "PL",
    "country": "Poland",
    "state": "Greater Poland Voivodeship",
    "city": "Skalmierzyce"
  },
  {
    "source_id": "ChIJI3hospLIGkcRIjNDrdw5tVA",
    "name": "Supermarket \"Alf\" Spo≈Çem PSS w Kaliszu",
    "category": "Supermarket \"Alf\" Spo≈Çem PSS w Kaliszu",
    "formatted_address": "3,9(65)",
    "phone_number": "+48625804814",
    "source_url": "https://www.google.com/maps/place/Supermarket+%22Alf%22+Spo%C5%82em+PSS+w+Kaliszu/data=!4m7!3m6!1s0x471ac892b2687823:0x50b539dcad433322!8m2!3d51.7116663!4d17.9949092!16s%2Fg%2F11c4pzmwsm!19sChIJI3hospLIGkcRIjNDrdw5tVA?authuser=0&hl=tr&rclk=1",
    "website_url": "",
    "rating_text": "3,9",
    "stars": null,
    "number_of_reviews": null,
    "price_level": "",
    "open_hours": "",
    "extraction_timestamp": "2025-06-07T17:57:19.772Z",
    "source_name": "google",
    "source_query": "Irrigation Equipment",
    "source_country": "PL",
    "country": "Poland",
    "state": "Greater Poland Voivodeship",
    "city": "Skalmierzyce"
  },
  {
    "source_id": "ChIJUx2cVJPIGkcRnotnBAKiltE",
    "name": "Biedronka",
    "category": "Biedronka",
    "formatted_address": "3,8(716)",
    "phone_number": "+48800080010",
    "source_url": "https://www.google.com/maps/place/Biedronka/data=!4m7!3m6!1s0x471ac893549c1d53:0xd196a20204678b9e!8m2!3d51.7157466!4d17.9978672!16s%2Fg%2F11bw_5h7wj!19sChIJUx2cVJPIGkcRnotnBAKiltE?authuser=0&hl=tr&rclk=1",
    "website_url": "",
    "rating_text": "3,8",
    "stars": null,
    "number_of_reviews": null,
    "price_level": "",
    "open_hours": "",
    "extraction_timestamp": "2025-06-07T17:57:19.773Z",
    "source_name": "google",
    "source_query": "Irrigation Equipment",
    "source_country": "PL",
    "country": "Poland",
    "state": "Greater Poland Voivodeship",
    "city": "Skalmierzyce"
  },
  {
    "source_id": "ChIJsTJBqPLIGkcRL8IGpj-YdgI",
    "name": "Odido",
    "category": "Odido",
    "formatted_address": "4,1(15)",
    "phone_number": "+48501325988",
    "source_url": "https://www.google.com/maps/place/Odido/data=!4m7!3m6!1s0x471ac8f2a84132b1:0x276983fa606c22f!8m2!3d51.7109239!4d17.9937024!16s%2Fg%2F113h9d74s!19sChIJsTJBqPLIGkcRL8IGpj-YdgI?authuser=0&hl=tr&rclk=1",
    "website_url": "",
    "rating_text": "4,1",
    "stars": null,
    "number_of_reviews": null,
    "price_level": "",
    "open_hours": "",
    "extraction_timestamp": "2025-06-07T17:57:19.774Z",
    "source_name": "google",
    "source_query": "Irrigation Equipment",
    "source_country": "PL",
    "country": "Poland",
    "state": "Greater Poland Voivodeship",
    "city": "Skalmierzyce"
  },
  {
    "source_id": "ChIJ69gNfAHJGkcROcXf08rjUMs",
    "name": "Dino",
    "category": "Dino",
    "formatted_address": "4,5(65)",
    "phone_number": "",
    "source_url": "https://www.google.com/maps/place/Dino/data=!4m7!3m6!1s0x471ac9017c0dd8eb:0xcb50e3cad3dfc539!8m2!3d51.700276!4d17.9846348!16s%2Fg%2F11rxsr6zt2!19sChIJ69gNfAHJGkcROcXf08rjUMs?authuser=0&hl=tr&rclk=1",
    "website_url": "",
    "rating_text": "4,5",
    "stars": null,
    "number_of_reviews": null,
    "price_level": "",
    "open_hours": "",
    "extraction_timestamp": "2025-06-07T17:57:19.775Z",
    "source_name": "google",
    "source_query": "Irrigation Equipment",
    "source_country": "PL",
    "country": "Poland",
    "state": "Greater Poland Voivodeship",
    "city": "Skalmierzyce"
  },
  {
    "source_id": "ChIJpxURUu3IGkcRzJ6QLd0gdY4",
    "name": "Sklep motoryzacyjny PH Mir-Mar",
    "category": "Sklep motoryzacyjny PH Mir-Mar",
    "formatted_address": "4,9(17)",
    "phone_number": "+48627621620",
    "source_url": "https://www.google.com/maps/place/Sklep+motoryzacyjny+PH+Mir-Mar/data=!4m7!3m6!1s0x471ac8ed521115a7:0x8e7520dd2d909ecc!8m2!3d51.7114291!4d17.9944929!16s%2Fg%2F1tczp32f!19sChIJpxURUu3IGkcRzJ6QLd0gdY4?authuser=0&hl=tr&rclk=1",
    "website_url": "",
    "rating_text": "4,9",
    "stars": null,
    "number_of_reviews": null,
    "price_level": "",
    "open_hours": "",
    "extraction_timestamp": "2025-06-07T17:57:19.775Z",
    "source_name": "google",
    "source_query": "Irrigation Equipment",
    "source_country": "PL",
    "country": "Poland",
    "state": "Greater Poland Voivodeship",
    "city": "Skalmierzyce"
  },
  {
    "source_id": "ChIJbTjNp_LIGkcRU4kKGJIdyus",
    "name": "Super Market. Sklep wielobran≈ºowy",
    "category": "Super Market. Sklep wielobran≈ºowy",
    "formatted_address": "3,7(3)",
    "phone_number": "+48627621545",
    "source_url": "https://www.google.com/maps/place/Super+Market.+Sklep+wielobran%C5%BCowy/data=!4m7!3m6!1s0x471ac8f2a7cd386d:0xebca1d92180a8953!8m2!3d51.7109011!4d17.9934305!16s%2Fg%2F1tfpyllw!19sChIJbTjNp_LIGkcRU4kKGJIdyus?authuser=0&hl=tr&rclk=1",
    "website_url": "",
    "rating_text": "3,7",
    "stars": null,
    "number_of_reviews": null,
    "price_level": "",
    "open_hours": "",
    "extraction_timestamp": "2025-06-07T17:57:19.776Z",
    "source_name": "google",
    "source_query": "Irrigation Equipment",
    "source_country": "PL",
    "country": "Poland",
    "state": "Greater Poland Voivodeship",
    "city": "Skalmierzyce"
  },
  {
    "source_id": "ChIJw-fPZ4PJGkcRswhdaBBXMRI",
    "name": "Sklep Spo≈ºywczy",
    "category": "Sklep Spo≈ºywczy",
    "formatted_address": "4,5(50)",
    "phone_number": "",
    "source_url": "https://www.google.com/maps/place/Sklep+Spo%C5%BCywczy/data=!4m7!3m6!1s0x471ac98367cfe7c3:0x12315710685d08b3!8m2!3d51.7065609!4d18.0002125!16s%2Fg%2F11f796wg_j!19sChIJw-fPZ4PJGkcRswhdaBBXMRI?authuser=0&hl=tr&rclk=1",
    "website_url": "",
    "rating_text": "4,5",
    "stars": null,
    "number_of_reviews": null,
    "price_level": "",
    "open_hours": "",
    "extraction_timestamp": "2025-06-07T17:57:19.776Z",
    "source_name": "google",
    "source_query": "Irrigation Equipment",
    "source_country": "PL",
    "country": "Poland",
    "state": "Greater Poland Voivodeship",
    "city": "Skalmierzyce"
  },
  {
    "source_id": "ChIJOfs9a4nIGkcRwFaQJqvX7y0",
    "name": "Sklep Spo≈ºywczy - Odido üçÖüçãüçâüçáüçå ü•¶üçûüç∞üç™üç¨ üçπüç∑üçæü•óü•©",
    "category": "Sklep Spo≈ºywczy - Odido üçÖüçãüçâüçáüçå ü•¶üçûüç∞üç™üç¨ üçπüç∑üçæü•óü•©",
    "formatted_address": "4,6(18)",
    "phone_number": "+48502434623",
    "source_url": "https://www.google.com/maps/place/Sklep+Spo%C5%BCywczy+-+Odido+%F0%9F%8D%85%F0%9F%8D%8B%F0%9F%8D%89%F0%9F%8D%87%F0%9F%8D%8C+%F0%9F%A5%A6%F0%9F%8D%9E%F0%9F%8D%B0%F0%9F%8D%AA%F0%9F%8D%AC+%F0%9F%8D%B9%F0%9F%8D%B7%F0%9F%8D%BE%F0%9F%A5%97%F0%9F%A5%A9/data=!4m7!3m6!1s0x471ac8896b3dfb39:0x2defd7ab269056c0!8m2!3d51.7030418!4d17.9993527!16s%2Fg%2F12qf52knb!19sChIJOfs9a4nIGkcRwFaQJqvX7y0?authuser=0&hl=tr&rclk=1",
    "website_url": "",
    "rating_text": "4,6",
    "stars": null,
    "number_of_reviews": null,
    "price_level": "",
    "open_hours": "",
    "extraction_timestamp": "2025-06-07T17:57:19.777Z",
    "source_name": "google",
    "source_query": "Irrigation Equipment",
    "source_country": "PL",
    "country": "Poland",
    "state": "Greater Poland Voivodeship",
    "city": "Skalmierzyce"
  },
  {
    "source_id": "ChIJZQDho_TIGkcREbEJvERcIRo",
    "name": "Vademecum",
    "category": "Vademecum",
    "formatted_address": "5,0(15)",
    "phone_number": "+48627621604",
    "source_url": "https://www.google.com/maps/place/Vademecum/data=!4m7!3m6!1s0x471ac8f4a3e10065:0x1a215c44bc09b111!8m2!3d51.7058116!4d17.9895123!16s%2Fg%2F1tfb59xd!19sChIJZQDho_TIGkcREbEJvERcIRo?authuser=0&hl=tr&rclk=1",
    "website_url": "",
    "rating_text": "5,0",
    "stars": null,
    "number_of_reviews": null,
    "price_level": "",
    "open_hours": "",
    "extraction_timestamp": "2025-06-07T17:57:19.778Z",
    "source_name": "google",
    "source_query": "Irrigation Equipment",
    "source_country": "PL",
    "country": "Poland",
    "state": "Greater Poland Voivodeship",
    "city": "Skalmierzyce"
  },
  {
    "source_id": "ChIJ82e3pr7JGkcRqlDEAzol8fw",
    "name": "Caffe Gelato Park Nowe Skalmierzyce",
    "category": "Caffe Gelato Park Nowe Skalmierzyce",
    "formatted_address": "4,8(167)",
    "phone_number": "+48509908336",
    "source_url": "https://www.google.com/maps/place/Caffe+Gelato+Park+Nowe+Skalmierzyce/data=!4m7!3m6!1s0x471ac9bea6b767f3:0xfcf1253a03c450aa!8m2!3d51.7053943!4d17.9992503!16s%2Fg%2F11h7476m6b!19sChIJ82e3pr7JGkcRqlDEAzol8fw?authuser=0&hl=tr&rclk=1",
    "website_url": "",
    "rating_text": "4,8",
    "stars": null,
    "number_of_reviews": null,
    "price_level": "",
    "open_hours": "",
    "extraction_timestamp": "2025-06-07T17:57:19.779Z",
    "source_name": "google",
    "source_query": "Irrigation Equipment",
    "source_country": "PL",
    "country": "Poland",
    "state": "Greater Poland Voivodeship",
    "city": "Skalmierzyce"
  },
  {
    "source_id": "ChIJfer5NyekGkcRUk6SBoom4gE",
    "name": "Hurtownia hydrauliczna Jolanta Dutkowska",
    "category": "Hurtownia hydrauliczna Jolanta Dutkowska",
    "formatted_address": "4,7(21)",
    "phone_number": "+48510211399",
    "source_url": "https://www.google.com/maps/place/Hurtownia+hydrauliczna+Jolanta+Dutkowska/data=!4m7!3m6!1s0x471aa42737f9ea7d:0x1e2268a06924e52!8m2!3d51.4167467!4d17.9146987!16s%2Fg%2F1vqmh32w!19sChIJfer5NyekGkcRUk6SBoom4gE?authuser=0&hl=tr&rclk=1",
    "website_url": "",
    "rating_text": "4,7",
    "stars": null,
    "number_of_reviews": null,
    "price_level": "",
    "open_hours": "",
    "extraction_timestamp": "2025-06-07T17:57:19.779Z",
    "source_name": "google",
    "source_query": "Irrigation Equipment",
    "source_country": "PL",
    "country": "Poland",
    "state": "Greater Poland Voivodeship",
    "city": "Skalmierzyce"
  },
  {
    "source_id": "ChIJlc9HpiC0xiARzPXuwpcqjVs",
    "name": "Sp√≥≈Çdzielnia Socjalna Zielony Kalisz ‚Äì us≈Çugi ogrodnicze, nawadnianie, zak≈Çadanie ogrod√≥w i prace porzƒÖdkowe dla dom√≥w",
    "category": "Sp√≥≈Çdzielnia Socjalna Zielony Kalisz ‚Äì us≈Çugi ogrodnicze, nawadnianie, zak≈Çadanie ogrod√≥w i prace porzƒÖdkowe dla dom√≥w",
    "formatted_address": "Sp√≥≈Çdzielnia Socjalna Zielony Kalisz ‚Äì us≈Çugi ogrodnicze, nawadnianie, zak≈Çadanie ogrod√≥w i prace porzƒÖdkowe dla dom√≥w",
    "phone_number": "+48512133071",
    "source_url": "https://www.google.com/maps/place/Sp%C3%B3%C5%82dzielnia+Socjalna+Zielony+Kalisz+%E2%80%93+us%C5%82ugi+ogrodnicze,+nawadnianie,+zak%C5%82adanie+ogrod%C3%B3w+i+prace+porz%C4%85dkowe+dla+dom%C3%B3w/data=!4m7!3m6!1s0x20c6b420a647cf95:0x5b8d2a97c2eef5cc!8m2!3d51.7473188!4d18.0760581!16s%2Fg%2F11x163c59p!19sChIJlc9HpiC0xiARzPXuwpcqjVs?authuser=0&hl=tr&rclk=1",
    "website_url": "",
    "rating_text": "5,0",
    "stars": null,
    "number_of_reviews": null,
    "price_level": "",
    "open_hours": "",
    "extraction_timestamp": "2025-06-07T17:57:19.780Z",
    "source_name": "google",
    "source_query": "Irrigation Equipment",
    "source_country": "PL",
    "country": "Poland",
    "state": "Greater Poland Voivodeship",
    "city": "Skalmierzyce"
  },
  {
    "source_id": "ChIJSYuOewW1GkcR_fJ7HyzyUZU",
    "name": "Du-San Technika Grzewcza i Sanitarna N. Dutkowska Sp.j.",
    "category": "Du-San Technika Grzewcza i Sanitarna N. Dutkowska Sp.j.",
    "formatted_address": "4,4(56)",
    "phone_number": "",
    "source_url": "https://www.google.com/maps/place/Du-San+Technika+Grzewcza+i+Sanitarna+N.+Dutkowska+Sp.j./data=!4m7!3m6!1s0x471ab5057b8e8b49:0x9551f22c1f7bf2fd!8m2!3d51.6566034!4d17.7824445!16s%2Fg%2F11h1j8dr7!19sChIJSYuOewW1GkcR_fJ7HyzyUZU?authuser=0&hl=tr&rclk=1",
    "website_url": "",
    "rating_text": "4,4",
    "stars": null,
    "number_of_reviews": null,
    "price_level": "",
    "open_hours": "",
    "extraction_timestamp": "2025-06-07T17:57:19.781Z",
    "source_name": "google",
    "source_query": "Irrigation Equipment",
    "source_country": "PL",
    "country": "Poland",
    "state": "Greater Poland Voivodeship",
    "city": "Skalmierzyce"
  },
  {
    "source_id": "ChIJcSJflMfHGkcR7ic2wQFGW1E",
    "name": "P.B DOBROCH Sp.z.o.o",
    "category": "P.B DOBROCH Sp.z.o.o",
    "formatted_address": "5,0(2)",
    "phone_number": "+48505136574",
    "source_url": "https://www.google.com/maps/place/P.B+DOBROCH+Sp.z.o.o/data=!4m7!3m6!1s0x471ac7c7945f2271:0x515b4601c13627ee!8m2!3d51.7142396!4d18.0821906!16s%2Fg%2F11pysf3s6t!19sChIJcSJflMfHGkcR7ic2wQFGW1E?authuser=0&hl=tr&rclk=1",
    "website_url": "",
    "rating_text": "5,0",
    "stars": null,
    "number_of_reviews": null,
    "price_level": "",
    "open_hours": "",
    "extraction_timestamp": "2025-06-07T17:57:19.781Z",
    "source_name": "google",
    "source_query": "Irrigation Equipment",
    "source_country": "PL",
    "country": "Poland",
    "state": "Greater Poland Voivodeship",
    "city": "Skalmierzyce"
  },
  {
    "source_id": "ChIJSTBKD_K1GkcRKfreWQV6Tg0",
    "name": "SOLSTI - Odnawialne ≈πr√≥d≈Ça Energii",
    "category": "SOLSTI - Odnawialne ≈πr√≥d≈Ça Energii",
    "formatted_address": "5,0(33)",
    "phone_number": "+48798996827",
    "source_url": "https://www.google.com/maps/place/SOLSTI+-+Odnawialne+%C5%B9r%C3%B3d%C5%82a+Energii/data=!4m7!3m6!1s0x471ab5f20f4a3049:0xd4e7a0559defa29!8m2!3d51.6531187!4d17.8215543!16s%2Fg%2F11vbx5htq0!19sChIJSTBKD_K1GkcRKfreWQV6Tg0?authuser=0&hl=tr&rclk=1",
    "website_url": "",
    "rating_text": "5,0",
    "stars": null,
    "number_of_reviews": null,
    "price_level": "",
    "open_hours": "",
    "extraction_timestamp": "2025-06-07T17:57:19.785Z",
    "source_name": "google",
    "source_query": "Irrigation Equipment",
    "source_country": "PL",
    "country": "Poland",
    "state": "Greater Poland Voivodeship",
    "city": "Skalmierzyce"
  },
  {
    "source_id": "ChIJPxAOm5q1GkcRurokjr43GYU",
    "name": "Adventure Park Piaski Szczygliczka",
    "category": "Adventure Park Piaski Szczygliczka",
    "formatted_address": "4,6(1.140)",
    "phone_number": "",
    "source_url": "https://www.google.com/maps/place/Adventure+Park+Piaski+Szczygliczka/data=!4m7!3m6!1s0x471ab59a9b0e103f:0x851937be8e24baba!8m2!3d51.6692029!4d17.8156831!16s%2Fg%2F1q6jzg7nf!19sChIJPxAOm5q1GkcRurokjr43GYU?authuser=0&hl=tr&rclk=1",
    "website_url": "",
    "rating_text": "4,6",
    "stars": null,
    "number_of_reviews": null,
    "price_level": "",
    "open_hours": "",
    "extraction_timestamp": "2025-06-07T17:57:19.787Z",
    "source_name": "google",
    "source_query": "Irrigation Equipment",
    "source_country": "PL",
    "country": "Poland",
    "state": "Greater Poland Voivodeship",
    "city": "Skalmierzyce"
  },
  {
    "source_id": "ChIJk6zIVw_FGkcRlu4FAF0fHXs",
    "name": "KOKOS INSTALACJE hydraulik Kalisz",
    "category": "KOKOS INSTALACJE hydraulik Kalisz",
    "formatted_address": "5,0(52)",
    "phone_number": "+48731869869",
    "source_url": "https://www.google.com/maps/place/KOKOS+INSTALACJE+hydraulik+Kalisz/data=!4m7!3m6!1s0x471ac50f57c8ac93:0x7b1d1f5d0005ee96!8m2!3d51.7695497!4d17.9862631!16s%2Fg%2F11r9p_zr0k!19sChIJk6zIVw_FGkcRlu4FAF0fHXs?authuser=0&hl=tr&rclk=1",
    "website_url": "",
    "rating_text": "5,0",
    "stars": null,
    "number_of_reviews": null,
    "price_level": "",
    "open_hours": "",
    "extraction_timestamp": "2025-06-07T17:57:19.787Z",
    "source_name": "google",
    "source_query": "Irrigation Equipment",
    "source_country": "PL",
    "country": "Poland",
    "state": "Greater Poland Voivodeship",
    "city": "Skalmierzyce"
  },
  {
    "source_id": "ChIJQRrc6NdMBUcR5Vi1qxj_ZE8",
    "name": "VELOX-TRADE",
    "category": "VELOX-TRADE",
    "formatted_address": "5,0(8)",
    "phone_number": "+48724481000",
    "source_url": "https://www.google.com/maps/place/VELOX-TRADE/data=!4m7!3m6!1s0x47054cd7e8dc1a41:0x4f64ff18abb558e5!8m2!3d51.5830926!4d17.6529571!16s%2Fg%2F1v16n_mc!19sChIJQRrc6NdMBUcR5Vi1qxj_ZE8?authuser=0&hl=tr&rclk=1",
    "website_url": "",
    "rating_text": "5,0",
    "stars": null,
    "number_of_reviews": null,
    "price_level": "",
    "open_hours": "",
    "extraction_timestamp": "2025-06-07T17:57:19.788Z",
    "source_name": "google",
    "source_query": "Irrigation Equipment",
    "source_country": "PL",
    "country": "Poland",
    "state": "Greater Poland Voivodeship",
    "city": "Skalmierzyce"
  },
  {
    "source_id": "ChIJEUQSmmEAG0cRKnctjvqhKBM",
    "name": "PHU \"Szwedzi≈Ñski\" Grzegorz Szwedzi≈Ñski",
    "category": "PHU \"Szwedzi≈Ñski\" Grzegorz Szwedzi≈Ñski",
    "formatted_address": "4,4(12)",
    "phone_number": "+48603870692",
    "source_url": "https://www.google.com/maps/place/PHU+%22Szwedzi%C5%84ski%22+Grzegorz+Szwedzi%C5%84ski/data=!4m7!3m6!1s0x471b00619a124411:0x1328a1fa8e2d772a!8m2!3d51.8971523!4d18.921902!16s%2Fg%2F11c1qc0dp0!19sChIJEUQSmmEAG0cRKnctjvqhKBM?authuser=0&hl=tr&rclk=1",
    "website_url": "",
    "rating_text": "4,4",
    "stars": null,
    "number_of_reviews": null,
    "price_level": "",
    "open_hours": "",
    "extraction_timestamp": "2025-06-07T17:57:19.789Z",
    "source_name": "google",
    "source_query": "Irrigation Equipment",
    "source_country": "PL",
    "country": "Poland",
    "state": "Greater Poland Voivodeship",
    "city": "Skalmierzyce"
  },
  {
    "source_id": "ChIJASCJ43ohG0cR0FpINxy2VRU",
    "name": "Szukanie wody pod studnie g≈Çƒôbinowe - Tomografia Elektrooporowa",
    "category": "Szukanie wody pod studnie g≈Çƒôbinowe - Tomografia Elektrooporowa",
    "formatted_address": "4,3(15)",
    "phone_number": "+48601921922",
    "source_url": "https://www.google.com/maps/place/Szukanie+wody+pod+studnie+g%C5%82%C4%99binowe+-+Tomografia+Elektrooporowa/data=!4m7!3m6!1s0x471b217ae3892001:0x1555b61c37485ad0!8m2!3d52.0171712!4d18.4578366!16s%2Fg%2F11g0g_jhzs!19sChIJASCJ43ohG0cR0FpINxy2VRU?authuser=0&hl=tr&rclk=1",
    "website_url": "",
    "rating_text": "4,3",
    "stars": null,
    "number_of_reviews": null,
    "price_level": "",
    "open_hours": "",
    "extraction_timestamp": "2025-06-07T17:57:19.790Z",
    "source_name": "google",
    "source_query": "Irrigation Equipment",
    "source_country": "PL",
    "country": "Poland",
    "state": "Greater Poland Voivodeship",
    "city": "Skalmierzyce"
  },
  {
    "source_id": "ChIJL6WSECc3G0cR0cIZjFQOyyM",
    "name": "Laskowiec. Garden center",
    "category": "Laskowiec. Garden center",
    "formatted_address": "4,6(245)",
    "phone_number": "+48632479236",
    "source_url": "https://www.google.com/maps/place/Laskowiec.+Garden+center/data=!4m7!3m6!1s0x471b37271092a52f:0x23cb0e548c19c2d1!8m2!3d52.2317452!4d18.3177935!16s%2Fg%2F1wk6yj3q!19sChIJL6WSECc3G0cR0cIZjFQOyyM?authuser=0&hl=tr&rclk=1",
    "website_url": "",
    "rating_text": "4,6",
    "stars": null,
    "number_of_reviews": null,
    "price_level": "",
    "open_hours": "",
    "extraction_timestamp": "2025-06-07T17:57:19.791Z",
    "source_name": "google",
    "source_query": "Irrigation Equipment",
    "source_country": "PL",
    "country": "Poland",
    "state": "Greater Poland Voivodeship",
    "city": "Skalmierzyce"
  },
  {
    "source_id": "ChIJQTk7DJrFGkcRgHzDxxrCkso",
    "name": "Artbix",
    "category": "Artbix",
    "formatted_address": "4,8(30)",
    "phone_number": "+48625977562",
    "source_url": "https://www.google.com/maps/place/Artbix/data=!4m7!3m6!1s0x471ac59a0c3b3941:0xca92c21ac7c37c80!8m2!3d51.8135436!4d18.0476822!16s%2Fg%2F1v62gdj0!19sChIJQTk7DJrFGkcRgHzDxxrCkso?authuser=0&hl=tr&rclk=1",
    "website_url": "",
    "rating_text": "4,8",
    "stars": null,
    "number_of_reviews": null,
    "price_level": "",
    "open_hours": "",
    "extraction_timestamp": "2025-06-07T17:57:19.791Z",
    "source_name": "google",
    "source_query": "Irrigation Equipment",
    "source_country": "PL",
    "country": "Poland",
    "state": "Greater Poland Voivodeship",
    "city": "Skalmierzyce"
  }
]
