[
  {
    "source_id": "ChIJ3zIIqKl7BEcRR1ZnqPhbdTM",
    "name": "Winkel - instalacje c.o. • wod kan • gazowe • hydraulik • ogrzewanie podłogowe",
    "category": "Winkel - instalacje c.o. • wod kan • gazowe • hydraulik • ogrzewanie podłogowe",
    "formatted_address": "5,0(13)",
    "phone_number": "+48693578151",
    "source_url": "https://www.google.com/maps/place/Winkel+-+instalacje+c.o.+%E2%80%A2+wod+kan+%E2%80%A2+gazowe+%E2%80%A2+hydraulik+%E2%80%A2+ogrzewanie+pod%C5%82ogowe/data=!4m7!3m6!1s0x47047ba9a80832df:0x33755bf8a8675647!8m2!3d52.6722028!4d17.1590988!16s%2Fg%2F11gxnqdds9!19sChIJ3zIIqKl7BEcRR1ZnqPhbdTM?authuser=0&hl=tr&rclk=1",
    "website_url": "",
    "rating_text": "5,0",
    "stars": null,
    "number_of_reviews": null,
    "price_level": "",
    "open_hours": "",
    "extraction_timestamp": "2025-06-07T17:45:40.239Z",
    "source_name": "google",
    "source_query": "Irrigation Equipment",
    "source_country": "PL",
    "country": "Poland",
    "state": "Greater Poland Voivodeship",
    "city": "Skoki"
  },
  {
    "source_id": "ChIJhzID1TZ7BEcRVvt4o21Wlh4",
    "name": "NOVIKTECH - Instalacje elektryczne i teletechniczne",
    "category": "NOVIKTECH - Instalacje elektryczne i teletechniczne",
    "formatted_address": "4,8(20)",
    "phone_number": "+48726044285",
    "source_url": "https://www.google.com/maps/place/NOVIKTECH+-+Instalacje+elektryczne+i+teletechniczne/data=!4m7!3m6!1s0x47047b36d5033287:0x1e96566da378fb56!8m2!3d52.6765582!4d17.1644501!16s%2Fg%2F11k4m851_4!19sChIJhzID1TZ7BEcRVvt4o21Wlh4?authuser=0&hl=tr&rclk=1",
    "website_url": "http://noviktech.pl/",
    "rating_text": "4,8",
    "stars": null,
    "number_of_reviews": null,
    "price_level": "",
    "open_hours": "",
    "extraction_timestamp": "2025-06-07T17:45:40.240Z",
    "source_name": "google",
    "source_query": "Irrigation Equipment",
    "source_country": "PL",
    "country": "Poland",
    "state": "Greater Poland Voivodeship",
    "city": "Skoki"
  },
  {
    "source_id": "ChIJK9kfbTh4BEcRM3svr3T5R7k",
    "name": "AGROHOSE PRZEWODY HYDRAULICZNE",
    "category": "AGROHOSE PRZEWODY HYDRAULICZNE",
    "formatted_address": "5,0(25)",
    "phone_number": "+48607719861",
    "source_url": "https://www.google.com/maps/place/AGROHOSE+PRZEWODY+HYDRAULICZNE/data=!4m7!3m6!1s0x470478386d1fd92b:0xb947f974af2f7b33!8m2!3d52.800697!4d17.190384!16s%2Fg%2F1ptxrm4wp!19sChIJK9kfbTh4BEcRM3svr3T5R7k?authuser=0&hl=tr&rclk=1",
    "website_url": "http://www.agrohose.pl/",
    "rating_text": "5,0",
    "stars": null,
    "number_of_reviews": null,
    "price_level": "",
    "open_hours": "",
    "extraction_timestamp": "2025-06-07T17:45:40.242Z",
    "source_name": "google",
    "source_query": "Irrigation Equipment",
    "source_country": "PL",
    "country": "Poland",
    "state": "Greater Poland Voivodeship",
    "city": "Skoki"
  },
  {
    "source_id": "ChIJoalaIil7BEcRcY4knEdVYXU",
    "name": "Targowisko Spożywczo - Przemysłowe",
    "category": "Targowisko Spożywczo - Przemysłowe",
    "formatted_address": "4,6(84)",
    "phone_number": "",
    "source_url": "https://www.google.com/maps/place/Targowisko+Spo%C5%BCywczo+-+Przemys%C5%82owe/data=!4m7!3m6!1s0x47047b29225aa9a1:0x756155479c248e71!8m2!3d52.6700685!4d17.1475393!16s%2Fg%2F11c5bgxnr6!19sChIJoalaIil7BEcRcY4knEdVYXU?authuser=0&hl=tr&rclk=1",
    "website_url": "",
    "rating_text": "4,6",
    "stars": null,
    "number_of_reviews": null,
    "price_level": "",
    "open_hours": "",
    "extraction_timestamp": "2025-06-07T17:45:40.244Z",
    "source_name": "google",
    "source_query": "Irrigation Equipment",
    "source_country": "PL",
    "country": "Poland",
    "state": "Greater Poland Voivodeship",
    "city": "Skoki"
  },
  {
    "source_id": "ChIJ9-y03oN7BEcR44RE9alreEk",
    "name": "Ogrodowy Kop - Bartosz Rosin",
    "category": "Ogrodowy Kop - Bartosz Rosin",
    "formatted_address": "5,0(3)",
    "phone_number": "+48665208133",
    "source_url": "https://www.google.com/maps/place/Ogrodowy+Kop+-+Bartosz+Rosin/data=!4m7!3m6!1s0x47047b83deb4ecf7:0x49786ba9f54484e3!8m2!3d52.6653124!4d17.1836706!16s%2Fg%2F11syz94psg!19sChIJ9-y03oN7BEcR44RE9alreEk?authuser=0&hl=tr&rclk=1",
    "website_url": "https://www.facebook.com/Ogrodowy-Kop-Bartosz-Rosin-109922384524327/",
    "rating_text": "5,0",
    "stars": null,
    "number_of_reviews": null,
    "price_level": "",
    "open_hours": "",
    "extraction_timestamp": "2025-06-07T17:45:40.245Z",
    "source_name": "google",
    "source_query": "Irrigation Equipment",
    "source_country": "PL",
    "country": "Poland",
    "state": "Greater Poland Voivodeship",
    "city": "Skoki"
  },
  {
    "source_id": "ChIJUfn2Ig35A0cREW9fZ4029UM",
    "name": "IMTechnika sp. z o.o.",
    "category": "IMTechnika sp. z o.o.",
    "formatted_address": "4,4(17)",
    "phone_number": "+48883820388",
    "source_url": "https://www.google.com/maps/place/IMTechnika+sp.+z+o.o./data=!4m7!3m6!1s0x4703f90d22f6f951:0x43f5368d675f6f11!8m2!3d52.9756271!4d16.657836!16s%2Fg%2F11bw48_6mg!19sChIJUfn2Ig35A0cREW9fZ4029UM?authuser=0&hl=tr&rclk=1",
    "website_url": "http://imtechnika.pl/",
    "rating_text": "4,4",
    "stars": null,
    "number_of_reviews": null,
    "price_level": "",
    "open_hours": "",
    "extraction_timestamp": "2025-06-07T17:45:40.247Z",
    "source_name": "google",
    "source_query": "Irrigation Equipment",
    "source_country": "PL",
    "country": "Poland",
    "state": "Greater Poland Voivodeship",
    "city": "Skoki"
  },
  {
    "source_id": "ChIJWXUBpnF7BEcR3x7ixdEFX8Q",
    "name": "Drogeria Rossmann",
    "category": "Drogeria Rossmann",
    "formatted_address": "4,6(127)",
    "phone_number": "+48426139700",
    "source_url": "https://www.google.com/maps/place/Drogeria+Rossmann/data=!4m7!3m6!1s0x47047b71a6017559:0xc45f05d1c5e21edf!8m2!3d52.6718716!4d17.158141!16s%2Fg%2F11gy4_lrm2!19sChIJWXUBpnF7BEcR3x7ixdEFX8Q?authuser=0&hl=tr&rclk=1",
    "website_url": "https://www.rossmann.pl/",
    "rating_text": "4,6",
    "stars": null,
    "number_of_reviews": null,
    "price_level": "",
    "open_hours": "",
    "extraction_timestamp": "2025-06-07T17:45:40.249Z",
    "source_name": "google",
    "source_query": "Irrigation Equipment",
    "source_country": "PL",
    "country": "Poland",
    "state": "Greater Poland Voivodeship",
    "city": "Skoki"
  },
  {
    "source_id": "ChIJcdhhoC97BEcRgc8ljDTKx_U",
    "name": "Heros. Sklep z AGD i sprzętem RTV",
    "category": "Heros. Sklep z AGD i sprzętem RTV",
    "formatted_address": "4,2(35)",
    "phone_number": "+48509200218",
    "source_url": "https://www.google.com/maps/place/Heros.+Sklep+z+AGD+i+sprz%C4%99tem+RTV/data=!4m7!3m6!1s0x47047b2fa061d871:0xf5c7ca348c25cf81!8m2!3d52.6710946!4d17.154694!16s%2Fg%2F1vj5yxvq!19sChIJcdhhoC97BEcRgc8ljDTKx_U?authuser=0&hl=tr&rclk=1",
    "website_url": "",
    "rating_text": "4,2",
    "stars": null,
    "number_of_reviews": null,
    "price_level": "",
    "open_hours": "",
    "extraction_timestamp": "2025-06-07T17:45:40.250Z",
    "source_name": "google",
    "source_query": "Irrigation Equipment",
    "source_country": "PL",
    "country": "Poland",
    "state": "Greater Poland Voivodeship",
    "city": "Skoki"
  },
  {
    "source_id": "ChIJFVCITOVPBEcRG-lA_g1qlqk",
    "name": "Technika Wody",
    "category": "Technika Wody",
    "formatted_address": "4,6(288)",
    "phone_number": "+48502506622",
    "source_url": "https://www.google.com/maps/place/Technika+Wody/data=!4m7!3m6!1s0x47044fe54c885015:0xa9966a0dfe40e91b!8m2!3d52.3740842!4d16.819808!16s%2Fg%2F11b7vsdjf5!19sChIJFVCITOVPBEcRG-lA_g1qlqk?authuser=0&hl=tr&rclk=1",
    "website_url": "http://technikawody.pl/",
    "rating_text": "4,6",
    "stars": null,
    "number_of_reviews": null,
    "price_level": "",
    "open_hours": "",
    "extraction_timestamp": "2025-06-07T17:45:40.251Z",
    "source_name": "google",
    "source_query": "Irrigation Equipment",
    "source_country": "PL",
    "country": "Poland",
    "state": "Greater Poland Voivodeship",
    "city": "Skoki"
  },
  {
    "source_id": "ChIJb2bP_jt7BEcRaVKqTdT0Fq0",
    "name": "Tina. Minimarket. Jankowski T.",
    "category": "Tina. Minimarket. Jankowski T.",
    "formatted_address": "4,6(50)",
    "phone_number": "+48618124084",
    "source_url": "https://www.google.com/maps/place/Tina.+Minimarket.+Jankowski+T./data=!4m7!3m6!1s0x47047b3bfecf666f:0xad16f4d44daa5269!8m2!3d52.6753798!4d17.1689906!16s%2Fg%2F1vknn219!19sChIJb2bP_jt7BEcRaVKqTdT0Fq0?authuser=0&hl=tr&rclk=1",
    "website_url": "",
    "rating_text": "4,6",
    "stars": null,
    "number_of_reviews": null,
    "price_level": "",
    "open_hours": "",
    "extraction_timestamp": "2025-06-07T17:45:40.252Z",
    "source_name": "google",
    "source_query": "Irrigation Equipment",
    "source_country": "PL",
    "country": "Poland",
    "state": "Greater Poland Voivodeship",
    "city": "Skoki"
  },
  {
    "source_id": "ChIJxbgggvp7BEcRb4HXSpfb01s",
    "name": "Wie Dziecko",
    "category": "Wie Dziecko",
    "formatted_address": "5,0(4)",
    "phone_number": "+48663106413",
    "source_url": "https://www.google.com/maps/place/Wie+Dziecko/data=!4m7!3m6!1s0x47047bfa8220b8c5:0x5bd3db974ad7816f!8m2!3d52.6720963!4d17.1574504!16s%2Fg%2F11qprdm_3h!19sChIJxbgggvp7BEcRb4HXSpfb01s?authuser=0&hl=tr&rclk=1",
    "website_url": "",
    "rating_text": "5,0",
    "stars": null,
    "number_of_reviews": null,
    "price_level": "",
    "open_hours": "",
    "extraction_timestamp": "2025-06-07T17:45:40.253Z",
    "source_name": "google",
    "source_query": "Irrigation Equipment",
    "source_country": "PL",
    "country": "Poland",
    "state": "Greater Poland Voivodeship",
    "city": "Skoki"
  },
  {
    "source_id": "ChIJdy-3alV7BEcRywoACGSSoos",
    "name": "Pepco",
    "category": "Pepco",
    "formatted_address": "4,5(64)",
    "phone_number": "",
    "source_url": "https://www.google.com/maps/place/Pepco/data=!4m7!3m6!1s0x47047b556ab72f77:0x8ba2926408000acb!8m2!3d52.6799533!4d17.1619515!16s%2Fg%2F11rxzg0shn!19sChIJdy-3alV7BEcRywoACGSSoos?authuser=0&hl=tr&rclk=1",
    "website_url": "https://pepco.pl/",
    "rating_text": "4,5",
    "stars": null,
    "number_of_reviews": null,
    "price_level": "",
    "open_hours": "",
    "extraction_timestamp": "2025-06-07T17:45:40.254Z",
    "source_name": "google",
    "source_query": "Irrigation Equipment",
    "source_country": "PL",
    "country": "Poland",
    "state": "Greater Poland Voivodeship",
    "city": "Skoki"
  },
  {
    "source_id": "ChIJJ7pX7yh7BEcRKjFqSO44kwU",
    "name": "Dino",
    "category": "Dino",
    "formatted_address": "4,0(466)",
    "phone_number": "",
    "source_url": "https://www.google.com/maps/place/Dino/data=!4m7!3m6!1s0x47047b28ef57ba27:0x59338ee486a312a!8m2!3d52.671306!4d17.1477559!16s%2Fg%2F11c5s7qzj5!19sChIJJ7pX7yh7BEcRKjFqSO44kwU?authuser=0&hl=tr&rclk=1",
    "website_url": "https://marketdino.pl/",
    "rating_text": "4,0",
    "stars": null,
    "number_of_reviews": null,
    "price_level": "",
    "open_hours": "",
    "extraction_timestamp": "2025-06-07T17:45:40.255Z",
    "source_name": "google",
    "source_query": "Irrigation Equipment",
    "source_country": "PL",
    "country": "Poland",
    "state": "Greater Poland Voivodeship",
    "city": "Skoki"
  },
  {
    "source_id": "ChIJuXUebjt7BEcRbWB8lv_ASWw",
    "name": "Sklep Polski",
    "category": "Sklep Polski",
    "formatted_address": "4,7(7)",
    "phone_number": "",
    "source_url": "https://www.google.com/maps/place/Sklep+Polski/data=!4m7!3m6!1s0x47047b3b6e1e75b9:0x6c49c0ff967c606d!8m2!3d52.6753599!4d17.1641821!16s%2Fg%2F11h84xklgc!19sChIJuXUebjt7BEcRbWB8lv_ASWw?authuser=0&hl=tr&rclk=1",
    "website_url": "",
    "rating_text": "4,7",
    "stars": null,
    "number_of_reviews": null,
    "price_level": "",
    "open_hours": "",
    "extraction_timestamp": "2025-06-07T17:45:40.255Z",
    "source_name": "google",
    "source_query": "Irrigation Equipment",
    "source_country": "PL",
    "country": "Poland",
    "state": "Greater Poland Voivodeship",
    "city": "Skoki"
  },
  {
    "source_id": "ChIJwZmL6DZ7BEcRik9WvGrsDNs",
    "name": "Lewiatan",
    "category": "Lewiatan",
    "formatted_address": "4,4(172)",
    "phone_number": "",
    "source_url": "https://www.google.com/maps/place/Lewiatan/data=!4m7!3m6!1s0x47047b36e88b99c1:0xdb0cec6abc564f8a!8m2!3d52.666981!4d17.166356!16s%2Fg%2F11csq07d1n!19sChIJwZmL6DZ7BEcRik9WvGrsDNs?authuser=0&hl=tr&rclk=1",
    "website_url": "http://www.lewiatan.pl/",
    "rating_text": "4,4",
    "stars": null,
    "number_of_reviews": null,
    "price_level": "",
    "open_hours": "",
    "extraction_timestamp": "2025-06-07T17:45:40.256Z",
    "source_name": "google",
    "source_query": "Irrigation Equipment",
    "source_country": "PL",
    "country": "Poland",
    "state": "Greater Poland Voivodeship",
    "city": "Skoki"
  },
  {
    "source_id": "ChIJMYpwwrp7BEcR4AkU7bUs3xM",
    "name": "Biedronka",
    "category": "Biedronka",
    "formatted_address": "3,9(455)",
    "phone_number": "+48800080010",
    "source_url": "https://www.google.com/maps/place/Biedronka/data=!4m7!3m6!1s0x47047bbac2708a31:0x13df2cb5ed1409e0!8m2!3d52.6795922!4d17.1607729!16s%2Fg%2F11rcfjbwd4!19sChIJMYpwwrp7BEcR4AkU7bUs3xM?authuser=0&hl=tr&rclk=1",
    "website_url": "https://www.biedronka.pl/pl?utm_source=gmb",
    "rating_text": "3,9",
    "stars": null,
    "number_of_reviews": null,
    "price_level": "",
    "open_hours": "",
    "extraction_timestamp": "2025-06-07T17:45:40.257Z",
    "source_name": "google",
    "source_query": "Irrigation Equipment",
    "source_country": "PL",
    "country": "Poland",
    "state": "Greater Poland Voivodeship",
    "city": "Skoki"
  }
]
