[
  {
    "source_id": "ChIJvX1jz4xFG0cRU2qTPrtJhds",
    "name": "SadPol Michał Górczak autoryzowany dealer Stihl Stiga",
    "category": "SadPol Michał Górczak autoryzowany dealer Stihl Stiga",
    "formatted_address": "4,4(45)",
    "phone_number": "+48632614149",
    "source_url": "https://www.google.com/maps/place/SadPol+Micha%C5%82+G%C3%B3rczak+autoryzowany+dealer+Stihl+Stiga/data=!4m7!3m6!1s0x471b458ccf637dbd:0xdb8549bb3e936a53!8m2!3d52.3871619!4d18.4983709!16s%2Fg%2F1tdjvs72!19sChIJvX1jz4xFG0cRU2qTPrtJhds?authuser=0&hl=tr&rclk=1",
    "website_url": "",
    "rating_text": "4,4",
    "stars": null,
    "number_of_reviews": null,
    "price_level": "",
    "open_hours": "",
    "extraction_timestamp": "2025-06-07T17:24:22.228Z",
    "source_name": "google",
    "source_query": "Irrigation Equipment",
    "source_country": "PL",
    "country": "Poland",
    "state": "Greater Poland Voivodeship",
    "city": "Sompolno"
  },
  {
    "source_id": "ChIJdb1jAq9FG0cRq36RuslXCwQ",
    "name": "Hurtownia Hydrauliczna Angelika Andrzejewska",
    "category": "Hurtownia Hydrauliczna Angelika Andrzejewska",
    "formatted_address": "",
    "phone_number": "+48727181432",
    "source_url": "https://www.google.com/maps/place/Hurtownia+Hydrauliczna+Angelika+Andrzejewska/data=!4m7!3m6!1s0x471b45af0263bd75:0x40b57c9ba917eab!8m2!3d52.3873292!4d18.5042911!16s%2Fg%2F11xdwz417z!19sChIJdb1jAq9FG0cRq36RuslXCwQ?authuser=0&hl=tr&rclk=1",
    "website_url": "",
    "rating_text": "",
    "stars": null,
    "number_of_reviews": null,
    "price_level": "",
    "open_hours": "",
    "extraction_timestamp": "2025-06-07T17:24:22.229Z",
    "source_name": "google",
    "source_query": "Irrigation Equipment",
    "source_country": "PL",
    "country": "Poland",
    "state": "Greater Poland Voivodeship",
    "city": "Sompolno"
  },
  {
    "source_id": "ChIJy_NVG-lFG0cRMzPjkYPf84w",
    "name": "SadPol sklep rolniczo-techniczny Powered by Kramp",
    "category": "SadPol sklep rolniczo-techniczny Powered by Kramp",
    "formatted_address": "",
    "phone_number": "+48632614149",
    "source_url": "https://www.google.com/maps/place/SadPol+sklep+rolniczo-techniczny+Powered+by+Kramp/data=!4m7!3m6!1s0x471b45e91b55f3cb:0x8cf3df8391e33333!8m2!3d52.3871627!4d18.4983993!16s%2Fg%2F11kj3mlsg7!19sChIJy_NVG-lFG0cRMzPjkYPf84w?authuser=0&hl=tr&rclk=1",
    "website_url": "",
    "rating_text": "",
    "stars": null,
    "number_of_reviews": null,
    "price_level": "",
    "open_hours": "",
    "extraction_timestamp": "2025-06-07T17:24:22.230Z",
    "source_name": "google",
    "source_query": "Irrigation Equipment",
    "source_country": "PL",
    "country": "Poland",
    "state": "Greater Poland Voivodeship",
    "city": "Sompolno"
  },
  {
    "source_id": "ChIJTUTHEDVPG0cRSOD1QGLRfRo",
    "name": "Kry-weld Spawanie i montaż Krystian Dynak",
    "category": "Kry-weld Spawanie i montaż Krystian Dynak",
    "formatted_address": "5,0(1)",
    "phone_number": "+48784615281",
    "source_url": "https://www.google.com/maps/place/Kry-weld+Spawanie+i+monta%C5%BC+Krystian+Dynak/data=!4m7!3m6!1s0x471b4f3510c7444d:0x1a7dd16240f5e048!8m2!3d52.3819272!4d18.498028!16s%2Fg%2F11kjh53zj7!19sChIJTUTHEDVPG0cRSOD1QGLRfRo?authuser=0&hl=tr&rclk=1",
    "website_url": "",
    "rating_text": "5,0",
    "stars": null,
    "number_of_reviews": null,
    "price_level": "",
    "open_hours": "",
    "extraction_timestamp": "2025-06-07T17:24:22.231Z",
    "source_name": "google",
    "source_query": "Irrigation Equipment",
    "source_country": "PL",
    "country": "Poland",
    "state": "Greater Poland Voivodeship",
    "city": "Sompolno"
  },
  {
    "source_id": "ChIJm61C-YxFG0cR9ot99bMVWZg",
    "name": "POLOmarket",
    "category": "POLOmarket",
    "formatted_address": "4,2(139)",
    "phone_number": "+48518011163",
    "source_url": "https://www.google.com/maps/place/POLOmarket/data=!4m7!3m6!1s0x471b458cf942ad9b:0x985915b3f57d8bf6!8m2!3d52.3884697!4d18.5000594!16s%2Fg%2F11ckw299w2!19sChIJm61C-YxFG0cR9ot99bMVWZg?authuser=0&hl=tr&rclk=1",
    "website_url": "",
    "rating_text": "4,2",
    "stars": null,
    "number_of_reviews": null,
    "price_level": "",
    "open_hours": "",
    "extraction_timestamp": "2025-06-07T17:24:22.232Z",
    "source_name": "google",
    "source_query": "Irrigation Equipment",
    "source_country": "PL",
    "country": "Poland",
    "state": "Greater Poland Voivodeship",
    "city": "Sompolno"
  },
  {
    "source_id": "ChIJLem_X4tFG0cRPNvuyuepkFg",
    "name": "QIK Serwis Grzegorz Kupski",
    "category": "QIK Serwis Grzegorz Kupski",
    "formatted_address": "4,9(53)",
    "phone_number": "+48661870146",
    "source_url": "https://www.google.com/maps/place/QIK+Serwis+Grzegorz+Kupski/data=!4m7!3m6!1s0x471b458b5fbfe92d:0x5890a9e7caeedb3c!8m2!3d52.388098!4d18.4961859!16s%2Fg%2F11c5_r3c2l!19sChIJLem_X4tFG0cRPNvuyuepkFg?authuser=0&hl=tr&rclk=1",
    "website_url": "",
    "rating_text": "4,9",
    "stars": null,
    "number_of_reviews": null,
    "price_level": "",
    "open_hours": "",
    "extraction_timestamp": "2025-06-07T17:24:22.233Z",
    "source_name": "google",
    "source_query": "Irrigation Equipment",
    "source_country": "PL",
    "country": "Poland",
    "state": "Greater Poland Voivodeship",
    "city": "Sompolno"
  },
  {
    "source_id": "ChIJBYgQ22FPG0cRU8oedy4t4m8",
    "name": "Sklep Agrosimex - Sompolno",
    "category": "Sklep Agrosimex - Sompolno",
    "formatted_address": "3,9(9)",
    "phone_number": "+48632714828",
    "source_url": "https://www.google.com/maps/place/Sklep+Agrosimex+-+Sompolno/data=!4m7!3m6!1s0x471b4f61db108805:0x6fe22d2e771eca53!8m2!3d52.3915639!4d18.4894479!16s%2Fg%2F11z72k2d4!19sChIJBYgQ22FPG0cRU8oedy4t4m8?authuser=0&hl=tr&rclk=1",
    "website_url": "",
    "rating_text": "3,9",
    "stars": null,
    "number_of_reviews": null,
    "price_level": "",
    "open_hours": "",
    "extraction_timestamp": "2025-06-07T17:24:22.234Z",
    "source_name": "google",
    "source_query": "Irrigation Equipment",
    "source_country": "PL",
    "country": "Poland",
    "state": "Greater Poland Voivodeship",
    "city": "Sompolno"
  },
  {
    "source_id": "ChIJp_dhco1FG0cRKgvG6mIdqjc",
    "name": "Twój Market",
    "category": "Twój Market",
    "formatted_address": "4,1(189)",
    "phone_number": "+48801555559",
    "source_url": "https://www.google.com/maps/place/Tw%C3%B3j+Market/data=!4m7!3m6!1s0x471b458d7261f7a7:0x37aa1d62eac60b2a!8m2!3d52.3878631!4d18.5027161!16s%2Fg%2F1tw_l_30!19sChIJp_dhco1FG0cRKgvG6mIdqjc?authuser=0&hl=tr&rclk=1",
    "website_url": "",
    "rating_text": "4,1",
    "stars": null,
    "number_of_reviews": null,
    "price_level": "",
    "open_hours": "",
    "extraction_timestamp": "2025-06-07T17:24:22.235Z",
    "source_name": "google",
    "source_query": "Irrigation Equipment",
    "source_country": "PL",
    "country": "Poland",
    "state": "Greater Poland Voivodeship",
    "city": "Sompolno"
  },
  {
    "source_id": "ChIJ2fbI1qReBEcRx2T5pENY9iI",
    "name": "Sowa W. Sklep spożywczo - przemysłowy",
    "category": "Sowa W. Sklep spożywczo - przemysłowy",
    "formatted_address": "5,0(2)",
    "phone_number": "+48632614040",
    "source_url": "https://www.google.com/maps/place/Sowa+W.+Sklep+spo%C5%BCywczo+-+przemys%C5%82owy/data=!4m7!3m6!1s0x47045ea4d6c8f6d9:0x22f65843a4f964c7!8m2!3d52.4087732!4d18.5040731!16s%2Fg%2F1hc1f2k1c!19sChIJ2fbI1qReBEcRx2T5pENY9iI?authuser=0&hl=tr&rclk=1",
    "website_url": "",
    "rating_text": "5,0",
    "stars": null,
    "number_of_reviews": null,
    "price_level": "",
    "open_hours": "",
    "extraction_timestamp": "2025-06-07T17:24:22.236Z",
    "source_name": "google",
    "source_query": "Irrigation Equipment",
    "source_country": "PL",
    "country": "Poland",
    "state": "Greater Poland Voivodeship",
    "city": "Sompolno"
  },
  {
    "source_id": "ChIJ7_UNelNFG0cRfajkOgj8LtQ",
    "name": "Twój Market",
    "category": "Twój Market",
    "formatted_address": "4,3(46)",
    "phone_number": "",
    "source_url": "https://www.google.com/maps/place/Tw%C3%B3j+Market/data=!4m7!3m6!1s0x471b45537a0df5ef:0xd42efc083ae4a87d!8m2!3d52.3877563!4d18.5236166!16s%2Fg%2F11txb_dfnn!19sChIJ7_UNelNFG0cRfajkOgj8LtQ?authuser=0&hl=tr&rclk=1",
    "website_url": "",
    "rating_text": "4,3",
    "stars": null,
    "number_of_reviews": null,
    "price_level": "",
    "open_hours": "",
    "extraction_timestamp": "2025-06-07T17:24:22.236Z",
    "source_name": "google",
    "source_query": "Irrigation Equipment",
    "source_country": "PL",
    "country": "Poland",
    "state": "Greater Poland Voivodeship",
    "city": "Sompolno"
  },
  {
    "source_id": "ChIJq3vs8pNFG0cRPmOlLzro-8Y",
    "name": "Market Dino",
    "category": "Market Dino",
    "formatted_address": "4,3(242)",
    "phone_number": "",
    "source_url": "https://www.google.com/maps/place/Market+Dino/data=!4m7!3m6!1s0x471b4593f2ec7bab:0xc6fbe83a2fa5633e!8m2!3d52.3884282!4d18.5122566!16s%2Fg%2F11b6jkjp0w!19sChIJq3vs8pNFG0cRPmOlLzro-8Y?authuser=0&hl=tr&rclk=1",
    "website_url": "",
    "rating_text": "4,3",
    "stars": null,
    "number_of_reviews": null,
    "price_level": "",
    "open_hours": "",
    "extraction_timestamp": "2025-06-07T17:24:22.237Z",
    "source_name": "google",
    "source_query": "Irrigation Equipment",
    "source_country": "PL",
    "country": "Poland",
    "state": "Greater Poland Voivodeship",
    "city": "Sompolno"
  },
  {
    "source_id": "ChIJy2XeAQBFG0cRzz5aWKDgYbo",
    "name": "MARKOT CAR SERWIS",
    "category": "MARKOT CAR SERWIS",
    "formatted_address": "4,8(16)",
    "phone_number": "+48724037872",
    "source_url": "https://www.google.com/maps/place/MARKOT+CAR+SERWIS/data=!4m7!3m6!1s0x471b450001de65cb:0xba61e0a0585a3ecf!8m2!3d52.3869781!4d18.4977331!16s%2Fg%2F11vsck257q!19sChIJy2XeAQBFG0cRzz5aWKDgYbo?authuser=0&hl=tr&rclk=1",
    "website_url": "",
    "rating_text": "4,8",
    "stars": null,
    "number_of_reviews": null,
    "price_level": "",
    "open_hours": "",
    "extraction_timestamp": "2025-06-07T17:24:22.238Z",
    "source_name": "google",
    "source_query": "Irrigation Equipment",
    "source_country": "PL",
    "country": "Poland",
    "state": "Greater Poland Voivodeship",
    "city": "Sompolno"
  },
  {
    "source_id": "ChIJxwmkD41FG0cRzowIOI6zKHs",
    "name": "MaxElektro Sompolno",
    "category": "MaxElektro Sompolno",
    "formatted_address": "4,5(37)",
    "phone_number": "+48531223913",
    "source_url": "https://www.google.com/maps/place/MaxElektro+Sompolno/data=!4m7!3m6!1s0x471b458d0fa409c7:0x7b28b38e38088cce!8m2!3d52.3887613!4d18.5098125!16s%2Fg%2F11dfj5_y4w!19sChIJxwmkD41FG0cRzowIOI6zKHs?authuser=0&hl=tr&rclk=1",
    "website_url": "",
    "rating_text": "4,5",
    "stars": null,
    "number_of_reviews": null,
    "price_level": "",
    "open_hours": "",
    "extraction_timestamp": "2025-06-07T17:24:22.239Z",
    "source_name": "google",
    "source_query": "Irrigation Equipment",
    "source_country": "PL",
    "country": "Poland",
    "state": "Greater Poland Voivodeship",
    "city": "Sompolno"
  },
  {
    "source_id": "ChIJ-7NcpJNFG0cRu-QSgLjCRCM",
    "name": "Biedronka",
    "category": "Biedronka",
    "formatted_address": "4,1(602)",
    "phone_number": "+48800080010",
    "source_url": "https://www.google.com/maps/place/Biedronka/data=!4m7!3m6!1s0x471b4593a45cb3fb:0x2344c2b88012e4bb!8m2!3d52.3878021!4d18.5100115!16s%2Fg%2F11cjkw8b81!19sChIJ-7NcpJNFG0cRu-QSgLjCRCM?authuser=0&hl=tr&rclk=1",
    "website_url": "",
    "rating_text": "4,1",
    "stars": null,
    "number_of_reviews": null,
    "price_level": "",
    "open_hours": "",
    "extraction_timestamp": "2025-06-07T17:24:22.241Z",
    "source_name": "google",
    "source_query": "Irrigation Equipment",
    "source_country": "PL",
    "country": "Poland",
    "state": "Greater Poland Voivodeship",
    "city": "Sompolno"
  }
]
