[
  {
    "source_id": "ChIJe1zHv1zXGkcRPwHoSWjD1mw",
    "name": "Instalacje Hydrauliczne Mega Instal",
    "category": "Instalacje Hydrauliczne Mega Instal",
    "formatted_address": "4,8(21)",
    "phone_number": "+48796667450",
    "source_url": "https://www.google.com/maps/place/Instalacje+Hydrauliczne+Mega+Instal/data=!4m7!3m6!1s0x471ad75cbfc75c7b:0x6cd6c36849e8013f!8m2!3d51.9180414!4d18.1123126!16s%2Fg%2F11qh8dg9gz!19sChIJe1zHv1zXGkcRPwHoSWjD1mw?authuser=0&hl=tr&rclk=1",
    "website_url": "",
    "rating_text": "4,8",
    "stars": null,
    "number_of_reviews": null,
    "price_level": "",
    "open_hours": "",
    "extraction_timestamp": "2025-06-07T17:16:41.569Z",
    "source_name": "google",
    "source_query": "Irrigation Equipment",
    "source_country": "PL",
    "country": "Poland",
    "state": "Greater Poland Voivodeship",
    "city": "Stawiszyn"
  },
  {
    "source_id": "ChIJhTVXiWbFGkcRWyfYdlxUv8A",
    "name": "Tlen-Spaw s.c.",
    "category": "Tlen-Spaw s.c.",
    "formatted_address": "4,4(47)",
    "phone_number": "+48728970900",
    "source_url": "https://www.google.com/maps/place/Tlen-Spaw+s.c./data=!4m7!3m6!1s0x471ac56689573585:0xc0bf545c76d8275b!8m2!3d51.7892438!4d18.0909312!16s%2Fg%2F1tdr2167!19sChIJhTVXiWbFGkcRWyfYdlxUv8A?authuser=0&hl=tr&rclk=1",
    "website_url": "",
    "rating_text": "4,4",
    "stars": null,
    "number_of_reviews": null,
    "price_level": "",
    "open_hours": "",
    "extraction_timestamp": "2025-06-07T17:16:41.570Z",
    "source_name": "google",
    "source_query": "Irrigation Equipment",
    "source_country": "PL",
    "country": "Poland",
    "state": "Greater Poland Voivodeship",
    "city": "Stawiszyn"
  },
  {
    "source_id": "ChIJB8NA5bLXGkcRv9Vj1dSjMvU",
    "name": "Market Grant",
    "category": "Market Grant",
    "formatted_address": "4,5(69)",
    "phone_number": "",
    "source_url": "https://www.google.com/maps/place/Market+Grant/data=!4m7!3m6!1s0x471ad7b2e540c307:0xf532a3d4d563d5bf!8m2!3d51.9210796!4d18.114879!16s%2Fg%2F11r18nbgg2!19sChIJB8NA5bLXGkcRv9Vj1dSjMvU?authuser=0&hl=tr&rclk=1",
    "website_url": "",
    "rating_text": "4,5",
    "stars": null,
    "number_of_reviews": null,
    "price_level": "",
    "open_hours": "",
    "extraction_timestamp": "2025-06-07T17:16:41.570Z",
    "source_name": "google",
    "source_query": "Irrigation Equipment",
    "source_country": "PL",
    "country": "Poland",
    "state": "Greater Poland Voivodeship",
    "city": "Stawiszyn"
  },
  {
    "source_id": "ChIJS7fHtiPXGkcR4helEQQYJ8M",
    "name": "Pod Zegarem. Sklep monopolowy. Gostyńska D.",
    "category": "Pod Zegarem. Sklep monopolowy. Gostyńska D.",
    "formatted_address": "4,4(17)",
    "phone_number": "+48627529141",
    "source_url": "https://www.google.com/maps/place/Pod+Zegarem.+Sklep+monopolowy.+Gosty%C5%84ska+D./data=!4m7!3m6!1s0x471ad723b6c7b74b:0xc327180411a517e2!8m2!3d51.9186385!4d18.1119073!16s%2Fg%2F1th623h1!19sChIJS7fHtiPXGkcR4helEQQYJ8M?authuser=0&hl=tr&rclk=1",
    "website_url": "",
    "rating_text": "4,4",
    "stars": null,
    "number_of_reviews": null,
    "price_level": "",
    "open_hours": "",
    "extraction_timestamp": "2025-06-07T17:16:41.570Z",
    "source_name": "google",
    "source_query": "Irrigation Equipment",
    "source_country": "PL",
    "country": "Poland",
    "state": "Greater Poland Voivodeship",
    "city": "Stawiszyn"
  },
  {
    "source_id": "ChIJBchYny_XGkcRUUNQrSlyYZQ",
    "name": "Market Dino - Stawiszyn 1",
    "category": "Market Dino - Stawiszyn 1",
    "formatted_address": "4,4(340)",
    "phone_number": "",
    "source_url": "https://www.google.com/maps/place/Market+Dino+-+Stawiszyn+1/data=!4m7!3m6!1s0x471ad72f9f58c805:0x94617229ad504351!8m2!3d51.9099575!4d18.1076426!16s%2Fg%2F11bw4v3dpk!19sChIJBchYny_XGkcRUUNQrSlyYZQ?authuser=0&hl=tr&rclk=1",
    "website_url": "",
    "rating_text": "4,4",
    "stars": null,
    "number_of_reviews": null,
    "price_level": "",
    "open_hours": "",
    "extraction_timestamp": "2025-06-07T17:16:41.570Z",
    "source_name": "google",
    "source_query": "Irrigation Equipment",
    "source_country": "PL",
    "country": "Poland",
    "state": "Greater Poland Voivodeship",
    "city": "Stawiszyn"
  },
  {
    "source_id": "ChIJDbgnsybXGkcRg7qR0xK05mA",
    "name": "Sklep Spożywczy Ewa Maćczak",
    "category": "Sklep Spożywczy Ewa Maćczak",
    "formatted_address": "4,6(30)",
    "phone_number": "",
    "source_url": "https://www.google.com/maps/place/Sklep+Spo%C5%BCywczy+Ewa+Ma%C4%87czak/data=!4m7!3m6!1s0x471ad726b327b80d:0x60e6b412d391ba83!8m2!3d51.9154416!4d18.1082932!16s%2Fg%2F1tgf1zgk!19sChIJDbgnsybXGkcRg7qR0xK05mA?authuser=0&hl=tr&rclk=1",
    "website_url": "",
    "rating_text": "4,6",
    "stars": null,
    "number_of_reviews": null,
    "price_level": "",
    "open_hours": "",
    "extraction_timestamp": "2025-06-07T17:16:41.581Z",
    "source_name": "google",
    "source_query": "Irrigation Equipment",
    "source_country": "PL",
    "country": "Poland",
    "state": "Greater Poland Voivodeship",
    "city": "Stawiszyn"
  },
  {
    "source_id": "ChIJS7fHtiPXGkcRZZwA_csRmuE",
    "name": "Adam s.c. Sklep spożywczo - przemysłowy",
    "category": "Adam s.c. Sklep spożywczo - przemysłowy",
    "formatted_address": "3,7(3)",
    "phone_number": "+48627528037",
    "source_url": "https://www.google.com/maps/place/Adam+s.c.+Sklep+spo%C5%BCywczo+-+przemys%C5%82owy/data=!4m7!3m6!1s0x471ad723b6c7b74b:0xe19a11cbfd009c65!8m2!3d51.9180905!4d18.1122488!16s%2Fg%2F1tnl04fr!19sChIJS7fHtiPXGkcRZZwA_csRmuE?authuser=0&hl=tr&rclk=1",
    "website_url": "",
    "rating_text": "3,7",
    "stars": null,
    "number_of_reviews": null,
    "price_level": "",
    "open_hours": "",
    "extraction_timestamp": "2025-06-07T17:16:41.582Z",
    "source_name": "google",
    "source_query": "Irrigation Equipment",
    "source_country": "PL",
    "country": "Poland",
    "state": "Greater Poland Voivodeship",
    "city": "Stawiszyn"
  },
  {
    "source_id": "ChIJb0FdmSLXGkcRttSy8V71Tj0",
    "name": "Inżynieria Hydrauliczna",
    "category": "Inżynieria Hydrauliczna",
    "formatted_address": "4,6(34)",
    "phone_number": "+48627541621",
    "source_url": "https://www.google.com/maps/place/In%C5%BCynieria+Hydrauliczna/data=!4m7!3m6!1s0x471ad722995d416f:0x3d4ef55ef1b2d4b6!8m2!3d51.953761!4d19.1343692!16s%2Fg%2F11g6rd66ns!19sChIJb0FdmSLXGkcRttSy8V71Tj0?authuser=0&hl=tr&rclk=1",
    "website_url": "",
    "rating_text": "4,6",
    "stars": null,
    "number_of_reviews": null,
    "price_level": "",
    "open_hours": "",
    "extraction_timestamp": "2025-06-07T17:16:41.582Z",
    "source_name": "google",
    "source_query": "Irrigation Equipment",
    "source_country": "PL",
    "country": "Poland",
    "state": "Greater Poland Voivodeship",
    "city": "Stawiszyn"
  }
]
