[
  {
    "source_id": "ChIJl1B0fIjGBEcRTckO-sdgXfM",
    "name": "Hurtownia Instalacyjna Toparma - Technika Grzewcza",
    "category": "Hurtownia Instalacyjna Toparma - Technika Grzewcza",
    "formatted_address": "4,8(25)",
    "phone_number": "",
    "source_url": "https://www.google.com/maps/place/Hurtownia+Instalacyjna+Toparma+-+Technika+Grzewcza/data=!4m7!3m6!1s0x4704c6887c745097:0xf35d60c7fa0ec94d!8m2!3d52.3062089!4d17.8279461!16s%2Fg%2F11fkmzkj61!19sChIJl1B0fIjGBEcRTckO-sdgXfM?authuser=0&hl=tr&rclk=1",
    "website_url": "",
    "rating_text": "4,8",
    "stars": null,
    "number_of_reviews": null,
    "price_level": "",
    "open_hours": "",
    "extraction_timestamp": "2025-06-07T17:30:32.011Z",
    "source_name": "google",
    "source_query": "Irrigation Equipment",
    "source_country": "PL",
    "country": "Poland",
    "state": "Greater Poland Voivodeship",
    "city": "Strzałkowo"
  },
  {
    "source_id": "ChIJlSq8FAjGBEcRJ2q8kSOilU8",
    "name": "ARMASAN Szymon Michalski sp. k.",
    "category": "ARMASAN Szymon Michalski sp. k.",
    "formatted_address": "4,8(29)",
    "phone_number": "+48632756171",
    "source_url": "https://www.google.com/maps/place/ARMASAN+Szymon+Michalski+sp.+k./data=!4m7!3m6!1s0x4704c60814bc2a95:0x4f95a22391bc6a27!8m2!3d52.308373!4d17.8136424!16s%2Fg%2F1tcztncl!19sChIJlSq8FAjGBEcRJ2q8kSOilU8?authuser=0&hl=tr&rclk=1",
    "website_url": "",
    "rating_text": "4,8",
    "stars": null,
    "number_of_reviews": null,
    "price_level": "",
    "open_hours": "",
    "extraction_timestamp": "2025-06-07T17:30:32.014Z",
    "source_name": "google",
    "source_query": "Irrigation Equipment",
    "source_country": "PL",
    "country": "Poland",
    "state": "Greater Poland Voivodeship",
    "city": "Strzałkowo"
  },
  {
    "source_id": "ChIJ71-6G6HHBEcRxut_fBfpGWU",
    "name": "Usługi projektowo-wykonawcze PROMIL, Autoryzowany Partner Bosch Termotechnika",
    "category": "Usługi projektowo-wykonawcze PROMIL, Autoryzowany Partner Bosch Termotechnika",
    "formatted_address": "Usługi projektowo-wykonawcze PROMIL, Autoryzowany Partner Bosch Termotechnika",
    "phone_number": "+48533077424",
    "source_url": "https://www.google.com/maps/place/Us%C5%82ugi+projektowo-wykonawcze+PROMIL,+Autoryzowany+Partner+Bosch+Termotechnika/data=!4m7!3m6!1s0x4704c7a11bba5fef:0x6519e9177c7febc6!8m2!3d52.3191124!4d17.8156202!16s%2Fg%2F11fk3_l7hw!19sChIJ71-6G6HHBEcRxut_fBfpGWU?authuser=0&hl=tr&rclk=1",
    "website_url": "",
    "rating_text": "5,0",
    "stars": null,
    "number_of_reviews": null,
    "price_level": "",
    "open_hours": "",
    "extraction_timestamp": "2025-06-07T17:30:32.016Z",
    "source_name": "google",
    "source_query": "Irrigation Equipment",
    "source_country": "PL",
    "country": "Poland",
    "state": "Greater Poland Voivodeship",
    "city": "Strzałkowo"
  },
  {
    "source_id": "ChIJreQjaIzGBEcRahFfRhvYgqI",
    "name": "SANTERM Technika grzewcza i sanitarna Pompy ciepła Kotły gazowe Wyposażenie łazienek Rekuperacja Klimatyzacja Nawadnianie",
    "category": "SANTERM Technika grzewcza i sanitarna Pompy ciepła Kotły gazowe Wyposażenie łazienek Rekuperacja Klimatyzacja Nawadnianie",
    "formatted_address": "4,6(35)",
    "phone_number": "+48511930206",
    "source_url": "https://www.google.com/maps/place/SANTERM+Technika+grzewcza+i+sanitarna+Pompy+ciep%C5%82a+Kot%C5%82y+gazowe+Wyposa%C5%BCenie+%C5%82azienek+Rekuperacja+Klimatyzacja+Nawadnianie/data=!4m7!3m6!1s0x4704c68c6823e4ad:0xa282d81b465f116a!8m2!3d52.2875088!4d17.9055476!16s%2Fg%2F11c75xvz64!19sChIJreQjaIzGBEcRahFfRhvYgqI?authuser=0&hl=tr&rclk=1",
    "website_url": "",
    "rating_text": "4,6",
    "stars": null,
    "number_of_reviews": null,
    "price_level": "",
    "open_hours": "",
    "extraction_timestamp": "2025-06-07T17:30:32.018Z",
    "source_name": "google",
    "source_query": "Irrigation Equipment",
    "source_country": "PL",
    "country": "Poland",
    "state": "Greater Poland Voivodeship",
    "city": "Strzałkowo"
  },
  {
    "source_id": "ChIJp87loZrGBEcROwsN6SuAUMU",
    "name": "ARMASAN express",
    "category": "ARMASAN express",
    "formatted_address": "4,7(9)",
    "phone_number": "+48531577726",
    "source_url": "https://www.google.com/maps/place/ARMASAN+express/data=!4m7!3m6!1s0x4704c69aa1e5cea7:0xc550802be90d0b3b!8m2!3d52.3099688!4d17.81797!16s%2Fg%2F1hc5h6p02!19sChIJp87loZrGBEcROwsN6SuAUMU?authuser=0&hl=tr&rclk=1",
    "website_url": "",
    "rating_text": "4,7",
    "stars": null,
    "number_of_reviews": null,
    "price_level": "",
    "open_hours": "",
    "extraction_timestamp": "2025-06-07T17:30:32.019Z",
    "source_name": "google",
    "source_query": "Irrigation Equipment",
    "source_country": "PL",
    "country": "Poland",
    "state": "Greater Poland Voivodeship",
    "city": "Strzałkowo"
  },
  {
    "source_id": "ChIJjxD4jhHHBEcRQonas0r_Fiw",
    "name": "Matkowski Centrum Rolniczo-Techniczne",
    "category": "Matkowski Centrum Rolniczo-Techniczne",
    "formatted_address": "4,8(12)",
    "phone_number": "+48735311321",
    "source_url": "https://www.google.com/maps/place/Matkowski+Centrum+Rolniczo-Techniczne/data=!4m7!3m6!1s0x4704c7118ef8108f:0x2c16ff4ab3da8942!8m2!3d52.310054!4d17.813551!16s%2Fg%2F11fkl9rvk8!19sChIJjxD4jhHHBEcRQonas0r_Fiw?authuser=0&hl=tr&rclk=1",
    "website_url": "",
    "rating_text": "4,8",
    "stars": null,
    "number_of_reviews": null,
    "price_level": "",
    "open_hours": "",
    "extraction_timestamp": "2025-06-07T17:30:32.020Z",
    "source_name": "google",
    "source_query": "Irrigation Equipment",
    "source_country": "PL",
    "country": "Poland",
    "state": "Greater Poland Voivodeship",
    "city": "Strzałkowo"
  },
  {
    "source_id": "ChIJe-VwPlrHBEcRCjSFZvi4Tdc",
    "name": "Mobilne Zakuwanie Węży Hydraulicznych Tadeusz Matkowski",
    "category": "Mobilne Zakuwanie Węży Hydraulicznych Tadeusz Matkowski",
    "formatted_address": "5,0(13)",
    "phone_number": "+48602572081",
    "source_url": "https://www.google.com/maps/place/Mobilne+Zakuwanie+W%C4%99%C5%BCy+Hydraulicznych+Tadeusz+Matkowski/data=!4m7!3m6!1s0x4704c75a3e70e57b:0xd74db8f86685340a!8m2!3d52.3043776!4d17.8359111!16s%2Fg%2F11h0msz3kf!19sChIJe-VwPlrHBEcRCjSFZvi4Tdc?authuser=0&hl=tr&rclk=1",
    "website_url": "",
    "rating_text": "5,0",
    "stars": null,
    "number_of_reviews": null,
    "price_level": "",
    "open_hours": "",
    "extraction_timestamp": "2025-06-07T17:30:32.024Z",
    "source_name": "google",
    "source_query": "Irrigation Equipment",
    "source_country": "PL",
    "country": "Poland",
    "state": "Greater Poland Voivodeship",
    "city": "Strzałkowo"
  },
  {
    "source_id": "ChIJ4TbUtZbGBEcRZ-S1-OEJPAE",
    "name": "E-szmaragd, Cis Pośredni, Hicksii, Hilli, Laurowiśnia, Ostrokrzew",
    "category": "E-szmaragd, Cis Pośredni, Hicksii, Hilli, Laurowiśnia, Ostrokrzew",
    "formatted_address": "E-szmaragd, Cis Pośredni, Hicksii, Hilli, Laurowiśnia, Ostrokrzew",
    "phone_number": "+48888358192",
    "source_url": "https://www.google.com/maps/place/E-szmaragd,+Cis+Po%C5%9Bredni,+Hicksii,+Hilli,+Laurowi%C5%9Bnia,+Ostrokrzew/data=!4m7!3m6!1s0x4704c696b5d436e1:0x13c09e1f8b5e467!8m2!3d52.3124765!4d17.8101827!16s%2Fg%2F11hbrnk1vh!19sChIJ4TbUtZbGBEcRZ-S1-OEJPAE?authuser=0&hl=tr&rclk=1",
    "website_url": "",
    "rating_text": "5,0",
    "stars": null,
    "number_of_reviews": null,
    "price_level": "",
    "open_hours": "",
    "extraction_timestamp": "2025-06-07T17:30:32.025Z",
    "source_name": "google",
    "source_query": "Irrigation Equipment",
    "source_country": "PL",
    "country": "Poland",
    "state": "Greater Poland Voivodeship",
    "city": "Strzałkowo"
  },
  {
    "source_id": "ChIJvSvYeKDHBEcR-KLbao3BDOk",
    "name": "Sklep Ogrodowczyk",
    "category": "Sklep Ogrodowczyk",
    "formatted_address": "4,5(54)",
    "phone_number": "",
    "source_url": "https://www.google.com/maps/place/Sklep+Ogrodowczyk/data=!4m7!3m6!1s0x4704c7a078d82bbd:0xe90cc18d6adba2f8!8m2!3d52.316929!4d17.8186031!16s%2Fg%2F11k69mj8pp!19sChIJvSvYeKDHBEcR-KLbao3BDOk?authuser=0&hl=tr&rclk=1",
    "website_url": "",
    "rating_text": "4,5",
    "stars": null,
    "number_of_reviews": null,
    "price_level": "",
    "open_hours": "",
    "extraction_timestamp": "2025-06-07T17:30:32.026Z",
    "source_name": "google",
    "source_query": "Irrigation Equipment",
    "source_country": "PL",
    "country": "Poland",
    "state": "Greater Poland Voivodeship",
    "city": "Strzałkowo"
  },
  {
    "source_id": "ChIJeZgY1xqRBEcRpcLMUkxBkfI",
    "name": "Ha-Two-O Paweł Filipiak",
    "category": "Ha-Two-O Paweł Filipiak",
    "formatted_address": "4,8(101)",
    "phone_number": "+48575579000",
    "source_url": "https://www.google.com/maps/place/Ha-Two-O+Pawe%C5%82+Filipiak/data=!4m7!3m6!1s0x4704911ad7189879:0xf291414c52ccc2a5!8m2!3d52.5491138!4d17.555824!16s%2Fg%2F1x6q0ggt!19sChIJeZgY1xqRBEcRpcLMUkxBkfI?authuser=0&hl=tr&rclk=1",
    "website_url": "",
    "rating_text": "4,8",
    "stars": null,
    "number_of_reviews": null,
    "price_level": "",
    "open_hours": "",
    "extraction_timestamp": "2025-06-07T17:30:32.028Z",
    "source_name": "google",
    "source_query": "Irrigation Equipment",
    "source_country": "PL",
    "country": "Poland",
    "state": "Greater Poland Voivodeship",
    "city": "Strzałkowo"
  },
  {
    "source_id": "ChIJB6y_v5J2HEcRlDfYx3xmc9M",
    "name": "Milex irrigation systems",
    "category": "Milex irrigation systems",
    "formatted_address": "4,6(37)",
    "phone_number": "+48242775222",
    "source_url": "https://www.google.com/maps/place/Milex+irrigation+systems/data=!4m7!3m6!1s0x471c7692bfbfac07:0xd373667cc7d83794!8m2!3d52.4690634!4d19.7520904!16s%2Fg%2F1w2yy67r!19sChIJB6y_v5J2HEcRlDfYx3xmc9M?authuser=0&hl=tr&rclk=1",
    "website_url": "",
    "rating_text": "4,6",
    "stars": null,
    "number_of_reviews": null,
    "price_level": "",
    "open_hours": "",
    "extraction_timestamp": "2025-06-07T17:30:32.029Z",
    "source_name": "google",
    "source_query": "Irrigation Equipment",
    "source_country": "PL",
    "country": "Poland",
    "state": "Greater Poland Voivodeship",
    "city": "Strzałkowo"
  },
  {
    "source_id": "ChIJTYA1O47GBEcRsdkna_Vg5Ug",
    "name": "POLOmarket",
    "category": "POLOmarket",
    "formatted_address": "4,2(384)",
    "phone_number": "+48632132480",
    "source_url": "https://www.google.com/maps/place/POLOmarket/data=!4m7!3m6!1s0x4704c68e3b35804d:0x48e560f56b27d9b1!8m2!3d52.3114332!4d17.8127418!16s%2Fg%2F11bbrgszl_!19sChIJTYA1O47GBEcRsdkna_Vg5Ug?authuser=0&hl=tr&rclk=1",
    "website_url": "",
    "rating_text": "4,2",
    "stars": null,
    "number_of_reviews": null,
    "price_level": "",
    "open_hours": "",
    "extraction_timestamp": "2025-06-07T17:30:32.030Z",
    "source_name": "google",
    "source_query": "Irrigation Equipment",
    "source_country": "PL",
    "country": "Poland",
    "state": "Greater Poland Voivodeship",
    "city": "Strzałkowo"
  },
  {
    "source_id": "ChIJG4bocpDGBEcR1qVhHB-Cbqk",
    "name": "Zielony Dom 24",
    "category": "Zielony Dom 24",
    "formatted_address": "4,8(5)",
    "phone_number": "+48632756932",
    "source_url": "https://www.google.com/maps/place/Zielony+Dom+24/data=!4m7!3m6!1s0x4704c69072e8861b:0xa96e821f1c61a5d6!8m2!3d52.3083908!4d17.8142432!16s%2Fg%2F1tk6tmbl!19sChIJG4bocpDGBEcR1qVhHB-Cbqk?authuser=0&hl=tr&rclk=1",
    "website_url": "",
    "rating_text": "4,8",
    "stars": null,
    "number_of_reviews": null,
    "price_level": "",
    "open_hours": "",
    "extraction_timestamp": "2025-06-07T17:30:32.031Z",
    "source_name": "google",
    "source_query": "Irrigation Equipment",
    "source_country": "PL",
    "country": "Poland",
    "state": "Greater Poland Voivodeship",
    "city": "Strzałkowo"
  },
  {
    "source_id": "ChIJLdV4l5HGBEcRcnUITwByG8o",
    "name": "Biedronka",
    "category": "Biedronka",
    "formatted_address": "4,0(520)",
    "phone_number": "+48800080010",
    "source_url": "https://www.google.com/maps/place/Biedronka/data=!4m7!3m6!1s0x4704c6919778d52d:0xca1b72004f087572!8m2!3d52.3114251!4d17.8153251!16s%2Fg%2F11b5wlx6k0!19sChIJLdV4l5HGBEcRcnUITwByG8o?authuser=0&hl=tr&rclk=1",
    "website_url": "",
    "rating_text": "4,0",
    "stars": null,
    "number_of_reviews": null,
    "price_level": "",
    "open_hours": "",
    "extraction_timestamp": "2025-06-07T17:30:32.032Z",
    "source_name": "google",
    "source_query": "Irrigation Equipment",
    "source_country": "PL",
    "country": "Poland",
    "state": "Greater Poland Voivodeship",
    "city": "Strzałkowo"
  },
  {
    "source_id": "ChIJtU70M5DGBEcRDw7qa4BZffw",
    "name": "Bączkowski & Piasecki s.c. Centrum sprzedaży pasz",
    "category": "Bączkowski & Piasecki s.c. Centrum sprzedaży pasz",
    "formatted_address": "4,8(10)",
    "phone_number": "+48608171295",
    "source_url": "https://www.google.com/maps/place/B%C4%85czkowski+%26+Piasecki+s.c.+Centrum+sprzeda%C5%BCy+pasz/data=!4m7!3m6!1s0x4704c69033f44eb5:0xfc7d59806bea0e0f!8m2!3d52.3136148!4d17.8241007!16s%2Fg%2F1tf_g34l!19sChIJtU70M5DGBEcRDw7qa4BZffw?authuser=0&hl=tr&rclk=1",
    "website_url": "",
    "rating_text": "4,8",
    "stars": null,
    "number_of_reviews": null,
    "price_level": "",
    "open_hours": "",
    "extraction_timestamp": "2025-06-07T17:30:32.033Z",
    "source_name": "google",
    "source_query": "Irrigation Equipment",
    "source_country": "PL",
    "country": "Poland",
    "state": "Greater Poland Voivodeship",
    "city": "Strzałkowo"
  },
  {
    "source_id": "ChIJjbR1NJDGBEcRTcPktPgVdB0",
    "name": "Sklep spożywczy",
    "category": "Sklep spożywczy",
    "formatted_address": "4,3(59)",
    "phone_number": "+48632756013",
    "source_url": "https://www.google.com/maps/place/Sklep+spo%C5%BCywczy/data=!4m7!3m6!1s0x4704c6903475b48d:0x1d7415f8b4e4c34d!8m2!3d52.315368!4d17.8239474!16s%2Fg%2F1tcyw3lh!19sChIJjbR1NJDGBEcRTcPktPgVdB0?authuser=0&hl=tr&rclk=1",
    "website_url": "",
    "rating_text": "4,3",
    "stars": null,
    "number_of_reviews": null,
    "price_level": "",
    "open_hours": "",
    "extraction_timestamp": "2025-06-07T17:30:32.035Z",
    "source_name": "google",
    "source_query": "Irrigation Equipment",
    "source_country": "PL",
    "country": "Poland",
    "state": "Greater Poland Voivodeship",
    "city": "Strzałkowo"
  },
  {
    "source_id": "ChIJGQIiVqLHBEcR--WKMVowY5I",
    "name": "Twój Market",
    "category": "Twój Market",
    "formatted_address": "4,1(66)",
    "phone_number": "+48801555559",
    "source_url": "https://www.google.com/maps/place/Tw%C3%B3j+Market/data=!4m7!3m6!1s0x4704c7a256220219:0x9263305a318ae5fb!8m2!3d52.3112033!4d17.8198253!16s%2Fg%2F11mwrqwmr_!19sChIJGQIiVqLHBEcR--WKMVowY5I?authuser=0&hl=tr&rclk=1",
    "website_url": "",
    "rating_text": "4,1",
    "stars": null,
    "number_of_reviews": null,
    "price_level": "",
    "open_hours": "",
    "extraction_timestamp": "2025-06-07T17:30:32.036Z",
    "source_name": "google",
    "source_query": "Irrigation Equipment",
    "source_country": "PL",
    "country": "Poland",
    "state": "Greater Poland Voivodeship",
    "city": "Strzałkowo"
  },
  {
    "source_id": "ChIJNUyYLUbHBEcRN4VEHFR3oMA",
    "name": "Cars DPF - czyszczenie i regeneracja filtrów DPF, FAP, KAT, SCR",
    "category": "Cars DPF - czyszczenie i regeneracja filtrów DPF, FAP, KAT, SCR",
    "formatted_address": "Cars DPF - czyszczenie i regeneracja filtrów DPF, FAP, KAT, SCR",
    "phone_number": "+48693865644",
    "source_url": "https://www.google.com/maps/place/Cars+DPF+-+czyszczenie+i+regeneracja+filtr%C3%B3w+DPF,+FAP,+KAT,+SCR/data=!4m7!3m6!1s0x4704c7462d984c35:0xc0a077541c448537!8m2!3d52.3134518!4d17.8047237!16s%2Fg%2F11fnyprlm4!19sChIJNUyYLUbHBEcRN4VEHFR3oMA?authuser=0&hl=tr&rclk=1",
    "website_url": "",
    "rating_text": "4,9",
    "stars": null,
    "number_of_reviews": null,
    "price_level": "",
    "open_hours": "",
    "extraction_timestamp": "2025-06-07T17:30:32.037Z",
    "source_name": "google",
    "source_query": "Irrigation Equipment",
    "source_country": "PL",
    "country": "Poland",
    "state": "Greater Poland Voivodeship",
    "city": "Strzałkowo"
  },
  {
    "source_id": "ChIJAVwKNJDGBEcR6G0n7yX1Raw",
    "name": "TWOJA ŁAZIENKA - sklep z wyposażeniem łazienki",
    "category": "TWOJA ŁAZIENKA - sklep z wyposażeniem łazienki",
    "formatted_address": "4,1(8)",
    "phone_number": "+48531577723",
    "source_url": "https://www.google.com/maps/place/TWOJA+%C5%81AZIENKA+-+sklep+z+wyposa%C5%BCeniem+%C5%82azienki/data=!4m7!3m6!1s0x4704c690340a5c01:0xac45f525ef276de8!8m2!3d52.3098782!4d17.8180544!16s%2Fg%2F1tghbvgs!19sChIJAVwKNJDGBEcR6G0n7yX1Raw?authuser=0&hl=tr&rclk=1",
    "website_url": "",
    "rating_text": "4,1",
    "stars": null,
    "number_of_reviews": null,
    "price_level": "",
    "open_hours": "",
    "extraction_timestamp": "2025-06-07T17:30:32.038Z",
    "source_name": "google",
    "source_query": "Irrigation Equipment",
    "source_country": "PL",
    "country": "Poland",
    "state": "Greater Poland Voivodeship",
    "city": "Strzałkowo"
  },
  {
    "source_id": "ChIJM8Pt2pbGBEcRV7XXg7dNl0I",
    "name": "Sklep Hurtownia Gościniak Motoryzacyjna",
    "category": "Sklep Hurtownia Gościniak Motoryzacyjna",
    "formatted_address": "4,8(57)",
    "phone_number": "+48632750959",
    "source_url": "https://www.google.com/maps/place/Sklep+Hurtownia+Go%C5%9Bciniak+Motoryzacyjna/data=!4m7!3m6!1s0x4704c696daedc333:0x42974db783d7b557!8m2!3d52.3119675!4d17.8093612!16s%2Fg%2F11j4t6ls_2!19sChIJM8Pt2pbGBEcRV7XXg7dNl0I?authuser=0&hl=tr&rclk=1",
    "website_url": "",
    "rating_text": "4,8",
    "stars": null,
    "number_of_reviews": null,
    "price_level": "",
    "open_hours": "",
    "extraction_timestamp": "2025-06-07T17:30:32.039Z",
    "source_name": "google",
    "source_query": "Irrigation Equipment",
    "source_country": "PL",
    "country": "Poland",
    "state": "Greater Poland Voivodeship",
    "city": "Strzałkowo"
  },
  {
    "source_id": "ChIJozOhgQXGBEcRjPwqJnp1WSc",
    "name": "Bricomarché",
    "category": "Bricomarché",
    "formatted_address": "4,1(1.002)",
    "phone_number": "+48633067020",
    "source_url": "https://www.google.com/maps/place/Bricomarch%C3%A9/data=!4m7!3m6!1s0x4704c60581a133a3:0x2759757a262afc8c!8m2!3d52.2968856!4d17.8744814!16s%2Fg%2F11byyr79cm!19sChIJozOhgQXGBEcRjPwqJnp1WSc?authuser=0&hl=tr&rclk=1",
    "website_url": "",
    "rating_text": "4,1",
    "stars": null,
    "number_of_reviews": null,
    "price_level": "",
    "open_hours": "",
    "extraction_timestamp": "2025-06-07T17:30:32.041Z",
    "source_name": "google",
    "source_query": "Irrigation Equipment",
    "source_country": "PL",
    "country": "Poland",
    "state": "Greater Poland Voivodeship",
    "city": "Strzałkowo"
  },
  {
    "source_id": "ChIJR04HprOiBEcRimDlaVeaHjg",
    "name": "HYDROART GACA SP. With O.O.",
    "category": "HYDROART GACA SP. With O.O.",
    "formatted_address": "4,5(394)",
    "phone_number": "+48614282710",
    "source_url": "https://www.google.com/maps/place/HYDROART+GACA+SP.+With+O.O./data=!4m7!3m6!1s0x4704a2b3a6074e47:0x381e9a5769e5608a!8m2!3d52.5625604!4d17.824335!16s%2Fg%2F1td3k900!19sChIJR04HprOiBEcRimDlaVeaHjg?authuser=0&hl=tr&rclk=1",
    "website_url": "",
    "rating_text": "4,5",
    "stars": null,
    "number_of_reviews": null,
    "price_level": "",
    "open_hours": "",
    "extraction_timestamp": "2025-06-07T17:30:32.070Z",
    "source_name": "google",
    "source_query": "Irrigation Equipment",
    "source_country": "PL",
    "country": "Poland",
    "state": "Greater Poland Voivodeship",
    "city": "Strzałkowo"
  },
  {
    "source_id": "ChIJq3ZuChspzY0RlAcbMNY5mRg",
    "name": "PODLEWAMY24.pl",
    "category": "PODLEWAMY24.pl",
    "formatted_address": "5,0(43)",
    "phone_number": "+48509215271",
    "source_url": "https://www.google.com/maps/place/PODLEWAMY24.pl/data=!4m7!3m6!1s0x8dcd291b0a6e76ab:0x189939d6301b0794!8m2!3d52.2778206!4d16.9790131!16s%2Fg%2F11rhfnnqkx!19sChIJq3ZuChspzY0RlAcbMNY5mRg?authuser=0&hl=tr&rclk=1",
    "website_url": "",
    "rating_text": "5,0",
    "stars": null,
    "number_of_reviews": null,
    "price_level": "",
    "open_hours": "",
    "extraction_timestamp": "2025-06-07T17:30:32.072Z",
    "source_name": "google",
    "source_query": "Irrigation Equipment",
    "source_country": "PL",
    "country": "Poland",
    "state": "Greater Poland Voivodeship",
    "city": "Strzałkowo"
  },
  {
    "source_id": "ChIJl9-n4q0YG0cRbSCSGpNbgwg",
    "name": "Pet shop - Dizelka",
    "category": "Pet shop - Dizelka",
    "formatted_address": "4,8(135)",
    "phone_number": "+48509524573",
    "source_url": "https://www.google.com/maps/place/Pet+shop+-+Dizelka/data=!4m7!3m6!1s0x471b18ade2a7df97:0x8835b931a92206d!8m2!3d52.015674!4d18.513771!16s%2Fg%2F1tgf1zgp!19sChIJl9-n4q0YG0cRbSCSGpNbgwg?authuser=0&hl=tr&rclk=1",
    "website_url": "",
    "rating_text": "4,8",
    "stars": null,
    "number_of_reviews": null,
    "price_level": "",
    "open_hours": "",
    "extraction_timestamp": "2025-06-07T17:30:32.073Z",
    "source_name": "google",
    "source_query": "Irrigation Equipment",
    "source_country": "PL",
    "country": "Poland",
    "state": "Greater Poland Voivodeship",
    "city": "Strzałkowo"
  },
  {
    "source_id": "ChIJxZTSQBWhBEcRF4aeNWXNi-w",
    "name": "Gardenbaum - Kompleksowe usługi ogrodnicze",
    "category": "Gardenbaum - Kompleksowe usługi ogrodnicze",
    "formatted_address": "5,0(7)",
    "phone_number": "+48575437261",
    "source_url": "https://www.google.com/maps/place/Gardenbaum+-+Kompleksowe+us%C5%82ugi+ogrodnicze/data=!4m7!3m6!1s0x4704a11540d294c5:0xec8bcd65359e8617!8m2!3d52.668365!4d17.9625112!16s%2Fg%2F11mwyx6wz6!19sChIJxZTSQBWhBEcRF4aeNWXNi-w?authuser=0&hl=tr&rclk=1",
    "website_url": "",
    "rating_text": "5,0",
    "stars": null,
    "number_of_reviews": null,
    "price_level": "",
    "open_hours": "",
    "extraction_timestamp": "2025-06-07T17:30:32.074Z",
    "source_name": "google",
    "source_query": "Irrigation Equipment",
    "source_country": "PL",
    "country": "Poland",
    "state": "Greater Poland Voivodeship",
    "city": "Strzałkowo"
  },
  {
    "source_id": "ChIJffc7vv3FBEcRguCO5nJFPlE",
    "name": "Galeria Ostrowski Katarzyna Przybylska",
    "category": "Galeria Ostrowski Katarzyna Przybylska",
    "formatted_address": "4,8(33)",
    "phone_number": "+48609296335",
    "source_url": "https://www.google.com/maps/place/Galeria+Ostrowski+Katarzyna+Przybylska/data=!4m7!3m6!1s0x4704c5fdbe3bf77d:0x513e4572e68ee082!8m2!3d52.2862249!4d17.8739662!16s%2Fg%2F11fkmzdj70!19sChIJffc7vv3FBEcRguCO5nJFPlE?authuser=0&hl=tr&rclk=1",
    "website_url": "",
    "rating_text": "4,8",
    "stars": null,
    "number_of_reviews": null,
    "price_level": "",
    "open_hours": "",
    "extraction_timestamp": "2025-06-07T17:30:32.074Z",
    "source_name": "google",
    "source_query": "Irrigation Equipment",
    "source_country": "PL",
    "country": "Poland",
    "state": "Greater Poland Voivodeship",
    "city": "Strzałkowo"
  },
  {
    "source_id": "ChIJQaAR7D37BEcRBa5PF0ULYcE",
    "name": "TEST Łukasz i Grzegorz Kiełbowicz sp. j",
    "category": "TEST Łukasz i Grzegorz Kiełbowicz sp. j",
    "formatted_address": "4,9(75)",
    "phone_number": "+48508635200",
    "source_url": "https://www.google.com/maps/place/TEST+%C5%81ukasz+i+Grzegorz+Kie%C5%82bowicz+sp.+j/data=!4m7!3m6!1s0x4704fb3dec11a041:0xc1610b45174fae05!8m2!3d52.5658269!4d17.6143399!16s%2Fg%2F1twyy791!19sChIJQaAR7D37BEcRBa5PF0ULYcE?authuser=0&hl=tr&rclk=1",
    "website_url": "",
    "rating_text": "4,9",
    "stars": null,
    "number_of_reviews": null,
    "price_level": "",
    "open_hours": "",
    "extraction_timestamp": "2025-06-07T17:30:32.075Z",
    "source_name": "google",
    "source_query": "Irrigation Equipment",
    "source_country": "PL",
    "country": "Poland",
    "state": "Greater Poland Voivodeship",
    "city": "Strzałkowo"
  },
  {
    "source_id": "ChIJdble513pBEcROFPvnv7aBYU",
    "name": "Group Zieliński",
    "category": "Group Zieliński",
    "formatted_address": "5,0(4)",
    "phone_number": "+48664276388",
    "source_url": "https://www.google.com/maps/place/Group+Zieli%C5%84ski/data=!4m7!3m6!1s0x4704e95de75eb975:0x8505dafe9eef5338!8m2!3d52.331963!4d17.54874!16s%2Fg%2F1ptwb8nvq!19sChIJdble513pBEcROFPvnv7aBYU?authuser=0&hl=tr&rclk=1",
    "website_url": "",
    "rating_text": "5,0",
    "stars": null,
    "number_of_reviews": null,
    "price_level": "",
    "open_hours": "",
    "extraction_timestamp": "2025-06-07T17:30:32.076Z",
    "source_name": "google",
    "source_query": "Irrigation Equipment",
    "source_country": "PL",
    "country": "Poland",
    "state": "Greater Poland Voivodeship",
    "city": "Strzałkowo"
  }
]
