[
  {
    "source_id": "ChIJVztTxwBMBEcRr_EcKEsGwDU",
    "name": "Equipment Service Witold Latosik",
    "category": "Equipment Service Witold Latosik",
    "formatted_address": "4,8(6)",
    "phone_number": "+48575676222",
    "source_url": "https://www.google.com/maps/place/Equipment+Service+Witold+Latosik/data=!4m7!3m6!1s0x47044c00c7533b57:0x35c0064b281cf1af!8m2!3d52.2784614!4d16.7064989!16s%2Fg%2F11h0vq39jk!19sChIJVztTxwBMBEcRr_EcKEsGwDU?authuser=0&hl=tr&rclk=1",
    "website_url": "",
    "rating_text": "4,8",
    "stars": null,
    "number_of_reviews": null,
    "price_level": "",
    "open_hours": "",
    "extraction_timestamp": "2025-06-07T17:29:06.808Z",
    "source_name": "google",
    "source_query": "Irrigation Equipment",
    "source_country": "PL",
    "country": "Poland",
    "state": "Greater Poland Voivodeship",
    "city": "Stęszew"
  },
  {
    "source_id": "ChIJG4PssvBLBEcRu9GjF2iaoKw",
    "name": "AGROTECH Robert Szczerbowski Ryszard Dybionka",
    "category": "AGROTECH Robert Szczerbowski Ryszard Dybionka",
    "formatted_address": "4,8(8)",
    "phone_number": "+48608359028",
    "source_url": "https://www.google.com/maps/place/AGROTECH+Robert+Szczerbowski+Ryszard+Dybionka/data=!4m7!3m6!1s0x47044bf0b2ec831b:0xaca09a6817a3d1bb!8m2!3d52.278847!4d16.689665!16s%2Fg%2F11csbtfp6x!19sChIJG4PssvBLBEcRu9GjF2iaoKw?authuser=0&hl=tr&rclk=1",
    "website_url": "",
    "rating_text": "4,8",
    "stars": null,
    "number_of_reviews": null,
    "price_level": "",
    "open_hours": "",
    "extraction_timestamp": "2025-06-07T17:29:06.808Z",
    "source_name": "google",
    "source_query": "Irrigation Equipment",
    "source_country": "PL",
    "country": "Poland",
    "state": "Greater Poland Voivodeship",
    "city": "Stęszew"
  },
  {
    "source_id": "ChIJ31x5nPZLBEcRK548eGcy7PY",
    "name": "EMAL - PIASK Usługi szklarskie, waterjet - cięcie wodą, liternictwo nagrobkowe, piaskowanie",
    "category": "EMAL - PIASK Usługi szklarskie, waterjet - cięcie wodą, liternictwo nagrobkowe, piaskowanie",
    "formatted_address": "EMAL - PIASK Usługi szklarskie, waterjet - cięcie wodą, liternictwo nagrobkowe, piaskowanie",
    "phone_number": "+48602124190",
    "source_url": "https://www.google.com/maps/place/EMAL+-+PIASK+Us%C5%82ugi+szklarskie,+waterjet+-+ci%C4%99cie+wod%C4%85,+liternictwo+nagrobkowe,+piaskowanie/data=!4m7!3m6!1s0x47044bf69c795cdf:0xf6ec3267783c9e2b!8m2!3d52.2746276!4d16.6900634!16s%2Fg%2F1tfhy8yy!19sChIJ31x5nPZLBEcRK548eGcy7PY?authuser=0&hl=tr&rclk=1",
    "website_url": "",
    "rating_text": "4,9",
    "stars": null,
    "number_of_reviews": null,
    "price_level": "",
    "open_hours": "",
    "extraction_timestamp": "2025-06-07T17:29:06.809Z",
    "source_name": "google",
    "source_query": "Irrigation Equipment",
    "source_country": "PL",
    "country": "Poland",
    "state": "Greater Poland Voivodeship",
    "city": "Stęszew"
  },
  {
    "source_id": "ChIJxeag9g9MBEcRlnPdax-trrU",
    "name": "Majchrzakowie Instalacje",
    "category": "Majchrzakowie Instalacje",
    "formatted_address": "5,0(1)",
    "phone_number": "+48664010231",
    "source_url": "https://www.google.com/maps/place/Majchrzakowie+Instalacje/data=!4m7!3m6!1s0x47044c0ff6a0e6c5:0xb5aead1f6bdd7396!8m2!3d52.276244!4d16.711077!16s%2Fg%2F11h48w9yty!19sChIJxeag9g9MBEcRlnPdax-trrU?authuser=0&hl=tr&rclk=1",
    "website_url": "",
    "rating_text": "5,0",
    "stars": null,
    "number_of_reviews": null,
    "price_level": "",
    "open_hours": "",
    "extraction_timestamp": "2025-06-07T17:29:06.810Z",
    "source_name": "google",
    "source_query": "Irrigation Equipment",
    "source_country": "PL",
    "country": "Poland",
    "state": "Greater Poland Voivodeship",
    "city": "Stęszew"
  },
  {
    "source_id": "ChIJWaaHoQVMBEcR-iEjsb94qSg",
    "name": "CENTRUM INSTALACYJNE wod.kan i c.o.-USŁUGI HYDRAULICZNE-Doradztwo HAŁAS Wojciech",
    "category": "CENTRUM INSTALACYJNE wod.kan i c.o.-USŁUGI HYDRAULICZNE-Doradztwo HAŁAS Wojciech",
    "formatted_address": "2,6(5)",
    "phone_number": "+48618135769",
    "source_url": "https://www.google.com/maps/place/CENTRUM+INSTALACYJNE+wod.kan+i+c.o.-US%C5%81UGI+HYDRAULICZNE-Doradztwo+HA%C5%81AS+Wojciech/data=!4m7!3m6!1s0x47044c05a187a659:0x28a978bfb12321fa!8m2!3d52.2800189!4d16.70709!16s%2Fg%2F1hc180hc1!19sChIJWaaHoQVMBEcR-iEjsb94qSg?authuser=0&hl=tr&rclk=1",
    "website_url": "",
    "rating_text": "2,6",
    "stars": null,
    "number_of_reviews": null,
    "price_level": "",
    "open_hours": "",
    "extraction_timestamp": "2025-06-07T17:29:06.811Z",
    "source_name": "google",
    "source_query": "Irrigation Equipment",
    "source_country": "PL",
    "country": "Poland",
    "state": "Greater Poland Voivodeship",
    "city": "Stęszew"
  },
  {
    "source_id": "ChIJrwP-lflLBEcReKnR3Tz5Pz8",
    "name": "Centrum Ogrodnicze",
    "category": "Centrum Ogrodnicze",
    "formatted_address": "4,3(100)",
    "phone_number": "+48724666862",
    "source_url": "https://www.google.com/maps/place/Centrum+Ogrodnicze/data=!4m7!3m6!1s0x47044bf995fe03af:0x3f3ff93cddd1a978!8m2!3d52.2807908!4d16.6931116!16s%2Fg%2F1q67fkyr_!19sChIJrwP-lflLBEcReKnR3Tz5Pz8?authuser=0&hl=tr&rclk=1",
    "website_url": "",
    "rating_text": "4,3",
    "stars": null,
    "number_of_reviews": null,
    "price_level": "",
    "open_hours": "",
    "extraction_timestamp": "2025-06-07T17:29:06.812Z",
    "source_name": "google",
    "source_query": "Irrigation Equipment",
    "source_country": "PL",
    "country": "Poland",
    "state": "Greater Poland Voivodeship",
    "city": "Stęszew"
  },
  {
    "source_id": "ChIJ3_d3lQdMBEcRRt3sv08XUTM",
    "name": "Fransja Elegansja",
    "category": "Fransja Elegansja",
    "formatted_address": "5,0(75)",
    "phone_number": "+48512243450",
    "source_url": "https://www.google.com/maps/place/Fransja+Elegansja/data=!4m7!3m6!1s0x47044c079577f7df:0x3351174fbfecdd46!8m2!3d52.2784724!4d16.6985584!16s%2Fg%2F11fp1s_2qd!19sChIJ3_d3lQdMBEcRRt3sv08XUTM?authuser=0&hl=tr&rclk=1",
    "website_url": "",
    "rating_text": "5,0",
    "stars": null,
    "number_of_reviews": null,
    "price_level": "",
    "open_hours": "",
    "extraction_timestamp": "2025-06-07T17:29:06.812Z",
    "source_name": "google",
    "source_query": "Irrigation Equipment",
    "source_country": "PL",
    "country": "Poland",
    "state": "Greater Poland Voivodeship",
    "city": "Stęszew"
  },
  {
    "source_id": "ChIJDx2R8hVNBEcRXwEKRQSfjfc",
    "name": "Przedsiębiorstwo Wielobranżowe Elpropo - Usługi elektryczne",
    "category": "Przedsiębiorstwo Wielobranżowe Elpropo - Usługi elektryczne",
    "formatted_address": "5,0(1)",
    "phone_number": "+48728997266",
    "source_url": "https://www.google.com/maps/place/Przedsi%C4%99biorstwo+Wielobran%C5%BCowe+Elpropo+-+Us%C5%82ugi+elektryczne/data=!4m7!3m6!1s0x47044d15f2911d0f:0xf78d9f04450a015f!8m2!3d52.280152!4d16.6998001!16s%2Fg%2F11k3mcbpm6!19sChIJDx2R8hVNBEcRXwEKRQSfjfc?authuser=0&hl=tr&rclk=1",
    "website_url": "",
    "rating_text": "5,0",
    "stars": null,
    "number_of_reviews": null,
    "price_level": "",
    "open_hours": "",
    "extraction_timestamp": "2025-06-07T17:29:06.813Z",
    "source_name": "google",
    "source_query": "Irrigation Equipment",
    "source_country": "PL",
    "country": "Poland",
    "state": "Greater Poland Voivodeship",
    "city": "Stęszew"
  },
  {
    "source_id": "ChIJ7a_t9u9LBEcRWgJ61BwT3mY",
    "name": "Woka. PHU. Kaczmarek J.",
    "category": "Woka. PHU. Kaczmarek J.",
    "formatted_address": "4,7(171)",
    "phone_number": "+48618135741",
    "source_url": "https://www.google.com/maps/place/Woka.+PHU.+Kaczmarek+J./data=!4m7!3m6!1s0x47044beff6edafed:0x66de131cd47a025a!8m2!3d52.2808858!4d16.6825626!16s%2Fg%2F1vd3th97!19sChIJ7a_t9u9LBEcRWgJ61BwT3mY?authuser=0&hl=tr&rclk=1",
    "website_url": "",
    "rating_text": "4,7",
    "stars": null,
    "number_of_reviews": null,
    "price_level": "",
    "open_hours": "",
    "extraction_timestamp": "2025-06-07T17:29:06.814Z",
    "source_name": "google",
    "source_query": "Irrigation Equipment",
    "source_country": "PL",
    "country": "Poland",
    "state": "Greater Poland Voivodeship",
    "city": "Stęszew"
  },
  {
    "source_id": "ChIJV345velNBEcRoVLr9Q9II1I",
    "name": "Euromed sklep medyczny",
    "category": "Euromed sklep medyczny",
    "formatted_address": "5,0(22)",
    "phone_number": "+48799099793",
    "source_url": "https://www.google.com/maps/place/Euromed+sklep+medyczny/data=!4m7!3m6!1s0x47044de9bd397e57:0x5223480ff5eb52a1!8m2!3d52.280639!4d16.7033449!16s%2Fg%2F11wnndm9n5!19sChIJV345velNBEcRoVLr9Q9II1I?authuser=0&hl=tr&rclk=1",
    "website_url": "",
    "rating_text": "5,0",
    "stars": null,
    "number_of_reviews": null,
    "price_level": "",
    "open_hours": "",
    "extraction_timestamp": "2025-06-07T17:29:06.814Z",
    "source_name": "google",
    "source_query": "Irrigation Equipment",
    "source_country": "PL",
    "country": "Poland",
    "state": "Greater Poland Voivodeship",
    "city": "Stęszew"
  },
  {
    "source_id": "ChIJpU_Hg2ZLBEcRHWOTp77DtEA",
    "name": "DRINKS | sklep monopolowy",
    "category": "DRINKS | sklep monopolowy",
    "formatted_address": "5,0(10)",
    "phone_number": "+48512049908",
    "source_url": "https://www.google.com/maps/place/DRINKS+%7C+sklep+monopolowy/data=!4m7!3m6!1s0x47044b6683c74fa5:0x40b4c3bea793631d!8m2!3d52.2776956!4d16.6925071!16s%2Fg%2F11y7jkv3kf!19sChIJpU_Hg2ZLBEcRHWOTp77DtEA?authuser=0&hl=tr&rclk=1",
    "website_url": "",
    "rating_text": "5,0",
    "stars": null,
    "number_of_reviews": null,
    "price_level": "",
    "open_hours": "",
    "extraction_timestamp": "2025-06-07T17:29:06.815Z",
    "source_name": "google",
    "source_query": "Irrigation Equipment",
    "source_country": "PL",
    "country": "Poland",
    "state": "Greater Poland Voivodeship",
    "city": "Stęszew"
  },
  {
    "source_id": "ChIJp7AFjAZMBEcRU6qrldQqJrk",
    "name": "Wodnik. Sklep spożywczo - przemysłowy",
    "category": "Wodnik. Sklep spożywczo - przemysłowy",
    "formatted_address": "5,0(1)",
    "phone_number": "+48618135806",
    "source_url": "https://www.google.com/maps/place/Wodnik.+Sklep+spo%C5%BCywczo+-+przemys%C5%82owy/data=!4m7!3m6!1s0x47044c068c05b0a7:0xb9262ad495abaa53!8m2!3d52.2804622!4d16.7055216!16s%2Fg%2F1xpwhgy5!19sChIJp7AFjAZMBEcRU6qrldQqJrk?authuser=0&hl=tr&rclk=1",
    "website_url": "",
    "rating_text": "5,0",
    "stars": null,
    "number_of_reviews": null,
    "price_level": "",
    "open_hours": "",
    "extraction_timestamp": "2025-06-07T17:29:06.816Z",
    "source_name": "google",
    "source_query": "Irrigation Equipment",
    "source_country": "PL",
    "country": "Poland",
    "state": "Greater Poland Voivodeship",
    "city": "Stęszew"
  },
  {
    "source_id": "ChIJuek_AgdMBEcR0PwKethqr24",
    "name": "Melba Chata Polska sklep spożywczy",
    "category": "Melba Chata Polska sklep spożywczy",
    "formatted_address": "4,3(390)",
    "phone_number": "+48618134051",
    "source_url": "https://www.google.com/maps/place/Melba+Chata+Polska+sklep+spo%C5%BCywczy/data=!4m7!3m6!1s0x47044c07023fe9b9:0x6eaf6ad87a0afcd0!8m2!3d52.2814601!4d16.7053912!16s%2Fg%2F1tcyqjmb!19sChIJuek_AgdMBEcR0PwKethqr24?authuser=0&hl=tr&rclk=1",
    "website_url": "",
    "rating_text": "4,3",
    "stars": null,
    "number_of_reviews": null,
    "price_level": "",
    "open_hours": "",
    "extraction_timestamp": "2025-06-07T17:29:06.817Z",
    "source_name": "google",
    "source_query": "Irrigation Equipment",
    "source_country": "PL",
    "country": "Poland",
    "state": "Greater Poland Voivodeship",
    "city": "Stęszew"
  },
  {
    "source_id": "ChIJ6ewOgvlLBEcRc629XLvnkyE",
    "name": "Amibelle Pet Shop",
    "category": "Amibelle Pet Shop",
    "formatted_address": "4,7(13)",
    "phone_number": "+48698852000",
    "source_url": "https://www.google.com/maps/place/Amibelle+Pet+Shop/data=!4m7!3m6!1s0x47044bf9820eece9:0x2193e7bb5cbdad73!8m2!3d52.2795867!4d16.7079467!16s%2Fg%2F11c2jr68g_!19sChIJ6ewOgvlLBEcRc629XLvnkyE?authuser=0&hl=tr&rclk=1",
    "website_url": "",
    "rating_text": "4,7",
    "stars": null,
    "number_of_reviews": null,
    "price_level": "",
    "open_hours": "",
    "extraction_timestamp": "2025-06-07T17:29:06.818Z",
    "source_name": "google",
    "source_query": "Irrigation Equipment",
    "source_country": "PL",
    "country": "Poland",
    "state": "Greater Poland Voivodeship",
    "city": "Stęszew"
  },
  {
    "source_id": "ChIJS6Wd5wdMBEcRBt_cmog8VXQ",
    "name": "NEOPUNKT TWÓJ SKLEP",
    "category": "NEOPUNKT TWÓJ SKLEP",
    "formatted_address": "4,4(33)",
    "phone_number": "+48618134421",
    "source_url": "https://www.google.com/maps/place/NEOPUNKT+TW%C3%93J+SKLEP/data=!4m7!3m6!1s0x47044c07e79da54b:0x74553c889adcdf06!8m2!3d52.2787008!4d16.6998218!16s%2Fg%2F1tftpsxj!19sChIJS6Wd5wdMBEcRBt_cmog8VXQ?authuser=0&hl=tr&rclk=1",
    "website_url": "",
    "rating_text": "4,4",
    "stars": null,
    "number_of_reviews": null,
    "price_level": "",
    "open_hours": "",
    "extraction_timestamp": "2025-06-07T17:29:06.819Z",
    "source_name": "google",
    "source_query": "Irrigation Equipment",
    "source_country": "PL",
    "country": "Poland",
    "state": "Greater Poland Voivodeship",
    "city": "Stęszew"
  },
  {
    "source_id": "ChIJL_jlN_RLBEcR0jlserQFpik",
    "name": "SPAWTECH - usługi spawalnicze",
    "category": "SPAWTECH - usługi spawalnicze",
    "formatted_address": "",
    "phone_number": "+48668533807",
    "source_url": "https://www.google.com/maps/place/SPAWTECH+-+us%C5%82ugi+spawalnicze/data=!4m7!3m6!1s0x47044bf437e5f82f:0x29a605b47a6c39d2!8m2!3d52.2791188!4d16.6953567!16s%2Fg%2F11fq1wyb37!19sChIJL_jlN_RLBEcR0jlserQFpik?authuser=0&hl=tr&rclk=1",
    "website_url": "",
    "rating_text": "",
    "stars": null,
    "number_of_reviews": null,
    "price_level": "",
    "open_hours": "",
    "extraction_timestamp": "2025-06-07T17:29:06.819Z",
    "source_name": "google",
    "source_query": "Irrigation Equipment",
    "source_country": "PL",
    "country": "Poland",
    "state": "Greater Poland Voivodeship",
    "city": "Stęszew"
  },
  {
    "source_id": "ChIJ-40N5HVLBEcRFrCjgzaNbAM",
    "name": "PHU Sklep Art.Spożywczo-Przemysłowych",
    "category": "PHU Sklep Art.Spożywczo-Przemysłowych",
    "formatted_address": "5,0(4)",
    "phone_number": "",
    "source_url": "https://www.google.com/maps/place/PHU+Sklep+Art.Spo%C5%BCywczo-Przemys%C5%82owych/data=!4m7!3m6!1s0x47044b75e40d8dfb:0x36c8d3683a3b016!8m2!3d52.2781083!4d16.694667!16s%2Fg%2F11sj7x3gtr!19sChIJ-40N5HVLBEcRFrCjgzaNbAM?authuser=0&hl=tr&rclk=1",
    "website_url": "",
    "rating_text": "5,0",
    "stars": null,
    "number_of_reviews": null,
    "price_level": "",
    "open_hours": "",
    "extraction_timestamp": "2025-06-07T17:29:06.819Z",
    "source_name": "google",
    "source_query": "Irrigation Equipment",
    "source_country": "PL",
    "country": "Poland",
    "state": "Greater Poland Voivodeship",
    "city": "Stęszew"
  },
  {
    "source_id": "ChIJX7bBwAdMBEcRAigmr5PfiH8",
    "name": "FHU KOLIBER Małgorzata Krawczak",
    "category": "FHU KOLIBER Małgorzata Krawczak",
    "formatted_address": "4,6(73)",
    "phone_number": "+48500206618",
    "source_url": "https://www.google.com/maps/place/FHU+KOLIBER+Ma%C5%82gorzata+Krawczak/data=!4m7!3m6!1s0x47044c07c0c1b65f:0x7f88df93af262802!8m2!3d52.279314!4d16.7008385!16s%2Fg%2F11hczcqt8j!19sChIJX7bBwAdMBEcRAigmr5PfiH8?authuser=0&hl=tr&rclk=1",
    "website_url": "",
    "rating_text": "4,6",
    "stars": null,
    "number_of_reviews": null,
    "price_level": "",
    "open_hours": "",
    "extraction_timestamp": "2025-06-07T17:29:06.820Z",
    "source_name": "google",
    "source_query": "Irrigation Equipment",
    "source_country": "PL",
    "country": "Poland",
    "state": "Greater Poland Voivodeship",
    "city": "Stęszew"
  },
  {
    "source_id": "ChIJ-RsawPhLBEcRtKMKs9Vha3M",
    "name": "Pepco",
    "category": "Pepco",
    "formatted_address": "4,6(31)",
    "phone_number": "",
    "source_url": "https://www.google.com/maps/place/Pepco/data=!4m7!3m6!1s0x47044bf8c01a1bf9:0x736b61d5b30aa3b4!8m2!3d52.2782756!4d16.6903144!16s%2Fg%2F11q254kxlz!19sChIJ-RsawPhLBEcRtKMKs9Vha3M?authuser=0&hl=tr&rclk=1",
    "website_url": "",
    "rating_text": "4,6",
    "stars": null,
    "number_of_reviews": null,
    "price_level": "",
    "open_hours": "",
    "extraction_timestamp": "2025-06-07T17:29:06.821Z",
    "source_name": "google",
    "source_query": "Irrigation Equipment",
    "source_country": "PL",
    "country": "Poland",
    "state": "Greater Poland Voivodeship",
    "city": "Stęszew"
  },
  {
    "source_id": "ChIJdRnGeDBaBEcRpyx7M8s1JkQ",
    "name": "Wirtgen Polska Sp. z o.o.",
    "category": "Wirtgen Polska Sp. z o.o.",
    "formatted_address": "4,4(31)",
    "phone_number": "+48618982100",
    "source_url": "https://www.google.com/maps/place/Wirtgen+Polska+Sp.+z+o.o./data=!4m7!3m6!1s0x47045a3078c61975:0x442635cb337b2ca7!8m2!3d52.3665338!4d16.9940075!16s%2Fg%2F1pv043rwn!19sChIJdRnGeDBaBEcRpyx7M8s1JkQ?authuser=0&hl=tr&rclk=1",
    "website_url": "",
    "rating_text": "4,4",
    "stars": null,
    "number_of_reviews": null,
    "price_level": "",
    "open_hours": "",
    "extraction_timestamp": "2025-06-07T17:29:06.822Z",
    "source_name": "google",
    "source_query": "Irrigation Equipment",
    "source_country": "PL",
    "country": "Poland",
    "state": "Greater Poland Voivodeship",
    "city": "Stęszew"
  },
  {
    "source_id": "ChIJhyqmg3VFBEcRUotoVRbXZI0",
    "name": "Brocar sp. Z O. O.",
    "category": "Brocar sp. Z O. O.",
    "formatted_address": "4,4(19)",
    "phone_number": "+48663174382",
    "source_url": "https://www.google.com/maps/place/Brocar+sp.+Z+O.+O./data=!4m7!3m6!1s0x4704457583a62a87:0x8d64d71655688b52!8m2!3d52.3772977!4d16.8256485!16s%2Fg%2F11h6g14lhb!19sChIJhyqmg3VFBEcRUotoVRbXZI0?authuser=0&hl=tr&rclk=1",
    "website_url": "",
    "rating_text": "4,4",
    "stars": null,
    "number_of_reviews": null,
    "price_level": "",
    "open_hours": "",
    "extraction_timestamp": "2025-06-07T17:29:06.822Z",
    "source_name": "google",
    "source_query": "Irrigation Equipment",
    "source_country": "PL",
    "country": "Poland",
    "state": "Greater Poland Voivodeship",
    "city": "Stęszew"
  },
  {
    "source_id": "ChIJnc398spaBEcRj7v-9AgLfjY",
    "name": "Alsi Serwis Sp. z o.o.",
    "category": "Alsi Serwis Sp. z o.o.",
    "formatted_address": "4,1(9)",
    "phone_number": "+48501081033",
    "source_url": "https://www.google.com/maps/place/Alsi+Serwis+Sp.+z+o.o./data=!4m7!3m6!1s0x47045acaf2fdcd9d:0x367e0b08f4febb8f!8m2!3d52.3721925!4d16.890079!16s%2Fg%2F1td68ky8!19sChIJnc398spaBEcRj7v-9AgLfjY?authuser=0&hl=tr&rclk=1",
    "website_url": "",
    "rating_text": "4,1",
    "stars": null,
    "number_of_reviews": null,
    "price_level": "",
    "open_hours": "",
    "extraction_timestamp": "2025-06-07T17:29:06.823Z",
    "source_name": "google",
    "source_query": "Irrigation Equipment",
    "source_country": "PL",
    "country": "Poland",
    "state": "Greater Poland Voivodeship",
    "city": "Stęszew"
  },
  {
    "source_id": "ChIJt-sT9IxRBEcRZ98mC4XxdTk",
    "name": "Hydraulik 24h Wymiana kopciuchów Awarie Pompy ciepła Instalacje wod kan Ogrzewanie podłogowe",
    "category": "Hydraulik 24h Wymiana kopciuchów Awarie Pompy ciepła Instalacje wod kan Ogrzewanie podłogowe",
    "formatted_address": "Hydraulik 24h Wymiana kopciuchów Awarie Pompy ciepła Instalacje wod kan Ogrzewanie podłogowe",
    "phone_number": "+48502937020",
    "source_url": "https://www.google.com/maps/place/Hydraulik+24h+Wymiana+kopciuch%C3%B3w+Awarie+Pompy+ciep%C5%82a+Instalacje+wod+kan+Ogrzewanie+pod%C5%82ogowe/data=!4m7!3m6!1s0x4704518cf413ebb7:0x3975f1850b26df67!8m2!3d52.3270699!4d16.8784457!16s%2Fg%2F11j2y1x94n!19sChIJt-sT9IxRBEcRZ98mC4XxdTk?authuser=0&hl=tr&rclk=1",
    "website_url": "",
    "rating_text": "4,7",
    "stars": null,
    "number_of_reviews": null,
    "price_level": "",
    "open_hours": "",
    "extraction_timestamp": "2025-06-07T17:29:06.824Z",
    "source_name": "google",
    "source_query": "Irrigation Equipment",
    "source_country": "PL",
    "country": "Poland",
    "state": "Greater Poland Voivodeship",
    "city": "Stęszew"
  },
  {
    "source_id": "ChIJdU0ANU1FBEcR2moWCHkgDNg",
    "name": "Granimex- Uzdatnianie wody, Technologia basenowa, Odwrócona osmoza, Kondycjonowanie wody",
    "category": "Granimex- Uzdatnianie wody, Technologia basenowa, Odwrócona osmoza, Kondycjonowanie wody",
    "formatted_address": "Granimex- Uzdatnianie wody, Technologia basenowa, Odwrócona osmoza, Kondycjonowanie wody",
    "phone_number": "+48618305685",
    "source_url": "https://www.google.com/maps/place/Granimex-+Uzdatnianie+wody,+Technologia+basenowa,+Odwr%C3%B3cona+osmoza,+Kondycjonowanie+wody/data=!4m7!3m6!1s0x4704454d35004d75:0xd80c207908166ada!8m2!3d52.3731194!4d16.8887854!16s%2Fg%2F1tcvsk8q!19sChIJdU0ANU1FBEcR2moWCHkgDNg?authuser=0&hl=tr&rclk=1",
    "website_url": "",
    "rating_text": "5,0",
    "stars": null,
    "number_of_reviews": null,
    "price_level": "",
    "open_hours": "",
    "extraction_timestamp": "2025-06-07T17:29:06.825Z",
    "source_name": "google",
    "source_query": "Irrigation Equipment",
    "source_country": "PL",
    "country": "Poland",
    "state": "Greater Poland Voivodeship",
    "city": "Stęszew"
  },
  {
    "source_id": "ChIJCxkSanFbBEcRaYmK7Ew9_ag",
    "name": "Krzysztof Jaroszek INSAJ",
    "category": "Krzysztof Jaroszek INSAJ",
    "formatted_address": "4,8(49)",
    "phone_number": "+48531778217",
    "source_url": "https://www.google.com/maps/place/Krzysztof+Jaroszek+INSAJ/data=!4m7!3m6!1s0x47045b716a12190b:0xa8fd3d4cec8a8969!8m2!3d52.3988549!4d16.9064207!16s%2Fg%2F11m9thzfpd!19sChIJCxkSanFbBEcRaYmK7Ew9_ag?authuser=0&hl=tr&rclk=1",
    "website_url": "",
    "rating_text": "4,8",
    "stars": null,
    "number_of_reviews": null,
    "price_level": "",
    "open_hours": "",
    "extraction_timestamp": "2025-06-07T17:29:06.826Z",
    "source_name": "google",
    "source_query": "Irrigation Equipment",
    "source_country": "PL",
    "country": "Poland",
    "state": "Greater Poland Voivodeship",
    "city": "Stęszew"
  },
  {
    "source_id": "ChIJvyRsSJ5bBEcRVqXmhXZK594",
    "name": "Termy Maltańskie",
    "category": "Termy Maltańskie",
    "formatted_address": "4,4(26.872)",
    "phone_number": "+48268724",
    "source_url": "https://www.google.com/maps/place/Termy+Malta%C5%84skie/data=!4m7!3m6!1s0x47045b9e486c24bf:0xdee74a7685e6a556!8m2!3d52.40528!4d16.9742523!16s%2Fg%2F120xzsc5!19sChIJvyRsSJ5bBEcRVqXmhXZK594?authuser=0&hl=tr&rclk=1",
    "website_url": "",
    "rating_text": "4,4",
    "stars": null,
    "number_of_reviews": null,
    "price_level": "",
    "open_hours": "",
    "extraction_timestamp": "2025-06-07T17:29:06.827Z",
    "source_name": "google",
    "source_query": "Irrigation Equipment",
    "source_country": "PL",
    "country": "Poland",
    "state": "Greater Poland Voivodeship",
    "city": "Stęszew"
  },
  {
    "source_id": "ChIJI1TVS0ZSBEcRqJmOTCH1Dv8",
    "name": "SPLIT ENERGY - KLIMATYZACJE / WODMER WODOMIERZE, USŁUGI INSTALACYJNE",
    "category": "SPLIT ENERGY - KLIMATYZACJE / WODMER WODOMIERZE, USŁUGI INSTALACYJNE",
    "formatted_address": "SPLIT ENERGY - KLIMATYZACJE / WODMER WODOMIERZE, USŁUGI INSTALACYJNE",
    "phone_number": "+48732700614",
    "source_url": "https://www.google.com/maps/place/SPLIT+ENERGY+-+KLIMATYZACJE+%2F+WODMER+WODOMIERZE,+US%C5%81UGI+INSTALACYJNE/data=!4m7!3m6!1s0x470452464bd55423:0xff0ef5214c8e99a8!8m2!3d52.2455721!4d16.8367047!16s%2Fg%2F1vzv2ct9!19sChIJI1TVS0ZSBEcRqJmOTCH1Dv8?authuser=0&hl=tr&rclk=1",
    "website_url": "",
    "rating_text": "5,0",
    "stars": null,
    "number_of_reviews": null,
    "price_level": "",
    "open_hours": "",
    "extraction_timestamp": "2025-06-07T17:29:06.828Z",
    "source_name": "google",
    "source_query": "Irrigation Equipment",
    "source_country": "PL",
    "country": "Poland",
    "state": "Greater Poland Voivodeship",
    "city": "Stęszew"
  },
  {
    "source_id": "ChIJv7Us2MVaBEcRNVV4dOuRzMY",
    "name": "Hydrogaz24 Zakład instalacji sanitarnych, wod-kan, gazowych i c o",
    "category": "Hydrogaz24 Zakład instalacji sanitarnych, wod-kan, gazowych i c o",
    "formatted_address": "Hydrogaz24 Zakład instalacji sanitarnych, wod-kan, gazowych i c o",
    "phone_number": "+48508261086",
    "source_url": "https://www.google.com/maps/place/Hydrogaz24+Zak%C5%82ad+instalacji+sanitarnych,+wod-kan,+gazowych+i+c+o/data=!4m7!3m6!1s0x47045ac5d82cb5bf:0xc6cc91eb74785535!8m2!3d52.373928!4d16.9072336!16s%2Fg%2F1tcy7lhw!19sChIJv7Us2MVaBEcRNVV4dOuRzMY?authuser=0&hl=tr&rclk=1",
    "website_url": "",
    "rating_text": "4,5",
    "stars": null,
    "number_of_reviews": null,
    "price_level": "",
    "open_hours": "",
    "extraction_timestamp": "2025-06-07T17:29:06.829Z",
    "source_name": "google",
    "source_query": "Irrigation Equipment",
    "source_country": "PL",
    "country": "Poland",
    "state": "Greater Poland Voivodeship",
    "city": "Stęszew"
  },
  {
    "source_id": "ChIJ9bftVyVbBEcR-Rly8QcbUJg",
    "name": "Autoryzowany Serwis Kotłów Gazowych i Pomp Ciepła Damian Urbański",
    "category": "Autoryzowany Serwis Kotłów Gazowych i Pomp Ciepła Damian Urbański",
    "formatted_address": "4,0(83)",
    "phone_number": "+48530383530",
    "source_url": "https://www.google.com/maps/place/Autoryzowany+Serwis+Kot%C5%82%C3%B3w+Gazowych+i+Pomp+Ciep%C5%82a+Damian+Urba%C5%84ski/data=!4m7!3m6!1s0x47045b2557edb7f5:0x98501b07f17219f9!8m2!3d52.3802254!4d16.9461192!16s%2Fg%2F11h4kwcf8f!19sChIJ9bftVyVbBEcR-Rly8QcbUJg?authuser=0&hl=tr&rclk=1",
    "website_url": "",
    "rating_text": "4,0",
    "stars": null,
    "number_of_reviews": null,
    "price_level": "",
    "open_hours": "",
    "extraction_timestamp": "2025-06-07T17:29:06.829Z",
    "source_name": "google",
    "source_query": "Irrigation Equipment",
    "source_country": "PL",
    "country": "Poland",
    "state": "Greater Poland Voivodeship",
    "city": "Stęszew"
  },
  {
    "source_id": "ChIJSzzEtTRBBEcRSs_tkkc5-9E",
    "name": "Farm - Fertilizers and Irrigation",
    "category": "Farm - Fertilizers and Irrigation",
    "formatted_address": "4,7(128)",
    "phone_number": "+48600424533",
    "source_url": "https://www.google.com/maps/place/Farm+-+Fertilizers+and+Irrigation/data=!4m7!3m6!1s0x47044134b5c43c4b:0xd1fb394792edcf4a!8m2!3d52.454788!4d16.768546!16s%2Fg%2F1w4vhmkd!19sChIJSzzEtTRBBEcRSs_tkkc5-9E?authuser=0&hl=tr&rclk=1",
    "website_url": "",
    "rating_text": "4,7",
    "stars": null,
    "number_of_reviews": null,
    "price_level": "",
    "open_hours": "",
    "extraction_timestamp": "2025-06-07T17:29:06.830Z",
    "source_name": "google",
    "source_query": "Irrigation Equipment",
    "source_country": "PL",
    "country": "Poland",
    "state": "Greater Poland Voivodeship",
    "city": "Stęszew"
  }
]
