[
  {
    "source_id": "ChIJCQyhfwhDBEcRZWKVa9QMG9A",
    "name": "Wa-Tech Spare parts for construction equipment - SERVICE",
    "category": "Wa-Tech Spare parts for construction equipment - SERVICE",
    "formatted_address": "4,5(88)",
    "phone_number": "+48663172124",
    "source_url": "https://www.google.com/maps/place/Wa-Tech+Spare+parts+for+construction+equipment+-+SERVICE/data=!4m7!3m6!1s0x470443087fa10c09:0xd01b0cd46b956265!8m2!3d52.4685583!4d16.8880679!16s%2Fg%2F1tdpqc52!19sChIJCQyhfwhDBEcRZWKVa9QMG9A?authuser=0&hl=tr&rclk=1",
    "website_url": "https://barracuda.sklep.pl/",
    "rating_text": "4,5",
    "stars": null,
    "number_of_reviews": null,
    "price_level": "",
    "open_hours": "",
    "extraction_timestamp": "2025-06-07T18:02:33.908Z",
    "source_name": "google",
    "source_query": "Irrigation Equipment",
    "source_country": "PL",
    "country": "Poland",
    "state": "Greater Poland Voivodeship",
    "city": "Suchy Las"
  },
  {
    "source_id": "ChIJw6_gd2FDBEcRaS3TUogCaQE",
    "name": "Bonita - Point of Sale Poznan",
    "category": "Bonita - Point of Sale Poznan",
    "formatted_address": "4,4(37)",
    "phone_number": "+48616566706",
    "source_url": "https://www.google.com/maps/place/Bonita+-+Point+of+Sale+Poznan/data=!4m7!3m6!1s0x4704436177e0afc3:0x169028852d32d69!8m2!3d52.4681847!4d16.8765517!16s%2Fg%2F12hl3mkmx!19sChIJw6_gd2FDBEcRaS3TUogCaQE?authuser=0&hl=tr&rclk=1",
    "website_url": "http://sklepnawadnianie.pl/",
    "rating_text": "4,4",
    "stars": null,
    "number_of_reviews": null,
    "price_level": "",
    "open_hours": "",
    "extraction_timestamp": "2025-06-07T18:02:33.910Z",
    "source_name": "google",
    "source_query": "Irrigation Equipment",
    "source_country": "PL",
    "country": "Poland",
    "state": "Greater Poland Voivodeship",
    "city": "Suchy Las"
  },
  {
    "source_id": "ChIJXyOI8WZDBEcRg9zpO4UqQhg",
    "name": "Harder Sp. z o. o.",
    "category": "Harder Sp. z o. o.",
    "formatted_address": "4,7(13)",
    "phone_number": "+48537557517",
    "source_url": "https://www.google.com/maps/place/Harder+Sp.+z+o.+o./data=!4m7!3m6!1s0x47044366f188235f:0x18422a853be9dc83!8m2!3d52.4738057!4d16.8802055!16s%2Fg%2F1tctd950!19sChIJXyOI8WZDBEcRg9zpO4UqQhg?authuser=0&hl=tr&rclk=1",
    "website_url": "https://tongo.pl/",
    "rating_text": "4,7",
    "stars": null,
    "number_of_reviews": null,
    "price_level": "",
    "open_hours": "",
    "extraction_timestamp": "2025-06-07T18:02:33.912Z",
    "source_name": "google",
    "source_query": "Irrigation Equipment",
    "source_country": "PL",
    "country": "Poland",
    "state": "Greater Poland Voivodeship",
    "city": "Suchy Las"
  },
  {
    "source_id": "ChIJ-VbHYVhbBEcRzrWBIbIeJ94",
    "name": "Gas-Electronic. Systemy Detekcji Gazów",
    "category": "Gas-Electronic. Systemy Detekcji Gazów",
    "formatted_address": "5,0(1)",
    "phone_number": "+48618280070",
    "source_url": "https://www.google.com/maps/place/Gas-Electronic.+Systemy+Detekcji+Gaz%C3%B3w/data=!4m7!3m6!1s0x47045b5861c756f9:0xde271eb22181b5ce!8m2!3d52.4778269!4d16.8744656!16s%2Fg%2F1tdpdx4_!19sChIJ-VbHYVhbBEcRzrWBIbIeJ94?authuser=0&hl=tr&rclk=1",
    "website_url": "http://gas-electronic.pl/",
    "rating_text": "5,0",
    "stars": null,
    "number_of_reviews": null,
    "price_level": "",
    "open_hours": "",
    "extraction_timestamp": "2025-06-07T18:02:33.913Z",
    "source_name": "google",
    "source_query": "Irrigation Equipment",
    "source_country": "PL",
    "country": "Poland",
    "state": "Greater Poland Voivodeship",
    "city": "Suchy Las"
  },
  {
    "source_id": "ChIJD_4_6QhDBEcRsTWb5vfLX6U",
    "name": "Wa-Tech Agregaty Prądotwórcze",
    "category": "Wa-Tech Agregaty Prądotwórcze",
    "formatted_address": "4,6(73)",
    "phone_number": "+48663172124",
    "source_url": "https://www.google.com/maps/place/Wa-Tech+Agregaty+Pr%C4%85dotw%C3%B3rcze/data=!4m7!3m6!1s0x47044308e93ffe0f:0xa55fcbf7e69b35b1!8m2!3d52.4681042!4d16.8870869!16s%2Fg%2F11hbgf55yj!19sChIJD_4_6QhDBEcRsTWb5vfLX6U?authuser=0&hl=tr&rclk=1",
    "website_url": "http://wa-tech.pl/",
    "rating_text": "4,6",
    "stars": null,
    "number_of_reviews": null,
    "price_level": "",
    "open_hours": "",
    "extraction_timestamp": "2025-06-07T18:02:33.914Z",
    "source_name": "google",
    "source_query": "Irrigation Equipment",
    "source_country": "PL",
    "country": "Poland",
    "state": "Greater Poland Voivodeship",
    "city": "Suchy Las"
  },
  {
    "source_id": "ChIJQYZYU_daBEcRrc4mt6dBBko",
    "name": "HYDROGLOBAL - Przemyślane rozwiązania dla ujęć wody",
    "category": "HYDROGLOBAL - Przemyślane rozwiązania dla ujęć wody",
    "formatted_address": "4,5(8)",
    "phone_number": "+48612785475",
    "source_url": "https://www.google.com/maps/place/HYDROGLOBAL+-+Przemy%C5%9Blane+rozwi%C4%85zania+dla+uj%C4%99%C4%87+wody/data=!4m7!3m6!1s0x47045af753588641:0x4a0641a7b726cead!8m2!3d52.4872791!4d16.8563292!16s%2Fg%2F1wzt11_h!19sChIJQYZYU_daBEcRrc4mt6dBBko?authuser=0&hl=tr&rclk=1",
    "website_url": "http://www.hydroglobal.com/",
    "rating_text": "4,5",
    "stars": null,
    "number_of_reviews": null,
    "price_level": "",
    "open_hours": "",
    "extraction_timestamp": "2025-06-07T18:02:33.916Z",
    "source_name": "google",
    "source_query": "Irrigation Equipment",
    "source_country": "PL",
    "country": "Poland",
    "state": "Greater Poland Voivodeship",
    "city": "Suchy Las"
  },
  {
    "source_id": "ChIJ7f2muwhDBEcRwcissxhS7Ek",
    "name": "PPHU Supdroż Sp. z o. o.",
    "category": "PPHU Supdroż Sp. z o. o.",
    "formatted_address": "4,8(32)",
    "phone_number": "+48618115292",
    "source_url": "https://www.google.com/maps/place/PPHU+Supdro%C5%BC+Sp.+z+o.+o./data=!4m7!3m6!1s0x47044308bba6fded:0x49ec5218b3acc8c1!8m2!3d52.4690623!4d16.8880166!16s%2Fg%2F1vzv2crz!19sChIJ7f2muwhDBEcRwcissxhS7Ek?authuser=0&hl=tr&rclk=1",
    "website_url": "http://www.supdroz.com.pl/",
    "rating_text": "4,8",
    "stars": null,
    "number_of_reviews": null,
    "price_level": "",
    "open_hours": "",
    "extraction_timestamp": "2025-06-07T18:02:33.917Z",
    "source_name": "google",
    "source_query": "Irrigation Equipment",
    "source_country": "PL",
    "country": "Poland",
    "state": "Greater Poland Voivodeship",
    "city": "Suchy Las"
  },
  {
    "source_id": "ChIJc9r7ngtDBEcRg6hZ09JSSrg",
    "name": "Inwater Sp. z o.o.",
    "category": "Inwater Sp. z o.o.",
    "formatted_address": "4,5(23)",
    "phone_number": "+48618429769",
    "source_url": "https://www.google.com/maps/place/Inwater+Sp.+z+o.o./data=!4m7!3m6!1s0x4704430b9efbda73:0xb84a52d2d359a883!8m2!3d52.4620562!4d16.8839233!16s%2Fg%2F1v8x0wsg!19sChIJc9r7ngtDBEcRg6hZ09JSSrg?authuser=0&hl=tr&rclk=1",
    "website_url": "https://inwater.pl/kontakt/",
    "rating_text": "4,5",
    "stars": null,
    "number_of_reviews": null,
    "price_level": "",
    "open_hours": "",
    "extraction_timestamp": "2025-06-07T18:02:33.918Z",
    "source_name": "google",
    "source_query": "Irrigation Equipment",
    "source_country": "PL",
    "country": "Poland",
    "state": "Greater Poland Voivodeship",
    "city": "Suchy Las"
  },
  {
    "source_id": "ChIJ3aog3EFDBEcRnP32MssQg4E",
    "name": "Liner - Technika grzewcza i sanitarna. Usługi i sprzedaż",
    "category": "Liner - Technika grzewcza i sanitarna. Usługi i sprzedaż",
    "formatted_address": "4,8(10)",
    "phone_number": "+48618288054",
    "source_url": "https://www.google.com/maps/place/Liner+-+Technika+grzewcza+i+sanitarna.+Us%C5%82ugi+i+sprzeda%C5%BC/data=!4m7!3m6!1s0x47044341dc20aadd:0x818310cb32f6fd9c!8m2!3d52.4825037!4d16.8639074!16s%2Fg%2F12cp0h8yw!19sChIJ3aog3EFDBEcRnP32MssQg4E?authuser=0&hl=tr&rclk=1",
    "website_url": "https://www.liner.com.pl/",
    "rating_text": "4,8",
    "stars": null,
    "number_of_reviews": null,
    "price_level": "",
    "open_hours": "",
    "extraction_timestamp": "2025-06-07T18:02:33.919Z",
    "source_name": "google",
    "source_query": "Irrigation Equipment",
    "source_country": "PL",
    "country": "Poland",
    "state": "Greater Poland Voivodeship",
    "city": "Suchy Las"
  },
  {
    "source_id": "ChIJgU-CVDNCBEcREVz9IXg64Ls",
    "name": "Leroy Merlin",
    "category": "Leroy Merlin",
    "formatted_address": "4,3(2.843)",
    "phone_number": "+48618209800",
    "source_url": "https://www.google.com/maps/place/Leroy+Merlin/data=!4m7!3m6!1s0x4704423354824f81:0xbbe03a7821fd5c11!8m2!3d52.486271!4d16.851251!16s%2Fg%2F1yglpdpsp!19sChIJgU-CVDNCBEcREVz9IXg64Ls?authuser=0&hl=tr&rclk=1",
    "website_url": "https://www.leroymerlin.pl/suchylas",
    "rating_text": "4,3",
    "stars": null,
    "number_of_reviews": null,
    "price_level": "",
    "open_hours": "",
    "extraction_timestamp": "2025-06-07T18:02:33.922Z",
    "source_name": "google",
    "source_query": "Irrigation Equipment",
    "source_country": "PL",
    "country": "Poland",
    "state": "Greater Poland Voivodeship",
    "city": "Suchy Las"
  },
  {
    "source_id": "ChIJey8Wf-ZDBEcRqP9dPhjQtzg",
    "name": "Elektryk i Hydraulik – Suchy Las i okolice | FITTER",
    "category": "Elektryk i Hydraulik – Suchy Las i okolice | FITTER",
    "formatted_address": "5,0(4)",
    "phone_number": "+48724518339",
    "source_url": "https://www.google.com/maps/place/Elektryk+i+Hydraulik+%E2%80%93+Suchy+Las+i+okolice+%7C+FITTER/data=!4m7!3m6!1s0x470443e67f162f7b:0x38b7d0183e5dffa8!8m2!3d52.4753489!4d16.8696128!16s%2Fg%2F11fb0jy1tz!19sChIJey8Wf-ZDBEcRqP9dPhjQtzg?authuser=0&hl=tr&rclk=1",
    "website_url": "",
    "rating_text": "5,0",
    "stars": null,
    "number_of_reviews": null,
    "price_level": "",
    "open_hours": "",
    "extraction_timestamp": "2025-06-07T18:02:33.923Z",
    "source_name": "google",
    "source_query": "Irrigation Equipment",
    "source_country": "PL",
    "country": "Poland",
    "state": "Greater Poland Voivodeship",
    "city": "Suchy Las"
  },
  {
    "source_id": "ChIJdW8SWA9DBEcRrZb7VbfV0-w",
    "name": "BTI Instal - Montaż Instalacji Grzewczych",
    "category": "BTI Instal - Montaż Instalacji Grzewczych",
    "formatted_address": "4,9(19)",
    "phone_number": "+48532086071",
    "source_url": "https://www.google.com/maps/place/BTI+Instal+-+Monta%C5%BC+Instalacji+Grzewczych/data=!4m7!3m6!1s0x4704430f58126f75:0xecd3d5b755fb96ad!8m2!3d52.4835051!4d16.8629849!16s%2Fg%2F11j6hq502m!19sChIJdW8SWA9DBEcRrZb7VbfV0-w?authuser=0&hl=tr&rclk=1",
    "website_url": "https://bti-instal.pl/",
    "rating_text": "4,9",
    "stars": null,
    "number_of_reviews": null,
    "price_level": "",
    "open_hours": "",
    "extraction_timestamp": "2025-06-07T18:02:33.924Z",
    "source_name": "google",
    "source_query": "Irrigation Equipment",
    "source_country": "PL",
    "country": "Poland",
    "state": "Greater Poland Voivodeship",
    "city": "Suchy Las"
  },
  {
    "source_id": "ChIJoaCZmbFDBEcRxIH03R1dWuE",
    "name": "Wodol Wodomierze, ciepłomierze Stanisław Pachura",
    "category": "Wodol Wodomierze, ciepłomierze Stanisław Pachura",
    "formatted_address": "Wodol Wodomierze, ciepłomierze Stanisław Pachura",
    "phone_number": "+48605338711",
    "source_url": "https://www.google.com/maps/place/Wodol+Wodomierze,+ciep%C5%82omierze+Stanis%C5%82aw+Pachura/data=!4m7!3m6!1s0x470443b19999a0a1:0xe15a5d1dddf481c4!8m2!3d52.4771563!4d16.8672907!16s%2Fg%2F1tr7bhx1!19sChIJoaCZmbFDBEcRxIH03R1dWuE?authuser=0&hl=tr&rclk=1",
    "website_url": "http://www.wodomierzepoznan.pl/",
    "rating_text": "5,0",
    "stars": null,
    "number_of_reviews": null,
    "price_level": "",
    "open_hours": "",
    "extraction_timestamp": "2025-06-07T18:02:33.926Z",
    "source_name": "google",
    "source_query": "Irrigation Equipment",
    "source_country": "PL",
    "country": "Poland",
    "state": "Greater Poland Voivodeship",
    "city": "Suchy Las"
  },
  {
    "source_id": "ChIJmazn1zhbBEcRSId8Ej9_R40",
    "name": "Park Wodny Octopus",
    "category": "Park Wodny Octopus",
    "formatted_address": "4,4(2.040)",
    "phone_number": "+48618926270",
    "source_url": "https://www.google.com/maps/place/Park+Wodny+Octopus/data=!4m7!3m6!1s0x47045b38d7e7ac99:0x8d477f3f127c8748!8m2!3d52.4739917!4d16.8739511!16s%2Fg%2F11b8t6hbhf!19sChIJmazn1zhbBEcRSId8Ej9_R40?authuser=0&hl=tr&rclk=1",
    "website_url": "http://octopus.suchylas.pl/",
    "rating_text": "4,4",
    "stars": null,
    "number_of_reviews": null,
    "price_level": "",
    "open_hours": "",
    "extraction_timestamp": "2025-06-07T18:02:33.928Z",
    "source_name": "google",
    "source_query": "Irrigation Equipment",
    "source_country": "PL",
    "country": "Poland",
    "state": "Greater Poland Voivodeship",
    "city": "Suchy Las"
  },
  {
    "source_id": "ChIJB707IaxDBEcRyiM4DojDA_U",
    "name": "Stagum-EKO - dyfuzory, napowietrzanie wody i oczyszczanie ścieków",
    "category": "Stagum-EKO - dyfuzory, napowietrzanie wody i oczyszczanie ścieków",
    "formatted_address": "Stagum-EKO - dyfuzory, napowietrzanie wody i oczyszczanie ścieków",
    "phone_number": "+48608075022",
    "source_url": "https://www.google.com/maps/place/Stagum-EKO+-+dyfuzory,+napowietrzanie+wody+i+oczyszczanie+%C5%9Bciek%C3%B3w/data=!4m7!3m6!1s0x470443ac213bbd07:0xf503c3880e3823ca!8m2!3d52.4769304!4d16.8770218!16s%2Fg%2F1tk21mq9!19sChIJB707IaxDBEcRyiM4DojDA_U?authuser=0&hl=tr&rclk=1",
    "website_url": "https://stagum-eko.pl/",
    "rating_text": "5,0",
    "stars": null,
    "number_of_reviews": null,
    "price_level": "",
    "open_hours": "",
    "extraction_timestamp": "2025-06-07T18:02:33.929Z",
    "source_name": "google",
    "source_query": "Irrigation Equipment",
    "source_country": "PL",
    "country": "Poland",
    "state": "Greater Poland Voivodeship",
    "city": "Suchy Las"
  },
  {
    "source_id": "ChIJ1fH8twRdBEcRWGX6D1tc3ZA",
    "name": "Kardoliński Zbigniew. Pompy głębinowe, hydroforowe, ściekowe",
    "category": "Kardoliński Zbigniew. Pompy głębinowe, hydroforowe, ściekowe",
    "formatted_address": "Kardoliński Zbigniew. Pompy głębinowe, hydroforowe, ściekowe",
    "phone_number": "",
    "source_url": "https://www.google.com/maps/place/Kardoli%C5%84ski+Zbigniew.+Pompy+g%C5%82%C4%99binowe,+hydroforowe,+%C5%9Bciekowe/data=!4m7!3m6!1s0x47045d04b7fcf1d5:0x90dd5c5b0ffa6558!8m2!3d52.4712374!4d16.9991202!16s%2Fg%2F1tfwj1tc!19sChIJ1fH8twRdBEcRWGX6D1tc3ZA?authuser=0&hl=tr&rclk=1",
    "website_url": "http://www.pompykardolinski.pl/",
    "rating_text": "4,8",
    "stars": null,
    "number_of_reviews": null,
    "price_level": "",
    "open_hours": "",
    "extraction_timestamp": "2025-06-07T18:02:33.930Z",
    "source_name": "google",
    "source_query": "Irrigation Equipment",
    "source_country": "PL",
    "country": "Poland",
    "state": "Greater Poland Voivodeship",
    "city": "Suchy Las"
  },
  {
    "source_id": "ChIJp32lU65DBEcRrTPRDXukFcI",
    "name": "Municipal Sports",
    "category": "Municipal Sports",
    "formatted_address": "4,6(400)",
    "phone_number": "+48618926535",
    "source_url": "https://www.google.com/maps/place/Municipal+Sports/data=!4m7!3m6!1s0x470443ae53a57da7:0xc215a47b0dd133ad!8m2!3d52.474972!4d16.8726414!16s%2Fg%2F1tqf_0jt!19sChIJp32lU65DBEcRrTPRDXukFcI?authuser=0&hl=tr&rclk=1",
    "website_url": "http://gos.suchylas.pl/",
    "rating_text": "4,6",
    "stars": null,
    "number_of_reviews": null,
    "price_level": "",
    "open_hours": "",
    "extraction_timestamp": "2025-06-07T18:02:33.931Z",
    "source_name": "google",
    "source_query": "Irrigation Equipment",
    "source_country": "PL",
    "country": "Poland",
    "state": "Greater Poland Voivodeship",
    "city": "Suchy Las"
  },
  {
    "source_id": "ChIJd8essBBFBEcRkySfrAexp-8",
    "name": "Aquapool Polska",
    "category": "Aquapool Polska",
    "formatted_address": "3,8(1.112)",
    "phone_number": "+48605541571",
    "source_url": "https://www.google.com/maps/place/Aquapool+Polska/data=!4m7!3m6!1s0x47044510b0acc777:0xefa7b107ac9f2493!8m2!3d52.4608614!4d16.8915439!16s%2Fg%2F11h42p_6hv!19sChIJd8essBBFBEcRkySfrAexp-8?authuser=0&hl=tr&rclk=1",
    "website_url": "https://aquapool.sklep.pl/",
    "rating_text": "3,8",
    "stars": null,
    "number_of_reviews": null,
    "price_level": "",
    "open_hours": "",
    "extraction_timestamp": "2025-06-07T18:02:33.933Z",
    "source_name": "google",
    "source_query": "Irrigation Equipment",
    "source_country": "PL",
    "country": "Poland",
    "state": "Greater Poland Voivodeship",
    "city": "Suchy Las"
  },
  {
    "source_id": "ChIJXRp-28hDBEcRMmT2d_GCoRw",
    "name": "Niebieska Żyrafa",
    "category": "Niebieska Żyrafa",
    "formatted_address": "4,9(260)",
    "phone_number": "+48792288688",
    "source_url": "https://www.google.com/maps/place/Niebieska+%C5%BByrafa/data=!4m7!3m6!1s0x470443c8db7e1a5d:0x1ca182f177f66432!8m2!3d52.487166!4d16.8555437!16s%2Fg%2F11vlbhbyl5!19sChIJXRp-28hDBEcRMmT2d_GCoRw?authuser=0&hl=tr&rclk=1",
    "website_url": "https://www.niebieskazyrafa.pl/",
    "rating_text": "4,9",
    "stars": null,
    "number_of_reviews": null,
    "price_level": "",
    "open_hours": "",
    "extraction_timestamp": "2025-06-07T18:02:33.934Z",
    "source_name": "google",
    "source_query": "Irrigation Equipment",
    "source_country": "PL",
    "country": "Poland",
    "state": "Greater Poland Voivodeship",
    "city": "Suchy Las"
  },
  {
    "source_id": "ChIJFVCITOVPBEcRG-lA_g1qlqk",
    "name": "Technika Wody",
    "category": "Technika Wody",
    "formatted_address": "4,6(288)",
    "phone_number": "+48502506622",
    "source_url": "https://www.google.com/maps/place/Technika+Wody/data=!4m7!3m6!1s0x47044fe54c885015:0xa9966a0dfe40e91b!8m2!3d52.3740842!4d16.819808!16s%2Fg%2F11b7vsdjf5!19sChIJFVCITOVPBEcRG-lA_g1qlqk?authuser=0&hl=tr&rclk=1",
    "website_url": "http://technikawody.pl/",
    "rating_text": "4,6",
    "stars": null,
    "number_of_reviews": null,
    "price_level": "",
    "open_hours": "",
    "extraction_timestamp": "2025-06-07T18:02:33.935Z",
    "source_name": "google",
    "source_query": "Irrigation Equipment",
    "source_country": "PL",
    "country": "Poland",
    "state": "Greater Poland Voivodeship",
    "city": "Suchy Las"
  },
  {
    "source_id": "ChIJR1Gy6FdHBEcRxLXa4mu3HY8",
    "name": "Fargo PW Centrum Ogrodnicze - Sklep Ogrodniczy i Rolniczy",
    "category": "Fargo PW Centrum Ogrodnicze - Sklep Ogrodniczy i Rolniczy",
    "formatted_address": "4,8(387)",
    "phone_number": "+48618146334",
    "source_url": "https://www.google.com/maps/place/Fargo+PW+Centrum+Ogrodnicze+-+Sklep+Ogrodniczy+i+Rolniczy/data=!4m7!3m6!1s0x47044757e8b25147:0x8f1db76be2dab5c4!8m2!3d52.4575027!4d16.6792707!16s%2Fg%2F1ptwzycf8!19sChIJR1Gy6FdHBEcRxLXa4mu3HY8?authuser=0&hl=tr&rclk=1",
    "website_url": "https://fargotarnowo.pl/",
    "rating_text": "4,8",
    "stars": null,
    "number_of_reviews": null,
    "price_level": "",
    "open_hours": "",
    "extraction_timestamp": "2025-06-07T18:02:33.936Z",
    "source_name": "google",
    "source_query": "Irrigation Equipment",
    "source_country": "PL",
    "country": "Poland",
    "state": "Greater Poland Voivodeship",
    "city": "Suchy Las"
  },
  {
    "source_id": "ChIJvyRsSJ5bBEcRVqXmhXZK594",
    "name": "Termy Maltańskie",
    "category": "Termy Maltańskie",
    "formatted_address": "4,4(26.872)",
    "phone_number": "+48268724",
    "source_url": "https://www.google.com/maps/place/Termy+Malta%C5%84skie/data=!4m7!3m6!1s0x47045b9e486c24bf:0xdee74a7685e6a556!8m2!3d52.40528!4d16.9742523!16s%2Fg%2F120xzsc5!19sChIJvyRsSJ5bBEcRVqXmhXZK594?authuser=0&hl=tr&rclk=1",
    "website_url": "http://www.termymaltanskie.com.pl/",
    "rating_text": "4,4",
    "stars": null,
    "number_of_reviews": null,
    "price_level": "",
    "open_hours": "",
    "extraction_timestamp": "2025-06-07T18:02:33.937Z",
    "source_name": "google",
    "source_query": "Irrigation Equipment",
    "source_country": "PL",
    "country": "Poland",
    "state": "Greater Poland Voivodeship",
    "city": "Suchy Las"
  },
  {
    "source_id": "ChIJ6xXI4oZDBEcRuHj7AcwOWUQ",
    "name": "Ogrodnik Poznań Nawadnianie Ogrodu Automatyczne Nawadnianie",
    "category": "Ogrodnik Poznań Nawadnianie Ogrodu Automatyczne Nawadnianie",
    "formatted_address": "5,0(29)",
    "phone_number": "+48605157539",
    "source_url": "https://www.google.com/maps/place/Ogrodnik+Pozna%C5%84+Nawadnianie+Ogrodu+Automatyczne+Nawadnianie/data=!4m7!3m6!1s0x47044386e2c815eb:0x44590ecc01fb78b8!8m2!3d52.439058!4d16.842177!16s%2Fg%2F11jbmmkrmv!19sChIJ6xXI4oZDBEcRuHj7AcwOWUQ?authuser=0&hl=tr&rclk=1",
    "website_url": "https://www.automatycznenawadnianiepoznan.pl/",
    "rating_text": "5,0",
    "stars": null,
    "number_of_reviews": null,
    "price_level": "",
    "open_hours": "",
    "extraction_timestamp": "2025-06-07T18:02:33.938Z",
    "source_name": "google",
    "source_query": "Irrigation Equipment",
    "source_country": "PL",
    "country": "Poland",
    "state": "Greater Poland Voivodeship",
    "city": "Suchy Las"
  },
  {
    "source_id": "ChIJUQow7dhEBEcROIEBsyxOuHE",
    "name": "Domowa Uprawa",
    "category": "Domowa Uprawa",
    "formatted_address": "4,4(63)",
    "phone_number": "+48788516592",
    "source_url": "https://www.google.com/maps/place/Domowa+Uprawa/data=!4m7!3m6!1s0x470444d8ed300a51:0x71b84e2cb3018138!8m2!3d52.3955619!4d16.8794529!16s%2Fg%2F12hk1kgtr!19sChIJUQow7dhEBEcROIEBsyxOuHE?authuser=0&hl=tr&rclk=1",
    "website_url": "https://domowauprawa.pl/",
    "rating_text": "4,4",
    "stars": null,
    "number_of_reviews": null,
    "price_level": "",
    "open_hours": "",
    "extraction_timestamp": "2025-06-07T18:02:33.939Z",
    "source_name": "google",
    "source_query": "Irrigation Equipment",
    "source_country": "PL",
    "country": "Poland",
    "state": "Greater Poland Voivodeship",
    "city": "Suchy Las"
  },
  {
    "source_id": "ChIJQzbH-L9EBEcRGcpQrYPmLms",
    "name": "TSM Osuszanie Budynków Szurgot Sp k",
    "category": "TSM Osuszanie Budynków Szurgot Sp k",
    "formatted_address": "5,0(86)",
    "phone_number": "+48533555883",
    "source_url": "https://www.google.com/maps/place/TSM+Osuszanie+Budynk%C3%B3w+Szurgot+Sp+k/data=!4m7!3m6!1s0x470444bff8c73643:0x6b2ee683ad50ca19!8m2!3d52.4157513!4d16.8818183!16s%2Fg%2F11b6q4xnx0!19sChIJQzbH-L9EBEcRGcpQrYPmLms?authuser=0&hl=tr&rclk=1",
    "website_url": "https://suszenie.com/osuszanie-poznan/",
    "rating_text": "5,0",
    "stars": null,
    "number_of_reviews": null,
    "price_level": "",
    "open_hours": "",
    "extraction_timestamp": "2025-06-07T18:02:33.940Z",
    "source_name": "google",
    "source_query": "Irrigation Equipment",
    "source_country": "PL",
    "country": "Poland",
    "state": "Greater Poland Voivodeship",
    "city": "Suchy Las"
  },
  {
    "source_id": "ChIJG1Sgw6w4BEcRIV7YUpLvyXo",
    "name": "DOSUCHA.pl",
    "category": "DOSUCHA.pl",
    "formatted_address": "4,9(57)",
    "phone_number": "+48212524",
    "source_url": "https://www.google.com/maps/place/DOSUCHA.pl/data=!4m7!3m6!1s0x470438acc3a0541b:0x7ac9ef9252d85e21!8m2!3d52.409155!4d16.90164!16s%2Fg%2F11gcfv688l!19sChIJG1Sgw6w4BEcRIV7YUpLvyXo?authuser=0&hl=tr&rclk=1",
    "website_url": "http://www.dosucha.pl/",
    "rating_text": "4,9",
    "stars": null,
    "number_of_reviews": null,
    "price_level": "",
    "open_hours": "",
    "extraction_timestamp": "2025-06-07T18:02:33.940Z",
    "source_name": "google",
    "source_query": "Irrigation Equipment",
    "source_country": "PL",
    "country": "Poland",
    "state": "Greater Poland Voivodeship",
    "city": "Suchy Las"
  },
  {
    "source_id": "ChIJK4ta5mRDBEcRZMiQZHs4CCc",
    "name": "LiWaterTech Sp. z o.o.",
    "category": "LiWaterTech Sp. z o.o.",
    "formatted_address": "3,7(3)",
    "phone_number": "+48601942471",
    "source_url": "https://www.google.com/maps/place/LiWaterTech+Sp.+z+o.o./data=!4m7!3m6!1s0x47044364e65a8b2b:0x2708387b6490c864!8m2!3d52.439704!4d16.8945239!16s%2Fg%2F11b8_q0bjs!19sChIJK4ta5mRDBEcRZMiQZHs4CCc?authuser=0&hl=tr&rclk=1",
    "website_url": "http://www.liwatertech.com.pl/",
    "rating_text": "3,7",
    "stars": null,
    "number_of_reviews": null,
    "price_level": "",
    "open_hours": "",
    "extraction_timestamp": "2025-06-07T18:02:33.941Z",
    "source_name": "google",
    "source_query": "Irrigation Equipment",
    "source_country": "PL",
    "country": "Poland",
    "state": "Greater Poland Voivodeship",
    "city": "Suchy Las"
  },
  {
    "source_id": "ChIJyZjmqD1bBEcRYqRiUZRkcyk",
    "name": "ZIELONO MI - zakładanie, pielęgnacja, nawadnianie ogrodów i inne usługi ogrodnicze",
    "category": "ZIELONO MI - zakładanie, pielęgnacja, nawadnianie ogrodów i inne usługi ogrodnicze",
    "formatted_address": "ZIELONO MI - zakładanie, pielęgnacja, nawadnianie ogrodów i inne usługi ogrodnicze",
    "phone_number": "+48600554434",
    "source_url": "https://www.google.com/maps/place/ZIELONO+MI+-+zak%C5%82adanie,+piel%C4%99gnacja,+nawadnianie+ogrod%C3%B3w+i+inne+us%C5%82ugi+ogrodnicze/data=!4m7!3m6!1s0x47045b3da8e698c9:0x297364945162a462!8m2!3d52.4003319!4d16.9337693!16s%2Fg%2F1tdz83c3!19sChIJyZjmqD1bBEcRYqRiUZRkcyk?authuser=0&hl=tr&rclk=1",
    "website_url": "http://www.zielono-mi.com.pl/",
    "rating_text": "4,5",
    "stars": null,
    "number_of_reviews": null,
    "price_level": "",
    "open_hours": "",
    "extraction_timestamp": "2025-06-07T18:02:33.942Z",
    "source_name": "google",
    "source_query": "Irrigation Equipment",
    "source_country": "PL",
    "country": "Poland",
    "state": "Greater Poland Voivodeship",
    "city": "Suchy Las"
  },
  {
    "source_id": "ChIJx7XFlnxdBEcRf9OQ1CQDqO8",
    "name": "Adapia - Fotowoltaika, Klimatyzacja, Pompy Ciepła, Rekuperacja, Termomodernizacja Budynków",
    "category": "Adapia - Fotowoltaika, Klimatyzacja, Pompy Ciepła, Rekuperacja, Termomodernizacja Budynków",
    "formatted_address": "Adapia - Fotowoltaika, Klimatyzacja, Pompy Ciepła, Rekuperacja, Termomodernizacja Budynków",
    "phone_number": "+48506637706",
    "source_url": "https://www.google.com/maps/place/Adapia+-+Fotowoltaika,+Klimatyzacja,+Pompy+Ciep%C5%82a,+Rekuperacja,+Termomodernizacja+Budynk%C3%B3w/data=!4m7!3m6!1s0x47045d7c96c5b5c7:0xefa80324d490d37f!8m2!3d52.4448368!4d16.9623942!16s%2Fg%2F11fpgvv4ft!19sChIJx7XFlnxdBEcRf9OQ1CQDqO8?authuser=0&hl=tr&rclk=1",
    "website_url": "https://www.adapia.pl/",
    "rating_text": "4,9",
    "stars": null,
    "number_of_reviews": null,
    "price_level": "",
    "open_hours": "",
    "extraction_timestamp": "2025-06-07T18:02:33.943Z",
    "source_name": "google",
    "source_query": "Irrigation Equipment",
    "source_country": "PL",
    "country": "Poland",
    "state": "Greater Poland Voivodeship",
    "city": "Suchy Las"
  },
  {
    "source_id": "ChIJBfc5UyxFBEcRHg9S4xhnII4",
    "name": "Limets",
    "category": "Limets",
    "formatted_address": "4,5(16)",
    "phone_number": "+48618667900",
    "source_url": "https://www.google.com/maps/place/Limets/data=!4m7!3m6!1s0x4704452c5339f705:0x8e206718e3520f1e!8m2!3d52.3846048!4d16.8895941!16s%2Fg%2F1wbrwgx8!19sChIJBfc5UyxFBEcRHg9S4xhnII4?authuser=0&hl=tr&rclk=1",
    "website_url": "http://www.limets.pl/",
    "rating_text": "4,5",
    "stars": null,
    "number_of_reviews": null,
    "price_level": "",
    "open_hours": "",
    "extraction_timestamp": "2025-06-07T18:02:33.944Z",
    "source_name": "google",
    "source_query": "Irrigation Equipment",
    "source_country": "PL",
    "country": "Poland",
    "state": "Greater Poland Voivodeship",
    "city": "Suchy Las"
  },
  {
    "source_id": "ChIJ0-UeNs5EBEcRWyFRaNGFPr0",
    "name": "Instalkos - Usługi hydrauliczne, Pompy ciepła, Ogrzewanie podłogowe, Instalacje gazowe.",
    "category": "Instalkos - Usługi hydrauliczne, Pompy ciepła, Ogrzewanie podłogowe, Instalacje gazowe.",
    "formatted_address": "Instalkos - Usługi hydrauliczne, Pompy ciepła, Ogrzewanie podłogowe, Instalacje gazowe.",
    "phone_number": "+48510485790",
    "source_url": "https://www.google.com/maps/place/Instalkos+-+Us%C5%82ugi+hydrauliczne,+Pompy+ciep%C5%82a,+Ogrzewanie+pod%C5%82ogowe,+Instalacje+gazowe./data=!4m7!3m6!1s0x470444ce361ee5d3:0xbd3e85d16851215b!8m2!3d52.4042737!4d16.8948005!16s%2Fg%2F11f54k7znf!19sChIJ0-UeNs5EBEcRWyFRaNGFPr0?authuser=0&hl=tr&rclk=1",
    "website_url": "http://instalkos.pl/",
    "rating_text": "5,0",
    "stars": null,
    "number_of_reviews": null,
    "price_level": "",
    "open_hours": "",
    "extraction_timestamp": "2025-06-07T18:02:33.945Z",
    "source_name": "google",
    "source_query": "Irrigation Equipment",
    "source_country": "PL",
    "country": "Poland",
    "state": "Greater Poland Voivodeship",
    "city": "Suchy Las"
  },
  {
    "source_id": "ChIJ0X4y0JFDBEcRU2QEj0VZ2XA",
    "name": "STG. Heating technology, installations, boilers",
    "category": "STG. Heating technology, installations, boilers",
    "formatted_address": "STG. Heating technology, installations, boilers",
    "phone_number": "+48618409401",
    "source_url": "https://www.google.com/maps/place/STG.+Heating+technology,+installations,+boilers/data=!4m7!3m6!1s0x47044391d0327ed1:0x70d959458f046453!8m2!3d52.4538394!4d16.8507099!16s%2Fg%2F1v_s4lvy!19sChIJ0X4y0JFDBEcRU2QEj0VZ2XA?authuser=0&hl=tr&rclk=1",
    "website_url": "http://www.viessmann.pl/pl/autoryzowani_partnerzy/salony_firmowe/poznan-stg.html",
    "rating_text": "4,7",
    "stars": null,
    "number_of_reviews": null,
    "price_level": "",
    "open_hours": "",
    "extraction_timestamp": "2025-06-07T18:02:33.945Z",
    "source_name": "google",
    "source_query": "Irrigation Equipment",
    "source_country": "PL",
    "country": "Poland",
    "state": "Greater Poland Voivodeship",
    "city": "Suchy Las"
  },
  {
    "source_id": "ChIJLYhEm6xDBEcRyx2zr8tDWH0",
    "name": "Rafamarina Centrum Morsów",
    "category": "Rafamarina Centrum Morsów",
    "formatted_address": "4,7(137)",
    "phone_number": "+48508907032",
    "source_url": "https://www.google.com/maps/place/Rafamarina+Centrum+Mors%C3%B3w/data=!4m7!3m6!1s0x470443ac9b44882d:0x7d5843cbafb31dcb!8m2!3d52.463029!4d16.8258449!16s%2Fg%2F11h2l8fqp8!19sChIJLYhEm6xDBEcRyx2zr8tDWH0?authuser=0&hl=tr&rclk=1",
    "website_url": "",
    "rating_text": "4,7",
    "stars": null,
    "number_of_reviews": null,
    "price_level": "",
    "open_hours": "",
    "extraction_timestamp": "2025-06-07T18:02:33.946Z",
    "source_name": "google",
    "source_query": "Irrigation Equipment",
    "source_country": "PL",
    "country": "Poland",
    "state": "Greater Poland Voivodeship",
    "city": "Suchy Las"
  },
  {
    "source_id": "ChIJmZX5SURbBEcRH19fmgPX0nM",
    "name": "Ulgaz - Shop Gas Industry",
    "category": "Ulgaz - Shop Gas Industry",
    "formatted_address": "4,5(43)",
    "phone_number": "+48618526263",
    "source_url": "https://www.google.com/maps/place/Ulgaz+-+Shop+Gas+Industry/data=!4m7!3m6!1s0x47045b4449f99599:0x73d2d7039a5f5f1f!8m2!3d52.4263386!4d16.9335512!16s%2Fg%2F1td36yr4!19sChIJmZX5SURbBEcRH19fmgPX0nM?authuser=0&hl=tr&rclk=1",
    "website_url": "https://www.ulgaz.pl/",
    "rating_text": "4,5",
    "stars": null,
    "number_of_reviews": null,
    "price_level": "",
    "open_hours": "",
    "extraction_timestamp": "2025-06-07T18:02:33.947Z",
    "source_name": "google",
    "source_query": "Irrigation Equipment",
    "source_country": "PL",
    "country": "Poland",
    "state": "Greater Poland Voivodeship",
    "city": "Suchy Las"
  }
]
