[
  {
    "source_id": "ChIJlYiNqfFOBUcR7sCyNgaaThU",
    "name": "Dino",
    "category": "Dino",
    "formatted_address": "4,4(200)",
    "phone_number": "",
    "source_url": "https://www.google.com/maps/place/Dino/data=!4m7!3m6!1s0x47054ef1a98d8895:0x154e9a0636b2c0ee!8m2!3d51.6069351!4d17.5250639!16s%2Fg%2F1tqnk9nw!19sChIJlYiNqfFOBUcR7sCyNgaaThU?authuser=0&hl=tr&rclk=1",
    "website_url": "",
    "rating_text": "4,4",
    "stars": null,
    "number_of_reviews": null,
    "price_level": "",
    "open_hours": "",
    "extraction_timestamp": "2025-06-07T17:36:07.933Z",
    "source_name": "google",
    "source_query": "Irrigation Equipment",
    "source_country": "PL",
    "country": "Poland",
    "state": "Greater Poland Voivodeship",
    "city": "Sulmierzyce"
  },
  {
    "source_id": "ChIJE1LyQXC5GkcReaYk7xtVbBU",
    "name": "JM ENERGY - Agregaty prądotwórcze / kompresory / Maszyny Budowlane",
    "category": "JM ENERGY - Agregaty prądotwórcze / kompresory / Maszyny Budowlane",
    "formatted_address": "5,0(5)",
    "phone_number": "+48669432664",
    "source_url": "https://www.google.com/maps/place/JM+ENERGY+-+Agregaty+pr%C4%85dotw%C3%B3rcze+%2F+kompresory+%2F+Maszyny+Budowlane/data=!4m7!3m6!1s0x471ab97041f25213:0x156c551bef24a679!8m2!3d51.6354221!4d18.0032579!16s%2Fg%2F11lh3t9ph4!19sChIJE1LyQXC5GkcReaYk7xtVbBU?authuser=0&hl=tr&rclk=1",
    "website_url": "",
    "rating_text": "5,0",
    "stars": null,
    "number_of_reviews": null,
    "price_level": "",
    "open_hours": "",
    "extraction_timestamp": "2025-06-07T17:36:07.936Z",
    "source_name": "google",
    "source_query": "Irrigation Equipment",
    "source_country": "PL",
    "country": "Poland",
    "state": "Greater Poland Voivodeship",
    "city": "Sulmierzyce"
  },
  {
    "source_id": "ChIJs1T-mvlPBUcR9Oy2jXHhqBs",
    "name": "Dino",
    "category": "Dino",
    "formatted_address": "4,6(97)",
    "phone_number": "",
    "source_url": "https://www.google.com/maps/place/Dino/data=!4m7!3m6!1s0x47054ff99afe54b3:0x1ba8e1718db6ecf4!8m2!3d51.6146328!4d17.5138652!16s%2Fg%2F11h84qwvnc!19sChIJs1T-mvlPBUcR9Oy2jXHhqBs?authuser=0&hl=tr&rclk=1",
    "website_url": "",
    "rating_text": "4,6",
    "stars": null,
    "number_of_reviews": null,
    "price_level": "",
    "open_hours": "",
    "extraction_timestamp": "2025-06-07T17:36:07.938Z",
    "source_name": "google",
    "source_query": "Irrigation Equipment",
    "source_country": "PL",
    "country": "Poland",
    "state": "Greater Poland Voivodeship",
    "city": "Sulmierzyce"
  },
  {
    "source_id": "ChIJPwlt6x5PBUcRp_g7VJLg2HE",
    "name": "Biedronka",
    "category": "Biedronka",
    "formatted_address": "4,2(160)",
    "phone_number": "+48800080010",
    "source_url": "https://www.google.com/maps/place/Biedronka/data=!4m7!3m6!1s0x47054f1eeb6d093f:0x71d8e092543bf8a7!8m2!3d51.6080467!4d17.5241328!16s%2Fg%2F11smdtg4ch!19sChIJPwlt6x5PBUcRp_g7VJLg2HE?authuser=0&hl=tr&rclk=1",
    "website_url": "",
    "rating_text": "4,2",
    "stars": null,
    "number_of_reviews": null,
    "price_level": "",
    "open_hours": "",
    "extraction_timestamp": "2025-06-07T17:36:07.939Z",
    "source_name": "google",
    "source_query": "Irrigation Equipment",
    "source_country": "PL",
    "country": "Poland",
    "state": "Greater Poland Voivodeship",
    "city": "Sulmierzyce"
  },
  {
    "source_id": "ChIJMYMUPt1PBUcRCxBtvTSS5IY",
    "name": "Sklep Polski",
    "category": "Sklep Polski",
    "formatted_address": "4,0(57)",
    "phone_number": "+48519775827",
    "source_url": "https://www.google.com/maps/place/Sklep+Polski/data=!4m7!3m6!1s0x47054fdd3e148331:0x86e49234bd6d100b!8m2!3d51.6060111!4d17.5269687!16s%2Fg%2F11ghndd_p4!19sChIJMYMUPt1PBUcRCxBtvTSS5IY?authuser=0&hl=tr&rclk=1",
    "website_url": "",
    "rating_text": "4,0",
    "stars": null,
    "number_of_reviews": null,
    "price_level": "",
    "open_hours": "",
    "extraction_timestamp": "2025-06-07T17:36:07.941Z",
    "source_name": "google",
    "source_query": "Irrigation Equipment",
    "source_country": "PL",
    "country": "Poland",
    "state": "Greater Poland Voivodeship",
    "city": "Sulmierzyce"
  },
  {
    "source_id": "ChIJY4Dvq_NOBUcRUg6mSkmxS4w",
    "name": "Sklep mięsno-spożywczy KIERAKOWICZ",
    "category": "Sklep mięsno-spożywczy KIERAKOWICZ",
    "formatted_address": "4,6(19)",
    "phone_number": "",
    "source_url": "https://www.google.com/maps/place/Sklep+mi%C4%99sno-spo%C5%BCywczy+KIERAKOWICZ/data=!4m7!3m6!1s0x47054ef3abef8063:0x8c4bb1494aa60e52!8m2!3d51.605798!4d17.530745!16s%2Fg%2F11f15mbnrl!19sChIJY4Dvq_NOBUcRUg6mSkmxS4w?authuser=0&hl=tr&rclk=1",
    "website_url": "",
    "rating_text": "4,6",
    "stars": null,
    "number_of_reviews": null,
    "price_level": "",
    "open_hours": "",
    "extraction_timestamp": "2025-06-07T17:36:07.943Z",
    "source_name": "google",
    "source_query": "Irrigation Equipment",
    "source_country": "PL",
    "country": "Poland",
    "state": "Greater Poland Voivodeship",
    "city": "Sulmierzyce"
  },
  {
    "source_id": "ChIJB6y_v5J2HEcRlDfYx3xmc9M",
    "name": "Milex irrigation systems",
    "category": "Milex irrigation systems",
    "formatted_address": "4,6(37)",
    "phone_number": "+48242775222",
    "source_url": "https://www.google.com/maps/place/Milex+irrigation+systems/data=!4m7!3m6!1s0x471c7692bfbfac07:0xd373667cc7d83794!8m2!3d52.4690634!4d19.7520904!16s%2Fg%2F1w2yy67r!19sChIJB6y_v5J2HEcRlDfYx3xmc9M?authuser=0&hl=tr&rclk=1",
    "website_url": "",
    "rating_text": "4,6",
    "stars": null,
    "number_of_reviews": null,
    "price_level": "",
    "open_hours": "",
    "extraction_timestamp": "2025-06-07T17:36:07.944Z",
    "source_name": "google",
    "source_query": "Irrigation Equipment",
    "source_country": "PL",
    "country": "Poland",
    "state": "Greater Poland Voivodeship",
    "city": "Sulmierzyce"
  },
  {
    "source_id": "ChIJ-R_JRstPBUcRarIznrknYVg",
    "name": "Sklep \"Smak\"",
    "category": "Sklep \"Smak\"",
    "formatted_address": "4,7(6)",
    "phone_number": "",
    "source_url": "https://www.google.com/maps/place/Sklep+%22Smak%22/data=!4m7!3m6!1s0x47054fcb46c91ff9:0x586127b99e33b26a!8m2!3d51.6059081!4d17.5281105!16s%2Fg%2F11hw6h90y8!19sChIJ-R_JRstPBUcRarIznrknYVg?authuser=0&hl=tr&rclk=1",
    "website_url": "",
    "rating_text": "4,7",
    "stars": null,
    "number_of_reviews": null,
    "price_level": "",
    "open_hours": "",
    "extraction_timestamp": "2025-06-07T17:36:07.945Z",
    "source_name": "google",
    "source_query": "Irrigation Equipment",
    "source_country": "PL",
    "country": "Poland",
    "state": "Greater Poland Voivodeship",
    "city": "Sulmierzyce"
  },
  {
    "source_id": "ChIJibv6M2S24YwRZnP651szV_4",
    "name": "Tarnowski Zieleń",
    "category": "Tarnowski Zieleń",
    "formatted_address": "5,0(1)",
    "phone_number": "+48662831432",
    "source_url": "https://www.google.com/maps/place/Tarnowski+Ziele%C5%84/data=!4m7!3m6!1s0x8ce1b66433fabb89:0xfe57335be7fa7366!8m2!3d51.7045538!4d17.6961857!16s%2Fg%2F11xfznlzrk!19sChIJibv6M2S24YwRZnP651szV_4?authuser=0&hl=tr&rclk=1",
    "website_url": "",
    "rating_text": "5,0",
    "stars": null,
    "number_of_reviews": null,
    "price_level": "",
    "open_hours": "",
    "extraction_timestamp": "2025-06-07T17:36:07.946Z",
    "source_name": "google",
    "source_query": "Irrigation Equipment",
    "source_country": "PL",
    "country": "Poland",
    "state": "Greater Poland Voivodeship",
    "city": "Sulmierzyce"
  }
]
