[
  {
    "source_id": "ChIJD4L9zzJZBEcRBTfhtCQhrzI",
    "name": "Gama Pompy Sp. z o.o.",
    "category": "Gama Pompy Sp. z o.o.",
    "formatted_address": "4,7(7)",
    "phone_number": "+48616514321",
    "source_url": "https://www.google.com/maps/place/Gama+Pompy+Sp.+z+o.o./data=!4m7!3m6!1s0x47045932cffd820f:0x32af2124b4e13705!8m2!3d52.4070691!4d17.0856907!16s%2Fg%2F1tf9rjb7!19sChIJD4L9zzJZBEcRBTfhtCQhrzI?authuser=0&hl=tr&rclk=1",
    "website_url": "http://www.pompygama.pl/",
    "rating_text": "4,7",
    "stars": null,
    "number_of_reviews": null,
    "price_level": "",
    "open_hours": "",
    "extraction_timestamp": "2025-06-07T17:26:54.524Z",
    "source_name": "google",
    "source_query": "Irrigation Equipment",
    "source_country": "PL",
    "country": "Poland",
    "state": "Greater Poland Voivodeship",
    "city": "Swarzędz"
  },
  {
    "source_id": "ChIJI051-tJeBEcRotisW9R9xNY",
    "name": "Arkus - serwis naprawa sprzedaż pomp pistoletów urządzeń części agregatów GRACO, zakuwanie węży hydraulicznych",
    "category": "Arkus - serwis naprawa sprzedaż pomp pistoletów urządzeń części agregatów GRACO, zakuwanie węży hydraulicznych",
    "formatted_address": "Arkus - serwis naprawa sprzedaż pomp pistoletów urządzeń części agregatów GRACO, zakuwanie węży hydraulicznych",
    "phone_number": "+48618181639",
    "source_url": "https://www.google.com/maps/place/Arkus+-+serwis+naprawa+sprzeda%C5%BC+pomp+pistolet%C3%B3w+urz%C4%85dze%C5%84+cz%C4%99%C5%9Bci+agregat%C3%B3w+GRACO,+zakuwanie+w%C4%99%C5%BCy+hydraulicznych/data=!4m7!3m6!1s0x47045ed2fa754e23:0xd6c47dd45bacd8a2!8m2!3d52.409075!4d17.0930365!16s%2Fg%2F1thxzhl8!19sChIJI051-tJeBEcRotisW9R9xNY?authuser=0&hl=tr&rclk=1",
    "website_url": "http://www.arkus.poznan.pl/",
    "rating_text": "4,2",
    "stars": null,
    "number_of_reviews": null,
    "price_level": "",
    "open_hours": "",
    "extraction_timestamp": "2025-06-07T17:26:54.526Z",
    "source_name": "google",
    "source_query": "Irrigation Equipment",
    "source_country": "PL",
    "country": "Poland",
    "state": "Greater Poland Voivodeship",
    "city": "Swarzędz"
  },
  {
    "source_id": "ChIJqyibaCl5NaARDC2qPFe0k0k",
    "name": "InTech Serwis urządzeń grzewczych",
    "category": "InTech Serwis urządzeń grzewczych",
    "formatted_address": "5,0(32)",
    "phone_number": "+48618551567",
    "source_url": "https://www.google.com/maps/place/InTech+Serwis+urz%C4%85dze%C5%84+grzewczych/data=!4m7!3m6!1s0xa0357929689b28ab:0x4993b4573caa2d0c!8m2!3d52.3888724!4d17.0652905!16s%2Fg%2F11vcxztp8n!19sChIJqyibaCl5NaARDC2qPFe0k0k?authuser=0&hl=tr&rclk=1",
    "website_url": "https://intech-serwis-kotlow.localo.site/?utm_source=google_profile&utm_campaign=localo&utm_medium=mainlink",
    "rating_text": "5,0",
    "stars": null,
    "number_of_reviews": null,
    "price_level": "",
    "open_hours": "",
    "extraction_timestamp": "2025-06-07T17:26:54.527Z",
    "source_name": "google",
    "source_query": "Irrigation Equipment",
    "source_country": "PL",
    "country": "Poland",
    "state": "Greater Poland Voivodeship",
    "city": "Swarzędz"
  },
  {
    "source_id": "ChIJw0sCv0NZBEcRa4G279IiNPE",
    "name": "Winterwarm Polska Sp. z o.o.",
    "category": "Winterwarm Polska Sp. z o.o.",
    "formatted_address": "4,4(14)",
    "phone_number": "+48603588651",
    "source_url": "https://www.google.com/maps/place/Winterwarm+Polska+Sp.+z+o.o./data=!4m7!3m6!1s0x47045943bf024bc3:0xf13422d2efb6816b!8m2!3d52.4069164!4d17.0949659!16s%2Fg%2F1thclgp4!19sChIJw0sCv0NZBEcRa4G279IiNPE?authuser=0&hl=tr&rclk=1",
    "website_url": "https://winterwarm.pl/",
    "rating_text": "4,4",
    "stars": null,
    "number_of_reviews": null,
    "price_level": "",
    "open_hours": "",
    "extraction_timestamp": "2025-06-07T17:26:54.529Z",
    "source_name": "google",
    "source_query": "Irrigation Equipment",
    "source_country": "PL",
    "country": "Poland",
    "state": "Greater Poland Voivodeship",
    "city": "Swarzędz"
  },
  {
    "source_id": "ChIJV2C1bcxeBEcRBHWZBU-zIqA",
    "name": "Greenhouse, Autoryzowany Diler Husqvarna",
    "category": "Greenhouse, Autoryzowany Diler Husqvarna",
    "formatted_address": "Greenhouse, Autoryzowany Diler Husqvarna",
    "phone_number": "+48508310251",
    "source_url": "https://www.google.com/maps/place/Greenhouse,+Autoryzowany+Diler+Husqvarna/data=!4m7!3m6!1s0x47045ecc6db56057:0xa022b34f05997504!8m2!3d52.4115805!4d17.0846409!16s%2Fg%2F1tnqfpm5!19sChIJV2C1bcxeBEcRBHWZBU-zIqA?authuser=0&hl=tr&rclk=1",
    "website_url": "https://e-greenhouse.pl/",
    "rating_text": "4,3",
    "stars": null,
    "number_of_reviews": null,
    "price_level": "",
    "open_hours": "",
    "extraction_timestamp": "2025-06-07T17:26:54.531Z",
    "source_name": "google",
    "source_query": "Irrigation Equipment",
    "source_country": "PL",
    "country": "Poland",
    "state": "Greater Poland Voivodeship",
    "city": "Swarzędz"
  },
  {
    "source_id": "ChIJh6XvLkpZBEcR4i1kiOCbimk",
    "name": "Castorama",
    "category": "Castorama",
    "formatted_address": "4,3(3.430)",
    "phone_number": "+48618507100",
    "source_url": "https://www.google.com/maps/place/Castorama/data=!4m7!3m6!1s0x4704594a2eefa587:0x698a9be088642de2!8m2!3d52.4050759!4d17.0682311!16s%2Fg%2F1hhvzbbhy!19sChIJh6XvLkpZBEcR4i1kiOCbimk?authuser=0&hl=tr&rclk=1",
    "website_url": "",
    "rating_text": "4,3",
    "stars": null,
    "number_of_reviews": null,
    "price_level": "",
    "open_hours": "",
    "extraction_timestamp": "2025-06-07T17:26:54.534Z",
    "source_name": "google",
    "source_query": "Irrigation Equipment",
    "source_country": "PL",
    "country": "Poland",
    "state": "Greater Poland Voivodeship",
    "city": "Swarzędz"
  },
  {
    "source_id": "ChIJgzxj2S9ZBEcRp7bZav8aG1s",
    "name": "OLMATECH Maciej Witkowski",
    "category": "OLMATECH Maciej Witkowski",
    "formatted_address": "3,7(3)",
    "phone_number": "+48509525131",
    "source_url": "https://www.google.com/maps/place/OLMATECH+Maciej+Witkowski/data=!4m7!3m6!1s0x4704592fd9633c83:0x5b1b1aff6ad9b6a7!8m2!3d52.3988446!4d17.0839493!16s%2Fg%2F1hhvnx2rh!19sChIJgzxj2S9ZBEcRp7bZav8aG1s?authuser=0&hl=tr&rclk=1",
    "website_url": "http://www.olmatech.pl/",
    "rating_text": "3,7",
    "stars": null,
    "number_of_reviews": null,
    "price_level": "",
    "open_hours": "",
    "extraction_timestamp": "2025-06-07T17:26:54.535Z",
    "source_name": "google",
    "source_query": "Irrigation Equipment",
    "source_country": "PL",
    "country": "Poland",
    "state": "Greater Poland Voivodeship",
    "city": "Swarzędz"
  },
  {
    "source_id": "ChIJeTZTWrZeBEcRtTR35vHkPp0",
    "name": "Przystań wodna SCSIR",
    "category": "Przystań wodna SCSIR",
    "formatted_address": "4,4(203)",
    "phone_number": "+48616509520",
    "source_url": "https://www.google.com/maps/place/Przysta%C5%84+wodna+SCSIR/data=!4m7!3m6!1s0x47045eb65a533679:0x9d3ee4f1e67734b5!8m2!3d52.4166066!4d17.0751337!16s%2Fg%2F11bwylwb36!19sChIJeTZTWrZeBEcRtTR35vHkPp0?authuser=0&hl=tr&rclk=1",
    "website_url": "",
    "rating_text": "4,4",
    "stars": null,
    "number_of_reviews": null,
    "price_level": "",
    "open_hours": "",
    "extraction_timestamp": "2025-06-07T17:26:54.536Z",
    "source_name": "google",
    "source_query": "Irrigation Equipment",
    "source_country": "PL",
    "country": "Poland",
    "state": "Greater Poland Voivodeship",
    "city": "Swarzędz"
  },
  {
    "source_id": "ChIJ87qIiTZZBEcRDZ7k9VGG59Q",
    "name": "Boguś. Bogucki M.",
    "category": "Boguś. Bogucki M.",
    "formatted_address": "4,8(118)",
    "phone_number": "+48604055371",
    "source_url": "https://www.google.com/maps/place/Bogu%C5%9B.+Bogucki+M./data=!4m7!3m6!1s0x470459368988baf3:0xd4e78651f5e49e0d!8m2!3d52.4028396!4d17.0740985!16s%2Fg%2F1tn4wwbq!19sChIJ87qIiTZZBEcRDZ7k9VGG59Q?authuser=0&hl=tr&rclk=1",
    "website_url": "https://www.facebook.com/bogussklep/",
    "rating_text": "4,8",
    "stars": null,
    "number_of_reviews": null,
    "price_level": "",
    "open_hours": "",
    "extraction_timestamp": "2025-06-07T17:26:54.537Z",
    "source_name": "google",
    "source_query": "Irrigation Equipment",
    "source_country": "PL",
    "country": "Poland",
    "state": "Greater Poland Voivodeship",
    "city": "Swarzędz"
  },
  {
    "source_id": "ChIJLQg_eupdBEcRdiumEXeO1m4",
    "name": "WaterGreen-Systems Sp. z o.o. Systemy Nawadniania - sprzedaż , montaż , serwis.",
    "category": "WaterGreen-Systems Sp. z o.o. Systemy Nawadniania - sprzedaż , montaż , serwis.",
    "formatted_address": "WaterGreen-Systems Sp. z o.o. Systemy Nawadniania - sprzedaż , montaż , serwis.",
    "phone_number": "+48601773701",
    "source_url": "https://www.google.com/maps/place/WaterGreen-Systems+Sp.+z+o.o.+Systemy+Nawadniania+-+sprzeda%C5%BC+,+monta%C5%BC+,+serwis./data=!4m7!3m6!1s0x47045dea7a3f082d:0x6ed68e7711a62b76!8m2!3d52.4443283!4d17.0354739!16s%2Fg%2F11j7k4tmx3!19sChIJLQg_eupdBEcRdiumEXeO1m4?authuser=0&hl=tr&rclk=1",
    "website_url": "http://www.watergreen.pl/",
    "rating_text": "",
    "stars": null,
    "number_of_reviews": null,
    "price_level": "",
    "open_hours": "",
    "extraction_timestamp": "2025-06-07T17:26:54.538Z",
    "source_name": "google",
    "source_query": "Irrigation Equipment",
    "source_country": "PL",
    "country": "Poland",
    "state": "Greater Poland Voivodeship",
    "city": "Swarzędz"
  },
  {
    "source_id": "ChIJ18708VRfBEcRaFkkn2SJ94Q",
    "name": "Boston - Twoja-Armatura - Armatura kuchenna i łazienkowa",
    "category": "Boston - Twoja-Armatura - Armatura kuchenna i łazienkowa",
    "formatted_address": "5,0(2)",
    "phone_number": "+48530995181",
    "source_url": "https://www.google.com/maps/place/Boston+-+Twoja-Armatura+-+Armatura+kuchenna+i+%C5%82azienkowa/data=!4m7!3m6!1s0x47045f54f1f4ced7:0x84f789649f245968!8m2!3d52.4103315!4d17.090631!16s%2Fg%2F11lt9_x71v!19sChIJ18708VRfBEcRaFkkn2SJ94Q?authuser=0&hl=tr&rclk=1",
    "website_url": "https://twoja-armatura.pl/",
    "rating_text": "5,0",
    "stars": null,
    "number_of_reviews": null,
    "price_level": "",
    "open_hours": "",
    "extraction_timestamp": "2025-06-07T17:26:54.540Z",
    "source_name": "google",
    "source_query": "Irrigation Equipment",
    "source_country": "PL",
    "country": "Poland",
    "state": "Greater Poland Voivodeship",
    "city": "Swarzędz"
  },
  {
    "source_id": "ChIJASAGQIFbBEcRg5o4DGaMvP0",
    "name": "KTB - Pompy i Armatura",
    "category": "KTB - Pompy i Armatura",
    "formatted_address": "5,0(5)",
    "phone_number": "+48501034404",
    "source_url": "https://www.google.com/maps/place/KTB+-+Pompy+i+Armatura/data=!4m7!3m6!1s0x47045b8140062001:0xfdbc8c660c389a83!8m2!3d52.4499321!4d17.0886924!16s%2Fg%2F11b7j9xtzd!19sChIJASAGQIFbBEcRg5o4DGaMvP0?authuser=0&hl=tr&rclk=1",
    "website_url": "https://www.ktb.net.pl/",
    "rating_text": "5,0",
    "stars": null,
    "number_of_reviews": null,
    "price_level": "",
    "open_hours": "",
    "extraction_timestamp": "2025-06-07T17:26:54.541Z",
    "source_name": "google",
    "source_query": "Irrigation Equipment",
    "source_country": "PL",
    "country": "Poland",
    "state": "Greater Poland Voivodeship",
    "city": "Swarzędz"
  },
  {
    "source_id": "ChIJL8PFYVJZBEcRtef1OLxKfG0",
    "name": "Troszczyński. Sprężyny",
    "category": "Troszczyński. Sprężyny",
    "formatted_address": "5,0(3)",
    "phone_number": "+48618173116",
    "source_url": "https://www.google.com/maps/place/Troszczy%C5%84ski.+Spr%C4%99%C5%BCyny/data=!4m7!3m6!1s0x4704595261c5c32f:0x6d7c4abc38f5e7b5!8m2!3d52.4092508!4d17.0555348!16s%2Fg%2F1tg4vj_5!19sChIJL8PFYVJZBEcRtef1OLxKfG0?authuser=0&hl=tr&rclk=1",
    "website_url": "http://www.sprezyny.net/",
    "rating_text": "5,0",
    "stars": null,
    "number_of_reviews": null,
    "price_level": "",
    "open_hours": "",
    "extraction_timestamp": "2025-06-07T17:26:54.542Z",
    "source_name": "google",
    "source_query": "Irrigation Equipment",
    "source_country": "PL",
    "country": "Poland",
    "state": "Greater Poland Voivodeship",
    "city": "Swarzędz"
  },
  {
    "source_id": "ChIJ-dfO_CxZBEcRcQKBm0UMCq4",
    "name": "Leroy Merlin",
    "category": "Leroy Merlin",
    "formatted_address": "4,3(3.120)",
    "phone_number": "+48618975800",
    "source_url": "https://www.google.com/maps/place/Leroy+Merlin/data=!4m7!3m6!1s0x4704592cfcced7f9:0xae0a0c459b810271!8m2!3d52.4048944!4d17.0916936!16s%2Fg%2F1tl_kdsc!19sChIJ-dfO_CxZBEcRcQKBm0UMCq4?authuser=0&hl=tr&rclk=1",
    "website_url": "https://www.leroymerlin.pl/swarzedz",
    "rating_text": "4,3",
    "stars": null,
    "number_of_reviews": null,
    "price_level": "",
    "open_hours": "",
    "extraction_timestamp": "2025-06-07T17:26:54.544Z",
    "source_name": "google",
    "source_query": "Irrigation Equipment",
    "source_country": "PL",
    "country": "Poland",
    "state": "Greater Poland Voivodeship",
    "city": "Swarzędz"
  },
  {
    "source_id": "ChIJdRnGeDBaBEcRpyx7M8s1JkQ",
    "name": "Wirtgen Polska Sp. z o.o.",
    "category": "Wirtgen Polska Sp. z o.o.",
    "formatted_address": "4,4(31)",
    "phone_number": "+48618982100",
    "source_url": "https://www.google.com/maps/place/Wirtgen+Polska+Sp.+z+o.o./data=!4m7!3m6!1s0x47045a3078c61975:0x442635cb337b2ca7!8m2!3d52.3665338!4d16.9940075!16s%2Fg%2F1pv043rwn!19sChIJdRnGeDBaBEcRpyx7M8s1JkQ?authuser=0&hl=tr&rclk=1",
    "website_url": "https://www.wirtgen-group.com/polska/",
    "rating_text": "4,4",
    "stars": null,
    "number_of_reviews": null,
    "price_level": "",
    "open_hours": "",
    "extraction_timestamp": "2025-06-07T17:26:54.546Z",
    "source_name": "google",
    "source_query": "Irrigation Equipment",
    "source_country": "PL",
    "country": "Poland",
    "state": "Greater Poland Voivodeship",
    "city": "Swarzędz"
  },
  {
    "source_id": "ChIJ4YqMSY5bBEcRYaVsVqLBoWQ",
    "name": "PomyslowaLazienka - PHU Tadych - Wyposażenie łazienek",
    "category": "PomyslowaLazienka - PHU Tadych - Wyposażenie łazienek",
    "formatted_address": "4,6(773)",
    "phone_number": "+48726713313",
    "source_url": "https://www.google.com/maps/place/PomyslowaLazienka+-+PHU+Tadych+-+Wyposa%C5%BCenie+%C5%82azienek/data=!4m7!3m6!1s0x47045b8e498c8ae1:0x64a1c1a2566ca561!8m2!3d52.4056088!4d17.0870082!16s%2Fg%2F1hc1470qy!19sChIJ4YqMSY5bBEcRYaVsVqLBoWQ?authuser=0&hl=tr&rclk=1",
    "website_url": "https://pomyslowalazienka.pl/",
    "rating_text": "4,6",
    "stars": null,
    "number_of_reviews": null,
    "price_level": "",
    "open_hours": "",
    "extraction_timestamp": "2025-06-07T17:26:54.547Z",
    "source_name": "google",
    "source_query": "Irrigation Equipment",
    "source_country": "PL",
    "country": "Poland",
    "state": "Greater Poland Voivodeship",
    "city": "Swarzędz"
  },
  {
    "source_id": "ChIJ0Uu3IpJZBEcRovMzkqEiPOQ",
    "name": "\"GRINS\" Technika Grzewcza i Sanitarna",
    "category": "\"GRINS\" Technika Grzewcza i Sanitarna",
    "formatted_address": "5,0(5)",
    "phone_number": "+48500820705",
    "source_url": "https://www.google.com/maps/place/%22GRINS%22+Technika+Grzewcza+i+Sanitarna/data=!4m7!3m6!1s0x4704599222b74bd1:0xe43c22a19233f3a2!8m2!3d52.4075295!4d17.0505692!16s%2Fg%2F11fvgp2905!19sChIJ0Uu3IpJZBEcRovMzkqEiPOQ?authuser=0&hl=tr&rclk=1",
    "website_url": "",
    "rating_text": "5,0",
    "stars": null,
    "number_of_reviews": null,
    "price_level": "",
    "open_hours": "",
    "extraction_timestamp": "2025-06-07T17:26:54.548Z",
    "source_name": "google",
    "source_query": "Irrigation Equipment",
    "source_country": "PL",
    "country": "Poland",
    "state": "Greater Poland Voivodeship",
    "city": "Swarzędz"
  },
  {
    "source_id": "ChIJx9h1ydReBEcR9j9r8eYQYEE",
    "name": "TND Łazienki",
    "category": "TND Łazienki",
    "formatted_address": "4,4(63)",
    "phone_number": "+48616512602",
    "source_url": "https://www.google.com/maps/place/TND+%C5%81azienki/data=!4m7!3m6!1s0x47045ed4c975d8c7:0x416010e6f16b3ff6!8m2!3d52.4059958!4d17.0988018!16s%2Fg%2F113h024c1!19sChIJx9h1ydReBEcR9j9r8eYQYEE?authuser=0&hl=tr&rclk=1",
    "website_url": "http://www.lazienki-tnd.pl/",
    "rating_text": "4,4",
    "stars": null,
    "number_of_reviews": null,
    "price_level": "",
    "open_hours": "",
    "extraction_timestamp": "2025-06-07T17:26:54.549Z",
    "source_name": "google",
    "source_query": "Irrigation Equipment",
    "source_country": "PL",
    "country": "Poland",
    "state": "Greater Poland Voivodeship",
    "city": "Swarzędz"
  },
  {
    "source_id": "ChIJS1Yf2E9ZBEcRwhkIE4tdI3Y",
    "name": "Garden of Dreams. Garden center",
    "category": "Garden of Dreams. Garden center",
    "formatted_address": "4,6(1.269)",
    "phone_number": "+48618159123",
    "source_url": "https://www.google.com/maps/place/Garden+of+Dreams.+Garden+center/data=!4m7!3m6!1s0x4704594fd81f564b:0x76235d8b130819c2!8m2!3d52.4029737!4d17.054869!16s%2Fg%2F1tdqmbxd!19sChIJS1Yf2E9ZBEcRwhkIE4tdI3Y?authuser=0&hl=tr&rclk=1",
    "website_url": "http://www.ogrod-marzen.pl/",
    "rating_text": "4,6",
    "stars": null,
    "number_of_reviews": null,
    "price_level": "",
    "open_hours": "",
    "extraction_timestamp": "2025-06-07T17:26:54.552Z",
    "source_name": "google",
    "source_query": "Irrigation Equipment",
    "source_country": "PL",
    "country": "Poland",
    "state": "Greater Poland Voivodeship",
    "city": "Swarzędz"
  },
  {
    "source_id": "ChIJ6WywbMheBEcRocVV0ICm9hU",
    "name": "Hydraulik Swarzędz Instal-tech24 Marek Chełmicki",
    "category": "Hydraulik Swarzędz Instal-tech24 Marek Chełmicki",
    "formatted_address": "4,3(12)",
    "phone_number": "+48697803090",
    "source_url": "https://www.google.com/maps/place/Hydraulik+Swarz%C4%99dz+Instal-tech24+Marek+Che%C5%82micki/data=!4m7!3m6!1s0x47045ec86cb06ce9:0x15f6a680d055c5a1!8m2!3d52.418307!4d17.081573!16s%2Fg%2F1pv5tkqs_!19sChIJ6WywbMheBEcRocVV0ICm9hU?authuser=0&hl=tr&rclk=1",
    "website_url": "http://www.instal-tech24.pl/",
    "rating_text": "4,3",
    "stars": null,
    "number_of_reviews": null,
    "price_level": "",
    "open_hours": "",
    "extraction_timestamp": "2025-06-07T17:26:54.553Z",
    "source_name": "google",
    "source_query": "Irrigation Equipment",
    "source_country": "PL",
    "country": "Poland",
    "state": "Greater Poland Voivodeship",
    "city": "Swarzędz"
  },
  {
    "source_id": "ChIJQYZYU_daBEcRrc4mt6dBBko",
    "name": "HYDROGLOBAL - Przemyślane rozwiązania dla ujęć wody",
    "category": "HYDROGLOBAL - Przemyślane rozwiązania dla ujęć wody",
    "formatted_address": "4,5(8)",
    "phone_number": "+48612785475",
    "source_url": "https://www.google.com/maps/place/HYDROGLOBAL+-+Przemy%C5%9Blane+rozwi%C4%85zania+dla+uj%C4%99%C4%87+wody/data=!4m7!3m6!1s0x47045af753588641:0x4a0641a7b726cead!8m2!3d52.4872791!4d16.8563292!16s%2Fg%2F1wzt11_h!19sChIJQYZYU_daBEcRrc4mt6dBBko?authuser=0&hl=tr&rclk=1",
    "website_url": "http://www.hydroglobal.com/",
    "rating_text": "4,5",
    "stars": null,
    "number_of_reviews": null,
    "price_level": "",
    "open_hours": "",
    "extraction_timestamp": "2025-06-07T17:26:54.554Z",
    "source_name": "google",
    "source_query": "Irrigation Equipment",
    "source_country": "PL",
    "country": "Poland",
    "state": "Greater Poland Voivodeship",
    "city": "Swarzędz"
  },
  {
    "source_id": "ChIJfwFzbxBFBEcRn7xY2iu3RtU",
    "name": "Wielkopolski Ośrodek Doradztwa Rolniczego w Poznaniu",
    "category": "Wielkopolski Ośrodek Doradztwa Rolniczego w Poznaniu",
    "formatted_address": "3,9(20)",
    "phone_number": "+48618685272",
    "source_url": "https://www.google.com/maps/place/Wielkopolski+O%C5%9Brodek+Doradztwa+Rolniczego+w+Poznaniu/data=!4m7!3m6!1s0x470445106f73017f:0xd546b72bda58bc9f!8m2!3d52.3867242!4d16.8493122!16s%2Fg%2F1tj1qsdz!19sChIJfwFzbxBFBEcRn7xY2iu3RtU?authuser=0&hl=tr&rclk=1",
    "website_url": "http://www.wodr.poznan.pl/",
    "rating_text": "3,9",
    "stars": null,
    "number_of_reviews": null,
    "price_level": "",
    "open_hours": "",
    "extraction_timestamp": "2025-06-07T17:26:54.555Z",
    "source_name": "google",
    "source_query": "Irrigation Equipment",
    "source_country": "PL",
    "country": "Poland",
    "state": "Greater Poland Voivodeship",
    "city": "Swarzędz"
  },
  {
    "source_id": "ChIJHTxQj6ZZBEcRFcFpQwGhP9c",
    "name": "Hydrobud A",
    "category": "Hydrobud A",
    "formatted_address": "5,0(1)",
    "phone_number": "+48502121245",
    "source_url": "https://www.google.com/maps/place/Hydrobud+A/data=!4m7!3m6!1s0x470459a68f503c1d:0xd73fa1014369c115!8m2!3d52.3750156!4d17.0698329!16s%2Fg%2F11wvjndft6!19sChIJHTxQj6ZZBEcRFcFpQwGhP9c?authuser=0&hl=tr&rclk=1",
    "website_url": "https://www.hydrobuda.pl/",
    "rating_text": "5,0",
    "stars": null,
    "number_of_reviews": null,
    "price_level": "",
    "open_hours": "",
    "extraction_timestamp": "2025-06-07T17:26:54.557Z",
    "source_name": "google",
    "source_query": "Irrigation Equipment",
    "source_country": "PL",
    "country": "Poland",
    "state": "Greater Poland Voivodeship",
    "city": "Swarzędz"
  },
  {
    "source_id": "ChIJSZDfEI5ZBEcRIBFxR2WfeAA",
    "name": "Mishel",
    "category": "Mishel",
    "formatted_address": "4,9(43)",
    "phone_number": "+48502567674",
    "source_url": "https://www.google.com/maps/place/Mishel/data=!4m7!3m6!1s0x4704598e10df9049:0x789f6547711120!8m2!3d52.357442!4d17.0234936!16s%2Fg%2F11cfhlg_t!19sChIJSZDfEI5ZBEcRIBFxR2WfeAA?authuser=0&hl=tr&rclk=1",
    "website_url": "https://www.suszenie.com.pl/",
    "rating_text": "4,9",
    "stars": null,
    "number_of_reviews": null,
    "price_level": "",
    "open_hours": "",
    "extraction_timestamp": "2025-06-07T17:26:54.558Z",
    "source_name": "google",
    "source_query": "Irrigation Equipment",
    "source_country": "PL",
    "country": "Poland",
    "state": "Greater Poland Voivodeship",
    "city": "Swarzędz"
  },
  {
    "source_id": "ChIJ-Xr3tc5eBEcRp0rQaLm5z0g",
    "name": "Brodex Bicycle Shop",
    "category": "Brodex Bicycle Shop",
    "formatted_address": "4,7(122)",
    "phone_number": "+48791500814",
    "source_url": "https://www.google.com/maps/place/Brodex+Bicycle+Shop/data=!4m7!3m6!1s0x47045eceb5f77af9:0x48cfb9b968d04aa7!8m2!3d52.4141782!4d17.0857415!16s%2Fg%2F1thw5fdf!19sChIJ-Xr3tc5eBEcRp0rQaLm5z0g?authuser=0&hl=tr&rclk=1",
    "website_url": "http://www.brodex.poznan.pl/",
    "rating_text": "4,7",
    "stars": null,
    "number_of_reviews": null,
    "price_level": "",
    "open_hours": "",
    "extraction_timestamp": "2025-06-07T17:26:54.559Z",
    "source_name": "google",
    "source_query": "Irrigation Equipment",
    "source_country": "PL",
    "country": "Poland",
    "state": "Greater Poland Voivodeship",
    "city": "Swarzędz"
  },
  {
    "source_id": "ChIJnQgfg0pZBEcR5KZX6FM_C_A",
    "name": "Hortensja Sp. z o.o.",
    "category": "Hortensja Sp. z o.o.",
    "formatted_address": "4,6(9)",
    "phone_number": "+48616651020",
    "source_url": "https://www.google.com/maps/place/Hortensja+Sp.+z+o.o./data=!4m7!3m6!1s0x4704594a831f089d:0xf00b3f53e857a6e4!8m2!3d52.404748!4d17.0956652!16s%2Fg%2F1w3459w4!19sChIJnQgfg0pZBEcR5KZX6FM_C_A?authuser=0&hl=tr&rclk=1",
    "website_url": "",
    "rating_text": "4,6",
    "stars": null,
    "number_of_reviews": null,
    "price_level": "",
    "open_hours": "",
    "extraction_timestamp": "2025-06-07T17:26:54.560Z",
    "source_name": "google",
    "source_query": "Irrigation Equipment",
    "source_country": "PL",
    "country": "Poland",
    "state": "Greater Poland Voivodeship",
    "city": "Swarzędz"
  },
  {
    "source_id": "ChIJE6n3waheBEcRqpXdZ-W7dvg",
    "name": "Jezioro Swarzędzkie",
    "category": "Jezioro Swarzędzkie",
    "formatted_address": "4,5(30)",
    "phone_number": "",
    "source_url": "https://www.google.com/maps/place/Jezioro+Swarz%C4%99dzkie/data=!4m7!3m6!1s0x47045ea8c1f7a913:0xf876bbe567dd95aa!8m2!3d52.4170713!4d17.0703468!16s%2Fg%2F11b6hqr_3s!19sChIJE6n3waheBEcRqpXdZ-W7dvg?authuser=0&hl=tr&rclk=1",
    "website_url": "",
    "rating_text": "4,5",
    "stars": null,
    "number_of_reviews": null,
    "price_level": "",
    "open_hours": "",
    "extraction_timestamp": "2025-06-07T17:26:54.561Z",
    "source_name": "google",
    "source_query": "Irrigation Equipment",
    "source_country": "PL",
    "country": "Poland",
    "state": "Greater Poland Voivodeship",
    "city": "Swarzędz"
  },
  {
    "source_id": "ChIJE4afqDZaBEcRr63mv4mvrvg",
    "name": "Centrum Ogrodnicze WIK-TOR",
    "category": "Centrum Ogrodnicze WIK-TOR",
    "formatted_address": "4,4(83)",
    "phone_number": "+48532289950",
    "source_url": "https://www.google.com/maps/place/Centrum+Ogrodnicze+WIK-TOR/data=!4m7!3m6!1s0x47045a36a89f8613:0xf8aeaf89bfe6adaf!8m2!3d52.3708776!4d16.9921683!16s%2Fg%2F1tg6ntym!19sChIJE4afqDZaBEcRr63mv4mvrvg?authuser=0&hl=tr&rclk=1",
    "website_url": "https://www.wik-tor.pl/",
    "rating_text": "4,4",
    "stars": null,
    "number_of_reviews": null,
    "price_level": "",
    "open_hours": "",
    "extraction_timestamp": "2025-06-07T17:26:54.562Z",
    "source_name": "google",
    "source_query": "Irrigation Equipment",
    "source_country": "PL",
    "country": "Poland",
    "state": "Greater Poland Voivodeship",
    "city": "Swarzędz"
  },
  {
    "source_id": "ChIJyZjmqD1bBEcRYqRiUZRkcyk",
    "name": "ZIELONO MI - zakładanie, pielęgnacja, nawadnianie ogrodów i inne usługi ogrodnicze",
    "category": "ZIELONO MI - zakładanie, pielęgnacja, nawadnianie ogrodów i inne usługi ogrodnicze",
    "formatted_address": "ZIELONO MI - zakładanie, pielęgnacja, nawadnianie ogrodów i inne usługi ogrodnicze",
    "phone_number": "+48600554434",
    "source_url": "https://www.google.com/maps/place/ZIELONO+MI+-+zak%C5%82adanie,+piel%C4%99gnacja,+nawadnianie+ogrod%C3%B3w+i+inne+us%C5%82ugi+ogrodnicze/data=!4m7!3m6!1s0x47045b3da8e698c9:0x297364945162a462!8m2!3d52.4003319!4d16.9337693!16s%2Fg%2F1tdz83c3!19sChIJyZjmqD1bBEcRYqRiUZRkcyk?authuser=0&hl=tr&rclk=1",
    "website_url": "http://www.zielono-mi.com.pl/",
    "rating_text": "4,5",
    "stars": null,
    "number_of_reviews": null,
    "price_level": "",
    "open_hours": "",
    "extraction_timestamp": "2025-06-07T17:26:54.563Z",
    "source_name": "google",
    "source_query": "Irrigation Equipment",
    "source_country": "PL",
    "country": "Poland",
    "state": "Greater Poland Voivodeship",
    "city": "Swarzędz"
  },
  {
    "source_id": "ChIJi56vM2tbBEcRrYnmZzUWQ6s",
    "name": "Sklep Instalacyjny hydrauliczny Poznań – Doradca Energetyczny – pompy ciepła – kotły gazowe Poznań",
    "category": "Sklep Instalacyjny hydrauliczny Poznań – Doradca Energetyczny – pompy ciepła – kotły gazowe Poznań",
    "formatted_address": "5,0(25)",
    "phone_number": "+48509786200",
    "source_url": "https://www.google.com/maps/place/Sklep+Instalacyjny+hydrauliczny+Pozna%C5%84+%E2%80%93+Doradca+Energetyczny+%E2%80%93+pompy+ciep%C5%82a+%E2%80%93+kot%C5%82y+gazowe+Pozna%C5%84/data=!4m7!3m6!1s0x47045b6b33af9e8b:0xab43163567e689ad!8m2!3d52.3830683!4d16.9201901!16s%2Fg%2F11tdf74spl!19sChIJi56vM2tbBEcRrYnmZzUWQ6s?authuser=0&hl=tr&rclk=1",
    "website_url": "https://sklep-instalacyjny-hydrauliczny.localo.site/?utm_source=google_profile&utm_campaign=localo&utm_medium=mainlink",
    "rating_text": "5,0",
    "stars": null,
    "number_of_reviews": null,
    "price_level": "",
    "open_hours": "",
    "extraction_timestamp": "2025-06-07T17:26:54.564Z",
    "source_name": "google",
    "source_query": "Irrigation Equipment",
    "source_country": "PL",
    "country": "Poland",
    "state": "Greater Poland Voivodeship",
    "city": "Swarzędz"
  },
  {
    "source_id": "ChIJUa4p0sVbBEcRe4BWo02o8f8",
    "name": "Prowitech Instalacje Sanitarne i Grzewcze. Klimatyzacja. Pompy ciepła.",
    "category": "Prowitech Instalacje Sanitarne i Grzewcze. Klimatyzacja. Pompy ciepła.",
    "formatted_address": "5,0(5)",
    "phone_number": "+48606223575",
    "source_url": "https://www.google.com/maps/place/Prowitech+Instalacje+Sanitarne+i+Grzewcze.+Klimatyzacja.+Pompy+ciep%C5%82a./data=!4m7!3m6!1s0x47045bc5d229ae51:0xfff1a84da356807b!8m2!3d52.3892603!4d17.0043897!16s%2Fg%2F1tdmt9_s!19sChIJUa4p0sVbBEcRe4BWo02o8f8?authuser=0&hl=tr&rclk=1",
    "website_url": "http://www.prowitech.com.pl/",
    "rating_text": "5,0",
    "stars": null,
    "number_of_reviews": null,
    "price_level": "",
    "open_hours": "",
    "extraction_timestamp": "2025-06-07T17:26:54.565Z",
    "source_name": "google",
    "source_query": "Irrigation Equipment",
    "source_country": "PL",
    "country": "Poland",
    "state": "Greater Poland Voivodeship",
    "city": "Swarzędz"
  },
  {
    "source_id": "ChIJUfoHRcxaBEcR5tyIxYf5wDE",
    "name": "Radaway",
    "category": "Radaway",
    "formatted_address": "4,1(211)",
    "phone_number": "+48618357510",
    "source_url": "https://www.google.com/maps/place/Radaway/data=!4m7!3m6!1s0x47045acc4507fa51:0x31c0f987c588dce6!8m2!3d52.3982828!4d17.1187731!16s%2Fg%2F1ptvzgk8b!19sChIJUfoHRcxaBEcR5tyIxYf5wDE?authuser=0&hl=tr&rclk=1",
    "website_url": "http://www.radaway.pl/",
    "rating_text": "4,1",
    "stars": null,
    "number_of_reviews": null,
    "price_level": "",
    "open_hours": "",
    "extraction_timestamp": "2025-06-07T17:26:54.566Z",
    "source_name": "google",
    "source_query": "Irrigation Equipment",
    "source_country": "PL",
    "country": "Poland",
    "state": "Greater Poland Voivodeship",
    "city": "Swarzędz"
  }
]
