[
  {
    "source_id": "ChIJUUDmnHmSA0cRlAfJ0TylQEk",
    "name": "Miejskierowery Sklep i Serwis Rowerowy",
    "category": "Miejskierowery Sklep i Serwis Rowerowy",
    "formatted_address": "4,5(30)",
    "phone_number": "+48502602226",
    "source_url": "https://www.google.com/maps/place/Miejskierowery+Sklep+i+Serwis+Rowerowy/data=!4m7!3m6!1s0x470392799ce64051:0x4940a53cd1c90794!8m2!3d53.0251358!4d17.114997!16s%2Fg%2F11gzmlxkp!19sChIJUUDmnHmSA0cRlAfJ0TylQEk?authuser=0&hl=tr&rclk=1",
    "website_url": "",
    "rating_text": "4,5",
    "stars": null,
    "number_of_reviews": null,
    "price_level": "",
    "open_hours": "",
    "extraction_timestamp": "2025-06-07T17:39:02.862Z",
    "source_name": "google",
    "source_query": "Irrigation Equipment",
    "source_country": "PL",
    "country": "Poland",
    "state": "Greater Poland Voivodeship",
    "city": "Szamocin"
  },
  {
    "source_id": "ChIJmdhgu36SA0cRrzDyymieoWU",
    "name": "Plaża miejska",
    "category": "Plaża miejska",
    "formatted_address": "4,2(127)",
    "phone_number": "",
    "source_url": "https://www.google.com/maps/place/Pla%C5%BCa+miejska/data=!4m7!3m6!1s0x4703927ebb60d899:0x65a19e68caf230af!8m2!3d53.0263109!4d17.1096488!16s%2Fg%2F11bv5v2ckq!19sChIJmdhgu36SA0cRrzDyymieoWU?authuser=0&hl=tr&rclk=1",
    "website_url": "",
    "rating_text": "4,2",
    "stars": null,
    "number_of_reviews": null,
    "price_level": "",
    "open_hours": "",
    "extraction_timestamp": "2025-06-07T17:39:02.863Z",
    "source_name": "google",
    "source_query": "Irrigation Equipment",
    "source_country": "PL",
    "country": "Poland",
    "state": "Greater Poland Voivodeship",
    "city": "Szamocin"
  },
  {
    "source_id": "ChIJUfn2Ig35A0cREW9fZ4029UM",
    "name": "IMTechnika sp. z o.o.",
    "category": "IMTechnika sp. z o.o.",
    "formatted_address": "4,4(17)",
    "phone_number": "+48883820388",
    "source_url": "https://www.google.com/maps/place/IMTechnika+sp.+z+o.o./data=!4m7!3m6!1s0x4703f90d22f6f951:0x43f5368d675f6f11!8m2!3d52.9756271!4d16.657836!16s%2Fg%2F11bw48_6mg!19sChIJUfn2Ig35A0cREW9fZ4029UM?authuser=0&hl=tr&rclk=1",
    "website_url": "",
    "rating_text": "4,4",
    "stars": null,
    "number_of_reviews": null,
    "price_level": "",
    "open_hours": "",
    "extraction_timestamp": "2025-06-07T17:39:02.863Z",
    "source_name": "google",
    "source_query": "Irrigation Equipment",
    "source_country": "PL",
    "country": "Poland",
    "state": "Greater Poland Voivodeship",
    "city": "Szamocin"
  },
  {
    "source_id": "ChIJDykp1m-SA0cRHaqY7a4tBlA",
    "name": "Wielgus Roman. Sklep spożywczy",
    "category": "Wielgus Roman. Sklep spożywczy",
    "formatted_address": "4,6(48)",
    "phone_number": "+48672849354",
    "source_url": "https://www.google.com/maps/place/Wielgus+Roman.+Sklep+spo%C5%BCywczy/data=!4m7!3m6!1s0x4703926fd629290f:0x50062daeed98aa1d!8m2!3d53.0299763!4d17.1253586!16s%2Fg%2F1tdqyf5l!19sChIJDykp1m-SA0cRHaqY7a4tBlA?authuser=0&hl=tr&rclk=1",
    "website_url": "",
    "rating_text": "4,6",
    "stars": null,
    "number_of_reviews": null,
    "price_level": "",
    "open_hours": "",
    "extraction_timestamp": "2025-06-07T17:39:02.863Z",
    "source_name": "google",
    "source_query": "Irrigation Equipment",
    "source_country": "PL",
    "country": "Poland",
    "state": "Greater Poland Voivodeship",
    "city": "Szamocin"
  },
  {
    "source_id": "ChIJB4fTsB-TA0cR-JtqSdI4cFE",
    "name": "Livio Sklep Spożywczy",
    "category": "Livio Sklep Spożywczy",
    "formatted_address": "4,5(33)",
    "phone_number": "",
    "source_url": "https://www.google.com/maps/place/Livio+Sklep+Spo%C5%BCywczy/data=!4m7!3m6!1s0x4703931fb0d38707:0x517038d2496a9bf8!8m2!3d53.030685!4d17.124761!16s%2Fg%2F11ghpzs808!19sChIJB4fTsB-TA0cR-JtqSdI4cFE?authuser=0&hl=tr&rclk=1",
    "website_url": "",
    "rating_text": "4,5",
    "stars": null,
    "number_of_reviews": null,
    "price_level": "",
    "open_hours": "",
    "extraction_timestamp": "2025-06-07T17:39:02.863Z",
    "source_name": "google",
    "source_query": "Irrigation Equipment",
    "source_country": "PL",
    "country": "Poland",
    "state": "Greater Poland Voivodeship",
    "city": "Szamocin"
  },
  {
    "source_id": "ChIJYZDfh9STA0cRTE-hGfYNOOk",
    "name": "Pepco",
    "category": "Pepco",
    "formatted_address": "4,9(14)",
    "phone_number": "",
    "source_url": "https://www.google.com/maps/place/Pepco/data=!4m7!3m6!1s0x470393d487df9061:0xe9380df619a14f4c!8m2!3d53.0284369!4d17.1147937!16s%2Fg%2F11y1kcjg90!19sChIJYZDfh9STA0cRTE-hGfYNOOk?authuser=0&hl=tr&rclk=1",
    "website_url": "",
    "rating_text": "4,9",
    "stars": null,
    "number_of_reviews": null,
    "price_level": "",
    "open_hours": "",
    "extraction_timestamp": "2025-06-07T17:39:02.863Z",
    "source_name": "google",
    "source_query": "Irrigation Equipment",
    "source_country": "PL",
    "country": "Poland",
    "state": "Greater Poland Voivodeship",
    "city": "Szamocin"
  },
  {
    "source_id": "ChIJOTcYsYeNA0cRVBBR88VWXJQ",
    "name": "Dino",
    "category": "Dino",
    "formatted_address": "4,2(309)",
    "phone_number": "",
    "source_url": "https://www.google.com/maps/place/Dino/data=!4m7!3m6!1s0x47038d87b1183739:0x945c56c5f3511054!8m2!3d53.0274495!4d17.1181778!16s%2Fg%2F1tfh3bs5!19sChIJOTcYsYeNA0cRVBBR88VWXJQ?authuser=0&hl=tr&rclk=1",
    "website_url": "",
    "rating_text": "4,2",
    "stars": null,
    "number_of_reviews": null,
    "price_level": "",
    "open_hours": "",
    "extraction_timestamp": "2025-06-07T17:39:02.864Z",
    "source_name": "google",
    "source_query": "Irrigation Equipment",
    "source_country": "PL",
    "country": "Poland",
    "state": "Greater Poland Voivodeship",
    "city": "Szamocin"
  },
  {
    "source_id": "ChIJf8dG1GCSA0cRAFzVbdIimpo",
    "name": "PolkaBubu",
    "category": "PolkaBubu",
    "formatted_address": "4,9(55)",
    "phone_number": "+48509855981",
    "source_url": "https://www.google.com/maps/place/PolkaBubu/data=!4m7!3m6!1s0x47039260d446c77f:0x9a9a22d26dd55c00!8m2!3d53.0392579!4d17.118988!16s%2Fg%2F11d_x0db34!19sChIJf8dG1GCSA0cRAFzVbdIimpo?authuser=0&hl=tr&rclk=1",
    "website_url": "",
    "rating_text": "4,9",
    "stars": null,
    "number_of_reviews": null,
    "price_level": "",
    "open_hours": "",
    "extraction_timestamp": "2025-06-07T17:39:02.864Z",
    "source_name": "google",
    "source_query": "Irrigation Equipment",
    "source_country": "PL",
    "country": "Poland",
    "state": "Greater Poland Voivodeship",
    "city": "Szamocin"
  },
  {
    "source_id": "ChIJX-6SruiTA0cRsZ3outSn6ps",
    "name": "Biedronka",
    "category": "Biedronka",
    "formatted_address": "4,2(247)",
    "phone_number": "+48800080010",
    "source_url": "https://www.google.com/maps/place/Biedronka/data=!4m7!3m6!1s0x470393e8ae92ee5f:0x9beaa7d4bae89db1!8m2!3d53.0291205!4d17.1150736!16s%2Fg%2F11smmdcs1_!19sChIJX-6SruiTA0cRsZ3outSn6ps?authuser=0&hl=tr&rclk=1",
    "website_url": "",
    "rating_text": "4,2",
    "stars": null,
    "number_of_reviews": null,
    "price_level": "",
    "open_hours": "",
    "extraction_timestamp": "2025-06-07T17:39:02.864Z",
    "source_name": "google",
    "source_query": "Irrigation Equipment",
    "source_country": "PL",
    "country": "Poland",
    "state": "Greater Poland Voivodeship",
    "city": "Szamocin"
  },
  {
    "source_id": "ChIJHQMN1fCTA0cRF3GqMsEnDb0",
    "name": "Drogeria Rossmann",
    "category": "Drogeria Rossmann",
    "formatted_address": "3,8(12)",
    "phone_number": "+48609499939",
    "source_url": "https://www.google.com/maps/place/Drogeria+Rossmann/data=!4m7!3m6!1s0x470393f0d50d031d:0xbd0d27c132aa7117!8m2!3d53.0283594!4d17.1150036!16s%2Fg%2F11l5vg6m0j!19sChIJHQMN1fCTA0cRF3GqMsEnDb0?authuser=0&hl=tr&rclk=1",
    "website_url": "",
    "rating_text": "3,8",
    "stars": null,
    "number_of_reviews": null,
    "price_level": "",
    "open_hours": "",
    "extraction_timestamp": "2025-06-07T17:39:02.864Z",
    "source_name": "google",
    "source_query": "Irrigation Equipment",
    "source_country": "PL",
    "country": "Poland",
    "state": "Greater Poland Voivodeship",
    "city": "Szamocin"
  },
  {
    "source_id": "ChIJB6y_v5J2HEcRlDfYx3xmc9M",
    "name": "Milex irrigation systems",
    "category": "Milex irrigation systems",
    "formatted_address": "4,6(37)",
    "phone_number": "+48242775222",
    "source_url": "https://www.google.com/maps/place/Milex+irrigation+systems/data=!4m7!3m6!1s0x471c7692bfbfac07:0xd373667cc7d83794!8m2!3d52.4690634!4d19.7520904!16s%2Fg%2F1w2yy67r!19sChIJB6y_v5J2HEcRlDfYx3xmc9M?authuser=0&hl=tr&rclk=1",
    "website_url": "",
    "rating_text": "4,6",
    "stars": null,
    "number_of_reviews": null,
    "price_level": "",
    "open_hours": "",
    "extraction_timestamp": "2025-06-07T17:39:02.865Z",
    "source_name": "google",
    "source_query": "Irrigation Equipment",
    "source_country": "PL",
    "country": "Poland",
    "state": "Greater Poland Voivodeship",
    "city": "Szamocin"
  },
  {
    "source_id": "ChIJ67aEgXGSA0cRl5cN8B31ALA",
    "name": "Sklep Spożywczy ABC",
    "category": "Sklep Spożywczy ABC",
    "formatted_address": "4,2(14)",
    "phone_number": "+48672848473",
    "source_url": "https://www.google.com/maps/place/Sklep+Spo%C5%BCywczy+ABC/data=!4m7!3m6!1s0x470392718184b6eb:0xb000f51df00d9797!8m2!3d53.026905!4d17.1280171!16s%2Fg%2F1tcvmzsq!19sChIJ67aEgXGSA0cRl5cN8B31ALA?authuser=0&hl=tr&rclk=1",
    "website_url": "",
    "rating_text": "4,2",
    "stars": null,
    "number_of_reviews": null,
    "price_level": "",
    "open_hours": "",
    "extraction_timestamp": "2025-06-07T17:39:02.865Z",
    "source_name": "google",
    "source_query": "Irrigation Equipment",
    "source_country": "PL",
    "country": "Poland",
    "state": "Greater Poland Voivodeship",
    "city": "Szamocin"
  },
  {
    "source_id": "ChIJLdEaF3CSA0cRrV6woELDzgM",
    "name": "Apteka Szamocin",
    "category": "Apteka Szamocin",
    "formatted_address": "4,8(5)",
    "phone_number": "+48672153456",
    "source_url": "https://www.google.com/maps/place/Apteka+Szamocin/data=!4m7!3m6!1s0x47039270171ad12d:0x3cec342a0b05ead!8m2!3d53.0293987!4d17.1233776!16s%2Fg%2F11gf8dw379!19sChIJLdEaF3CSA0cRrV6woELDzgM?authuser=0&hl=tr&rclk=1",
    "website_url": "",
    "rating_text": "4,8",
    "stars": null,
    "number_of_reviews": null,
    "price_level": "",
    "open_hours": "",
    "extraction_timestamp": "2025-06-07T17:39:02.865Z",
    "source_name": "google",
    "source_query": "Irrigation Equipment",
    "source_country": "PL",
    "country": "Poland",
    "state": "Greater Poland Voivodeship",
    "city": "Szamocin"
  },
  {
    "source_id": "ChIJAWgMI3CSA0cRe2AtWpqe7iE",
    "name": "Apteka NOVA",
    "category": "Apteka NOVA",
    "formatted_address": "4,3(9)",
    "phone_number": "",
    "source_url": "https://www.google.com/maps/place/Apteka+NOVA/data=!4m7!3m6!1s0x47039270230c6801:0x21ee9e9a5a2d607b!8m2!3d53.0295735!4d17.1241967!16s%2Fg%2F11bzzg5nrj!19sChIJAWgMI3CSA0cRe2AtWpqe7iE?authuser=0&hl=tr&rclk=1",
    "website_url": "",
    "rating_text": "4,3",
    "stars": null,
    "number_of_reviews": null,
    "price_level": "",
    "open_hours": "",
    "extraction_timestamp": "2025-06-07T17:39:02.865Z",
    "source_name": "google",
    "source_query": "Irrigation Equipment",
    "source_country": "PL",
    "country": "Poland",
    "state": "Greater Poland Voivodeship",
    "city": "Szamocin"
  },
  {
    "source_id": "ChIJ93xJVQCTA0cRHu0mZ7hpfS8",
    "name": "Żabka",
    "category": "Żabka",
    "formatted_address": "4,3(3)",
    "phone_number": "",
    "source_url": "https://www.google.com/maps/place/%C5%BBabka/data=!4m7!3m6!1s0x4703930055497cf7:0x2f7d69b86726ed1e!8m2!3d53.0310118!4d17.1246436!16s%2Fg%2F11w31h1ttb!19sChIJ93xJVQCTA0cRHu0mZ7hpfS8?authuser=0&hl=tr&rclk=1",
    "website_url": "",
    "rating_text": "4,3",
    "stars": null,
    "number_of_reviews": null,
    "price_level": "",
    "open_hours": "",
    "extraction_timestamp": "2025-06-07T17:39:02.866Z",
    "source_name": "google",
    "source_query": "Irrigation Equipment",
    "source_country": "PL",
    "country": "Poland",
    "state": "Greater Poland Voivodeship",
    "city": "Szamocin"
  }
]
