[
  {
    "source_id": "ChIJT2A0nvsWBEcROVAYM3u3Brg",
    "name": "Hebo Sp. o.o.",
    "category": "Hebo Sp. o.o.",
    "formatted_address": "4,6(146)",
    "phone_number": "+48508983504",
    "source_url": "https://www.google.com/maps/place/Hebo+Sp.+o.o./data=!4m7!3m6!1s0x470416fb9e34604f:0xb806b77b33185039!8m2!3d52.6193768!4d16.5951908!16s%2Fg%2F1yfh_j0pk!19sChIJT2A0nvsWBEcROVAYM3u3Brg?authuser=0&hl=tr&rclk=1",
    "website_url": "",
    "rating_text": "4,6",
    "stars": null,
    "number_of_reviews": null,
    "price_level": "",
    "open_hours": "",
    "extraction_timestamp": "2025-06-07T17:48:12.089Z",
    "source_name": "google",
    "source_query": "Irrigation Equipment",
    "source_country": "PL",
    "country": "Poland",
    "state": "Greater Poland Voivodeship",
    "city": "Szamotuły"
  },
  {
    "source_id": "ChIJqVj1afkWBEcRyBlHCLGiC5k",
    "name": "Elbaw. PHU. Silniki elektryczne, pompy wody, narzędzia",
    "category": "Elbaw. PHU. Silniki elektryczne, pompy wody, narzędzia",
    "formatted_address": "Elbaw. PHU. Silniki elektryczne, pompy wody, narzędzia",
    "phone_number": "+48612921094",
    "source_url": "https://www.google.com/maps/place/Elbaw.+PHU.+Silniki+elektryczne,+pompy+wody,+narz%C4%99dzia/data=!4m7!3m6!1s0x470416f969f558a9:0x990ba2b1084719c8!8m2!3d52.6166289!4d16.5912149!16s%2Fg%2F1tdl4v6c!19sChIJqVj1afkWBEcRyBlHCLGiC5k?authuser=0&hl=tr&rclk=1",
    "website_url": "",
    "rating_text": "4,5",
    "stars": null,
    "number_of_reviews": null,
    "price_level": "",
    "open_hours": "",
    "extraction_timestamp": "2025-06-07T17:48:12.091Z",
    "source_name": "google",
    "source_query": "Irrigation Equipment",
    "source_country": "PL",
    "country": "Poland",
    "state": "Greater Poland Voivodeship",
    "city": "Szamotuły"
  },
  {
    "source_id": "ChIJEywbvPgWBEcRGG4kBbrT4nc",
    "name": "Artbud s.c. Technika grzewcza. Skąpscy A.T.",
    "category": "Artbud s.c. Technika grzewcza. Skąpscy A.T.",
    "formatted_address": "4,5(37)",
    "phone_number": "+48612923235",
    "source_url": "https://www.google.com/maps/place/Artbud+s.c.+Technika+grzewcza.+Sk%C4%85pscy+A.T./data=!4m7!3m6!1s0x470416f8bc1b2c13:0x77e2d3ba05246e18!8m2!3d52.6122877!4d16.5867698!16s%2Fg%2F1w15y3zy!19sChIJEywbvPgWBEcRGG4kBbrT4nc?authuser=0&hl=tr&rclk=1",
    "website_url": "",
    "rating_text": "4,5",
    "stars": null,
    "number_of_reviews": null,
    "price_level": "",
    "open_hours": "",
    "extraction_timestamp": "2025-06-07T17:48:12.092Z",
    "source_name": "google",
    "source_query": "Irrigation Equipment",
    "source_country": "PL",
    "country": "Poland",
    "state": "Greater Poland Voivodeship",
    "city": "Szamotuły"
  },
  {
    "source_id": "ChIJQ1ohPQ8XBEcRWBg-baAh3OU",
    "name": "Hydromar",
    "category": "Hydromar",
    "formatted_address": "4,2(19)",
    "phone_number": "+48612921984",
    "source_url": "https://www.google.com/maps/place/Hydromar/data=!4m7!3m6!1s0x4704170f3d215a43:0xe5dc21a06d3e1858!8m2!3d52.620958!4d16.5665889!16s%2Fg%2F1tp06t6y!19sChIJQ1ohPQ8XBEcRWBg-baAh3OU?authuser=0&hl=tr&rclk=1",
    "website_url": "",
    "rating_text": "4,2",
    "stars": null,
    "number_of_reviews": null,
    "price_level": "",
    "open_hours": "",
    "extraction_timestamp": "2025-06-07T17:48:12.094Z",
    "source_name": "google",
    "source_query": "Irrigation Equipment",
    "source_country": "PL",
    "country": "Poland",
    "state": "Greater Poland Voivodeship",
    "city": "Szamotuły"
  },
  {
    "source_id": "ChIJc4haWAAXBEcRZ1jXuyYLw1c",
    "name": "Efli Group Spółka z ograniczoną odpowiedzialnością Sp.K",
    "category": "Efli Group Spółka z ograniczoną odpowiedzialnością Sp.K",
    "formatted_address": "5,0(1)",
    "phone_number": "+48607502193",
    "source_url": "https://www.google.com/maps/place/Efli+Group+Sp%C3%B3%C5%82ka+z+ograniczon%C4%85+odpowiedzialno%C5%9Bci%C4%85+Sp.K/data=!4m7!3m6!1s0x47041700585a8873:0x57c30b26bbd75867!8m2!3d52.614213!4d16.5901739!16s%2Fg%2F11lf0p2m3w!19sChIJc4haWAAXBEcRZ1jXuyYLw1c?authuser=0&hl=tr&rclk=1",
    "website_url": "",
    "rating_text": "5,0",
    "stars": null,
    "number_of_reviews": null,
    "price_level": "",
    "open_hours": "",
    "extraction_timestamp": "2025-06-07T17:48:12.095Z",
    "source_name": "google",
    "source_query": "Irrigation Equipment",
    "source_country": "PL",
    "country": "Poland",
    "state": "Greater Poland Voivodeship",
    "city": "Szamotuły"
  },
  {
    "source_id": "ChIJqVj1afkWBEcR7l_1fqb7nCo",
    "name": "\"Elbaw\" Przedsiębiorstwo Usługowo-Handlowe Adam Wawrzyniak",
    "category": "\"Elbaw\" Przedsiębiorstwo Usługowo-Handlowe Adam Wawrzyniak",
    "formatted_address": "4,8(13)",
    "phone_number": "+48602666653",
    "source_url": "https://www.google.com/maps/place/%22Elbaw%22+Przedsi%C4%99biorstwo+Us%C5%82ugowo-Handlowe+Adam+Wawrzyniak/data=!4m7!3m6!1s0x470416f969f558a9:0x2a9cfba67ef55fee!8m2!3d52.61665!4d16.591286!16s%2Fg%2F1txnn4qb!19sChIJqVj1afkWBEcR7l_1fqb7nCo?authuser=0&hl=tr&rclk=1",
    "website_url": "",
    "rating_text": "4,8",
    "stars": null,
    "number_of_reviews": null,
    "price_level": "",
    "open_hours": "",
    "extraction_timestamp": "2025-06-07T17:48:12.096Z",
    "source_name": "google",
    "source_query": "Irrigation Equipment",
    "source_country": "PL",
    "country": "Poland",
    "state": "Greater Poland Voivodeship",
    "city": "Szamotuły"
  },
  {
    "source_id": "ChIJ-ftLg7EXBEcRJrnqe3P14Hc",
    "name": "Stylowy Ogrodnik. Usługi ogrodnicze. Systemy nawadniające",
    "category": "Stylowy Ogrodnik. Usługi ogrodnicze. Systemy nawadniające",
    "formatted_address": "5,0(16)",
    "phone_number": "+48792772881",
    "source_url": "https://www.google.com/maps/place/Stylowy+Ogrodnik.+Us%C5%82ugi+ogrodnicze.+Systemy+nawadniaj%C4%85ce/data=!4m7!3m6!1s0x470417b1834bfbf9:0x77e0f5737beab926!8m2!3d52.5973027!4d16.6115318!16s%2Fg%2F11h0_9y4dl!19sChIJ-ftLg7EXBEcRJrnqe3P14Hc?authuser=0&hl=tr&rclk=1",
    "website_url": "",
    "rating_text": "5,0",
    "stars": null,
    "number_of_reviews": null,
    "price_level": "",
    "open_hours": "",
    "extraction_timestamp": "2025-06-07T17:48:12.098Z",
    "source_name": "google",
    "source_query": "Irrigation Equipment",
    "source_country": "PL",
    "country": "Poland",
    "state": "Greater Poland Voivodeship",
    "city": "Szamotuły"
  },
  {
    "source_id": "ChIJc7BYaEQWBEcRKuuWU2nfVuU",
    "name": "ATKO.PL Sklep rolniczo-techniczny Powered by Kramp",
    "category": "ATKO.PL Sklep rolniczo-techniczny Powered by Kramp",
    "formatted_address": "4,6(53)",
    "phone_number": "+48601900526",
    "source_url": "https://www.google.com/maps/place/ATKO.PL+Sklep+rolniczo-techniczny+Powered+by+Kramp/data=!4m7!3m6!1s0x470416446858b073:0xe556df695396eb2a!8m2!3d52.5984665!4d16.5914162!16s%2Fg%2F1tdzpv15!19sChIJc7BYaEQWBEcRKuuWU2nfVuU?authuser=0&hl=tr&rclk=1",
    "website_url": "",
    "rating_text": "4,6",
    "stars": null,
    "number_of_reviews": null,
    "price_level": "",
    "open_hours": "",
    "extraction_timestamp": "2025-06-07T17:48:12.099Z",
    "source_name": "google",
    "source_query": "Irrigation Equipment",
    "source_country": "PL",
    "country": "Poland",
    "state": "Greater Poland Voivodeship",
    "city": "Szamotuły"
  },
  {
    "source_id": "ChIJeSPOfAQXBEcRLs0aHXCEPtQ",
    "name": "ZINERON | Zbiorniki na ON, PB, RSM, AdBlue, Woda, Oczyszczalnie ścieków",
    "category": "ZINERON | Zbiorniki na ON, PB, RSM, AdBlue, Woda, Oczyszczalnie ścieków",
    "formatted_address": "ZINERON | Zbiorniki na ON, PB, RSM, AdBlue, Woda, Oczyszczalnie ścieków",
    "phone_number": "+48690855866",
    "source_url": "https://www.google.com/maps/place/ZINERON+%7C+Zbiorniki+na+ON,+PB,+RSM,+AdBlue,+Woda,+Oczyszczalnie+%C5%9Bciek%C3%B3w/data=!4m7!3m6!1s0x470417047cce2379:0xd43e84701d1acd2e!8m2!3d52.5941658!4d16.6112556!16s%2Fg%2F11h5snkynv!19sChIJeSPOfAQXBEcRLs0aHXCEPtQ?authuser=0&hl=tr&rclk=1",
    "website_url": "",
    "rating_text": "5,0",
    "stars": null,
    "number_of_reviews": null,
    "price_level": "",
    "open_hours": "",
    "extraction_timestamp": "2025-06-07T17:48:12.100Z",
    "source_name": "google",
    "source_query": "Irrigation Equipment",
    "source_country": "PL",
    "country": "Poland",
    "state": "Greater Poland Voivodeship",
    "city": "Szamotuły"
  },
  {
    "source_id": "ChIJc7BYaEQWBEcRzF10wBEbLyc",
    "name": "Agrifirm Polska Sp. z.o.o.",
    "category": "Agrifirm Polska Sp. z.o.o.",
    "formatted_address": "2,8(54)",
    "phone_number": "+48612931970",
    "source_url": "https://www.google.com/maps/place/Agrifirm+Polska+Sp.+z.o.o./data=!4m7!3m6!1s0x470416446858b073:0x272f1b11c0745dcc!8m2!3d52.593799!4d16.593596!16s%2Fg%2F1tcwvd_k!19sChIJc7BYaEQWBEcRzF10wBEbLyc?authuser=0&hl=tr&rclk=1",
    "website_url": "",
    "rating_text": "2,8",
    "stars": null,
    "number_of_reviews": null,
    "price_level": "",
    "open_hours": "",
    "extraction_timestamp": "2025-06-07T17:48:12.101Z",
    "source_name": "google",
    "source_query": "Irrigation Equipment",
    "source_country": "PL",
    "country": "Poland",
    "state": "Greater Poland Voivodeship",
    "city": "Szamotuły"
  },
  {
    "source_id": "ChIJ04I5hooWBEcRN2Iv4Twf2oM",
    "name": "Centrum Ogrodnicze Werimax",
    "category": "Centrum Ogrodnicze Werimax",
    "formatted_address": "4,4(99)",
    "phone_number": "+48612926477",
    "source_url": "https://www.google.com/maps/place/Centrum+Ogrodnicze+Werimax/data=!4m7!3m6!1s0x4704168a863982d3:0x83da1f3ce12f6237!8m2!3d52.6087657!4d16.6184362!16s%2Fg%2F1tjwgfry!19sChIJ04I5hooWBEcRN2Iv4Twf2oM?authuser=0&hl=tr&rclk=1",
    "website_url": "",
    "rating_text": "4,4",
    "stars": null,
    "number_of_reviews": null,
    "price_level": "",
    "open_hours": "",
    "extraction_timestamp": "2025-06-07T17:48:12.103Z",
    "source_name": "google",
    "source_query": "Irrigation Equipment",
    "source_country": "PL",
    "country": "Poland",
    "state": "Greater Poland Voivodeship",
    "city": "Szamotuły"
  },
  {
    "source_id": "ChIJ116TlgEXBEcRlkrR6mYFF7U",
    "name": "Bricomarché",
    "category": "Bricomarché",
    "formatted_address": "4,0(1.883)",
    "phone_number": "+48612929630",
    "source_url": "https://www.google.com/maps/place/Bricomarch%C3%A9/data=!4m7!3m6!1s0x4704170196935ed7:0xb5170566ead14a96!8m2!3d52.6183144!4d16.5779887!16s%2Fg%2F11g_c3fvs!19sChIJ116TlgEXBEcRlkrR6mYFF7U?authuser=0&hl=tr&rclk=1",
    "website_url": "",
    "rating_text": "4,0",
    "stars": null,
    "number_of_reviews": null,
    "price_level": "",
    "open_hours": "",
    "extraction_timestamp": "2025-06-07T17:48:12.105Z",
    "source_name": "google",
    "source_query": "Irrigation Equipment",
    "source_country": "PL",
    "country": "Poland",
    "state": "Greater Poland Voivodeship",
    "city": "Szamotuły"
  },
  {
    "source_id": "ChIJIawrdf8WBEcRirq8p4CBzhQ",
    "name": "Zakład I Sklep Instalacyjny Dariusz Malinowski",
    "category": "Zakład I Sklep Instalacyjny Dariusz Malinowski",
    "formatted_address": "4,6(14)",
    "phone_number": "+48669840107",
    "source_url": "https://www.google.com/maps/place/Zak%C5%82ad+I+Sklep+Instalacyjny+Dariusz+Malinowski/data=!4m7!3m6!1s0x470416ff752bac21:0x14ce8180a7bcba8a!8m2!3d52.6141556!4d16.5833997!16s%2Fg%2F11j0jd9rld!19sChIJIawrdf8WBEcRirq8p4CBzhQ?authuser=0&hl=tr&rclk=1",
    "website_url": "",
    "rating_text": "4,6",
    "stars": null,
    "number_of_reviews": null,
    "price_level": "",
    "open_hours": "",
    "extraction_timestamp": "2025-06-07T17:48:12.106Z",
    "source_name": "google",
    "source_query": "Irrigation Equipment",
    "source_country": "PL",
    "country": "Poland",
    "state": "Greater Poland Voivodeship",
    "city": "Szamotuły"
  },
  {
    "source_id": "ChIJ82XWjJwXBEcRD2Qjy5HXGqM",
    "name": "Semco Sp. z o.o. Sp.k. - Producent żywności ekologicznej",
    "category": "Semco Sp. z o.o. Sp.k. - Producent żywności ekologicznej",
    "formatted_address": "4,8(62)",
    "phone_number": "+48502556466",
    "source_url": "https://www.google.com/maps/place/Semco+Sp.+z+o.o.+Sp.k.+-+Producent+%C5%BCywno%C5%9Bci+ekologicznej/data=!4m7!3m6!1s0x4704179c8cd665f3:0xa31ad791cb23640f!8m2!3d52.6156766!4d16.5341012!16s%2Fg%2F1ttyvfkl!19sChIJ82XWjJwXBEcRD2Qjy5HXGqM?authuser=0&hl=tr&rclk=1",
    "website_url": "",
    "rating_text": "4,8",
    "stars": null,
    "number_of_reviews": null,
    "price_level": "",
    "open_hours": "",
    "extraction_timestamp": "2025-06-07T17:48:12.108Z",
    "source_name": "google",
    "source_query": "Irrigation Equipment",
    "source_country": "PL",
    "country": "Poland",
    "state": "Greater Poland Voivodeship",
    "city": "Szamotuły"
  },
  {
    "source_id": "ChIJW-IZgKoXBEcRazuwwuc7WD0",
    "name": "Targowisko Miejskie",
    "category": "Targowisko Miejskie",
    "formatted_address": "4,0(1.127)",
    "phone_number": "",
    "source_url": "https://www.google.com/maps/place/Targowisko+Miejskie/data=!4m7!3m6!1s0x470417aa8019e25b:0x3d583be7c2b03b6b!8m2!3d52.6147508!4d16.5749855!16s%2Fg%2F11bz0bf0qg!19sChIJW-IZgKoXBEcRazuwwuc7WD0?authuser=0&hl=tr&rclk=1",
    "website_url": "",
    "rating_text": "4,0",
    "stars": null,
    "number_of_reviews": null,
    "price_level": "",
    "open_hours": "",
    "extraction_timestamp": "2025-06-07T17:48:12.110Z",
    "source_name": "google",
    "source_query": "Irrigation Equipment",
    "source_country": "PL",
    "country": "Poland",
    "state": "Greater Poland Voivodeship",
    "city": "Szamotuły"
  },
  {
    "source_id": "ChIJ27__IU4XBEcRnCzPsXJ8UQA",
    "name": "Action Szamotuły",
    "category": "Action Szamotuły",
    "formatted_address": "4,5(1.045)",
    "phone_number": "+48326305898",
    "source_url": "https://www.google.com/maps/place/Action+Szamotu%C5%82y/data=!4m7!3m6!1s0x4704174e21ffbfdb:0x517c72b1cf2c9c!8m2!3d52.6183306!4d16.5800913!16s%2Fg%2F11gwm9hzkh!19sChIJ27__IU4XBEcRnCzPsXJ8UQA?authuser=0&hl=tr&rclk=1",
    "website_url": "",
    "rating_text": "4,5",
    "stars": null,
    "number_of_reviews": null,
    "price_level": "",
    "open_hours": "",
    "extraction_timestamp": "2025-06-07T17:48:12.113Z",
    "source_name": "google",
    "source_query": "Irrigation Equipment",
    "source_country": "PL",
    "country": "Poland",
    "state": "Greater Poland Voivodeship",
    "city": "Szamotuły"
  },
  {
    "source_id": "ChIJSZhJn1IWBEcRRcujJ0rCX4I",
    "name": "Galicja. Hurtownia/Szamotuły",
    "category": "Galicja. Hurtownia/Szamotuły",
    "formatted_address": "4,6(32)",
    "phone_number": "",
    "source_url": "https://www.google.com/maps/place/Galicja.+Hurtownia%2FSzamotu%C5%82y/data=!4m7!3m6!1s0x470416529f499849:0x825fc24a27a3cb45!8m2!3d52.6036902!4d16.5757102!16s%2Fg%2F11bwptg9bn!19sChIJSZhJn1IWBEcRRcujJ0rCX4I?authuser=0&hl=tr&rclk=1",
    "website_url": "",
    "rating_text": "4,6",
    "stars": null,
    "number_of_reviews": null,
    "price_level": "",
    "open_hours": "",
    "extraction_timestamp": "2025-06-07T17:48:12.113Z",
    "source_name": "google",
    "source_query": "Irrigation Equipment",
    "source_country": "PL",
    "country": "Poland",
    "state": "Greater Poland Voivodeship",
    "city": "Szamotuły"
  },
  {
    "source_id": "ChIJsUIcpKoXBEcR5iHEyLdNWMM",
    "name": "Adas Piekarstwo Handel Ogólnospożywczy Wanda Milka",
    "category": "Adas Piekarstwo Handel Ogólnospożywczy Wanda Milka",
    "formatted_address": "4,8(105) · ₺",
    "phone_number": "+48612925065",
    "source_url": "https://www.google.com/maps/place/Adas+Piekarstwo+Handel+Og%C3%B3lnospo%C5%BCywczy+Wanda+Milka/data=!4m7!3m6!1s0x470417aaa41c42b1:0xc3584db7c8c421e6!8m2!3d52.6130102!4d16.577419!16s%2Fg%2F1ts_590s!19sChIJsUIcpKoXBEcR5iHEyLdNWMM?authuser=0&hl=tr&rclk=1",
    "website_url": "",
    "rating_text": "4,8",
    "stars": null,
    "number_of_reviews": null,
    "price_level": "",
    "open_hours": "",
    "extraction_timestamp": "2025-06-07T17:48:12.115Z",
    "source_name": "google",
    "source_query": "Irrigation Equipment",
    "source_country": "PL",
    "country": "Poland",
    "state": "Greater Poland Voivodeship",
    "city": "Szamotuły"
  },
  {
    "source_id": "ChIJoQPFOFUWBEcRoDedTTqGSyw",
    "name": "PH Kuraś | Max Elektro Szamotuły",
    "category": "PH Kuraś | Max Elektro Szamotuły",
    "formatted_address": "4,8(31)",
    "phone_number": "+48618916767",
    "source_url": "https://www.google.com/maps/place/PH+Kura%C5%9B+%7C+Max+Elektro+Szamotu%C5%82y/data=!4m7!3m6!1s0x4704165538c503a1:0x2c4b863a4d9d37a0!8m2!3d52.6120557!4d16.579314!16s%2Fg%2F1td31r6n!19sChIJoQPFOFUWBEcRoDedTTqGSyw?authuser=0&hl=tr&rclk=1",
    "website_url": "",
    "rating_text": "4,8",
    "stars": null,
    "number_of_reviews": null,
    "price_level": "",
    "open_hours": "",
    "extraction_timestamp": "2025-06-07T17:48:12.117Z",
    "source_name": "google",
    "source_query": "Irrigation Equipment",
    "source_country": "PL",
    "country": "Poland",
    "state": "Greater Poland Voivodeship",
    "city": "Szamotuły"
  },
  {
    "source_id": "ChIJsecaU1UWBEcRpp4uSeIOh_8",
    "name": "Sklep Monopolowy \"Setka\"",
    "category": "Sklep Monopolowy \"Setka\"",
    "formatted_address": "4,4(91)",
    "phone_number": "+48794988523",
    "source_url": "https://www.google.com/maps/place/Sklep+Monopolowy+%22Setka%22/data=!4m7!3m6!1s0x47041655531ae7b1:0xff870ee2492e9ea6!8m2!3d52.6130544!4d16.5781982!16s%2Fg%2F11g9g0cygq!19sChIJsecaU1UWBEcRpp4uSeIOh_8?authuser=0&hl=tr&rclk=1",
    "website_url": "",
    "rating_text": "4,4",
    "stars": null,
    "number_of_reviews": null,
    "price_level": "",
    "open_hours": "",
    "extraction_timestamp": "2025-06-07T17:48:12.118Z",
    "source_name": "google",
    "source_query": "Irrigation Equipment",
    "source_country": "PL",
    "country": "Poland",
    "state": "Greater Poland Voivodeship",
    "city": "Szamotuły"
  },
  {
    "source_id": "ChIJl64rYI0XBEcR5elNMypuZBU",
    "name": "Drinks Dyskont Alkoholowy",
    "category": "Drinks Dyskont Alkoholowy",
    "formatted_address": "4,6(48)",
    "phone_number": "+48509118498",
    "source_url": "https://www.google.com/maps/place/Drinks+Dyskont+Alkoholowy/data=!4m7!3m6!1s0x4704178d602bae97:0x15646e2a334de9e5!8m2!3d52.6118367!4d16.5871993!16s%2Fg%2F11rsg7lnnl!19sChIJl64rYI0XBEcR5elNMypuZBU?authuser=0&hl=tr&rclk=1",
    "website_url": "",
    "rating_text": "4,6",
    "stars": null,
    "number_of_reviews": null,
    "price_level": "",
    "open_hours": "",
    "extraction_timestamp": "2025-06-07T17:48:12.119Z",
    "source_name": "google",
    "source_query": "Irrigation Equipment",
    "source_country": "PL",
    "country": "Poland",
    "state": "Greater Poland Voivodeship",
    "city": "Szamotuły"
  },
  {
    "source_id": "ChIJRdf4wLUXBEcRHhhdQI0HbT4",
    "name": "F.H.U. FART Krzysztof Banaszkiewicz",
    "category": "F.H.U. FART Krzysztof Banaszkiewicz",
    "formatted_address": "3,9(7)",
    "phone_number": "+48693133602",
    "source_url": "https://www.google.com/maps/place/F.H.U.+FART+Krzysztof+Banaszkiewicz/data=!4m7!3m6!1s0x470417b5c0f8d745:0x3e6d078d405d181e!8m2!3d52.611438!4d16.579395!16s%2Fg%2F1hhw5przj!19sChIJRdf4wLUXBEcRHhhdQI0HbT4?authuser=0&hl=tr&rclk=1",
    "website_url": "",
    "rating_text": "3,9",
    "stars": null,
    "number_of_reviews": null,
    "price_level": "",
    "open_hours": "",
    "extraction_timestamp": "2025-06-07T17:48:12.120Z",
    "source_name": "google",
    "source_query": "Irrigation Equipment",
    "source_country": "PL",
    "country": "Poland",
    "state": "Greater Poland Voivodeship",
    "city": "Szamotuły"
  },
  {
    "source_id": "ChIJWcjgjwMXBEcR8YitYWUTMqQ",
    "name": "Monopolowy Jackie",
    "category": "Monopolowy Jackie",
    "formatted_address": "4,6(36)",
    "phone_number": "",
    "source_url": "https://www.google.com/maps/place/Monopolowy+Jackie/data=!4m7!3m6!1s0x470417038fe0c859:0xa432136561ad88f1!8m2!3d52.6213105!4d16.5763253!16s%2Fg%2F11j7xrxs7b!19sChIJWcjgjwMXBEcR8YitYWUTMqQ?authuser=0&hl=tr&rclk=1",
    "website_url": "",
    "rating_text": "4,6",
    "stars": null,
    "number_of_reviews": null,
    "price_level": "",
    "open_hours": "",
    "extraction_timestamp": "2025-06-07T17:48:12.121Z",
    "source_name": "google",
    "source_query": "Irrigation Equipment",
    "source_country": "PL",
    "country": "Poland",
    "state": "Greater Poland Voivodeship",
    "city": "Szamotuły"
  },
  {
    "source_id": "ChIJ40NfpTcXBEcRBokEg7IkYrg",
    "name": "Martes Sport",
    "category": "Martes Sport",
    "formatted_address": "3,6(33)",
    "phone_number": "+48797995653",
    "source_url": "https://www.google.com/maps/place/Martes+Sport/data=!4m7!3m6!1s0x47041737a55f43e3:0xb86224b283048906!8m2!3d52.6079551!4d16.5830447!16s%2Fg%2F11pclxmcrz!19sChIJ40NfpTcXBEcRBokEg7IkYrg?authuser=0&hl=tr&rclk=1",
    "website_url": "",
    "rating_text": "3,6",
    "stars": null,
    "number_of_reviews": null,
    "price_level": "",
    "open_hours": "",
    "extraction_timestamp": "2025-06-07T17:48:12.123Z",
    "source_name": "google",
    "source_query": "Irrigation Equipment",
    "source_country": "PL",
    "country": "Poland",
    "state": "Greater Poland Voivodeship",
    "city": "Szamotuły"
  },
  {
    "source_id": "ChIJTVhrd_8WBEcRBePNDVXZogM",
    "name": "Stokrotka Market",
    "category": "Stokrotka Market",
    "formatted_address": "4,0(149)",
    "phone_number": "+48818889200",
    "source_url": "https://www.google.com/maps/place/Stokrotka+Market/data=!4m7!3m6!1s0x470416ff776b584d:0x3a2d9550dcde305!8m2!3d52.6134745!4d16.5831874!16s%2Fg%2F11cn94ypjr!19sChIJTVhrd_8WBEcRBePNDVXZogM?authuser=0&hl=tr&rclk=1",
    "website_url": "",
    "rating_text": "4,0",
    "stars": null,
    "number_of_reviews": null,
    "price_level": "",
    "open_hours": "",
    "extraction_timestamp": "2025-06-07T17:48:12.124Z",
    "source_name": "google",
    "source_query": "Irrigation Equipment",
    "source_country": "PL",
    "country": "Poland",
    "state": "Greater Poland Voivodeship",
    "city": "Szamotuły"
  },
  {
    "source_id": "ChIJr-3Ndv8WBEcRfRpjVVeAgYc",
    "name": "Świat Zabawek",
    "category": "Świat Zabawek",
    "formatted_address": "4,5(17)",
    "phone_number": "+48614438493",
    "source_url": "https://www.google.com/maps/place/%C5%9Awiat+Zabawek/data=!4m7!3m6!1s0x470416ff76cdedaf:0x8781805755631a7d!8m2!3d52.6136673!4d16.5834344!16s%2Fg%2F11g2yjsc_f!19sChIJr-3Ndv8WBEcRfRpjVVeAgYc?authuser=0&hl=tr&rclk=1",
    "website_url": "",
    "rating_text": "4,5",
    "stars": null,
    "number_of_reviews": null,
    "price_level": "",
    "open_hours": "",
    "extraction_timestamp": "2025-06-07T17:48:12.125Z",
    "source_name": "google",
    "source_query": "Irrigation Equipment",
    "source_country": "PL",
    "country": "Poland",
    "state": "Greater Poland Voivodeship",
    "city": "Szamotuły"
  },
  {
    "source_id": "ChIJeR5wdP8WBEcR4N_lpaspaxE",
    "name": "Hebe",
    "category": "Hebe",
    "formatted_address": "4,6(182)",
    "phone_number": "+48222065400",
    "source_url": "https://www.google.com/maps/place/Hebe/data=!4m7!3m6!1s0x470416ff74701e79:0x116b29aba5e5dfe0!8m2!3d52.6135313!4d16.5833522!16s%2Fg%2F11cn0qrk33!19sChIJeR5wdP8WBEcR4N_lpaspaxE?authuser=0&hl=tr&rclk=1",
    "website_url": "",
    "rating_text": "4,6",
    "stars": null,
    "number_of_reviews": null,
    "price_level": "",
    "open_hours": "",
    "extraction_timestamp": "2025-06-07T17:48:12.127Z",
    "source_name": "google",
    "source_query": "Irrigation Equipment",
    "source_country": "PL",
    "country": "Poland",
    "state": "Greater Poland Voivodeship",
    "city": "Szamotuły"
  },
  {
    "source_id": "ChIJtRjiLlUWBEcRi_gtan6agdI",
    "name": "Drogeria Rossmann",
    "category": "Drogeria Rossmann",
    "formatted_address": "4,5(465)",
    "phone_number": "+48426139700",
    "source_url": "https://www.google.com/maps/place/Drogeria+Rossmann/data=!4m7!3m6!1s0x470416552ee218b5:0xd2819a7e6a2df88b!8m2!3d52.607901!4d16.58285!16s%2Fg%2F1tdfrvg6!19sChIJtRjiLlUWBEcRi_gtan6agdI?authuser=0&hl=tr&rclk=1",
    "website_url": "",
    "rating_text": "4,5",
    "stars": null,
    "number_of_reviews": null,
    "price_level": "",
    "open_hours": "",
    "extraction_timestamp": "2025-06-07T17:48:12.128Z",
    "source_name": "google",
    "source_query": "Irrigation Equipment",
    "source_country": "PL",
    "country": "Poland",
    "state": "Greater Poland Voivodeship",
    "city": "Szamotuły"
  },
  {
    "source_id": "ChIJD05WrcQXBEcREEn4AXLDerk",
    "name": "Inter Cars S.A. części i technika motoryzacyjna",
    "category": "Inter Cars S.A. części i technika motoryzacyjna",
    "formatted_address": "4,7(86)",
    "phone_number": "+48618507699",
    "source_url": "https://www.google.com/maps/place/Inter+Cars+S.A.+cz%C4%99%C5%9Bci+i+technika+motoryzacyjna/data=!4m7!3m6!1s0x470417c4ad564e0f:0xb97ac37201f84910!8m2!3d52.6135158!4d16.5849784!16s%2Fg%2F11frr2jq0l!19sChIJD05WrcQXBEcREEn4AXLDerk?authuser=0&hl=tr&rclk=1",
    "website_url": "",
    "rating_text": "4,7",
    "stars": null,
    "number_of_reviews": null,
    "price_level": "",
    "open_hours": "",
    "extraction_timestamp": "2025-06-07T17:48:12.129Z",
    "source_name": "google",
    "source_query": "Irrigation Equipment",
    "source_country": "PL",
    "country": "Poland",
    "state": "Greater Poland Voivodeship",
    "city": "Szamotuły"
  },
  {
    "source_id": "ChIJfyLpkFAWBEcRabhWppaRy6s",
    "name": "U Jugola",
    "category": "U Jugola",
    "formatted_address": "5,0(7)",
    "phone_number": "",
    "source_url": "https://www.google.com/maps/place/U+Jugola/data=!4m7!3m6!1s0x4704165090e9227f:0xabcb9196a656b869!8m2!3d52.6047783!4d16.5884632!16s%2Fg%2F11kjmfkzbx!19sChIJfyLpkFAWBEcRabhWppaRy6s?authuser=0&hl=tr&rclk=1",
    "website_url": "",
    "rating_text": "5,0",
    "stars": null,
    "number_of_reviews": null,
    "price_level": "",
    "open_hours": "",
    "extraction_timestamp": "2025-06-07T17:48:12.130Z",
    "source_name": "google",
    "source_query": "Irrigation Equipment",
    "source_country": "PL",
    "country": "Poland",
    "state": "Greater Poland Voivodeship",
    "city": "Szamotuły"
  },
  {
    "source_id": "ChIJMf0MtIIXBEcR-iB4vh4tHYw",
    "name": "JYSK Szamotuły",
    "category": "JYSK Szamotuły",
    "formatted_address": "4,6(74)",
    "phone_number": "+48222885900",
    "source_url": "https://www.google.com/maps/place/JYSK+Szamotu%C5%82y/data=!4m7!3m6!1s0x47041782b40cfd31:0x8c1d2d1ebe7820fa!8m2!3d52.6088066!4d16.5836836!16s%2Fg%2F11k3lrzx9h!19sChIJMf0MtIIXBEcR-iB4vh4tHYw?authuser=0&hl=tr&rclk=1",
    "website_url": "",
    "rating_text": "4,6",
    "stars": null,
    "number_of_reviews": null,
    "price_level": "",
    "open_hours": "",
    "extraction_timestamp": "2025-06-07T17:48:12.131Z",
    "source_name": "google",
    "source_query": "Irrigation Equipment",
    "source_country": "PL",
    "country": "Poland",
    "state": "Greater Poland Voivodeship",
    "city": "Szamotuły"
  }
]
