[
  {
    "source_id": "ChIJQXpZS7B2EEcRlQMRhO4tz_M",
    "name": "ZAKŁAD USŁUGOWO-HANDLOWY \"REM KĘPNO\" SP. Z O.O.",
    "category": "ZAKŁAD USŁUGOWO-HANDLOWY \"REM KĘPNO\" SP. Z O.O.",
    "formatted_address": "4,4(19)",
    "phone_number": "+48627829010",
    "source_url": "https://www.google.com/maps/place/ZAK%C5%81AD+US%C5%81UGOWO-HANDLOWY+%22REM+K%C4%98PNO%22+SP.+Z+O.O./data=!4m7!3m6!1s0x471076b04b597a41:0xf3cf2dee84110395!8m2!3d51.2164529!4d18.0959629!16s%2Fg%2F1tfw1rzx!19sChIJQXpZS7B2EEcRlQMRhO4tz_M?authuser=0&hl=tr&rclk=1",
    "website_url": "",
    "rating_text": "4,4",
    "stars": null,
    "number_of_reviews": null,
    "price_level": "",
    "open_hours": "",
    "extraction_timestamp": "2025-06-07T17:13:00.010Z",
    "source_name": "google",
    "source_query": "Irrigation Equipment",
    "source_country": "PL",
    "country": "Poland",
    "state": "Greater Poland Voivodeship",
    "city": "Słupia pod Kępnem"
  },
  {
    "source_id": "ChIJvS0uHPQIEEcROFaLCv046mk",
    "name": "Kompresory, lakierowanie proszkowe - Kompresjan",
    "category": "Kompresory, lakierowanie proszkowe - Kompresjan",
    "formatted_address": "Kompresory, lakierowanie proszkowe - Kompresjan",
    "phone_number": "+48627869510",
    "source_url": "https://www.google.com/maps/place/Kompresory,+lakierowanie+proszkowe+-+Kompresjan/data=!4m7!3m6!1s0x471008f41c2e2dbd:0x69ea38fd0a8b5638!8m2!3d51.293394!4d17.79056!16s%2Fg%2F1td5p_hs!19sChIJvS0uHPQIEEcROFaLCv046mk?authuser=0&hl=tr&rclk=1",
    "website_url": "",
    "rating_text": "4,2",
    "stars": null,
    "number_of_reviews": null,
    "price_level": "",
    "open_hours": "",
    "extraction_timestamp": "2025-06-07T17:13:00.010Z",
    "source_name": "google",
    "source_query": "Irrigation Equipment",
    "source_country": "PL",
    "country": "Poland",
    "state": "Greater Poland Voivodeship",
    "city": "Słupia pod Kępnem"
  },
  {
    "source_id": "ChIJIQ_20tsHEEcRUdsbgyowByA",
    "name": "inaer",
    "category": "inaer",
    "formatted_address": "5,0(4)",
    "phone_number": "+48502761961",
    "source_url": "https://www.google.com/maps/place/inaer/data=!4m7!3m6!1s0x471007dbd2f60f21:0x2007302a831bdb51!8m2!3d51.27194!4d17.71403!16s%2Fg%2F11fqxmxj61!19sChIJIQ_20tsHEEcRUdsbgyowByA?authuser=0&hl=tr&rclk=1",
    "website_url": "",
    "rating_text": "5,0",
    "stars": null,
    "number_of_reviews": null,
    "price_level": "",
    "open_hours": "",
    "extraction_timestamp": "2025-06-07T17:13:00.010Z",
    "source_name": "google",
    "source_query": "Irrigation Equipment",
    "source_country": "PL",
    "country": "Poland",
    "state": "Greater Poland Voivodeship",
    "city": "Słupia pod Kępnem"
  },
  {
    "source_id": "ChIJB6y_v5J2HEcRlDfYx3xmc9M",
    "name": "Milex irrigation systems",
    "category": "Milex irrigation systems",
    "formatted_address": "4,6(37)",
    "phone_number": "+48242775222",
    "source_url": "https://www.google.com/maps/place/Milex+irrigation+systems/data=!4m7!3m6!1s0x471c7692bfbfac07:0xd373667cc7d83794!8m2!3d52.4690634!4d19.7520904!16s%2Fg%2F1w2yy67r!19sChIJB6y_v5J2HEcRlDfYx3xmc9M?authuser=0&hl=tr&rclk=1",
    "website_url": "",
    "rating_text": "4,6",
    "stars": null,
    "number_of_reviews": null,
    "price_level": "",
    "open_hours": "",
    "extraction_timestamp": "2025-06-07T17:13:00.011Z",
    "source_name": "google",
    "source_query": "Irrigation Equipment",
    "source_country": "PL",
    "country": "Poland",
    "state": "Greater Poland Voivodeship",
    "city": "Słupia pod Kępnem"
  },
  {
    "source_id": "ChIJyYQ4z692EEcRuzqB_lTO-Io",
    "name": "Solaris - instalator kolektorów słonecznych",
    "category": "Solaris - instalator kolektorów słonecznych",
    "formatted_address": "4,0(12)",
    "phone_number": "+48724296471",
    "source_url": "https://www.google.com/maps/place/Solaris+-+instalator+kolektor%C3%B3w+s%C5%82onecznych/data=!4m7!3m6!1s0x471076afcf3884c9:0x8af8ce54fe813abb!8m2!3d51.2143897!4d18.0997343!16s%2Fg%2F11h48ws8ds!19sChIJyYQ4z692EEcRuzqB_lTO-Io?authuser=0&hl=tr&rclk=1",
    "website_url": "",
    "rating_text": "4,0",
    "stars": null,
    "number_of_reviews": null,
    "price_level": "",
    "open_hours": "",
    "extraction_timestamp": "2025-06-07T17:13:00.011Z",
    "source_name": "google",
    "source_query": "Irrigation Equipment",
    "source_country": "PL",
    "country": "Poland",
    "state": "Greater Poland Voivodeship",
    "city": "Słupia pod Kępnem"
  },
  {
    "source_id": "ChIJiYSXNQB1EEcR9diSZwu6ZGA",
    "name": "HYDRO-MONT DARIUSZ WOŹNY",
    "category": "HYDRO-MONT DARIUSZ WOŹNY",
    "formatted_address": "5,0(1)",
    "phone_number": "+48883434966",
    "source_url": "https://www.google.com/maps/place/HYDRO-MONT+DARIUSZ+WO%C5%B9NY/data=!4m7!3m6!1s0x4710750035978489:0x6064ba0b6792d8f5!8m2!3d51.2623844!4d18.0261855!16s%2Fg%2F11ybvjl72h!19sChIJiYSXNQB1EEcR9diSZwu6ZGA?authuser=0&hl=tr&rclk=1",
    "website_url": "",
    "rating_text": "5,0",
    "stars": null,
    "number_of_reviews": null,
    "price_level": "",
    "open_hours": "",
    "extraction_timestamp": "2025-06-07T17:13:00.011Z",
    "source_name": "google",
    "source_query": "Irrigation Equipment",
    "source_country": "PL",
    "country": "Poland",
    "state": "Greater Poland Voivodeship",
    "city": "Słupia pod Kępnem"
  },
  {
    "source_id": "ChIJB3lg7UZ1EEcRKF8pTutMLYA",
    "name": "Voltero - | Fotowoltaika | Pompy ciepła | Klimatyzacje |",
    "category": "Voltero - | Fotowoltaika | Pompy ciepła | Klimatyzacje |",
    "formatted_address": "5,0(26)",
    "phone_number": "+48601743766",
    "source_url": "https://www.google.com/maps/place/Voltero+-+%7C+Fotowoltaika+%7C+Pompy+ciep%C5%82a+%7C+Klimatyzacje+%7C/data=!4m7!3m6!1s0x47107546ed607907:0x802d4ceb4e295f28!8m2!3d51.2671407!4d18.0020656!16s%2Fg%2F11j9ctctn4!19sChIJB3lg7UZ1EEcRKF8pTutMLYA?authuser=0&hl=tr&rclk=1",
    "website_url": "",
    "rating_text": "5,0",
    "stars": null,
    "number_of_reviews": null,
    "price_level": "",
    "open_hours": "",
    "extraction_timestamp": "2025-06-07T17:13:00.026Z",
    "source_name": "google",
    "source_query": "Irrigation Equipment",
    "source_country": "PL",
    "country": "Poland",
    "state": "Greater Poland Voivodeship",
    "city": "Słupia pod Kępnem"
  },
  {
    "source_id": "ChIJceD4AJd1EEcRh27ryXhyUhI",
    "name": "PSB Mrówka",
    "category": "PSB Mrówka",
    "formatted_address": "4,4(788)",
    "phone_number": "+48625065002",
    "source_url": "https://www.google.com/maps/place/PSB+Mr%C3%B3wka/data=!4m7!3m6!1s0x4710759700f8e071:0x12527278c9eb6e87!8m2!3d51.2653941!4d17.9987508!16s%2Fg%2F11h0hjk7m2!19sChIJceD4AJd1EEcRh27ryXhyUhI?authuser=0&hl=tr&rclk=1",
    "website_url": "",
    "rating_text": "4,4",
    "stars": null,
    "number_of_reviews": null,
    "price_level": "",
    "open_hours": "",
    "extraction_timestamp": "2025-06-07T17:13:00.027Z",
    "source_name": "google",
    "source_query": "Irrigation Equipment",
    "source_country": "PL",
    "country": "Poland",
    "state": "Greater Poland Voivodeship",
    "city": "Słupia pod Kępnem"
  },
  {
    "source_id": "ChIJ8y_NzqB0EEcRUVejKAGEK-M",
    "name": "Centrum Handlowe Zimoch",
    "category": "Centrum Handlowe Zimoch",
    "formatted_address": "4,1(183)",
    "phone_number": "",
    "source_url": "https://www.google.com/maps/place/Centrum+Handlowe+Zimoch/data=!4m7!3m6!1s0x471074a0cecd2ff3:0xe32b840128a35751!8m2!3d51.2251497!4d17.9880283!16s%2Fg%2F11h9gfdccq!19sChIJ8y_NzqB0EEcRUVejKAGEK-M?authuser=0&hl=tr&rclk=1",
    "website_url": "",
    "rating_text": "4,1",
    "stars": null,
    "number_of_reviews": null,
    "price_level": "",
    "open_hours": "",
    "extraction_timestamp": "2025-06-07T17:13:00.027Z",
    "source_name": "google",
    "source_query": "Irrigation Equipment",
    "source_country": "PL",
    "country": "Poland",
    "state": "Greater Poland Voivodeship",
    "city": "Słupia pod Kępnem"
  },
  {
    "source_id": "ChIJB_XUjV50EEcRbf75Y70X92M",
    "name": "Lewiatan",
    "category": "Lewiatan",
    "formatted_address": "4,5(168)",
    "phone_number": "+48627818185",
    "source_url": "https://www.google.com/maps/place/Lewiatan/data=!4m7!3m6!1s0x4710745e8dd4f507:0x63f717bd63f9fe6d!8m2!3d51.2394665!4d18.0437423!16s%2Fg%2F11cs23pp6l!19sChIJB_XUjV50EEcRbf75Y70X92M?authuser=0&hl=tr&rclk=1",
    "website_url": "",
    "rating_text": "4,5",
    "stars": null,
    "number_of_reviews": null,
    "price_level": "",
    "open_hours": "",
    "extraction_timestamp": "2025-06-07T17:13:00.028Z",
    "source_name": "google",
    "source_query": "Irrigation Equipment",
    "source_country": "PL",
    "country": "Poland",
    "state": "Greater Poland Voivodeship",
    "city": "Słupia pod Kępnem"
  },
  {
    "source_id": "ChIJwY-X36B0EEcRKMNS0L91Mmg",
    "name": "Usługi koparkowe Mąka",
    "category": "Usługi koparkowe Mąka",
    "formatted_address": "4,7(12)",
    "phone_number": "+48602523330",
    "source_url": "https://www.google.com/maps/place/Us%C5%82ugi+koparkowe+M%C4%85ka/data=!4m7!3m6!1s0x471074a0df978fc1:0x683275bfd052c328!8m2!3d51.2283807!4d17.9890717!16s%2Fg%2F1tjddxt_!19sChIJwY-X36B0EEcRKMNS0L91Mmg?authuser=0&hl=tr&rclk=1",
    "website_url": "",
    "rating_text": "4,7",
    "stars": null,
    "number_of_reviews": null,
    "price_level": "",
    "open_hours": "",
    "extraction_timestamp": "2025-06-07T17:13:00.029Z",
    "source_name": "google",
    "source_query": "Irrigation Equipment",
    "source_country": "PL",
    "country": "Poland",
    "state": "Greater Poland Voivodeship",
    "city": "Słupia pod Kępnem"
  },
  {
    "source_id": "ChIJMWdG3eB1EEcR5EIRKGvgj98",
    "name": "Martes Sport",
    "category": "Martes Sport",
    "formatted_address": "5,0(3)",
    "phone_number": "+48502268431",
    "source_url": "https://www.google.com/maps/place/Martes+Sport/data=!4m7!3m6!1s0x471075e0dd466731:0xdf8fe06b281142e4!8m2!3d51.2692337!4d17.9940887!16s%2Fg%2F11vlq9yn8h!19sChIJMWdG3eB1EEcR5EIRKGvgj98?authuser=0&hl=tr&rclk=1",
    "website_url": "",
    "rating_text": "5,0",
    "stars": null,
    "number_of_reviews": null,
    "price_level": "",
    "open_hours": "",
    "extraction_timestamp": "2025-06-07T17:13:00.030Z",
    "source_name": "google",
    "source_query": "Irrigation Equipment",
    "source_country": "PL",
    "country": "Poland",
    "state": "Greater Poland Voivodeship",
    "city": "Słupia pod Kępnem"
  },
  {
    "source_id": "ChIJIV41y291EEcRfNRWWZ8Qr8Q",
    "name": "Sklep Piekarniczo-Cukierniczy",
    "category": "Sklep Piekarniczo-Cukierniczy",
    "formatted_address": "5,0(3)",
    "phone_number": "+48693023233",
    "source_url": "https://www.google.com/maps/place/Sklep+Piekarniczo-Cukierniczy/data=!4m7!3m6!1s0x4710756fcb355e21:0xc4af109f5956d47c!8m2!3d51.2385451!4d18.0450814!16s%2Fg%2F11rk8dtqt5!19sChIJIV41y291EEcRfNRWWZ8Qr8Q?authuser=0&hl=tr&rclk=1",
    "website_url": "",
    "rating_text": "5,0",
    "stars": null,
    "number_of_reviews": null,
    "price_level": "",
    "open_hours": "",
    "extraction_timestamp": "2025-06-07T17:13:00.031Z",
    "source_name": "google",
    "source_query": "Irrigation Equipment",
    "source_country": "PL",
    "country": "Poland",
    "state": "Greater Poland Voivodeship",
    "city": "Słupia pod Kępnem"
  },
  {
    "source_id": "ChIJU-BAnLl1EEcRdKUl_nQlf_s",
    "name": "Drogeria dm",
    "category": "Drogeria dm",
    "formatted_address": "4,9(13)",
    "phone_number": "+48623100990",
    "source_url": "https://www.google.com/maps/place/Drogeria+dm/data=!4m7!3m6!1s0x471075b99c40e053:0xfb7f2574fe25a574!8m2!3d51.2706302!4d17.9941051!16s%2Fg%2F11vs3pbb8t!19sChIJU-BAnLl1EEcRdKUl_nQlf_s?authuser=0&hl=tr&rclk=1",
    "website_url": "",
    "rating_text": "4,9",
    "stars": null,
    "number_of_reviews": null,
    "price_level": "",
    "open_hours": "",
    "extraction_timestamp": "2025-06-07T17:13:00.032Z",
    "source_name": "google",
    "source_query": "Irrigation Equipment",
    "source_country": "PL",
    "country": "Poland",
    "state": "Greater Poland Voivodeship",
    "city": "Słupia pod Kępnem"
  },
  {
    "source_id": "ChIJYWYs_c0KEEcRD529D_y1Mec",
    "name": "Usługi Hydrauliczne Hydro-Pol",
    "category": "Usługi Hydrauliczne Hydro-Pol",
    "formatted_address": "3,0(2)",
    "phone_number": "+48606830688",
    "source_url": "https://www.google.com/maps/place/Us%C5%82ugi+Hydrauliczne+Hydro-Pol/data=!4m7!3m6!1s0x47100acdfd2c6661:0xe731b5fc0fbd9d0f!8m2!3d51.277814!4d17.9904712!16s%2Fg%2F11j7xs629h!19sChIJYWYs_c0KEEcRD529D_y1Mec?authuser=0&hl=tr&rclk=1",
    "website_url": "",
    "rating_text": "3,0",
    "stars": null,
    "number_of_reviews": null,
    "price_level": "",
    "open_hours": "",
    "extraction_timestamp": "2025-06-07T17:13:00.033Z",
    "source_name": "google",
    "source_query": "Irrigation Equipment",
    "source_country": "PL",
    "country": "Poland",
    "state": "Greater Poland Voivodeship",
    "city": "Słupia pod Kępnem"
  },
  {
    "source_id": "ChIJm625uAp1EEcRAsChcXpvIYo",
    "name": "Punkt Apteczny Słupia",
    "category": "Punkt Apteczny Słupia",
    "formatted_address": "5,0(3)",
    "phone_number": "+48515267575",
    "source_url": "https://www.google.com/maps/place/Punkt+Apteczny+S%C5%82upia/data=!4m7!3m6!1s0x4710750ab8b9ad9b:0x8a216f7a71a1c002!8m2!3d51.245393!4d18.0443809!16s%2Fg%2F11gjhhyg9n!19sChIJm625uAp1EEcRAsChcXpvIYo?authuser=0&hl=tr&rclk=1",
    "website_url": "",
    "rating_text": "5,0",
    "stars": null,
    "number_of_reviews": null,
    "price_level": "",
    "open_hours": "",
    "extraction_timestamp": "2025-06-07T17:13:00.033Z",
    "source_name": "google",
    "source_query": "Irrigation Equipment",
    "source_country": "PL",
    "country": "Poland",
    "state": "Greater Poland Voivodeship",
    "city": "Słupia pod Kępnem"
  },
  {
    "source_id": "ChIJo1bjffV0EEcRSqcpI-w2L-8",
    "name": "Skąpski Marek. Sklep spożywczo - przemysłowy",
    "category": "Skąpski Marek. Sklep spożywczo - przemysłowy",
    "formatted_address": "5,0(2)",
    "phone_number": "+48627818185",
    "source_url": "https://www.google.com/maps/place/Sk%C4%85pski+Marek.+Sklep+spo%C5%BCywczo+-+przemys%C5%82owy/data=!4m7!3m6!1s0x471074f57de356a3:0xef2f36ec2329a74a!8m2!3d51.2394665!4d18.0437423!16s%2Fg%2F1tfzqn3d!19sChIJo1bjffV0EEcRSqcpI-w2L-8?authuser=0&hl=tr&rclk=1",
    "website_url": "",
    "rating_text": "5,0",
    "stars": null,
    "number_of_reviews": null,
    "price_level": "",
    "open_hours": "",
    "extraction_timestamp": "2025-06-07T17:13:00.034Z",
    "source_name": "google",
    "source_query": "Irrigation Equipment",
    "source_country": "PL",
    "country": "Poland",
    "state": "Greater Poland Voivodeship",
    "city": "Słupia pod Kępnem"
  }
]
