[
  {
    "source_id": "ChIJozOhgQXGBEcRjPwqJnp1WSc",
    "name": "Bricomarché",
    "category": "Bricomarché",
    "formatted_address": "4,1(1.002)",
    "phone_number": "+48633067020",
    "source_url": "https://www.google.com/maps/place/Bricomarch%C3%A9/data=!4m7!3m6!1s0x4704c60581a133a3:0x2759757a262afc8c!8m2!3d52.2968856!4d17.8744814!16s%2Fg%2F11byyr79cm!19sChIJozOhgQXGBEcRjPwqJnp1WSc?authuser=0&hl=tr&rclk=1",
    "website_url": "",
    "rating_text": "4,1",
    "stars": null,
    "number_of_reviews": null,
    "price_level": "",
    "open_hours": "",
    "extraction_timestamp": "2025-06-07T18:01:00.045Z",
    "source_name": "google",
    "source_query": "Irrigation Equipment",
    "source_country": "PL",
    "country": "Poland",
    "state": "Greater Poland Voivodeship",
    "city": "Słupca"
  },
  {
    "source_id": "ChIJ_b56H3XGBEcRQ0ryLAkupic",
    "name": "Jupro-Taim Bis s.j. Technika grzewcza i sanitarna. Ścięgaj G.",
    "category": "Jupro-Taim Bis s.j. Technika grzewcza i sanitarna. Ścięgaj G.",
    "formatted_address": "4,6(15)",
    "phone_number": "+48632743775",
    "source_url": "https://www.google.com/maps/place/Jupro-Taim+Bis+s.j.+Technika+grzewcza+i+sanitarna.+%C5%9Aci%C4%99gaj+G./data=!4m7!3m6!1s0x4704c6751f7abefd:0x27a62e092cf24a43!8m2!3d52.2928029!4d17.8534548!16s%2Fg%2F1tmxd7xx!19sChIJ_b56H3XGBEcRQ0ryLAkupic?authuser=0&hl=tr&rclk=1",
    "website_url": "",
    "rating_text": "4,6",
    "stars": null,
    "number_of_reviews": null,
    "price_level": "",
    "open_hours": "",
    "extraction_timestamp": "2025-06-07T18:01:00.047Z",
    "source_name": "google",
    "source_query": "Irrigation Equipment",
    "source_country": "PL",
    "country": "Poland",
    "state": "Greater Poland Voivodeship",
    "city": "Słupca"
  },
  {
    "source_id": "ChIJvfGnO_7FBEcR-Y5Dp_Pw_uo",
    "name": "EKOSOL Instalacje Sanitarno Grzewcze Bartosz Kwiatkowski",
    "category": "EKOSOL Instalacje Sanitarno Grzewcze Bartosz Kwiatkowski",
    "formatted_address": "4,8(10)",
    "phone_number": "+48669105545",
    "source_url": "https://www.google.com/maps/place/EKOSOL+Instalacje+Sanitarno+Grzewcze+Bartosz+Kwiatkowski/data=!4m7!3m6!1s0x4704c5fe3ba7f1bd:0xeafef0f3a7438ef9!8m2!3d52.2859072!4d17.8789855!16s%2Fg%2F1tfp14s7!19sChIJvfGnO_7FBEcR-Y5Dp_Pw_uo?authuser=0&hl=tr&rclk=1",
    "website_url": "",
    "rating_text": "4,8",
    "stars": null,
    "number_of_reviews": null,
    "price_level": "",
    "open_hours": "",
    "extraction_timestamp": "2025-06-07T18:01:00.048Z",
    "source_name": "google",
    "source_query": "Irrigation Equipment",
    "source_country": "PL",
    "country": "Poland",
    "state": "Greater Poland Voivodeship",
    "city": "Słupca"
  },
  {
    "source_id": "ChIJJ-xgbxrGBEcRkcuD0NIqf3w",
    "name": "Rejonowy Związek Spółek Wodnych",
    "category": "Rejonowy Związek Spółek Wodnych",
    "formatted_address": "4,5(4)",
    "phone_number": "+48632743223",
    "source_url": "https://www.google.com/maps/place/Rejonowy+Zwi%C4%85zek+Sp%C3%B3%C5%82ek+Wodnych/data=!4m7!3m6!1s0x4704c61a6f60ec27:0x7c7f2ad2d083cb91!8m2!3d52.3011741!4d17.8795141!16s%2Fg%2F11h0vpw81t!19sChIJJ-xgbxrGBEcRkcuD0NIqf3w?authuser=0&hl=tr&rclk=1",
    "website_url": "",
    "rating_text": "4,5",
    "stars": null,
    "number_of_reviews": null,
    "price_level": "",
    "open_hours": "",
    "extraction_timestamp": "2025-06-07T18:01:00.049Z",
    "source_name": "google",
    "source_query": "Irrigation Equipment",
    "source_country": "PL",
    "country": "Poland",
    "state": "Greater Poland Voivodeship",
    "city": "Słupca"
  },
  {
    "source_id": "ChIJt9wEj__FBEcRffShUjLIvPM",
    "name": "KORNIK Max-dom. PHU",
    "category": "KORNIK Max-dom. PHU",
    "formatted_address": "4,7(108)",
    "phone_number": "+48632742247",
    "source_url": "https://www.google.com/maps/place/KORNIK+Max-dom.+PHU/data=!4m7!3m6!1s0x4704c5ff8f04dcb7:0xf3bcc83252a1f47d!8m2!3d52.2842221!4d17.8826308!16s%2Fg%2F1tql3gtb!19sChIJt9wEj__FBEcRffShUjLIvPM?authuser=0&hl=tr&rclk=1",
    "website_url": "",
    "rating_text": "4,7",
    "stars": null,
    "number_of_reviews": null,
    "price_level": "",
    "open_hours": "",
    "extraction_timestamp": "2025-06-07T18:01:00.050Z",
    "source_name": "google",
    "source_query": "Irrigation Equipment",
    "source_country": "PL",
    "country": "Poland",
    "state": "Greater Poland Voivodeship",
    "city": "Słupca"
  },
  {
    "source_id": "ChIJleEatGTHBEcRnrkQxsHqSeo",
    "name": "Izma-Instalbud",
    "category": "Izma-Instalbud",
    "formatted_address": "5,0(9)",
    "phone_number": "+48574403526",
    "source_url": "https://www.google.com/maps/place/Izma-Instalbud/data=!4m7!3m6!1s0x4704c764b41ae195:0xea49eac1c610b99e!8m2!3d52.2898201!4d17.8708724!16s%2Fg%2F11vz126ksl!19sChIJleEatGTHBEcRnrkQxsHqSeo?authuser=0&hl=tr&rclk=1",
    "website_url": "",
    "rating_text": "5,0",
    "stars": null,
    "number_of_reviews": null,
    "price_level": "",
    "open_hours": "",
    "extraction_timestamp": "2025-06-07T18:01:00.052Z",
    "source_name": "google",
    "source_query": "Irrigation Equipment",
    "source_country": "PL",
    "country": "Poland",
    "state": "Greater Poland Voivodeship",
    "city": "Słupca"
  },
  {
    "source_id": "ChIJg1_QdwfGBEcRm6n8dK-Q0UY",
    "name": "Dziewiątka. Sklep elektroniczny. Części RTV i AGD",
    "category": "Dziewiątka. Sklep elektroniczny. Części RTV i AGD",
    "formatted_address": "4,0(85)",
    "phone_number": "+48632771339",
    "source_url": "https://www.google.com/maps/place/Dziewi%C4%85tka.+Sklep+elektroniczny.+Cz%C4%99%C5%9Bci+RTV+i+AGD/data=!4m7!3m6!1s0x4704c60777d05f83:0x46d190af74fca99b!8m2!3d52.288542!4d17.8741932!16s%2Fg%2F1pv157b5n!19sChIJg1_QdwfGBEcRm6n8dK-Q0UY?authuser=0&hl=tr&rclk=1",
    "website_url": "",
    "rating_text": "4,0",
    "stars": null,
    "number_of_reviews": null,
    "price_level": "",
    "open_hours": "",
    "extraction_timestamp": "2025-06-07T18:01:00.053Z",
    "source_name": "google",
    "source_query": "Irrigation Equipment",
    "source_country": "PL",
    "country": "Poland",
    "state": "Greater Poland Voivodeship",
    "city": "Słupca"
  },
  {
    "source_id": "ChIJreQjaIzGBEcRahFfRhvYgqI",
    "name": "SANTERM Technika grzewcza i sanitarna Pompy ciepła Kotły gazowe Wyposażenie łazienek Rekuperacja Klimatyzacja Nawadnianie",
    "category": "SANTERM Technika grzewcza i sanitarna Pompy ciepła Kotły gazowe Wyposażenie łazienek Rekuperacja Klimatyzacja Nawadnianie",
    "formatted_address": "4,6(35)",
    "phone_number": "+48511930206",
    "source_url": "https://www.google.com/maps/place/SANTERM+Technika+grzewcza+i+sanitarna+Pompy+ciep%C5%82a+Kot%C5%82y+gazowe+Wyposa%C5%BCenie+%C5%82azienek+Rekuperacja+Klimatyzacja+Nawadnianie/data=!4m7!3m6!1s0x4704c68c6823e4ad:0xa282d81b465f116a!8m2!3d52.2875088!4d17.9055476!16s%2Fg%2F11c75xvz64!19sChIJreQjaIzGBEcRahFfRhvYgqI?authuser=0&hl=tr&rclk=1",
    "website_url": "",
    "rating_text": "4,6",
    "stars": null,
    "number_of_reviews": null,
    "price_level": "",
    "open_hours": "",
    "extraction_timestamp": "2025-06-07T18:01:00.054Z",
    "source_name": "google",
    "source_query": "Irrigation Equipment",
    "source_country": "PL",
    "country": "Poland",
    "state": "Greater Poland Voivodeship",
    "city": "Słupca"
  },
  {
    "source_id": "ChIJb_i9hQrGBEcRXUgC2u8ZNrI",
    "name": "Market Budowlany Tex - Bis",
    "category": "Market Budowlany Tex - Bis",
    "formatted_address": "3,9(195)",
    "phone_number": "+48632754639",
    "source_url": "https://www.google.com/maps/place/Market+Budowlany+Tex+-+Bis/data=!4m7!3m6!1s0x4704c60a85bdf86f:0xb23619efda02485d!8m2!3d52.291075!4d17.8571985!16s%2Fg%2F1hc2bhq7x!19sChIJb_i9hQrGBEcRXUgC2u8ZNrI?authuser=0&hl=tr&rclk=1",
    "website_url": "",
    "rating_text": "3,9",
    "stars": null,
    "number_of_reviews": null,
    "price_level": "",
    "open_hours": "",
    "extraction_timestamp": "2025-06-07T18:01:00.055Z",
    "source_name": "google",
    "source_query": "Irrigation Equipment",
    "source_country": "PL",
    "country": "Poland",
    "state": "Greater Poland Voivodeship",
    "city": "Słupca"
  },
  {
    "source_id": "ChIJ76rAYRrGBEcRrgqiG9VFcPw",
    "name": "PSB Franspol",
    "category": "PSB Franspol",
    "formatted_address": "4,4(47)",
    "phone_number": "+48632751206",
    "source_url": "https://www.google.com/maps/place/PSB+Franspol/data=!4m7!3m6!1s0x4704c61a61c0aaef:0xfc7045d51ba20aae!8m2!3d52.300593!4d17.8793179!16s%2Fg%2F1vy7f8nr!19sChIJ76rAYRrGBEcRrgqiG9VFcPw?authuser=0&hl=tr&rclk=1",
    "website_url": "",
    "rating_text": "4,4",
    "stars": null,
    "number_of_reviews": null,
    "price_level": "",
    "open_hours": "",
    "extraction_timestamp": "2025-06-07T18:01:00.056Z",
    "source_name": "google",
    "source_query": "Irrigation Equipment",
    "source_country": "PL",
    "country": "Poland",
    "state": "Greater Poland Voivodeship",
    "city": "Słupca"
  },
  {
    "source_id": "ChIJU197lj7GBEcR-sI8bxAr2Wo",
    "name": "Sklep żeglarski Szopeneria.pl",
    "category": "Sklep żeglarski Szopeneria.pl",
    "formatted_address": "4,8(910)",
    "phone_number": "+48781776394",
    "source_url": "https://www.google.com/maps/place/Sklep+%C5%BCeglarski+Szopeneria.pl/data=!4m7!3m6!1s0x4704c63e967b5f53:0x6ad92b106f3cc2fa!8m2!3d52.3131692!4d17.8754052!16s%2Fg%2F1tg_85j4!19sChIJU197lj7GBEcR-sI8bxAr2Wo?authuser=0&hl=tr&rclk=1",
    "website_url": "",
    "rating_text": "4,8",
    "stars": null,
    "number_of_reviews": null,
    "price_level": "",
    "open_hours": "",
    "extraction_timestamp": "2025-06-07T18:01:00.057Z",
    "source_name": "google",
    "source_query": "Irrigation Equipment",
    "source_country": "PL",
    "country": "Poland",
    "state": "Greater Poland Voivodeship",
    "city": "Słupca"
  },
  {
    "source_id": "ChIJO57R0GrPBEcRcxxPWlzl3kA",
    "name": "SPAWMAR Mariusz Trawka",
    "category": "SPAWMAR Mariusz Trawka",
    "formatted_address": "5,0(2)",
    "phone_number": "+48516900730",
    "source_url": "https://www.google.com/maps/place/SPAWMAR+Mariusz+Trawka/data=!4m7!3m6!1s0x4704cf6ad0d19e3b:0x40dee55c5a4f1c73!8m2!3d52.2595319!4d17.9715574!16s%2Fg%2F11rxvt160s!19sChIJO57R0GrPBEcRcxxPWlzl3kA?authuser=0&hl=tr&rclk=1",
    "website_url": "",
    "rating_text": "5,0",
    "stars": null,
    "number_of_reviews": null,
    "price_level": "",
    "open_hours": "",
    "extraction_timestamp": "2025-06-07T18:01:00.058Z",
    "source_name": "google",
    "source_query": "Irrigation Equipment",
    "source_country": "PL",
    "country": "Poland",
    "state": "Greater Poland Voivodeship",
    "city": "Słupca"
  },
  {
    "source_id": "ChIJw3qIev3FBEcRk8QAyeWeycA",
    "name": "Intermarché",
    "category": "Intermarché",
    "formatted_address": "4,0(583)",
    "phone_number": "+48632741551",
    "source_url": "https://www.google.com/maps/place/Intermarch%C3%A9/data=!4m7!3m6!1s0x4704c5fd7a887ac3:0xc0c99ee5c900c493!8m2!3d52.2960265!4d17.8751589!16s%2Fg%2F1hc16nk4r!19sChIJw3qIev3FBEcRk8QAyeWeycA?authuser=0&hl=tr&rclk=1",
    "website_url": "",
    "rating_text": "4,0",
    "stars": null,
    "number_of_reviews": null,
    "price_level": "",
    "open_hours": "",
    "extraction_timestamp": "2025-06-07T18:01:00.059Z",
    "source_name": "google",
    "source_query": "Irrigation Equipment",
    "source_country": "PL",
    "country": "Poland",
    "state": "Greater Poland Voivodeship",
    "city": "Słupca"
  },
  {
    "source_id": "ChIJeZgY1xqRBEcRpcLMUkxBkfI",
    "name": "Ha-Two-O Paweł Filipiak",
    "category": "Ha-Two-O Paweł Filipiak",
    "formatted_address": "4,8(101)",
    "phone_number": "+48575579000",
    "source_url": "https://www.google.com/maps/place/Ha-Two-O+Pawe%C5%82+Filipiak/data=!4m7!3m6!1s0x4704911ad7189879:0xf291414c52ccc2a5!8m2!3d52.5491138!4d17.555824!16s%2Fg%2F1x6q0ggt!19sChIJeZgY1xqRBEcRpcLMUkxBkfI?authuser=0&hl=tr&rclk=1",
    "website_url": "",
    "rating_text": "4,8",
    "stars": null,
    "number_of_reviews": null,
    "price_level": "",
    "open_hours": "",
    "extraction_timestamp": "2025-06-07T18:01:00.061Z",
    "source_name": "google",
    "source_query": "Irrigation Equipment",
    "source_country": "PL",
    "country": "Poland",
    "state": "Greater Poland Voivodeship",
    "city": "Słupca"
  },
  {
    "source_id": "ChIJXc9fmD3HBEcRYJMjj_QIUr0",
    "name": "Martes Sport",
    "category": "Martes Sport",
    "formatted_address": "4,4(29)",
    "phone_number": "+48501676480",
    "source_url": "https://www.google.com/maps/place/Martes+Sport/data=!4m7!3m6!1s0x4704c73d985fcf5d:0xbd5208f48f239360!8m2!3d52.2981626!4d17.8715011!16s%2Fg%2F11h_1qm601!19sChIJXc9fmD3HBEcRYJMjj_QIUr0?authuser=0&hl=tr&rclk=1",
    "website_url": "",
    "rating_text": "4,4",
    "stars": null,
    "number_of_reviews": null,
    "price_level": "",
    "open_hours": "",
    "extraction_timestamp": "2025-06-07T18:01:00.062Z",
    "source_name": "google",
    "source_query": "Irrigation Equipment",
    "source_country": "PL",
    "country": "Poland",
    "state": "Greater Poland Voivodeship",
    "city": "Słupca"
  },
  {
    "source_id": "ChIJp87loZrGBEcROwsN6SuAUMU",
    "name": "ARMASAN express",
    "category": "ARMASAN express",
    "formatted_address": "4,7(9)",
    "phone_number": "+48531577726",
    "source_url": "https://www.google.com/maps/place/ARMASAN+express/data=!4m7!3m6!1s0x4704c69aa1e5cea7:0xc550802be90d0b3b!8m2!3d52.3099688!4d17.81797!16s%2Fg%2F1hc5h6p02!19sChIJp87loZrGBEcROwsN6SuAUMU?authuser=0&hl=tr&rclk=1",
    "website_url": "",
    "rating_text": "4,7",
    "stars": null,
    "number_of_reviews": null,
    "price_level": "",
    "open_hours": "",
    "extraction_timestamp": "2025-06-07T18:01:00.063Z",
    "source_name": "google",
    "source_query": "Irrigation Equipment",
    "source_country": "PL",
    "country": "Poland",
    "state": "Greater Poland Voivodeship",
    "city": "Słupca"
  },
  {
    "source_id": "ChIJ9-xYO_3FBEcRmY2BGKgluoA",
    "name": "Hildebrandt R. Handel art. spożywczo - monopolowymi",
    "category": "Hildebrandt R. Handel art. spożywczo - monopolowymi",
    "formatted_address": "4,1(15)",
    "phone_number": "+48632755320",
    "source_url": "https://www.google.com/maps/place/Hildebrandt+R.+Handel+art.+spo%C5%BCywczo+-+monopolowymi/data=!4m7!3m6!1s0x4704c5fd3b58ecf7:0x80ba25a818818d99!8m2!3d52.286401!4d17.869776!16s%2Fg%2F1hc1_kc9y!19sChIJ9-xYO_3FBEcRmY2BGKgluoA?authuser=0&hl=tr&rclk=1",
    "website_url": "",
    "rating_text": "4,1",
    "stars": null,
    "number_of_reviews": null,
    "price_level": "",
    "open_hours": "",
    "extraction_timestamp": "2025-06-07T18:01:00.064Z",
    "source_name": "google",
    "source_query": "Irrigation Equipment",
    "source_country": "PL",
    "country": "Poland",
    "state": "Greater Poland Voivodeship",
    "city": "Słupca"
  },
  {
    "source_id": "ChIJUxS3AOLFBEcRrEmJAiPqgiw",
    "name": "Sklep Spożywczo-przemysłowy \"JAGÓDKA\" Słupca",
    "category": "Sklep Spożywczo-przemysłowy \"JAGÓDKA\" Słupca",
    "formatted_address": "4,5(32)",
    "phone_number": "+48603243517",
    "source_url": "https://www.google.com/maps/place/Sklep+Spo%C5%BCywczo-przemys%C5%82owy+%22JAG%C3%93DKA%22+S%C5%82upca/data=!4m7!3m6!1s0x4704c5e200b71453:0x2c82ea23028949ac!8m2!3d52.289345!4d17.8623865!16s%2Fg%2F1thzmlt9!19sChIJUxS3AOLFBEcRrEmJAiPqgiw?authuser=0&hl=tr&rclk=1",
    "website_url": "",
    "rating_text": "4,5",
    "stars": null,
    "number_of_reviews": null,
    "price_level": "",
    "open_hours": "",
    "extraction_timestamp": "2025-06-07T18:01:00.065Z",
    "source_name": "google",
    "source_query": "Irrigation Equipment",
    "source_country": "PL",
    "country": "Poland",
    "state": "Greater Poland Voivodeship",
    "city": "Słupca"
  },
  {
    "source_id": "ChIJY6l-zwjGBEcRphcV4FwR7lc",
    "name": "Biedronka",
    "category": "Biedronka",
    "formatted_address": "4,1(1.005)",
    "phone_number": "+48800080010",
    "source_url": "https://www.google.com/maps/place/Biedronka/data=!4m7!3m6!1s0x4704c608cf7ea963:0x57ee115ce01517a6!8m2!3d52.2892083!4d17.8733967!16s%2Fg%2F1vxcv37n!19sChIJY6l-zwjGBEcRphcV4FwR7lc?authuser=0&hl=tr&rclk=1",
    "website_url": "",
    "rating_text": "4,1",
    "stars": null,
    "number_of_reviews": null,
    "price_level": "",
    "open_hours": "",
    "extraction_timestamp": "2025-06-07T18:01:00.067Z",
    "source_name": "google",
    "source_query": "Irrigation Equipment",
    "source_country": "PL",
    "country": "Poland",
    "state": "Greater Poland Voivodeship",
    "city": "Słupca"
  },
  {
    "source_id": "ChIJjYaceq_LBEcRR9YrtOUCLYY",
    "name": "Tech-Poż Zakład Usług Pożarniczych, Janusz Szygenda, Marek Tamborski, Słupca",
    "category": "Tech-Poż Zakład Usług Pożarniczych, Janusz Szygenda, Marek Tamborski, Słupca",
    "formatted_address": "Tech-Poż Zakład Usług Pożarniczych, Janusz Szygenda, Marek Tamborski, Słupca",
    "phone_number": "+48503023107",
    "source_url": "https://www.google.com/maps/place/Tech-Po%C5%BC+Zak%C5%82ad+Us%C5%82ug+Po%C5%BCarniczych,+Janusz+Szygenda,+Marek+Tamborski,+S%C5%82upca/data=!4m7!3m6!1s0x4704cbaf7a9c868d:0x862d02e5b42bd647!8m2!3d52.2884388!4d18.0308886!16s%2Fg%2F11h3c4glqv!19sChIJjYaceq_LBEcRR9YrtOUCLYY?authuser=0&hl=tr&rclk=1",
    "website_url": "",
    "rating_text": "5,0",
    "stars": null,
    "number_of_reviews": null,
    "price_level": "",
    "open_hours": "",
    "extraction_timestamp": "2025-06-07T18:01:00.068Z",
    "source_name": "google",
    "source_query": "Irrigation Equipment",
    "source_country": "PL",
    "country": "Poland",
    "state": "Greater Poland Voivodeship",
    "city": "Słupca"
  },
  {
    "source_id": "ChIJKXgJSZ3PBEcROjQQ9hSrirE",
    "name": "Twój Market",
    "category": "Twój Market",
    "formatted_address": "4,3(235)",
    "phone_number": "+48801555559",
    "source_url": "https://www.google.com/maps/place/Tw%C3%B3j+Market/data=!4m7!3m6!1s0x4704cf9d49097829:0xb18aab14f610343a!8m2!3d52.2834548!4d17.8907775!16s%2Fg%2F11jpbz966f!19sChIJKXgJSZ3PBEcROjQQ9hSrirE?authuser=0&hl=tr&rclk=1",
    "website_url": "",
    "rating_text": "4,3",
    "stars": null,
    "number_of_reviews": null,
    "price_level": "",
    "open_hours": "",
    "extraction_timestamp": "2025-06-07T18:01:00.069Z",
    "source_name": "google",
    "source_query": "Irrigation Equipment",
    "source_country": "PL",
    "country": "Poland",
    "state": "Greater Poland Voivodeship",
    "city": "Słupca"
  },
  {
    "source_id": "ChIJR04HprOiBEcRimDlaVeaHjg",
    "name": "HYDROART GACA SP. With O.O.",
    "category": "HYDROART GACA SP. With O.O.",
    "formatted_address": "4,5(394)",
    "phone_number": "+48614282710",
    "source_url": "https://www.google.com/maps/place/HYDROART+GACA+SP.+With+O.O./data=!4m7!3m6!1s0x4704a2b3a6074e47:0x381e9a5769e5608a!8m2!3d52.5625604!4d17.824335!16s%2Fg%2F1td3k900!19sChIJR04HprOiBEcRimDlaVeaHjg?authuser=0&hl=tr&rclk=1",
    "website_url": "",
    "rating_text": "4,5",
    "stars": null,
    "number_of_reviews": null,
    "price_level": "",
    "open_hours": "",
    "extraction_timestamp": "2025-06-07T18:01:00.070Z",
    "source_name": "google",
    "source_query": "Irrigation Equipment",
    "source_country": "PL",
    "country": "Poland",
    "state": "Greater Poland Voivodeship",
    "city": "Słupca"
  },
  {
    "source_id": "ChIJW9gVpEu-BEcRFjTYcYX2S7c",
    "name": "Sklep Spożywczy Sklep Polski",
    "category": "Sklep Spożywczy Sklep Polski",
    "formatted_address": "4,1(41)",
    "phone_number": "+48606674637",
    "source_url": "https://www.google.com/maps/place/Sklep+Spo%C5%BCywczy+Sklep+Polski/data=!4m7!3m6!1s0x4704be4ba415d85b:0xb74bf68571d83416!8m2!3d52.439069!4d17.7635614!16s%2Fg%2F11fx86t1__!19sChIJW9gVpEu-BEcRFjTYcYX2S7c?authuser=0&hl=tr&rclk=1",
    "website_url": "",
    "rating_text": "4,1",
    "stars": null,
    "number_of_reviews": null,
    "price_level": "",
    "open_hours": "",
    "extraction_timestamp": "2025-06-07T18:01:00.071Z",
    "source_name": "google",
    "source_query": "Irrigation Equipment",
    "source_country": "PL",
    "country": "Poland",
    "state": "Greater Poland Voivodeship",
    "city": "Słupca"
  },
  {
    "source_id": "ChIJowT6e_nFBEcRZBIvQc_bRPU",
    "name": "METPOL Hurtownia elektryczna Elektryka Przewody Narzędzia",
    "category": "METPOL Hurtownia elektryczna Elektryka Przewody Narzędzia",
    "formatted_address": "4,8(31)",
    "phone_number": "+48516030173",
    "source_url": "https://www.google.com/maps/place/METPOL+Hurtownia+elektryczna+Elektryka+Przewody+Narz%C4%99dzia/data=!4m7!3m6!1s0x4704c5f97bfa04a3:0xf544dbcf412f1264!8m2!3d52.2797846!4d17.8716821!16s%2Fg%2F11h01dyr9!19sChIJowT6e_nFBEcRZBIvQc_bRPU?authuser=0&hl=tr&rclk=1",
    "website_url": "",
    "rating_text": "4,8",
    "stars": null,
    "number_of_reviews": null,
    "price_level": "",
    "open_hours": "",
    "extraction_timestamp": "2025-06-07T18:01:00.072Z",
    "source_name": "google",
    "source_query": "Irrigation Equipment",
    "source_country": "PL",
    "country": "Poland",
    "state": "Greater Poland Voivodeship",
    "city": "Słupca"
  },
  {
    "source_id": "ChIJKw6_HFK-BEcRyPMBJRyjyBA",
    "name": "Goman. Biela A.",
    "category": "Goman. Biela A.",
    "formatted_address": "4,1(32)",
    "phone_number": "+48503556456",
    "source_url": "https://www.google.com/maps/place/Goman.+Biela+A./data=!4m7!3m6!1s0x4704be521cbf0e2b:0x10c8a31c2501f3c8!8m2!3d52.4405273!4d17.7725312!16s%2Fg%2F1vnrjqld!19sChIJKw6_HFK-BEcRyPMBJRyjyBA?authuser=0&hl=tr&rclk=1",
    "website_url": "",
    "rating_text": "4,1",
    "stars": null,
    "number_of_reviews": null,
    "price_level": "",
    "open_hours": "",
    "extraction_timestamp": "2025-06-07T18:01:00.073Z",
    "source_name": "google",
    "source_query": "Irrigation Equipment",
    "source_country": "PL",
    "country": "Poland",
    "state": "Greater Poland Voivodeship",
    "city": "Słupca"
  },
  {
    "source_id": "ChIJxQdm9zRZCI4R2wWTyHRMfVw",
    "name": "INSTALACJE HYDRAULICZNE BARTOSZ WÓJKOWSKI",
    "category": "INSTALACJE HYDRAULICZNE BARTOSZ WÓJKOWSKI",
    "formatted_address": "",
    "phone_number": "+48783906448",
    "source_url": "https://www.google.com/maps/place/INSTALACJE+HYDRAULICZNE+BARTOSZ+W%C3%93JKOWSKI/data=!4m7!3m6!1s0x8e085934f76607c5:0x5c7d4c74c89305db!8m2!3d52.5604332!4d17.8136372!16s%2Fg%2F11xgl05tt1!19sChIJxQdm9zRZCI4R2wWTyHRMfVw?authuser=0&hl=tr&rclk=1",
    "website_url": "",
    "rating_text": "",
    "stars": null,
    "number_of_reviews": null,
    "price_level": "",
    "open_hours": "",
    "extraction_timestamp": "2025-06-07T18:01:00.073Z",
    "source_name": "google",
    "source_query": "Irrigation Equipment",
    "source_country": "PL",
    "country": "Poland",
    "state": "Greater Poland Voivodeship",
    "city": "Słupca"
  },
  {
    "source_id": "ChIJAyUAAFO-BEcRQRqI0zJbGmQ",
    "name": "Euro Sam",
    "category": "Euro Sam",
    "formatted_address": "4,6(539)",
    "phone_number": "+48614778201",
    "source_url": "https://www.google.com/maps/place/Euro+Sam/data=!4m7!3m6!1s0x4704be5300002503:0x641a5b32d3881a41!8m2!3d52.4378455!4d17.7737615!16s%2Fg%2F11c2pfpcx6!19sChIJAyUAAFO-BEcRQRqI0zJbGmQ?authuser=0&hl=tr&rclk=1",
    "website_url": "",
    "rating_text": "4,6",
    "stars": null,
    "number_of_reviews": null,
    "price_level": "",
    "open_hours": "",
    "extraction_timestamp": "2025-06-07T18:01:00.074Z",
    "source_name": "google",
    "source_query": "Irrigation Equipment",
    "source_country": "PL",
    "country": "Poland",
    "state": "Greater Poland Voivodeship",
    "city": "Słupca"
  },
  {
    "source_id": "ChIJmYK-FAjGBEcRvTWR-OIbey8",
    "name": "Twój Market",
    "category": "Twój Market",
    "formatted_address": "4,1(302)",
    "phone_number": "+48801555559",
    "source_url": "https://www.google.com/maps/place/Tw%C3%B3j+Market/data=!4m7!3m6!1s0x4704c60814be8299:0x2f7b1be2f89135bd!8m2!3d52.2896952!4d17.8690431!16s%2Fg%2F1vqmh1p3!19sChIJmYK-FAjGBEcRvTWR-OIbey8?authuser=0&hl=tr&rclk=1",
    "website_url": "",
    "rating_text": "4,1",
    "stars": null,
    "number_of_reviews": null,
    "price_level": "",
    "open_hours": "",
    "extraction_timestamp": "2025-06-07T18:01:00.075Z",
    "source_name": "google",
    "source_query": "Irrigation Equipment",
    "source_country": "PL",
    "country": "Poland",
    "state": "Greater Poland Voivodeship",
    "city": "Słupca"
  },
  {
    "source_id": "ChIJWfbA7gXGBEcRz4s76WYNzuM",
    "name": "Biedronka",
    "category": "Biedronka",
    "formatted_address": "4,0(688)",
    "phone_number": "+48800080010",
    "source_url": "https://www.google.com/maps/place/Biedronka/data=!4m7!3m6!1s0x4704c605eec0f659:0xe3ce0d66e93b8bcf!8m2!3d52.2940361!4d17.8744286!16s%2Fg%2F1tn4wwd5!19sChIJWfbA7gXGBEcRz4s76WYNzuM?authuser=0&hl=tr&rclk=1",
    "website_url": "",
    "rating_text": "4,0",
    "stars": null,
    "number_of_reviews": null,
    "price_level": "",
    "open_hours": "",
    "extraction_timestamp": "2025-06-07T18:01:00.076Z",
    "source_name": "google",
    "source_query": "Irrigation Equipment",
    "source_country": "PL",
    "country": "Poland",
    "state": "Greater Poland Voivodeship",
    "city": "Słupca"
  },
  {
    "source_id": "ChIJXfUuiAu_BEcRzTXZgTrGZNQ",
    "name": "Sklep Polski",
    "category": "Sklep Polski",
    "formatted_address": "4,5(18)",
    "phone_number": "",
    "source_url": "https://www.google.com/maps/place/Sklep+Polski/data=!4m7!3m6!1s0x4704bf0b882ef55d:0xd464c63a81d935cd!8m2!3d52.3822453!4d17.7717796!16s%2Fg%2F11j96wbl52!19sChIJXfUuiAu_BEcRzTXZgTrGZNQ?authuser=0&hl=tr&rclk=1",
    "website_url": "",
    "rating_text": "4,5",
    "stars": null,
    "number_of_reviews": null,
    "price_level": "",
    "open_hours": "",
    "extraction_timestamp": "2025-06-07T18:01:00.077Z",
    "source_name": "google",
    "source_query": "Irrigation Equipment",
    "source_country": "PL",
    "country": "Poland",
    "state": "Greater Poland Voivodeship",
    "city": "Słupca"
  }
]
