[
  {
    "source_id": "ChIJR1Gy6FdHBEcRxLXa4mu3HY8",
    "name": "Fargo PW Centrum Ogrodnicze - Sklep Ogrodniczy i Rolniczy",
    "category": "Fargo PW Centrum Ogrodnicze - Sklep Ogrodniczy i Rolniczy",
    "formatted_address": "4,8(387)",
    "phone_number": "+48618146334",
    "source_url": "https://www.google.com/maps/place/Fargo+PW+Centrum+Ogrodnicze+-+Sklep+Ogrodniczy+i+Rolniczy/data=!4m7!3m6!1s0x47044757e8b25147:0x8f1db76be2dab5c4!8m2!3d52.4575027!4d16.6792707!16s%2Fg%2F1ptwzycf8!19sChIJR1Gy6FdHBEcRxLXa4mu3HY8?authuser=0&hl=tr&rclk=1",
    "website_url": "",
    "rating_text": "4,8",
    "stars": null,
    "number_of_reviews": null,
    "price_level": "",
    "open_hours": "",
    "extraction_timestamp": "2025-06-07T17:52:36.467Z",
    "source_name": "google",
    "source_query": "Irrigation Equipment",
    "source_country": "PL",
    "country": "Poland",
    "state": "Greater Poland Voivodeship",
    "city": "Tarnowo Podgórne"
  },
  {
    "source_id": "ChIJP_lX9sc4BEcRVdRxj6eVLJY",
    "name": "Korbanek Sp. o.o.",
    "category": "Korbanek Sp. o.o.",
    "formatted_address": "4,4(463)",
    "phone_number": "+48618961100",
    "source_url": "https://www.google.com/maps/place/Korbanek+Sp.+o.o./data=!4m7!3m6!1s0x470438c7f657f93f:0x962c95a78f71d455!8m2!3d52.4587541!4d16.6466483!16s%2Fg%2F1tgkf_1k!19sChIJP_lX9sc4BEcRVdRxj6eVLJY?authuser=0&hl=tr&rclk=1",
    "website_url": "",
    "rating_text": "4,4",
    "stars": null,
    "number_of_reviews": null,
    "price_level": "",
    "open_hours": "",
    "extraction_timestamp": "2025-06-07T17:52:36.468Z",
    "source_name": "google",
    "source_query": "Irrigation Equipment",
    "source_country": "PL",
    "country": "Poland",
    "state": "Greater Poland Voivodeship",
    "city": "Tarnowo Podgórne"
  },
  {
    "source_id": "ChIJK4LXsEhHBEcRtBOlk9tBYxw",
    "name": "John Deere Poland",
    "category": "John Deere Poland",
    "formatted_address": "4,5(116)",
    "phone_number": "+48786894044",
    "source_url": "https://www.google.com/maps/place/John+Deere+Poland/data=!4m7!3m6!1s0x47044748b0d7822b:0x1c6341db93a513b4!8m2!3d52.4535326!4d16.7012882!16s%2Fg%2F1yg4ntd6d!19sChIJK4LXsEhHBEcRtBOlk9tBYxw?authuser=0&hl=tr&rclk=1",
    "website_url": "",
    "rating_text": "4,5",
    "stars": null,
    "number_of_reviews": null,
    "price_level": "",
    "open_hours": "",
    "extraction_timestamp": "2025-06-07T17:52:36.470Z",
    "source_name": "google",
    "source_query": "Irrigation Equipment",
    "source_country": "PL",
    "country": "Poland",
    "state": "Greater Poland Voivodeship",
    "city": "Tarnowo Podgórne"
  },
  {
    "source_id": "ChIJKTsxD7g4BEcRtf4pkJ7pW7I",
    "name": "Jucca. garden center",
    "category": "Jucca. garden center",
    "formatted_address": "4,6(2.567)",
    "phone_number": "+48618146384",
    "source_url": "https://www.google.com/maps/place/Jucca.+garden+center/data=!4m7!3m6!1s0x470438b80f313b29:0xb25be99e9029feb5!8m2!3d52.458044!4d16.645485!16s%2Fg%2F1tjz21vq!19sChIJKTsxD7g4BEcRtf4pkJ7pW7I?authuser=0&hl=tr&rclk=1",
    "website_url": "",
    "rating_text": "4,6",
    "stars": null,
    "number_of_reviews": null,
    "price_level": "",
    "open_hours": "",
    "extraction_timestamp": "2025-06-07T17:52:36.473Z",
    "source_name": "google",
    "source_query": "Irrigation Equipment",
    "source_country": "PL",
    "country": "Poland",
    "state": "Greater Poland Voivodeship",
    "city": "Tarnowo Podgórne"
  },
  {
    "source_id": "ChIJib9aIllHBEcRcNZglPzAGng",
    "name": "Instalcompact sp. z o.o.",
    "category": "Instalcompact sp. z o.o.",
    "formatted_address": "4,5(49)",
    "phone_number": "+48618146755",
    "source_url": "https://www.google.com/maps/place/Instalcompact+sp.+z+o.o./data=!4m7!3m6!1s0x47044759225abf89:0x781ac0fc9460d670!8m2!3d52.4523667!4d16.6798845!16s%2Fg%2F1vfp2b5t!19sChIJib9aIllHBEcRcNZglPzAGng?authuser=0&hl=tr&rclk=1",
    "website_url": "",
    "rating_text": "4,5",
    "stars": null,
    "number_of_reviews": null,
    "price_level": "",
    "open_hours": "",
    "extraction_timestamp": "2025-06-07T17:52:36.474Z",
    "source_name": "google",
    "source_query": "Irrigation Equipment",
    "source_country": "PL",
    "country": "Poland",
    "state": "Greater Poland Voivodeship",
    "city": "Tarnowo Podgórne"
  },
  {
    "source_id": "ChIJt4upsbo4BEcRWkUl8Qt9ryw",
    "name": "Barenbrug Polska Sp. z o.o.",
    "category": "Barenbrug Polska Sp. z o.o.",
    "formatted_address": "4,2(9)",
    "phone_number": "+48618164133",
    "source_url": "https://www.google.com/maps/place/Barenbrug+Polska+Sp.+z+o.o./data=!4m7!3m6!1s0x470438bab1a98bb7:0x2caf7d0bf125455a!8m2!3d52.4567446!4d16.6538235!16s%2Fg%2F1w97t2lf!19sChIJt4upsbo4BEcRWkUl8Qt9ryw?authuser=0&hl=tr&rclk=1",
    "website_url": "",
    "rating_text": "4,2",
    "stars": null,
    "number_of_reviews": null,
    "price_level": "",
    "open_hours": "",
    "extraction_timestamp": "2025-06-07T17:52:36.476Z",
    "source_name": "google",
    "source_query": "Irrigation Equipment",
    "source_country": "PL",
    "country": "Poland",
    "state": "Greater Poland Voivodeship",
    "city": "Tarnowo Podgórne"
  },
  {
    "source_id": "ChIJp7LiDa04BEcRoo3PgSNMSkE",
    "name": "Poz-Plast Sp.z o.o. Producent oczyszczalni ścieków",
    "category": "Poz-Plast Sp.z o.o. Producent oczyszczalni ścieków",
    "formatted_address": "5,0(11)",
    "phone_number": "+48691870007",
    "source_url": "https://www.google.com/maps/place/Poz-Plast+Sp.z+o.o.+Producent+oczyszczalni+%C5%9Bciek%C3%B3w/data=!4m7!3m6!1s0x470438ad0de2b2a7:0x414a4c2381cf8da2!8m2!3d52.468299!4d16.671667!16s%2Fg%2F1tgn89p6!19sChIJp7LiDa04BEcRoo3PgSNMSkE?authuser=0&hl=tr&rclk=1",
    "website_url": "",
    "rating_text": "5,0",
    "stars": null,
    "number_of_reviews": null,
    "price_level": "",
    "open_hours": "",
    "extraction_timestamp": "2025-06-07T17:52:36.477Z",
    "source_name": "google",
    "source_query": "Irrigation Equipment",
    "source_country": "PL",
    "country": "Poland",
    "state": "Greater Poland Voivodeship",
    "city": "Tarnowo Podgórne"
  },
  {
    "source_id": "ChIJAduKWlhQBEcR_lic4Yg76mk",
    "name": "Agropomoc",
    "category": "Agropomoc",
    "formatted_address": "4,4(58)",
    "phone_number": "+48512236754",
    "source_url": "https://www.google.com/maps/place/Agropomoc/data=!4m7!3m6!1s0x470450585a8adb01:0x69ea3b88e19c58fe!8m2!3d52.4615211!4d16.6768669!16s%2Fg%2F11bv38f0mj!19sChIJAduKWlhQBEcR_lic4Yg76mk?authuser=0&hl=tr&rclk=1",
    "website_url": "",
    "rating_text": "4,4",
    "stars": null,
    "number_of_reviews": null,
    "price_level": "",
    "open_hours": "",
    "extraction_timestamp": "2025-06-07T17:52:36.478Z",
    "source_name": "google",
    "source_query": "Irrigation Equipment",
    "source_country": "PL",
    "country": "Poland",
    "state": "Greater Poland Voivodeship",
    "city": "Tarnowo Podgórne"
  },
  {
    "source_id": "ChIJFVCITOVPBEcRG-lA_g1qlqk",
    "name": "Technika Wody",
    "category": "Technika Wody",
    "formatted_address": "4,6(288)",
    "phone_number": "+48502506622",
    "source_url": "https://www.google.com/maps/place/Technika+Wody/data=!4m7!3m6!1s0x47044fe54c885015:0xa9966a0dfe40e91b!8m2!3d52.3740842!4d16.819808!16s%2Fg%2F11b7vsdjf5!19sChIJFVCITOVPBEcRG-lA_g1qlqk?authuser=0&hl=tr&rclk=1",
    "website_url": "",
    "rating_text": "4,6",
    "stars": null,
    "number_of_reviews": null,
    "price_level": "",
    "open_hours": "",
    "extraction_timestamp": "2025-06-07T17:52:36.480Z",
    "source_name": "google",
    "source_query": "Irrigation Equipment",
    "source_country": "PL",
    "country": "Poland",
    "state": "Greater Poland Voivodeship",
    "city": "Tarnowo Podgórne"
  },
  {
    "source_id": "ChIJs49RQBtFBEcRVIv_ZXDjv2o",
    "name": "Fluiconnecto Tarnowo Podgórne/Poznań",
    "category": "Fluiconnecto Tarnowo Podgórne/Poznań",
    "formatted_address": "5,0(4)",
    "phone_number": "+48660665990",
    "source_url": "https://www.google.com/maps/place/Fluiconnecto+Tarnowo+Podg%C3%B3rne%2FPozna%C5%84/data=!4m7!3m6!1s0x4704451b40518fb3:0x6abfe37065ff8b54!8m2!3d52.4619529!4d16.6750938!16s%2Fg%2F1hhw4vqz5!19sChIJs49RQBtFBEcRVIv_ZXDjv2o?authuser=0&hl=tr&rclk=1",
    "website_url": "",
    "rating_text": "5,0",
    "stars": null,
    "number_of_reviews": null,
    "price_level": "",
    "open_hours": "",
    "extraction_timestamp": "2025-06-07T17:52:36.481Z",
    "source_name": "google",
    "source_query": "Irrigation Equipment",
    "source_country": "PL",
    "country": "Poland",
    "state": "Greater Poland Voivodeship",
    "city": "Tarnowo Podgórne"
  },
  {
    "source_id": "ChIJ2d4-0cpGBEcRTya15XLl9W0",
    "name": "POLGAR Garniewicz Wełniak spółka komandytowa",
    "category": "POLGAR Garniewicz Wełniak spółka komandytowa",
    "formatted_address": "4,5(23)",
    "phone_number": "+48618160631",
    "source_url": "https://www.google.com/maps/place/POLGAR+Garniewicz+We%C5%82niak+sp%C3%B3%C5%82ka+komandytowa/data=!4m7!3m6!1s0x470446cad13eded9:0x6df5e572e5b5264f!8m2!3d52.4535218!4d16.7706987!16s%2Fg%2F1tlzywfq!19sChIJ2d4-0cpGBEcRTya15XLl9W0?authuser=0&hl=tr&rclk=1",
    "website_url": "",
    "rating_text": "4,5",
    "stars": null,
    "number_of_reviews": null,
    "price_level": "",
    "open_hours": "",
    "extraction_timestamp": "2025-06-07T17:52:36.482Z",
    "source_name": "google",
    "source_query": "Irrigation Equipment",
    "source_country": "PL",
    "country": "Poland",
    "state": "Greater Poland Voivodeship",
    "city": "Tarnowo Podgórne"
  },
  {
    "source_id": "ChIJz4ffDuFZBEcRz8yO_hW-bY0",
    "name": "Agromarket - Maszyny rolnicze",
    "category": "Agromarket - Maszyny rolnicze",
    "formatted_address": "4,5(221)",
    "phone_number": "+48616639601",
    "source_url": "https://www.google.com/maps/place/Agromarket+-+Maszyny+rolnicze/data=!4m7!3m6!1s0x470459e10edf87cf:0x8d6dbe15fe8ecccf!8m2!3d52.3344917!4d17.0166606!16s%2Fg%2F1td5_f5_!19sChIJz4ffDuFZBEcRz8yO_hW-bY0?authuser=0&hl=tr&rclk=1",
    "website_url": "",
    "rating_text": "4,5",
    "stars": null,
    "number_of_reviews": null,
    "price_level": "",
    "open_hours": "",
    "extraction_timestamp": "2025-06-07T17:52:36.483Z",
    "source_name": "google",
    "source_query": "Irrigation Equipment",
    "source_country": "PL",
    "country": "Poland",
    "state": "Greater Poland Voivodeship",
    "city": "Tarnowo Podgórne"
  },
  {
    "source_id": "ChIJPRbiVlhHBEcRbhARt8bQs2U",
    "name": "Instalcompact-Service Sp. z o.o.",
    "category": "Instalcompact-Service Sp. z o.o.",
    "formatted_address": "4,3(17)",
    "phone_number": "+48618164017",
    "source_url": "https://www.google.com/maps/place/Instalcompact-Service+Sp.+z+o.o./data=!4m7!3m6!1s0x4704475856e2163d:0x65b3d0c6b711106e!8m2!3d52.4538408!4d16.679503!16s%2Fg%2F1v3gqm0_!19sChIJPRbiVlhHBEcRbhARt8bQs2U?authuser=0&hl=tr&rclk=1",
    "website_url": "",
    "rating_text": "4,3",
    "stars": null,
    "number_of_reviews": null,
    "price_level": "",
    "open_hours": "",
    "extraction_timestamp": "2025-06-07T17:52:36.484Z",
    "source_name": "google",
    "source_query": "Irrigation Equipment",
    "source_country": "PL",
    "country": "Poland",
    "state": "Greater Poland Voivodeship",
    "city": "Tarnowo Podgórne"
  },
  {
    "source_id": "ChIJb0MZl6k4BEcR1Db1zXhwlVU",
    "name": "Sklep Rolniczo Techniczny Granit",
    "category": "Sklep Rolniczo Techniczny Granit",
    "formatted_address": "5,0(2)",
    "phone_number": "+48616222631",
    "source_url": "https://www.google.com/maps/place/Sklep+Rolniczo+Techniczny+Granit/data=!4m7!3m6!1s0x470438a99719436f:0x55957078cdf536d4!8m2!3d52.4614064!4d16.6768461!16s%2Fg%2F11gnnm5h0v!19sChIJb0MZl6k4BEcR1Db1zXhwlVU?authuser=0&hl=tr&rclk=1",
    "website_url": "",
    "rating_text": "5,0",
    "stars": null,
    "number_of_reviews": null,
    "price_level": "",
    "open_hours": "",
    "extraction_timestamp": "2025-06-07T17:52:36.485Z",
    "source_name": "google",
    "source_query": "Irrigation Equipment",
    "source_country": "PL",
    "country": "Poland",
    "state": "Greater Poland Voivodeship",
    "city": "Tarnowo Podgórne"
  },
  {
    "source_id": "ChIJB6y_v5J2HEcRlDfYx3xmc9M",
    "name": "Milex irrigation systems",
    "category": "Milex irrigation systems",
    "formatted_address": "4,6(37)",
    "phone_number": "+48242775222",
    "source_url": "https://www.google.com/maps/place/Milex+irrigation+systems/data=!4m7!3m6!1s0x471c7692bfbfac07:0xd373667cc7d83794!8m2!3d52.4690634!4d19.7520904!16s%2Fg%2F1w2yy67r!19sChIJB6y_v5J2HEcRlDfYx3xmc9M?authuser=0&hl=tr&rclk=1",
    "website_url": "",
    "rating_text": "4,6",
    "stars": null,
    "number_of_reviews": null,
    "price_level": "",
    "open_hours": "",
    "extraction_timestamp": "2025-06-07T17:52:36.486Z",
    "source_name": "google",
    "source_query": "Irrigation Equipment",
    "source_country": "PL",
    "country": "Poland",
    "state": "Greater Poland Voivodeship",
    "city": "Tarnowo Podgórne"
  },
  {
    "source_id": "ChIJDxbPJXQ5BEcReGJAdUvxnAU",
    "name": "Tarnowskie Termy",
    "category": "Tarnowskie Termy",
    "formatted_address": "4,6(8.118)",
    "phone_number": "+48616259064",
    "source_url": "https://www.google.com/maps/place/Tarnowskie+Termy/data=!4m7!3m6!1s0x4704397425cf160f:0x59cf14b75406278!8m2!3d52.4645089!4d16.6424856!16s%2Fg%2F11c3nzy2g4!19sChIJDxbPJXQ5BEcReGJAdUvxnAU?authuser=0&hl=tr&rclk=1",
    "website_url": "",
    "rating_text": "4,6",
    "stars": null,
    "number_of_reviews": null,
    "price_level": "",
    "open_hours": "",
    "extraction_timestamp": "2025-06-07T17:52:36.488Z",
    "source_name": "google",
    "source_query": "Irrigation Equipment",
    "source_country": "PL",
    "country": "Poland",
    "state": "Greater Poland Voivodeship",
    "city": "Tarnowo Podgórne"
  },
  {
    "source_id": "ChIJ5VBsTQA5BEcRcikizGGq99g",
    "name": "Wypożyczalnia SUP - Equip",
    "category": "Wypożyczalnia SUP - Equip",
    "formatted_address": "5,0(1)",
    "phone_number": "",
    "source_url": "https://www.google.com/maps/place/Wypo%C5%BCyczalnia+SUP+-+Equip/data=!4m7!3m6!1s0x470439004d6c50e5:0xd8f7aa61cc222972!8m2!3d52.4286752!4d16.6544844!16s%2Fg%2F11y7gb2vjl!19sChIJ5VBsTQA5BEcRcikizGGq99g?authuser=0&hl=tr&rclk=1",
    "website_url": "",
    "rating_text": "5,0",
    "stars": null,
    "number_of_reviews": null,
    "price_level": "",
    "open_hours": "",
    "extraction_timestamp": "2025-06-07T17:52:36.489Z",
    "source_name": "google",
    "source_query": "Irrigation Equipment",
    "source_country": "PL",
    "country": "Poland",
    "state": "Greater Poland Voivodeship",
    "city": "Tarnowo Podgórne"
  },
  {
    "source_id": "ChIJOb2ImnJHBEcRxGBbGtPGbLg",
    "name": "Plaża w Lusowie",
    "category": "Plaża w Lusowie",
    "formatted_address": "4,6(2.405)",
    "phone_number": "",
    "source_url": "https://www.google.com/maps/place/Pla%C5%BCa+w+Lusowie/data=!4m7!3m6!1s0x470447729a88bd39:0xb86cc6d31a5b60c4!8m2!3d52.4318651!4d16.6923101!16s%2Fg%2F11g68_d5f3!19sChIJOb2ImnJHBEcRxGBbGtPGbLg?authuser=0&hl=tr&rclk=1",
    "website_url": "",
    "rating_text": "4,6",
    "stars": null,
    "number_of_reviews": null,
    "price_level": "",
    "open_hours": "",
    "extraction_timestamp": "2025-06-07T17:52:36.491Z",
    "source_name": "google",
    "source_query": "Irrigation Equipment",
    "source_country": "PL",
    "country": "Poland",
    "state": "Greater Poland Voivodeship",
    "city": "Tarnowo Podgórne"
  },
  {
    "source_id": "ChIJT3drBm45BEcR9wYiZ_lKW3s",
    "name": "Cukiernia Róża Ciasta Domowe Aleksandra Kuchta",
    "category": "Cukiernia Róża Ciasta Domowe Aleksandra Kuchta",
    "formatted_address": "4,5(63) · zł 1–20",
    "phone_number": "+48535140865",
    "source_url": "https://www.google.com/maps/place/Cukiernia+R%C3%B3%C5%BCa+Ciasta+Domowe+Aleksandra+Kuchta/data=!4m7!3m6!1s0x4704396e066b774f:0x7b5b4af9672206f7!8m2!3d52.4647303!4d16.662734!16s%2Fg%2F11thnj0cm6!19sChIJT3drBm45BEcR9wYiZ_lKW3s?authuser=0&hl=tr&rclk=1",
    "website_url": "",
    "rating_text": "4,5",
    "stars": null,
    "number_of_reviews": null,
    "price_level": "",
    "open_hours": "",
    "extraction_timestamp": "2025-06-07T17:52:36.492Z",
    "source_name": "google",
    "source_query": "Irrigation Equipment",
    "source_country": "PL",
    "country": "Poland",
    "state": "Greater Poland Voivodeship",
    "city": "Tarnowo Podgórne"
  },
  {
    "source_id": "ChIJxekz_NI5BEcRatZ3vsKW2YM",
    "name": "Ciachownia",
    "category": "Ciachownia",
    "formatted_address": "4,7(160)",
    "phone_number": "+48609540355",
    "source_url": "https://www.google.com/maps/place/Ciachownia/data=!4m7!3m6!1s0x470439d2fc33e9c5:0x83d996c2be77d66a!8m2!3d52.4618184!4d16.6753696!16s%2Fg%2F11fl42wh2w!19sChIJxekz_NI5BEcRatZ3vsKW2YM?authuser=0&hl=tr&rclk=1",
    "website_url": "",
    "rating_text": "4,7",
    "stars": null,
    "number_of_reviews": null,
    "price_level": "",
    "open_hours": "",
    "extraction_timestamp": "2025-06-07T17:52:36.492Z",
    "source_name": "google",
    "source_query": "Irrigation Equipment",
    "source_country": "PL",
    "country": "Poland",
    "state": "Greater Poland Voivodeship",
    "city": "Tarnowo Podgórne"
  },
  {
    "source_id": "ChIJ9ciPCaD1DSgRjObpHwhfZlw",
    "name": "Gregory Usługi Dla Domu Grzegorz Wyszkowski Hydraulik Poznań Elektryk Poznań Rokietnica",
    "category": "Gregory Usługi Dla Domu Grzegorz Wyszkowski Hydraulik Poznań Elektryk Poznań Rokietnica",
    "formatted_address": "5,0(296)",
    "phone_number": "+48692059953",
    "source_url": "https://www.google.com/maps/place/Gregory+Us%C5%82ugi+Dla+Domu+Grzegorz+Wyszkowski+Hydraulik+Pozna%C5%84+Elektryk+Pozna%C5%84+Rokietnica/data=!4m7!3m6!1s0x280df5a0098fc8f5:0x5c665f081fe9e68c!8m2!3d52.4970117!4d16.7315347!16s%2Fg%2F11k4yrkzql!19sChIJ9ciPCaD1DSgRjObpHwhfZlw?authuser=0&hl=tr&rclk=1",
    "website_url": "",
    "rating_text": "5,0",
    "stars": null,
    "number_of_reviews": null,
    "price_level": "",
    "open_hours": "",
    "extraction_timestamp": "2025-06-07T17:52:36.493Z",
    "source_name": "google",
    "source_query": "Irrigation Equipment",
    "source_country": "PL",
    "country": "Poland",
    "state": "Greater Poland Voivodeship",
    "city": "Tarnowo Podgórne"
  },
  {
    "source_id": "ChIJwxC1X09EBEcRLzaLJfk4rD8",
    "name": "OASE - Oczko Wodne Polski Autoryzowany Sklep internetowy Złoty Przedstawiciel Nawadnianie Podlewanie Hunter, Raibird,Rossi",
    "category": "OASE - Oczko Wodne Polski Autoryzowany Sklep internetowy Złoty Przedstawiciel Nawadnianie Podlewanie Hunter, Raibird,Rossi",
    "formatted_address": "OASE - Oczko Wodne Polski Autoryzowany Sklep internetowy Złoty Przedstawiciel Nawadnianie Podlewanie Hunter, Raibird,Rossi",
    "phone_number": "+48618842498",
    "source_url": "https://www.google.com/maps/place/OASE+-+Oczko+Wodne+Polski+Autoryzowany+Sklep+internetowy+Z%C5%82oty+Przedstawiciel+Nawadnianie+Podlewanie+Hunter,+Raibird,Rossi/data=!4m7!3m6!1s0x4704444f5fb510c3:0x3fac38f9258b362f!8m2!3d52.4364533!4d16.8327227!16s%2Fg%2F1hc96cvd0!19sChIJwxC1X09EBEcRLzaLJfk4rD8?authuser=0&hl=tr&rclk=1",
    "website_url": "",
    "rating_text": "4,6",
    "stars": null,
    "number_of_reviews": null,
    "price_level": "",
    "open_hours": "",
    "extraction_timestamp": "2025-06-07T17:52:36.494Z",
    "source_name": "google",
    "source_query": "Irrigation Equipment",
    "source_country": "PL",
    "country": "Poland",
    "state": "Greater Poland Voivodeship",
    "city": "Tarnowo Podgórne"
  },
  {
    "source_id": "ChIJE3Lz3bFXBEcRBgoAqS1zROk",
    "name": "Firma Handlowa \"Kram\" s.c. Iwona Krawczyk, Roman Krawczyk",
    "category": "Firma Handlowa \"Kram\" s.c. Iwona Krawczyk, Roman Krawczyk",
    "formatted_address": "Firma Handlowa \"Kram\" s.c. Iwona Krawczyk, Roman Krawczyk",
    "phone_number": "+48618171242",
    "source_url": "https://www.google.com/maps/place/Firma+Handlowa+%22Kram%22+s.c.+Iwona+Krawczyk,+Roman+Krawczyk/data=!4m7!3m6!1s0x470457b1ddf37213:0xe944732da9000a06!8m2!3d52.288937!4d17.046897!16s%2Fg%2F1tcw29hw!19sChIJE3Lz3bFXBEcRBgoAqS1zROk?authuser=0&hl=tr&rclk=1",
    "website_url": "",
    "rating_text": "4,6",
    "stars": null,
    "number_of_reviews": null,
    "price_level": "",
    "open_hours": "",
    "extraction_timestamp": "2025-06-07T17:52:36.495Z",
    "source_name": "google",
    "source_query": "Irrigation Equipment",
    "source_country": "PL",
    "country": "Poland",
    "state": "Greater Poland Voivodeship",
    "city": "Tarnowo Podgórne"
  },
  {
    "source_id": "ChIJqwlpg2FDBEcRbB3XgM41s1k",
    "name": "BONITA HAH Sp. z o.o. Sp.k.",
    "category": "BONITA HAH Sp. z o.o. Sp.k.",
    "formatted_address": "4,4(14)",
    "phone_number": "+48618523284",
    "source_url": "https://www.google.com/maps/place/BONITA+HAH+Sp.+z+o.o.+Sp.k./data=!4m7!3m6!1s0x47044361836909ab:0x59b335ce80d71d6c!8m2!3d52.4082317!4d16.9323373!16s%2Fg%2F1tdyv1mc!19sChIJqwlpg2FDBEcRbB3XgM41s1k?authuser=0&hl=tr&rclk=1",
    "website_url": "",
    "rating_text": "4,4",
    "stars": null,
    "number_of_reviews": null,
    "price_level": "",
    "open_hours": "",
    "extraction_timestamp": "2025-06-07T17:52:36.496Z",
    "source_name": "google",
    "source_query": "Irrigation Equipment",
    "source_country": "PL",
    "country": "Poland",
    "state": "Greater Poland Voivodeship",
    "city": "Tarnowo Podgórne"
  },
  {
    "source_id": "ChIJDRdd3QxFBEcRH2bGY1X5Y-0",
    "name": "Polaqua Group Sp. J.",
    "category": "Polaqua Group Sp. J.",
    "formatted_address": "4,6(40)",
    "phone_number": "+48618677648",
    "source_url": "https://www.google.com/maps/place/Polaqua+Group+Sp.+J./data=!4m7!3m6!1s0x4704450cdd5d170d:0xed63f95563c6661f!8m2!3d52.357685!4d16.8339614!16s%2Fg%2F11b7cq2nqb!19sChIJDRdd3QxFBEcRH2bGY1X5Y-0?authuser=0&hl=tr&rclk=1",
    "website_url": "",
    "rating_text": "4,6",
    "stars": null,
    "number_of_reviews": null,
    "price_level": "",
    "open_hours": "",
    "extraction_timestamp": "2025-06-07T17:52:36.497Z",
    "source_name": "google",
    "source_query": "Irrigation Equipment",
    "source_country": "PL",
    "country": "Poland",
    "state": "Greater Poland Voivodeship",
    "city": "Tarnowo Podgórne"
  },
  {
    "source_id": "ChIJx9dLaaM-BEcR0BMvflVq1Po",
    "name": "GRASSLAND FARMS",
    "category": "GRASSLAND FARMS",
    "formatted_address": "4,4(103)",
    "phone_number": "+48602382601",
    "source_url": "https://www.google.com/maps/place/GRASSLAND+FARMS/data=!4m7!3m6!1s0x47043ea3694bd7c7:0xfad46a557e2f13d0!8m2!3d52.5034131!4d16.5908032!16s%2Fg%2F1tlczwnb!19sChIJx9dLaaM-BEcR0BMvflVq1Po?authuser=0&hl=tr&rclk=1",
    "website_url": "",
    "rating_text": "4,4",
    "stars": null,
    "number_of_reviews": null,
    "price_level": "",
    "open_hours": "",
    "extraction_timestamp": "2025-06-07T17:52:36.498Z",
    "source_name": "google",
    "source_query": "Irrigation Equipment",
    "source_country": "PL",
    "country": "Poland",
    "state": "Greater Poland Voivodeship",
    "city": "Tarnowo Podgórne"
  },
  {
    "source_id": "ChIJq3ZuChspzY0RlAcbMNY5mRg",
    "name": "PODLEWAMY24.pl",
    "category": "PODLEWAMY24.pl",
    "formatted_address": "5,0(43)",
    "phone_number": "+48509215271",
    "source_url": "https://www.google.com/maps/place/PODLEWAMY24.pl/data=!4m7!3m6!1s0x8dcd291b0a6e76ab:0x189939d6301b0794!8m2!3d52.2778206!4d16.9790131!16s%2Fg%2F11rhfnnqkx!19sChIJq3ZuChspzY0RlAcbMNY5mRg?authuser=0&hl=tr&rclk=1",
    "website_url": "",
    "rating_text": "5,0",
    "stars": null,
    "number_of_reviews": null,
    "price_level": "",
    "open_hours": "",
    "extraction_timestamp": "2025-06-07T17:52:36.498Z",
    "source_name": "google",
    "source_query": "Irrigation Equipment",
    "source_country": "PL",
    "country": "Poland",
    "state": "Greater Poland Voivodeship",
    "city": "Tarnowo Podgórne"
  },
  {
    "source_id": "ChIJQYIMI7I4BEcRqTL0BW_MLdA",
    "name": "Market \"Jaga\"",
    "category": "Market \"Jaga\"",
    "formatted_address": "4,0(74)",
    "phone_number": "+48618147432",
    "source_url": "https://www.google.com/maps/place/Market+%22Jaga%22/data=!4m7!3m6!1s0x470438b2230c8241:0xd02dcc6f05f432a9!8m2!3d52.4644814!4d16.6639303!16s%2Fg%2F1wn32c8c!19sChIJQYIMI7I4BEcRqTL0BW_MLdA?authuser=0&hl=tr&rclk=1",
    "website_url": "",
    "rating_text": "4,0",
    "stars": null,
    "number_of_reviews": null,
    "price_level": "",
    "open_hours": "",
    "extraction_timestamp": "2025-06-07T17:52:36.499Z",
    "source_name": "google",
    "source_query": "Irrigation Equipment",
    "source_country": "PL",
    "country": "Poland",
    "state": "Greater Poland Voivodeship",
    "city": "Tarnowo Podgórne"
  },
  {
    "source_id": "ChIJAaAiLcRGBEcRV4Um1zcnVEs",
    "name": "Leroy Merlin",
    "category": "Leroy Merlin",
    "formatted_address": "4,2(4.336)",
    "phone_number": "+48618961800",
    "source_url": "https://www.google.com/maps/place/Leroy+Merlin/data=!4m7!3m6!1s0x470446c42d22a001:0x4b542737d7268557!8m2!3d52.4425727!4d16.7578332!16s%2Fg%2F1vhlwwss!19sChIJAaAiLcRGBEcRV4Um1zcnVEs?authuser=0&hl=tr&rclk=1",
    "website_url": "",
    "rating_text": "4,2",
    "stars": null,
    "number_of_reviews": null,
    "price_level": "",
    "open_hours": "",
    "extraction_timestamp": "2025-06-07T17:52:36.501Z",
    "source_name": "google",
    "source_query": "Irrigation Equipment",
    "source_country": "PL",
    "country": "Poland",
    "state": "Greater Poland Voivodeship",
    "city": "Tarnowo Podgórne"
  },
  {
    "source_id": "ChIJFbnBq7M4BEcR3KZ87clgFOM",
    "name": "Sklep Polski",
    "category": "Sklep Polski",
    "formatted_address": "3,8(235)",
    "phone_number": "+48519777742",
    "source_url": "https://www.google.com/maps/place/Sklep+Polski/data=!4m7!3m6!1s0x470438b3abc1b915:0xe31460c9ed7ca6dc!8m2!3d52.4665528!4d16.6632724!16s%2Fg%2F1jky377cs!19sChIJFbnBq7M4BEcR3KZ87clgFOM?authuser=0&hl=tr&rclk=1",
    "website_url": "",
    "rating_text": "3,8",
    "stars": null,
    "number_of_reviews": null,
    "price_level": "",
    "open_hours": "",
    "extraction_timestamp": "2025-06-07T17:52:36.502Z",
    "source_name": "google",
    "source_query": "Irrigation Equipment",
    "source_country": "PL",
    "country": "Poland",
    "state": "Greater Poland Voivodeship",
    "city": "Tarnowo Podgórne"
  }
]
