[
  {
    "source_id": "ChIJPYsaim5WAUcRTQ1pXWfOVec",
    "name": "Hydro Poland",
    "category": "Hydro Poland",
    "formatted_address": "3,7(87)",
    "phone_number": "+48673525105",
    "source_url": "https://www.google.com/maps/place/Hydro+Poland/data=!4m7!3m6!1s0x4701566e8a1a8b3d:0xe755ce675d690d4d!8m2!3d53.0401073!4d16.4722088!16s%2Fg%2F1tm0rvvr!19sChIJPYsaim5WAUcRTQ1pXWfOVec?authuser=0&hl=tr&rclk=1",
    "website_url": "",
    "rating_text": "3,7",
    "stars": null,
    "number_of_reviews": null,
    "price_level": "",
    "open_hours": "",
    "extraction_timestamp": "2025-06-07T17:31:47.505Z",
    "source_name": "google",
    "source_query": "Irrigation Equipment",
    "source_country": "PL",
    "country": "Poland",
    "state": "Greater Poland Voivodeship",
    "city": "Trzcianka"
  },
  {
    "source_id": "ChIJy6NJcyZbBEcR39HW9CPTve8",
    "name": "AUNA kosmetyki wegańskie",
    "category": "AUNA kosmetyki wegańskie",
    "formatted_address": "4,8(59)",
    "phone_number": "",
    "source_url": "https://www.google.com/maps/place/AUNA+kosmetyki+wega%C5%84skie/data=!4m7!3m6!1s0x47045b267349a3cb:0xefbdd323f4d6d1df!8m2!3d53.034495!4d16.458345!16s%2Fg%2F11q_lgb8cf!19sChIJy6NJcyZbBEcR39HW9CPTve8?authuser=0&hl=tr&rclk=1",
    "website_url": "",
    "rating_text": "4,8",
    "stars": null,
    "number_of_reviews": null,
    "price_level": "",
    "open_hours": "",
    "extraction_timestamp": "2025-06-07T17:31:47.505Z",
    "source_name": "google",
    "source_query": "Irrigation Equipment",
    "source_country": "PL",
    "country": "Poland",
    "state": "Greater Poland Voivodeship",
    "city": "Trzcianka"
  },
  {
    "source_id": "ChIJHwxBVG5WAUcRdi951G2HEGA",
    "name": "Bricomarché",
    "category": "Bricomarché",
    "formatted_address": "3,9(857)",
    "phone_number": "+48672162380",
    "source_url": "https://www.google.com/maps/place/Bricomarch%C3%A9/data=!4m7!3m6!1s0x4701566e54410c1f:0x6010876dd4792f76!8m2!3d53.0401504!4d16.4675496!16s%2Fg%2F11b7c66fkk!19sChIJHwxBVG5WAUcRdi951G2HEGA?authuser=0&hl=tr&rclk=1",
    "website_url": "",
    "rating_text": "3,9",
    "stars": null,
    "number_of_reviews": null,
    "price_level": "",
    "open_hours": "",
    "extraction_timestamp": "2025-06-07T17:31:47.506Z",
    "source_name": "google",
    "source_query": "Irrigation Equipment",
    "source_country": "PL",
    "country": "Poland",
    "state": "Greater Poland Voivodeship",
    "city": "Trzcianka"
  },
  {
    "source_id": "ChIJd3BIrk9RAUcRK_RIFw9T6tM",
    "name": "Komtec Kompozyty Technologii S.A.",
    "category": "Komtec Kompozyty Technologii S.A.",
    "formatted_address": "1,0(2)",
    "phone_number": "+48672168494",
    "source_url": "https://www.google.com/maps/place/Komtec+Kompozyty+Technologii+S.A./data=!4m7!3m6!1s0x4701514fae487077:0xd3ea530f1748f42b!8m2!3d53.0319202!4d16.4275623!16s%2Fg%2F1xn_m2g7!19sChIJd3BIrk9RAUcRK_RIFw9T6tM?authuser=0&hl=tr&rclk=1",
    "website_url": "",
    "rating_text": "1,0",
    "stars": null,
    "number_of_reviews": null,
    "price_level": "",
    "open_hours": "",
    "extraction_timestamp": "2025-06-07T17:31:47.507Z",
    "source_name": "google",
    "source_query": "Irrigation Equipment",
    "source_country": "PL",
    "country": "Poland",
    "state": "Greater Poland Voivodeship",
    "city": "Trzcianka"
  },
  {
    "source_id": "ChIJG9dmjFNXAUcRXD9syJowcGU",
    "name": "SISKO - klimatyzacja, pompy ciepła, instalacje, rekuperacja, podnośnik koszowy Trzcianka",
    "category": "SISKO - klimatyzacja, pompy ciepła, instalacje, rekuperacja, podnośnik koszowy Trzcianka",
    "formatted_address": "SISKO - klimatyzacja, pompy ciepła, instalacje, rekuperacja, podnośnik koszowy Trzcianka",
    "phone_number": "+48672166036",
    "source_url": "https://www.google.com/maps/place/SISKO+-+klimatyzacja,+pompy+ciep%C5%82a,+instalacje,+rekuperacja,+podno%C5%9Bnik+koszowy+Trzcianka/data=!4m7!3m6!1s0x470157538c66d71b:0x6570309ac86c3f5c!8m2!3d53.0303133!4d16.4714168!16s%2Fg%2F11y1hr4j1w!19sChIJG9dmjFNXAUcRXD9syJowcGU?authuser=0&hl=tr&rclk=1",
    "website_url": "",
    "rating_text": "5,0",
    "stars": null,
    "number_of_reviews": null,
    "price_level": "",
    "open_hours": "",
    "extraction_timestamp": "2025-06-07T17:31:47.508Z",
    "source_name": "google",
    "source_query": "Irrigation Equipment",
    "source_country": "PL",
    "country": "Poland",
    "state": "Greater Poland Voivodeship",
    "city": "Trzcianka"
  },
  {
    "source_id": "ChIJm4psMixXAUcResN4BHw6idY",
    "name": "Professor Usługi Ziemne",
    "category": "Professor Usługi Ziemne",
    "formatted_address": "5,0(43)",
    "phone_number": "+48666636668",
    "source_url": "https://www.google.com/maps/place/Professor+Us%C5%82ugi+Ziemne/data=!4m7!3m6!1s0x4701572c326c8a9b:0xd6893a7c0478c37a!8m2!3d53.0496625!4d16.4658055!16s%2Fg%2F11mvnh0dy1!19sChIJm4psMixXAUcResN4BHw6idY?authuser=0&hl=tr&rclk=1",
    "website_url": "",
    "rating_text": "5,0",
    "stars": null,
    "number_of_reviews": null,
    "price_level": "",
    "open_hours": "",
    "extraction_timestamp": "2025-06-07T17:31:47.508Z",
    "source_name": "google",
    "source_query": "Irrigation Equipment",
    "source_country": "PL",
    "country": "Poland",
    "state": "Greater Poland Voivodeship",
    "city": "Trzcianka"
  },
  {
    "source_id": "ChIJIaWOv3NWAUcRGoi9iaBemmI",
    "name": "Gaśpil 2. Sprzedaż sprzętu ppoż. Wesołowska J.",
    "category": "Gaśpil 2. Sprzedaż sprzętu ppoż. Wesołowska J.",
    "formatted_address": "4,5(2)",
    "phone_number": "+48600507142",
    "source_url": "https://www.google.com/maps/place/Ga%C5%9Bpil+2.+Sprzeda%C5%BC+sprz%C4%99tu+ppo%C5%BC.+Weso%C5%82owska+J./data=!4m7!3m6!1s0x47015673bf8ea521:0x629a5ea089bd881a!8m2!3d53.0329781!4d16.4688625!16s%2Fg%2F1tc__58f!19sChIJIaWOv3NWAUcRGoi9iaBemmI?authuser=0&hl=tr&rclk=1",
    "website_url": "",
    "rating_text": "4,5",
    "stars": null,
    "number_of_reviews": null,
    "price_level": "",
    "open_hours": "",
    "extraction_timestamp": "2025-06-07T17:31:47.509Z",
    "source_name": "google",
    "source_query": "Irrigation Equipment",
    "source_country": "PL",
    "country": "Poland",
    "state": "Greater Poland Voivodeship",
    "city": "Trzcianka"
  },
  {
    "source_id": "ChIJE3pX6HFWAUcRcr52dubUKEg",
    "name": "Pompy hydrauliczne",
    "category": "Pompy hydrauliczne",
    "formatted_address": "",
    "phone_number": "+48604603174",
    "source_url": "https://www.google.com/maps/place/Pompy+hydrauliczne/data=!4m7!3m6!1s0x47015671e8577a13:0x4828d4e67676be72!8m2!3d53.036155!4d16.4668819!16s%2Fg%2F11hzjywpg4!19sChIJE3pX6HFWAUcRcr52dubUKEg?authuser=0&hl=tr&rclk=1",
    "website_url": "",
    "rating_text": "",
    "stars": null,
    "number_of_reviews": null,
    "price_level": "",
    "open_hours": "",
    "extraction_timestamp": "2025-06-07T17:31:47.509Z",
    "source_name": "google",
    "source_query": "Irrigation Equipment",
    "source_country": "PL",
    "country": "Poland",
    "state": "Greater Poland Voivodeship",
    "city": "Trzcianka"
  },
  {
    "source_id": "ChIJ3_fGoaNXAUcRPuJ36UltHKk",
    "name": "Farma fotowoltaiczna, Trzcianka oczyszczalnia",
    "category": "Farma fotowoltaiczna, Trzcianka oczyszczalnia",
    "formatted_address": "Farma fotowoltaiczna, Trzcianka oczyszczalnia",
    "phone_number": "",
    "source_url": "https://www.google.com/maps/place/Farma+fotowoltaiczna,+Trzcianka+oczyszczalnia/data=!4m7!3m6!1s0x470157a3a1c6f7df:0xa91c6d49e977e23e!8m2!3d53.0373836!4d16.4869031!16s%2Fg%2F11kqsd00gh!19sChIJ3_fGoaNXAUcRPuJ36UltHKk?authuser=0&hl=tr&rclk=1",
    "website_url": "",
    "rating_text": "",
    "stars": null,
    "number_of_reviews": null,
    "price_level": "",
    "open_hours": "",
    "extraction_timestamp": "2025-06-07T17:31:47.510Z",
    "source_name": "google",
    "source_query": "Irrigation Equipment",
    "source_country": "PL",
    "country": "Poland",
    "state": "Greater Poland Voivodeship",
    "city": "Trzcianka"
  },
  {
    "source_id": "ChIJ5YhboWNXAUcRc5ZEhn_qApI",
    "name": "Action Trzcianka",
    "category": "Action Trzcianka",
    "formatted_address": "4,5(39)",
    "phone_number": "+48326305898",
    "source_url": "https://www.google.com/maps/place/Action+Trzcianka/data=!4m7!3m6!1s0x47015763a15b88e5:0x9202ea7f86449673!8m2!3d53.0408522!4d16.4657931!16s%2Fg%2F11jyy_5zvy!19sChIJ5YhboWNXAUcRc5ZEhn_qApI?authuser=0&hl=tr&rclk=1",
    "website_url": "",
    "rating_text": "4,5",
    "stars": null,
    "number_of_reviews": null,
    "price_level": "",
    "open_hours": "",
    "extraction_timestamp": "2025-06-07T17:31:47.511Z",
    "source_name": "google",
    "source_query": "Irrigation Equipment",
    "source_country": "PL",
    "country": "Poland",
    "state": "Greater Poland Voivodeship",
    "city": "Trzcianka"
  },
  {
    "source_id": "ChIJM7aw-vNUAUcRCFVCycsdj2s",
    "name": "Frejus - Hydraulika Siłowa Siedlisko",
    "category": "Frejus - Hydraulika Siłowa Siedlisko",
    "formatted_address": "4,4(36)",
    "phone_number": "+48505818281",
    "source_url": "https://www.google.com/maps/place/Frejus+-+Hydraulika+Si%C5%82owa+Siedlisko/data=!4m7!3m6!1s0x470154f3fab0b633:0x6b8f1dcbc9425508!8m2!3d52.9867629!4d16.387411!16s%2Fg%2F11f03wv7gj!19sChIJM7aw-vNUAUcRCFVCycsdj2s?authuser=0&hl=tr&rclk=1",
    "website_url": "",
    "rating_text": "4,4",
    "stars": null,
    "number_of_reviews": null,
    "price_level": "",
    "open_hours": "",
    "extraction_timestamp": "2025-06-07T17:31:47.511Z",
    "source_name": "google",
    "source_query": "Irrigation Equipment",
    "source_country": "PL",
    "country": "Poland",
    "state": "Greater Poland Voivodeship",
    "city": "Trzcianka"
  },
  {
    "source_id": "ChIJky9Jhe9XAUcRD568_TTgi-k",
    "name": "Targowisko Miejskie - główne",
    "category": "Targowisko Miejskie - główne",
    "formatted_address": "3,9(67)",
    "phone_number": "",
    "source_url": "https://www.google.com/maps/place/Targowisko+Miejskie+-+g%C5%82%C3%B3wne/data=!4m7!3m6!1s0x470157ef85492f93:0xe98be034fdbc9e0f!8m2!3d53.0438568!4d16.4606093!16s%2Fg%2F11l52mpm7d!19sChIJky9Jhe9XAUcRD568_TTgi-k?authuser=0&hl=tr&rclk=1",
    "website_url": "",
    "rating_text": "3,9",
    "stars": null,
    "number_of_reviews": null,
    "price_level": "",
    "open_hours": "",
    "extraction_timestamp": "2025-06-07T17:31:47.512Z",
    "source_name": "google",
    "source_query": "Irrigation Equipment",
    "source_country": "PL",
    "country": "Poland",
    "state": "Greater Poland Voivodeship",
    "city": "Trzcianka"
  },
  {
    "source_id": "ChIJgaQVyHRWAUcRHnnMakAwSqY",
    "name": "Rejonowy Związek Spółek Wodnych",
    "category": "Rejonowy Związek Spółek Wodnych",
    "formatted_address": "",
    "phone_number": "+48672163281",
    "source_url": "https://www.google.com/maps/place/Rejonowy+Zwi%C4%85zek+Sp%C3%B3%C5%82ek+Wodnych/data=!4m7!3m6!1s0x47015674c815a481:0xa64a30406acc791e!8m2!3d53.029379!4d16.471882!16s%2Fg%2F1thk7fl5!19sChIJgaQVyHRWAUcRHnnMakAwSqY?authuser=0&hl=tr&rclk=1",
    "website_url": "",
    "rating_text": "",
    "stars": null,
    "number_of_reviews": null,
    "price_level": "",
    "open_hours": "",
    "extraction_timestamp": "2025-06-07T17:31:47.513Z",
    "source_name": "google",
    "source_query": "Irrigation Equipment",
    "source_country": "PL",
    "country": "Poland",
    "state": "Greater Poland Voivodeship",
    "city": "Trzcianka"
  },
  {
    "source_id": "ChIJUfn2Ig35A0cREW9fZ4029UM",
    "name": "IMTechnika sp. z o.o.",
    "category": "IMTechnika sp. z o.o.",
    "formatted_address": "4,4(17)",
    "phone_number": "+48883820388",
    "source_url": "https://www.google.com/maps/place/IMTechnika+sp.+z+o.o./data=!4m7!3m6!1s0x4703f90d22f6f951:0x43f5368d675f6f11!8m2!3d52.9756271!4d16.657836!16s%2Fg%2F11bw48_6mg!19sChIJUfn2Ig35A0cREW9fZ4029UM?authuser=0&hl=tr&rclk=1",
    "website_url": "",
    "rating_text": "4,4",
    "stars": null,
    "number_of_reviews": null,
    "price_level": "",
    "open_hours": "",
    "extraction_timestamp": "2025-06-07T17:31:47.513Z",
    "source_name": "google",
    "source_query": "Irrigation Equipment",
    "source_country": "PL",
    "country": "Poland",
    "state": "Greater Poland Voivodeship",
    "city": "Trzcianka"
  },
  {
    "source_id": "ChIJj4VS4TVXAUcRGf_83_TYykU",
    "name": "F.H.U. Honey",
    "category": "F.H.U. Honey",
    "formatted_address": "4,8(20)",
    "phone_number": "",
    "source_url": "https://www.google.com/maps/place/F.H.U.+Honey/data=!4m7!3m6!1s0x47015735e152858f:0x45cad8f4dffcff19!8m2!3d53.0414677!4d16.4591764!16s%2Fg%2F11h40yk_zh!19sChIJj4VS4TVXAUcRGf_83_TYykU?authuser=0&hl=tr&rclk=1",
    "website_url": "",
    "rating_text": "4,8",
    "stars": null,
    "number_of_reviews": null,
    "price_level": "",
    "open_hours": "",
    "extraction_timestamp": "2025-06-07T17:31:47.513Z",
    "source_name": "google",
    "source_query": "Irrigation Equipment",
    "source_country": "PL",
    "country": "Poland",
    "state": "Greater Poland Voivodeship",
    "city": "Trzcianka"
  },
  {
    "source_id": "ChIJocyOg3RWAUcRDLEL8yIyRFQ",
    "name": "Części samochodowe - Hen-Pol",
    "category": "Części samochodowe - Hen-Pol",
    "formatted_address": "4,9(49)",
    "phone_number": "+48507159347",
    "source_url": "https://www.google.com/maps/place/Cz%C4%99%C5%9Bci+samochodowe+-+Hen-Pol/data=!4m7!3m6!1s0x47015674838ecca1:0x54443222f30bb10c!8m2!3d53.0334217!4d16.4703903!16s%2Fg%2F1thp6pqr!19sChIJocyOg3RWAUcRDLEL8yIyRFQ?authuser=0&hl=tr&rclk=1",
    "website_url": "",
    "rating_text": "4,9",
    "stars": null,
    "number_of_reviews": null,
    "price_level": "",
    "open_hours": "",
    "extraction_timestamp": "2025-06-07T17:31:47.514Z",
    "source_name": "google",
    "source_query": "Irrigation Equipment",
    "source_country": "PL",
    "country": "Poland",
    "state": "Greater Poland Voivodeship",
    "city": "Trzcianka"
  },
  {
    "source_id": "ChIJ1w8XQ4dWAUcRxQvifc_0bi0",
    "name": "Wysoczańska Grażyna. FHU. Sklep spożywczo - przemysłowy",
    "category": "Wysoczańska Grażyna. FHU. Sklep spożywczo - przemysłowy",
    "formatted_address": "4,2(20)",
    "phone_number": "+48672162257",
    "source_url": "https://www.google.com/maps/place/Wysocza%C5%84ska+Gra%C5%BCyna.+FHU.+Sklep+spo%C5%BCywczo+-+przemys%C5%82owy/data=!4m7!3m6!1s0x4701568743170fd7:0x2d6ef4cf7de20bc5!8m2!3d53.0360472!4d16.4427289!16s%2Fg%2F1ty72zfz!19sChIJ1w8XQ4dWAUcRxQvifc_0bi0?authuser=0&hl=tr&rclk=1",
    "website_url": "",
    "rating_text": "4,2",
    "stars": null,
    "number_of_reviews": null,
    "price_level": "",
    "open_hours": "",
    "extraction_timestamp": "2025-06-07T17:31:47.515Z",
    "source_name": "google",
    "source_query": "Irrigation Equipment",
    "source_country": "PL",
    "country": "Poland",
    "state": "Greater Poland Voivodeship",
    "city": "Trzcianka"
  },
  {
    "source_id": "ChIJm5FvnWdWAUcRxJFTFkCv5Sk",
    "name": "Livio",
    "category": "Livio",
    "formatted_address": "4,1(17)",
    "phone_number": "",
    "source_url": "https://www.google.com/maps/place/Livio/data=!4m7!3m6!1s0x470156679d6f919b:0x29e5af40165391c4!8m2!3d53.047664!4d16.4639364!16s%2Fg%2F11cp71zvhc!19sChIJm5FvnWdWAUcRxJFTFkCv5Sk?authuser=0&hl=tr&rclk=1",
    "website_url": "",
    "rating_text": "4,1",
    "stars": null,
    "number_of_reviews": null,
    "price_level": "",
    "open_hours": "",
    "extraction_timestamp": "2025-06-07T17:31:47.515Z",
    "source_name": "google",
    "source_query": "Irrigation Equipment",
    "source_country": "PL",
    "country": "Poland",
    "state": "Greater Poland Voivodeship",
    "city": "Trzcianka"
  },
  {
    "source_id": "ChIJC6lj5GRWAUcRYWhFAlDMa0U",
    "name": "Sklep u Kowala",
    "category": "Sklep u Kowala",
    "formatted_address": "4,8(139)",
    "phone_number": "+48500086091",
    "source_url": "https://www.google.com/maps/place/Sklep+u+Kowala/data=!4m7!3m6!1s0x47015664e463a90b:0x456bcc5002456861!8m2!3d53.0400555!4d16.4581214!16s%2Fg%2F1pp2x8pbc!19sChIJC6lj5GRWAUcRYWhFAlDMa0U?authuser=0&hl=tr&rclk=1",
    "website_url": "",
    "rating_text": "4,8",
    "stars": null,
    "number_of_reviews": null,
    "price_level": "",
    "open_hours": "",
    "extraction_timestamp": "2025-06-07T17:31:47.516Z",
    "source_name": "google",
    "source_query": "Irrigation Equipment",
    "source_country": "PL",
    "country": "Poland",
    "state": "Greater Poland Voivodeship",
    "city": "Trzcianka"
  },
  {
    "source_id": "ChIJcwgUYWRWAUcRT8izKGHohGY",
    "name": "Livio \"U Mruka\"",
    "category": "Livio \"U Mruka\"",
    "formatted_address": "4,4(133)",
    "phone_number": "+48672168682",
    "source_url": "https://www.google.com/maps/place/Livio+%22U+Mruka%22/data=!4m7!3m6!1s0x4701566461140873:0x6684e86128b3c84f!8m2!3d53.0413972!4d16.4573842!16s%2Fg%2F1tj7znwy!19sChIJcwgUYWRWAUcRT8izKGHohGY?authuser=0&hl=tr&rclk=1",
    "website_url": "",
    "rating_text": "4,4",
    "stars": null,
    "number_of_reviews": null,
    "price_level": "",
    "open_hours": "",
    "extraction_timestamp": "2025-06-07T17:31:47.517Z",
    "source_name": "google",
    "source_query": "Irrigation Equipment",
    "source_country": "PL",
    "country": "Poland",
    "state": "Greater Poland Voivodeship",
    "city": "Trzcianka"
  },
  {
    "source_id": "ChIJtazmSmNWAUcR0jnVDbzK0D0",
    "name": "Rogalik",
    "category": "Rogalik",
    "formatted_address": "4,4(86)",
    "phone_number": "+48672167343",
    "source_url": "https://www.google.com/maps/place/Rogalik/data=!4m7!3m6!1s0x470156634ae6acb5:0x3dd0cabc0dd539d2!8m2!3d53.036302!4d16.454718!16s%2Fg%2F1w4f6t6b!19sChIJtazmSmNWAUcR0jnVDbzK0D0?authuser=0&hl=tr&rclk=1",
    "website_url": "",
    "rating_text": "4,4",
    "stars": null,
    "number_of_reviews": null,
    "price_level": "",
    "open_hours": "",
    "extraction_timestamp": "2025-06-07T17:31:47.518Z",
    "source_name": "google",
    "source_query": "Irrigation Equipment",
    "source_country": "PL",
    "country": "Poland",
    "state": "Greater Poland Voivodeship",
    "city": "Trzcianka"
  },
  {
    "source_id": "ChIJvXA4kVxWAUcRkqH8iUJrU1Y",
    "name": "Trade Zacisze - Grocery Store",
    "category": "Trade Zacisze - Grocery Store",
    "formatted_address": "4,5(190)",
    "phone_number": "",
    "source_url": "https://www.google.com/maps/place/Trade+Zacisze+-+Grocery+Store/data=!4m7!3m6!1s0x4701565c913870bd:0x56536b4289fca192!8m2!3d53.0525374!4d16.4678529!16s%2Fg%2F11c2p8nqr4!19sChIJvXA4kVxWAUcRkqH8iUJrU1Y?authuser=0&hl=tr&rclk=1",
    "website_url": "",
    "rating_text": "4,5",
    "stars": null,
    "number_of_reviews": null,
    "price_level": "",
    "open_hours": "",
    "extraction_timestamp": "2025-06-07T17:31:47.518Z",
    "source_name": "google",
    "source_query": "Irrigation Equipment",
    "source_country": "PL",
    "country": "Poland",
    "state": "Greater Poland Voivodeship",
    "city": "Trzcianka"
  },
  {
    "source_id": "ChIJm_vE41dXAUcRHAcK5pnmBrE",
    "name": "Kawiarnia Kostka",
    "category": "Kawiarnia Kostka",
    "formatted_address": "4,8(33) · zł 1–20",
    "phone_number": "+48792557876",
    "source_url": "https://www.google.com/maps/place/Kawiarnia+Kostka/data=!4m7!3m6!1s0x47015757e3c4fb9b:0xb106e699e60a071c!8m2!3d53.0392643!4d16.4598155!16s%2Fg%2F11jzx9kj84!19sChIJm_vE41dXAUcRHAcK5pnmBrE?authuser=0&hl=tr&rclk=1",
    "website_url": "",
    "rating_text": "4,8",
    "stars": null,
    "number_of_reviews": null,
    "price_level": "",
    "open_hours": "",
    "extraction_timestamp": "2025-06-07T17:31:47.519Z",
    "source_name": "google",
    "source_query": "Irrigation Equipment",
    "source_country": "PL",
    "country": "Poland",
    "state": "Greater Poland Voivodeship",
    "city": "Trzcianka"
  },
  {
    "source_id": "ChIJVSpuRXtWAUcRwtsvPPXSVJ8",
    "name": "Stogrosik",
    "category": "Stogrosik",
    "formatted_address": "4,2(70)",
    "phone_number": "+48782971153",
    "source_url": "https://www.google.com/maps/place/Stogrosik/data=!4m7!3m6!1s0x4701567b456e2a55:0x9f54d2f53c2fdbc2!8m2!3d53.0382321!4d16.4548005!16s%2Fg%2F11csq882q1!19sChIJVSpuRXtWAUcRwtsvPPXSVJ8?authuser=0&hl=tr&rclk=1",
    "website_url": "",
    "rating_text": "4,2",
    "stars": null,
    "number_of_reviews": null,
    "price_level": "",
    "open_hours": "",
    "extraction_timestamp": "2025-06-07T17:31:47.520Z",
    "source_name": "google",
    "source_query": "Irrigation Equipment",
    "source_country": "PL",
    "country": "Poland",
    "state": "Greater Poland Voivodeship",
    "city": "Trzcianka"
  },
  {
    "source_id": "ChIJ-YijeGVWAUcR5OtRtOIlkX8",
    "name": "Presto",
    "category": "Presto",
    "formatted_address": "4,6(24)",
    "phone_number": "+48672166232",
    "source_url": "https://www.google.com/maps/place/Presto/data=!4m7!3m6!1s0x4701566578a388f9:0x7f9125e2b451ebe4!8m2!3d53.0406857!4d16.4625058!16s%2Fg%2F1tcxhgjf!19sChIJ-YijeGVWAUcR5OtRtOIlkX8?authuser=0&hl=tr&rclk=1",
    "website_url": "",
    "rating_text": "4,6",
    "stars": null,
    "number_of_reviews": null,
    "price_level": "",
    "open_hours": "",
    "extraction_timestamp": "2025-06-07T17:31:47.541Z",
    "source_name": "google",
    "source_query": "Irrigation Equipment",
    "source_country": "PL",
    "country": "Poland",
    "state": "Greater Poland Voivodeship",
    "city": "Trzcianka"
  },
  {
    "source_id": "ChIJFRsycG9WAUcR5SCJoBOjh5Q",
    "name": "Hebe",
    "category": "Hebe",
    "formatted_address": "4,3(181)",
    "phone_number": "+48222065400",
    "source_url": "https://www.google.com/maps/place/Hebe/data=!4m7!3m6!1s0x4701566f70321b15:0x9487a313a08920e5!8m2!3d53.0407828!4d16.4645584!16s%2Fg%2F11h9rdvxrp!19sChIJFRsycG9WAUcR5SCJoBOjh5Q?authuser=0&hl=tr&rclk=1",
    "website_url": "",
    "rating_text": "4,3",
    "stars": null,
    "number_of_reviews": null,
    "price_level": "",
    "open_hours": "",
    "extraction_timestamp": "2025-06-07T17:31:47.542Z",
    "source_name": "google",
    "source_query": "Irrigation Equipment",
    "source_country": "PL",
    "country": "Poland",
    "state": "Greater Poland Voivodeship",
    "city": "Trzcianka"
  },
  {
    "source_id": "ChIJs1ahbSFXAUcRhPIoNqnKW5w",
    "name": "Drogeria Rossmann",
    "category": "Drogeria Rossmann",
    "formatted_address": "4,3(86)",
    "phone_number": "+48426139700",
    "source_url": "https://www.google.com/maps/place/Drogeria+Rossmann/data=!4m7!3m6!1s0x470157216da156b3:0x9c5bcaa93628f284!8m2!3d53.0416033!4d16.4677353!16s%2Fg%2F11l157pth2!19sChIJs1ahbSFXAUcRhPIoNqnKW5w?authuser=0&hl=tr&rclk=1",
    "website_url": "",
    "rating_text": "4,3",
    "stars": null,
    "number_of_reviews": null,
    "price_level": "",
    "open_hours": "",
    "extraction_timestamp": "2025-06-07T17:31:47.543Z",
    "source_name": "google",
    "source_query": "Irrigation Equipment",
    "source_country": "PL",
    "country": "Poland",
    "state": "Greater Poland Voivodeship",
    "city": "Trzcianka"
  },
  {
    "source_id": "ChIJ45LgUHJWAUcRv8Ke_LgOWIw",
    "name": "Biedronka",
    "category": "Biedronka",
    "formatted_address": "4,1(729)",
    "phone_number": "+48800080010",
    "source_url": "https://www.google.com/maps/place/Biedronka/data=!4m7!3m6!1s0x4701567250e092e3:0x8c580eb8fc9ec2bf!8m2!3d53.0347521!4d16.4697422!16s%2Fg%2F1xfsmfmw!19sChIJ45LgUHJWAUcRv8Ke_LgOWIw?authuser=0&hl=tr&rclk=1",
    "website_url": "",
    "rating_text": "4,1",
    "stars": null,
    "number_of_reviews": null,
    "price_level": "",
    "open_hours": "",
    "extraction_timestamp": "2025-06-07T17:31:47.543Z",
    "source_name": "google",
    "source_query": "Irrigation Equipment",
    "source_country": "PL",
    "country": "Poland",
    "state": "Greater Poland Voivodeship",
    "city": "Trzcianka"
  },
  {
    "source_id": "ChIJy0QeHyBXAUcRygTMcdKpqB8",
    "name": "Pepco",
    "category": "Pepco",
    "formatted_address": "4,9(34)",
    "phone_number": "",
    "source_url": "https://www.google.com/maps/place/Pepco/data=!4m7!3m6!1s0x470157201f1e44cb:0x1fa8a9d271cc04ca!8m2!3d53.0409261!4d16.4646924!16s%2Fg%2F11f3n9_7hs!19sChIJy0QeHyBXAUcRygTMcdKpqB8?authuser=0&hl=tr&rclk=1",
    "website_url": "",
    "rating_text": "4,9",
    "stars": null,
    "number_of_reviews": null,
    "price_level": "",
    "open_hours": "",
    "extraction_timestamp": "2025-06-07T17:31:47.544Z",
    "source_name": "google",
    "source_query": "Irrigation Equipment",
    "source_country": "PL",
    "country": "Poland",
    "state": "Greater Poland Voivodeship",
    "city": "Trzcianka"
  },
  {
    "source_id": "ChIJh1nZohpXAUcRF8-uarZTB6c",
    "name": "Dino",
    "category": "Dino",
    "formatted_address": "4,3(242)",
    "phone_number": "",
    "source_url": "https://www.google.com/maps/place/Dino/data=!4m7!3m6!1s0x4701571aa2d95987:0xa70753b66aaecf17!8m2!3d53.0382805!4d16.4519613!16s%2Fg%2F11h3dm5qq6!19sChIJh1nZohpXAUcRF8-uarZTB6c?authuser=0&hl=tr&rclk=1",
    "website_url": "",
    "rating_text": "4,3",
    "stars": null,
    "number_of_reviews": null,
    "price_level": "",
    "open_hours": "",
    "extraction_timestamp": "2025-06-07T17:31:47.544Z",
    "source_name": "google",
    "source_query": "Irrigation Equipment",
    "source_country": "PL",
    "country": "Poland",
    "state": "Greater Poland Voivodeship",
    "city": "Trzcianka"
  }
]
