[
  {
    "source_id": "ChIJh6eNCrGiBEcR8GsTimluSiE",
    "name": "AD SYSTEM Żebrowski spółka komandytowa",
    "category": "AD SYSTEM Żebrowski spółka komandytowa",
    "formatted_address": "4,8(22)",
    "phone_number": "+48614254378",
    "source_url": "https://www.google.com/maps/place/AD+SYSTEM+%C5%BBebrowski+sp%C3%B3%C5%82ka+komandytowa/data=!4m7!3m6!1s0x4704a2b10a8da787:0x214a6e698a136bf0!8m2!3d52.568668!4d17.8253808!16s%2Fg%2F1hc0v44rf!19sChIJh6eNCrGiBEcR8GsTimluSiE?authuser=0&hl=tr&rclk=1",
    "website_url": "",
    "rating_text": "4,8",
    "stars": null,
    "number_of_reviews": null,
    "price_level": "",
    "open_hours": "",
    "extraction_timestamp": "2025-06-07T17:17:57.821Z",
    "source_name": "google",
    "source_query": "Irrigation Equipment",
    "source_country": "PL",
    "country": "Poland",
    "state": "Greater Poland Voivodeship",
    "city": "Trzemeszno"
  },
  {
    "source_id": "ChIJR04HprOiBEcRimDlaVeaHjg",
    "name": "HYDROART GACA SP. With O.O.",
    "category": "HYDROART GACA SP. With O.O.",
    "formatted_address": "4,5(394)",
    "phone_number": "+48614282710",
    "source_url": "https://www.google.com/maps/place/HYDROART+GACA+SP.+With+O.O./data=!4m7!3m6!1s0x4704a2b3a6074e47:0x381e9a5769e5608a!8m2!3d52.5625604!4d17.824335!16s%2Fg%2F1td3k900!19sChIJR04HprOiBEcRimDlaVeaHjg?authuser=0&hl=tr&rclk=1",
    "website_url": "",
    "rating_text": "4,5",
    "stars": null,
    "number_of_reviews": null,
    "price_level": "",
    "open_hours": "",
    "extraction_timestamp": "2025-06-07T17:17:57.822Z",
    "source_name": "google",
    "source_query": "Irrigation Equipment",
    "source_country": "PL",
    "country": "Poland",
    "state": "Greater Poland Voivodeship",
    "city": "Trzemeszno"
  },
  {
    "source_id": "ChIJ7emfIk29BEcRFyWiZhYmKVc",
    "name": "REMONDIS Aqua Trzemeszno",
    "category": "REMONDIS Aqua Trzemeszno",
    "formatted_address": "4,3(9)",
    "phone_number": "+48614154308",
    "source_url": "https://www.google.com/maps/place/REMONDIS+Aqua+Trzemeszno/data=!4m7!3m6!1s0x4704bd4d229fe9ed:0x5729261666a22517!8m2!3d52.5587615!4d17.8199606!16s%2Fg%2F11b5wnchr4!19sChIJ7emfIk29BEcRFyWiZhYmKVc?authuser=0&hl=tr&rclk=1",
    "website_url": "",
    "rating_text": "4,3",
    "stars": null,
    "number_of_reviews": null,
    "price_level": "",
    "open_hours": "",
    "extraction_timestamp": "2025-06-07T17:17:57.823Z",
    "source_name": "google",
    "source_query": "Irrigation Equipment",
    "source_country": "PL",
    "country": "Poland",
    "state": "Greater Poland Voivodeship",
    "city": "Trzemeszno"
  },
  {
    "source_id": "ChIJg2hZiCK9BEcR-n98KYKkNbQ",
    "name": "AT TEL Przewierty Sterowane Technologie Bezwykopowe",
    "category": "AT TEL Przewierty Sterowane Technologie Bezwykopowe",
    "formatted_address": "5,0(10)",
    "phone_number": "+48797298903",
    "source_url": "https://www.google.com/maps/place/AT+TEL+Przewierty+Sterowane+Technologie+Bezwykopowe/data=!4m7!3m6!1s0x4704bd2288596883:0xb435a482297c7ffa!8m2!3d52.5504175!4d17.8158344!16s%2Fg%2F11ny2zqpnx!19sChIJg2hZiCK9BEcR-n98KYKkNbQ?authuser=0&hl=tr&rclk=1",
    "website_url": "",
    "rating_text": "5,0",
    "stars": null,
    "number_of_reviews": null,
    "price_level": "",
    "open_hours": "",
    "extraction_timestamp": "2025-06-07T17:17:57.824Z",
    "source_name": "google",
    "source_query": "Irrigation Equipment",
    "source_country": "PL",
    "country": "Poland",
    "state": "Greater Poland Voivodeship",
    "city": "Trzemeszno"
  },
  {
    "source_id": "ChIJi_O8SyOjBEcRWua-IvntvoM",
    "name": "Hydro-instal Dariusz Kubasik",
    "category": "Hydro-instal Dariusz Kubasik",
    "formatted_address": "4,0(1)",
    "phone_number": "+48733003444",
    "source_url": "https://www.google.com/maps/place/Hydro-instal+Dariusz+Kubasik/data=!4m7!3m6!1s0x4704a3234bbcf38b:0x83beedf922bee65a!8m2!3d51.953761!4d19.1343692!16s%2Fg%2F11fcqxzcvk!19sChIJi_O8SyOjBEcRWua-IvntvoM?authuser=0&hl=tr&rclk=1",
    "website_url": "",
    "rating_text": "4,0",
    "stars": null,
    "number_of_reviews": null,
    "price_level": "",
    "open_hours": "",
    "extraction_timestamp": "2025-06-07T17:17:57.825Z",
    "source_name": "google",
    "source_query": "Irrigation Equipment",
    "source_country": "PL",
    "country": "Poland",
    "state": "Greater Poland Voivodeship",
    "city": "Trzemeszno"
  },
  {
    "source_id": "ChIJgRlsbLCiBEcR39WpOVzeuEI",
    "name": "Rem-Bud. Materiały Budowlane Trzemeszno i Witkowo",
    "category": "Rem-Bud. Materiały Budowlane Trzemeszno i Witkowo",
    "formatted_address": "4,5(31)",
    "phone_number": "+48664917887",
    "source_url": "https://www.google.com/maps/place/Rem-Bud.+Materia%C5%82y+Budowlane+Trzemeszno+i+Witkowo/data=!4m7!3m6!1s0x4704a2b06c6c1981:0x42b8de5c39a9d5df!8m2!3d52.5693328!4d17.8259243!16s%2Fg%2F1hc11m34f!19sChIJgRlsbLCiBEcR39WpOVzeuEI?authuser=0&hl=tr&rclk=1",
    "website_url": "",
    "rating_text": "4,5",
    "stars": null,
    "number_of_reviews": null,
    "price_level": "",
    "open_hours": "",
    "extraction_timestamp": "2025-06-07T17:17:57.826Z",
    "source_name": "google",
    "source_query": "Irrigation Equipment",
    "source_country": "PL",
    "country": "Poland",
    "state": "Greater Poland Voivodeship",
    "city": "Trzemeszno"
  },
  {
    "source_id": "ChIJu4MdW3mjBEcRtV6dpZW9ook",
    "name": "Hydroart - Odnawialne Źródła Energii",
    "category": "Hydroart - Odnawialne Źródła Energii",
    "formatted_address": "5,0(1)",
    "phone_number": "+48798942227",
    "source_url": "https://www.google.com/maps/place/Hydroart+-+Odnawialne+%C5%B9r%C3%B3d%C5%82a+Energii/data=!4m7!3m6!1s0x4704a3795b1d83bb:0x89a2bd95a59d5eb5!8m2!3d52.5624781!4d17.8243399!16s%2Fg%2F11krcdwlz1!19sChIJu4MdW3mjBEcRtV6dpZW9ook?authuser=0&hl=tr&rclk=1",
    "website_url": "",
    "rating_text": "5,0",
    "stars": null,
    "number_of_reviews": null,
    "price_level": "",
    "open_hours": "",
    "extraction_timestamp": "2025-06-07T17:17:57.827Z",
    "source_name": "google",
    "source_query": "Irrigation Equipment",
    "source_country": "PL",
    "country": "Poland",
    "state": "Greater Poland Voivodeship",
    "city": "Trzemeszno"
  },
  {
    "source_id": "ChIJc7FdUDi9BEcR5TgD6_Qd60E",
    "name": "MTS Instalacje Jakub Kierczyński",
    "category": "MTS Instalacje Jakub Kierczyński",
    "formatted_address": "5,0(4)",
    "phone_number": "+48887729555",
    "source_url": "https://www.google.com/maps/place/MTS+Instalacje+Jakub+Kierczy%C5%84ski/data=!4m7!3m6!1s0x4704bd38505db173:0x41eb1df4eb0338e5!8m2!3d52.5566987!4d17.8197411!16s%2Fg%2F11k3qq28jt!19sChIJc7FdUDi9BEcR5TgD6_Qd60E?authuser=0&hl=tr&rclk=1",
    "website_url": "",
    "rating_text": "5,0",
    "stars": null,
    "number_of_reviews": null,
    "price_level": "",
    "open_hours": "",
    "extraction_timestamp": "2025-06-07T17:17:57.827Z",
    "source_name": "google",
    "source_query": "Irrigation Equipment",
    "source_country": "PL",
    "country": "Poland",
    "state": "Greater Poland Voivodeship",
    "city": "Trzemeszno"
  },
  {
    "source_id": "ChIJvR-ZzLKiBEcRwSPppy8LPc4",
    "name": "Sklep Majster Trzemeszno",
    "category": "Sklep Majster Trzemeszno",
    "formatted_address": "4,5(69)",
    "phone_number": "+48798439787",
    "source_url": "https://www.google.com/maps/place/Sklep+Majster+Trzemeszno/data=!4m7!3m6!1s0x4704a2b2cc991fbd:0xce3d0b2fa7e923c1!8m2!3d52.5694646!4d17.8219428!16s%2Fg%2F1thr5wq1!19sChIJvR-ZzLKiBEcRwSPppy8LPc4?authuser=0&hl=tr&rclk=1",
    "website_url": "",
    "rating_text": "4,5",
    "stars": null,
    "number_of_reviews": null,
    "price_level": "",
    "open_hours": "",
    "extraction_timestamp": "2025-06-07T17:17:57.828Z",
    "source_name": "google",
    "source_query": "Irrigation Equipment",
    "source_country": "PL",
    "country": "Poland",
    "state": "Greater Poland Voivodeship",
    "city": "Trzemeszno"
  },
  {
    "source_id": "ChIJeZgY1xqRBEcRpcLMUkxBkfI",
    "name": "Ha-Two-O Paweł Filipiak",
    "category": "Ha-Two-O Paweł Filipiak",
    "formatted_address": "4,8(101)",
    "phone_number": "+48575579000",
    "source_url": "https://www.google.com/maps/place/Ha-Two-O+Pawe%C5%82+Filipiak/data=!4m7!3m6!1s0x4704911ad7189879:0xf291414c52ccc2a5!8m2!3d52.5491138!4d17.555824!16s%2Fg%2F1x6q0ggt!19sChIJeZgY1xqRBEcRpcLMUkxBkfI?authuser=0&hl=tr&rclk=1",
    "website_url": "",
    "rating_text": "4,8",
    "stars": null,
    "number_of_reviews": null,
    "price_level": "",
    "open_hours": "",
    "extraction_timestamp": "2025-06-07T17:17:57.829Z",
    "source_name": "google",
    "source_query": "Irrigation Equipment",
    "source_country": "PL",
    "country": "Poland",
    "state": "Greater Poland Voivodeship",
    "city": "Trzemeszno"
  },
  {
    "source_id": "ChIJSwqbQrGiBEcRIyZ9E0E0EnU",
    "name": "Anna. Sklep wielobranżowy. Głowacka A.",
    "category": "Anna. Sklep wielobranżowy. Głowacka A.",
    "formatted_address": "4,6(14)",
    "phone_number": "+48614156523",
    "source_url": "https://www.google.com/maps/place/Anna.+Sklep+wielobran%C5%BCowy.+G%C5%82owacka+A./data=!4m7!3m6!1s0x4704a2b1429b0a4b:0x75123441137d2623!8m2!3d52.5654219!4d17.8274417!16s%2Fg%2F1tdhkjn0!19sChIJSwqbQrGiBEcRIyZ9E0E0EnU?authuser=0&hl=tr&rclk=1",
    "website_url": "",
    "rating_text": "4,6",
    "stars": null,
    "number_of_reviews": null,
    "price_level": "",
    "open_hours": "",
    "extraction_timestamp": "2025-06-07T17:17:57.830Z",
    "source_name": "google",
    "source_query": "Irrigation Equipment",
    "source_country": "PL",
    "country": "Poland",
    "state": "Greater Poland Voivodeship",
    "city": "Trzemeszno"
  },
  {
    "source_id": "ChIJk1zqPGSiBEcROR9EfZIN-Yk",
    "name": "P.P.H.U GAL-POL Krzysztof Galus Hurtownia motoryzacyjna",
    "category": "P.P.H.U GAL-POL Krzysztof Galus Hurtownia motoryzacyjna",
    "formatted_address": "4,7(23)",
    "phone_number": "+48577477947",
    "source_url": "https://www.google.com/maps/place/P.P.H.U+GAL-POL+Krzysztof+Galus+Hurtownia+motoryzacyjna/data=!4m7!3m6!1s0x4704a2643cea5c93:0x89f90d927d441f39!8m2!3d52.5688448!4d17.8227777!16s%2Fg%2F1tfxwqtq!19sChIJk1zqPGSiBEcROR9EfZIN-Yk?authuser=0&hl=tr&rclk=1",
    "website_url": "",
    "rating_text": "4,7",
    "stars": null,
    "number_of_reviews": null,
    "price_level": "",
    "open_hours": "",
    "extraction_timestamp": "2025-06-07T17:17:57.831Z",
    "source_name": "google",
    "source_query": "Irrigation Equipment",
    "source_country": "PL",
    "country": "Poland",
    "state": "Greater Poland Voivodeship",
    "city": "Trzemeszno"
  },
  {
    "source_id": "ChIJYV_9yLGiBEcR0UfyHORYJr0",
    "name": "Fphu Agnieszka Czerniak",
    "category": "Fphu Agnieszka Czerniak",
    "formatted_address": "5,0(6)",
    "phone_number": "",
    "source_url": "https://www.google.com/maps/place/Fphu+Agnieszka+Czerniak/data=!4m7!3m6!1s0x4704a2b1c8fd5f61:0xbd2658e41cf247d1!8m2!3d52.5672532!4d17.8239988!16s%2Fg%2F11fkmzjzq8!19sChIJYV_9yLGiBEcR0UfyHORYJr0?authuser=0&hl=tr&rclk=1",
    "website_url": "",
    "rating_text": "5,0",
    "stars": null,
    "number_of_reviews": null,
    "price_level": "",
    "open_hours": "",
    "extraction_timestamp": "2025-06-07T17:17:57.832Z",
    "source_name": "google",
    "source_query": "Irrigation Equipment",
    "source_country": "PL",
    "country": "Poland",
    "state": "Greater Poland Voivodeship",
    "city": "Trzemeszno"
  },
  {
    "source_id": "ChIJ5-_eo029BEcRXRsEcnmh5WQ",
    "name": "Akara",
    "category": "Akara",
    "formatted_address": "4,3(14)",
    "phone_number": "",
    "source_url": "https://www.google.com/maps/place/Akara/data=!4m7!3m6!1s0x4704bd4da3deefe7:0x64e5a17972041b5d!8m2!3d52.557299!4d17.817992!16s%2Fg%2F11fj9__3dl!19sChIJ5-_eo029BEcRXRsEcnmh5WQ?authuser=0&hl=tr&rclk=1",
    "website_url": "",
    "rating_text": "4,3",
    "stars": null,
    "number_of_reviews": null,
    "price_level": "",
    "open_hours": "",
    "extraction_timestamp": "2025-06-07T17:17:57.832Z",
    "source_name": "google",
    "source_query": "Irrigation Equipment",
    "source_country": "PL",
    "country": "Poland",
    "state": "Greater Poland Voivodeship",
    "city": "Trzemeszno"
  },
  {
    "source_id": "ChIJTdZGTrGiBEcRFmujsiDrwVY",
    "name": "Blaszak Sklep Wielobranżowy",
    "category": "Blaszak Sklep Wielobranżowy",
    "formatted_address": "4,3(6)",
    "phone_number": "",
    "source_url": "https://www.google.com/maps/place/Blaszak+Sklep+Wielobran%C5%BCowy/data=!4m7!3m6!1s0x4704a2b14e46d64d:0x56c1eb20b2a36b16!8m2!3d52.5647074!4d17.8286986!16s%2Fg%2F11dxm3xvfp!19sChIJTdZGTrGiBEcRFmujsiDrwVY?authuser=0&hl=tr&rclk=1",
    "website_url": "",
    "rating_text": "4,3",
    "stars": null,
    "number_of_reviews": null,
    "price_level": "",
    "open_hours": "",
    "extraction_timestamp": "2025-06-07T17:17:57.833Z",
    "source_name": "google",
    "source_query": "Irrigation Equipment",
    "source_country": "PL",
    "country": "Poland",
    "state": "Greater Poland Voivodeship",
    "city": "Trzemeszno"
  },
  {
    "source_id": "ChIJyTTQtSaRBEcRTQPf4kaTPl0",
    "name": "HL SYSTEM-melioracja, hydrotechnika, odbudowy, konserwacje rzek, wałów",
    "category": "HL SYSTEM-melioracja, hydrotechnika, odbudowy, konserwacje rzek, wałów",
    "formatted_address": "HL SYSTEM-melioracja, hydrotechnika, odbudowy, konserwacje rzek, wałów",
    "phone_number": "+48608252712",
    "source_url": "https://www.google.com/maps/place/HL+SYSTEM-melioracja,+hydrotechnika,+odbudowy,+konserwacje+rzek,+wa%C5%82%C3%B3w/data=!4m7!3m6!1s0x47049126b5d034c9:0x5d3e9346e2df034d!8m2!3d52.541202!4d17.631774!16s%2Fg%2F1tgjj_9j!19sChIJyTTQtSaRBEcRTQPf4kaTPl0?authuser=0&hl=tr&rclk=1",
    "website_url": "",
    "rating_text": "5,0",
    "stars": null,
    "number_of_reviews": null,
    "price_level": "",
    "open_hours": "",
    "extraction_timestamp": "2025-06-07T17:17:57.833Z",
    "source_name": "google",
    "source_query": "Irrigation Equipment",
    "source_country": "PL",
    "country": "Poland",
    "state": "Greater Poland Voivodeship",
    "city": "Trzemeszno"
  },
  {
    "source_id": "ChIJsydENE29BEcRkpUSRSe30iA",
    "name": "Figaj Jolanta. Handel wielobranżowy",
    "category": "Figaj Jolanta. Handel wielobranżowy",
    "formatted_address": "5,0(1)",
    "phone_number": "+48614154325",
    "source_url": "https://www.google.com/maps/place/Figaj+Jolanta.+Handel+wielobran%C5%BCowy/data=!4m7!3m6!1s0x4704bd4d344427b3:0x20d2b72745129592!8m2!3d52.5598658!4d17.819807!16s%2Fg%2F1tfqdhs0!19sChIJsydENE29BEcRkpUSRSe30iA?authuser=0&hl=tr&rclk=1",
    "website_url": "",
    "rating_text": "5,0",
    "stars": null,
    "number_of_reviews": null,
    "price_level": "",
    "open_hours": "",
    "extraction_timestamp": "2025-06-07T17:17:57.834Z",
    "source_name": "google",
    "source_query": "Irrigation Equipment",
    "source_country": "PL",
    "country": "Poland",
    "state": "Greater Poland Voivodeship",
    "city": "Trzemeszno"
  },
  {
    "source_id": "ChIJu5-d7bOiBEcR99nBHxltgkI",
    "name": "Twój Market",
    "category": "Twój Market",
    "formatted_address": "4,2(180)",
    "phone_number": "+48801555559",
    "source_url": "https://www.google.com/maps/place/Tw%C3%B3j+Market/data=!4m7!3m6!1s0x4704a2b3ed9d9fbb:0x42826d191fc1d9f7!8m2!3d52.5631055!4d17.825833!16s%2Fg%2F1tctd975!19sChIJu5-d7bOiBEcR99nBHxltgkI?authuser=0&hl=tr&rclk=1",
    "website_url": "",
    "rating_text": "4,2",
    "stars": null,
    "number_of_reviews": null,
    "price_level": "",
    "open_hours": "",
    "extraction_timestamp": "2025-06-07T17:17:57.835Z",
    "source_name": "google",
    "source_query": "Irrigation Equipment",
    "source_country": "PL",
    "country": "Poland",
    "state": "Greater Poland Voivodeship",
    "city": "Trzemeszno"
  },
  {
    "source_id": "ChIJuzRDiEi9BEcR9lcMhs28YM0",
    "name": "S.A.Z.A.N Sklep Wędkarski",
    "category": "S.A.Z.A.N Sklep Wędkarski",
    "formatted_address": "4,9(12)",
    "phone_number": "",
    "source_url": "https://www.google.com/maps/place/S.A.Z.A.N+Sklep+W%C4%99dkarski/data=!4m7!3m6!1s0x4704bd48884334bb:0xcd60bccd860c57f6!8m2!3d52.5494537!4d17.8227388!16s%2Fg%2F11p65rqzs_!19sChIJuzRDiEi9BEcR9lcMhs28YM0?authuser=0&hl=tr&rclk=1",
    "website_url": "",
    "rating_text": "4,9",
    "stars": null,
    "number_of_reviews": null,
    "price_level": "",
    "open_hours": "",
    "extraction_timestamp": "2025-06-07T17:17:57.835Z",
    "source_name": "google",
    "source_query": "Irrigation Equipment",
    "source_country": "PL",
    "country": "Poland",
    "state": "Greater Poland Voivodeship",
    "city": "Trzemeszno"
  },
  {
    "source_id": "ChIJKSuUw7GiBEcRxr643e9Pma8",
    "name": "Drogeria Jawa",
    "category": "Drogeria Jawa",
    "formatted_address": "4,6(103)",
    "phone_number": "+48693981334",
    "source_url": "https://www.google.com/maps/place/Drogeria+Jawa/data=!4m7!3m6!1s0x4704a2b1c3942b29:0xaf994fefddb8bec6!8m2!3d52.5625942!4d17.8293251!16s%2Fg%2F11c6lwpqrn!19sChIJKSuUw7GiBEcRxr643e9Pma8?authuser=0&hl=tr&rclk=1",
    "website_url": "",
    "rating_text": "4,6",
    "stars": null,
    "number_of_reviews": null,
    "price_level": "",
    "open_hours": "",
    "extraction_timestamp": "2025-06-07T17:17:57.836Z",
    "source_name": "google",
    "source_query": "Irrigation Equipment",
    "source_country": "PL",
    "country": "Poland",
    "state": "Greater Poland Voivodeship",
    "city": "Trzemeszno"
  },
  {
    "source_id": "ChIJXzf_ZlyRBEcRSHGvceKu3BE",
    "name": "P.H.U. \"RADO\" Radosław Gieburowski Grupa SBS",
    "category": "P.H.U. \"RADO\" Radosław Gieburowski Grupa SBS",
    "formatted_address": "4,7(96)",
    "phone_number": "",
    "source_url": "https://www.google.com/maps/place/P.H.U.+%22RADO%22+Rados%C5%82aw+Gieburowski+Grupa+SBS/data=!4m7!3m6!1s0x4704915c66ff375f:0x11dcaee271af7148!8m2!3d52.512284!4d17.609528!16s%2Fg%2F1tj883q9!19sChIJXzf_ZlyRBEcRSHGvceKu3BE?authuser=0&hl=tr&rclk=1",
    "website_url": "",
    "rating_text": "4,7",
    "stars": null,
    "number_of_reviews": null,
    "price_level": "",
    "open_hours": "",
    "extraction_timestamp": "2025-06-07T17:17:57.837Z",
    "source_name": "google",
    "source_query": "Irrigation Equipment",
    "source_country": "PL",
    "country": "Poland",
    "state": "Greater Poland Voivodeship",
    "city": "Trzemeszno"
  },
  {
    "source_id": "ChIJQYZYU_daBEcRrc4mt6dBBko",
    "name": "HYDROGLOBAL - Przemyślane rozwiązania dla ujęć wody",
    "category": "HYDROGLOBAL - Przemyślane rozwiązania dla ujęć wody",
    "formatted_address": "4,5(8)",
    "phone_number": "+48612785475",
    "source_url": "https://www.google.com/maps/place/HYDROGLOBAL+-+Przemy%C5%9Blane+rozwi%C4%85zania+dla+uj%C4%99%C4%87+wody/data=!4m7!3m6!1s0x47045af753588641:0x4a0641a7b726cead!8m2!3d52.4872791!4d16.8563292!16s%2Fg%2F1wzt11_h!19sChIJQYZYU_daBEcRrc4mt6dBBko?authuser=0&hl=tr&rclk=1",
    "website_url": "",
    "rating_text": "4,5",
    "stars": null,
    "number_of_reviews": null,
    "price_level": "",
    "open_hours": "",
    "extraction_timestamp": "2025-06-07T17:17:57.838Z",
    "source_name": "google",
    "source_query": "Irrigation Equipment",
    "source_country": "PL",
    "country": "Poland",
    "state": "Greater Poland Voivodeship",
    "city": "Trzemeszno"
  },
  {
    "source_id": "ChIJ5ZvUSKKRBEcRynrdHEQqINQ",
    "name": "Przydomowe oczyszczalnie ścieków, szamba ekologiczne, oczyszczalnia biologiczna Poznań Primeko",
    "category": "Przydomowe oczyszczalnie ścieków, szamba ekologiczne, oczyszczalnia biologiczna Poznań Primeko",
    "formatted_address": "Przydomowe oczyszczalnie ścieków, szamba ekologiczne, oczyszczalnia biologiczna Poznań Primeko",
    "phone_number": "+48602378800",
    "source_url": "https://www.google.com/maps/place/Przydomowe+oczyszczalnie+%C5%9Bciek%C3%B3w,+szamba+ekologiczne,+oczyszczalnia+biologiczna+Pozna%C5%84+Primeko/data=!4m7!3m6!1s0x470491a248d49be5:0xd4202a441cdd7aca!8m2!3d52.4423601!4d17.7689707!16s%2Fg%2F12lk6jt3j!19sChIJ5ZvUSKKRBEcRynrdHEQqINQ?authuser=0&hl=tr&rclk=1",
    "website_url": "",
    "rating_text": "4,5",
    "stars": null,
    "number_of_reviews": null,
    "price_level": "",
    "open_hours": "",
    "extraction_timestamp": "2025-06-07T17:17:57.838Z",
    "source_name": "google",
    "source_query": "Irrigation Equipment",
    "source_country": "PL",
    "country": "Poland",
    "state": "Greater Poland Voivodeship",
    "city": "Trzemeszno"
  },
  {
    "source_id": "ChIJ5WTdLjqRBEcRyXeq-j9y4kk",
    "name": "Instal-Hand, Piotr Socha, Autoryzowany Top Partner Buderus",
    "category": "Instal-Hand, Piotr Socha, Autoryzowany Top Partner Buderus",
    "formatted_address": "Instal-Hand, Piotr Socha, Autoryzowany Top Partner Buderus",
    "phone_number": "+48608809608",
    "source_url": "https://www.google.com/maps/place/Instal-Hand,+Piotr+Socha,+Autoryzowany+Top+Partner+Buderus/data=!4m7!3m6!1s0x4704913a2edd64e5:0x49e2723ffaaa77c9!8m2!3d52.5301542!4d17.6271288!16s%2Fg%2F11b7lhrjgz!19sChIJ5WTdLjqRBEcRyXeq-j9y4kk?authuser=0&hl=tr&rclk=1",
    "website_url": "",
    "rating_text": "3,9",
    "stars": null,
    "number_of_reviews": null,
    "price_level": "",
    "open_hours": "",
    "extraction_timestamp": "2025-06-07T17:17:57.839Z",
    "source_name": "google",
    "source_query": "Irrigation Equipment",
    "source_country": "PL",
    "country": "Poland",
    "state": "Greater Poland Voivodeship",
    "city": "Trzemeszno"
  },
  {
    "source_id": "ChIJieWwptJEBEcRm8Y9_OwWYiY",
    "name": "Gargot sp.z o.o.",
    "category": "Gargot sp.z o.o.",
    "formatted_address": "3,2(13)",
    "phone_number": "+48616747196",
    "source_url": "https://www.google.com/maps/place/Gargot+sp.z+o.o./data=!4m7!3m6!1s0x470444d2a6b0e589:0x266216ecfc3dc69b!8m2!3d52.4295295!4d17.4834994!16s%2Fg%2F11d_7v2ywq!19sChIJieWwptJEBEcRm8Y9_OwWYiY?authuser=0&hl=tr&rclk=1",
    "website_url": "",
    "rating_text": "3,2",
    "stars": null,
    "number_of_reviews": null,
    "price_level": "",
    "open_hours": "",
    "extraction_timestamp": "2025-06-07T17:17:57.840Z",
    "source_name": "google",
    "source_query": "Irrigation Equipment",
    "source_country": "PL",
    "country": "Poland",
    "state": "Greater Poland Voivodeship",
    "city": "Trzemeszno"
  },
  {
    "source_id": "ChIJf69J8VG-BEcRd4gGk_jnVPI",
    "name": "Agrawit Agata Trzebińska",
    "category": "Agrawit Agata Trzebińska",
    "formatted_address": "5,0(9)",
    "phone_number": "+48608682593",
    "source_url": "https://www.google.com/maps/place/Agrawit+Agata+Trzebi%C5%84ska/data=!4m7!3m6!1s0x4704be51f149af7f:0xf254e7f893068877!8m2!3d52.4405799!4d17.7732916!16s%2Fg%2F1tj883qj!19sChIJf69J8VG-BEcRd4gGk_jnVPI?authuser=0&hl=tr&rclk=1",
    "website_url": "",
    "rating_text": "5,0",
    "stars": null,
    "number_of_reviews": null,
    "price_level": "",
    "open_hours": "",
    "extraction_timestamp": "2025-06-07T17:17:57.840Z",
    "source_name": "google",
    "source_query": "Irrigation Equipment",
    "source_country": "PL",
    "country": "Poland",
    "state": "Greater Poland Voivodeship",
    "city": "Trzemeszno"
  },
  {
    "source_id": "ChIJL9kpltkRA0cR5VJ7_B5iLqI",
    "name": "Ogrody Wojciech Maciejewski - Zakładanie i pielęgnacja ogrodów oraz trawników",
    "category": "Ogrody Wojciech Maciejewski - Zakładanie i pielęgnacja ogrodów oraz trawników",
    "formatted_address": "4,8(27)",
    "phone_number": "+48509574767",
    "source_url": "https://www.google.com/maps/place/Ogrody+Wojciech+Maciejewski+-+Zak%C5%82adanie+i+piel%C4%99gnacja+ogrod%C3%B3w+oraz+trawnik%C3%B3w/data=!4m7!3m6!1s0x470311d99629d92f:0xa22e621efc7b52e5!8m2!3d53.1900016!4d17.9591631!16s%2Fg%2F11ddx77c48!19sChIJL9kpltkRA0cR5VJ7_B5iLqI?authuser=0&hl=tr&rclk=1",
    "website_url": "",
    "rating_text": "4,8",
    "stars": null,
    "number_of_reviews": null,
    "price_level": "",
    "open_hours": "",
    "extraction_timestamp": "2025-06-07T17:17:57.841Z",
    "source_name": "google",
    "source_query": "Irrigation Equipment",
    "source_country": "PL",
    "country": "Poland",
    "state": "Greater Poland Voivodeship",
    "city": "Trzemeszno"
  }
]
