[
  {
    "source_id": "ChIJsSSSPpolG0cR6NPdONJDhb0",
    "name": "Nutka Ogrodowczy K",
    "category": "Nutka Ogrodowczy K",
    "formatted_address": "4,3(198)",
    "phone_number": "+48632780386",
    "source_url": "https://www.google.com/maps/place/Nutka+Ogrodowczy+K/data=!4m7!3m6!1s0x471b259a3e9224b1:0xbd8543d238ddd3e8!8m2!3d52.0794508!4d18.2990584!16s%2Fg%2F11g6s74ftw!19sChIJsSSSPpolG0cR6NPdONJDhb0?authuser=0&hl=tr&rclk=1",
    "website_url": "",
    "rating_text": "4,3",
    "stars": null,
    "number_of_reviews": null,
    "price_level": "",
    "open_hours": "",
    "extraction_timestamp": "2025-06-07T18:00:23.164Z",
    "source_name": "google",
    "source_query": "Irrigation Equipment",
    "source_country": "PL",
    "country": "Poland",
    "state": "Greater Poland Voivodeship",
    "city": "Tuliszków"
  },
  {
    "source_id": "ChIJVVUFqZslG0cRf3AfyqZGflw",
    "name": "Przedsiębiorstwo Robót Drogowo Budowlanych Jakub Wawrzyniak",
    "category": "Przedsiębiorstwo Robót Drogowo Budowlanych Jakub Wawrzyniak",
    "formatted_address": "3,0(2)",
    "phone_number": "",
    "source_url": "https://www.google.com/maps/place/Przedsi%C4%99biorstwo+Rob%C3%B3t+Drogowo+Budowlanych+Jakub+Wawrzyniak/data=!4m7!3m6!1s0x471b259ba9055555:0x5c7e46a6ca1f707f!8m2!3d52.0810443!4d18.2982318!16s%2Fg%2F11h0vq40qr!19sChIJVVUFqZslG0cRf3AfyqZGflw?authuser=0&hl=tr&rclk=1",
    "website_url": "",
    "rating_text": "3,0",
    "stars": null,
    "number_of_reviews": null,
    "price_level": "",
    "open_hours": "",
    "extraction_timestamp": "2025-06-07T18:00:23.166Z",
    "source_name": "google",
    "source_query": "Irrigation Equipment",
    "source_country": "PL",
    "country": "Poland",
    "state": "Greater Poland Voivodeship",
    "city": "Tuliszków"
  },
  {
    "source_id": "ChIJu6oFZpslG0cRur2wbgBjQDQ",
    "name": "POLOmarket",
    "category": "POLOmarket",
    "formatted_address": "4,0(235)",
    "phone_number": "+48632793073",
    "source_url": "https://www.google.com/maps/place/POLOmarket/data=!4m7!3m6!1s0x471b259b6605aabb:0x344063006eb0bdba!8m2!3d52.0840778!4d18.2971696!16s%2Fg%2F1ptwrvmxc!19sChIJu6oFZpslG0cRur2wbgBjQDQ?authuser=0&hl=tr&rclk=1",
    "website_url": "",
    "rating_text": "4,0",
    "stars": null,
    "number_of_reviews": null,
    "price_level": "",
    "open_hours": "",
    "extraction_timestamp": "2025-06-07T18:00:23.168Z",
    "source_name": "google",
    "source_query": "Irrigation Equipment",
    "source_country": "PL",
    "country": "Poland",
    "state": "Greater Poland Voivodeship",
    "city": "Tuliszków"
  },
  {
    "source_id": "ChIJsYdtMTwlG0cRz7m6lXNfrts",
    "name": "Sklep u Romka",
    "category": "Sklep u Romka",
    "formatted_address": "5,0(32)",
    "phone_number": "",
    "source_url": "https://www.google.com/maps/place/Sklep+u+Romka/data=!4m7!3m6!1s0x471b253c316d87b1:0xdbae5f7395bab9cf!8m2!3d52.0780653!4d18.2868935!16s%2Fg%2F11fvjnzyw7!19sChIJsYdtMTwlG0cRz7m6lXNfrts?authuser=0&hl=tr&rclk=1",
    "website_url": "",
    "rating_text": "5,0",
    "stars": null,
    "number_of_reviews": null,
    "price_level": "",
    "open_hours": "",
    "extraction_timestamp": "2025-06-07T18:00:23.169Z",
    "source_name": "google",
    "source_query": "Irrigation Equipment",
    "source_country": "PL",
    "country": "Poland",
    "state": "Greater Poland Voivodeship",
    "city": "Tuliszków"
  },
  {
    "source_id": "ChIJHSvvU74lG0cRaBbkOtCGzv0",
    "name": "Riba",
    "category": "Riba",
    "formatted_address": "3,0(1)",
    "phone_number": "",
    "source_url": "https://www.google.com/maps/place/Riba/data=!4m7!3m6!1s0x471b25be53ef2b1d:0xfdce86d03ae41668!8m2!3d52.0687326!4d18.3054931!16s%2Fg%2F11g8w8yxs9!19sChIJHSvvU74lG0cRaBbkOtCGzv0?authuser=0&hl=tr&rclk=1",
    "website_url": "",
    "rating_text": "3,0",
    "stars": null,
    "number_of_reviews": null,
    "price_level": "",
    "open_hours": "",
    "extraction_timestamp": "2025-06-07T18:00:23.170Z",
    "source_name": "google",
    "source_query": "Irrigation Equipment",
    "source_country": "PL",
    "country": "Poland",
    "state": "Greater Poland Voivodeship",
    "city": "Tuliszków"
  },
  {
    "source_id": "ChIJlSVlspAlG0cRl_i5PDFgA8c",
    "name": "HANDEL ARTYKUŁAMI MOTORYZACYJNYMI I PRZEMYSŁOWYMI HILCZER TADEUSZ",
    "category": "HANDEL ARTYKUŁAMI MOTORYZACYJNYMI I PRZEMYSŁOWYMI HILCZER TADEUSZ",
    "formatted_address": "4,8(54)",
    "phone_number": "+48795919888",
    "source_url": "https://www.google.com/maps/place/HANDEL+ARTYKU%C5%81AMI+MOTORYZACYJNYMI+I+PRZEMYS%C5%81OWYMI+HILCZER+TADEUSZ/data=!4m7!3m6!1s0x471b2590b2652595:0xc70360313cb9f897!8m2!3d52.0769828!4d18.2988195!16s%2Fg%2F11gfkk_zd6!19sChIJlSVlspAlG0cRl_i5PDFgA8c?authuser=0&hl=tr&rclk=1",
    "website_url": "",
    "rating_text": "4,8",
    "stars": null,
    "number_of_reviews": null,
    "price_level": "",
    "open_hours": "",
    "extraction_timestamp": "2025-06-07T18:00:23.171Z",
    "source_name": "google",
    "source_query": "Irrigation Equipment",
    "source_country": "PL",
    "country": "Poland",
    "state": "Greater Poland Voivodeship",
    "city": "Tuliszków"
  },
  {
    "source_id": "ChIJld1Nfw8lG0cRuiQmIt4Dvmc",
    "name": "Jesiołkiewicz - Tynki Maszynowe i Posadzki Maszynowe Konin,Kalisz,Koło,Turek,Jarocin,Uniejów",
    "category": "Jesiołkiewicz - Tynki Maszynowe i Posadzki Maszynowe Konin,Kalisz,Koło,Turek,Jarocin,Uniejów",
    "formatted_address": "Jesiołkiewicz - Tynki Maszynowe i Posadzki Maszynowe Konin,Kalisz,Koło,Turek,Jarocin,Uniejów",
    "phone_number": "+48693750813",
    "source_url": "https://www.google.com/maps/place/Jesio%C5%82kiewicz+-+Tynki+Maszynowe+i+Posadzki+Maszynowe+Konin,Kalisz,Ko%C5%82o,Turek,Jarocin,Uniej%C3%B3w/data=!4m7!3m6!1s0x471b250f7f4ddd95:0x67be03de222624ba!8m2!3d52.056418!4d18.269911!16s%2Fg%2F11r_v8_r9d!19sChIJld1Nfw8lG0cRuiQmIt4Dvmc?authuser=0&hl=tr&rclk=1",
    "website_url": "",
    "rating_text": "4,5",
    "stars": null,
    "number_of_reviews": null,
    "price_level": "",
    "open_hours": "",
    "extraction_timestamp": "2025-06-07T18:00:23.173Z",
    "source_name": "google",
    "source_query": "Irrigation Equipment",
    "source_country": "PL",
    "country": "Poland",
    "state": "Greater Poland Voivodeship",
    "city": "Tuliszków"
  },
  {
    "source_id": "ChIJVemRtCIlG0cRnu5SdOtouUs",
    "name": "Drogeria Rossmann",
    "category": "Drogeria Rossmann",
    "formatted_address": "4,9(16)",
    "phone_number": "+48426139700",
    "source_url": "https://www.google.com/maps/place/Drogeria+Rossmann/data=!4m7!3m6!1s0x471b2522b491e955:0x4bb968eb7452ee9e!8m2!3d52.0847635!4d18.2974095!16s%2Fg%2F11kptr038p!19sChIJVemRtCIlG0cRnu5SdOtouUs?authuser=0&hl=tr&rclk=1",
    "website_url": "",
    "rating_text": "4,9",
    "stars": null,
    "number_of_reviews": null,
    "price_level": "",
    "open_hours": "",
    "extraction_timestamp": "2025-06-07T18:00:23.175Z",
    "source_name": "google",
    "source_query": "Irrigation Equipment",
    "source_country": "PL",
    "country": "Poland",
    "state": "Greater Poland Voivodeship",
    "city": "Tuliszków"
  },
  {
    "source_id": "ChIJE9XEp5clG0cRMVQweWZ5Jpg",
    "name": "Dino",
    "category": "Dino",
    "formatted_address": "4,2(25)",
    "phone_number": "",
    "source_url": "https://www.google.com/maps/place/Dino/data=!4m7!3m6!1s0x471b2597a7c4d513:0x9826796679305431!8m2!3d52.079968!4d18.3040136!16s%2Fg%2F11wbswmhg7!19sChIJE9XEp5clG0cRMVQweWZ5Jpg?authuser=0&hl=tr&rclk=1",
    "website_url": "",
    "rating_text": "4,2",
    "stars": null,
    "number_of_reviews": null,
    "price_level": "",
    "open_hours": "",
    "extraction_timestamp": "2025-06-07T18:00:23.175Z",
    "source_name": "google",
    "source_query": "Irrigation Equipment",
    "source_country": "PL",
    "country": "Poland",
    "state": "Greater Poland Voivodeship",
    "city": "Tuliszków"
  },
  {
    "source_id": "ChIJrXiU5LclG0cR2V1LTx21i_0",
    "name": "Carmen sklep monopolowy",
    "category": "Carmen sklep monopolowy",
    "formatted_address": "4,5(4)",
    "phone_number": "",
    "source_url": "https://www.google.com/maps/place/Carmen+sklep+monopolowy/data=!4m7!3m6!1s0x471b25b7e49478ad:0xfd8bb51d4f4b5dd9!8m2!3d52.07749!4d18.297563!16s%2Fg%2F11rxkgmrrv!19sChIJrXiU5LclG0cR2V1LTx21i_0?authuser=0&hl=tr&rclk=1",
    "website_url": "",
    "rating_text": "4,5",
    "stars": null,
    "number_of_reviews": null,
    "price_level": "",
    "open_hours": "",
    "extraction_timestamp": "2025-06-07T18:00:23.176Z",
    "source_name": "google",
    "source_query": "Irrigation Equipment",
    "source_country": "PL",
    "country": "Poland",
    "state": "Greater Poland Voivodeship",
    "city": "Tuliszków"
  },
  {
    "source_id": "ChIJQ2ievpAlG0cRwKN9CQZ0r1Y",
    "name": "Sklep monopolowy Adamus",
    "category": "Sklep monopolowy Adamus",
    "formatted_address": "4,0(5)",
    "phone_number": "",
    "source_url": "https://www.google.com/maps/place/Sklep+monopolowy+Adamus/data=!4m7!3m6!1s0x471b2590be9e6843:0x56af7406097da3c0!8m2!3d52.076627!4d18.2974113!16s%2Fg%2F11ghp3gn6g!19sChIJQ2ievpAlG0cRwKN9CQZ0r1Y?authuser=0&hl=tr&rclk=1",
    "website_url": "",
    "rating_text": "4,0",
    "stars": null,
    "number_of_reviews": null,
    "price_level": "",
    "open_hours": "",
    "extraction_timestamp": "2025-06-07T18:00:23.177Z",
    "source_name": "google",
    "source_query": "Irrigation Equipment",
    "source_country": "PL",
    "country": "Poland",
    "state": "Greater Poland Voivodeship",
    "city": "Tuliszków"
  },
  {
    "source_id": "ChIJqTLBr3YDJWARW61qkqOXv4c",
    "name": "INSTALBERT",
    "category": "INSTALBERT",
    "formatted_address": "",
    "phone_number": "+48888777880",
    "source_url": "https://www.google.com/maps/place/INSTALBERT/data=!4m7!3m6!1s0x60250376afc132a9:0x87bf97a3926aad5b!8m2!3d51.953761!4d19.1343692!16s%2Fg%2F11xgkcvn5b!19sChIJqTLBr3YDJWARW61qkqOXv4c?authuser=0&hl=tr&rclk=1",
    "website_url": "",
    "rating_text": "",
    "stars": null,
    "number_of_reviews": null,
    "price_level": "",
    "open_hours": "",
    "extraction_timestamp": "2025-06-07T18:00:23.178Z",
    "source_name": "google",
    "source_query": "Irrigation Equipment",
    "source_country": "PL",
    "country": "Poland",
    "state": "Greater Poland Voivodeship",
    "city": "Tuliszków"
  },
  {
    "source_id": "ChIJj_5qs4glG0cRLpnnNGlD0ow",
    "name": "Lewiatan",
    "category": "Lewiatan",
    "formatted_address": "4,2(100)",
    "phone_number": "+48544127821",
    "source_url": "https://www.google.com/maps/place/Lewiatan/data=!4m7!3m6!1s0x471b2588b36afe8f:0x8cd2436934e7992e!8m2!3d52.0786637!4d18.2866281!16s%2Fg%2F11c2jxms4z!19sChIJj_5qs4glG0cRLpnnNGlD0ow?authuser=0&hl=tr&rclk=1",
    "website_url": "",
    "rating_text": "4,2",
    "stars": null,
    "number_of_reviews": null,
    "price_level": "",
    "open_hours": "",
    "extraction_timestamp": "2025-06-07T18:00:23.179Z",
    "source_name": "google",
    "source_query": "Irrigation Equipment",
    "source_country": "PL",
    "country": "Poland",
    "state": "Greater Poland Voivodeship",
    "city": "Tuliszków"
  },
  {
    "source_id": "ChIJ00ggRJclG0cRlfTL7Kki2oU",
    "name": "Lux. Sklep spożywczy PSS Społem",
    "category": "Lux. Sklep spożywczy PSS Społem",
    "formatted_address": "4,2(62)",
    "phone_number": "+48632794013",
    "source_url": "https://www.google.com/maps/place/Lux.+Sklep+spo%C5%BCywczy+PSS+Spo%C5%82em/data=!4m7!3m6!1s0x471b2597442048d3:0x85da22a9eccbf495!8m2!3d52.0765139!4d18.3007644!16s%2Fg%2F1tx_534c!19sChIJ00ggRJclG0cRlfTL7Kki2oU?authuser=0&hl=tr&rclk=1",
    "website_url": "",
    "rating_text": "4,2",
    "stars": null,
    "number_of_reviews": null,
    "price_level": "",
    "open_hours": "",
    "extraction_timestamp": "2025-06-07T18:00:23.180Z",
    "source_name": "google",
    "source_query": "Irrigation Equipment",
    "source_country": "PL",
    "country": "Poland",
    "state": "Greater Poland Voivodeship",
    "city": "Tuliszków"
  },
  {
    "source_id": "ChIJjbQHvJAlG0cRy3EcPzzk3vU",
    "name": "Lewiatan",
    "category": "Lewiatan",
    "formatted_address": "4,2(64)",
    "phone_number": "",
    "source_url": "https://www.google.com/maps/place/Lewiatan/data=!4m7!3m6!1s0x471b2590bc07b48d:0xf5dee43c3f1c71cb!8m2!3d52.0769479!4d18.297843!16s%2Fg%2F11f61xft6g!19sChIJjbQHvJAlG0cRy3EcPzzk3vU?authuser=0&hl=tr&rclk=1",
    "website_url": "",
    "rating_text": "4,2",
    "stars": null,
    "number_of_reviews": null,
    "price_level": "",
    "open_hours": "",
    "extraction_timestamp": "2025-06-07T18:00:23.181Z",
    "source_name": "google",
    "source_query": "Irrigation Equipment",
    "source_country": "PL",
    "country": "Poland",
    "state": "Greater Poland Voivodeship",
    "city": "Tuliszków"
  },
  {
    "source_id": "ChIJkfVCnpolG0cRks_ODJmPrYA",
    "name": "Pepco",
    "category": "Pepco",
    "formatted_address": "4,3(20)",
    "phone_number": "",
    "source_url": "https://www.google.com/maps/place/Pepco/data=!4m7!3m6!1s0x471b259a9e42f591:0x80ad8f990ccecf92!8m2!3d52.083784!4d18.296957!16s%2Fg%2F11ks4j95xw!19sChIJkfVCnpolG0cRks_ODJmPrYA?authuser=0&hl=tr&rclk=1",
    "website_url": "",
    "rating_text": "4,3",
    "stars": null,
    "number_of_reviews": null,
    "price_level": "",
    "open_hours": "",
    "extraction_timestamp": "2025-06-07T18:00:23.182Z",
    "source_name": "google",
    "source_query": "Irrigation Equipment",
    "source_country": "PL",
    "country": "Poland",
    "state": "Greater Poland Voivodeship",
    "city": "Tuliszków"
  },
  {
    "source_id": "ChIJyQ60A44lG0cRBDyyfzJapUA",
    "name": "Społem nr 4 - Sklep Spożywczy",
    "category": "Społem nr 4 - Sklep Spożywczy",
    "formatted_address": "4,8(4)",
    "phone_number": "",
    "source_url": "https://www.google.com/maps/place/Spo%C5%82em+nr+4+-+Sklep+Spo%C5%BCywczy/data=!4m7!3m6!1s0x471b258e03b40ec9:0x40a55a327fb23c04!8m2!3d52.0743965!4d18.2890627!16s%2Fg%2F1tcwdqws!19sChIJyQ60A44lG0cRBDyyfzJapUA?authuser=0&hl=tr&rclk=1",
    "website_url": "",
    "rating_text": "4,8",
    "stars": null,
    "number_of_reviews": null,
    "price_level": "",
    "open_hours": "",
    "extraction_timestamp": "2025-06-07T18:00:23.182Z",
    "source_name": "google",
    "source_query": "Irrigation Equipment",
    "source_country": "PL",
    "country": "Poland",
    "state": "Greater Poland Voivodeship",
    "city": "Tuliszków"
  },
  {
    "source_id": "ChIJyb2S3YUlG0cReMCsI1qDHaQ",
    "name": "Tomczak Marek. Wypiek pieczywa",
    "category": "Tomczak Marek. Wypiek pieczywa",
    "formatted_address": "4,5(40)",
    "phone_number": "+48662856814",
    "source_url": "https://www.google.com/maps/place/Tomczak+Marek.+Wypiek+pieczywa/data=!4m7!3m6!1s0x471b2585dd92bdc9:0xa41d835a23acc078!8m2!3d52.077967!4d18.2916399!16s%2Fg%2F1w0j2yw5!19sChIJyb2S3YUlG0cReMCsI1qDHaQ?authuser=0&hl=tr&rclk=1",
    "website_url": "",
    "rating_text": "4,5",
    "stars": null,
    "number_of_reviews": null,
    "price_level": "",
    "open_hours": "",
    "extraction_timestamp": "2025-06-07T18:00:23.184Z",
    "source_name": "google",
    "source_query": "Irrigation Equipment",
    "source_country": "PL",
    "country": "Poland",
    "state": "Greater Poland Voivodeship",
    "city": "Tuliszków"
  },
  {
    "source_id": "ChIJB6y_v5J2HEcRlDfYx3xmc9M",
    "name": "Milex irrigation systems",
    "category": "Milex irrigation systems",
    "formatted_address": "4,6(37)",
    "phone_number": "+48242775222",
    "source_url": "https://www.google.com/maps/place/Milex+irrigation+systems/data=!4m7!3m6!1s0x471c7692bfbfac07:0xd373667cc7d83794!8m2!3d52.4690634!4d19.7520904!16s%2Fg%2F1w2yy67r!19sChIJB6y_v5J2HEcRlDfYx3xmc9M?authuser=0&hl=tr&rclk=1",
    "website_url": "",
    "rating_text": "4,6",
    "stars": null,
    "number_of_reviews": null,
    "price_level": "",
    "open_hours": "",
    "extraction_timestamp": "2025-06-07T18:00:23.185Z",
    "source_name": "google",
    "source_query": "Irrigation Equipment",
    "source_country": "PL",
    "country": "Poland",
    "state": "Greater Poland Voivodeship",
    "city": "Tuliszków"
  },
  {
    "source_id": "ChIJw-3M_Y4lG0cRhbJ6eRpadLo",
    "name": "Kaczmarek Teresa. Sklep spożywczo - przemysłowy",
    "category": "Kaczmarek Teresa. Sklep spożywczo - przemysłowy",
    "formatted_address": "",
    "phone_number": "+48632793132",
    "source_url": "https://www.google.com/maps/place/Kaczmarek+Teresa.+Sklep+spo%C5%BCywczo+-+przemys%C5%82owy/data=!4m7!3m6!1s0x471b258efdccedc3:0xba745a1a797ab285!8m2!3d52.0772123!4d18.2879059!16s%2Fg%2F1ttdlr5k!19sChIJw-3M_Y4lG0cRhbJ6eRpadLo?authuser=0&hl=tr&rclk=1",
    "website_url": "",
    "rating_text": "",
    "stars": null,
    "number_of_reviews": null,
    "price_level": "",
    "open_hours": "",
    "extraction_timestamp": "2025-06-07T18:00:23.187Z",
    "source_name": "google",
    "source_query": "Irrigation Equipment",
    "source_country": "PL",
    "country": "Poland",
    "state": "Greater Poland Voivodeship",
    "city": "Tuliszków"
  }
]
