[
  {
    "source_id": "ChIJuaG3iSkfG0cRr7oCWbvrbv8",
    "name": "KW Plast Sp. z o.o.",
    "category": "KW Plast Sp. z o.o.",
    "formatted_address": "4,9(21)",
    "phone_number": "+48780140003",
    "source_url": "https://www.google.com/maps/place/KW+Plast+Sp.+z+o.o./data=!4m7!3m6!1s0x471b1f2989b7a1b9:0xff6eebbb5902baaf!8m2!3d52.0063692!4d18.5441268!16s%2Fg%2F11fy4q55ms!19sChIJuaG3iSkfG0cRr7oCWbvrbv8?authuser=0&hl=tr&rclk=1",
    "website_url": "http://www.kwplast.pl/",
    "rating_text": "4,9",
    "stars": null,
    "number_of_reviews": null,
    "price_level": "",
    "open_hours": "",
    "extraction_timestamp": "2025-06-07T17:54:38.204Z",
    "source_name": "google",
    "source_query": "Irrigation Equipment",
    "source_country": "PL",
    "country": "Poland",
    "state": "Greater Poland Voivodeship",
    "city": "Turek"
  },
  {
    "source_id": "ChIJVesRkQ0iG0cR-xxceCXCoTk",
    "name": "Lamir. Hurtownia wód mineralnych i napojów",
    "category": "Lamir. Hurtownia wód mineralnych i napojów",
    "formatted_address": "4,8(23)",
    "phone_number": "+48632891645",
    "source_url": "https://www.google.com/maps/place/Lamir.+Hurtownia+w%C3%B3d+mineralnych+i+napoj%C3%B3w/data=!4m7!3m6!1s0x471b220d9111eb55:0x39a1c225785c1cfb!8m2!3d52.0314274!4d18.4935623!16s%2Fg%2F1tdg1zhb!19sChIJVesRkQ0iG0cR-xxceCXCoTk?authuser=0&hl=tr&rclk=1",
    "website_url": "https://www.biznesfinder.pl/turek-lamir-hurtownia-wod-mineralnych-i-napojow-337229.html",
    "rating_text": "4,8",
    "stars": null,
    "number_of_reviews": null,
    "price_level": "",
    "open_hours": "",
    "extraction_timestamp": "2025-06-07T17:54:38.206Z",
    "source_name": "google",
    "source_query": "Irrigation Equipment",
    "source_country": "PL",
    "country": "Poland",
    "state": "Greater Poland Voivodeship",
    "city": "Turek"
  },
  {
    "source_id": "ChIJ7_NbHq8YG0cRiN4Ae6NvUhU",
    "name": "RK Tech Rafał Majda Kamil Rybicki Zakuwanie węży hydraulicznych stacjonarne i mobilne",
    "category": "RK Tech Rafał Majda Kamil Rybicki Zakuwanie węży hydraulicznych stacjonarne i mobilne",
    "formatted_address": "4,8(19)",
    "phone_number": "+48785134088",
    "source_url": "https://www.google.com/maps/place/RK+Tech+Rafa%C5%82+Majda+Kamil+Rybicki+Zakuwanie+w%C4%99%C5%BCy+hydraulicznych+stacjonarne+i+mobilne/data=!4m7!3m6!1s0x471b18af1e5bf3ef:0x15526fa37b00de88!8m2!3d52.0190127!4d18.510971!16s%2Fg%2F11hdb1v6w4!19sChIJ7_NbHq8YG0cRiN4Ae6NvUhU?authuser=0&hl=tr&rclk=1",
    "website_url": "https://rktech.com.pl/",
    "rating_text": "4,8",
    "stars": null,
    "number_of_reviews": null,
    "price_level": "",
    "open_hours": "",
    "extraction_timestamp": "2025-06-07T17:54:38.207Z",
    "source_name": "google",
    "source_query": "Irrigation Equipment",
    "source_country": "PL",
    "country": "Poland",
    "state": "Greater Poland Voivodeship",
    "city": "Turek"
  },
  {
    "source_id": "ChIJO5pY-QEiG0cRAlGllDQsq_4",
    "name": "HOT PLAST-Zgrzewanie rur",
    "category": "HOT PLAST-Zgrzewanie rur",
    "formatted_address": "4,8(12)",
    "phone_number": "+48665456126",
    "source_url": "https://www.google.com/maps/place/HOT+PLAST-Zgrzewanie+rur/data=!4m7!3m6!1s0x471b2201f9589a3b:0xfeab2c3494a55102!8m2!3d52.0132077!4d18.4889496!16s%2Fg%2F11c328zs21!19sChIJO5pY-QEiG0cRAlGllDQsq_4?authuser=0&hl=tr&rclk=1",
    "website_url": "",
    "rating_text": "4,8",
    "stars": null,
    "number_of_reviews": null,
    "price_level": "",
    "open_hours": "",
    "extraction_timestamp": "2025-06-07T17:54:38.209Z",
    "source_name": "google",
    "source_query": "Irrigation Equipment",
    "source_country": "PL",
    "country": "Poland",
    "state": "Greater Poland Voivodeship",
    "city": "Turek"
  },
  {
    "source_id": "ChIJAR6zyrYYG0cROxkAUDuhvMI",
    "name": "Agro-Mig sp.j. KubickiM., Stawski G.",
    "category": "Agro-Mig sp.j. KubickiM., Stawski G.",
    "formatted_address": "Agro-Mig sp.j. KubickiM., Stawski G.",
    "phone_number": "+48632893430",
    "source_url": "https://www.google.com/maps/place/Agro-Mig+sp.j.+KubickiM.,+Stawski+G./data=!4m7!3m6!1s0x471b18b6cab31e01:0xc2bca13b5000193b!8m2!3d52.0161038!4d18.5227811!16s%2Fg%2F1tp1xkrd!19sChIJAR6zyrYYG0cROxkAUDuhvMI?authuser=0&hl=tr&rclk=1",
    "website_url": "http://www.agro-mig.pl/",
    "rating_text": "4,6",
    "stars": null,
    "number_of_reviews": null,
    "price_level": "",
    "open_hours": "",
    "extraction_timestamp": "2025-06-07T17:54:38.210Z",
    "source_name": "google",
    "source_query": "Irrigation Equipment",
    "source_country": "PL",
    "country": "Poland",
    "state": "Greater Poland Voivodeship",
    "city": "Turek"
  },
  {
    "source_id": "ChIJ9X2l5OchG0cRlDpjcM0fzmI",
    "name": "STIHL Trocha i Syn Turek-serwis",
    "category": "STIHL Trocha i Syn Turek-serwis",
    "formatted_address": "4,6(116)",
    "phone_number": "+48798326804",
    "source_url": "https://www.google.com/maps/place/STIHL+Trocha+i+Syn+Turek-serwis/data=!4m7!3m6!1s0x471b21e7e4a57df5:0x62ce1fcd70633a94!8m2!3d52.0101005!4d18.4812472!16s%2Fg%2F11qrl3wk1p!19sChIJ9X2l5OchG0cRlDpjcM0fzmI?authuser=0&hl=tr&rclk=1",
    "website_url": "https://www.facebook.com/profile.php?id=61567283097837",
    "rating_text": "4,6",
    "stars": null,
    "number_of_reviews": null,
    "price_level": "",
    "open_hours": "",
    "extraction_timestamp": "2025-06-07T17:54:38.211Z",
    "source_name": "google",
    "source_query": "Irrigation Equipment",
    "source_country": "PL",
    "country": "Poland",
    "state": "Greater Poland Voivodeship",
    "city": "Turek"
  },
  {
    "source_id": "ChIJDdkqONkhG0cRcu4ubkMYtlg",
    "name": "Centrum Hydrauliczne SAGMA Sklep",
    "category": "Centrum Hydrauliczne SAGMA Sklep",
    "formatted_address": "4,6(56)",
    "phone_number": "+48632780028",
    "source_url": "https://www.google.com/maps/place/Centrum+Hydrauliczne+SAGMA+Sklep/data=!4m7!3m6!1s0x471b21d9382ad90d:0x58b618436e2eee72!8m2!3d52.0103591!4d18.4830601!16s%2Fg%2F11h0wk1hm3!19sChIJDdkqONkhG0cRcu4ubkMYtlg?authuser=0&hl=tr&rclk=1",
    "website_url": "http://www.sagma.pl/",
    "rating_text": "4,6",
    "stars": null,
    "number_of_reviews": null,
    "price_level": "",
    "open_hours": "",
    "extraction_timestamp": "2025-06-07T17:54:38.213Z",
    "source_name": "google",
    "source_query": "Irrigation Equipment",
    "source_country": "PL",
    "country": "Poland",
    "state": "Greater Poland Voivodeship",
    "city": "Turek"
  },
  {
    "source_id": "ChIJyR9fIVMfG0cRtrZRy8gCQkY",
    "name": "AZYMUT Turek Autoryzowany Srebrny Diler Husqvarna Stiga Fogo HiKOKI",
    "category": "AZYMUT Turek Autoryzowany Srebrny Diler Husqvarna Stiga Fogo HiKOKI",
    "formatted_address": "4,1(13)",
    "phone_number": "+48632795630",
    "source_url": "https://www.google.com/maps/place/AZYMUT+Turek+Autoryzowany+Srebrny+Diler+Husqvarna+Stiga+Fogo+HiKOKI/data=!4m7!3m6!1s0x471b1f53215f1fc9:0x464202c8cb51b6b6!8m2!3d52.010522!4d18.5062159!16s%2Fg%2F11b5rbgkvj!19sChIJyR9fIVMfG0cRtrZRy8gCQkY?authuser=0&hl=tr&rclk=1",
    "website_url": "http://www.husqvarna.com/pl/",
    "rating_text": "4,1",
    "stars": null,
    "number_of_reviews": null,
    "price_level": "",
    "open_hours": "",
    "extraction_timestamp": "2025-06-07T17:54:38.214Z",
    "source_name": "google",
    "source_query": "Irrigation Equipment",
    "source_country": "PL",
    "country": "Poland",
    "state": "Greater Poland Voivodeship",
    "city": "Turek"
  },
  {
    "source_id": "ChIJ9RLIQQMiG0cRB8EQmnjNbQM",
    "name": "Sod Sp.j.",
    "category": "Sod Sp.j.",
    "formatted_address": "4,3(17)",
    "phone_number": "+48632785493",
    "source_url": "https://www.google.com/maps/place/Sod+Sp.j./data=!4m7!3m6!1s0x471b220341c812f5:0x36dcd789a10c107!8m2!3d52.0189881!4d18.4854702!16s%2Fg%2F1v_nb82x!19sChIJ9RLIQQMiG0cRB8EQmnjNbQM?authuser=0&hl=tr&rclk=1",
    "website_url": "http://www.sod.pl/",
    "rating_text": "4,3",
    "stars": null,
    "number_of_reviews": null,
    "price_level": "",
    "open_hours": "",
    "extraction_timestamp": "2025-06-07T17:54:38.215Z",
    "source_name": "google",
    "source_query": "Irrigation Equipment",
    "source_country": "PL",
    "country": "Poland",
    "state": "Greater Poland Voivodeship",
    "city": "Turek"
  },
  {
    "source_id": "ChIJaayU7mkL4IERnS0PFrA-qEY",
    "name": "odwiercaj.pl",
    "category": "odwiercaj.pl",
    "formatted_address": "4,6(10)",
    "phone_number": "+48572972200",
    "source_url": "https://www.google.com/maps/place/odwiercaj.pl/data=!4m7!3m6!1s0x81e00b69ee94ac69:0x46a83eb0160f2d9d!8m2!3d52.0063692!4d18.5441268!16s%2Fg%2F11qg469_dl!19sChIJaayU7mkL4IERnS0PFrA-qEY?authuser=0&hl=tr&rclk=1",
    "website_url": "https://odwiercaj.pl/",
    "rating_text": "4,6",
    "stars": null,
    "number_of_reviews": null,
    "price_level": "",
    "open_hours": "",
    "extraction_timestamp": "2025-06-07T17:54:38.217Z",
    "source_name": "google",
    "source_query": "Irrigation Equipment",
    "source_country": "PL",
    "country": "Poland",
    "state": "Greater Poland Voivodeship",
    "city": "Turek"
  },
  {
    "source_id": "ChIJHzKKKgYiG0cRiyJv7CZ720c",
    "name": "Cez-Rol Turek",
    "category": "Cez-Rol Turek",
    "formatted_address": "4,8(75)",
    "phone_number": "+48632897500",
    "source_url": "https://www.google.com/maps/place/Cez-Rol+Turek/data=!4m7!3m6!1s0x471b22062a8a321f:0x47db7b26ec6f228b!8m2!3d52.0234059!4d18.4993501!16s%2Fg%2F1tds5fzn!19sChIJHzKKKgYiG0cRiyJv7CZ720c?authuser=0&hl=tr&rclk=1",
    "website_url": "http://www.cez-rol.turek.pl/",
    "rating_text": "4,8",
    "stars": null,
    "number_of_reviews": null,
    "price_level": "",
    "open_hours": "",
    "extraction_timestamp": "2025-06-07T17:54:38.218Z",
    "source_name": "google",
    "source_query": "Irrigation Equipment",
    "source_country": "PL",
    "country": "Poland",
    "state": "Greater Poland Voivodeship",
    "city": "Turek"
  },
  {
    "source_id": "ChIJb4lCZPUZG0cRnIQAtn4g2G8",
    "name": "Hydra Grupa Sbs J.Kłos Spółka Komandytowa",
    "category": "Hydra Grupa Sbs J.Kłos Spółka Komandytowa",
    "formatted_address": "5,0(13)",
    "phone_number": "+48632802058",
    "source_url": "https://www.google.com/maps/place/Hydra+Grupa+Sbs+J.K%C5%82os+Sp%C3%B3%C5%82ka+Komandytowa/data=!4m7!3m6!1s0x471b19f56442896f:0x6fd8207eb600849c!8m2!3d52.0197109!4d18.5128879!16s%2Fg%2F11fn0dd242!19sChIJb4lCZPUZG0cRnIQAtn4g2G8?authuser=0&hl=tr&rclk=1",
    "website_url": "",
    "rating_text": "5,0",
    "stars": null,
    "number_of_reviews": null,
    "price_level": "",
    "open_hours": "",
    "extraction_timestamp": "2025-06-07T17:54:38.219Z",
    "source_name": "google",
    "source_query": "Irrigation Equipment",
    "source_country": "PL",
    "country": "Poland",
    "state": "Greater Poland Voivodeship",
    "city": "Turek"
  },
  {
    "source_id": "ChIJL3myRMYZG0cRkhV_X4ImhhI",
    "name": "Salon Techniki Grzewczej Armatura Kozłowski Turek (hurtownia instalacyjna, hydrauliczna)",
    "category": "Salon Techniki Grzewczej Armatura Kozłowski Turek (hurtownia instalacyjna, hydrauliczna)",
    "formatted_address": "Salon Techniki Grzewczej Armatura Kozłowski Turek (hurtownia instalacyjna, hydrauliczna)",
    "phone_number": "+48533428240",
    "source_url": "https://www.google.com/maps/place/Salon+Techniki+Grzewczej+Armatura+Koz%C5%82owski+Turek+%28hurtownia+instalacyjna,+hydrauliczna%29/data=!4m7!3m6!1s0x471b19c644b2792f:0x128626825f7f1592!8m2!3d52.0134421!4d18.5097418!16s%2Fg%2F11gh_mx0_y!19sChIJL3myRMYZG0cRkhV_X4ImhhI?authuser=0&hl=tr&rclk=1",
    "website_url": "https://armatura24.pl/?utm_source=local&utm_medium=organic&utm_campaign=turek&utm_content=gmb",
    "rating_text": "5,0",
    "stars": null,
    "number_of_reviews": null,
    "price_level": "",
    "open_hours": "",
    "extraction_timestamp": "2025-06-07T17:54:38.220Z",
    "source_name": "google",
    "source_query": "Irrigation Equipment",
    "source_country": "PL",
    "country": "Poland",
    "state": "Greater Poland Voivodeship",
    "city": "Turek"
  },
  {
    "source_id": "ChIJ1dAm6qIZG0cRgqxnhs4GZjc",
    "name": "AirTek Pompy Ciepła Klimatyzacja Rekuperacja Fotowoltaika",
    "category": "AirTek Pompy Ciepła Klimatyzacja Rekuperacja Fotowoltaika",
    "formatted_address": "5,0(137)",
    "phone_number": "+48697496627",
    "source_url": "https://www.google.com/maps/place/AirTek+Pompy+Ciep%C5%82a+Klimatyzacja+Rekuperacja+Fotowoltaika/data=!4m7!3m6!1s0x471b19a2ea26d0d5:0x376606ce8667ac82!8m2!3d52.0222259!4d18.543812!16s%2Fg%2F11jpf2lcnn!19sChIJ1dAm6qIZG0cRgqxnhs4GZjc?authuser=0&hl=tr&rclk=1",
    "website_url": "http://www.facebook.com/airtekpl",
    "rating_text": "5,0",
    "stars": null,
    "number_of_reviews": null,
    "price_level": "",
    "open_hours": "",
    "extraction_timestamp": "2025-06-07T17:54:38.221Z",
    "source_name": "google",
    "source_query": "Irrigation Equipment",
    "source_country": "PL",
    "country": "Poland",
    "state": "Greater Poland Voivodeship",
    "city": "Turek"
  },
  {
    "source_id": "ChIJ-0B0ta0YG0cRJFqKRPWDsps",
    "name": "Higrotec",
    "category": "Higrotec",
    "formatted_address": "5,0(1)",
    "phone_number": "+48793141889",
    "source_url": "https://www.google.com/maps/place/Higrotec/data=!4m7!3m6!1s0x471b18adb57440fb:0x9bb283f5448a5a24!8m2!3d52.0108301!4d18.4813535!16s%2Fg%2F12hms8r8_!19sChIJ-0B0ta0YG0cRJFqKRPWDsps?authuser=0&hl=tr&rclk=1",
    "website_url": "http://www.higrotec.pl/",
    "rating_text": "5,0",
    "stars": null,
    "number_of_reviews": null,
    "price_level": "",
    "open_hours": "",
    "extraction_timestamp": "2025-06-07T17:54:38.223Z",
    "source_name": "google",
    "source_query": "Irrigation Equipment",
    "source_country": "PL",
    "country": "Poland",
    "state": "Greater Poland Voivodeship",
    "city": "Turek"
  },
  {
    "source_id": "ChIJZTCa14ghG0cRFS82xiprszo",
    "name": "JW garden-instal Jacek Fret roboty ziemne, usługi hydrauliczne, transportowe i inne",
    "category": "JW garden-instal Jacek Fret roboty ziemne, usługi hydrauliczne, transportowe i inne",
    "formatted_address": "JW garden-instal Jacek Fret roboty ziemne, usługi hydrauliczne, transportowe i inne",
    "phone_number": "+48781120370",
    "source_url": "https://www.google.com/maps/place/JW+garden-instal+Jacek+Fret+roboty+ziemne,+us%C5%82ugi+hydrauliczne,+transportowe+i+inne/data=!4m7!3m6!1s0x471b2188d79a3065:0x3ab36b2ac6362f15!8m2!3d52.011452!4d18.451142!16s%2Fg%2F11p0hg99rm!19sChIJZTCa14ghG0cRFS82xiprszo?authuser=0&hl=tr&rclk=1",
    "website_url": "",
    "rating_text": "4,9",
    "stars": null,
    "number_of_reviews": null,
    "price_level": "",
    "open_hours": "",
    "extraction_timestamp": "2025-06-07T17:54:38.224Z",
    "source_name": "google",
    "source_query": "Irrigation Equipment",
    "source_country": "PL",
    "country": "Poland",
    "state": "Greater Poland Voivodeship",
    "city": "Turek"
  },
  {
    "source_id": "ChIJASCJ43ohG0cR0FpINxy2VRU",
    "name": "Szukanie wody pod studnie głębinowe - Tomografia Elektrooporowa",
    "category": "Szukanie wody pod studnie głębinowe - Tomografia Elektrooporowa",
    "formatted_address": "4,3(15)",
    "phone_number": "+48601921922",
    "source_url": "https://www.google.com/maps/place/Szukanie+wody+pod+studnie+g%C5%82%C4%99binowe+-+Tomografia+Elektrooporowa/data=!4m7!3m6!1s0x471b217ae3892001:0x1555b61c37485ad0!8m2!3d52.0171712!4d18.4578366!16s%2Fg%2F11g0g_jhzs!19sChIJASCJ43ohG0cR0FpINxy2VRU?authuser=0&hl=tr&rclk=1",
    "website_url": "https://szukanie-wody.pl/",
    "rating_text": "4,3",
    "stars": null,
    "number_of_reviews": null,
    "price_level": "",
    "open_hours": "",
    "extraction_timestamp": "2025-06-07T17:54:38.225Z",
    "source_name": "google",
    "source_query": "Irrigation Equipment",
    "source_country": "PL",
    "country": "Poland",
    "state": "Greater Poland Voivodeship",
    "city": "Turek"
  },
  {
    "source_id": "ChIJo-PmAwAZG0cRIxiyeP0WEok",
    "name": "Hurtownia wód i napojów",
    "category": "Hurtownia wód i napojów",
    "formatted_address": "5,0(5)",
    "phone_number": "+48732887988",
    "source_url": "https://www.google.com/maps/place/Hurtownia+w%C3%B3d+i+napoj%C3%B3w/data=!4m7!3m6!1s0x471b190003e6e3a3:0x891216fd78b21823!8m2!3d52.0191668!4d18.5129848!16s%2Fg%2F11y5gr08lh!19sChIJo-PmAwAZG0cRIxiyeP0WEok?authuser=0&hl=tr&rclk=1",
    "website_url": "",
    "rating_text": "5,0",
    "stars": null,
    "number_of_reviews": null,
    "price_level": "",
    "open_hours": "",
    "extraction_timestamp": "2025-06-07T17:54:38.226Z",
    "source_name": "google",
    "source_query": "Irrigation Equipment",
    "source_country": "PL",
    "country": "Poland",
    "state": "Greater Poland Voivodeship",
    "city": "Turek"
  },
  {
    "source_id": "ChIJPQZwYaoYG0cRQ93yJrTkcMM",
    "name": "IMP-Rowery Turek",
    "category": "IMP-Rowery Turek",
    "formatted_address": "4,0(8)",
    "phone_number": "+48508062449",
    "source_url": "https://www.google.com/maps/place/IMP-Rowery+Turek/data=!4m7!3m6!1s0x471b18aa6170063d:0xc370e4b426f2dd43!8m2!3d52.0154107!4d18.4991515!16s%2Fg%2F1tdzdrfk!19sChIJPQZwYaoYG0cRQ93yJrTkcMM?authuser=0&hl=tr&rclk=1",
    "website_url": "http://www.imp-rowery.pl/",
    "rating_text": "4,0",
    "stars": null,
    "number_of_reviews": null,
    "price_level": "",
    "open_hours": "",
    "extraction_timestamp": "2025-06-07T17:54:38.227Z",
    "source_name": "google",
    "source_query": "Irrigation Equipment",
    "source_country": "PL",
    "country": "Poland",
    "state": "Greater Poland Voivodeship",
    "city": "Turek"
  },
  {
    "source_id": "ChIJZUqOU64YG0cR_ulWNIMx1Rg",
    "name": "Hydraskład - Grupa SBS Jan Wójcicki Sp. K.",
    "category": "Hydraskład - Grupa SBS Jan Wójcicki Sp. K.",
    "formatted_address": "4,8(9)",
    "phone_number": "+48632141212",
    "source_url": "https://www.google.com/maps/place/Hydrask%C5%82ad+-+Grupa+SBS+Jan+W%C3%B3jcicki+Sp.+K./data=!4m7!3m6!1s0x471b18ae538e4a65:0x18d531833456e9fe!8m2!3d52.0182632!4d18.5133555!16s%2Fg%2F1thclj78!19sChIJZUqOU64YG0cR_ulWNIMx1Rg?authuser=0&hl=tr&rclk=1",
    "website_url": "http://www.hydrasklad.pl/",
    "rating_text": "4,8",
    "stars": null,
    "number_of_reviews": null,
    "price_level": "",
    "open_hours": "",
    "extraction_timestamp": "2025-06-07T17:54:38.229Z",
    "source_name": "google",
    "source_query": "Irrigation Equipment",
    "source_country": "PL",
    "country": "Poland",
    "state": "Greater Poland Voivodeship",
    "city": "Turek"
  },
  {
    "source_id": "ChIJU2uNM6oYG0cRRVr2NFXoTNI",
    "name": "NEONET",
    "category": "NEONET",
    "formatted_address": "4,3(236)",
    "phone_number": "+48606659711",
    "source_url": "https://www.google.com/maps/place/NEONET/data=!4m7!3m6!1s0x471b18aa338d6b53:0xd24ce85534f65a45!8m2!3d52.0118043!4d18.5095041!16s%2Fg%2F1tfkphk4!19sChIJU2uNM6oYG0cRRVr2NFXoTNI?authuser=0&hl=tr&rclk=1",
    "website_url": "https://www.neonet.pl/",
    "rating_text": "4,3",
    "stars": null,
    "number_of_reviews": null,
    "price_level": "",
    "open_hours": "",
    "extraction_timestamp": "2025-06-07T17:54:38.230Z",
    "source_name": "google",
    "source_query": "Irrigation Equipment",
    "source_country": "PL",
    "country": "Poland",
    "state": "Greater Poland Voivodeship",
    "city": "Turek"
  },
  {
    "source_id": "ChIJH000WKkYG0cRp1ZBQ_b9578",
    "name": "Bricomarché",
    "category": "Bricomarché",
    "formatted_address": "4,0(1.131)",
    "phone_number": "+48632802300",
    "source_url": "https://www.google.com/maps/place/Bricomarch%C3%A9/data=!4m7!3m6!1s0x471b18a958344d1f:0xbfe7fdf6434156a7!8m2!3d52.0181505!4d18.5067689!16s%2Fg%2F1tmxprth!19sChIJH000WKkYG0cRp1ZBQ_b9578?authuser=0&hl=tr&rclk=1",
    "website_url": "https://www.bricomarche.pl/?posId=63",
    "rating_text": "4,0",
    "stars": null,
    "number_of_reviews": null,
    "price_level": "",
    "open_hours": "",
    "extraction_timestamp": "2025-06-07T17:54:38.233Z",
    "source_name": "google",
    "source_query": "Irrigation Equipment",
    "source_country": "PL",
    "country": "Poland",
    "state": "Greater Poland Voivodeship",
    "city": "Turek"
  },
  {
    "source_id": "ChIJT8WdRNEeG0cRjuzBLnGGQRQ",
    "name": "F.H.U. GreenEco Andrzej Pasik - Garden Center",
    "category": "F.H.U. GreenEco Andrzej Pasik - Garden Center",
    "formatted_address": "4,7(91)",
    "phone_number": "+48663729663",
    "source_url": "https://www.google.com/maps/place/F.H.U.+GreenEco+Andrzej+Pasik+-+Garden+Center/data=!4m7!3m6!1s0x471b1ed1449dc54f:0x144186712ec1ec8e!8m2!3d51.9960107!4d18.5611504!16s%2Fg%2F1pzrckwdw!19sChIJT8WdRNEeG0cRjuzBLnGGQRQ?authuser=0&hl=tr&rclk=1",
    "website_url": "https://www.facebook.com/greenecopasik",
    "rating_text": "4,7",
    "stars": null,
    "number_of_reviews": null,
    "price_level": "",
    "open_hours": "",
    "extraction_timestamp": "2025-06-07T17:54:38.234Z",
    "source_name": "google",
    "source_query": "Irrigation Equipment",
    "source_country": "PL",
    "country": "Poland",
    "state": "Greater Poland Voivodeship",
    "city": "Turek"
  },
  {
    "source_id": "ChIJOWomrx8hG0cRDCxUHwtica8",
    "name": "Market Wietrzyk",
    "category": "Market Wietrzyk",
    "formatted_address": "4,3(49)",
    "phone_number": "",
    "source_url": "https://www.google.com/maps/place/Market+Wietrzyk/data=!4m7!3m6!1s0x471b211faf266a39:0xaf71620b1f542c0c!8m2!3d52.0169322!4d18.4498877!16s%2Fg%2F11q962v5cz!19sChIJOWomrx8hG0cRDCxUHwtica8?authuser=0&hl=tr&rclk=1",
    "website_url": "",
    "rating_text": "4,3",
    "stars": null,
    "number_of_reviews": null,
    "price_level": "",
    "open_hours": "",
    "extraction_timestamp": "2025-06-07T17:54:38.235Z",
    "source_name": "google",
    "source_query": "Irrigation Equipment",
    "source_country": "PL",
    "country": "Poland",
    "state": "Greater Poland Voivodeship",
    "city": "Turek"
  },
  {
    "source_id": "ChIJl9-n4q0YG0cRbSCSGpNbgwg",
    "name": "Pet shop - Dizelka",
    "category": "Pet shop - Dizelka",
    "formatted_address": "4,8(135)",
    "phone_number": "+48509524573",
    "source_url": "https://www.google.com/maps/place/Pet+shop+-+Dizelka/data=!4m7!3m6!1s0x471b18ade2a7df97:0x8835b931a92206d!8m2!3d52.015674!4d18.513771!16s%2Fg%2F1tgf1zgp!19sChIJl9-n4q0YG0cRbSCSGpNbgwg?authuser=0&hl=tr&rclk=1",
    "website_url": "https://zoologicznyturek.pl/",
    "rating_text": "4,8",
    "stars": null,
    "number_of_reviews": null,
    "price_level": "",
    "open_hours": "",
    "extraction_timestamp": "2025-06-07T17:54:38.236Z",
    "source_name": "google",
    "source_query": "Irrigation Equipment",
    "source_country": "PL",
    "country": "Poland",
    "state": "Greater Poland Voivodeship",
    "city": "Turek"
  },
  {
    "source_id": "ChIJoR02UvEhG0cRyWan2oZPlyY",
    "name": "ROWEROWNIA- Serwis rowerowy & E-Bike - TUREK",
    "category": "ROWEROWNIA- Serwis rowerowy & E-Bike - TUREK",
    "formatted_address": "4,7(22)",
    "phone_number": "+48691096544",
    "source_url": "https://www.google.com/maps/place/ROWEROWNIA-+Serwis+rowerowy+%26+E-Bike+-+TUREK/data=!4m7!3m6!1s0x471b21f152361da1:0x26974f86daa766c9!8m2!3d52.0147539!4d18.4533324!16s%2Fg%2F11j94r01gj!19sChIJoR02UvEhG0cRyWan2oZPlyY?authuser=0&hl=tr&rclk=1",
    "website_url": "",
    "rating_text": "4,7",
    "stars": null,
    "number_of_reviews": null,
    "price_level": "",
    "open_hours": "",
    "extraction_timestamp": "2025-06-07T17:54:38.237Z",
    "source_name": "google",
    "source_query": "Irrigation Equipment",
    "source_country": "PL",
    "country": "Poland",
    "state": "Greater Poland Voivodeship",
    "city": "Turek"
  },
  {
    "source_id": "ChIJkcmqSagYG0cRjQVfGki0qns",
    "name": "POLOmarket",
    "category": "POLOmarket",
    "formatted_address": "3,9(243)",
    "phone_number": "+48523599000",
    "source_url": "https://www.google.com/maps/place/POLOmarket/data=!4m7!3m6!1s0x471b18a849aac991:0x7baab4481a5f058d!8m2!3d52.0213339!4d18.5033738!16s%2Fg%2F11b64bxzfc!19sChIJkcmqSagYG0cRjQVfGki0qns?authuser=0&hl=tr&rclk=1",
    "website_url": "https://www.polomarket.pl/",
    "rating_text": "3,9",
    "stars": null,
    "number_of_reviews": null,
    "price_level": "",
    "open_hours": "",
    "extraction_timestamp": "2025-06-07T17:54:38.238Z",
    "source_name": "google",
    "source_query": "Irrigation Equipment",
    "source_country": "PL",
    "country": "Poland",
    "state": "Greater Poland Voivodeship",
    "city": "Turek"
  },
  {
    "source_id": "ChIJp63AfAAiG0cRmbjZABz2RQo",
    "name": "Drogeria Rossmann",
    "category": "Drogeria Rossmann",
    "formatted_address": "4,5(329)",
    "phone_number": "+48426139700",
    "source_url": "https://www.google.com/maps/place/Drogeria+Rossmann/data=!4m7!3m6!1s0x471b22007cc0ada7:0xa45f61c00d9b899!8m2!3d52.0151225!4d18.497267!16s%2Fg%2F1tjgnbnh!19sChIJp63AfAAiG0cRmbjZABz2RQo?authuser=0&hl=tr&rclk=1",
    "website_url": "https://www.rossmann.pl/",
    "rating_text": "4,5",
    "stars": null,
    "number_of_reviews": null,
    "price_level": "",
    "open_hours": "",
    "extraction_timestamp": "2025-06-07T17:54:38.240Z",
    "source_name": "google",
    "source_query": "Irrigation Equipment",
    "source_country": "PL",
    "country": "Poland",
    "state": "Greater Poland Voivodeship",
    "city": "Turek"
  },
  {
    "source_id": "ChIJ4cmKurMYG0cRNngW21K7yUU",
    "name": "PSS Społem",
    "category": "PSS Społem",
    "formatted_address": "4,3(135)",
    "phone_number": "+48519335135",
    "source_url": "https://www.google.com/maps/place/PSS+Spo%C5%82em/data=!4m7!3m6!1s0x471b18b3ba8ac9e1:0x45c9bb52db167836!8m2!3d52.0130168!4d18.5182783!16s%2Fg%2F1ptw89hqh!19sChIJ4cmKurMYG0cRNngW21K7yUU?authuser=0&hl=tr&rclk=1",
    "website_url": "",
    "rating_text": "4,3",
    "stars": null,
    "number_of_reviews": null,
    "price_level": "",
    "open_hours": "",
    "extraction_timestamp": "2025-06-07T17:54:38.241Z",
    "source_name": "google",
    "source_query": "Irrigation Equipment",
    "source_country": "PL",
    "country": "Poland",
    "state": "Greater Poland Voivodeship",
    "city": "Turek"
  },
  {
    "source_id": "ChIJN0tmUwEiG0cRB-ye84F3s_4",
    "name": "Monopolowy",
    "category": "Monopolowy",
    "formatted_address": "4,7(20)",
    "phone_number": "",
    "source_url": "https://www.google.com/maps/place/Monopolowy/data=!4m7!3m6!1s0x471b220153664b37:0xfeb37781f39eec07!8m2!3d52.0189688!4d18.4926416!16s%2Fg%2F11f60l1y5j!19sChIJN0tmUwEiG0cRB-ye84F3s_4?authuser=0&hl=tr&rclk=1",
    "website_url": "",
    "rating_text": "4,7",
    "stars": null,
    "number_of_reviews": null,
    "price_level": "",
    "open_hours": "",
    "extraction_timestamp": "2025-06-07T17:54:38.242Z",
    "source_name": "google",
    "source_query": "Irrigation Equipment",
    "source_country": "PL",
    "country": "Poland",
    "state": "Greater Poland Voivodeship",
    "city": "Turek"
  },
  {
    "source_id": "ChIJEW9QWK0YG0cRPIM9RyAUjRE",
    "name": "Shell",
    "category": "Shell",
    "formatted_address": "4,1(78) · ₺₺",
    "phone_number": "+48514825057",
    "source_url": "https://www.google.com/maps/place/Shell/data=!4m7!3m6!1s0x471b18ad58506f11:0x118d1420473d833c!8m2!3d52.0113944!4d18.5116102!16s%2Fg%2F11bycj4jm0!19sChIJEW9QWK0YG0cRPIM9RyAUjRE?authuser=0&hl=tr&rclk=1",
    "website_url": "https://find.shell.com/pl/fuel/10034840-4204-tur-turek/pl_PL",
    "rating_text": "4,1",
    "stars": null,
    "number_of_reviews": null,
    "price_level": "",
    "open_hours": "",
    "extraction_timestamp": "2025-06-07T17:54:38.252Z",
    "source_name": "google",
    "source_query": "Irrigation Equipment",
    "source_country": "PL",
    "country": "Poland",
    "state": "Greater Poland Voivodeship",
    "city": "Turek"
  },
  {
    "source_id": "ChIJp6oaoakYG0cRUnmuJyJBN6s",
    "name": "Sklep monopolowy \"BiR\"",
    "category": "Sklep monopolowy \"BiR\"",
    "formatted_address": "4,0(55)",
    "phone_number": "",
    "source_url": "https://www.google.com/maps/place/Sklep+monopolowy+%22BiR%22/data=!4m7!3m6!1s0x471b18a9a11aaaa7:0xab37412227ae7952!8m2!3d52.018545!4d18.504332!16s%2Fg%2F11d_7t7cts!19sChIJp6oaoakYG0cRUnmuJyJBN6s?authuser=0&hl=tr&rclk=1",
    "website_url": "",
    "rating_text": "4,0",
    "stars": null,
    "number_of_reviews": null,
    "price_level": "",
    "open_hours": "",
    "extraction_timestamp": "2025-06-07T17:54:38.253Z",
    "source_name": "google",
    "source_query": "Irrigation Equipment",
    "source_country": "PL",
    "country": "Poland",
    "state": "Greater Poland Voivodeship",
    "city": "Turek"
  }
]
