[
  {
    "source_id": "ChIJs6pl2uv6A0cRtb3Lqd1QXmw",
    "name": "Terjer. Materiały instalacyjne, urządzenia grzewcze, urządzenia sanitarne.",
    "category": "Terjer. Materiały instalacyjne, urządzenia grzewcze, urządzenia sanitarne.",
    "formatted_address": "Terjer. Materiały instalacyjne, urządzenia grzewcze, urządzenia sanitarne.",
    "phone_number": "+48672830107",
    "source_url": "https://www.google.com/maps/place/Terjer.+Materia%C5%82y+instalacyjne,+urz%C4%85dzenia+grzewcze,+urz%C4%85dzenia+sanitarne./data=!4m7!3m6!1s0x4703faebda65aab3:0x6c5e50dda9cbbdb5!8m2!3d53.0491767!4d16.7429734!16s%2Fg%2F1thbvc5d!19sChIJs6pl2uv6A0cRtb3Lqd1QXmw?authuser=0&hl=tr&rclk=1",
    "website_url": "",
    "rating_text": "4,0",
    "stars": null,
    "number_of_reviews": null,
    "price_level": "",
    "open_hours": "",
    "extraction_timestamp": "2025-06-07T17:28:56.642Z",
    "source_name": "google",
    "source_query": "Irrigation Equipment",
    "source_country": "PL",
    "country": "Poland",
    "state": "Greater Poland Voivodeship",
    "city": "Ujście"
  },
  {
    "source_id": "ChIJzwAivt76A0cRBawpYQms8zM",
    "name": "Pontex-Poniccy sp.j.",
    "category": "Pontex-Poniccy sp.j.",
    "formatted_address": "4,5(61)",
    "phone_number": "+48672840052",
    "source_url": "https://www.google.com/maps/place/Pontex-Poniccy+sp.j./data=!4m7!3m6!1s0x4703fadebe2200cf:0x33f3ac096129ac05!8m2!3d53.0586219!4d16.7305301!16s%2Fg%2F1tfrfgd0!19sChIJzwAivt76A0cRBawpYQms8zM?authuser=0&hl=tr&rclk=1",
    "website_url": "",
    "rating_text": "4,5",
    "stars": null,
    "number_of_reviews": null,
    "price_level": "",
    "open_hours": "",
    "extraction_timestamp": "2025-06-07T17:28:56.643Z",
    "source_name": "google",
    "source_query": "Irrigation Equipment",
    "source_country": "PL",
    "country": "Poland",
    "state": "Greater Poland Voivodeship",
    "city": "Ujście"
  },
  {
    "source_id": "ChIJUfn2Ig35A0cREW9fZ4029UM",
    "name": "IMTechnika sp. z o.o.",
    "category": "IMTechnika sp. z o.o.",
    "formatted_address": "4,4(17)",
    "phone_number": "+48883820388",
    "source_url": "https://www.google.com/maps/place/IMTechnika+sp.+z+o.o./data=!4m7!3m6!1s0x4703f90d22f6f951:0x43f5368d675f6f11!8m2!3d52.9756271!4d16.657836!16s%2Fg%2F11bw48_6mg!19sChIJUfn2Ig35A0cREW9fZ4029UM?authuser=0&hl=tr&rclk=1",
    "website_url": "",
    "rating_text": "4,4",
    "stars": null,
    "number_of_reviews": null,
    "price_level": "",
    "open_hours": "",
    "extraction_timestamp": "2025-06-07T17:28:56.645Z",
    "source_name": "google",
    "source_query": "Irrigation Equipment",
    "source_country": "PL",
    "country": "Poland",
    "state": "Greater Poland Voivodeship",
    "city": "Ujście"
  },
  {
    "source_id": "ChIJPYsaim5WAUcRTQ1pXWfOVec",
    "name": "Hydro Poland",
    "category": "Hydro Poland",
    "formatted_address": "3,7(87)",
    "phone_number": "+48673525105",
    "source_url": "https://www.google.com/maps/place/Hydro+Poland/data=!4m7!3m6!1s0x4701566e8a1a8b3d:0xe755ce675d690d4d!8m2!3d53.0401073!4d16.4722088!16s%2Fg%2F1tm0rvvr!19sChIJPYsaim5WAUcRTQ1pXWfOVec?authuser=0&hl=tr&rclk=1",
    "website_url": "",
    "rating_text": "3,7",
    "stars": null,
    "number_of_reviews": null,
    "price_level": "",
    "open_hours": "",
    "extraction_timestamp": "2025-06-07T17:28:56.646Z",
    "source_name": "google",
    "source_query": "Irrigation Equipment",
    "source_country": "PL",
    "country": "Poland",
    "state": "Greater Poland Voivodeship",
    "city": "Ujście"
  },
  {
    "source_id": "ChIJ18Xs7h37A0cRFUJHJ62Gve8",
    "name": "IMTechnika Księgowość",
    "category": "IMTechnika Księgowość",
    "formatted_address": "5,0(1)",
    "phone_number": "+48883820388",
    "source_url": "https://www.google.com/maps/place/IMTechnika+Ksi%C4%99gowo%C5%9B%C4%87/data=!4m7!3m6!1s0x4703fb1deeecc5d7:0xefbd86ad27474215!8m2!3d53.050038!4d16.71643!16s%2Fg%2F11bv1lrf23!19sChIJ18Xs7h37A0cRFUJHJ62Gve8?authuser=0&hl=tr&rclk=1",
    "website_url": "",
    "rating_text": "5,0",
    "stars": null,
    "number_of_reviews": null,
    "price_level": "",
    "open_hours": "",
    "extraction_timestamp": "2025-06-07T17:28:56.648Z",
    "source_name": "google",
    "source_query": "Irrigation Equipment",
    "source_country": "PL",
    "country": "Poland",
    "state": "Greater Poland Voivodeship",
    "city": "Ujście"
  },
  {
    "source_id": "ChIJI83Gz6jmA0cRiKQ79Ugo8rA",
    "name": "Hydro-Instal",
    "category": "Hydro-Instal",
    "formatted_address": "2,2(5)",
    "phone_number": "+48606960257",
    "source_url": "https://www.google.com/maps/place/Hydro-Instal/data=!4m7!3m6!1s0x4703e6a8cfc6cd23:0xb0f22848f53ba488!8m2!3d53.16926!4d16.7398731!16s%2Fg%2F1v0ljgmw!19sChIJI83Gz6jmA0cRiKQ79Ugo8rA?authuser=0&hl=tr&rclk=1",
    "website_url": "",
    "rating_text": "2,2",
    "stars": null,
    "number_of_reviews": null,
    "price_level": "",
    "open_hours": "",
    "extraction_timestamp": "2025-06-07T17:28:56.650Z",
    "source_name": "google",
    "source_query": "Irrigation Equipment",
    "source_country": "PL",
    "country": "Poland",
    "state": "Greater Poland Voivodeship",
    "city": "Ujście"
  },
  {
    "source_id": "ChIJ7cAa79j6A0cRFqUqhaKB5fU",
    "name": "Autoryzowana Stacja Dealerska Toyota Ukleja Sp.j.",
    "category": "Autoryzowana Stacja Dealerska Toyota Ukleja Sp.j.",
    "formatted_address": "4,6(487)",
    "phone_number": "+48672105100",
    "source_url": "https://www.google.com/maps/place/Autoryzowana+Stacja+Dealerska+Toyota+Ukleja+Sp.j./data=!4m7!3m6!1s0x4703fad8ef1ac0ed:0xf5e581a2852aa516!8m2!3d53.0621699!4d16.7285691!16s%2Fg%2F1tglxpfr!19sChIJ7cAa79j6A0cRFqUqhaKB5fU?authuser=0&hl=tr&rclk=1",
    "website_url": "",
    "rating_text": "4,6",
    "stars": null,
    "number_of_reviews": null,
    "price_level": "",
    "open_hours": "",
    "extraction_timestamp": "2025-06-07T17:28:56.651Z",
    "source_name": "google",
    "source_query": "Irrigation Equipment",
    "source_country": "PL",
    "country": "Poland",
    "state": "Greater Poland Voivodeship",
    "city": "Ujście"
  },
  {
    "source_id": "ChIJ34DuKqr7A0cRYH0VYTjhPaE",
    "name": "FERDEK - sklep monopolowy",
    "category": "FERDEK - sklep monopolowy",
    "formatted_address": "4,4(5)",
    "phone_number": "",
    "source_url": "https://www.google.com/maps/place/FERDEK+-+sklep+monopolowy/data=!4m7!3m6!1s0x4703fbaa2aee80df:0xa13de13861157d60!8m2!3d53.0540379!4d16.7305816!16s%2Fg%2F11nytq3lc2!19sChIJ34DuKqr7A0cRYH0VYTjhPaE?authuser=0&hl=tr&rclk=1",
    "website_url": "",
    "rating_text": "4,4",
    "stars": null,
    "number_of_reviews": null,
    "price_level": "",
    "open_hours": "",
    "extraction_timestamp": "2025-06-07T17:28:56.652Z",
    "source_name": "google",
    "source_query": "Irrigation Equipment",
    "source_country": "PL",
    "country": "Poland",
    "state": "Greater Poland Voivodeship",
    "city": "Ujście"
  },
  {
    "source_id": "ChIJMxS8b4b7A0cR24hr68OZffs",
    "name": "Biedronka",
    "category": "Biedronka",
    "formatted_address": "4,3(341)",
    "phone_number": "+48800080010",
    "source_url": "https://www.google.com/maps/place/Biedronka/data=!4m7!3m6!1s0x4703fb866fbc1433:0xfb7d99c3eb6b88db!8m2!3d53.0510557!4d16.7371288!16s%2Fg%2F11ry3cjzf2!19sChIJMxS8b4b7A0cR24hr68OZffs?authuser=0&hl=tr&rclk=1",
    "website_url": "",
    "rating_text": "4,3",
    "stars": null,
    "number_of_reviews": null,
    "price_level": "",
    "open_hours": "",
    "extraction_timestamp": "2025-06-07T17:28:56.653Z",
    "source_name": "google",
    "source_query": "Irrigation Equipment",
    "source_country": "PL",
    "country": "Poland",
    "state": "Greater Poland Voivodeship",
    "city": "Ujście"
  },
  {
    "source_id": "ChIJ0SD2kmH7A0cRrKwOykvveNQ",
    "name": "Chata Polska sklep spożywczy",
    "category": "Chata Polska sklep spożywczy",
    "formatted_address": "4,7(25)",
    "phone_number": "+48673533700",
    "source_url": "https://www.google.com/maps/place/Chata+Polska+sklep+spo%C5%BCywczy/data=!4m7!3m6!1s0x4703fb6192f620d1:0xd478ef4bca0eacac!8m2!3d53.0491216!4d16.73861!16s%2Fg%2F11ny177xb8!19sChIJ0SD2kmH7A0cRrKwOykvveNQ?authuser=0&hl=tr&rclk=1",
    "website_url": "",
    "rating_text": "4,7",
    "stars": null,
    "number_of_reviews": null,
    "price_level": "",
    "open_hours": "",
    "extraction_timestamp": "2025-06-07T17:28:56.654Z",
    "source_name": "google",
    "source_query": "Irrigation Equipment",
    "source_country": "PL",
    "country": "Poland",
    "state": "Greater Poland Voivodeship",
    "city": "Ujście"
  },
  {
    "source_id": "ChIJQS5_EYT7A0cRlHbj8qYVV9Y",
    "name": "Drogeria Rossmann",
    "category": "Drogeria Rossmann",
    "formatted_address": "5,0(4)",
    "phone_number": "+48609499939",
    "source_url": "https://www.google.com/maps/place/Drogeria+Rossmann/data=!4m7!3m6!1s0x4703fb84117f2e41:0xd65715a6f2e37694!8m2!3d53.0510271!4d16.737903!16s%2Fg%2F11wv02p_dd!19sChIJQS5_EYT7A0cRlHbj8qYVV9Y?authuser=0&hl=tr&rclk=1",
    "website_url": "",
    "rating_text": "5,0",
    "stars": null,
    "number_of_reviews": null,
    "price_level": "",
    "open_hours": "",
    "extraction_timestamp": "2025-06-07T17:28:56.655Z",
    "source_name": "google",
    "source_query": "Irrigation Equipment",
    "source_country": "PL",
    "country": "Poland",
    "state": "Greater Poland Voivodeship",
    "city": "Ujście"
  },
  {
    "source_id": "ChIJ5UQeZ-f6A0cRLw5o5_2icZo",
    "name": "Sklep monopolowy \"hobbit\"",
    "category": "Sklep monopolowy \"hobbit\"",
    "formatted_address": "4,6(5)",
    "phone_number": "+48672840667",
    "source_url": "https://www.google.com/maps/place/Sklep+monopolowy+%22hobbit%22/data=!4m7!3m6!1s0x4703fae7671e44e5:0x9a71a2fde7680e2f!8m2!3d53.0540173!4d16.7303819!16s%2Fg%2F1tfjtztq!19sChIJ5UQeZ-f6A0cRLw5o5_2icZo?authuser=0&hl=tr&rclk=1",
    "website_url": "",
    "rating_text": "4,6",
    "stars": null,
    "number_of_reviews": null,
    "price_level": "",
    "open_hours": "",
    "extraction_timestamp": "2025-06-07T17:28:56.656Z",
    "source_name": "google",
    "source_query": "Irrigation Equipment",
    "source_country": "PL",
    "country": "Poland",
    "state": "Greater Poland Voivodeship",
    "city": "Ujście"
  },
  {
    "source_id": "ChIJa_bI7wwBBEcR1VYLhtQw0aI",
    "name": "Centrum Ogrodnicze Maciejka",
    "category": "Centrum Ogrodnicze Maciejka",
    "formatted_address": "",
    "phone_number": "+48570422568",
    "source_url": "https://www.google.com/maps/place/Centrum+Ogrodnicze+Maciejka/data=!4m7!3m6!1s0x4704010cefc8f66b:0xa2d130d4860b56d5!8m2!3d53.053256!4d16.731409!16s%2Fg%2F11hyxnjl31!19sChIJa_bI7wwBBEcR1VYLhtQw0aI?authuser=0&hl=tr&rclk=1",
    "website_url": "",
    "rating_text": "",
    "stars": null,
    "number_of_reviews": null,
    "price_level": "",
    "open_hours": "",
    "extraction_timestamp": "2025-06-07T17:28:56.658Z",
    "source_name": "google",
    "source_query": "Irrigation Equipment",
    "source_country": "PL",
    "country": "Poland",
    "state": "Greater Poland Voivodeship",
    "city": "Ujście"
  },
  {
    "source_id": "ChIJd-vZ4q37A0cRBNRgnBa2u5w",
    "name": "Dino",
    "category": "Dino",
    "formatted_address": "4,4(178)",
    "phone_number": "",
    "source_url": "https://www.google.com/maps/place/Dino/data=!4m7!3m6!1s0x4703fbade2d9eb77:0x9cbbb6169c60d404!8m2!3d53.0597257!4d16.7289228!16s%2Fg%2F11j9cdk98c!19sChIJd-vZ4q37A0cRBNRgnBa2u5w?authuser=0&hl=tr&rclk=1",
    "website_url": "",
    "rating_text": "4,4",
    "stars": null,
    "number_of_reviews": null,
    "price_level": "",
    "open_hours": "",
    "extraction_timestamp": "2025-06-07T17:28:56.658Z",
    "source_name": "google",
    "source_query": "Irrigation Equipment",
    "source_country": "PL",
    "country": "Poland",
    "state": "Greater Poland Voivodeship",
    "city": "Ujście"
  },
  {
    "source_id": "ChIJJYbmmuH6A0cRMY83GFYAnIc",
    "name": "Groszek",
    "category": "Groszek",
    "formatted_address": "4,1(34)",
    "phone_number": "+48502645390",
    "source_url": "https://www.google.com/maps/place/Groszek/data=!4m7!3m6!1s0x4703fae19ae68625:0x879c005618378f31!8m2!3d53.0510139!4d16.7217549!16s%2Fg%2F1tf8092l!19sChIJJYbmmuH6A0cRMY83GFYAnIc?authuser=0&hl=tr&rclk=1",
    "website_url": "",
    "rating_text": "4,1",
    "stars": null,
    "number_of_reviews": null,
    "price_level": "",
    "open_hours": "",
    "extraction_timestamp": "2025-06-07T17:28:56.659Z",
    "source_name": "google",
    "source_query": "Irrigation Equipment",
    "source_country": "PL",
    "country": "Poland",
    "state": "Greater Poland Voivodeship",
    "city": "Ujście"
  },
  {
    "source_id": "ChIJB6y_v5J2HEcRlDfYx3xmc9M",
    "name": "Milex irrigation systems",
    "category": "Milex irrigation systems",
    "formatted_address": "4,6(37)",
    "phone_number": "+48242775222",
    "source_url": "https://www.google.com/maps/place/Milex+irrigation+systems/data=!4m7!3m6!1s0x471c7692bfbfac07:0xd373667cc7d83794!8m2!3d52.4690634!4d19.7520904!16s%2Fg%2F1w2yy67r!19sChIJB6y_v5J2HEcRlDfYx3xmc9M?authuser=0&hl=tr&rclk=1",
    "website_url": "",
    "rating_text": "4,6",
    "stars": null,
    "number_of_reviews": null,
    "price_level": "",
    "open_hours": "",
    "extraction_timestamp": "2025-06-07T17:28:56.660Z",
    "source_name": "google",
    "source_query": "Irrigation Equipment",
    "source_country": "PL",
    "country": "Poland",
    "state": "Greater Poland Voivodeship",
    "city": "Ujście"
  },
  {
    "source_id": "ChIJe5Fvwef6A0cRxqF2-5tdmF0",
    "name": "Jar-Mot",
    "category": "Jar-Mot",
    "formatted_address": "4,4(9)",
    "phone_number": "+48515127666",
    "source_url": "https://www.google.com/maps/place/Jar-Mot/data=!4m7!3m6!1s0x4703fae7c16f917b:0x5d985d9bfb76a1c6!8m2!3d53.052866!4d16.733401!16s%2Fg%2F1tfbgfdg!19sChIJe5Fvwef6A0cRxqF2-5tdmF0?authuser=0&hl=tr&rclk=1",
    "website_url": "",
    "rating_text": "4,4",
    "stars": null,
    "number_of_reviews": null,
    "price_level": "",
    "open_hours": "",
    "extraction_timestamp": "2025-06-07T17:28:56.661Z",
    "source_name": "google",
    "source_query": "Irrigation Equipment",
    "source_country": "PL",
    "country": "Poland",
    "state": "Greater Poland Voivodeship",
    "city": "Ujście"
  },
  {
    "source_id": "ChIJ8XxKVbb7A0cR5JWcm2wBods",
    "name": "Delikatesy Aga",
    "category": "Delikatesy Aga",
    "formatted_address": "4,2(12)",
    "phone_number": "",
    "source_url": "https://www.google.com/maps/place/Delikatesy+Aga/data=!4m7!3m6!1s0x4703fbb6554a7cf1:0xdba1016c9b9c95e4!8m2!3d53.0532528!4d16.7265618!16s%2Fg%2F11fmgpjtdm!19sChIJ8XxKVbb7A0cR5JWcm2wBods?authuser=0&hl=tr&rclk=1",
    "website_url": "",
    "rating_text": "4,2",
    "stars": null,
    "number_of_reviews": null,
    "price_level": "",
    "open_hours": "",
    "extraction_timestamp": "2025-06-07T17:28:56.662Z",
    "source_name": "google",
    "source_query": "Irrigation Equipment",
    "source_country": "PL",
    "country": "Poland",
    "state": "Greater Poland Voivodeship",
    "city": "Ujście"
  },
  {
    "source_id": "ChIJA10tFJf7A0cRJ2WP9xCoeTw",
    "name": "Piekarnia Sendal Ujście",
    "category": "Piekarnia Sendal Ujście",
    "formatted_address": "4,3(4) · zł 1–20",
    "phone_number": "+48508129657",
    "source_url": "https://www.google.com/maps/place/Piekarnia+Sendal+Uj%C5%9Bcie/data=!4m7!3m6!1s0x4703fb97142d5d03:0x3c79a810f78f6527!8m2!3d53.0538896!4d16.7342068!16s%2Fg%2F11vdtxxty_!19sChIJA10tFJf7A0cRJ2WP9xCoeTw?authuser=0&hl=tr&rclk=1",
    "website_url": "",
    "rating_text": "4,3",
    "stars": null,
    "number_of_reviews": null,
    "price_level": "",
    "open_hours": "",
    "extraction_timestamp": "2025-06-07T17:28:56.663Z",
    "source_name": "google",
    "source_query": "Irrigation Equipment",
    "source_country": "PL",
    "country": "Poland",
    "state": "Greater Poland Voivodeship",
    "city": "Ujście"
  },
  {
    "source_id": "ChIJNxHll-f6A0cRJ8X8gMms640",
    "name": "Aldo. Apteka. Błaszczyk-Juszkiewicz D., mgr farm.",
    "category": "Aldo. Apteka. Błaszczyk-Juszkiewicz D., mgr farm.",
    "formatted_address": "Aldo. Apteka. Błaszczyk-Juszkiewicz D., mgr farm.",
    "phone_number": "+48672840038",
    "source_url": "https://www.google.com/maps/place/Aldo.+Apteka.+B%C5%82aszczyk-Juszkiewicz+D.,+mgr+farm./data=!4m7!3m6!1s0x4703fae797e51137:0x8debacc980fcc527!8m2!3d53.052866!4d16.733401!16s%2Fg%2F1tvt910j!19sChIJNxHll-f6A0cRJ8X8gMms640?authuser=0&hl=tr&rclk=1",
    "website_url": "",
    "rating_text": "5,0",
    "stars": null,
    "number_of_reviews": null,
    "price_level": "",
    "open_hours": "",
    "extraction_timestamp": "2025-06-07T17:28:56.664Z",
    "source_name": "google",
    "source_query": "Irrigation Equipment",
    "source_country": "PL",
    "country": "Poland",
    "state": "Greater Poland Voivodeship",
    "city": "Ujście"
  },
  {
    "source_id": "ChIJL9kpltkRA0cR5VJ7_B5iLqI",
    "name": "Ogrody Wojciech Maciejewski - Zakładanie i pielęgnacja ogrodów oraz trawników",
    "category": "Ogrody Wojciech Maciejewski - Zakładanie i pielęgnacja ogrodów oraz trawników",
    "formatted_address": "4,8(27)",
    "phone_number": "+48509574767",
    "source_url": "https://www.google.com/maps/place/Ogrody+Wojciech+Maciejewski+-+Zak%C5%82adanie+i+piel%C4%99gnacja+ogrod%C3%B3w+oraz+trawnik%C3%B3w/data=!4m7!3m6!1s0x470311d99629d92f:0xa22e621efc7b52e5!8m2!3d53.1900016!4d17.9591631!16s%2Fg%2F11ddx77c48!19sChIJL9kpltkRA0cR5VJ7_B5iLqI?authuser=0&hl=tr&rclk=1",
    "website_url": "",
    "rating_text": "4,8",
    "stars": null,
    "number_of_reviews": null,
    "price_level": "",
    "open_hours": "",
    "extraction_timestamp": "2025-06-07T17:28:56.664Z",
    "source_name": "google",
    "source_query": "Irrigation Equipment",
    "source_country": "PL",
    "country": "Poland",
    "state": "Greater Poland Voivodeship",
    "city": "Ujście"
  },
  {
    "source_id": "ChIJ_T6uO4PmA0cRdGix0unxmq8",
    "name": "Sanpol Piła- hurtownia instalacyjna, hydrauliczna, sanitarna",
    "category": "Sanpol Piła- hurtownia instalacyjna, hydrauliczna, sanitarna",
    "formatted_address": "Sanpol Piła- hurtownia instalacyjna, hydrauliczna, sanitarna",
    "phone_number": "+48618746839",
    "source_url": "https://www.google.com/maps/place/Sanpol+Pi%C5%82a-+hurtownia+instalacyjna,+hydrauliczna,+sanitarna/data=!4m7!3m6!1s0x4703e6833bae3efd:0xaf9af1e9d2b16874!8m2!3d53.1622044!4d16.7706962!16s%2Fg%2F11g_609mv!19sChIJ_T6uO4PmA0cRdGix0unxmq8?authuser=0&hl=tr&rclk=1",
    "website_url": "",
    "rating_text": "4,9",
    "stars": null,
    "number_of_reviews": null,
    "price_level": "",
    "open_hours": "",
    "extraction_timestamp": "2025-06-07T17:28:56.665Z",
    "source_name": "google",
    "source_query": "Irrigation Equipment",
    "source_country": "PL",
    "country": "Poland",
    "state": "Greater Poland Voivodeship",
    "city": "Ujście"
  },
  {
    "source_id": "ChIJY8cslk-LA0cRaOKNT4djDj0",
    "name": "Zakuwanie Węży Hydraulicznych Jędruś",
    "category": "Zakuwanie Węży Hydraulicznych Jędruś",
    "formatted_address": "5,0(11)",
    "phone_number": "+48603049940",
    "source_url": "https://www.google.com/maps/place/Zakuwanie+W%C4%99%C5%BCy+Hydraulicznych+J%C4%99dru%C5%9B/data=!4m7!3m6!1s0x47038b4f962cc763:0x3d0e63874f8de268!8m2!3d52.8964115!4d16.9791463!16s%2Fg%2F11y1sg_qm2!19sChIJY8cslk-LA0cRaOKNT4djDj0?authuser=0&hl=tr&rclk=1",
    "website_url": "",
    "rating_text": "5,0",
    "stars": null,
    "number_of_reviews": null,
    "price_level": "",
    "open_hours": "",
    "extraction_timestamp": "2025-06-07T17:28:56.666Z",
    "source_name": "google",
    "source_query": "Irrigation Equipment",
    "source_country": "PL",
    "country": "Poland",
    "state": "Greater Poland Voivodeship",
    "city": "Ujście"
  },
  {
    "source_id": "ChIJkSifA7nmA0cRWp6QLcycI1U",
    "name": "PPHU Technologie Grzewcze i Sanitarne",
    "category": "PPHU Technologie Grzewcze i Sanitarne",
    "formatted_address": "4,5(20)",
    "phone_number": "+48667749588",
    "source_url": "https://www.google.com/maps/place/PPHU+Technologie+Grzewcze+i+Sanitarne/data=!4m7!3m6!1s0x4703e6b9039f2891:0x55239ccc2d909e5a!8m2!3d53.1625658!4d16.76349!16s%2Fg%2F1tczp1h6!19sChIJkSifA7nmA0cRWp6QLcycI1U?authuser=0&hl=tr&rclk=1",
    "website_url": "",
    "rating_text": "4,5",
    "stars": null,
    "number_of_reviews": null,
    "price_level": "",
    "open_hours": "",
    "extraction_timestamp": "2025-06-07T17:28:56.667Z",
    "source_name": "google",
    "source_query": "Irrigation Equipment",
    "source_country": "PL",
    "country": "Poland",
    "state": "Greater Poland Voivodeship",
    "city": "Ujście"
  },
  {
    "source_id": "ChIJpeQT47nmA0cRias_L0-_P7c",
    "name": "Hydraulik Mikołajczak Przyłącza Sieci Wodociągowe Kanalizacyjne Pompownie Ścieków",
    "category": "Hydraulik Mikołajczak Przyłącza Sieci Wodociągowe Kanalizacyjne Pompownie Ścieków",
    "formatted_address": "5,0(4)",
    "phone_number": "+48672150941",
    "source_url": "https://www.google.com/maps/place/Hydraulik+Miko%C5%82ajczak+Przy%C5%82%C4%85cza+Sieci+Wodoci%C4%85gowe+Kanalizacyjne+Pompownie+%C5%9Aciek%C3%B3w/data=!4m7!3m6!1s0x4703e6b9e313e4a5:0xb73fbf4f2f3fab89!8m2!3d53.1678651!4d16.7209274!16s%2Fg%2F1hc21hmhc!19sChIJpeQT47nmA0cRias_L0-_P7c?authuser=0&hl=tr&rclk=1",
    "website_url": "",
    "rating_text": "5,0",
    "stars": null,
    "number_of_reviews": null,
    "price_level": "",
    "open_hours": "",
    "extraction_timestamp": "2025-06-07T17:28:56.668Z",
    "source_name": "google",
    "source_query": "Irrigation Equipment",
    "source_country": "PL",
    "country": "Poland",
    "state": "Greater Poland Voivodeship",
    "city": "Ujście"
  },
  {
    "source_id": "ChIJcX4-4o9dAUcRB22ErTG162E",
    "name": "Hydrogaz Wałcz, Autoryzowany Partner Bosch Termotechnika",
    "category": "Hydrogaz Wałcz, Autoryzowany Partner Bosch Termotechnika",
    "formatted_address": "Hydrogaz Wałcz, Autoryzowany Partner Bosch Termotechnika",
    "phone_number": "+48604804101",
    "source_url": "https://www.google.com/maps/place/Hydrogaz+Wa%C5%82cz,+Autoryzowany+Partner+Bosch+Termotechnika/data=!4m7!3m6!1s0x47015d8fe23e7e71:0x61ebb531ad846d07!8m2!3d53.2712239!4d16.4851697!16s%2Fg%2F1tfslp9s!19sChIJcX4-4o9dAUcRB22ErTG162E?authuser=0&hl=tr&rclk=1",
    "website_url": "",
    "rating_text": "5,0",
    "stars": null,
    "number_of_reviews": null,
    "price_level": "",
    "open_hours": "",
    "extraction_timestamp": "2025-06-07T17:28:56.669Z",
    "source_name": "google",
    "source_query": "Irrigation Equipment",
    "source_country": "PL",
    "country": "Poland",
    "state": "Greater Poland Voivodeship",
    "city": "Ujście"
  },
  {
    "source_id": "ChIJv6ydzSgUA0cRfirMTkSnw1M",
    "name": "Drugie ujście Brdy do Wisły",
    "category": "Drugie ujście Brdy do Wisły",
    "formatted_address": "4,5(59)",
    "phone_number": "",
    "source_url": "https://www.google.com/maps/place/Drugie+uj%C5%9Bcie+Brdy+do+Wis%C5%82y/data=!4m7!3m6!1s0x47031428cd9dacbf:0x53c3a7444ecc2a7e!8m2!3d53.1313373!4d18.1389364!16s%2Fg%2F11bz08jywp!19sChIJv6ydzSgUA0cRfirMTkSnw1M?authuser=0&hl=tr&rclk=1",
    "website_url": "",
    "rating_text": "4,5",
    "stars": null,
    "number_of_reviews": null,
    "price_level": "",
    "open_hours": "",
    "extraction_timestamp": "2025-06-07T17:28:56.669Z",
    "source_name": "google",
    "source_query": "Irrigation Equipment",
    "source_country": "PL",
    "country": "Poland",
    "state": "Greater Poland Voivodeship",
    "city": "Ujście"
  },
  {
    "source_id": "ChIJZecWjCbkA0cRQG2pFfDiHiY",
    "name": "Pompy Ciepła Piła Sklep Instalacyjny Hydrauliczny M.K Piece CO Gazowe Pellet Ekogroszek",
    "category": "Pompy Ciepła Piła Sklep Instalacyjny Hydrauliczny M.K Piece CO Gazowe Pellet Ekogroszek",
    "formatted_address": "4,6(17)",
    "phone_number": "+48604873308",
    "source_url": "https://www.google.com/maps/place/Pompy+Ciep%C5%82a+Pi%C5%82a+Sklep+Instalacyjny+Hydrauliczny+M.K+Piece+CO+Gazowe+Pellet+Ekogroszek/data=!4m7!3m6!1s0x4703e4268c16e765:0x261ee2f015a96d40!8m2!3d53.1354202!4d16.7543784!16s%2Fg%2F1vp6yx14!19sChIJZecWjCbkA0cRQG2pFfDiHiY?authuser=0&hl=tr&rclk=1",
    "website_url": "",
    "rating_text": "4,6",
    "stars": null,
    "number_of_reviews": null,
    "price_level": "",
    "open_hours": "",
    "extraction_timestamp": "2025-06-07T17:28:56.670Z",
    "source_name": "google",
    "source_query": "Irrigation Equipment",
    "source_country": "PL",
    "country": "Poland",
    "state": "Greater Poland Voivodeship",
    "city": "Ujście"
  },
  {
    "source_id": "ChIJC6WtWUwVA0cRmJdWN4BlY7A",
    "name": "Ciche Ciepło - pompy ciepła, piece na pellet, instalacje fotowoltaiczne i magazyny energii Bydgoszcz",
    "category": "Ciche Ciepło - pompy ciepła, piece na pellet, instalacje fotowoltaiczne i magazyny energii Bydgoszcz",
    "formatted_address": "Ciche Ciepło - pompy ciepła, piece na pellet, instalacje fotowoltaiczne i magazyny energii Bydgoszcz",
    "phone_number": "+48576305658",
    "source_url": "https://www.google.com/maps/place/Ciche+Ciep%C5%82o+-+pompy+ciep%C5%82a,+piece+na+pellet,+instalacje+fotowoltaiczne+i+magazyny+energii+Bydgoszcz/data=!4m7!3m6!1s0x4703154c59ada50b:0xb063658037569798!8m2!3d53.0286902!4d18.0155095!16s%2Fg%2F11rq2vrc0h!19sChIJC6WtWUwVA0cRmJdWN4BlY7A?authuser=0&hl=tr&rclk=1",
    "website_url": "",
    "rating_text": "4,8",
    "stars": null,
    "number_of_reviews": null,
    "price_level": "",
    "open_hours": "",
    "extraction_timestamp": "2025-06-07T17:28:56.671Z",
    "source_name": "google",
    "source_query": "Irrigation Equipment",
    "source_country": "PL",
    "country": "Poland",
    "state": "Greater Poland Voivodeship",
    "city": "Ujście"
  },
  {
    "source_id": "ChIJw8QPLtIABEcRSnudYYyp6GQ",
    "name": "Sanit-El Sp.J. Hurtownia materiałów instalacyjnych",
    "category": "Sanit-El Sp.J. Hurtownia materiałów instalacyjnych",
    "formatted_address": "4,7(27)",
    "phone_number": "+48672555214",
    "source_url": "https://www.google.com/maps/place/Sanit-El+Sp.J.+Hurtownia+materia%C5%82%C3%B3w+instalacyjnych/data=!4m7!3m6!1s0x470400d22e0fc4c3:0x64e8a98c619d7b4a!8m2!3d52.8917003!4d16.5449032!16s%2Fg%2F1tfjjv4j!19sChIJw8QPLtIABEcRSnudYYyp6GQ?authuser=0&hl=tr&rclk=1",
    "website_url": "",
    "rating_text": "4,7",
    "stars": null,
    "number_of_reviews": null,
    "price_level": "",
    "open_hours": "",
    "extraction_timestamp": "2025-06-07T17:28:56.672Z",
    "source_name": "google",
    "source_query": "Irrigation Equipment",
    "source_country": "PL",
    "country": "Poland",
    "state": "Greater Poland Voivodeship",
    "city": "Ujście"
  }
]
