[
  {
    "source_id": "ChIJKasctIS5BUcReGZjmggxnME",
    "name": "Firma Handlowa RYNMAR Tadeusz Cichoszewski",
    "category": "Firma Handlowa RYNMAR Tadeusz Cichoszewski",
    "formatted_address": "4,8(4)",
    "phone_number": "+48655180598",
    "source_url": "https://www.google.com/maps/place/Firma+Handlowa+RYNMAR+Tadeusz+Cichoszewski/data=!4m7!3m6!1s0x4705b984b41cab29:0xc19c31089a636678!8m2!3d52.0159304!4d16.5205747!16s%2Fg%2F1tlc6s5w!19sChIJKasctIS5BUcReGZjmggxnME?authuser=0&hl=tr&rclk=1",
    "website_url": "http://www.rynmar.pl/",
    "rating_text": "4,8",
    "stars": null,
    "number_of_reviews": null,
    "price_level": "",
    "open_hours": "",
    "extraction_timestamp": "2025-06-07T17:37:47.654Z",
    "source_name": "google",
    "source_query": "Irrigation Equipment",
    "source_country": "PL",
    "country": "Poland",
    "state": "Greater Poland Voivodeship",
    "city": "Wielichowo"
  },
  {
    "source_id": "ChIJJZ_KXNbIBUcRDXSLmMcWiak",
    "name": "Monopolowy",
    "category": "Monopolowy",
    "formatted_address": "4,7(14)",
    "phone_number": "",
    "source_url": "https://www.google.com/maps/place/Monopolowy/data=!4m7!3m6!1s0x4705c8d65cca9f25:0xa98916c7988b740d!8m2!3d52.1187151!4d16.3516845!16s%2Fg%2F11ghp3g6hv!19sChIJJZ_KXNbIBUcRDXSLmMcWiak?authuser=0&hl=tr&rclk=1",
    "website_url": "",
    "rating_text": "4,7",
    "stars": null,
    "number_of_reviews": null,
    "price_level": "",
    "open_hours": "",
    "extraction_timestamp": "2025-06-07T17:37:47.656Z",
    "source_name": "google",
    "source_query": "Irrigation Equipment",
    "source_country": "PL",
    "country": "Poland",
    "state": "Greater Poland Voivodeship",
    "city": "Wielichowo"
  },
  {
    "source_id": "ChIJdRnGeDBaBEcRpyx7M8s1JkQ",
    "name": "Wirtgen Polska Sp. z o.o.",
    "category": "Wirtgen Polska Sp. z o.o.",
    "formatted_address": "4,4(31)",
    "phone_number": "+48618982100",
    "source_url": "https://www.google.com/maps/place/Wirtgen+Polska+Sp.+z+o.o./data=!4m7!3m6!1s0x47045a3078c61975:0x442635cb337b2ca7!8m2!3d52.3665338!4d16.9940075!16s%2Fg%2F1pv043rwn!19sChIJdRnGeDBaBEcRpyx7M8s1JkQ?authuser=0&hl=tr&rclk=1",
    "website_url": "https://www.wirtgen-group.com/polska/",
    "rating_text": "4,4",
    "stars": null,
    "number_of_reviews": null,
    "price_level": "",
    "open_hours": "",
    "extraction_timestamp": "2025-06-07T17:37:47.658Z",
    "source_name": "google",
    "source_query": "Irrigation Equipment",
    "source_country": "PL",
    "country": "Poland",
    "state": "Greater Poland Voivodeship",
    "city": "Wielichowo"
  },
  {
    "source_id": "ChIJL8w-nUHPBUcRR606uTVZMUE",
    "name": "Dino",
    "category": "Dino",
    "formatted_address": "4,2(197)",
    "phone_number": "",
    "source_url": "https://www.google.com/maps/place/Dino/data=!4m7!3m6!1s0x4705cf419d3ecc2f:0x41315935b93aad47!8m2!3d52.1195849!4d16.3465655!16s%2Fg%2F11pblnr87r!19sChIJL8w-nUHPBUcRR606uTVZMUE?authuser=0&hl=tr&rclk=1",
    "website_url": "https://marketdino.pl/",
    "rating_text": "4,2",
    "stars": null,
    "number_of_reviews": null,
    "price_level": "",
    "open_hours": "",
    "extraction_timestamp": "2025-06-07T17:37:47.660Z",
    "source_name": "google",
    "source_query": "Irrigation Equipment",
    "source_country": "PL",
    "country": "Poland",
    "state": "Greater Poland Voivodeship",
    "city": "Wielichowo"
  },
  {
    "source_id": "ChIJNfbV4m_JBUcR8fRbqlKAqAA",
    "name": "Biedronka",
    "category": "Biedronka",
    "formatted_address": "4,4(42)",
    "phone_number": "+48800080010",
    "source_url": "https://www.google.com/maps/place/Biedronka/data=!4m7!3m6!1s0x4705c96fe2d5f635:0xa88052aa5bf4f1!8m2!3d52.12293!4d16.3575509!16s%2Fg%2F11y2h3pvbv!19sChIJNfbV4m_JBUcR8fRbqlKAqAA?authuser=0&hl=tr&rclk=1",
    "website_url": "https://www.biedronka.pl/pl?utm_source=gmb",
    "rating_text": "4,4",
    "stars": null,
    "number_of_reviews": null,
    "price_level": "",
    "open_hours": "",
    "extraction_timestamp": "2025-06-07T17:37:47.661Z",
    "source_name": "google",
    "source_query": "Irrigation Equipment",
    "source_country": "PL",
    "country": "Poland",
    "state": "Greater Poland Voivodeship",
    "city": "Wielichowo"
  },
  {
    "source_id": "ChIJJaUKWNl7G0cR7ntWKxioINo",
    "name": "Agricola Hydraulika Siłowa",
    "category": "Agricola Hydraulika Siłowa",
    "formatted_address": "4,6(239)",
    "phone_number": "+48542844000",
    "source_url": "https://www.google.com/maps/place/Agricola+Hydraulika+Si%C5%82owa/data=!4m7!3m6!1s0x471b7bd9580aa525:0xda20a8182b567bee!8m2!3d52.4025839!4d19.1676066!16s%2Fg%2F1tk8mbkz!19sChIJJaUKWNl7G0cR7ntWKxioINo?authuser=0&hl=tr&rclk=1",
    "website_url": "http://www.sklepdlarolnika.pl/",
    "rating_text": "4,6",
    "stars": null,
    "number_of_reviews": null,
    "price_level": "",
    "open_hours": "",
    "extraction_timestamp": "2025-06-07T17:37:47.663Z",
    "source_name": "google",
    "source_query": "Irrigation Equipment",
    "source_country": "PL",
    "country": "Poland",
    "state": "Greater Poland Voivodeship",
    "city": "Wielichowo"
  },
  {
    "source_id": "ChIJB6y_v5J2HEcRlDfYx3xmc9M",
    "name": "Milex irrigation systems",
    "category": "Milex irrigation systems",
    "formatted_address": "4,6(37)",
    "phone_number": "+48242775222",
    "source_url": "https://www.google.com/maps/place/Milex+irrigation+systems/data=!4m7!3m6!1s0x471c7692bfbfac07:0xd373667cc7d83794!8m2!3d52.4690634!4d19.7520904!16s%2Fg%2F1w2yy67r!19sChIJB6y_v5J2HEcRlDfYx3xmc9M?authuser=0&hl=tr&rclk=1",
    "website_url": "https://www.milex.pl/",
    "rating_text": "4,6",
    "stars": null,
    "number_of_reviews": null,
    "price_level": "",
    "open_hours": "",
    "extraction_timestamp": "2025-06-07T17:37:47.665Z",
    "source_name": "google",
    "source_query": "Irrigation Equipment",
    "source_country": "PL",
    "country": "Poland",
    "state": "Greater Poland Voivodeship",
    "city": "Wielichowo"
  },
  {
    "source_id": "ChIJ82fDPAv7BEcR0t557L9SvKI",
    "name": "Agro-Weld Arkadiusz Cegłowski",
    "category": "Agro-Weld Arkadiusz Cegłowski",
    "formatted_address": "5,0(15)",
    "phone_number": "+48725140257",
    "source_url": "https://www.google.com/maps/place/Agro-Weld+Arkadiusz+Ceg%C5%82owski/data=!4m7!3m6!1s0x4704fb0b3cc367f3:0xa2bc52bfec79ded2!8m2!3d52.2281481!4d17.2572359!16s%2Fg%2F11gbf9cdj_!19sChIJ82fDPAv7BEcR0t557L9SvKI?authuser=0&hl=tr&rclk=1",
    "website_url": "https://agro-weld.pl/",
    "rating_text": "5,0",
    "stars": null,
    "number_of_reviews": null,
    "price_level": "",
    "open_hours": "",
    "extraction_timestamp": "2025-06-07T17:37:47.667Z",
    "source_name": "google",
    "source_query": "Irrigation Equipment",
    "source_country": "PL",
    "country": "Poland",
    "state": "Greater Poland Voivodeship",
    "city": "Wielichowo"
  },
  {
    "source_id": "ChIJz0SiU1hQBEcReGRvYjOdQnE",
    "name": "Powers Maszyny Sp z o.o.",
    "category": "Powers Maszyny Sp z o.o.",
    "formatted_address": "4,6(12)",
    "phone_number": "+48616247552",
    "source_url": "https://www.google.com/maps/place/Powers+Maszyny+Sp+z+o.o./data=!4m7!3m6!1s0x4704505853a244cf:0x71429d33626f6478!8m2!3d52.3151282!4d16.9125351!16s%2Fg%2F1pp2vcph4!19sChIJz0SiU1hQBEcReGRvYjOdQnE?authuser=0&hl=tr&rclk=1",
    "website_url": "http://www.powers.pl/",
    "rating_text": "4,6",
    "stars": null,
    "number_of_reviews": null,
    "price_level": "",
    "open_hours": "",
    "extraction_timestamp": "2025-06-07T17:37:47.668Z",
    "source_name": "google",
    "source_query": "Irrigation Equipment",
    "source_country": "PL",
    "country": "Poland",
    "state": "Greater Poland Voivodeship",
    "city": "Wielichowo"
  },
  {
    "source_id": "ChIJLYNWydXIBUcRC9PIUCANPs0",
    "name": "DOZ Apteka dbam o zdrowie",
    "category": "DOZ Apteka dbam o zdrowie",
    "formatted_address": "4,4(14)",
    "phone_number": "+48800110110",
    "source_url": "https://www.google.com/maps/place/DOZ+Apteka+dbam+o+zdrowie/data=!4m7!3m6!1s0x4705c8d5c956832d:0xcd3e0d2050c8d30b!8m2!3d52.1188519!4d16.3479809!16s%2Fg%2F11flvvvnms!19sChIJLYNWydXIBUcRC9PIUCANPs0?authuser=0&hl=tr&rclk=1",
    "website_url": "https://www.doz.pl/apteki/m3076-Wielichowo",
    "rating_text": "4,4",
    "stars": null,
    "number_of_reviews": null,
    "price_level": "",
    "open_hours": "",
    "extraction_timestamp": "2025-06-07T17:37:47.670Z",
    "source_name": "google",
    "source_query": "Irrigation Equipment",
    "source_country": "PL",
    "country": "Poland",
    "state": "Greater Poland Voivodeship",
    "city": "Wielichowo"
  }
]
