[
  {
    "source_id": "ChIJW38ZFgeuBkcReDutQnahUa0",
    "name": "Bermet Hurt-Detal Materiałów Ogólnobudowlanych Bernadeta Dymek",
    "category": "Bermet Hurt-Detal Materiałów Ogólnobudowlanych Bernadeta Dymek",
    "formatted_address": "4,7(163)",
    "phone_number": "+48672561169",
    "source_url": "https://www.google.com/maps/place/Bermet+Hurt-Detal+Materia%C5%82%C3%B3w+Og%C3%B3lnobudowlanych+Bernadeta+Dymek/data=!4m7!3m6!1s0x4706ae0716197f5b:0xad51a17642ad3b78!8m2!3d52.8898286!4d16.1675979!16s%2Fg%2F1tj7293m!19sChIJW38ZFgeuBkcReDutQnahUa0?authuser=0&hl=tr&rclk=1",
    "website_url": "",
    "rating_text": "4,7",
    "stars": null,
    "number_of_reviews": null,
    "price_level": "",
    "open_hours": "",
    "extraction_timestamp": "2025-06-07T17:32:43.612Z",
    "source_name": "google",
    "source_query": "Irrigation Equipment",
    "source_country": "PL",
    "country": "Poland",
    "state": "Greater Poland Voivodeship",
    "city": "Wieleń"
  },
  {
    "source_id": "ChIJr4XouQ2uBkcRrMMpdXW-XzQ",
    "name": "Metal-Serwis Wieleń Produkcja przewodów hydraulicznych przemysłowych",
    "category": "Metal-Serwis Wieleń Produkcja przewodów hydraulicznych przemysłowych",
    "formatted_address": "4,6(13)",
    "phone_number": "+48603109401",
    "source_url": "https://www.google.com/maps/place/Metal-Serwis+Wiele%C5%84+Produkcja+przewod%C3%B3w+hydraulicznych+przemys%C5%82owych/data=!4m7!3m6!1s0x4706ae0db9e885af:0x345fbe757529c3ac!8m2!3d52.872522!4d16.3183166!16s%2Fg%2F11b7lf2_1s!19sChIJr4XouQ2uBkcRrMMpdXW-XzQ?authuser=0&hl=tr&rclk=1",
    "website_url": "",
    "rating_text": "4,6",
    "stars": null,
    "number_of_reviews": null,
    "price_level": "",
    "open_hours": "",
    "extraction_timestamp": "2025-06-07T17:32:43.612Z",
    "source_name": "google",
    "source_query": "Irrigation Equipment",
    "source_country": "PL",
    "country": "Poland",
    "state": "Greater Poland Voivodeship",
    "city": "Wieleń"
  },
  {
    "source_id": "ChIJA4-ZjQWuBkcRN0Q0JPwtwl0",
    "name": "EL-DRUT Sp. z o.o. Hurtownia elektryczna i elektrotechniczna, druty nawojowe",
    "category": "EL-DRUT Sp. z o.o. Hurtownia elektryczna i elektrotechniczna, druty nawojowe",
    "formatted_address": "EL-DRUT Sp. z o.o. Hurtownia elektryczna i elektrotechniczna, druty nawojowe",
    "phone_number": "+48672561195",
    "source_url": "https://www.google.com/maps/place/EL-DRUT+Sp.+z+o.o.+Hurtownia+elektryczna+i+elektrotechniczna,+druty+nawojowe/data=!4m7!3m6!1s0x4706ae058d998f03:0x5dc22dfc24344437!8m2!3d52.884243!4d16.169405!16s%2Fg%2F1tl0w0zk!19sChIJA4-ZjQWuBkcRN0Q0JPwtwl0?authuser=0&hl=tr&rclk=1",
    "website_url": "",
    "rating_text": "5,0",
    "stars": null,
    "number_of_reviews": null,
    "price_level": "",
    "open_hours": "",
    "extraction_timestamp": "2025-06-07T17:32:43.613Z",
    "source_name": "google",
    "source_query": "Irrigation Equipment",
    "source_country": "PL",
    "country": "Poland",
    "state": "Greater Poland Voivodeship",
    "city": "Wieleń"
  },
  {
    "source_id": "ChIJ494OpjetBkcRLf5pmlMnYBw",
    "name": "KARP - TECH s.c. Piotr i Jarosław Karpczak",
    "category": "KARP - TECH s.c. Piotr i Jarosław Karpczak",
    "formatted_address": "5,0(7)",
    "phone_number": "+48785226709",
    "source_url": "https://www.google.com/maps/place/KARP+-+TECH+s.c.+Piotr+i+Jaros%C5%82aw+Karpczak/data=!4m7!3m6!1s0x4706ad37a60edee3:0x1c6027539a69fe2d!8m2!3d52.8939658!4d16.1709465!16s%2Fg%2F11p06q68rh!19sChIJ494OpjetBkcRLf5pmlMnYBw?authuser=0&hl=tr&rclk=1",
    "website_url": "",
    "rating_text": "5,0",
    "stars": null,
    "number_of_reviews": null,
    "price_level": "",
    "open_hours": "",
    "extraction_timestamp": "2025-06-07T17:32:43.613Z",
    "source_name": "google",
    "source_query": "Irrigation Equipment",
    "source_country": "PL",
    "country": "Poland",
    "state": "Greater Poland Voivodeship",
    "city": "Wieleń"
  },
  {
    "source_id": "ChIJUfn2Ig35A0cREW9fZ4029UM",
    "name": "IMTechnika sp. z o.o.",
    "category": "IMTechnika sp. z o.o.",
    "formatted_address": "4,4(17)",
    "phone_number": "+48883820388",
    "source_url": "https://www.google.com/maps/place/IMTechnika+sp.+z+o.o./data=!4m7!3m6!1s0x4703f90d22f6f951:0x43f5368d675f6f11!8m2!3d52.9756271!4d16.657836!16s%2Fg%2F11bw48_6mg!19sChIJUfn2Ig35A0cREW9fZ4029UM?authuser=0&hl=tr&rclk=1",
    "website_url": "",
    "rating_text": "4,4",
    "stars": null,
    "number_of_reviews": null,
    "price_level": "",
    "open_hours": "",
    "extraction_timestamp": "2025-06-07T17:32:43.613Z",
    "source_name": "google",
    "source_query": "Irrigation Equipment",
    "source_country": "PL",
    "country": "Poland",
    "state": "Greater Poland Voivodeship",
    "city": "Wieleń"
  },
  {
    "source_id": "ChIJ_UMCs_2tBkcRj65Y4Q4rN-8",
    "name": "PPHU Marko NeoPunkt Wieleń",
    "category": "PPHU Marko NeoPunkt Wieleń",
    "formatted_address": "4,6(40)",
    "phone_number": "+48672562294",
    "source_url": "https://www.google.com/maps/place/PPHU+Marko+NeoPunkt+Wiele%C5%84/data=!4m7!3m6!1s0x4706adfdb30243fd:0xef372b0ee158ae8f!8m2!3d52.893797!4d16.170697!16s%2Fg%2F1hc2mc6j7!19sChIJ_UMCs_2tBkcRj65Y4Q4rN-8?authuser=0&hl=tr&rclk=1",
    "website_url": "",
    "rating_text": "4,6",
    "stars": null,
    "number_of_reviews": null,
    "price_level": "",
    "open_hours": "",
    "extraction_timestamp": "2025-06-07T17:32:43.643Z",
    "source_name": "google",
    "source_query": "Irrigation Equipment",
    "source_country": "PL",
    "country": "Poland",
    "state": "Greater Poland Voivodeship",
    "city": "Wieleń"
  },
  {
    "source_id": "ChIJB6y_v5J2HEcRlDfYx3xmc9M",
    "name": "Milex irrigation systems",
    "category": "Milex irrigation systems",
    "formatted_address": "4,6(37)",
    "phone_number": "+48242775222",
    "source_url": "https://www.google.com/maps/place/Milex+irrigation+systems/data=!4m7!3m6!1s0x471c7692bfbfac07:0xd373667cc7d83794!8m2!3d52.4690634!4d19.7520904!16s%2Fg%2F1w2yy67r!19sChIJB6y_v5J2HEcRlDfYx3xmc9M?authuser=0&hl=tr&rclk=1",
    "website_url": "",
    "rating_text": "4,6",
    "stars": null,
    "number_of_reviews": null,
    "price_level": "",
    "open_hours": "",
    "extraction_timestamp": "2025-06-07T17:32:43.644Z",
    "source_name": "google",
    "source_query": "Irrigation Equipment",
    "source_country": "PL",
    "country": "Poland",
    "state": "Greater Poland Voivodeship",
    "city": "Wieleń"
  },
  {
    "source_id": "ChIJeTwZnMrPBUcRBqaTqyEHnTo",
    "name": "Authorized Dealer JCB | P.P.H.U. Gałkowski Szymon",
    "category": "Authorized Dealer JCB | P.P.H.U. Gałkowski Szymon",
    "formatted_address": "4,7(122)",
    "phone_number": "+48614443225",
    "source_url": "https://www.google.com/maps/place/Authorized+Dealer+JCB+%7C+P.P.H.U.+Ga%C5%82kowski+Szymon/data=!4m7!3m6!1s0x4705cfca9c193c79:0x3a9d0721ab93a606!8m2!3d52.132983!4d16.2563408!16s%2Fg%2F1tppqp28!19sChIJeTwZnMrPBUcRBqaTqyEHnTo?authuser=0&hl=tr&rclk=1",
    "website_url": "",
    "rating_text": "4,7",
    "stars": null,
    "number_of_reviews": null,
    "price_level": "",
    "open_hours": "",
    "extraction_timestamp": "2025-06-07T17:32:43.645Z",
    "source_name": "google",
    "source_query": "Irrigation Equipment",
    "source_country": "PL",
    "country": "Poland",
    "state": "Greater Poland Voivodeship",
    "city": "Wieleń"
  },
  {
    "source_id": "ChIJY8P0UvytBkcR4iwV7tVFjfI",
    "name": "KAMRAT 15, Sklep monopolowy",
    "category": "KAMRAT 15, Sklep monopolowy",
    "formatted_address": "KAMRAT 15, Sklep monopolowy",
    "phone_number": "",
    "source_url": "https://www.google.com/maps/place/KAMRAT+15,+Sklep+monopolowy/data=!4m7!3m6!1s0x4706adfc52f4c363:0xf28d45d5ee152ce2!8m2!3d52.8940241!4d16.171234!16s%2Fg%2F11c2j21v0n!19sChIJY8P0UvytBkcR4iwV7tVFjfI?authuser=0&hl=tr&rclk=1",
    "website_url": "",
    "rating_text": "4,7",
    "stars": null,
    "number_of_reviews": null,
    "price_level": "",
    "open_hours": "",
    "extraction_timestamp": "2025-06-07T17:32:43.646Z",
    "source_name": "google",
    "source_query": "Irrigation Equipment",
    "source_country": "PL",
    "country": "Poland",
    "state": "Greater Poland Voivodeship",
    "city": "Wieleń"
  },
  {
    "source_id": "ChIJnVDXwj6tBkcRsUuQ1MLvft8",
    "name": "Wiata targowa",
    "category": "Wiata targowa",
    "formatted_address": "4,5(71)",
    "phone_number": "",
    "source_url": "https://www.google.com/maps/place/Wiata+targowa/data=!4m7!3m6!1s0x4706ad3ec2d7509d:0xdf7eefc2d4904bb1!8m2!3d52.8946574!4d16.1746377!16s%2Fg%2F11lpp6d2y6!19sChIJnVDXwj6tBkcRsUuQ1MLvft8?authuser=0&hl=tr&rclk=1",
    "website_url": "",
    "rating_text": "4,5",
    "stars": null,
    "number_of_reviews": null,
    "price_level": "",
    "open_hours": "",
    "extraction_timestamp": "2025-06-07T17:32:43.647Z",
    "source_name": "google",
    "source_query": "Irrigation Equipment",
    "source_country": "PL",
    "country": "Poland",
    "state": "Greater Poland Voivodeship",
    "city": "Wieleń"
  },
  {
    "source_id": "ChIJdRnGeDBaBEcRpyx7M8s1JkQ",
    "name": "Wirtgen Polska Sp. z o.o.",
    "category": "Wirtgen Polska Sp. z o.o.",
    "formatted_address": "4,4(31)",
    "phone_number": "+48618982100",
    "source_url": "https://www.google.com/maps/place/Wirtgen+Polska+Sp.+z+o.o./data=!4m7!3m6!1s0x47045a3078c61975:0x442635cb337b2ca7!8m2!3d52.3665338!4d16.9940075!16s%2Fg%2F1pv043rwn!19sChIJdRnGeDBaBEcRpyx7M8s1JkQ?authuser=0&hl=tr&rclk=1",
    "website_url": "",
    "rating_text": "4,4",
    "stars": null,
    "number_of_reviews": null,
    "price_level": "",
    "open_hours": "",
    "extraction_timestamp": "2025-06-07T17:32:43.648Z",
    "source_name": "google",
    "source_query": "Irrigation Equipment",
    "source_country": "PL",
    "country": "Poland",
    "state": "Greater Poland Voivodeship",
    "city": "Wieleń"
  },
  {
    "source_id": "ChIJJZwIgP2tBkcRgoBmDT6zr4U",
    "name": "Biedronka",
    "category": "Biedronka",
    "formatted_address": "4,0(724)",
    "phone_number": "+48800080010",
    "source_url": "https://www.google.com/maps/place/Biedronka/data=!4m7!3m6!1s0x4706adfd80089c25:0x85afb33e0d668082!8m2!3d52.891086!4d16.1702747!16s%2Fg%2F1tfcxhtn!19sChIJJZwIgP2tBkcRgoBmDT6zr4U?authuser=0&hl=tr&rclk=1",
    "website_url": "",
    "rating_text": "4,0",
    "stars": null,
    "number_of_reviews": null,
    "price_level": "",
    "open_hours": "",
    "extraction_timestamp": "2025-06-07T17:32:43.649Z",
    "source_name": "google",
    "source_query": "Irrigation Equipment",
    "source_country": "PL",
    "country": "Poland",
    "state": "Greater Poland Voivodeship",
    "city": "Wieleń"
  },
  {
    "source_id": "ChIJ23RGfQWuBkcRJ5kzdRFIT1k",
    "name": "Dino",
    "category": "Dino",
    "formatted_address": "4,3(299)",
    "phone_number": "",
    "source_url": "https://www.google.com/maps/place/Dino/data=!4m7!3m6!1s0x4706ae057d4674db:0x594f481175339927!8m2!3d52.8826192!4d16.1693135!16s%2Fg%2F1q67b0sfg!19sChIJ23RGfQWuBkcRJ5kzdRFIT1k?authuser=0&hl=tr&rclk=1",
    "website_url": "",
    "rating_text": "4,3",
    "stars": null,
    "number_of_reviews": null,
    "price_level": "",
    "open_hours": "",
    "extraction_timestamp": "2025-06-07T17:32:43.649Z",
    "source_name": "google",
    "source_query": "Irrigation Equipment",
    "source_country": "PL",
    "country": "Poland",
    "state": "Greater Poland Voivodeship",
    "city": "Wieleń"
  },
  {
    "source_id": "ChIJB-Xd7hitBkcROE7sgVHgeTA",
    "name": "Rynek",
    "category": "Rynek",
    "formatted_address": "4,3(238)",
    "phone_number": "",
    "source_url": "https://www.google.com/maps/place/Rynek/data=!4m7!3m6!1s0x4706ad18eedde507:0x3079e05181ec4e38!8m2!3d52.8949013!4d16.1747738!16s%2Fg%2F11gh9g3sxy!19sChIJB-Xd7hitBkcROE7sgVHgeTA?authuser=0&hl=tr&rclk=1",
    "website_url": "",
    "rating_text": "4,3",
    "stars": null,
    "number_of_reviews": null,
    "price_level": "",
    "open_hours": "",
    "extraction_timestamp": "2025-06-07T17:32:43.650Z",
    "source_name": "google",
    "source_query": "Irrigation Equipment",
    "source_country": "PL",
    "country": "Poland",
    "state": "Greater Poland Voivodeship",
    "city": "Wieleń"
  },
  {
    "source_id": "ChIJY-8ah2KtBkcRA4FsGvpUChE",
    "name": "Sandacz - sklep zoologiczno-wędkarski",
    "category": "Sandacz - sklep zoologiczno-wędkarski",
    "formatted_address": "5,0(10)",
    "phone_number": "+48602781606",
    "source_url": "https://www.google.com/maps/place/Sandacz+-+sklep+zoologiczno-w%C4%99dkarski/data=!4m7!3m6!1s0x4706ad62871aef63:0x110a54fa1a6c8103!8m2!3d52.8945527!4d16.1717067!16s%2Fg%2F11t6nmqy4y!19sChIJY-8ah2KtBkcRA4FsGvpUChE?authuser=0&hl=tr&rclk=1",
    "website_url": "",
    "rating_text": "5,0",
    "stars": null,
    "number_of_reviews": null,
    "price_level": "",
    "open_hours": "",
    "extraction_timestamp": "2025-06-07T17:32:43.651Z",
    "source_name": "google",
    "source_query": "Irrigation Equipment",
    "source_country": "PL",
    "country": "Poland",
    "state": "Greater Poland Voivodeship",
    "city": "Wieleń"
  },
  {
    "source_id": "ChIJoy-CxBSvBkcRV6HMNVw-CNo",
    "name": "Dino",
    "category": "Dino",
    "formatted_address": "4,7(116)",
    "phone_number": "",
    "source_url": "https://www.google.com/maps/place/Dino/data=!4m7!3m6!1s0x4706af14c4822fa3:0xda083e5c35cca157!8m2!3d52.8794402!4d16.1695997!16s%2Fg%2F11jg8tg6zr!19sChIJoy-CxBSvBkcRV6HMNVw-CNo?authuser=0&hl=tr&rclk=1",
    "website_url": "",
    "rating_text": "4,7",
    "stars": null,
    "number_of_reviews": null,
    "price_level": "",
    "open_hours": "",
    "extraction_timestamp": "2025-06-07T17:32:43.652Z",
    "source_name": "google",
    "source_query": "Irrigation Equipment",
    "source_country": "PL",
    "country": "Poland",
    "state": "Greater Poland Voivodeship",
    "city": "Wieleń"
  },
  {
    "source_id": "ChIJ_XMfoY2tBkcRbaeD_bsmU00",
    "name": "DEM-ART Części samochodowe",
    "category": "DEM-ART Części samochodowe",
    "formatted_address": "4,8(62)",
    "phone_number": "+48672531307",
    "source_url": "https://www.google.com/maps/place/DEM-ART+Cz%C4%99%C5%9Bci+samochodowe/data=!4m7!3m6!1s0x4706ad8da11f73fd:0x4d5326bbfd83a76d!8m2!3d52.9140756!4d16.1859526!16s%2Fg%2F1hhwd43gg!19sChIJ_XMfoY2tBkcRbaeD_bsmU00?authuser=0&hl=tr&rclk=1",
    "website_url": "",
    "rating_text": "4,8",
    "stars": null,
    "number_of_reviews": null,
    "price_level": "",
    "open_hours": "",
    "extraction_timestamp": "2025-06-07T17:32:43.653Z",
    "source_name": "google",
    "source_query": "Irrigation Equipment",
    "source_country": "PL",
    "country": "Poland",
    "state": "Greater Poland Voivodeship",
    "city": "Wieleń"
  },
  {
    "source_id": "ChIJE1eaw5ytBkcRv8wTD7lTY8o",
    "name": "Laptopy poleasingowe / Centrum Serwisowe Mariusz Nowak",
    "category": "Laptopy poleasingowe / Centrum Serwisowe Mariusz Nowak",
    "formatted_address": "5,0(50)",
    "phone_number": "+48781351726",
    "source_url": "https://www.google.com/maps/place/Laptopy+poleasingowe+%2F+Centrum+Serwisowe+Mariusz+Nowak/data=!4m7!3m6!1s0x4706ad9cc39a5713:0xca6353b90f13ccbf!8m2!3d52.8932861!4d16.1703028!16s%2Fg%2F11js86ky1k!19sChIJE1eaw5ytBkcRv8wTD7lTY8o?authuser=0&hl=tr&rclk=1",
    "website_url": "",
    "rating_text": "5,0",
    "stars": null,
    "number_of_reviews": null,
    "price_level": "",
    "open_hours": "",
    "extraction_timestamp": "2025-06-07T17:32:43.654Z",
    "source_name": "google",
    "source_query": "Irrigation Equipment",
    "source_country": "PL",
    "country": "Poland",
    "state": "Greater Poland Voivodeship",
    "city": "Wieleń"
  },
  {
    "source_id": "ChIJwaXlRPytBkcR0xUVogmpXIo",
    "name": "Sklep rolno - spożywczy",
    "category": "Sklep rolno - spożywczy",
    "formatted_address": "5,0(2)",
    "phone_number": "+48672561476",
    "source_url": "https://www.google.com/maps/place/Sklep+rolno+-+spo%C5%BCywczy/data=!4m7!3m6!1s0x4706adfc44e5a5c1:0x8a5ca909a21515d3!8m2!3d52.894744!4d16.17136!16s%2Fg%2F1pv5y7jhb!19sChIJwaXlRPytBkcR0xUVogmpXIo?authuser=0&hl=tr&rclk=1",
    "website_url": "",
    "rating_text": "5,0",
    "stars": null,
    "number_of_reviews": null,
    "price_level": "",
    "open_hours": "",
    "extraction_timestamp": "2025-06-07T17:32:43.654Z",
    "source_name": "google",
    "source_query": "Irrigation Equipment",
    "source_country": "PL",
    "country": "Poland",
    "state": "Greater Poland Voivodeship",
    "city": "Wieleń"
  },
  {
    "source_id": "ChIJjbDP3sutBkcRkkSJAx74bmE",
    "name": "Dino",
    "category": "Dino",
    "formatted_address": "4,4(77)",
    "phone_number": "",
    "source_url": "https://www.google.com/maps/place/Dino/data=!4m7!3m6!1s0x4706adcbdecfb08d:0x616ef81e03894492!8m2!3d52.9123974!4d16.1855125!16s%2Fg%2F11fr0bqg16!19sChIJjbDP3sutBkcRkkSJAx74bmE?authuser=0&hl=tr&rclk=1",
    "website_url": "",
    "rating_text": "4,4",
    "stars": null,
    "number_of_reviews": null,
    "price_level": "",
    "open_hours": "",
    "extraction_timestamp": "2025-06-07T17:32:43.655Z",
    "source_name": "google",
    "source_query": "Irrigation Equipment",
    "source_country": "PL",
    "country": "Poland",
    "state": "Greater Poland Voivodeship",
    "city": "Wieleń"
  },
  {
    "source_id": "ChIJR1Gy6FdHBEcRxLXa4mu3HY8",
    "name": "Fargo PW Centrum Ogrodnicze - Sklep Ogrodniczy i Rolniczy",
    "category": "Fargo PW Centrum Ogrodnicze - Sklep Ogrodniczy i Rolniczy",
    "formatted_address": "4,8(387)",
    "phone_number": "+48618146334",
    "source_url": "https://www.google.com/maps/place/Fargo+PW+Centrum+Ogrodnicze+-+Sklep+Ogrodniczy+i+Rolniczy/data=!4m7!3m6!1s0x47044757e8b25147:0x8f1db76be2dab5c4!8m2!3d52.4575027!4d16.6792707!16s%2Fg%2F1ptwzycf8!19sChIJR1Gy6FdHBEcRxLXa4mu3HY8?authuser=0&hl=tr&rclk=1",
    "website_url": "",
    "rating_text": "4,8",
    "stars": null,
    "number_of_reviews": null,
    "price_level": "",
    "open_hours": "",
    "extraction_timestamp": "2025-06-07T17:32:43.656Z",
    "source_name": "google",
    "source_query": "Irrigation Equipment",
    "source_country": "PL",
    "country": "Poland",
    "state": "Greater Poland Voivodeship",
    "city": "Wieleń"
  },
  {
    "source_id": "ChIJWSqZZ5utBkcRmT-jKidnRUA",
    "name": "Przystanek Edukacja",
    "category": "Przystanek Edukacja",
    "formatted_address": "4,5(56) · zł 1–20",
    "phone_number": "+48672169116",
    "source_url": "https://www.google.com/maps/place/Przystanek+Edukacja/data=!4m7!3m6!1s0x4706ad9b67992a59:0x404567272aa33f99!8m2!3d52.8941874!4d16.1715507!16s%2Fg%2F11s4zf018k!19sChIJWSqZZ5utBkcRmT-jKidnRUA?authuser=0&hl=tr&rclk=1",
    "website_url": "",
    "rating_text": "4,5",
    "stars": null,
    "number_of_reviews": null,
    "price_level": "",
    "open_hours": "",
    "extraction_timestamp": "2025-06-07T17:32:43.657Z",
    "source_name": "google",
    "source_query": "Irrigation Equipment",
    "source_country": "PL",
    "country": "Poland",
    "state": "Greater Poland Voivodeship",
    "city": "Wieleń"
  },
  {
    "source_id": "ChIJn1SiVogVAUcR8Vl9g6JFbTo",
    "name": "Metaltech Sp. z o.o. Producent maszyn i przyczep rolniczych",
    "category": "Metaltech Sp. z o.o. Producent maszyn i przyczep rolniczych",
    "formatted_address": "4,3(83)",
    "phone_number": "+48672595176",
    "source_url": "https://www.google.com/maps/place/Metaltech+Sp.+z+o.o.+Producent+maszyn+i+przyczep+rolniczych/data=!4m7!3m6!1s0x4701158856a2549f:0x3a6d45a2837d59f1!8m2!3d53.3482186!4d16.0827792!16s%2Fg%2F1tdvhwc0!19sChIJn1SiVogVAUcR8Vl9g6JFbTo?authuser=0&hl=tr&rclk=1",
    "website_url": "",
    "rating_text": "4,3",
    "stars": null,
    "number_of_reviews": null,
    "price_level": "",
    "open_hours": "",
    "extraction_timestamp": "2025-06-07T17:32:43.658Z",
    "source_name": "google",
    "source_query": "Irrigation Equipment",
    "source_country": "PL",
    "country": "Poland",
    "state": "Greater Poland Voivodeship",
    "city": "Wieleń"
  },
  {
    "source_id": "ChIJQYZYU_daBEcRrc4mt6dBBko",
    "name": "HYDROGLOBAL - Przemyślane rozwiązania dla ujęć wody",
    "category": "HYDROGLOBAL - Przemyślane rozwiązania dla ujęć wody",
    "formatted_address": "4,5(8)",
    "phone_number": "+48612785475",
    "source_url": "https://www.google.com/maps/place/HYDROGLOBAL+-+Przemy%C5%9Blane+rozwi%C4%85zania+dla+uj%C4%99%C4%87+wody/data=!4m7!3m6!1s0x47045af753588641:0x4a0641a7b726cead!8m2!3d52.4872791!4d16.8563292!16s%2Fg%2F1wzt11_h!19sChIJQYZYU_daBEcRrc4mt6dBBko?authuser=0&hl=tr&rclk=1",
    "website_url": "",
    "rating_text": "4,5",
    "stars": null,
    "number_of_reviews": null,
    "price_level": "",
    "open_hours": "",
    "extraction_timestamp": "2025-06-07T17:32:43.659Z",
    "source_name": "google",
    "source_query": "Irrigation Equipment",
    "source_country": "PL",
    "country": "Poland",
    "state": "Greater Poland Voivodeship",
    "city": "Wieleń"
  },
  {
    "source_id": "ChIJT3r6O9OtBkcRKMWT7gcK6l8",
    "name": "Sklep Monopolowy Ostoja",
    "category": "Sklep Monopolowy Ostoja",
    "formatted_address": "5,0(4)",
    "phone_number": "",
    "source_url": "https://www.google.com/maps/place/Sklep+Monopolowy+Ostoja/data=!4m7!3m6!1s0x4706add33bfa7a4f:0x5fea0a07ee93c528!8m2!3d52.8929081!4d16.1701285!16s%2Fg%2F11qpj9dh84!19sChIJT3r6O9OtBkcRKMWT7gcK6l8?authuser=0&hl=tr&rclk=1",
    "website_url": "",
    "rating_text": "5,0",
    "stars": null,
    "number_of_reviews": null,
    "price_level": "",
    "open_hours": "",
    "extraction_timestamp": "2025-06-07T17:32:43.659Z",
    "source_name": "google",
    "source_query": "Irrigation Equipment",
    "source_country": "PL",
    "country": "Poland",
    "state": "Greater Poland Voivodeship",
    "city": "Wieleń"
  },
  {
    "source_id": "ChIJxY8ZL1XtBEcR8OOmh8hwkd0",
    "name": "MAGMAR MURAWY |Pielęgnacja muraw| Pielęgnacja boisk| Budowa boisk",
    "category": "MAGMAR MURAWY |Pielęgnacja muraw| Pielęgnacja boisk| Budowa boisk",
    "formatted_address": "5,0(33)",
    "phone_number": "+48696065016",
    "source_url": "https://www.google.com/maps/place/MAGMAR+MURAWY+%7CPiel%C4%99gnacja+muraw%7C+Piel%C4%99gnacja+boisk%7C+Budowa+boisk/data=!4m7!3m6!1s0x4704ed552f198fc5:0xdd9170c887a6e3f0!8m2!3d52.4291858!4d17.4828694!16s%2Fg%2F11lm4pnqrb!19sChIJxY8ZL1XtBEcR8OOmh8hwkd0?authuser=0&hl=tr&rclk=1",
    "website_url": "",
    "rating_text": "5,0",
    "stars": null,
    "number_of_reviews": null,
    "price_level": "",
    "open_hours": "",
    "extraction_timestamp": "2025-06-07T17:32:43.660Z",
    "source_name": "google",
    "source_query": "Irrigation Equipment",
    "source_country": "PL",
    "country": "Poland",
    "state": "Greater Poland Voivodeship",
    "city": "Wieleń"
  },
  {
    "source_id": "ChIJm4psMixXAUcResN4BHw6idY",
    "name": "Professor Usługi Ziemne",
    "category": "Professor Usługi Ziemne",
    "formatted_address": "5,0(43)",
    "phone_number": "+48666636668",
    "source_url": "https://www.google.com/maps/place/Professor+Us%C5%82ugi+Ziemne/data=!4m7!3m6!1s0x4701572c326c8a9b:0xd6893a7c0478c37a!8m2!3d53.0496625!4d16.4658055!16s%2Fg%2F11mvnh0dy1!19sChIJm4psMixXAUcResN4BHw6idY?authuser=0&hl=tr&rclk=1",
    "website_url": "",
    "rating_text": "5,0",
    "stars": null,
    "number_of_reviews": null,
    "price_level": "",
    "open_hours": "",
    "extraction_timestamp": "2025-06-07T17:32:43.661Z",
    "source_name": "google",
    "source_query": "Irrigation Equipment",
    "source_country": "PL",
    "country": "Poland",
    "state": "Greater Poland Voivodeship",
    "city": "Wieleń"
  },
  {
    "source_id": "ChIJR0lVRUpFBEcRLqN8yTk0xws",
    "name": "E-Karmówki | Sklep zoologiczny ~ terrarystyczny Poznań",
    "category": "E-Karmówki | Sklep zoologiczny ~ terrarystyczny Poznań",
    "formatted_address": "5,0(5)",
    "phone_number": "+48798008707",
    "source_url": "https://www.google.com/maps/place/E-Karm%C3%B3wki+%7C+Sklep+zoologiczny+~+terrarystyczny+Pozna%C5%84/data=!4m7!3m6!1s0x4704454a45554947:0xbc73439c97ca32e!8m2!3d52.4157492!4d16.9088821!16s%2Fg%2F11l727dyt_!19sChIJR0lVRUpFBEcRLqN8yTk0xws?authuser=0&hl=tr&rclk=1",
    "website_url": "",
    "rating_text": "5,0",
    "stars": null,
    "number_of_reviews": null,
    "price_level": "",
    "open_hours": "",
    "extraction_timestamp": "2025-06-07T17:32:43.663Z",
    "source_name": "google",
    "source_query": "Irrigation Equipment",
    "source_country": "PL",
    "country": "Poland",
    "state": "Greater Poland Voivodeship",
    "city": "Wieleń"
  },
  {
    "source_id": "ChIJZ5agEACvBkcRvEAt_gFCkHg",
    "name": "Kawiarnia Pod Klonami",
    "category": "Kawiarnia Pod Klonami",
    "formatted_address": "5,0(7)",
    "phone_number": "",
    "source_url": "https://www.google.com/maps/place/Kawiarnia+Pod+Klonami/data=!4m7!3m6!1s0x4706af0010a09667:0x78904201fe2d40bc!8m2!3d52.8894748!4d16.1671526!16s%2Fg%2F11vrf_t2b4!19sChIJZ5agEACvBkcRvEAt_gFCkHg?authuser=0&hl=tr&rclk=1",
    "website_url": "",
    "rating_text": "5,0",
    "stars": null,
    "number_of_reviews": null,
    "price_level": "",
    "open_hours": "",
    "extraction_timestamp": "2025-06-07T17:32:43.663Z",
    "source_name": "google",
    "source_query": "Irrigation Equipment",
    "source_country": "PL",
    "country": "Poland",
    "state": "Greater Poland Voivodeship",
    "city": "Wieleń"
  },
  {
    "source_id": "ChIJtYeyvN1zBEcR6noD_r1poQs",
    "name": "FAKT Armatura",
    "category": "FAKT Armatura",
    "formatted_address": "4,8(43)",
    "phone_number": "+48672617371",
    "source_url": "https://www.google.com/maps/place/FAKT+Armatura/data=!4m7!3m6!1s0x470473ddbcb287b5:0xba169bdfe037aea!8m2!3d52.751154!4d16.982685!16s%2Fg%2F1tmxpq97!19sChIJtYeyvN1zBEcR6noD_r1poQs?authuser=0&hl=tr&rclk=1",
    "website_url": "",
    "rating_text": "4,8",
    "stars": null,
    "number_of_reviews": null,
    "price_level": "",
    "open_hours": "",
    "extraction_timestamp": "2025-06-07T17:32:43.664Z",
    "source_name": "google",
    "source_query": "Irrigation Equipment",
    "source_country": "PL",
    "country": "Poland",
    "state": "Greater Poland Voivodeship",
    "city": "Wieleń"
  }
]
