[
  {
    "source_id": "ChIJB6y_v5J2HEcRlDfYx3xmc9M",
    "name": "Milex irrigation systems",
    "category": "Milex irrigation systems",
    "formatted_address": "4,6(37)",
    "phone_number": "+48242775222",
    "source_url": "https://www.google.com/maps/place/Milex+irrigation+systems/data=!4m7!3m6!1s0x471c7692bfbfac07:0xd373667cc7d83794!8m2!3d52.4690634!4d19.7520904!16s%2Fg%2F1w2yy67r!19sChIJB6y_v5J2HEcRlDfYx3xmc9M?authuser=0&hl=tr&rclk=1",
    "website_url": "https://www.milex.pl/",
    "rating_text": "4,6",
    "stars": null,
    "number_of_reviews": null,
    "price_level": "",
    "open_hours": "",
    "extraction_timestamp": "2025-06-07T17:48:47.284Z",
    "source_name": "google",
    "source_query": "Irrigation Equipment",
    "source_country": "PL",
    "country": "Poland",
    "state": "Greater Poland Voivodeship",
    "city": "Wierzbinek"
  },
  {
    "source_id": "ChIJpxaaxWNZGUcRjjHprTFlLV8",
    "name": "Hydro-System Waldemar Zimiński",
    "category": "Hydro-System Waldemar Zimiński",
    "formatted_address": "4,5(15)",
    "phone_number": "+48468568476",
    "source_url": "https://www.google.com/maps/place/Hydro-System+Waldemar+Zimi%C5%84ski/data=!4m7!3m6!1s0x47195963c59a16a7:0x5f2d6531ade9318e!8m2!3d52.1203185!4d20.3763374!16s%2Fg%2F1tf5jcy0!19sChIJpxaaxWNZGUcRjjHprTFlLV8?authuser=0&hl=tr&rclk=1",
    "website_url": "https://www.hydros.com.pl/",
    "rating_text": "4,5",
    "stars": null,
    "number_of_reviews": null,
    "price_level": "",
    "open_hours": "",
    "extraction_timestamp": "2025-06-07T17:48:47.284Z",
    "source_name": "google",
    "source_query": "Irrigation Equipment",
    "source_country": "PL",
    "country": "Poland",
    "state": "Greater Poland Voivodeship",
    "city": "Wierzbinek"
  },
  {
    "source_id": "ChIJISU5g2e1HkcR1L5jcoz6Mwo",
    "name": "MERLO PGA Technika",
    "category": "MERLO PGA Technika",
    "formatted_address": "5,0(10)",
    "phone_number": "+48508508561",
    "source_url": "https://www.google.com/maps/place/MERLO+PGA+Technika/data=!4m7!3m6!1s0x471eb56783392521:0xa33fa8c7263bed4!8m2!3d52.256823!4d20.7571772!16s%2Fg%2F11b6chr7kk!19sChIJISU5g2e1HkcR1L5jcoz6Mwo?authuser=0&hl=tr&rclk=1",
    "website_url": "https://pgatechnika.pl/",
    "rating_text": "5,0",
    "stars": null,
    "number_of_reviews": null,
    "price_level": "",
    "open_hours": "",
    "extraction_timestamp": "2025-06-07T17:48:47.285Z",
    "source_name": "google",
    "source_query": "Irrigation Equipment",
    "source_country": "PL",
    "country": "Poland",
    "state": "Greater Poland Voivodeship",
    "city": "Wierzbinek"
  },
  {
    "source_id": "ChIJF91N516tHEcR482NBJiUCMk",
    "name": "PPUH HYDROMARB BIS EWA ŚRODOŃ",
    "category": "PPUH HYDROMARB BIS EWA ŚRODOŃ",
    "formatted_address": "4,3(25)",
    "phone_number": "+48523554006",
    "source_url": "https://www.google.com/maps/place/PPUH+HYDROMARB+BIS+EWA+%C5%9ARODO%C5%83/data=!4m7!3m6!1s0x471cad5ee74ddd17:0xc9089498048dcde3!8m2!3d52.804629!4d18.524322!16s%2Fg%2F1tgmt__v!19sChIJF91N516tHEcR482NBJiUCMk?authuser=0&hl=tr&rclk=1",
    "website_url": "http://www.hydromarb.pl/",
    "rating_text": "4,3",
    "stars": null,
    "number_of_reviews": null,
    "price_level": "",
    "open_hours": "",
    "extraction_timestamp": "2025-06-07T17:48:47.285Z",
    "source_name": "google",
    "source_query": "Irrigation Equipment",
    "source_country": "PL",
    "country": "Poland",
    "state": "Greater Poland Voivodeship",
    "city": "Wierzbinek"
  },
  {
    "source_id": "ChIJVTV3W_PzBEcR6gY0xwQi2_E",
    "name": "Deszczownie.com",
    "category": "Deszczownie.com",
    "formatted_address": "",
    "phone_number": "+48726000030",
    "source_url": "https://www.google.com/maps/place/Deszczownie.com/data=!4m7!3m6!1s0x4704f3f35b773555:0xf1db2204c73406ea!8m2!3d52.3623948!4d17.4021087!16s%2Fg%2F11y3pv4rxr!19sChIJVTV3W_PzBEcR6gY0xwQi2_E?authuser=0&hl=tr&rclk=1",
    "website_url": "https://www.deszczownie.com/",
    "rating_text": "",
    "stars": null,
    "number_of_reviews": null,
    "price_level": "",
    "open_hours": "",
    "extraction_timestamp": "2025-06-07T17:48:47.285Z",
    "source_name": "google",
    "source_query": "Irrigation Equipment",
    "source_country": "PL",
    "country": "Poland",
    "state": "Greater Poland Voivodeship",
    "city": "Wierzbinek"
  }
]
