[
  {
    "source_id": "ChIJIU16It_pBUcRVCs_0_NL-sU",
    "name": "Samopomoc Chłopska. Gminna Spółdzielnia",
    "category": "Samopomoc Chłopska. Gminna Spółdzielnia",
    "formatted_address": "4,0(2)",
    "phone_number": "+48655494088",
    "source_url": "https://www.google.com/maps/place/Samopomoc+Ch%C5%82opska.+Gminna+Sp%C3%B3%C5%82dzielnia/data=!4m7!3m6!1s0x4705e9df227a4d21:0xc5fa4bf3d33f2b54!8m2!3d51.9169379!4d16.1875079!16s%2Fg%2F1tgx59f1!19sChIJIU16It_pBUcRVCs_0_NL-sU?authuser=0&hl=tr&rclk=1",
    "website_url": "",
    "rating_text": "4,0",
    "stars": null,
    "number_of_reviews": null,
    "price_level": "",
    "open_hours": "",
    "extraction_timestamp": "2025-06-07T17:17:09.750Z",
    "source_name": "google",
    "source_query": "Irrigation Equipment",
    "source_country": "PL",
    "country": "Poland",
    "state": "Greater Poland Voivodeship",
    "city": "Wijewo"
  },
  {
    "source_id": "ChIJV9Ew_enpBUcR7IEo2RMbk5Q",
    "name": "Mini Market. Sklep wielobranżowy GS Samopomoc Chłopska",
    "category": "Mini Market. Sklep wielobranżowy GS Samopomoc Chłopska",
    "formatted_address": "4,5(10)",
    "phone_number": "+48655494023",
    "source_url": "https://www.google.com/maps/place/Mini+Market.+Sklep+wielobran%C5%BCowy+GS+Samopomoc+Ch%C5%82opska/data=!4m7!3m6!1s0x4705e9e9fd30d157:0x94931b13d92881ec!8m2!3d51.917231!4d16.1857259!16s%2Fg%2F1tf8rt7k!19sChIJV9Ew_enpBUcR7IEo2RMbk5Q?authuser=0&hl=tr&rclk=1",
    "website_url": "",
    "rating_text": "4,5",
    "stars": null,
    "number_of_reviews": null,
    "price_level": "",
    "open_hours": "",
    "extraction_timestamp": "2025-06-07T17:17:09.750Z",
    "source_name": "google",
    "source_query": "Irrigation Equipment",
    "source_country": "PL",
    "country": "Poland",
    "state": "Greater Poland Voivodeship",
    "city": "Wijewo"
  },
  {
    "source_id": "ChIJdUDkZVvCBUcR8Voyh-f2WGg",
    "name": "Ośrodek Wczasowy U Marcina",
    "category": "Ośrodek Wczasowy U Marcina",
    "formatted_address": "4,7(525)",
    "phone_number": "+48509838565",
    "source_url": "https://www.google.com/maps/place/O%C5%9Brodek+Wczasowy+U+Marcina/data=!4m7!3m6!1s0x4705c25b65e44075:0x6858f6e787325af1!8m2!3d51.9544254!4d16.1911693!16s%2Fg%2F1tj883s9!19sChIJdUDkZVvCBUcR8Voyh-f2WGg?authuser=0&hl=tr&rclk=1",
    "website_url": "",
    "rating_text": "4,7",
    "stars": null,
    "number_of_reviews": null,
    "price_level": "",
    "open_hours": "",
    "extraction_timestamp": "2025-06-07T17:17:09.751Z",
    "source_name": "google",
    "source_query": "Irrigation Equipment",
    "source_country": "PL",
    "country": "Poland",
    "state": "Greater Poland Voivodeship",
    "city": "Wijewo"
  },
  {
    "source_id": "ChIJ1crKaDzDBUcRHysd9WzU8_M",
    "name": "Buchta-Camp",
    "category": "Buchta-Camp",
    "formatted_address": "4,8(154)",
    "phone_number": "+48609312255",
    "source_url": "https://www.google.com/maps/place/Buchta-Camp/data=!4m7!3m6!1s0x4705c33c68cacad5:0xf3f3d46cf51d2b1f!8m2!3d51.93912!4d16.1896989!16s%2Fg%2F11kq6snn3f!19sChIJ1crKaDzDBUcRHysd9WzU8_M?authuser=0&hl=tr&rclk=1",
    "website_url": "",
    "rating_text": "4,8",
    "stars": null,
    "number_of_reviews": null,
    "price_level": "",
    "open_hours": "",
    "extraction_timestamp": "2025-06-07T17:17:09.751Z",
    "source_name": "google",
    "source_query": "Irrigation Equipment",
    "source_country": "PL",
    "country": "Poland",
    "state": "Greater Poland Voivodeship",
    "city": "Wijewo"
  },
  {
    "source_id": "ChIJB0Yv-pnpBUcRuVZBE_IJTcg",
    "name": "Sklep Polski",
    "category": "Sklep Polski",
    "formatted_address": "4,8(12)",
    "phone_number": "+48572117158",
    "source_url": "https://www.google.com/maps/place/Sklep+Polski/data=!4m7!3m6!1s0x4705e999fa2f4607:0xc84d09f2134156b9!8m2!3d51.917366!4d16.185799!16s%2Fg%2F11y3fdstpc!19sChIJB0Yv-pnpBUcRuVZBE_IJTcg?authuser=0&hl=tr&rclk=1",
    "website_url": "",
    "rating_text": "4,8",
    "stars": null,
    "number_of_reviews": null,
    "price_level": "",
    "open_hours": "",
    "extraction_timestamp": "2025-06-07T17:17:09.752Z",
    "source_name": "google",
    "source_query": "Irrigation Equipment",
    "source_country": "PL",
    "country": "Poland",
    "state": "Greater Poland Voivodeship",
    "city": "Wijewo"
  },
  {
    "source_id": "ChIJk6UwiVzCBUcRlvURFyy63Gs",
    "name": "Holiday Resort Crocus",
    "category": "Holiday Resort Crocus",
    "formatted_address": "4,6(787)",
    "phone_number": "+48537051542",
    "source_url": "https://www.google.com/maps/place/Holiday+Resort+Crocus/data=!4m7!3m6!1s0x4705c25c8930a593:0x6bdcba2c1711f596!8m2!3d51.950189!4d16.1848123!16s%2Fg%2F113f314x0!19sChIJk6UwiVzCBUcRlvURFyy63Gs?authuser=0&hl=tr&rclk=1",
    "website_url": "",
    "rating_text": "4,6",
    "stars": null,
    "number_of_reviews": null,
    "price_level": "",
    "open_hours": "",
    "extraction_timestamp": "2025-06-07T17:17:09.752Z",
    "source_name": "google",
    "source_query": "Irrigation Equipment",
    "source_country": "PL",
    "country": "Poland",
    "state": "Greater Poland Voivodeship",
    "city": "Wijewo"
  },
  {
    "source_id": "ChIJIU16It_pBUcREiddkcnlVMA",
    "name": "Derdziak Aleksandra. Sklep wielobranżowy",
    "category": "Derdziak Aleksandra. Sklep wielobranżowy",
    "formatted_address": "4,0(2)",
    "phone_number": "+48655494153",
    "source_url": "https://www.google.com/maps/place/Derdziak+Aleksandra.+Sklep+wielobran%C5%BCowy/data=!4m7!3m6!1s0x4705e9df227a4d21:0xc054e5c9915d2712!8m2!3d51.9179741!4d16.1861299!16s%2Fg%2F1wt3m2x4!19sChIJIU16It_pBUcREiddkcnlVMA?authuser=0&hl=tr&rclk=1",
    "website_url": "",
    "rating_text": "4,0",
    "stars": null,
    "number_of_reviews": null,
    "price_level": "",
    "open_hours": "",
    "extraction_timestamp": "2025-06-07T17:17:09.753Z",
    "source_name": "google",
    "source_query": "Irrigation Equipment",
    "source_country": "PL",
    "country": "Poland",
    "state": "Greater Poland Voivodeship",
    "city": "Wijewo"
  },
  {
    "source_id": "ChIJu24hvDjCBUcRuDK5v3Lcwlk",
    "name": "Osłonin Plaża",
    "category": "Osłonin Plaża",
    "formatted_address": "4,4(600)",
    "phone_number": "",
    "source_url": "https://www.google.com/maps/place/Os%C5%82onin+Pla%C5%BCa/data=!4m7!3m6!1s0x4705c238bc216ebb:0x59c2dc72bfb932b8!8m2!3d51.9509597!4d16.208279!16s%2Fg%2F11b_2s7x9z!19sChIJu24hvDjCBUcRuDK5v3Lcwlk?authuser=0&hl=tr&rclk=1",
    "website_url": "",
    "rating_text": "4,4",
    "stars": null,
    "number_of_reviews": null,
    "price_level": "",
    "open_hours": "",
    "extraction_timestamp": "2025-06-07T17:17:09.753Z",
    "source_name": "google",
    "source_query": "Irrigation Equipment",
    "source_country": "PL",
    "country": "Poland",
    "state": "Greater Poland Voivodeship",
    "city": "Wijewo"
  },
  {
    "source_id": "ChIJmWyu0oPDBUcR-OSG02nc5C4",
    "name": "Plaża BRENNO-OSTRÓW",
    "category": "Plaża BRENNO-OSTRÓW",
    "formatted_address": "4,4(126)",
    "phone_number": "",
    "source_url": "https://www.google.com/maps/place/Pla%C5%BCa+BRENNO-OSTR%C3%93W/data=!4m7!3m6!1s0x4705c383d2ae6c99:0x2ee4dc69d386e4f8!8m2!3d51.9377141!4d16.2158411!16s%2Fg%2F11hzp5j5_m!19sChIJmWyu0oPDBUcR-OSG02nc5C4?authuser=0&hl=tr&rclk=1",
    "website_url": "",
    "rating_text": "4,4",
    "stars": null,
    "number_of_reviews": null,
    "price_level": "",
    "open_hours": "",
    "extraction_timestamp": "2025-06-07T17:17:09.754Z",
    "source_name": "google",
    "source_query": "Irrigation Equipment",
    "source_country": "PL",
    "country": "Poland",
    "state": "Greater Poland Voivodeship",
    "city": "Wijewo"
  },
  {
    "source_id": "ChIJOfDZE5pFBEcR_x5BydT-r4E",
    "name": "Dino",
    "category": "Dino",
    "formatted_address": "4,5(23)",
    "phone_number": "",
    "source_url": "https://www.google.com/maps/place/Dino/data=!4m7!3m6!1s0x4704459a13d9f039:0x81affed4c9411eff!8m2!3d51.9130456!4d16.1847953!16s%2Fg%2F11qb69g3g0!19sChIJOfDZE5pFBEcR_x5BydT-r4E?authuser=0&hl=tr&rclk=1",
    "website_url": "",
    "rating_text": "4,5",
    "stars": null,
    "number_of_reviews": null,
    "price_level": "",
    "open_hours": "",
    "extraction_timestamp": "2025-06-07T17:17:09.754Z",
    "source_name": "google",
    "source_query": "Irrigation Equipment",
    "source_country": "PL",
    "country": "Poland",
    "state": "Greater Poland Voivodeship",
    "city": "Wijewo"
  },
  {
    "source_id": "ChIJ_y73CDnCBUcROSWWHPmfr68",
    "name": "Sklep Emix",
    "category": "Sklep Emix",
    "formatted_address": "4,8(36)",
    "phone_number": "+48518300263",
    "source_url": "https://www.google.com/maps/place/Sklep+Emix/data=!4m7!3m6!1s0x4705c23908f72eff:0xafaf9ff91c962539!8m2!3d51.9523099!4d16.2139581!16s%2Fg%2F11dxl7wgh8!19sChIJ_y73CDnCBUcROSWWHPmfr68?authuser=0&hl=tr&rclk=1",
    "website_url": "",
    "rating_text": "4,8",
    "stars": null,
    "number_of_reviews": null,
    "price_level": "",
    "open_hours": "",
    "extraction_timestamp": "2025-06-07T17:17:09.755Z",
    "source_name": "google",
    "source_query": "Irrigation Equipment",
    "source_country": "PL",
    "country": "Poland",
    "state": "Greater Poland Voivodeship",
    "city": "Wijewo"
  },
  {
    "source_id": "ChIJA04OvUPpBUcRtn4aLBiPcAs",
    "name": "Dino",
    "category": "Dino",
    "formatted_address": "4,4(130)",
    "phone_number": "",
    "source_url": "https://www.google.com/maps/place/Dino/data=!4m7!3m6!1s0x4705e943bd0e4e03:0xb708f182c1a7eb6!8m2!3d51.9222031!4d16.2094056!16s%2Fg%2F11l4p74psd!19sChIJA04OvUPpBUcRtn4aLBiPcAs?authuser=0&hl=tr&rclk=1",
    "website_url": "",
    "rating_text": "4,4",
    "stars": null,
    "number_of_reviews": null,
    "price_level": "",
    "open_hours": "",
    "extraction_timestamp": "2025-06-07T17:17:09.756Z",
    "source_name": "google",
    "source_query": "Irrigation Equipment",
    "source_country": "PL",
    "country": "Poland",
    "state": "Greater Poland Voivodeship",
    "city": "Wijewo"
  },
  {
    "source_id": "ChIJyyvoZUjpBUcRNW0jeWrQpWo",
    "name": "Groszek",
    "category": "Groszek",
    "formatted_address": "4,3(15)",
    "phone_number": "",
    "source_url": "https://www.google.com/maps/place/Groszek/data=!4m7!3m6!1s0x4705e94865e82bcb:0x6aa5d06a79236d35!8m2!3d51.9177305!4d16.1880576!16s%2Fg%2F11ghrg8ljy!19sChIJyyvoZUjpBUcRNW0jeWrQpWo?authuser=0&hl=tr&rclk=1",
    "website_url": "",
    "rating_text": "4,3",
    "stars": null,
    "number_of_reviews": null,
    "price_level": "",
    "open_hours": "",
    "extraction_timestamp": "2025-06-07T17:17:09.757Z",
    "source_name": "google",
    "source_query": "Irrigation Equipment",
    "source_country": "PL",
    "country": "Poland",
    "state": "Greater Poland Voivodeship",
    "city": "Wijewo"
  },
  {
    "source_id": "ChIJuw1tRPHpBUcRO5-iMEIkLrQ",
    "name": "Biedronka",
    "category": "Biedronka",
    "formatted_address": "4,3(381)",
    "phone_number": "+48800080010",
    "source_url": "https://www.google.com/maps/place/Biedronka/data=!4m7!3m6!1s0x4705e9f1446d0dbb:0xb42e244230a29f3b!8m2!3d51.9201042!4d16.1999255!16s%2Fg%2F11n08z0__b!19sChIJuw1tRPHpBUcRO5-iMEIkLrQ?authuser=0&hl=tr&rclk=1",
    "website_url": "",
    "rating_text": "4,3",
    "stars": null,
    "number_of_reviews": null,
    "price_level": "",
    "open_hours": "",
    "extraction_timestamp": "2025-06-07T17:17:09.758Z",
    "source_name": "google",
    "source_query": "Irrigation Equipment",
    "source_country": "PL",
    "country": "Poland",
    "state": "Greater Poland Voivodeship",
    "city": "Wijewo"
  },
  {
    "source_id": "ChIJdRnGeDBaBEcRpyx7M8s1JkQ",
    "name": "Wirtgen Polska Sp. z o.o.",
    "category": "Wirtgen Polska Sp. z o.o.",
    "formatted_address": "4,4(31)",
    "phone_number": "+48618982100",
    "source_url": "https://www.google.com/maps/place/Wirtgen+Polska+Sp.+z+o.o./data=!4m7!3m6!1s0x47045a3078c61975:0x442635cb337b2ca7!8m2!3d52.3665338!4d16.9940075!16s%2Fg%2F1pv043rwn!19sChIJdRnGeDBaBEcRpyx7M8s1JkQ?authuser=0&hl=tr&rclk=1",
    "website_url": "",
    "rating_text": "4,4",
    "stars": null,
    "number_of_reviews": null,
    "price_level": "",
    "open_hours": "",
    "extraction_timestamp": "2025-06-07T17:17:09.759Z",
    "source_name": "google",
    "source_query": "Irrigation Equipment",
    "source_country": "PL",
    "country": "Poland",
    "state": "Greater Poland Voivodeship",
    "city": "Wijewo"
  },
  {
    "source_id": "ChIJYfbHGFnCBUcR8cjAf9BHQLo",
    "name": "Sklep Livio",
    "category": "Sklep Livio",
    "formatted_address": "4,4(317)",
    "phone_number": "",
    "source_url": "https://www.google.com/maps/place/Sklep+Livio/data=!4m7!3m6!1s0x4705c25918c7f661:0xba4047d07fc0c8f1!8m2!3d51.9557177!4d16.1838033!16s%2Fg%2F11ddwvtdxn!19sChIJYfbHGFnCBUcR8cjAf9BHQLo?authuser=0&hl=tr&rclk=1",
    "website_url": "",
    "rating_text": "4,4",
    "stars": null,
    "number_of_reviews": null,
    "price_level": "",
    "open_hours": "",
    "extraction_timestamp": "2025-06-07T17:17:09.760Z",
    "source_name": "google",
    "source_query": "Irrigation Equipment",
    "source_country": "PL",
    "country": "Poland",
    "state": "Greater Poland Voivodeship",
    "city": "Wijewo"
  },
  {
    "source_id": "ChIJLWRQpN3pBUcRfDIZVl8yDBc",
    "name": "Kowalewicz Szymon. Autoczęści",
    "category": "Kowalewicz Szymon. Autoczęści",
    "formatted_address": "3,8(12)",
    "phone_number": "+48607100062",
    "source_url": "https://www.google.com/maps/place/Kowalewicz+Szymon.+Autocz%C4%99%C5%9Bci/data=!4m7!3m6!1s0x4705e9dda450642d:0x170c325f5619327c!8m2!3d51.91892!4d16.1863799!16s%2Fg%2F1hc0s97zk!19sChIJLWRQpN3pBUcRfDIZVl8yDBc?authuser=0&hl=tr&rclk=1",
    "website_url": "",
    "rating_text": "3,8",
    "stars": null,
    "number_of_reviews": null,
    "price_level": "",
    "open_hours": "",
    "extraction_timestamp": "2025-06-07T17:17:09.761Z",
    "source_name": "google",
    "source_query": "Irrigation Equipment",
    "source_country": "PL",
    "country": "Poland",
    "state": "Greater Poland Voivodeship",
    "city": "Wijewo"
  },
  {
    "source_id": "ChIJH74Ehh3CBUcRy3BAWayuPSI",
    "name": "Jezioro Biale",
    "category": "Jezioro Biale",
    "formatted_address": "4,7(63)",
    "phone_number": "",
    "source_url": "https://www.google.com/maps/place/Jezioro+Biale/data=!4m7!3m6!1s0x4705c21d8604be1f:0x223daeac594070cb!8m2!3d51.936561!4d16.2215606!16s%2Fg%2F1tff1r2t!19sChIJH74Ehh3CBUcRy3BAWayuPSI?authuser=0&hl=tr&rclk=1",
    "website_url": "",
    "rating_text": "4,7",
    "stars": null,
    "number_of_reviews": null,
    "price_level": "",
    "open_hours": "",
    "extraction_timestamp": "2025-06-07T17:17:09.762Z",
    "source_name": "google",
    "source_query": "Irrigation Equipment",
    "source_country": "PL",
    "country": "Poland",
    "state": "Greater Poland Voivodeship",
    "city": "Wijewo"
  },
  {
    "source_id": "ChIJQ8FT2AfCBUcROxKMKcHQMNQ",
    "name": "Sklep Dagmara",
    "category": "Sklep Dagmara",
    "formatted_address": "4,5(117)",
    "phone_number": "",
    "source_url": "https://www.google.com/maps/place/Sklep+Dagmara/data=!4m7!3m6!1s0x4705c207d853c143:0xd430d0c1298c123b!8m2!3d51.9255097!4d16.2090093!16s%2Fg%2F11g9q34m56!19sChIJQ8FT2AfCBUcROxKMKcHQMNQ?authuser=0&hl=tr&rclk=1",
    "website_url": "",
    "rating_text": "4,5",
    "stars": null,
    "number_of_reviews": null,
    "price_level": "",
    "open_hours": "",
    "extraction_timestamp": "2025-06-07T17:17:09.762Z",
    "source_name": "google",
    "source_query": "Irrigation Equipment",
    "source_country": "PL",
    "country": "Poland",
    "state": "Greater Poland Voivodeship",
    "city": "Wijewo"
  },
  {
    "source_id": "ChIJLQg_eupdBEcRdiumEXeO1m4",
    "name": "WaterGreen-Systems Sp. z o.o. Systemy Nawadniania - sprzedaż , montaż , serwis.",
    "category": "WaterGreen-Systems Sp. z o.o. Systemy Nawadniania - sprzedaż , montaż , serwis.",
    "formatted_address": "WaterGreen-Systems Sp. z o.o. Systemy Nawadniania - sprzedaż , montaż , serwis.",
    "phone_number": "+48601773701",
    "source_url": "https://www.google.com/maps/place/WaterGreen-Systems+Sp.+z+o.o.+Systemy+Nawadniania+-+sprzeda%C5%BC+,+monta%C5%BC+,+serwis./data=!4m7!3m6!1s0x47045dea7a3f082d:0x6ed68e7711a62b76!8m2!3d52.4443283!4d17.0354739!16s%2Fg%2F11j7k4tmx3!19sChIJLQg_eupdBEcRdiumEXeO1m4?authuser=0&hl=tr&rclk=1",
    "website_url": "",
    "rating_text": "",
    "stars": null,
    "number_of_reviews": null,
    "price_level": "",
    "open_hours": "",
    "extraction_timestamp": "2025-06-07T17:17:09.763Z",
    "source_name": "google",
    "source_query": "Irrigation Equipment",
    "source_country": "PL",
    "country": "Poland",
    "state": "Greater Poland Voivodeship",
    "city": "Wijewo"
  },
  {
    "source_id": "ChIJLYhEm6xDBEcRyx2zr8tDWH0",
    "name": "Rafamarina Centrum Morsów",
    "category": "Rafamarina Centrum Morsów",
    "formatted_address": "4,7(137)",
    "phone_number": "+48508907032",
    "source_url": "https://www.google.com/maps/place/Rafamarina+Centrum+Mors%C3%B3w/data=!4m7!3m6!1s0x470443ac9b44882d:0x7d5843cbafb31dcb!8m2!3d52.463029!4d16.8258449!16s%2Fg%2F11h2l8fqp8!19sChIJLYhEm6xDBEcRyx2zr8tDWH0?authuser=0&hl=tr&rclk=1",
    "website_url": "",
    "rating_text": "4,7",
    "stars": null,
    "number_of_reviews": null,
    "price_level": "",
    "open_hours": "",
    "extraction_timestamp": "2025-06-07T17:17:09.765Z",
    "source_name": "google",
    "source_query": "Irrigation Equipment",
    "source_country": "PL",
    "country": "Poland",
    "state": "Greater Poland Voivodeship",
    "city": "Wijewo"
  },
  {
    "source_id": "ChIJUQow7dhEBEcROIEBsyxOuHE",
    "name": "Domowa Uprawa",
    "category": "Domowa Uprawa",
    "formatted_address": "4,4(63)",
    "phone_number": "+48788516592",
    "source_url": "https://www.google.com/maps/place/Domowa+Uprawa/data=!4m7!3m6!1s0x470444d8ed300a51:0x71b84e2cb3018138!8m2!3d52.3955619!4d16.8794529!16s%2Fg%2F12hk1kgtr!19sChIJUQow7dhEBEcROIEBsyxOuHE?authuser=0&hl=tr&rclk=1",
    "website_url": "",
    "rating_text": "4,4",
    "stars": null,
    "number_of_reviews": null,
    "price_level": "",
    "open_hours": "",
    "extraction_timestamp": "2025-06-07T17:17:09.766Z",
    "source_name": "google",
    "source_query": "Irrigation Equipment",
    "source_country": "PL",
    "country": "Poland",
    "state": "Greater Poland Voivodeship",
    "city": "Wijewo"
  },
  {
    "source_id": "ChIJ2bK4P9MABUcRhp7lI4WUDfE",
    "name": "Kąpielisko Miejskie Śrem",
    "category": "Kąpielisko Miejskie Śrem",
    "formatted_address": "4,3(899)",
    "phone_number": "",
    "source_url": "https://www.google.com/maps/place/K%C4%85pielisko+Miejskie+%C5%9Arem/data=!4m7!3m6!1s0x470500d33fb8b2d9:0xf10d948523e59e86!8m2!3d52.070966!4d17.0097007!16s%2Fg%2F1tggmbp7!19sChIJ2bK4P9MABUcRhp7lI4WUDfE?authuser=0&hl=tr&rclk=1",
    "website_url": "",
    "rating_text": "4,3",
    "stars": null,
    "number_of_reviews": null,
    "price_level": "",
    "open_hours": "",
    "extraction_timestamp": "2025-06-07T17:17:09.766Z",
    "source_name": "google",
    "source_query": "Irrigation Equipment",
    "source_country": "PL",
    "country": "Poland",
    "state": "Greater Poland Voivodeship",
    "city": "Wijewo"
  },
  {
    "source_id": "ChIJPXZPNfuwBUcRorvZM7ZTijU",
    "name": "Hurtownia instalacyjna Instal EXPERT Mirosław Urbaniak, Łukasz Gorwa s.c.",
    "category": "Hurtownia instalacyjna Instal EXPERT Mirosław Urbaniak, Łukasz Gorwa s.c.",
    "formatted_address": "Hurtownia instalacyjna Instal EXPERT Mirosław Urbaniak, Łukasz Gorwa s.c.",
    "phone_number": "+48607757438",
    "source_url": "https://www.google.com/maps/place/Hurtownia+instalacyjna+Instal+EXPERT+Miros%C5%82aw+Urbaniak,+%C5%81ukasz+Gorwa+s.c./data=!4m7!3m6!1s0x4705b0fb354f763d:0x358a53b633d9bba2!8m2!3d52.074823!4d16.621079!16s%2Fg%2F11c37yryf4!19sChIJPXZPNfuwBUcRorvZM7ZTijU?authuser=0&hl=tr&rclk=1",
    "website_url": "",
    "rating_text": "4,6",
    "stars": null,
    "number_of_reviews": null,
    "price_level": "",
    "open_hours": "",
    "extraction_timestamp": "2025-06-07T17:17:09.767Z",
    "source_name": "google",
    "source_query": "Irrigation Equipment",
    "source_country": "PL",
    "country": "Poland",
    "state": "Greater Poland Voivodeship",
    "city": "Wijewo"
  },
  {
    "source_id": "ChIJx9anqc9TBEcRTHB0lEDnK8g",
    "name": "Hydrowiert Andrzej Kaptur",
    "category": "Hydrowiert Andrzej Kaptur",
    "formatted_address": "5,0(7)",
    "phone_number": "+48782685040",
    "source_url": "https://www.google.com/maps/place/Hydrowiert+Andrzej+Kaptur/data=!4m7!3m6!1s0x470453cfa9a7d6c7:0xc82be7409474704c!8m2!3d52.2457226!4d16.8442807!16s%2Fg%2F11kphjmq_p!19sChIJx9anqc9TBEcRTHB0lEDnK8g?authuser=0&hl=tr&rclk=1",
    "website_url": "",
    "rating_text": "5,0",
    "stars": null,
    "number_of_reviews": null,
    "price_level": "",
    "open_hours": "",
    "extraction_timestamp": "2025-06-07T17:17:09.768Z",
    "source_name": "google",
    "source_query": "Irrigation Equipment",
    "source_country": "PL",
    "country": "Poland",
    "state": "Greater Poland Voivodeship",
    "city": "Wijewo"
  },
  {
    "source_id": "ChIJVTV3W_PzBEcR6gY0xwQi2_E",
    "name": "Deszczownie.com",
    "category": "Deszczownie.com",
    "formatted_address": "",
    "phone_number": "+48726000030",
    "source_url": "https://www.google.com/maps/place/Deszczownie.com/data=!4m7!3m6!1s0x4704f3f35b773555:0xf1db2204c73406ea!8m2!3d52.3623948!4d17.4021087!16s%2Fg%2F11y3pv4rxr!19sChIJVTV3W_PzBEcR6gY0xwQi2_E?authuser=0&hl=tr&rclk=1",
    "website_url": "",
    "rating_text": "",
    "stars": null,
    "number_of_reviews": null,
    "price_level": "",
    "open_hours": "",
    "extraction_timestamp": "2025-06-07T17:17:09.770Z",
    "source_name": "google",
    "source_query": "Irrigation Equipment",
    "source_country": "PL",
    "country": "Poland",
    "state": "Greater Poland Voivodeship",
    "city": "Wijewo"
  },
  {
    "source_id": "ChIJKbbNUZPUBUcRZzH5Q_PEZ7Y",
    "name": "Z.U.H. Wojciech Rajewski",
    "category": "Z.U.H. Wojciech Rajewski",
    "formatted_address": "4,8(13)",
    "phone_number": "+48601643831",
    "source_url": "https://www.google.com/maps/place/Z.U.H.+Wojciech+Rajewski/data=!4m7!3m6!1s0x4705d49351cdb629:0xb667c4f343f93167!8m2!3d52.2544057!4d16.1341154!16s%2Fg%2F11ddx40f1p!19sChIJKbbNUZPUBUcRZzH5Q_PEZ7Y?authuser=0&hl=tr&rclk=1",
    "website_url": "",
    "rating_text": "4,8",
    "stars": null,
    "number_of_reviews": null,
    "price_level": "",
    "open_hours": "",
    "extraction_timestamp": "2025-06-07T17:17:09.770Z",
    "source_name": "google",
    "source_query": "Irrigation Equipment",
    "source_country": "PL",
    "country": "Poland",
    "state": "Greater Poland Voivodeship",
    "city": "Wijewo"
  },
  {
    "source_id": "ChIJAduKWlhQBEcR_lic4Yg76mk",
    "name": "Agropomoc",
    "category": "Agropomoc",
    "formatted_address": "4,4(58)",
    "phone_number": "+48512236754",
    "source_url": "https://www.google.com/maps/place/Agropomoc/data=!4m7!3m6!1s0x470450585a8adb01:0x69ea3b88e19c58fe!8m2!3d52.4615211!4d16.6768669!16s%2Fg%2F11bv38f0mj!19sChIJAduKWlhQBEcR_lic4Yg76mk?authuser=0&hl=tr&rclk=1",
    "website_url": "",
    "rating_text": "4,4",
    "stars": null,
    "number_of_reviews": null,
    "price_level": "",
    "open_hours": "",
    "extraction_timestamp": "2025-06-07T17:17:09.771Z",
    "source_name": "google",
    "source_query": "Irrigation Equipment",
    "source_country": "PL",
    "country": "Poland",
    "state": "Greater Poland Voivodeship",
    "city": "Wijewo"
  },
  {
    "source_id": "ChIJ5zn8mw40BEcR9ztZxC5snYE",
    "name": "Ogrody Dariusz Pietrakowski",
    "category": "Ogrody Dariusz Pietrakowski",
    "formatted_address": "4,8(12)",
    "phone_number": "+48606643969",
    "source_url": "https://www.google.com/maps/place/Ogrody+Dariusz+Pietrakowski/data=!4m7!3m6!1s0x4704340e9bfc39e7:0x819d6c2ec4593bf7!8m2!3d52.3064617!4d16.4661363!16s%2Fg%2F1pp2vgdt_!19sChIJ5zn8mw40BEcR9ztZxC5snYE?authuser=0&hl=tr&rclk=1",
    "website_url": "",
    "rating_text": "4,8",
    "stars": null,
    "number_of_reviews": null,
    "price_level": "",
    "open_hours": "",
    "extraction_timestamp": "2025-06-07T17:17:09.772Z",
    "source_name": "google",
    "source_query": "Irrigation Equipment",
    "source_country": "PL",
    "country": "Poland",
    "state": "Greater Poland Voivodeship",
    "city": "Wijewo"
  },
  {
    "source_id": "ChIJ9RGassn8PG4RQVvaDmQ9beI",
    "name": "Ogrody Perfecto Jakub Pawlak",
    "category": "Ogrody Perfecto Jakub Pawlak",
    "formatted_address": "5,0(4)",
    "phone_number": "+48884884394",
    "source_url": "https://www.google.com/maps/place/Ogrody+Perfecto+Jakub+Pawlak/data=!4m7!3m6!1s0x6e3cfcc9b29a11f5:0xe26d3d640eda5b41!8m2!3d52.4006266!4d16.8551548!16s%2Fg%2F11x1gz74b3!19sChIJ9RGassn8PG4RQVvaDmQ9beI?authuser=0&hl=tr&rclk=1",
    "website_url": "",
    "rating_text": "5,0",
    "stars": null,
    "number_of_reviews": null,
    "price_level": "",
    "open_hours": "",
    "extraction_timestamp": "2025-06-07T17:17:09.773Z",
    "source_name": "google",
    "source_query": "Irrigation Equipment",
    "source_country": "PL",
    "country": "Poland",
    "state": "Greater Poland Voivodeship",
    "city": "Wijewo"
  },
  {
    "source_id": "ChIJL2l4W0dSBEcRYYLVDPWdG7w",
    "name": "Orchidea - ogrody, tereny miejskie, pola golfowe, boiska piłkarskie. Nasze usługi oferujemy na terenie całej Polski.",
    "category": "Orchidea - ogrody, tereny miejskie, pola golfowe, boiska piłkarskie. Nasze usługi oferujemy na terenie całej Polski.",
    "formatted_address": "Orchidea - ogrody, tereny miejskie, pola golfowe, boiska piłkarskie. Nasze usługi oferujemy na terenie całej Polski.",
    "phone_number": "+48604633811",
    "source_url": "https://www.google.com/maps/place/Orchidea+-+ogrody,+tereny+miejskie,+pola+golfowe,+boiska+pi%C5%82karskie.+Nasze+us%C5%82ugi+oferujemy+na+terenie+ca%C5%82ej+Polski./data=!4m7!3m6!1s0x470452475b78692f:0xbc1b9df50cd58261!8m2!3d52.2297429!4d16.8055359!16s%2Fg%2F1wz51dw1!19sChIJL2l4W0dSBEcRYYLVDPWdG7w?authuser=0&hl=tr&rclk=1",
    "website_url": "",
    "rating_text": "4,7",
    "stars": null,
    "number_of_reviews": null,
    "price_level": "",
    "open_hours": "",
    "extraction_timestamp": "2025-06-07T17:17:09.774Z",
    "source_name": "google",
    "source_query": "Irrigation Equipment",
    "source_country": "PL",
    "country": "Poland",
    "state": "Greater Poland Voivodeship",
    "city": "Wijewo"
  }
]
