[
  {
    "source_id": "ChIJw7ED7X69BUcRurdzx167SUs",
    "name": "Agregaty",
    "category": "Agregaty",
    "formatted_address": "4,8(13)",
    "phone_number": "+48655349282",
    "source_url": "https://www.google.com/maps/place/Agregaty/data=!4m7!3m6!1s0x4705bd7eed03b1c3:0x4b49bb5ec773b7ba!8m2!3d51.8817381!4d16.524245!16s%2Fg%2F11h48wln4w!19sChIJw7ED7X69BUcRurdzx167SUs?authuser=0&hl=tr&rclk=1",
    "website_url": "http://agregaty.pl/kontakt-agregaty.html",
    "rating_text": "4,8",
    "stars": null,
    "number_of_reviews": null,
    "price_level": "",
    "open_hours": "",
    "extraction_timestamp": "2025-06-07T17:58:24.349Z",
    "source_name": "google",
    "source_query": "Irrigation Equipment",
    "source_country": "PL",
    "country": "Poland",
    "state": "Greater Poland Voivodeship",
    "city": "Wilkowice"
  },
  {
    "source_id": "ChIJubxHGPq9BUcR6xe8QazZjs4",
    "name": "Adamix Instal",
    "category": "Adamix Instal",
    "formatted_address": "4,7(3)",
    "phone_number": "+48605331388",
    "source_url": "https://www.google.com/maps/place/Adamix+Instal/data=!4m7!3m6!1s0x4705bdfa1847bcb9:0xce8ed9ac41bc17eb!8m2!3d51.8907893!4d16.5469657!16s%2Fg%2F11g49sdkz7!19sChIJubxHGPq9BUcR6xe8QazZjs4?authuser=0&hl=tr&rclk=1",
    "website_url": "",
    "rating_text": "4,7",
    "stars": null,
    "number_of_reviews": null,
    "price_level": "",
    "open_hours": "",
    "extraction_timestamp": "2025-06-07T17:58:24.349Z",
    "source_name": "google",
    "source_query": "Irrigation Equipment",
    "source_country": "PL",
    "country": "Poland",
    "state": "Greater Poland Voivodeship",
    "city": "Wilkowice"
  },
  {
    "source_id": "ChIJvZYCfQWZBUcRTQWrAhWrt3M",
    "name": "Instalacje Marciniak Leszno - Pompy Ciepła - Fotowoltaika - Ogrzewanie Elektryczne- Rekuperacja",
    "category": "Instalacje Marciniak Leszno - Pompy Ciepła - Fotowoltaika - Ogrzewanie Elektryczne- Rekuperacja",
    "formatted_address": "4,9(40)",
    "phone_number": "+48880260160",
    "source_url": "https://www.google.com/maps/place/Instalacje+Marciniak+Leszno+-+Pompy+Ciep%C5%82a+-+Fotowoltaika+-+Ogrzewanie+Elektryczne-+Rekuperacja/data=!4m7!3m6!1s0x470599057d0296bd:0x73b7ab1502ab054d!8m2!3d51.8574874!4d16.5581835!16s%2Fg%2F11gns8fpsv!19sChIJvZYCfQWZBUcRTQWrAhWrt3M?authuser=0&hl=tr&rclk=1",
    "website_url": "https://instalacje-marciniak.pl/",
    "rating_text": "4,9",
    "stars": null,
    "number_of_reviews": null,
    "price_level": "",
    "open_hours": "",
    "extraction_timestamp": "2025-06-07T17:58:24.350Z",
    "source_name": "google",
    "source_query": "Irrigation Equipment",
    "source_country": "PL",
    "country": "Poland",
    "state": "Greater Poland Voivodeship",
    "city": "Wilkowice"
  },
  {
    "source_id": "ChIJF2wDNty9BUcRRfhuna-6oL0",
    "name": "Systemy Pompowe Ziemowit Mazurek",
    "category": "Systemy Pompowe Ziemowit Mazurek",
    "formatted_address": "",
    "phone_number": "+48663271438",
    "source_url": "https://www.google.com/maps/place/Systemy+Pompowe+Ziemowit+Mazurek/data=!4m7!3m6!1s0x4705bddc36036c17:0xbda0baaf9d6ef845!8m2!3d51.8817771!4d16.5308559!16s%2Fg%2F11vf54xghf!19sChIJF2wDNty9BUcRRfhuna-6oL0?authuser=0&hl=tr&rclk=1",
    "website_url": "",
    "rating_text": "",
    "stars": null,
    "number_of_reviews": null,
    "price_level": "",
    "open_hours": "",
    "extraction_timestamp": "2025-06-07T17:58:24.350Z",
    "source_name": "google",
    "source_query": "Irrigation Equipment",
    "source_country": "PL",
    "country": "Poland",
    "state": "Greater Poland Voivodeship",
    "city": "Wilkowice"
  },
  {
    "source_id": "ChIJFVCITOVPBEcRG-lA_g1qlqk",
    "name": "Technika Wody",
    "category": "Technika Wody",
    "formatted_address": "4,6(288)",
    "phone_number": "+48502506622",
    "source_url": "https://www.google.com/maps/place/Technika+Wody/data=!4m7!3m6!1s0x47044fe54c885015:0xa9966a0dfe40e91b!8m2!3d52.3740842!4d16.819808!16s%2Fg%2F11b7vsdjf5!19sChIJFVCITOVPBEcRG-lA_g1qlqk?authuser=0&hl=tr&rclk=1",
    "website_url": "http://technikawody.pl/",
    "rating_text": "4,6",
    "stars": null,
    "number_of_reviews": null,
    "price_level": "",
    "open_hours": "",
    "extraction_timestamp": "2025-06-07T17:58:24.351Z",
    "source_name": "google",
    "source_query": "Irrigation Equipment",
    "source_country": "PL",
    "country": "Poland",
    "state": "Greater Poland Voivodeship",
    "city": "Wilkowice"
  },
  {
    "source_id": "ChIJoRC9EQmYBUcR8F2Svb-Ue_E",
    "name": "Studnie głębinowe Leszno - Firma Usługowo-Produkcyjno-Handlowa Karol Płaczek",
    "category": "Studnie głębinowe Leszno - Firma Usługowo-Produkcyjno-Handlowa Karol Płaczek",
    "formatted_address": "4,8(11)",
    "phone_number": "+48692474443",
    "source_url": "https://www.google.com/maps/place/Studnie+g%C5%82%C4%99binowe+Leszno+-+Firma+Us%C5%82ugowo-Produkcyjno-Handlowa+Karol+P%C5%82aczek/data=!4m7!3m6!1s0x4705980911bd10a1:0xf17b94bfbd925df0!8m2!3d51.8649455!4d16.5933801!16s%2Fg%2F1tczj59h!19sChIJoRC9EQmYBUcR8F2Svb-Ue_E?authuser=0&hl=tr&rclk=1",
    "website_url": "https://placzek.pl/",
    "rating_text": "4,8",
    "stars": null,
    "number_of_reviews": null,
    "price_level": "",
    "open_hours": "",
    "extraction_timestamp": "2025-06-07T17:58:24.351Z",
    "source_name": "google",
    "source_query": "Irrigation Equipment",
    "source_country": "PL",
    "country": "Poland",
    "state": "Greater Poland Voivodeship",
    "city": "Wilkowice"
  }
]
