[
  {
    "source_id": "ChIJ0_FoHU0lBUcRXw1vDudVHpI",
    "name": "Z-WATER POLSKA Sp.zoo",
    "category": "Z-WATER POLSKA Sp.zoo",
    "formatted_address": "5,0(2)",
    "phone_number": "+48697989505",
    "source_url": "https://www.google.com/maps/place/Z-WATER+POLSKA+Sp.zoo/data=!4m7!3m6!1s0x4705254d1d68f1d3:0x921e55e70e6f0d5f!8m2!3d51.9423666!4d17.5683329!16s%2Fg%2F11v59cnjqk!19sChIJ0_FoHU0lBUcRXw1vDudVHpI?authuser=0&hl=tr&rclk=1",
    "website_url": "https://www.z-water.pl/",
    "rating_text": "5,0",
    "stars": null,
    "number_of_reviews": null,
    "price_level": "",
    "open_hours": "",
    "extraction_timestamp": "2025-06-07T17:32:06.462Z",
    "source_name": "google",
    "source_query": "Irrigation Equipment",
    "source_country": "PL",
    "country": "Poland",
    "state": "Greater Poland Voivodeship",
    "city": "Witaszyce"
  },
  {
    "source_id": "ChIJ78o8sckjBUcRPqBLi9zW4KE",
    "name": "WSL-TECH Sp. z o.o.",
    "category": "WSL-TECH Sp. z o.o.",
    "formatted_address": "4,9(16)",
    "phone_number": "+48797600080",
    "source_url": "https://www.google.com/maps/place/WSL-TECH+Sp.+z+o.o./data=!4m7!3m6!1s0x470523c9b13ccaef:0xa1e0d6dc8b4ba03e!8m2!3d51.937259!4d17.5597542!16s%2Fg%2F11btrrmyzz!19sChIJ78o8sckjBUcRPqBLi9zW4KE?authuser=0&hl=tr&rclk=1",
    "website_url": "http://www.wsl-tech.pl/",
    "rating_text": "4,9",
    "stars": null,
    "number_of_reviews": null,
    "price_level": "",
    "open_hours": "",
    "extraction_timestamp": "2025-06-07T17:32:06.474Z",
    "source_name": "google",
    "source_query": "Irrigation Equipment",
    "source_country": "PL",
    "country": "Poland",
    "state": "Greater Poland Voivodeship",
    "city": "Witaszyce"
  },
  {
    "source_id": "ChIJpUx4oIAjBUcRsRgL5Dqf7oc",
    "name": "MP-TECHNIK Maszyny przeciskowe, krety do przecisków, Sprzedaż i serwis kretów, kompresorów, sprężarek śrubowych.",
    "category": "MP-TECHNIK Maszyny przeciskowe, krety do przecisków, Sprzedaż i serwis kretów, kompresorów, sprężarek śrubowych.",
    "formatted_address": "MP-TECHNIK Maszyny przeciskowe, krety do przecisków, Sprzedaż i serwis kretów, kompresorów, sprężarek śrubowych.",
    "phone_number": "+48695438850",
    "source_url": "https://www.google.com/maps/place/MP-TECHNIK+Maszyny+przeciskowe,+krety+do+przecisk%C3%B3w,+Sprzeda%C5%BC+i+serwis+kret%C3%B3w,+kompresor%C3%B3w,+spr%C4%99%C5%BCarek+%C5%9Brubowych./data=!4m7!3m6!1s0x47052380a0784ca5:0x87ee9f3ae40b18b1!8m2!3d51.9505701!4d17.5323374!16s%2Fg%2F11dxm682wp!19sChIJpUx4oIAjBUcRsRgL5Dqf7oc?authuser=0&hl=tr&rclk=1",
    "website_url": "http://www.mp-technik.com.pl/",
    "rating_text": "4,7",
    "stars": null,
    "number_of_reviews": null,
    "price_level": "",
    "open_hours": "",
    "extraction_timestamp": "2025-06-07T17:32:06.475Z",
    "source_name": "google",
    "source_query": "Irrigation Equipment",
    "source_country": "PL",
    "country": "Poland",
    "state": "Greater Poland Voivodeship",
    "city": "Witaszyce"
  },
  {
    "source_id": "ChIJ8SpfQGMlBUcRyWMhywVufJg",
    "name": "FOLREC",
    "category": "FOLREC",
    "formatted_address": "5,0(44)",
    "phone_number": "+48533393351",
    "source_url": "https://www.google.com/maps/place/FOLREC/data=!4m7!3m6!1s0x47052563405f2af1:0x987c6e05cb2163c9!8m2!3d51.9409672!4d17.5485101!16s%2Fg%2F11fjs3vzn0!19sChIJ8SpfQGMlBUcRyWMhywVufJg?authuser=0&hl=tr&rclk=1",
    "website_url": "https://folrec.pl/",
    "rating_text": "5,0",
    "stars": null,
    "number_of_reviews": null,
    "price_level": "",
    "open_hours": "",
    "extraction_timestamp": "2025-06-07T17:32:06.475Z",
    "source_name": "google",
    "source_query": "Irrigation Equipment",
    "source_country": "PL",
    "country": "Poland",
    "state": "Greater Poland Voivodeship",
    "city": "Witaszyce"
  },
  {
    "source_id": "ChIJXXMGNIEkBUcR4I9pZVjxFTM",
    "name": "Hydro-Marko Produkcja",
    "category": "Hydro-Marko Produkcja",
    "formatted_address": "4,8(14)",
    "phone_number": "+48627471609",
    "source_url": "https://www.google.com/maps/place/Hydro-Marko+Produkcja/data=!4m7!3m6!1s0x470524813406735d:0x3315f15865698fe0!8m2!3d51.9419649!4d17.5343617!16s%2Fg%2F11f1yrb80b!19sChIJXXMGNIEkBUcR4I9pZVjxFTM?authuser=0&hl=tr&rclk=1",
    "website_url": "http://hydro-marko.pl/",
    "rating_text": "4,8",
    "stars": null,
    "number_of_reviews": null,
    "price_level": "",
    "open_hours": "",
    "extraction_timestamp": "2025-06-07T17:32:06.475Z",
    "source_name": "google",
    "source_query": "Irrigation Equipment",
    "source_country": "PL",
    "country": "Poland",
    "state": "Greater Poland Voivodeship",
    "city": "Witaszyce"
  },
  {
    "source_id": "ChIJn10V9p0jBUcRvLl-QrH4Fvs",
    "name": "ITT - Filtracja",
    "category": "ITT - Filtracja",
    "formatted_address": "5,0(4)",
    "phone_number": "+48627409042",
    "source_url": "https://www.google.com/maps/place/ITT+-+Filtracja/data=!4m7!3m6!1s0x4705239df6155d9f:0xfb16f8b1427eb9bc!8m2!3d51.9622227!4d17.5063423!16s%2Fg%2F11h7bgvvdn!19sChIJn10V9p0jBUcRvLl-QrH4Fvs?authuser=0&hl=tr&rclk=1",
    "website_url": "https://itt-filtracja.pl/",
    "rating_text": "5,0",
    "stars": null,
    "number_of_reviews": null,
    "price_level": "",
    "open_hours": "",
    "extraction_timestamp": "2025-06-07T17:32:06.476Z",
    "source_name": "google",
    "source_query": "Irrigation Equipment",
    "source_country": "PL",
    "country": "Poland",
    "state": "Greater Poland Voivodeship",
    "city": "Witaszyce"
  },
  {
    "source_id": "ChIJv-ZHi5wjBUcRMEOLR71JXnA",
    "name": "Hydro-Marko",
    "category": "Hydro-Marko",
    "formatted_address": "4,5(45)",
    "phone_number": "+48627471609",
    "source_url": "https://www.google.com/maps/place/Hydro-Marko/data=!4m7!3m6!1s0x4705239c8b47e6bf:0x705e49bd478b4330!8m2!3d51.9543854!4d17.5167091!16s%2Fg%2F1tf34nqm!19sChIJv-ZHi5wjBUcRMEOLR71JXnA?authuser=0&hl=tr&rclk=1",
    "website_url": "http://www.hydro-marko.pl/",
    "rating_text": "4,5",
    "stars": null,
    "number_of_reviews": null,
    "price_level": "",
    "open_hours": "",
    "extraction_timestamp": "2025-06-07T17:32:06.476Z",
    "source_name": "google",
    "source_query": "Irrigation Equipment",
    "source_country": "PL",
    "country": "Poland",
    "state": "Greater Poland Voivodeship",
    "city": "Witaszyce"
  },
  {
    "source_id": "ChIJJQ7TJIEkBUcRvt2nDf2c1dI",
    "name": "Przedsiębiorstwo Produkcyjno - Handlowe ELNAT",
    "category": "Przedsiębiorstwo Produkcyjno - Handlowe ELNAT",
    "formatted_address": "4,7(9)",
    "phone_number": "+48627401575",
    "source_url": "https://www.google.com/maps/place/Przedsi%C4%99biorstwo+Produkcyjno+-+Handlowe+ELNAT/data=!4m7!3m6!1s0x4705248124d30e25:0xd2d59cfd0da7ddbe!8m2!3d51.94273!4d17.533578!16s%2Fg%2F1tdfxdz7!19sChIJJQ7TJIEkBUcRvt2nDf2c1dI?authuser=0&hl=tr&rclk=1",
    "website_url": "http://elnat.pl/kontakt",
    "rating_text": "4,7",
    "stars": null,
    "number_of_reviews": null,
    "price_level": "",
    "open_hours": "",
    "extraction_timestamp": "2025-06-07T17:32:06.476Z",
    "source_name": "google",
    "source_query": "Irrigation Equipment",
    "source_country": "PL",
    "country": "Poland",
    "state": "Greater Poland Voivodeship",
    "city": "Witaszyce"
  },
  {
    "source_id": "ChIJlzXnGYAjBUcRr9JusgYgChU",
    "name": "NIEMCZYK POL POSITION Agencja Reklamowa Jarocin. Usługi Marketingowe. Doradztwo Internetowe. Pozycjonowanie Stron WWW.",
    "category": "NIEMCZYK POL POSITION Agencja Reklamowa Jarocin. Usługi Marketingowe. Doradztwo Internetowe. Pozycjonowanie Stron WWW.",
    "formatted_address": "4,9(18)",
    "phone_number": "+48661455362",
    "source_url": "https://www.google.com/maps/place/NIEMCZYK+POL+POSITION+Agencja+Reklamowa+Jarocin.+Us%C5%82ugi+Marketingowe.+Doradztwo+Internetowe.+Pozycjonowanie+Stron+WWW./data=!4m7!3m6!1s0x4705238019e73597:0x150a2006b26ed2af!8m2!3d51.9480417!4d17.540181!16s%2Fg%2F11b7jg2lbw!19sChIJlzXnGYAjBUcRr9JusgYgChU?authuser=0&hl=tr&rclk=1",
    "website_url": "https://internetowydoradca.pl/",
    "rating_text": "4,9",
    "stars": null,
    "number_of_reviews": null,
    "price_level": "",
    "open_hours": "",
    "extraction_timestamp": "2025-06-07T17:32:06.476Z",
    "source_name": "google",
    "source_query": "Irrigation Equipment",
    "source_country": "PL",
    "country": "Poland",
    "state": "Greater Poland Voivodeship",
    "city": "Witaszyce"
  },
  {
    "source_id": "ChIJJ0bHSsUlBUcRZ52YV8bfFqI",
    "name": "OGRODY \"Zielony\" Gajewski Grzegorz Jarocin",
    "category": "OGRODY \"Zielony\" Gajewski Grzegorz Jarocin",
    "formatted_address": "4,8(6)",
    "phone_number": "+48722100905",
    "source_url": "https://www.google.com/maps/place/OGRODY+%22Zielony%22+Gajewski+Grzegorz+Jarocin/data=!4m7!3m6!1s0x470525c54ac74627:0xa216dfc657989d67!8m2!3d51.9456628!4d17.5784526!16s%2Fg%2F11g_qzj_vx!19sChIJJ0bHSsUlBUcRZ52YV8bfFqI?authuser=0&hl=tr&rclk=1",
    "website_url": "http://www.ogrodyzielony.pl/",
    "rating_text": "4,8",
    "stars": null,
    "number_of_reviews": null,
    "price_level": "",
    "open_hours": "",
    "extraction_timestamp": "2025-06-07T17:32:06.477Z",
    "source_name": "google",
    "source_query": "Irrigation Equipment",
    "source_country": "PL",
    "country": "Poland",
    "state": "Greater Poland Voivodeship",
    "city": "Witaszyce"
  },
  {
    "source_id": "ChIJQQCEGrIjBUcRw6arIDFO-7I",
    "name": "Linde Gaz Polska Sp. z o.o.Partner Handlowy",
    "category": "Linde Gaz Polska Sp. z o.o.Partner Handlowy",
    "formatted_address": "5,0(4)",
    "phone_number": "+48625941405",
    "source_url": "https://www.google.com/maps/place/Linde+Gaz+Polska+Sp.+z+o.o.Partner+Handlowy/data=!4m7!3m6!1s0x470523b21a840041:0xb2fb4e3120aba6c3!8m2!3d51.9652566!4d17.4833971!16s%2Fg%2F11c6qcsvgm!19sChIJQQCEGrIjBUcRw6arIDFO-7I?authuser=0&hl=tr&rclk=1",
    "website_url": "https://www.facebook.com/WeldCenterJarocin",
    "rating_text": "5,0",
    "stars": null,
    "number_of_reviews": null,
    "price_level": "",
    "open_hours": "",
    "extraction_timestamp": "2025-06-07T17:32:06.477Z",
    "source_name": "google",
    "source_query": "Irrigation Equipment",
    "source_country": "PL",
    "country": "Poland",
    "state": "Greater Poland Voivodeship",
    "city": "Witaszyce"
  },
  {
    "source_id": "ChIJCS7cObHcr2cR9_CL8zXrAOo",
    "name": "Z-WATER POLSKA Sp z.oo",
    "category": "Z-WATER POLSKA Sp z.oo",
    "formatted_address": "",
    "phone_number": "+48697989505",
    "source_url": "https://www.google.com/maps/place/Z-WATER+POLSKA+Sp+z.oo/data=!4m7!3m6!1s0x67afdcb139dc2e09:0xea00eb35f38bf0f7!8m2!3d51.953761!4d19.1343692!16s%2Fg%2F11t1n92_9l!19sChIJCS7cObHcr2cR9_CL8zXrAOo?authuser=0&hl=tr&rclk=1",
    "website_url": "http://www.z-water.pl/",
    "rating_text": "",
    "stars": null,
    "number_of_reviews": null,
    "price_level": "",
    "open_hours": "",
    "extraction_timestamp": "2025-06-07T17:32:06.477Z",
    "source_name": "google",
    "source_query": "Irrigation Equipment",
    "source_country": "PL",
    "country": "Poland",
    "state": "Greater Poland Voivodeship",
    "city": "Witaszyce"
  }
]
