[
  {
    "source_id": "ChIJzxsQE0a-BEcRV5CkTLs8EZw",
    "name": "M. P. AGRI Maciej Przybylski Narzędzia rolnicze Sprzedaż ciągników",
    "category": "M. P. AGRI Maciej Przybylski Narzędzia rolnicze Sprzedaż ciągników",
    "formatted_address": "4,8(32)",
    "phone_number": "+48795533123",
    "source_url": "https://www.google.com/maps/place/M.+P.+AGRI+Maciej+Przybylski+Narz%C4%99dzia+rolnicze+Sprzeda%C5%BC+ci%C4%85gnik%C3%B3w/data=!4m7!3m6!1s0x4704be4613101bcf:0x9c113cbb4ca49057!8m2!3d52.4485511!4d17.7644119!16s%2Fg%2F11byxgfpjl!19sChIJzxsQE0a-BEcRV5CkTLs8EZw?authuser=0&hl=tr&rclk=1",
    "website_url": "",
    "rating_text": "4,8",
    "stars": null,
    "number_of_reviews": null,
    "price_level": "",
    "open_hours": "",
    "extraction_timestamp": "2025-06-07T17:31:57.602Z",
    "source_name": "google",
    "source_query": "Irrigation Equipment",
    "source_country": "PL",
    "country": "Poland",
    "state": "Greater Poland Voivodeship",
    "city": "Witkowo"
  },
  {
    "source_id": "ChIJf69J8VG-BEcRd4gGk_jnVPI",
    "name": "Agrawit Agata Trzebińska",
    "category": "Agrawit Agata Trzebińska",
    "formatted_address": "5,0(9)",
    "phone_number": "+48608682593",
    "source_url": "https://www.google.com/maps/place/Agrawit+Agata+Trzebi%C5%84ska/data=!4m7!3m6!1s0x4704be51f149af7f:0xf254e7f893068877!8m2!3d52.4405799!4d17.7732916!16s%2Fg%2F1tj883qj!19sChIJf69J8VG-BEcRd4gGk_jnVPI?authuser=0&hl=tr&rclk=1",
    "website_url": "",
    "rating_text": "5,0",
    "stars": null,
    "number_of_reviews": null,
    "price_level": "",
    "open_hours": "",
    "extraction_timestamp": "2025-06-07T17:31:57.603Z",
    "source_name": "google",
    "source_query": "Irrigation Equipment",
    "source_country": "PL",
    "country": "Poland",
    "state": "Greater Poland Voivodeship",
    "city": "Witkowo"
  },
  {
    "source_id": "ChIJD6Ie8Ji_BEcRhD5r35PefKE",
    "name": "HIPPER.pl",
    "category": "HIPPER.pl",
    "formatted_address": "4,3(190)",
    "phone_number": "+48502863474",
    "source_url": "https://www.google.com/maps/place/HIPPER.pl/data=!4m7!3m6!1s0x4704bf98f01ea20f:0xa17cde93df6b3e84!8m2!3d52.441865!4d17.7777914!16s%2Fg%2F11fk4krlx_!19sChIJD6Ie8Ji_BEcRhD5r35PefKE?authuser=0&hl=tr&rclk=1",
    "website_url": "",
    "rating_text": "4,3",
    "stars": null,
    "number_of_reviews": null,
    "price_level": "",
    "open_hours": "",
    "extraction_timestamp": "2025-06-07T17:31:57.604Z",
    "source_name": "google",
    "source_query": "Irrigation Equipment",
    "source_country": "PL",
    "country": "Poland",
    "state": "Greater Poland Voivodeship",
    "city": "Witkowo"
  },
  {
    "source_id": "ChIJXR3o41u_BEcRVWV-VGYcZXM",
    "name": "Market Budowlany Pszczółka Witkowo",
    "category": "Market Budowlany Pszczółka Witkowo",
    "formatted_address": "4,8(30)",
    "phone_number": "+48614770260",
    "source_url": "https://www.google.com/maps/place/Market+Budowlany+Pszcz%C3%B3%C5%82ka+Witkowo/data=!4m7!3m6!1s0x4704bf5be3e81d5d:0x73651c66547e6555!8m2!3d52.4391729!4d17.7698226!16s%2Fg%2F11gm6s81x_!19sChIJXR3o41u_BEcRVWV-VGYcZXM?authuser=0&hl=tr&rclk=1",
    "website_url": "",
    "rating_text": "4,8",
    "stars": null,
    "number_of_reviews": null,
    "price_level": "",
    "open_hours": "",
    "extraction_timestamp": "2025-06-07T17:31:57.605Z",
    "source_name": "google",
    "source_query": "Irrigation Equipment",
    "source_country": "PL",
    "country": "Poland",
    "state": "Greater Poland Voivodeship",
    "city": "Witkowo"
  },
  {
    "source_id": "ChIJf1Ybrle-BEcRzyEHvzW00uk",
    "name": "Usługi Hydrauliczne",
    "category": "Usługi Hydrauliczne",
    "formatted_address": "5,0(6)",
    "phone_number": "+48781814506",
    "source_url": "https://www.google.com/maps/place/Us%C5%82ugi+Hydrauliczne/data=!4m7!3m6!1s0x4704be57ae1b567f:0xe9d2b435bf0721cf!8m2!3d52.4418839!4d17.785757!16s%2Fg%2F11b6zntgjj!19sChIJf1Ybrle-BEcRzyEHvzW00uk?authuser=0&hl=tr&rclk=1",
    "website_url": "",
    "rating_text": "5,0",
    "stars": null,
    "number_of_reviews": null,
    "price_level": "",
    "open_hours": "",
    "extraction_timestamp": "2025-06-07T17:31:57.605Z",
    "source_name": "google",
    "source_query": "Irrigation Equipment",
    "source_country": "PL",
    "country": "Poland",
    "state": "Greater Poland Voivodeship",
    "city": "Witkowo"
  },
  {
    "source_id": "ChIJeZgY1xqRBEcRpcLMUkxBkfI",
    "name": "Ha-Two-O Paweł Filipiak",
    "category": "Ha-Two-O Paweł Filipiak",
    "formatted_address": "4,8(101)",
    "phone_number": "+48575579000",
    "source_url": "https://www.google.com/maps/place/Ha-Two-O+Pawe%C5%82+Filipiak/data=!4m7!3m6!1s0x4704911ad7189879:0xf291414c52ccc2a5!8m2!3d52.5491138!4d17.555824!16s%2Fg%2F1x6q0ggt!19sChIJeZgY1xqRBEcRpcLMUkxBkfI?authuser=0&hl=tr&rclk=1",
    "website_url": "",
    "rating_text": "4,8",
    "stars": null,
    "number_of_reviews": null,
    "price_level": "",
    "open_hours": "",
    "extraction_timestamp": "2025-06-07T17:31:57.606Z",
    "source_name": "google",
    "source_query": "Irrigation Equipment",
    "source_country": "PL",
    "country": "Poland",
    "state": "Greater Poland Voivodeship",
    "city": "Witkowo"
  },
  {
    "source_id": "ChIJD6lreU6-BEcRZqXsBM2f1HQ",
    "name": "Rem-Bud. Materiały Budowlane Witkowo",
    "category": "Rem-Bud. Materiały Budowlane Witkowo",
    "formatted_address": "5,0(4)",
    "phone_number": "+48664302077",
    "source_url": "https://www.google.com/maps/place/Rem-Bud.+Materia%C5%82y+Budowlane+Witkowo/data=!4m7!3m6!1s0x4704be4e796ba90f:0x74d49fcd04eca566!8m2!3d52.4424128!4d17.768598!16s%2Fg%2F11hzjz4lb2!19sChIJD6lreU6-BEcRZqXsBM2f1HQ?authuser=0&hl=tr&rclk=1",
    "website_url": "",
    "rating_text": "5,0",
    "stars": null,
    "number_of_reviews": null,
    "price_level": "",
    "open_hours": "",
    "extraction_timestamp": "2025-06-07T17:31:57.607Z",
    "source_name": "google",
    "source_query": "Irrigation Equipment",
    "source_country": "PL",
    "country": "Poland",
    "state": "Greater Poland Voivodeship",
    "city": "Witkowo"
  },
  {
    "source_id": "ChIJKw6_HFK-BEcRyPMBJRyjyBA",
    "name": "Goman. Biela A.",
    "category": "Goman. Biela A.",
    "formatted_address": "4,1(32)",
    "phone_number": "+48503556456",
    "source_url": "https://www.google.com/maps/place/Goman.+Biela+A./data=!4m7!3m6!1s0x4704be521cbf0e2b:0x10c8a31c2501f3c8!8m2!3d52.4405273!4d17.7725312!16s%2Fg%2F1vnrjqld!19sChIJKw6_HFK-BEcRyPMBJRyjyBA?authuser=0&hl=tr&rclk=1",
    "website_url": "",
    "rating_text": "4,1",
    "stars": null,
    "number_of_reviews": null,
    "price_level": "",
    "open_hours": "",
    "extraction_timestamp": "2025-06-07T17:31:57.608Z",
    "source_name": "google",
    "source_query": "Irrigation Equipment",
    "source_country": "PL",
    "country": "Poland",
    "state": "Greater Poland Voivodeship",
    "city": "Witkowo"
  },
  {
    "source_id": "ChIJAyUAAFO-BEcRQRqI0zJbGmQ",
    "name": "Euro Sam",
    "category": "Euro Sam",
    "formatted_address": "4,6(539)",
    "phone_number": "+48614778201",
    "source_url": "https://www.google.com/maps/place/Euro+Sam/data=!4m7!3m6!1s0x4704be5300002503:0x641a5b32d3881a41!8m2!3d52.4378455!4d17.7737615!16s%2Fg%2F11c2pfpcx6!19sChIJAyUAAFO-BEcRQRqI0zJbGmQ?authuser=0&hl=tr&rclk=1",
    "website_url": "",
    "rating_text": "4,6",
    "stars": null,
    "number_of_reviews": null,
    "price_level": "",
    "open_hours": "",
    "extraction_timestamp": "2025-06-07T17:31:57.609Z",
    "source_name": "google",
    "source_query": "Irrigation Equipment",
    "source_country": "PL",
    "country": "Poland",
    "state": "Greater Poland Voivodeship",
    "city": "Witkowo"
  },
  {
    "source_id": "ChIJPayaakm-BEcRobSuIlFmIQE",
    "name": "Twój Ogród. Knast E.B.",
    "category": "Twój Ogród. Knast E.B.",
    "formatted_address": "4,4(29)",
    "phone_number": "+48693553205",
    "source_url": "https://www.google.com/maps/place/Tw%C3%B3j+Ogr%C3%B3d.+Knast+E.B./data=!4m7!3m6!1s0x4704be496a9aac3d:0x121665122aeb4a1!8m2!3d52.445854!4d17.757281!16s%2Fg%2F1hc4p49r3!19sChIJPayaakm-BEcRobSuIlFmIQE?authuser=0&hl=tr&rclk=1",
    "website_url": "",
    "rating_text": "4,4",
    "stars": null,
    "number_of_reviews": null,
    "price_level": "",
    "open_hours": "",
    "extraction_timestamp": "2025-06-07T17:31:57.610Z",
    "source_name": "google",
    "source_query": "Irrigation Equipment",
    "source_country": "PL",
    "country": "Poland",
    "state": "Greater Poland Voivodeship",
    "city": "Witkowo"
  },
  {
    "source_id": "ChIJP5F6JFO-BEcRkxjRVIDYh8M",
    "name": "POLOmarket",
    "category": "POLOmarket",
    "formatted_address": "4,0(310)",
    "phone_number": "+48614777363",
    "source_url": "https://www.google.com/maps/place/POLOmarket/data=!4m7!3m6!1s0x4704be53247a913f:0xc387d88054d11893!8m2!3d52.4393785!4d17.7697648!16s%2Fg%2F1hc18h47f!19sChIJP5F6JFO-BEcRkxjRVIDYh8M?authuser=0&hl=tr&rclk=1",
    "website_url": "",
    "rating_text": "4,0",
    "stars": null,
    "number_of_reviews": null,
    "price_level": "",
    "open_hours": "",
    "extraction_timestamp": "2025-06-07T17:31:57.611Z",
    "source_name": "google",
    "source_query": "Irrigation Equipment",
    "source_country": "PL",
    "country": "Poland",
    "state": "Greater Poland Voivodeship",
    "city": "Witkowo"
  },
  {
    "source_id": "ChIJJaUKWNl7G0cR7ntWKxioINo",
    "name": "Agricola Hydraulika Siłowa",
    "category": "Agricola Hydraulika Siłowa",
    "formatted_address": "4,6(239)",
    "phone_number": "+48542844000",
    "source_url": "https://www.google.com/maps/place/Agricola+Hydraulika+Si%C5%82owa/data=!4m7!3m6!1s0x471b7bd9580aa525:0xda20a8182b567bee!8m2!3d52.4025839!4d19.1676066!16s%2Fg%2F1tk8mbkz!19sChIJJaUKWNl7G0cR7ntWKxioINo?authuser=0&hl=tr&rclk=1",
    "website_url": "",
    "rating_text": "4,6",
    "stars": null,
    "number_of_reviews": null,
    "price_level": "",
    "open_hours": "",
    "extraction_timestamp": "2025-06-07T17:31:57.612Z",
    "source_name": "google",
    "source_query": "Irrigation Equipment",
    "source_country": "PL",
    "country": "Poland",
    "state": "Greater Poland Voivodeship",
    "city": "Witkowo"
  },
  {
    "source_id": "ChIJZaixYgG_BEcRxDUZtDVNKao",
    "name": "Drogeria Rossmann",
    "category": "Drogeria Rossmann",
    "formatted_address": "4,5(141)",
    "phone_number": "+48426139700",
    "source_url": "https://www.google.com/maps/place/Drogeria+Rossmann/data=!4m7!3m6!1s0x4704bf0162b1a865:0xaa294d35b41935c4!8m2!3d52.43725!4d17.770938!16s%2Fg%2F11gxt2kg9w!19sChIJZaixYgG_BEcRxDUZtDVNKao?authuser=0&hl=tr&rclk=1",
    "website_url": "",
    "rating_text": "4,5",
    "stars": null,
    "number_of_reviews": null,
    "price_level": "",
    "open_hours": "",
    "extraction_timestamp": "2025-06-07T17:31:57.613Z",
    "source_name": "google",
    "source_query": "Irrigation Equipment",
    "source_country": "PL",
    "country": "Poland",
    "state": "Greater Poland Voivodeship",
    "city": "Witkowo"
  },
  {
    "source_id": "ChIJk74OvBK_BEcRFR_jsoRx_hg",
    "name": "Sklep Polski",
    "category": "Sklep Polski",
    "formatted_address": "4,2(75)",
    "phone_number": "",
    "source_url": "https://www.google.com/maps/place/Sklep+Polski/data=!4m7!3m6!1s0x4704bf12bc0ebe93:0x18fe7184b2e31f15!8m2!3d52.4403816!4d17.7808131!16s%2Fg%2F11fk09f81c!19sChIJk74OvBK_BEcRFR_jsoRx_hg?authuser=0&hl=tr&rclk=1",
    "website_url": "",
    "rating_text": "4,2",
    "stars": null,
    "number_of_reviews": null,
    "price_level": "",
    "open_hours": "",
    "extraction_timestamp": "2025-06-07T17:31:57.613Z",
    "source_name": "google",
    "source_query": "Irrigation Equipment",
    "source_country": "PL",
    "country": "Poland",
    "state": "Greater Poland Voivodeship",
    "city": "Witkowo"
  },
  {
    "source_id": "ChIJGzKf_VK-BEcRKJ_lJ02gTec",
    "name": "Cegielski Stanisław. Sklep z art. motoryzacyjnymi",
    "category": "Cegielski Stanisław. Sklep z art. motoryzacyjnymi",
    "formatted_address": "4,8(23)",
    "phone_number": "+48614778785",
    "source_url": "https://www.google.com/maps/place/Cegielski+Stanis%C5%82aw.+Sklep+z+art.+motoryzacyjnymi/data=!4m7!3m6!1s0x4704be52fd9f321b:0xe74da04d27e59f28!8m2!3d52.437422!4d17.7733411!16s%2Fg%2F1tgx59cq!19sChIJGzKf_VK-BEcRKJ_lJ02gTec?authuser=0&hl=tr&rclk=1",
    "website_url": "",
    "rating_text": "4,8",
    "stars": null,
    "number_of_reviews": null,
    "price_level": "",
    "open_hours": "",
    "extraction_timestamp": "2025-06-07T17:31:57.614Z",
    "source_name": "google",
    "source_query": "Irrigation Equipment",
    "source_country": "PL",
    "country": "Poland",
    "state": "Greater Poland Voivodeship",
    "city": "Witkowo"
  },
  {
    "source_id": "ChIJg5KolVK-BEcRugJwb6tAjUk",
    "name": "Biedronka",
    "category": "Biedronka",
    "formatted_address": "4,2(992)",
    "phone_number": "+48800080010",
    "source_url": "https://www.google.com/maps/place/Biedronka/data=!4m7!3m6!1s0x4704be5295a89283:0x498d40ab6f7002ba!8m2!3d52.4368019!4d17.7709728!16s%2Fg%2F11b5ymgh64!19sChIJg5KolVK-BEcRugJwb6tAjUk?authuser=0&hl=tr&rclk=1",
    "website_url": "",
    "rating_text": "4,2",
    "stars": null,
    "number_of_reviews": null,
    "price_level": "",
    "open_hours": "",
    "extraction_timestamp": "2025-06-07T17:31:57.615Z",
    "source_name": "google",
    "source_query": "Irrigation Equipment",
    "source_country": "PL",
    "country": "Poland",
    "state": "Greater Poland Voivodeship",
    "city": "Witkowo"
  },
  {
    "source_id": "ChIJ82fDPAv7BEcR0t557L9SvKI",
    "name": "Agro-Weld Arkadiusz Cegłowski",
    "category": "Agro-Weld Arkadiusz Cegłowski",
    "formatted_address": "5,0(15)",
    "phone_number": "+48725140257",
    "source_url": "https://www.google.com/maps/place/Agro-Weld+Arkadiusz+Ceg%C5%82owski/data=!4m7!3m6!1s0x4704fb0b3cc367f3:0xa2bc52bfec79ded2!8m2!3d52.2281481!4d17.2572359!16s%2Fg%2F11gbf9cdj_!19sChIJ82fDPAv7BEcR0t557L9SvKI?authuser=0&hl=tr&rclk=1",
    "website_url": "",
    "rating_text": "5,0",
    "stars": null,
    "number_of_reviews": null,
    "price_level": "",
    "open_hours": "",
    "extraction_timestamp": "2025-06-07T17:31:57.615Z",
    "source_name": "google",
    "source_query": "Irrigation Equipment",
    "source_country": "PL",
    "country": "Poland",
    "state": "Greater Poland Voivodeship",
    "city": "Witkowo"
  },
  {
    "source_id": "ChIJr_0uPlK-BEcRxPilZhkaRwQ",
    "name": "Zakłady mięsne \"BYSTRY\"",
    "category": "Zakłady mięsne \"BYSTRY\"",
    "formatted_address": "4,3(21)",
    "phone_number": "+48614777073",
    "source_url": "https://www.google.com/maps/place/Zak%C5%82ady+mi%C4%99sne+%22BYSTRY%22/data=!4m7!3m6!1s0x4704be523e2efdaf:0x4471a1966a5f8c4!8m2!3d52.4409514!4d17.7736322!16s%2Fg%2F1tdw255p!19sChIJr_0uPlK-BEcRxPilZhkaRwQ?authuser=0&hl=tr&rclk=1",
    "website_url": "",
    "rating_text": "4,3",
    "stars": null,
    "number_of_reviews": null,
    "price_level": "",
    "open_hours": "",
    "extraction_timestamp": "2025-06-07T17:31:57.616Z",
    "source_name": "google",
    "source_query": "Irrigation Equipment",
    "source_country": "PL",
    "country": "Poland",
    "state": "Greater Poland Voivodeship",
    "city": "Witkowo"
  },
  {
    "source_id": "ChIJnd3FD02-BEcRSCHlVJisu24",
    "name": "Zakłady mięsne \"BYSTRY\"",
    "category": "Zakłady mięsne \"BYSTRY\"",
    "formatted_address": "4,4(16)",
    "phone_number": "+48614778587",
    "source_url": "https://www.google.com/maps/place/Zak%C5%82ady+mi%C4%99sne+%22BYSTRY%22/data=!4m7!3m6!1s0x4704be4d0fc5dd9d:0x6ebbac9854e52148!8m2!3d52.4385066!4d17.7669964!16s%2Fg%2F1vnthlks!19sChIJnd3FD02-BEcRSCHlVJisu24?authuser=0&hl=tr&rclk=1",
    "website_url": "",
    "rating_text": "4,4",
    "stars": null,
    "number_of_reviews": null,
    "price_level": "",
    "open_hours": "",
    "extraction_timestamp": "2025-06-07T17:31:57.617Z",
    "source_name": "google",
    "source_query": "Irrigation Equipment",
    "source_country": "PL",
    "country": "Poland",
    "state": "Greater Poland Voivodeship",
    "city": "Witkowo"
  },
  {
    "source_id": "ChIJYRZ0IVK-BEcRX1-NEGrqKOw",
    "name": "Sklep Spożywczy GS Witkowo",
    "category": "Sklep Spożywczy GS Witkowo",
    "formatted_address": "4,4(13)",
    "phone_number": "+48614778163",
    "source_url": "https://www.google.com/maps/place/Sklep+Spo%C5%BCywczy+GS+Witkowo/data=!4m7!3m6!1s0x4704be5221741661:0xec28ea6a108d5f5f!8m2!3d52.439459!4d17.772872!16s%2Fg%2F1thd0j1m!19sChIJYRZ0IVK-BEcRX1-NEGrqKOw?authuser=0&hl=tr&rclk=1",
    "website_url": "",
    "rating_text": "4,4",
    "stars": null,
    "number_of_reviews": null,
    "price_level": "",
    "open_hours": "",
    "extraction_timestamp": "2025-06-07T17:31:57.618Z",
    "source_name": "google",
    "source_query": "Irrigation Equipment",
    "source_country": "PL",
    "country": "Poland",
    "state": "Greater Poland Voivodeship",
    "city": "Witkowo"
  },
  {
    "source_id": "ChIJR04HprOiBEcRimDlaVeaHjg",
    "name": "HYDROART GACA SP. With O.O.",
    "category": "HYDROART GACA SP. With O.O.",
    "formatted_address": "4,5(394)",
    "phone_number": "+48614282710",
    "source_url": "https://www.google.com/maps/place/HYDROART+GACA+SP.+With+O.O./data=!4m7!3m6!1s0x4704a2b3a6074e47:0x381e9a5769e5608a!8m2!3d52.5625604!4d17.824335!16s%2Fg%2F1td3k900!19sChIJR04HprOiBEcRimDlaVeaHjg?authuser=0&hl=tr&rclk=1",
    "website_url": "",
    "rating_text": "4,5",
    "stars": null,
    "number_of_reviews": null,
    "price_level": "",
    "open_hours": "",
    "extraction_timestamp": "2025-06-07T17:31:57.618Z",
    "source_name": "google",
    "source_query": "Irrigation Equipment",
    "source_country": "PL",
    "country": "Poland",
    "state": "Greater Poland Voivodeship",
    "city": "Witkowo"
  },
  {
    "source_id": "ChIJya8AkuGNBEcRmn4YDaT8GfU",
    "name": "ARMATURA \"EFEKT\" S.A.",
    "category": "ARMATURA \"EFEKT\" S.A.",
    "formatted_address": "3,0(2)",
    "phone_number": "+48614272245",
    "source_url": "https://www.google.com/maps/place/ARMATURA+%22EFEKT%22+S.A./data=!4m7!3m6!1s0x47048de19200afc9:0xf519fca40d187e9a!8m2!3d52.528009!4d17.4845186!16s%2Fg%2F1thvrd6_!19sChIJya8AkuGNBEcRmn4YDaT8GfU?authuser=0&hl=tr&rclk=1",
    "website_url": "",
    "rating_text": "3,0",
    "stars": null,
    "number_of_reviews": null,
    "price_level": "",
    "open_hours": "",
    "extraction_timestamp": "2025-06-07T17:31:57.619Z",
    "source_name": "google",
    "source_query": "Irrigation Equipment",
    "source_country": "PL",
    "country": "Poland",
    "state": "Greater Poland Voivodeship",
    "city": "Witkowo"
  },
  {
    "source_id": "ChIJba-L2kGRBEcReMof_Qz5t2I",
    "name": "WODKAN",
    "category": "WODKAN",
    "formatted_address": "4,4(73)",
    "phone_number": "+48614264788",
    "source_url": "https://www.google.com/maps/place/WODKAN/data=!4m7!3m6!1s0x47049141da8baf6d:0x62b7f90cfd1fca78!8m2!3d52.5228121!4d17.6103852!16s%2Fg%2F11fjzw4xkj!19sChIJba-L2kGRBEcReMof_Qz5t2I?authuser=0&hl=tr&rclk=1",
    "website_url": "",
    "rating_text": "4,4",
    "stars": null,
    "number_of_reviews": null,
    "price_level": "",
    "open_hours": "",
    "extraction_timestamp": "2025-06-07T17:31:57.620Z",
    "source_name": "google",
    "source_query": "Irrigation Equipment",
    "source_country": "PL",
    "country": "Poland",
    "state": "Greater Poland Voivodeship",
    "city": "Witkowo"
  },
  {
    "source_id": "ChIJq3ZuChspzY0RlAcbMNY5mRg",
    "name": "PODLEWAMY24.pl",
    "category": "PODLEWAMY24.pl",
    "formatted_address": "5,0(43)",
    "phone_number": "+48509215271",
    "source_url": "https://www.google.com/maps/place/PODLEWAMY24.pl/data=!4m7!3m6!1s0x8dcd291b0a6e76ab:0x189939d6301b0794!8m2!3d52.2778206!4d16.9790131!16s%2Fg%2F11rhfnnqkx!19sChIJq3ZuChspzY0RlAcbMNY5mRg?authuser=0&hl=tr&rclk=1",
    "website_url": "",
    "rating_text": "5,0",
    "stars": null,
    "number_of_reviews": null,
    "price_level": "",
    "open_hours": "",
    "extraction_timestamp": "2025-06-07T17:31:57.620Z",
    "source_name": "google",
    "source_query": "Irrigation Equipment",
    "source_country": "PL",
    "country": "Poland",
    "state": "Greater Poland Voivodeship",
    "city": "Witkowo"
  },
  {
    "source_id": "ChIJF0FzqaehBEcRWgD6MXB_CBA",
    "name": "SM-AGRO Powered by Kramp",
    "category": "SM-AGRO Powered by Kramp",
    "formatted_address": "4,8(44)",
    "phone_number": "+48523152254",
    "source_url": "https://www.google.com/maps/place/SM-AGRO+Powered+by+Kramp/data=!4m7!3m6!1s0x4704a1a7a9734117:0x10087f7031fa005a!8m2!3d52.6612299!4d17.9327416!16s%2Fg%2F1vrq8bnz!19sChIJF0FzqaehBEcRWgD6MXB_CBA?authuser=0&hl=tr&rclk=1",
    "website_url": "",
    "rating_text": "4,8",
    "stars": null,
    "number_of_reviews": null,
    "price_level": "",
    "open_hours": "",
    "extraction_timestamp": "2025-06-07T17:31:57.621Z",
    "source_name": "google",
    "source_query": "Irrigation Equipment",
    "source_country": "PL",
    "country": "Poland",
    "state": "Greater Poland Voivodeship",
    "city": "Witkowo"
  },
  {
    "source_id": "ChIJxZTSQBWhBEcRF4aeNWXNi-w",
    "name": "Gardenbaum - Kompleksowe usługi ogrodnicze",
    "category": "Gardenbaum - Kompleksowe usługi ogrodnicze",
    "formatted_address": "5,0(7)",
    "phone_number": "+48575437261",
    "source_url": "https://www.google.com/maps/place/Gardenbaum+-+Kompleksowe+us%C5%82ugi+ogrodnicze/data=!4m7!3m6!1s0x4704a11540d294c5:0xec8bcd65359e8617!8m2!3d52.668365!4d17.9625112!16s%2Fg%2F11mwyx6wz6!19sChIJxZTSQBWhBEcRF4aeNWXNi-w?authuser=0&hl=tr&rclk=1",
    "website_url": "",
    "rating_text": "5,0",
    "stars": null,
    "number_of_reviews": null,
    "price_level": "",
    "open_hours": "",
    "extraction_timestamp": "2025-06-07T17:31:57.622Z",
    "source_name": "google",
    "source_query": "Irrigation Equipment",
    "source_country": "PL",
    "country": "Poland",
    "state": "Greater Poland Voivodeship",
    "city": "Witkowo"
  },
  {
    "source_id": "ChIJmcKs4_O5BEcRvMVzbwVFCe0",
    "name": "Plaża Przybrodzin",
    "category": "Plaża Przybrodzin",
    "formatted_address": "4,4(789)",
    "phone_number": "",
    "source_url": "https://www.google.com/maps/place/Pla%C5%BCa+Przybrodzin/data=!4m7!3m6!1s0x4704b9f3e3acc299:0xed0945056f73c5bc!8m2!3d52.431896!4d17.9370331!16s%2Fg%2F11f6f_hsjt!19sChIJmcKs4_O5BEcRvMVzbwVFCe0?authuser=0&hl=tr&rclk=1",
    "website_url": "",
    "rating_text": "4,4",
    "stars": null,
    "number_of_reviews": null,
    "price_level": "",
    "open_hours": "",
    "extraction_timestamp": "2025-06-07T17:31:57.622Z",
    "source_name": "google",
    "source_query": "Irrigation Equipment",
    "source_country": "PL",
    "country": "Poland",
    "state": "Greater Poland Voivodeship",
    "city": "Witkowo"
  },
  {
    "source_id": "ChIJXzf_ZlyRBEcRSHGvceKu3BE",
    "name": "P.H.U. \"RADO\" Radosław Gieburowski Grupa SBS",
    "category": "P.H.U. \"RADO\" Radosław Gieburowski Grupa SBS",
    "formatted_address": "4,7(96)",
    "phone_number": "",
    "source_url": "https://www.google.com/maps/place/P.H.U.+%22RADO%22+Rados%C5%82aw+Gieburowski+Grupa+SBS/data=!4m7!3m6!1s0x4704915c66ff375f:0x11dcaee271af7148!8m2!3d52.512284!4d17.609528!16s%2Fg%2F1tj883q9!19sChIJXzf_ZlyRBEcRSHGvceKu3BE?authuser=0&hl=tr&rclk=1",
    "website_url": "",
    "rating_text": "4,7",
    "stars": null,
    "number_of_reviews": null,
    "price_level": "",
    "open_hours": "",
    "extraction_timestamp": "2025-06-07T17:31:57.623Z",
    "source_name": "google",
    "source_query": "Irrigation Equipment",
    "source_country": "PL",
    "country": "Poland",
    "state": "Greater Poland Voivodeship",
    "city": "Witkowo"
  },
  {
    "source_id": "ChIJU1qwgBydA0cR6kpBeahDutk",
    "name": "GRENE",
    "category": "GRENE",
    "formatted_address": "4,5(77)",
    "phone_number": "+48523847347",
    "source_url": "https://www.google.com/maps/place/GRENE/data=!4m7!3m6!1s0x47039d1c80b05a53:0xd9ba43a879414aea!8m2!3d52.9951999!4d17.4889767!16s%2Fg%2F1wfvlc02!19sChIJU1qwgBydA0cR6kpBeahDutk?authuser=0&hl=tr&rclk=1",
    "website_url": "",
    "rating_text": "4,5",
    "stars": null,
    "number_of_reviews": null,
    "price_level": "",
    "open_hours": "",
    "extraction_timestamp": "2025-06-07T17:31:57.623Z",
    "source_name": "google",
    "source_query": "Irrigation Equipment",
    "source_country": "PL",
    "country": "Poland",
    "state": "Greater Poland Voivodeship",
    "city": "Witkowo"
  },
  {
    "source_id": "ChIJL6WSECc3G0cR0cIZjFQOyyM",
    "name": "Laskowiec. Garden center",
    "category": "Laskowiec. Garden center",
    "formatted_address": "4,6(245)",
    "phone_number": "+48632479236",
    "source_url": "https://www.google.com/maps/place/Laskowiec.+Garden+center/data=!4m7!3m6!1s0x471b37271092a52f:0x23cb0e548c19c2d1!8m2!3d52.2317452!4d18.3177935!16s%2Fg%2F1wk6yj3q!19sChIJL6WSECc3G0cR0cIZjFQOyyM?authuser=0&hl=tr&rclk=1",
    "website_url": "",
    "rating_text": "4,6",
    "stars": null,
    "number_of_reviews": null,
    "price_level": "",
    "open_hours": "",
    "extraction_timestamp": "2025-06-07T17:31:57.624Z",
    "source_name": "google",
    "source_query": "Irrigation Equipment",
    "source_country": "PL",
    "country": "Poland",
    "state": "Greater Poland Voivodeship",
    "city": "Witkowo"
  }
]
