[
  {
    "source_id": "ChIJ_2FartEdBEcRbbtISY7grDI",
    "name": "Wroklech",
    "category": "Wroklech",
    "formatted_address": "4,7(39)",
    "phone_number": "+48672540708",
    "source_url": "https://www.google.com/maps/place/Wroklech/data=!4m7!3m6!1s0x47041dd1ae5a61ff:0x32ace08e4948bb6d!8m2!3d52.6988179!4d16.3585943!16s%2Fg%2F12mkvn0mv!19sChIJ_2FartEdBEcRbbtISY7grDI?authuser=0&hl=tr&rclk=1",
    "website_url": "",
    "rating_text": "4,7",
    "stars": null,
    "number_of_reviews": null,
    "price_level": "",
    "open_hours": "",
    "extraction_timestamp": "2025-06-07T17:23:33.726Z",
    "source_name": "google",
    "source_query": "Irrigation Equipment",
    "source_country": "PL",
    "country": "Poland",
    "state": "Greater Poland Voivodeship",
    "city": "Wronki"
  },
  {
    "source_id": "ChIJW68r8kkcBEcRdliD_gumi48",
    "name": "GEOWIP",
    "category": "GEOWIP",
    "formatted_address": "4,6(18)",
    "phone_number": "+48672542439",
    "source_url": "https://www.google.com/maps/place/GEOWIP/data=!4m7!3m6!1s0x47041c49f22baf5b:0x8f8ba60bfe835876!8m2!3d52.6980306!4d16.3361163!16s%2Fg%2F1tppqnzj!19sChIJW68r8kkcBEcRdliD_gumi48?authuser=0&hl=tr&rclk=1",
    "website_url": "",
    "rating_text": "4,6",
    "stars": null,
    "number_of_reviews": null,
    "price_level": "",
    "open_hours": "",
    "extraction_timestamp": "2025-06-07T17:23:33.727Z",
    "source_name": "google",
    "source_query": "Irrigation Equipment",
    "source_country": "PL",
    "country": "Poland",
    "state": "Greater Poland Voivodeship",
    "city": "Wronki"
  },
  {
    "source_id": "ChIJUfn2Ig35A0cREW9fZ4029UM",
    "name": "IMTechnika sp. z o.o.",
    "category": "IMTechnika sp. z o.o.",
    "formatted_address": "4,4(17)",
    "phone_number": "+48883820388",
    "source_url": "https://www.google.com/maps/place/IMTechnika+sp.+z+o.o./data=!4m7!3m6!1s0x4703f90d22f6f951:0x43f5368d675f6f11!8m2!3d52.9756271!4d16.657836!16s%2Fg%2F11bw48_6mg!19sChIJUfn2Ig35A0cREW9fZ4029UM?authuser=0&hl=tr&rclk=1",
    "website_url": "",
    "rating_text": "4,4",
    "stars": null,
    "number_of_reviews": null,
    "price_level": "",
    "open_hours": "",
    "extraction_timestamp": "2025-06-07T17:23:33.729Z",
    "source_name": "google",
    "source_query": "Irrigation Equipment",
    "source_country": "PL",
    "country": "Poland",
    "state": "Greater Poland Voivodeship",
    "city": "Wronki"
  },
  {
    "source_id": "ChIJdZUSmlkdBEcRuJnORGbShWI",
    "name": "PSB Mrówka",
    "category": "PSB Mrówka",
    "formatted_address": "4,3(428)",
    "phone_number": "+48601140362",
    "source_url": "https://www.google.com/maps/place/PSB+Mr%C3%B3wka/data=!4m7!3m6!1s0x47041d599a129575:0x6285d26644ce99b8!8m2!3d52.6993481!4d16.3865847!16s%2Fg%2F11f30ty101!19sChIJdZUSmlkdBEcRuJnORGbShWI?authuser=0&hl=tr&rclk=1",
    "website_url": "",
    "rating_text": "4,3",
    "stars": null,
    "number_of_reviews": null,
    "price_level": "",
    "open_hours": "",
    "extraction_timestamp": "2025-06-07T17:23:33.730Z",
    "source_name": "google",
    "source_query": "Irrigation Equipment",
    "source_country": "PL",
    "country": "Poland",
    "state": "Greater Poland Voivodeship",
    "city": "Wronki"
  },
  {
    "source_id": "ChIJR8ihtvcdBEcRmbE4uyWGftM",
    "name": "Instalacje Gazowe Technika Gazowa i Grzewcza",
    "category": "Instalacje Gazowe Technika Gazowa i Grzewcza",
    "formatted_address": "5,0(2)",
    "phone_number": "+48739579247",
    "source_url": "https://www.google.com/maps/place/Instalacje+Gazowe+Technika+Gazowa+i+Grzewcza/data=!4m7!3m6!1s0x47041df7b6a1c847:0xd37e8625bb38b199!8m2!3d52.6978861!4d16.388046!16s%2Fg%2F11glcr0qcz!19sChIJR8ihtvcdBEcRmbE4uyWGftM?authuser=0&hl=tr&rclk=1",
    "website_url": "",
    "rating_text": "5,0",
    "stars": null,
    "number_of_reviews": null,
    "price_level": "",
    "open_hours": "",
    "extraction_timestamp": "2025-06-07T17:23:33.731Z",
    "source_name": "google",
    "source_query": "Irrigation Equipment",
    "source_country": "PL",
    "country": "Poland",
    "state": "Greater Poland Voivodeship",
    "city": "Wronki"
  },
  {
    "source_id": "ChIJzzZaZ00cBEcRHimXYGbq_ug",
    "name": "SUKURS Wronki | BHP | PPOŻ.",
    "category": "SUKURS Wronki | BHP | PPOŻ.",
    "formatted_address": "4,8(46)",
    "phone_number": "+48672549203",
    "source_url": "https://www.google.com/maps/place/SUKURS+Wronki+%7C+BHP+%7C+PPO%C5%BB./data=!4m7!3m6!1s0x47041c4d675a36cf:0xe8feea666097291e!8m2!3d52.7180846!4d16.3830705!16s%2Fg%2F11h152bbp!19sChIJzzZaZ00cBEcRHimXYGbq_ug?authuser=0&hl=tr&rclk=1",
    "website_url": "",
    "rating_text": "4,8",
    "stars": null,
    "number_of_reviews": null,
    "price_level": "",
    "open_hours": "",
    "extraction_timestamp": "2025-06-07T17:23:33.732Z",
    "source_name": "google",
    "source_query": "Irrigation Equipment",
    "source_country": "PL",
    "country": "Poland",
    "state": "Greater Poland Voivodeship",
    "city": "Wronki"
  },
  {
    "source_id": "ChIJwfZHrUgcBEcRyc-pYLa_Nyc",
    "name": "PJ AUTOMATYKA Serwis elektrodrążarek Agie Charmilles. Używane maszyny Agie Charmilles.",
    "category": "PJ AUTOMATYKA Serwis elektrodrążarek Agie Charmilles. Używane maszyny Agie Charmilles.",
    "formatted_address": "5,0(2)",
    "phone_number": "+48792242755",
    "source_url": "https://www.google.com/maps/place/PJ+AUTOMATYKA+Serwis+elektrodr%C4%85%C5%BCarek+Agie+Charmilles.+U%C5%BCywane+maszyny+Agie+Charmilles./data=!4m7!3m6!1s0x47041c48ad47f6c1:0x2737bfb660a9cfc9!8m2!3d52.7119333!4d16.3938848!16s%2Fg%2F11c6f0vjb6!19sChIJwfZHrUgcBEcRyc-pYLa_Nyc?authuser=0&hl=tr&rclk=1",
    "website_url": "",
    "rating_text": "5,0",
    "stars": null,
    "number_of_reviews": null,
    "price_level": "",
    "open_hours": "",
    "extraction_timestamp": "2025-06-07T17:23:33.733Z",
    "source_name": "google",
    "source_query": "Irrigation Equipment",
    "source_country": "PL",
    "country": "Poland",
    "state": "Greater Poland Voivodeship",
    "city": "Wronki"
  },
  {
    "source_id": "ChIJ8ZicSdaRBEcRAV6g-Q32DDg",
    "name": "Drinks",
    "category": "Drinks",
    "formatted_address": "4,8(59)",
    "phone_number": "+48531953906",
    "source_url": "https://www.google.com/maps/place/Drinks/data=!4m7!3m6!1s0x470491d6499c98f1:0x380cf60df9a05e01!8m2!3d52.7062555!4d16.3806501!16s%2Fg%2F11h58fpq2d!19sChIJ8ZicSdaRBEcRAV6g-Q32DDg?authuser=0&hl=tr&rclk=1",
    "website_url": "",
    "rating_text": "4,8",
    "stars": null,
    "number_of_reviews": null,
    "price_level": "",
    "open_hours": "",
    "extraction_timestamp": "2025-06-07T17:23:33.734Z",
    "source_name": "google",
    "source_query": "Irrigation Equipment",
    "source_country": "PL",
    "country": "Poland",
    "state": "Greater Poland Voivodeship",
    "city": "Wronki"
  },
  {
    "source_id": "ChIJB6y_v5J2HEcRlDfYx3xmc9M",
    "name": "Milex irrigation systems",
    "category": "Milex irrigation systems",
    "formatted_address": "4,6(37)",
    "phone_number": "+48242775222",
    "source_url": "https://www.google.com/maps/place/Milex+irrigation+systems/data=!4m7!3m6!1s0x471c7692bfbfac07:0xd373667cc7d83794!8m2!3d52.4690634!4d19.7520904!16s%2Fg%2F1w2yy67r!19sChIJB6y_v5J2HEcRlDfYx3xmc9M?authuser=0&hl=tr&rclk=1",
    "website_url": "",
    "rating_text": "4,6",
    "stars": null,
    "number_of_reviews": null,
    "price_level": "",
    "open_hours": "",
    "extraction_timestamp": "2025-06-07T17:23:33.735Z",
    "source_name": "google",
    "source_query": "Irrigation Equipment",
    "source_country": "PL",
    "country": "Poland",
    "state": "Greater Poland Voivodeship",
    "city": "Wronki"
  },
  {
    "source_id": "ChIJe5SL4iDQYGER_bmrPvgnQ0A",
    "name": "Sklep z Ukrainskimi produktami Beer Shop Wronki / товары з України",
    "category": "Sklep z Ukrainskimi produktami Beer Shop Wronki / товары з України",
    "formatted_address": "4,9(16)",
    "phone_number": "+48603916040",
    "source_url": "https://www.google.com/maps/place/Sklep+z+Ukrainskimi+produktami+Beer+Shop+Wronki+%2F+%D1%82%D0%BE%D0%B2%D0%B0%D1%80%D1%8B+%D0%B7+%D0%A3%D0%BA%D1%80%D0%B0%D1%97%D0%BD%D0%B8/data=!4m7!3m6!1s0x6160d020e28b947b:0x404327f83eabb9fd!8m2!3d52.71124!4d16.392646!16s%2Fg%2F11ssv95bss!19sChIJe5SL4iDQYGER_bmrPvgnQ0A?authuser=0&hl=tr&rclk=1",
    "website_url": "",
    "rating_text": "4,9",
    "stars": null,
    "number_of_reviews": null,
    "price_level": "",
    "open_hours": "",
    "extraction_timestamp": "2025-06-07T17:23:33.762Z",
    "source_name": "google",
    "source_query": "Irrigation Equipment",
    "source_country": "PL",
    "country": "Poland",
    "state": "Greater Poland Voivodeship",
    "city": "Wronki"
  },
  {
    "source_id": "ChIJI7G7z7MdBEcRfsHIrYXjVU4",
    "name": "Sklep spożywczy Zieleniak",
    "category": "Sklep spożywczy Zieleniak",
    "formatted_address": "4,4(51)",
    "phone_number": "+48672540861",
    "source_url": "https://www.google.com/maps/place/Sklep+spo%C5%BCywczy+Zieleniak/data=!4m7!3m6!1s0x47041db3cfbbb123:0x4e55e385adc8c17e!8m2!3d52.7163732!4d16.3728356!16s%2Fg%2F1xtf085s!19sChIJI7G7z7MdBEcRfsHIrYXjVU4?authuser=0&hl=tr&rclk=1",
    "website_url": "",
    "rating_text": "4,4",
    "stars": null,
    "number_of_reviews": null,
    "price_level": "",
    "open_hours": "",
    "extraction_timestamp": "2025-06-07T17:23:33.763Z",
    "source_name": "google",
    "source_query": "Irrigation Equipment",
    "source_country": "PL",
    "country": "Poland",
    "state": "Greater Poland Voivodeship",
    "city": "Wronki"
  },
  {
    "source_id": "ChIJ45_DLkQcBEcR9XOat1UfeDU",
    "name": "Centrum Ogrodnicze Irena Haak",
    "category": "Centrum Ogrodnicze Irena Haak",
    "formatted_address": "4,4(81)",
    "phone_number": "",
    "source_url": "https://www.google.com/maps/place/Centrum+Ogrodnicze+Irena+Haak/data=!4m7!3m6!1s0x47041c442ec39fe3:0x35781f55b79a73f5!8m2!3d52.7112095!4d16.398718!16s%2Fg%2F1jkysmwy4!19sChIJ45_DLkQcBEcR9XOat1UfeDU?authuser=0&hl=tr&rclk=1",
    "website_url": "",
    "rating_text": "4,4",
    "stars": null,
    "number_of_reviews": null,
    "price_level": "",
    "open_hours": "",
    "extraction_timestamp": "2025-06-07T17:23:33.764Z",
    "source_name": "google",
    "source_query": "Irrigation Equipment",
    "source_country": "PL",
    "country": "Poland",
    "state": "Greater Poland Voivodeship",
    "city": "Wronki"
  },
  {
    "source_id": "ChIJz6d1TmMdBEcRl7yLX0te8Wo",
    "name": "P.H.U. Centrala Nasienna sp z o.o.",
    "category": "P.H.U. Centrala Nasienna sp z o.o.",
    "formatted_address": "5,0(1)",
    "phone_number": "+48672873877",
    "source_url": "https://www.google.com/maps/place/P.H.U.+Centrala+Nasienna+sp+z+o.o./data=!4m7!3m6!1s0x47041d634e75a7cf:0x6af15e4b5f8bbc97!8m2!3d52.7086795!4d16.3736599!16s%2Fg%2F11vs99lllq!19sChIJz6d1TmMdBEcRl7yLX0te8Wo?authuser=0&hl=tr&rclk=1",
    "website_url": "",
    "rating_text": "5,0",
    "stars": null,
    "number_of_reviews": null,
    "price_level": "",
    "open_hours": "",
    "extraction_timestamp": "2025-06-07T17:23:33.764Z",
    "source_name": "google",
    "source_query": "Irrigation Equipment",
    "source_country": "PL",
    "country": "Poland",
    "state": "Greater Poland Voivodeship",
    "city": "Wronki"
  },
  {
    "source_id": "ChIJ79GpmzocBEcRKXOLAhdE5Pw",
    "name": "Chata Polska",
    "category": "Chata Polska",
    "formatted_address": "4,5(165)",
    "phone_number": "",
    "source_url": "https://www.google.com/maps/place/Chata+Polska/data=!4m7!3m6!1s0x47041c3a9ba9d1ef:0xfce44417028b7329!8m2!3d52.6978914!4d16.3866101!16s%2Fg%2F1jkxpz3l4!19sChIJ79GpmzocBEcRKXOLAhdE5Pw?authuser=0&hl=tr&rclk=1",
    "website_url": "",
    "rating_text": "4,5",
    "stars": null,
    "number_of_reviews": null,
    "price_level": "",
    "open_hours": "",
    "extraction_timestamp": "2025-06-07T17:23:33.765Z",
    "source_name": "google",
    "source_query": "Irrigation Equipment",
    "source_country": "PL",
    "country": "Poland",
    "state": "Greater Poland Voivodeship",
    "city": "Wronki"
  },
  {
    "source_id": "ChIJ82fDPAv7BEcR0t557L9SvKI",
    "name": "Agro-Weld Arkadiusz Cegłowski",
    "category": "Agro-Weld Arkadiusz Cegłowski",
    "formatted_address": "5,0(15)",
    "phone_number": "+48725140257",
    "source_url": "https://www.google.com/maps/place/Agro-Weld+Arkadiusz+Ceg%C5%82owski/data=!4m7!3m6!1s0x4704fb0b3cc367f3:0xa2bc52bfec79ded2!8m2!3d52.2281481!4d17.2572359!16s%2Fg%2F11gbf9cdj_!19sChIJ82fDPAv7BEcR0t557L9SvKI?authuser=0&hl=tr&rclk=1",
    "website_url": "",
    "rating_text": "5,0",
    "stars": null,
    "number_of_reviews": null,
    "price_level": "",
    "open_hours": "",
    "extraction_timestamp": "2025-06-07T17:23:33.766Z",
    "source_name": "google",
    "source_query": "Irrigation Equipment",
    "source_country": "PL",
    "country": "Poland",
    "state": "Greater Poland Voivodeship",
    "city": "Wronki"
  },
  {
    "source_id": "ChIJnRxUXLEdBEcR8-ZiN8k6FbE",
    "name": "Groszek",
    "category": "Groszek",
    "formatted_address": "4,2(196)",
    "phone_number": "+48796198565",
    "source_url": "https://www.google.com/maps/place/Groszek/data=!4m7!3m6!1s0x47041db15c541c9d:0xb1153ac93762e6f3!8m2!3d52.7157844!4d16.3705013!16s%2Fg%2F11dyzb4s_4!19sChIJnRxUXLEdBEcR8-ZiN8k6FbE?authuser=0&hl=tr&rclk=1",
    "website_url": "",
    "rating_text": "4,2",
    "stars": null,
    "number_of_reviews": null,
    "price_level": "",
    "open_hours": "",
    "extraction_timestamp": "2025-06-07T17:23:33.767Z",
    "source_name": "google",
    "source_query": "Irrigation Equipment",
    "source_country": "PL",
    "country": "Poland",
    "state": "Greater Poland Voivodeship",
    "city": "Wronki"
  },
  {
    "source_id": "ChIJK2yKnUocBEcRTeaGgURaNVo",
    "name": "LIDL",
    "category": "LIDL",
    "formatted_address": "4,3(1.514)",
    "phone_number": "+48618803000",
    "source_url": "https://www.google.com/maps/place/LIDL/data=!4m7!3m6!1s0x47041c4a9d8a6c2b:0x5a355a448186e64d!8m2!3d52.7091242!4d16.3783389!16s%2Fg%2F1v_slyv1!19sChIJK2yKnUocBEcRTeaGgURaNVo?authuser=0&hl=tr&rclk=1",
    "website_url": "",
    "rating_text": "4,3",
    "stars": null,
    "number_of_reviews": null,
    "price_level": "",
    "open_hours": "",
    "extraction_timestamp": "2025-06-07T17:23:33.768Z",
    "source_name": "google",
    "source_query": "Irrigation Equipment",
    "source_country": "PL",
    "country": "Poland",
    "state": "Greater Poland Voivodeship",
    "city": "Wronki"
  },
  {
    "source_id": "ChIJZ1gz67AdBEcRTh49iWYz18U",
    "name": "Zulleks-Autolack",
    "category": "Zulleks-Autolack",
    "formatted_address": "4,8(68)",
    "phone_number": "+48510240460",
    "source_url": "https://www.google.com/maps/place/Zulleks-Autolack/data=!4m7!3m6!1s0x47041db0eb335867:0xc5d73366893d1e4e!8m2!3d52.716786!4d16.3655261!16s%2Fg%2F1tr8k865!19sChIJZ1gz67AdBEcRTh49iWYz18U?authuser=0&hl=tr&rclk=1",
    "website_url": "",
    "rating_text": "4,8",
    "stars": null,
    "number_of_reviews": null,
    "price_level": "",
    "open_hours": "",
    "extraction_timestamp": "2025-06-07T17:23:33.769Z",
    "source_name": "google",
    "source_query": "Irrigation Equipment",
    "source_country": "PL",
    "country": "Poland",
    "state": "Greater Poland Voivodeship",
    "city": "Wronki"
  },
  {
    "source_id": "ChIJo-4Z31gdBEcRnHTHbUxkmlQ",
    "name": "PHU Sezam S.J. B.W. Odrobny Sklep spożywczy",
    "category": "PHU Sezam S.J. B.W. Odrobny Sklep spożywczy",
    "formatted_address": "4,2(14)",
    "phone_number": "+48672549405",
    "source_url": "https://www.google.com/maps/place/PHU+Sezam+S.J.+B.W.+Odrobny+Sklep+spo%C5%BCywczy/data=!4m7!3m6!1s0x47041d58df19eea3:0x549a644c6dc7749c!8m2!3d52.7084047!4d16.3778661!16s%2Fg%2F11jmyrl4cy!19sChIJo-4Z31gdBEcRnHTHbUxkmlQ?authuser=0&hl=tr&rclk=1",
    "website_url": "",
    "rating_text": "4,2",
    "stars": null,
    "number_of_reviews": null,
    "price_level": "",
    "open_hours": "",
    "extraction_timestamp": "2025-06-07T17:23:33.770Z",
    "source_name": "google",
    "source_query": "Irrigation Equipment",
    "source_country": "PL",
    "country": "Poland",
    "state": "Greater Poland Voivodeship",
    "city": "Wronki"
  },
  {
    "source_id": "ChIJvT9M6uodBEcRViOpQaSB9y0",
    "name": "Drogeria Rossmann",
    "category": "Drogeria Rossmann",
    "formatted_address": "4,7(131)",
    "phone_number": "+48426139700",
    "source_url": "https://www.google.com/maps/place/Drogeria+Rossmann/data=!4m7!3m6!1s0x47041deaea4c3fbd:0x2df781a441a92356!8m2!3d52.7106631!4d16.3923134!16s%2Fg%2F11j0rzqw6g!19sChIJvT9M6uodBEcRViOpQaSB9y0?authuser=0&hl=tr&rclk=1",
    "website_url": "",
    "rating_text": "4,7",
    "stars": null,
    "number_of_reviews": null,
    "price_level": "",
    "open_hours": "",
    "extraction_timestamp": "2025-06-07T17:23:33.771Z",
    "source_name": "google",
    "source_query": "Irrigation Equipment",
    "source_country": "PL",
    "country": "Poland",
    "state": "Greater Poland Voivodeship",
    "city": "Wronki"
  },
  {
    "source_id": "ChIJt8cln5Q0A0cR1MXCoO71Kmk",
    "name": "Industrial valves and pumps MAR-MAG",
    "category": "Industrial valves and pumps MAR-MAG",
    "formatted_address": "4,5(30)",
    "phone_number": "+48566553493",
    "source_url": "https://www.google.com/maps/place/Industrial+valves+and+pumps+MAR-MAG/data=!4m7!3m6!1s0x470334949f25c7b7:0x692af5eea0c2c5d4!8m2!3d53.032639!4d18.623207!16s%2Fg%2F1tdcknwt!19sChIJt8cln5Q0A0cR1MXCoO71Kmk?authuser=0&hl=tr&rclk=1",
    "website_url": "",
    "rating_text": "4,5",
    "stars": null,
    "number_of_reviews": null,
    "price_level": "",
    "open_hours": "",
    "extraction_timestamp": "2025-06-07T17:23:33.772Z",
    "source_name": "google",
    "source_query": "Irrigation Equipment",
    "source_country": "PL",
    "country": "Poland",
    "state": "Greater Poland Voivodeship",
    "city": "Wronki"
  },
  {
    "source_id": "ChIJIbPCVvCoBEcRxamMlnRp0qU",
    "name": "BRE-INSTAL Strzelno Wiesław Brejecki",
    "category": "BRE-INSTAL Strzelno Wiesław Brejecki",
    "formatted_address": "4,1(42)",
    "phone_number": "+48523189794",
    "source_url": "https://www.google.com/maps/place/BRE-INSTAL+Strzelno+Wies%C5%82aw+Brejecki/data=!4m7!3m6!1s0x4704a8f056c2b321:0xa5d26974968ca9c5!8m2!3d52.630247!4d18.162937!16s%2Fg%2F1tfbgfgl!19sChIJIbPCVvCoBEcRxamMlnRp0qU?authuser=0&hl=tr&rclk=1",
    "website_url": "",
    "rating_text": "4,1",
    "stars": null,
    "number_of_reviews": null,
    "price_level": "",
    "open_hours": "",
    "extraction_timestamp": "2025-06-07T17:23:33.773Z",
    "source_name": "google",
    "source_query": "Irrigation Equipment",
    "source_country": "PL",
    "country": "Poland",
    "state": "Greater Poland Voivodeship",
    "city": "Wronki"
  },
  {
    "source_id": "ChIJQaAR7D37BEcRBa5PF0ULYcE",
    "name": "TEST Łukasz i Grzegorz Kiełbowicz sp. j",
    "category": "TEST Łukasz i Grzegorz Kiełbowicz sp. j",
    "formatted_address": "4,9(75)",
    "phone_number": "+48508635200",
    "source_url": "https://www.google.com/maps/place/TEST+%C5%81ukasz+i+Grzegorz+Kie%C5%82bowicz+sp.+j/data=!4m7!3m6!1s0x4704fb3dec11a041:0xc1610b45174fae05!8m2!3d52.5658269!4d17.6143399!16s%2Fg%2F1twyy791!19sChIJQaAR7D37BEcRBa5PF0ULYcE?authuser=0&hl=tr&rclk=1",
    "website_url": "",
    "rating_text": "4,9",
    "stars": null,
    "number_of_reviews": null,
    "price_level": "",
    "open_hours": "",
    "extraction_timestamp": "2025-06-07T17:23:33.774Z",
    "source_name": "google",
    "source_query": "Irrigation Equipment",
    "source_country": "PL",
    "country": "Poland",
    "state": "Greater Poland Voivodeship",
    "city": "Wronki"
  },
  {
    "source_id": "ChIJOyZNm-NqBEcR1yeK8rUP9dQ",
    "name": "Jusik Instalacje",
    "category": "Jusik Instalacje",
    "formatted_address": "5,0(74)",
    "phone_number": "+48724704777",
    "source_url": "https://www.google.com/maps/place/Jusik+Instalacje/data=!4m7!3m6!1s0x47046ae39b4d263b:0xd4f50fb5f28a27d7!8m2!3d52.577048!4d16.7972821!16s%2Fg%2F11b7y9f4g7!19sChIJOyZNm-NqBEcR1yeK8rUP9dQ?authuser=0&hl=tr&rclk=1",
    "website_url": "",
    "rating_text": "5,0",
    "stars": null,
    "number_of_reviews": null,
    "price_level": "",
    "open_hours": "",
    "extraction_timestamp": "2025-06-07T17:23:33.774Z",
    "source_name": "google",
    "source_query": "Irrigation Equipment",
    "source_country": "PL",
    "country": "Poland",
    "state": "Greater Poland Voivodeship",
    "city": "Wronki"
  },
  {
    "source_id": "ChIJm157JjygA0cRteKoUGyj78Q",
    "name": "TECH-ROL Szymon Bączek - sklep z asortymentem rolniczym, przemysłowym i ogrodniczym",
    "category": "TECH-ROL Szymon Bączek - sklep z asortymentem rolniczym, przemysłowym i ogrodniczym",
    "formatted_address": "TECH-ROL Szymon Bączek - sklep z asortymentem rolniczym, przemysłowym i ogrodniczym",
    "phone_number": "+48523854264",
    "source_url": "https://www.google.com/maps/place/TECH-ROL+Szymon+B%C4%85czek+-+sklep+z+asortymentem+rolniczym,+przemys%C5%82owym+i+ogrodniczym/data=!4m7!3m6!1s0x4703a03c267b5e9b:0xc4efa36c50a8e2b5!8m2!3d53.1428219!4d17.6117518!16s%2Fg%2F1v0ljgml!19sChIJm157JjygA0cRteKoUGyj78Q?authuser=0&hl=tr&rclk=1",
    "website_url": "",
    "rating_text": "4,6",
    "stars": null,
    "number_of_reviews": null,
    "price_level": "",
    "open_hours": "",
    "extraction_timestamp": "2025-06-07T17:23:33.775Z",
    "source_name": "google",
    "source_query": "Irrigation Equipment",
    "source_country": "PL",
    "country": "Poland",
    "state": "Greater Poland Voivodeship",
    "city": "Wronki"
  },
  {
    "source_id": "ChIJwdhRqaxEBEcRZ22nzjeUbu0",
    "name": "Pupil",
    "category": "Pupil",
    "formatted_address": "4,6(87)",
    "phone_number": "+48618288772",
    "source_url": "https://www.google.com/maps/place/Pupil/data=!4m7!3m6!1s0x470444aca951d8c1:0xed6e9437cea76d67!8m2!3d52.4348609!4d16.9214779!16s%2Fg%2F11cs13qrdt!19sChIJwdhRqaxEBEcRZ22nzjeUbu0?authuser=0&hl=tr&rclk=1",
    "website_url": "",
    "rating_text": "4,6",
    "stars": null,
    "number_of_reviews": null,
    "price_level": "",
    "open_hours": "",
    "extraction_timestamp": "2025-06-07T17:23:33.776Z",
    "source_name": "google",
    "source_query": "Irrigation Equipment",
    "source_country": "PL",
    "country": "Poland",
    "state": "Greater Poland Voivodeship",
    "city": "Wronki"
  }
]
