[
  {
    "source_id": "ChIJtWcFLp3pBEcRLsKDqolJIng",
    "name": "TEST INSTALACJE – Hurtownia instalacyjna Września",
    "category": "TEST INSTALACJE – Hurtownia instalacyjna Września",
    "formatted_address": "4,7(33)",
    "phone_number": "+48616394733",
    "source_url": "https://www.google.com/maps/place/TEST+INSTALACJE+%E2%80%93+Hurtownia+instalacyjna+Wrze%C5%9Bnia/data=!4m7!3m6!1s0x4704e99d2e0567b5:0x78224989aa83c22e!8m2!3d52.3216706!4d17.5802512!16s%2Fg%2F11c50569y3!19sChIJtWcFLp3pBEcRLsKDqolJIng?authuser=0&hl=tr&rclk=1",
    "website_url": "",
    "rating_text": "4,7",
    "stars": null,
    "number_of_reviews": null,
    "price_level": "",
    "open_hours": "",
    "extraction_timestamp": "2025-06-07T17:15:39.968Z",
    "source_name": "google",
    "source_query": "Irrigation Equipment",
    "source_country": "PL",
    "country": "Poland",
    "state": "Greater Poland Voivodeship",
    "city": "Września"
  },
  {
    "source_id": "ChIJ49fzFwfqBEcRLFROxnSipBo",
    "name": "Agrotex Centrum Rolniczo Techniczne - Września / Gutowo Wielkie",
    "category": "Agrotex Centrum Rolniczo Techniczne - Września / Gutowo Wielkie",
    "formatted_address": "4,4(77)",
    "phone_number": "+48614363930",
    "source_url": "https://www.google.com/maps/place/Agrotex+Centrum+Rolniczo+Techniczne+-+Wrze%C5%9Bnia+%2F+Gutowo+Wielkie/data=!4m7!3m6!1s0x4704ea0717f3d7e3:0x1aa4a274c64e542c!8m2!3d52.3265427!4d17.6045044!16s%2Fg%2F1ptvrkxps!19sChIJ49fzFwfqBEcRLFROxnSipBo?authuser=0&hl=tr&rclk=1",
    "website_url": "",
    "rating_text": "4,4",
    "stars": null,
    "number_of_reviews": null,
    "price_level": "",
    "open_hours": "",
    "extraction_timestamp": "2025-06-07T17:15:39.970Z",
    "source_name": "google",
    "source_query": "Irrigation Equipment",
    "source_country": "PL",
    "country": "Poland",
    "state": "Greater Poland Voivodeship",
    "city": "Września"
  },
  {
    "source_id": "ChIJf8H0Q5zpBEcRDXyQ0CHRSww",
    "name": "Gumienny",
    "category": "Gumienny",
    "formatted_address": "4,8(39)",
    "phone_number": "+48616401125",
    "source_url": "https://www.google.com/maps/place/Gumienny/data=!4m7!3m6!1s0x4704e99c43f4c17f:0xc4bd121d0907c0d!8m2!3d52.3183193!4d17.580572!16s%2Fg%2F11c75_g6jv!19sChIJf8H0Q5zpBEcRDXyQ0CHRSww?authuser=0&hl=tr&rclk=1",
    "website_url": "",
    "rating_text": "4,8",
    "stars": null,
    "number_of_reviews": null,
    "price_level": "",
    "open_hours": "",
    "extraction_timestamp": "2025-06-07T17:15:39.971Z",
    "source_name": "google",
    "source_query": "Irrigation Equipment",
    "source_country": "PL",
    "country": "Poland",
    "state": "Greater Poland Voivodeship",
    "city": "Września"
  },
  {
    "source_id": "ChIJUSGWQVrpBEcRLccfSz-unUU",
    "name": "EFLI GROUP Spółka z ograniczoną odpowiedzialnością Spółka komandytowa Oddział Września",
    "category": "EFLI GROUP Spółka z ograniczoną odpowiedzialnością Spółka komandytowa Oddział Września",
    "formatted_address": "5,0(8)",
    "phone_number": "+48690033779",
    "source_url": "https://www.google.com/maps/place/EFLI+GROUP+Sp%C3%B3%C5%82ka+z+ograniczon%C4%85+odpowiedzialno%C5%9Bci%C4%85+Sp%C3%B3%C5%82ka+komandytowa+Oddzia%C5%82+Wrze%C5%9Bnia/data=!4m7!3m6!1s0x4704e95a41962151:0x459dae3f4b1fc72d!8m2!3d52.3242893!4d17.5736504!16s%2Fg%2F11h06l2xl1!19sChIJUSGWQVrpBEcRLccfSz-unUU?authuser=0&hl=tr&rclk=1",
    "website_url": "",
    "rating_text": "5,0",
    "stars": null,
    "number_of_reviews": null,
    "price_level": "",
    "open_hours": "",
    "extraction_timestamp": "2025-06-07T17:15:39.972Z",
    "source_name": "google",
    "source_query": "Irrigation Equipment",
    "source_country": "PL",
    "country": "Poland",
    "state": "Greater Poland Voivodeship",
    "city": "Września"
  },
  {
    "source_id": "ChIJwydVKWPpBEcRoRP0MAlOvEs",
    "name": "Metaltech Września Tomasz Jaśkiewicz",
    "category": "Metaltech Września Tomasz Jaśkiewicz",
    "formatted_address": "4,8(41)",
    "phone_number": "+48501295683",
    "source_url": "https://www.google.com/maps/place/Metaltech+Wrze%C5%9Bnia+Tomasz+Ja%C5%9Bkiewicz/data=!4m7!3m6!1s0x4704e963295527c3:0x4bbc4e0930f413a1!8m2!3d52.311359!4d17.5672473!16s%2Fg%2F1ptwwglf3!19sChIJwydVKWPpBEcRoRP0MAlOvEs?authuser=0&hl=tr&rclk=1",
    "website_url": "",
    "rating_text": "4,8",
    "stars": null,
    "number_of_reviews": null,
    "price_level": "",
    "open_hours": "",
    "extraction_timestamp": "2025-06-07T17:15:39.973Z",
    "source_name": "google",
    "source_query": "Irrigation Equipment",
    "source_country": "PL",
    "country": "Poland",
    "state": "Greater Poland Voivodeship",
    "city": "Września"
  },
  {
    "source_id": "ChIJY6jnt2_pBEcRVU24_gZ7dl4",
    "name": "Sklep rolniczo-techniczny Powered by Kramp Września",
    "category": "Sklep rolniczo-techniczny Powered by Kramp Września",
    "formatted_address": "4,4(51)",
    "phone_number": "+48601900530",
    "source_url": "https://www.google.com/maps/place/Sklep+rolniczo-techniczny+Powered+by+Kramp+Wrze%C5%9Bnia/data=!4m7!3m6!1s0x4704e96fb7e7a863:0x5e767b06feb84d55!8m2!3d52.322331!4d17.5592388!16s%2Fg%2F1v1knkmm!19sChIJY6jnt2_pBEcRVU24_gZ7dl4?authuser=0&hl=tr&rclk=1",
    "website_url": "",
    "rating_text": "4,4",
    "stars": null,
    "number_of_reviews": null,
    "price_level": "",
    "open_hours": "",
    "extraction_timestamp": "2025-06-07T17:15:39.974Z",
    "source_name": "google",
    "source_query": "Irrigation Equipment",
    "source_country": "PL",
    "country": "Poland",
    "state": "Greater Poland Voivodeship",
    "city": "Września"
  },
  {
    "source_id": "ChIJ_-2LQ3rpBEcRyflF3oG7cU4",
    "name": "Instal-Met. Instalacje sanitarne, technika grzewcza, wyposażenie łazienek",
    "category": "Instal-Met. Instalacje sanitarne, technika grzewcza, wyposażenie łazienek",
    "formatted_address": "Instal-Met. Instalacje sanitarne, technika grzewcza, wyposażenie łazienek",
    "phone_number": "+48614366380",
    "source_url": "https://www.google.com/maps/place/Instal-Met.+Instalacje+sanitarne,+technika+grzewcza,+wyposa%C5%BCenie+%C5%82azienek/data=!4m7!3m6!1s0x4704e97a438bedff:0x4e71bb81de45f9c9!8m2!3d52.325854!4d17.56903!16s%2Fg%2F11g_vw50z!19sChIJ_-2LQ3rpBEcRyflF3oG7cU4?authuser=0&hl=tr&rclk=1",
    "website_url": "",
    "rating_text": "4,0",
    "stars": null,
    "number_of_reviews": null,
    "price_level": "",
    "open_hours": "",
    "extraction_timestamp": "2025-06-07T17:15:39.975Z",
    "source_name": "google",
    "source_query": "Irrigation Equipment",
    "source_country": "PL",
    "country": "Poland",
    "state": "Greater Poland Voivodeship",
    "city": "Września"
  },
  {
    "source_id": "ChIJz8lB9HPpBEcR6_fpiBQcgi4",
    "name": "HYDRAULIKA - KOTŁY C.O. - Łazienki",
    "category": "HYDRAULIKA - KOTŁY C.O. - Łazienki",
    "formatted_address": "5,0(2)",
    "phone_number": "+48503141577",
    "source_url": "https://www.google.com/maps/place/HYDRAULIKA+-+KOT%C5%81Y+C.O.+-+%C5%81azienki/data=!4m7!3m6!1s0x4704e973f441c9cf:0x2e821c1488e9f7eb!8m2!3d52.3176456!4d17.5658203!16s%2Fg%2F11vwxt1fjc!19sChIJz8lB9HPpBEcR6_fpiBQcgi4?authuser=0&hl=tr&rclk=1",
    "website_url": "",
    "rating_text": "5,0",
    "stars": null,
    "number_of_reviews": null,
    "price_level": "",
    "open_hours": "",
    "extraction_timestamp": "2025-06-07T17:15:39.976Z",
    "source_name": "google",
    "source_query": "Irrigation Equipment",
    "source_country": "PL",
    "country": "Poland",
    "state": "Greater Poland Voivodeship",
    "city": "Września"
  },
  {
    "source_id": "ChIJDVz--HHpBEcRsNwlOEkUc3Y",
    "name": "DAR-INSTAL Technika grzewcza Serwis marki Viessmann, Vaillant,",
    "category": "DAR-INSTAL Technika grzewcza Serwis marki Viessmann, Vaillant,",
    "formatted_address": "DAR-INSTAL Technika grzewcza Serwis marki Viessmann, Vaillant,",
    "phone_number": "+48614362851",
    "source_url": "https://www.google.com/maps/place/DAR-INSTAL+Technika+grzewcza+Serwis+marki+Viessmann,+Vaillant,/data=!4m7!3m6!1s0x4704e971f8fe5c0d:0x767314493825dcb0!8m2!3d52.3200405!4d17.5601034!16s%2Fg%2F11g6b2glr_!19sChIJDVz--HHpBEcRsNwlOEkUc3Y?authuser=0&hl=tr&rclk=1",
    "website_url": "",
    "rating_text": "4,8",
    "stars": null,
    "number_of_reviews": null,
    "price_level": "",
    "open_hours": "",
    "extraction_timestamp": "2025-06-07T17:15:39.977Z",
    "source_name": "google",
    "source_query": "Irrigation Equipment",
    "source_country": "PL",
    "country": "Poland",
    "state": "Greater Poland Voivodeship",
    "city": "Września"
  },
  {
    "source_id": "ChIJDf27jVjpBEcR5IzLt_QIpzU",
    "name": "Sklep instalacyjny AD-MAR plus",
    "category": "Sklep instalacyjny AD-MAR plus",
    "formatted_address": "5,0(7)",
    "phone_number": "+48536268307",
    "source_url": "https://www.google.com/maps/place/Sklep+instalacyjny+AD-MAR+plus/data=!4m7!3m6!1s0x4704e9588dbbfd0d:0x35a708f4b7cb8ce4!8m2!3d52.3169718!4d17.569461!16s%2Fg%2F11vy36_jz5!19sChIJDf27jVjpBEcR5IzLt_QIpzU?authuser=0&hl=tr&rclk=1",
    "website_url": "",
    "rating_text": "5,0",
    "stars": null,
    "number_of_reviews": null,
    "price_level": "",
    "open_hours": "",
    "extraction_timestamp": "2025-06-07T17:15:39.978Z",
    "source_name": "google",
    "source_query": "Irrigation Equipment",
    "source_country": "PL",
    "country": "Poland",
    "state": "Greater Poland Voivodeship",
    "city": "Września"
  },
  {
    "source_id": "ChIJN0XQs37pBEcRiWU6BNBrjLM",
    "name": "JMT PRODUCENT AKCESORIÓW DO OGRODZEŃ",
    "category": "JMT PRODUCENT AKCESORIÓW DO OGRODZEŃ",
    "formatted_address": "4,9(8)",
    "phone_number": "+48693972025",
    "source_url": "https://www.google.com/maps/place/JMT+PRODUCENT+AKCESORI%C3%93W+DO+OGRODZE%C5%83/data=!4m7!3m6!1s0x4704e97eb3d04537:0xb38c6bd0043a6589!8m2!3d52.3286876!4d17.5748039!16s%2Fg%2F1thsdmmj!19sChIJN0XQs37pBEcRiWU6BNBrjLM?authuser=0&hl=tr&rclk=1",
    "website_url": "",
    "rating_text": "4,9",
    "stars": null,
    "number_of_reviews": null,
    "price_level": "",
    "open_hours": "",
    "extraction_timestamp": "2025-06-07T17:15:39.980Z",
    "source_name": "google",
    "source_query": "Irrigation Equipment",
    "source_country": "PL",
    "country": "Poland",
    "state": "Greater Poland Voivodeship",
    "city": "Września"
  },
  {
    "source_id": "ChIJ9andVcPpBEcRJKbqpqbS_sU",
    "name": "BATBOYS - Rowery, hulajnogi elektryczne, serwis rowerowy, akcesoria",
    "category": "BATBOYS - Rowery, hulajnogi elektryczne, serwis rowerowy, akcesoria",
    "formatted_address": "BATBOYS - Rowery, hulajnogi elektryczne, serwis rowerowy, akcesoria",
    "phone_number": "+48510821884",
    "source_url": "https://www.google.com/maps/place/BATBOYS+-+Rowery,+hulajnogi+elektryczne,+serwis+rowerowy,+akcesoria/data=!4m7!3m6!1s0x4704e9c355dda9f5:0xc5fed2a6a6eaa624!8m2!3d52.3245608!4d17.5854765!16s%2Fg%2F11jmz6s035!19sChIJ9andVcPpBEcRJKbqpqbS_sU?authuser=0&hl=tr&rclk=1",
    "website_url": "",
    "rating_text": "4,6",
    "stars": null,
    "number_of_reviews": null,
    "price_level": "",
    "open_hours": "",
    "extraction_timestamp": "2025-06-07T17:15:39.981Z",
    "source_name": "google",
    "source_query": "Irrigation Equipment",
    "source_country": "PL",
    "country": "Poland",
    "state": "Greater Poland Voivodeship",
    "city": "Września"
  },
  {
    "source_id": "ChIJlXVk6bqas0cRb_WESReuh4I",
    "name": "Aura System Klimatyzacja Wentylacja Hydraulika",
    "category": "Aura System Klimatyzacja Wentylacja Hydraulika",
    "formatted_address": "4,7(13)",
    "phone_number": "+48786992335",
    "source_url": "https://www.google.com/maps/place/Aura+System+Klimatyzacja+Wentylacja+Hydraulika/data=!4m7!3m6!1s0x47b39abae9647595:0x8287ae174984f56f!8m2!3d52.329792!4d17.589212!16s%2Fg%2F11v5xzsc7s!19sChIJlXVk6bqas0cRb_WESReuh4I?authuser=0&hl=tr&rclk=1",
    "website_url": "",
    "rating_text": "4,7",
    "stars": null,
    "number_of_reviews": null,
    "price_level": "",
    "open_hours": "",
    "extraction_timestamp": "2025-06-07T17:15:39.982Z",
    "source_name": "google",
    "source_query": "Irrigation Equipment",
    "source_country": "PL",
    "country": "Poland",
    "state": "Greater Poland Voivodeship",
    "city": "Września"
  },
  {
    "source_id": "ChIJw-L8JmTpBEcRlx3y6j3b_NI",
    "name": "Łazienkowe Pasje wyposażenie łazienki płytki armatura łazienkowa",
    "category": "Łazienkowe Pasje wyposażenie łazienki płytki armatura łazienkowa",
    "formatted_address": "4,6(97)",
    "phone_number": "+48501801941",
    "source_url": "https://www.google.com/maps/place/%C5%81azienkowe+Pasje+wyposa%C5%BCenie+%C5%82azienki+p%C5%82ytki+armatura+%C5%82azienkowa/data=!4m7!3m6!1s0x4704e96426fce2c3:0xd2fcdb3deaf21d97!8m2!3d52.3322966!4d17.5338281!16s%2Fg%2F11g6b14tg7!19sChIJw-L8JmTpBEcRlx3y6j3b_NI?authuser=0&hl=tr&rclk=1",
    "website_url": "",
    "rating_text": "4,6",
    "stars": null,
    "number_of_reviews": null,
    "price_level": "",
    "open_hours": "",
    "extraction_timestamp": "2025-06-07T17:15:39.983Z",
    "source_name": "google",
    "source_query": "Irrigation Equipment",
    "source_country": "PL",
    "country": "Poland",
    "state": "Greater Poland Voivodeship",
    "city": "Września"
  },
  {
    "source_id": "ChIJ06OP5HrpBEcRi3IXcRgNVP8",
    "name": "PHU \"POLIMAX\" Paweł Lipiecki naprawa pomp głębinowych i silników elektrycznych",
    "category": "PHU \"POLIMAX\" Paweł Lipiecki naprawa pomp głębinowych i silników elektrycznych",
    "formatted_address": "4,7(3)",
    "phone_number": "+48608319950",
    "source_url": "https://www.google.com/maps/place/PHU+%22POLIMAX%22+Pawe%C5%82+Lipiecki+naprawa+pomp+g%C5%82%C4%99binowych+i+silnik%C3%B3w+elektrycznych/data=!4m7!3m6!1s0x4704e97ae48fa3d3:0xff540d187117728b!8m2!3d52.3263327!4d17.5662714!16s%2Fg%2F1tdzvdyh!19sChIJ06OP5HrpBEcRi3IXcRgNVP8?authuser=0&hl=tr&rclk=1",
    "website_url": "",
    "rating_text": "4,7",
    "stars": null,
    "number_of_reviews": null,
    "price_level": "",
    "open_hours": "",
    "extraction_timestamp": "2025-06-07T17:15:39.984Z",
    "source_name": "google",
    "source_query": "Irrigation Equipment",
    "source_country": "PL",
    "country": "Poland",
    "state": "Greater Poland Voivodeship",
    "city": "Września"
  },
  {
    "source_id": "ChIJdble513pBEcROFPvnv7aBYU",
    "name": "Group Zieliński",
    "category": "Group Zieliński",
    "formatted_address": "5,0(4)",
    "phone_number": "+48664276388",
    "source_url": "https://www.google.com/maps/place/Group+Zieli%C5%84ski/data=!4m7!3m6!1s0x4704e95de75eb975:0x8505dafe9eef5338!8m2!3d52.331963!4d17.54874!16s%2Fg%2F1ptwb8nvq!19sChIJdble513pBEcROFPvnv7aBYU?authuser=0&hl=tr&rclk=1",
    "website_url": "",
    "rating_text": "5,0",
    "stars": null,
    "number_of_reviews": null,
    "price_level": "",
    "open_hours": "",
    "extraction_timestamp": "2025-06-07T17:15:39.985Z",
    "source_name": "google",
    "source_query": "Irrigation Equipment",
    "source_country": "PL",
    "country": "Poland",
    "state": "Greater Poland Voivodeship",
    "city": "Września"
  },
  {
    "source_id": "ChIJr5GgcqDpBEcRX5oArEL7jOY",
    "name": "WODCOGAZ Fibikowski Salon Łazienek",
    "category": "WODCOGAZ Fibikowski Salon Łazienek",
    "formatted_address": "4,3(15)",
    "phone_number": "+48614389169",
    "source_url": "https://www.google.com/maps/place/WODCOGAZ+Fibikowski+Salon+%C5%81azienek/data=!4m7!3m6!1s0x4704e9a072a091af:0xe68cfb42ac009a5f!8m2!3d52.3107524!4d17.5714342!16s%2Fg%2F1pv00z3x7!19sChIJr5GgcqDpBEcRX5oArEL7jOY?authuser=0&hl=tr&rclk=1",
    "website_url": "",
    "rating_text": "4,3",
    "stars": null,
    "number_of_reviews": null,
    "price_level": "",
    "open_hours": "",
    "extraction_timestamp": "2025-06-07T17:15:39.986Z",
    "source_name": "google",
    "source_query": "Irrigation Equipment",
    "source_country": "PL",
    "country": "Poland",
    "state": "Greater Poland Voivodeship",
    "city": "Września"
  },
  {
    "source_id": "ChIJwxeH_d_rBEcRmOyfjicIX84",
    "name": "Związek Spółek Wodnych",
    "category": "Związek Spółek Wodnych",
    "formatted_address": "5,0(1)",
    "phone_number": "+48614361807",
    "source_url": "https://www.google.com/maps/place/Zwi%C4%85zek+Sp%C3%B3%C5%82ek+Wodnych/data=!4m7!3m6!1s0x4704ebdffd8717c3:0xce5f08278e9fec98!8m2!3d52.3374759!4d17.5544767!16s%2Fg%2F1tcv03rc!19sChIJwxeH_d_rBEcRmOyfjicIX84?authuser=0&hl=tr&rclk=1",
    "website_url": "",
    "rating_text": "5,0",
    "stars": null,
    "number_of_reviews": null,
    "price_level": "",
    "open_hours": "",
    "extraction_timestamp": "2025-06-07T17:15:39.986Z",
    "source_name": "google",
    "source_query": "Irrigation Equipment",
    "source_country": "PL",
    "country": "Poland",
    "state": "Greater Poland Voivodeship",
    "city": "Września"
  },
  {
    "source_id": "ChIJs7yoMeDpBEcRX2w1a3bBQF8",
    "name": "Sklep SFD Września",
    "category": "Sklep SFD Września",
    "formatted_address": "5,0(340)",
    "phone_number": "+48500448892",
    "source_url": "https://www.google.com/maps/place/Sklep+SFD+Wrze%C5%9Bnia/data=!4m7!3m6!1s0x4704e9e031a8bcb3:0x5f40c1766b356c5f!8m2!3d52.314535!4d17.5547669!16s%2Fg%2F11m_m64bh1!19sChIJs7yoMeDpBEcRX2w1a3bBQF8?authuser=0&hl=tr&rclk=1",
    "website_url": "",
    "rating_text": "5,0",
    "stars": null,
    "number_of_reviews": null,
    "price_level": "",
    "open_hours": "",
    "extraction_timestamp": "2025-06-07T17:15:39.987Z",
    "source_name": "google",
    "source_query": "Irrigation Equipment",
    "source_country": "PL",
    "country": "Poland",
    "state": "Greater Poland Voivodeship",
    "city": "Września"
  },
  {
    "source_id": "ChIJ_3N-E3zpBEcR-iWvw6TE1xE",
    "name": "Aqua Elektro. Technika grzewcza i hydrauliczna, pompy, bojlery",
    "category": "Aqua Elektro. Technika grzewcza i hydrauliczna, pompy, bojlery",
    "formatted_address": "Aqua Elektro. Technika grzewcza i hydrauliczna, pompy, bojlery",
    "phone_number": "+48614379114",
    "source_url": "https://www.google.com/maps/place/Aqua+Elektro.+Technika+grzewcza+i+hydrauliczna,+pompy,+bojlery/data=!4m7!3m6!1s0x4704e97c137e73ff:0x11d7c4a4c3af25fa!8m2!3d52.3297252!4d17.5724114!16s%2Fg%2F1vtzfx_c!19sChIJ_3N-E3zpBEcR-iWvw6TE1xE?authuser=0&hl=tr&rclk=1",
    "website_url": "",
    "rating_text": "",
    "stars": null,
    "number_of_reviews": null,
    "price_level": "",
    "open_hours": "",
    "extraction_timestamp": "2025-06-07T17:15:39.988Z",
    "source_name": "google",
    "source_query": "Irrigation Equipment",
    "source_country": "PL",
    "country": "Poland",
    "state": "Greater Poland Voivodeship",
    "city": "Września"
  },
  {
    "source_id": "ChIJ-TBXexrpBEcRyXY1HGYJLvw",
    "name": "Inside Łazienka na miarę Twoich potrzeb!",
    "category": "Inside Łazienka na miarę Twoich potrzeb!",
    "formatted_address": "5,0(17)",
    "phone_number": "+48695926755",
    "source_url": "https://www.google.com/maps/place/Inside+%C5%81azienka+na+miar%C4%99+Twoich+potrzeb!/data=!4m7!3m6!1s0x4704e91a7b5730f9:0xfc2e09661c3576c9!8m2!3d52.3185908!4d17.5655387!16s%2Fg%2F11fstn2197!19sChIJ-TBXexrpBEcRyXY1HGYJLvw?authuser=0&hl=tr&rclk=1",
    "website_url": "",
    "rating_text": "5,0",
    "stars": null,
    "number_of_reviews": null,
    "price_level": "",
    "open_hours": "",
    "extraction_timestamp": "2025-06-07T17:15:39.989Z",
    "source_name": "google",
    "source_query": "Irrigation Equipment",
    "source_country": "PL",
    "country": "Poland",
    "state": "Greater Poland Voivodeship",
    "city": "Września"
  },
  {
    "source_id": "ChIJ92WOcXrpBEcRfzV-CWQpVXo",
    "name": "Drogeria Natura",
    "category": "Drogeria Natura",
    "formatted_address": "4,2(48)",
    "phone_number": "+48727058307",
    "source_url": "https://www.google.com/maps/place/Drogeria+Natura/data=!4m7!3m6!1s0x4704e97a718e65f7:0x7a552964097e357f!8m2!3d52.3242604!4d17.5675837!16s%2Fg%2F1tfyc8h_!19sChIJ92WOcXrpBEcRfzV-CWQpVXo?authuser=0&hl=tr&rclk=1",
    "website_url": "",
    "rating_text": "4,2",
    "stars": null,
    "number_of_reviews": null,
    "price_level": "",
    "open_hours": "",
    "extraction_timestamp": "2025-06-07T17:15:39.990Z",
    "source_name": "google",
    "source_query": "Irrigation Equipment",
    "source_country": "PL",
    "country": "Poland",
    "state": "Greater Poland Voivodeship",
    "city": "Września"
  },
  {
    "source_id": "ChIJycGChXDpBEcRycFi6XJjr6g",
    "name": "F.H. Matteo-Jurewicz",
    "category": "F.H. Matteo-Jurewicz",
    "formatted_address": "4,4(44)",
    "phone_number": "+48614365275",
    "source_url": "https://www.google.com/maps/place/F.H.+Matteo-Jurewicz/data=!4m7!3m6!1s0x4704e9708582c1c9:0xa8af6372e962c1c9!8m2!3d52.3234608!4d17.5666761!16s%2Fg%2F1v9gt4n1!19sChIJycGChXDpBEcRycFi6XJjr6g?authuser=0&hl=tr&rclk=1",
    "website_url": "",
    "rating_text": "4,4",
    "stars": null,
    "number_of_reviews": null,
    "price_level": "",
    "open_hours": "",
    "extraction_timestamp": "2025-06-07T17:15:39.991Z",
    "source_name": "google",
    "source_query": "Irrigation Equipment",
    "source_country": "PL",
    "country": "Poland",
    "state": "Greater Poland Voivodeship",
    "city": "Września"
  },
  {
    "source_id": "ChIJI5GgxWLpBEcRuCI4p0iQ8xc",
    "name": "Z-gsm. Ziętek Ł.",
    "category": "Z-gsm. Ziętek Ł.",
    "formatted_address": "4,1(49)",
    "phone_number": "+48788770062",
    "source_url": "https://www.google.com/maps/place/Z-gsm.+Zi%C4%99tek+%C5%81./data=!4m7!3m6!1s0x4704e962c5a09123:0x17f39048a73822b8!8m2!3d52.323514!4d17.5646927!16s%2Fg%2F1td579r_!19sChIJI5GgxWLpBEcRuCI4p0iQ8xc?authuser=0&hl=tr&rclk=1",
    "website_url": "",
    "rating_text": "4,1",
    "stars": null,
    "number_of_reviews": null,
    "price_level": "",
    "open_hours": "",
    "extraction_timestamp": "2025-06-07T17:15:39.992Z",
    "source_name": "google",
    "source_query": "Irrigation Equipment",
    "source_country": "PL",
    "country": "Poland",
    "state": "Greater Poland Voivodeship",
    "city": "Września"
  },
  {
    "source_id": "ChIJoy7HXWvpBEcRCeXWjct9ZRk",
    "name": "Action Września",
    "category": "Action Września",
    "formatted_address": "4,3(72)",
    "phone_number": "+48326305898",
    "source_url": "https://www.google.com/maps/place/Action+Wrze%C5%9Bnia/data=!4m7!3m6!1s0x4704e96b5dc72ea3:0x19657dcb8dd6e509!8m2!3d52.3231375!4d17.5593661!16s%2Fg%2F11k4ngzrjl!19sChIJoy7HXWvpBEcRCeXWjct9ZRk?authuser=0&hl=tr&rclk=1",
    "website_url": "",
    "rating_text": "4,3",
    "stars": null,
    "number_of_reviews": null,
    "price_level": "",
    "open_hours": "",
    "extraction_timestamp": "2025-06-07T17:15:39.993Z",
    "source_name": "google",
    "source_query": "Irrigation Equipment",
    "source_country": "PL",
    "country": "Poland",
    "state": "Greater Poland Voivodeship",
    "city": "Września"
  },
  {
    "source_id": "ChIJaWycJHvpBEcRiQJ5i-nS2UA",
    "name": "Sklep wielobranżowy PSS Społem",
    "category": "Sklep wielobranżowy PSS Społem",
    "formatted_address": "4,9(12)",
    "phone_number": "+48614379522",
    "source_url": "https://www.google.com/maps/place/Sklep+wielobran%C5%BCowy+PSS+Spo%C5%82em/data=!4m7!3m6!1s0x4704e97b249c6c69:0x40d9d2e98b790289!8m2!3d52.3274459!4d17.5660271!16s%2Fg%2F1tmqq1ly!19sChIJaWycJHvpBEcRiQJ5i-nS2UA?authuser=0&hl=tr&rclk=1",
    "website_url": "",
    "rating_text": "4,9",
    "stars": null,
    "number_of_reviews": null,
    "price_level": "",
    "open_hours": "",
    "extraction_timestamp": "2025-06-07T17:15:40.011Z",
    "source_name": "google",
    "source_query": "Irrigation Equipment",
    "source_country": "PL",
    "country": "Poland",
    "state": "Greater Poland Voivodeship",
    "city": "Września"
  },
  {
    "source_id": "ChIJbeyChXDpBEcRTuQ_wCMd9UQ",
    "name": "Sklep Polski Matteo",
    "category": "Sklep Polski Matteo",
    "formatted_address": "4,4(35)",
    "phone_number": "",
    "source_url": "https://www.google.com/maps/place/Sklep+Polski+Matteo/data=!4m7!3m6!1s0x4704e9708582ec6d:0x44f51d23c03fe44e!8m2!3d52.3234953!4d17.5666426!16s%2Fg%2F11gty1nf6l!19sChIJbeyChXDpBEcRTuQ_wCMd9UQ?authuser=0&hl=tr&rclk=1",
    "website_url": "",
    "rating_text": "4,4",
    "stars": null,
    "number_of_reviews": null,
    "price_level": "",
    "open_hours": "",
    "extraction_timestamp": "2025-06-07T17:15:40.012Z",
    "source_name": "google",
    "source_query": "Irrigation Equipment",
    "source_country": "PL",
    "country": "Poland",
    "state": "Greater Poland Voivodeship",
    "city": "Września"
  },
  {
    "source_id": "ChIJq__nqcHpBEcRVwLp6rHEzPU",
    "name": "SPOŁEM Sklep wielobranżowy",
    "category": "SPOŁEM Sklep wielobranżowy",
    "formatted_address": "4,3(6)",
    "phone_number": "",
    "source_url": "https://www.google.com/maps/place/SPO%C5%81EM+Sklep+wielobran%C5%BCowy/data=!4m7!3m6!1s0x4704e9c1a9e7ffab:0xf5ccc4b1eae90257!8m2!3d52.330752!4d17.5547054!16s%2Fg%2F11stzb__r9!19sChIJq__nqcHpBEcRVwLp6rHEzPU?authuser=0&hl=tr&rclk=1",
    "website_url": "",
    "rating_text": "4,3",
    "stars": null,
    "number_of_reviews": null,
    "price_level": "",
    "open_hours": "",
    "extraction_timestamp": "2025-06-07T17:15:40.012Z",
    "source_name": "google",
    "source_query": "Irrigation Equipment",
    "source_country": "PL",
    "country": "Poland",
    "state": "Greater Poland Voivodeship",
    "city": "Września"
  },
  {
    "source_id": "ChIJNzOj72_pBEcRmkOI9v_Yk34",
    "name": "Intermarche",
    "category": "Intermarche",
    "formatted_address": "4,2(966)",
    "phone_number": "",
    "source_url": "https://www.google.com/maps/place/Intermarche/data=!4m7!3m6!1s0x4704e96fefa33337:0x7e93d8fff688439a!8m2!3d52.3245468!4d17.5612583!16s%2Fg%2F11c4bffp4c!19sChIJNzOj72_pBEcRmkOI9v_Yk34?authuser=0&hl=tr&rclk=1",
    "website_url": "",
    "rating_text": "4,2",
    "stars": null,
    "number_of_reviews": null,
    "price_level": "",
    "open_hours": "",
    "extraction_timestamp": "2025-06-07T17:15:40.013Z",
    "source_name": "google",
    "source_query": "Irrigation Equipment",
    "source_country": "PL",
    "country": "Poland",
    "state": "Greater Poland Voivodeship",
    "city": "Września"
  }
]
