[
  {
    "source_id": "ChIJF2FNE0KWA0cRcmVT6ZRYxRQ",
    "name": "Pro-Re-Ma. Instalacje grzewcze, gazowe, wodno-kanalizacyjne. Śledź G.",
    "category": "Pro-Re-Ma. Instalacje grzewcze, gazowe, wodno-kanalizacyjne. Śledź G.",
    "formatted_address": "Pro-Re-Ma. Instalacje grzewcze, gazowe, wodno-kanalizacyjne. Śledź G.",
    "phone_number": "+48672867566",
    "source_url": "https://www.google.com/maps/place/Pro-Re-Ma.+Instalacje+grzewcze,+gazowe,+wodno-kanalizacyjne.+%C5%9Aled%C5%BA+G./data=!4m7!3m6!1s0x47039642134d6117:0x14c55894e9536572!8m2!3d53.1439624!4d17.2808373!16s%2Fg%2F1tqnk9jf!19sChIJF2FNE0KWA0cRcmVT6ZRYxRQ?authuser=0&hl=tr&rclk=1",
    "website_url": "http://prorema.pl/",
    "rating_text": "5,0",
    "stars": null,
    "number_of_reviews": null,
    "price_level": "",
    "open_hours": "",
    "extraction_timestamp": "2025-06-07T17:35:22.564Z",
    "source_name": "google",
    "source_query": "Irrigation Equipment",
    "source_country": "PL",
    "country": "Poland",
    "state": "Greater Poland Voivodeship",
    "city": "Wyrzysk"
  },
  {
    "source_id": "ChIJgaUQXgyWA0cRtvNeHWEmfig",
    "name": "Janicka Grażyna. PHU. AGD RTV ROWERY MOTOROWERY PRALKI LED, TELEFONY, MAX ELEKTRO, WYRZYSK, KOSIARKI, KOSY",
    "category": "Janicka Grażyna. PHU. AGD RTV ROWERY MOTOROWERY PRALKI LED, TELEFONY, MAX ELEKTRO, WYRZYSK, KOSIARKI, KOSY",
    "formatted_address": "Janicka Grażyna. PHU. AGD RTV ROWERY MOTOROWERY PRALKI LED, TELEFONY, MAX ELEKTRO, WYRZYSK, KOSIARKI, KOSY",
    "phone_number": "+48672867777",
    "source_url": "https://www.google.com/maps/place/Janicka+Gra%C5%BCyna.+PHU.+AGD+RTV+ROWERY+MOTOROWERY+PRALKI+LED,+TELEFONY,+MAX+ELEKTRO,+WYRZYSK,+KOSIARKI,+KOSY/data=!4m7!3m6!1s0x4703960c5e10a581:0x287e26611d5ef3b6!8m2!3d53.1565315!4d17.2640335!16s%2Fg%2F1tf6w17b!19sChIJgaUQXgyWA0cRtvNeHWEmfig?authuser=0&hl=tr&rclk=1",
    "website_url": "",
    "rating_text": "4,5",
    "stars": null,
    "number_of_reviews": null,
    "price_level": "",
    "open_hours": "",
    "extraction_timestamp": "2025-06-07T17:35:22.564Z",
    "source_name": "google",
    "source_query": "Irrigation Equipment",
    "source_country": "PL",
    "country": "Poland",
    "state": "Greater Poland Voivodeship",
    "city": "Wyrzysk"
  },
  {
    "source_id": "ChIJxyzBioSXA0cRpBy_hLbEKyw",
    "name": "Sklep Ogrodniczy HALINA",
    "category": "Sklep Ogrodniczy HALINA",
    "formatted_address": "5,0(2)",
    "phone_number": "+48609550141",
    "source_url": "https://www.google.com/maps/place/Sklep+Ogrodniczy+HALINA/data=!4m7!3m6!1s0x470397848ac12cc7:0x2c2bc4b684bf1ca4!8m2!3d53.1531407!4d17.26715!16s%2Fg%2F11rb5_52bl!19sChIJxyzBioSXA0cRpBy_hLbEKyw?authuser=0&hl=tr&rclk=1",
    "website_url": "",
    "rating_text": "5,0",
    "stars": null,
    "number_of_reviews": null,
    "price_level": "",
    "open_hours": "",
    "extraction_timestamp": "2025-06-07T17:35:22.564Z",
    "source_name": "google",
    "source_query": "Irrigation Equipment",
    "source_country": "PL",
    "country": "Poland",
    "state": "Greater Poland Voivodeship",
    "city": "Wyrzysk"
  },
  {
    "source_id": "ChIJsfNll0KWA0cRh-OmyeqGVqg",
    "name": "Sklep Spożywczy Agma",
    "category": "Sklep Spożywczy Agma",
    "formatted_address": "4,9(16)",
    "phone_number": "",
    "source_url": "https://www.google.com/maps/place/Sklep+Spo%C5%BCywczy+Agma/data=!4m7!3m6!1s0x470396429765f3b1:0xa85686eac9a6e387!8m2!3d53.1416849!4d17.2789857!16s%2Fg%2F11fqpc4b19!19sChIJsfNll0KWA0cRh-OmyeqGVqg?authuser=0&hl=tr&rclk=1",
    "website_url": "",
    "rating_text": "4,9",
    "stars": null,
    "number_of_reviews": null,
    "price_level": "",
    "open_hours": "",
    "extraction_timestamp": "2025-06-07T17:35:22.564Z",
    "source_name": "google",
    "source_query": "Irrigation Equipment",
    "source_country": "PL",
    "country": "Poland",
    "state": "Greater Poland Voivodeship",
    "city": "Wyrzysk"
  },
  {
    "source_id": "ChIJm-lb1AqXA0cRtePwEGQSqG4",
    "name": "Żubr - sklep monopolowy",
    "category": "Żubr - sklep monopolowy",
    "formatted_address": "5,0(3)",
    "phone_number": "",
    "source_url": "https://www.google.com/maps/place/%C5%BBubr+-+sklep+monopolowy/data=!4m7!3m6!1s0x4703970ad45be99b:0x6ea8126410f0e3b5!8m2!3d53.1553227!4d17.2634748!16s%2Fg%2F11h4c856t0!19sChIJm-lb1AqXA0cRtePwEGQSqG4?authuser=0&hl=tr&rclk=1",
    "website_url": "",
    "rating_text": "5,0",
    "stars": null,
    "number_of_reviews": null,
    "price_level": "",
    "open_hours": "",
    "extraction_timestamp": "2025-06-07T17:35:22.564Z",
    "source_name": "google",
    "source_query": "Irrigation Equipment",
    "source_country": "PL",
    "country": "Poland",
    "state": "Greater Poland Voivodeship",
    "city": "Wyrzysk"
  },
  {
    "source_id": "ChIJ0zcl7wyWA0cRXrpErCYXHzs",
    "name": "Stogrosik",
    "category": "Stogrosik",
    "formatted_address": "4,6(11)",
    "phone_number": "",
    "source_url": "https://www.google.com/maps/place/Stogrosik/data=!4m7!3m6!1s0x4703960cef2537d3:0x3b1f1726ac44ba5e!8m2!3d53.1551313!4d17.2642983!16s%2Fg%2F11fqpb_j1k!19sChIJ0zcl7wyWA0cRXrpErCYXHzs?authuser=0&hl=tr&rclk=1",
    "website_url": "",
    "rating_text": "4,6",
    "stars": null,
    "number_of_reviews": null,
    "price_level": "",
    "open_hours": "",
    "extraction_timestamp": "2025-06-07T17:35:22.565Z",
    "source_name": "google",
    "source_query": "Irrigation Equipment",
    "source_country": "PL",
    "country": "Poland",
    "state": "Greater Poland Voivodeship",
    "city": "Wyrzysk"
  },
  {
    "source_id": "ChIJk_HitS-XA0cR__a_vJ9-6jw",
    "name": "Drogeria Rossmann",
    "category": "Drogeria Rossmann",
    "formatted_address": "4,4(78)",
    "phone_number": "+48426139700",
    "source_url": "https://www.google.com/maps/place/Drogeria+Rossmann/data=!4m7!3m6!1s0x4703972fb5e2f193:0x3cea7e9fbcbff6ff!8m2!3d53.1526109!4d17.2657291!16s%2Fg%2F11fqqbby1x!19sChIJk_HitS-XA0cR__a_vJ9-6jw?authuser=0&hl=tr&rclk=1",
    "website_url": "https://www.rossmann.pl/",
    "rating_text": "4,4",
    "stars": null,
    "number_of_reviews": null,
    "price_level": "",
    "open_hours": "",
    "extraction_timestamp": "2025-06-07T17:35:22.565Z",
    "source_name": "google",
    "source_query": "Irrigation Equipment",
    "source_country": "PL",
    "country": "Poland",
    "state": "Greater Poland Voivodeship",
    "city": "Wyrzysk"
  },
  {
    "source_id": "ChIJlcMMLg2WA0cRSDGbtXhPbJM",
    "name": "Plac Targowy",
    "category": "Plac Targowy",
    "formatted_address": "4,4(11)",
    "phone_number": "",
    "source_url": "https://www.google.com/maps/place/Plac+Targowy/data=!4m7!3m6!1s0x4703960d2e0cc395:0x936c4f78b59b3148!8m2!3d53.1535987!4d17.2654549!16s%2Fg%2F11cjh_lm58!19sChIJlcMMLg2WA0cRSDGbtXhPbJM?authuser=0&hl=tr&rclk=1",
    "website_url": "",
    "rating_text": "4,4",
    "stars": null,
    "number_of_reviews": null,
    "price_level": "",
    "open_hours": "",
    "extraction_timestamp": "2025-06-07T17:35:22.565Z",
    "source_name": "google",
    "source_query": "Irrigation Equipment",
    "source_country": "PL",
    "country": "Poland",
    "state": "Greater Poland Voivodeship",
    "city": "Wyrzysk"
  },
  {
    "source_id": "ChIJB0CyaluXA0cR_3dIP8P6m8g",
    "name": "Dino",
    "category": "Dino",
    "formatted_address": "4,7(98)",
    "phone_number": "",
    "source_url": "https://www.google.com/maps/place/Dino/data=!4m7!3m6!1s0x4703975b6ab24007:0xc89bfac33f4877ff!8m2!3d53.155541!4d17.2750447!16s%2Fg%2F11llm1t99b!19sChIJB0CyaluXA0cR_3dIP8P6m8g?authuser=0&hl=tr&rclk=1",
    "website_url": "https://marketdino.pl/",
    "rating_text": "4,7",
    "stars": null,
    "number_of_reviews": null,
    "price_level": "",
    "open_hours": "",
    "extraction_timestamp": "2025-06-07T17:35:22.565Z",
    "source_name": "google",
    "source_query": "Irrigation Equipment",
    "source_country": "PL",
    "country": "Poland",
    "state": "Greater Poland Voivodeship",
    "city": "Wyrzysk"
  },
  {
    "source_id": "ChIJUfn2Ig35A0cREW9fZ4029UM",
    "name": "IMTechnika sp. z o.o.",
    "category": "IMTechnika sp. z o.o.",
    "formatted_address": "4,4(17)",
    "phone_number": "+48883820388",
    "source_url": "https://www.google.com/maps/place/IMTechnika+sp.+z+o.o./data=!4m7!3m6!1s0x4703f90d22f6f951:0x43f5368d675f6f11!8m2!3d52.9756271!4d16.657836!16s%2Fg%2F11bw48_6mg!19sChIJUfn2Ig35A0cREW9fZ4029UM?authuser=0&hl=tr&rclk=1",
    "website_url": "http://imtechnika.pl/",
    "rating_text": "4,4",
    "stars": null,
    "number_of_reviews": null,
    "price_level": "",
    "open_hours": "",
    "extraction_timestamp": "2025-06-07T17:35:22.566Z",
    "source_name": "google",
    "source_query": "Irrigation Equipment",
    "source_country": "PL",
    "country": "Poland",
    "state": "Greater Poland Voivodeship",
    "city": "Wyrzysk"
  },
  {
    "source_id": "ChIJNwV7pUeXA0cRbOWG52TlZRQ",
    "name": "Sklep Polski",
    "category": "Sklep Polski",
    "formatted_address": "4,3(3)",
    "phone_number": "+48502573860",
    "source_url": "https://www.google.com/maps/place/Sklep+Polski/data=!4m7!3m6!1s0x47039747a57b0537:0x1465e564e786e56c!8m2!3d53.153863!4d17.266903!16s%2Fg%2F11vrbd8xws!19sChIJNwV7pUeXA0cRbOWG52TlZRQ?authuser=0&hl=tr&rclk=1",
    "website_url": "https://www.skleppolski.pl/",
    "rating_text": "4,3",
    "stars": null,
    "number_of_reviews": null,
    "price_level": "",
    "open_hours": "",
    "extraction_timestamp": "2025-06-07T17:35:22.566Z",
    "source_name": "google",
    "source_query": "Irrigation Equipment",
    "source_country": "PL",
    "country": "Poland",
    "state": "Greater Poland Voivodeship",
    "city": "Wyrzysk"
  },
  {
    "source_id": "ChIJ51b2EQuWA0cRC76qK1wqjHU",
    "name": "Najlepszy sklep w całym mieście GROSZEK",
    "category": "Najlepszy sklep w całym mieście GROSZEK",
    "formatted_address": "4,9(8)",
    "phone_number": "",
    "source_url": "https://www.google.com/maps/place/Najlepszy+sklep+w+ca%C5%82ym+mie%C5%9Bcie+GROSZEK/data=!4m7!3m6!1s0x4703960b11f656e7:0x758c2a5c2baabe0b!8m2!3d53.1560768!4d17.2592281!16s%2Fg%2F11j4t6hzhn!19sChIJ51b2EQuWA0cRC76qK1wqjHU?authuser=0&hl=tr&rclk=1",
    "website_url": "",
    "rating_text": "4,9",
    "stars": null,
    "number_of_reviews": null,
    "price_level": "",
    "open_hours": "",
    "extraction_timestamp": "2025-06-07T17:35:22.566Z",
    "source_name": "google",
    "source_query": "Irrigation Equipment",
    "source_country": "PL",
    "country": "Poland",
    "state": "Greater Poland Voivodeship",
    "city": "Wyrzysk"
  },
  {
    "source_id": "ChIJ-XWuHG2WA0cRSlqFvcGC8Hs",
    "name": "Dino",
    "category": "Dino",
    "formatted_address": "4,3(339)",
    "phone_number": "",
    "source_url": "https://www.google.com/maps/place/Dino/data=!4m7!3m6!1s0x4703966d1cae75f9:0x7bf082c1bd855a4a!8m2!3d53.1506898!4d17.2701674!16s%2Fg%2F11dybdggyg!19sChIJ-XWuHG2WA0cRSlqFvcGC8Hs?authuser=0&hl=tr&rclk=1",
    "website_url": "https://marketdino.pl/",
    "rating_text": "4,3",
    "stars": null,
    "number_of_reviews": null,
    "price_level": "",
    "open_hours": "",
    "extraction_timestamp": "2025-06-07T17:35:22.566Z",
    "source_name": "google",
    "source_query": "Irrigation Equipment",
    "source_country": "PL",
    "country": "Poland",
    "state": "Greater Poland Voivodeship",
    "city": "Wyrzysk"
  },
  {
    "source_id": "ChIJM-ecNit-SUUR0JDIjLCfLXg",
    "name": "Hydro-Tech Studnie",
    "category": "Hydro-Tech Studnie",
    "formatted_address": "5,0(4)",
    "phone_number": "+48605172523",
    "source_url": "https://www.google.com/maps/place/Hydro-Tech+Studnie/data=!4m7!3m6!1s0x45497e2b369ce733:0x782d9fb08cc890d0!8m2!3d53.1443301!4d17.0444372!16s%2Fg%2F11x2vjjl2k!19sChIJM-ecNit-SUUR0JDIjLCfLXg?authuser=0&hl=tr&rclk=1",
    "website_url": "",
    "rating_text": "5,0",
    "stars": null,
    "number_of_reviews": null,
    "price_level": "",
    "open_hours": "",
    "extraction_timestamp": "2025-06-07T17:35:22.567Z",
    "source_name": "google",
    "source_query": "Irrigation Equipment",
    "source_country": "PL",
    "country": "Poland",
    "state": "Greater Poland Voivodeship",
    "city": "Wyrzysk"
  },
  {
    "source_id": "ChIJx0b5Ig6WA0cRoGLfaELdlRA",
    "name": "Sklep spożywczo - przemysłowy",
    "category": "Sklep spożywczo - przemysłowy",
    "formatted_address": "4,2(6)",
    "phone_number": "+48672862151",
    "source_url": "https://www.google.com/maps/place/Sklep+spo%C5%BCywczo+-+przemys%C5%82owy/data=!4m7!3m6!1s0x4703960e22f946c7:0x1095dd4268df62a0!8m2!3d53.1593598!4d17.2717089!16s%2Fg%2F1v_w11qh!19sChIJx0b5Ig6WA0cRoGLfaELdlRA?authuser=0&hl=tr&rclk=1",
    "website_url": "",
    "rating_text": "4,2",
    "stars": null,
    "number_of_reviews": null,
    "price_level": "",
    "open_hours": "",
    "extraction_timestamp": "2025-06-07T17:35:22.567Z",
    "source_name": "google",
    "source_query": "Irrigation Equipment",
    "source_country": "PL",
    "country": "Poland",
    "state": "Greater Poland Voivodeship",
    "city": "Wyrzysk"
  },
  {
    "source_id": "ChIJmbF7zHKWA0cRh2MI20QdUAo",
    "name": "Biedronka",
    "category": "Biedronka",
    "formatted_address": "4,0(811)",
    "phone_number": "+48800080010",
    "source_url": "https://www.google.com/maps/place/Biedronka/data=!4m7!3m6!1s0x47039672cc7bb199:0xa501d44db086387!8m2!3d53.1529113!4d17.2660918!16s%2Fg%2F11b5wpdw5b!19sChIJmbF7zHKWA0cRh2MI20QdUAo?authuser=0&hl=tr&rclk=1",
    "website_url": "https://www.biedronka.pl/pl?utm_source=gmb",
    "rating_text": "4,0",
    "stars": null,
    "number_of_reviews": null,
    "price_level": "",
    "open_hours": "",
    "extraction_timestamp": "2025-06-07T17:35:22.567Z",
    "source_name": "google",
    "source_query": "Irrigation Equipment",
    "source_country": "PL",
    "country": "Poland",
    "state": "Greater Poland Voivodeship",
    "city": "Wyrzysk"
  }
]
