[
  {
    "source_id": "ChIJyVfYTbp0PUcRq5Awm9Jnao0",
    "name": "Systemy automatycznego nawadniania e-nawodnienia.pl",
    "category": "Systemy automatycznego nawadniania e-nawodnienia.pl",
    "formatted_address": "4,8(25)",
    "phone_number": "+48500704488",
    "source_url": "https://www.google.com/maps/place/Systemy+automatycznego+nawadniania+e-nawodnienia.pl/data=!4m7!3m6!1s0x473d74ba4dd857c9:0x8d6a67d29b3090ab!8m2!3d50.1730552!4d21.4909736!16s%2Fg%2F1tj2gnmb!19sChIJyVfYTbp0PUcRq5Awm9Jnao0?authuser=0&hl=tr&rclk=1",
    "website_url": "https://e-nawodnienia.pl/",
    "rating_text": "4,8",
    "stars": null,
    "number_of_reviews": null,
    "price_level": "",
    "open_hours": "",
    "extraction_timestamp": "2025-06-07T17:52:45.930Z",
    "source_name": "google",
    "source_query": "Irrigation Equipment",
    "source_country": "PL",
    "country": "Poland",
    "state": "Greater Poland Voivodeship",
    "city": "Wysoka"
  },
  {
    "source_id": "ChIJUfn2Ig35A0cREW9fZ4029UM",
    "name": "IMTechnika sp. z o.o.",
    "category": "IMTechnika sp. z o.o.",
    "formatted_address": "4,4(17)",
    "phone_number": "+48883820388",
    "source_url": "https://www.google.com/maps/place/IMTechnika+sp.+z+o.o./data=!4m7!3m6!1s0x4703f90d22f6f951:0x43f5368d675f6f11!8m2!3d52.9756271!4d16.657836!16s%2Fg%2F11bw48_6mg!19sChIJUfn2Ig35A0cREW9fZ4029UM?authuser=0&hl=tr&rclk=1",
    "website_url": "http://imtechnika.pl/",
    "rating_text": "4,4",
    "stars": null,
    "number_of_reviews": null,
    "price_level": "",
    "open_hours": "",
    "extraction_timestamp": "2025-06-07T17:52:45.931Z",
    "source_name": "google",
    "source_query": "Irrigation Equipment",
    "source_country": "PL",
    "country": "Poland",
    "state": "Greater Poland Voivodeship",
    "city": "Wysoka"
  },
  {
    "source_id": "ChIJFVCITOVPBEcRG-lA_g1qlqk",
    "name": "Technika Wody",
    "category": "Technika Wody",
    "formatted_address": "4,6(288)",
    "phone_number": "+48502506622",
    "source_url": "https://www.google.com/maps/place/Technika+Wody/data=!4m7!3m6!1s0x47044fe54c885015:0xa9966a0dfe40e91b!8m2!3d52.3740842!4d16.819808!16s%2Fg%2F11b7vsdjf5!19sChIJFVCITOVPBEcRG-lA_g1qlqk?authuser=0&hl=tr&rclk=1",
    "website_url": "http://technikawody.pl/",
    "rating_text": "4,6",
    "stars": null,
    "number_of_reviews": null,
    "price_level": "",
    "open_hours": "",
    "extraction_timestamp": "2025-06-07T17:52:45.931Z",
    "source_name": "google",
    "source_query": "Irrigation Equipment",
    "source_country": "PL",
    "country": "Poland",
    "state": "Greater Poland Voivodeship",
    "city": "Wysoka"
  },
  {
    "source_id": "ChIJUQRD3u_nD0cR6INSnMieO3Y",
    "name": "Aquatechnika - Re-Water Technology",
    "category": "Aquatechnika - Re-Water Technology",
    "formatted_address": "4,8(80)",
    "phone_number": "+48535553050",
    "source_url": "https://www.google.com/maps/place/Aquatechnika+-+Re-Water+Technology/data=!4m7!3m6!1s0x470fe7efde430451:0x763b9ec89c5283e8!8m2!3d51.088794!4d16.99138!16s%2Fg%2F1trqfynh!19sChIJUQRD3u_nD0cR6INSnMieO3Y?authuser=0&hl=tr&rclk=1",
    "website_url": "https://aquatechnika.com.pl/",
    "rating_text": "4,8",
    "stars": null,
    "number_of_reviews": null,
    "price_level": "",
    "open_hours": "",
    "extraction_timestamp": "2025-06-07T17:52:45.931Z",
    "source_name": "google",
    "source_query": "Irrigation Equipment",
    "source_country": "PL",
    "country": "Poland",
    "state": "Greater Poland Voivodeship",
    "city": "Wysoka"
  }
]
