[
  {
    "source_id": "ChIJUbzh7Ym_BUcRyiU3tvuwRvQ",
    "name": "WODSTAL Instalacje Sanitarne, Grzewcze, Wyposażenie Łazienek",
    "category": "WODSTAL Instalacje Sanitarne, Grzewcze, Wyposażenie Łazienek",
    "formatted_address": "WODSTAL Instalacje Sanitarne, Grzewcze, Wyposażenie Łazienek",
    "phone_number": "+48607818300",
    "source_url": "https://www.google.com/maps/place/WODSTAL+Instalacje+Sanitarne,+Grzewcze,+Wyposa%C5%BCenie+%C5%81azienek/data=!4m7!3m6!1s0x4705bf89ede1bc51:0xf446b0fbb63725ca!8m2!3d51.9268885!4d16.3607541!16s%2Fg%2F1tcw29lb!19sChIJUbzh7Ym_BUcRyiU3tvuwRvQ?authuser=0&hl=tr&rclk=1",
    "website_url": "",
    "rating_text": "4,7",
    "stars": null,
    "number_of_reviews": null,
    "price_level": "",
    "open_hours": "",
    "extraction_timestamp": "2025-06-07T17:43:27.730Z",
    "source_name": "google",
    "source_query": "Irrigation Equipment",
    "source_country": "PL",
    "country": "Poland",
    "state": "Greater Poland Voivodeship",
    "city": "Włoszakowice"
  },
  {
    "source_id": "ChIJTxi-Hg6-BUcR_sU02dIMSLw",
    "name": "Agrolex Włoszakowice",
    "category": "Agrolex Włoszakowice",
    "formatted_address": "4,0(4)",
    "phone_number": "+48655370168",
    "source_url": "https://www.google.com/maps/place/Agrolex+W%C5%82oszakowice/data=!4m7!3m6!1s0x4705be0e1ebe184f:0xbc480cd2d934c5fe!8m2!3d51.932059!4d16.374078!16s%2Fg%2F1ptw5pwjx!19sChIJTxi-Hg6-BUcR_sU02dIMSLw?authuser=0&hl=tr&rclk=1",
    "website_url": "",
    "rating_text": "4,0",
    "stars": null,
    "number_of_reviews": null,
    "price_level": "",
    "open_hours": "",
    "extraction_timestamp": "2025-06-07T17:43:27.732Z",
    "source_name": "google",
    "source_query": "Irrigation Equipment",
    "source_country": "PL",
    "country": "Poland",
    "state": "Greater Poland Voivodeship",
    "city": "Włoszakowice"
  },
  {
    "source_id": "ChIJ1dB07om_BUcRVfyQZgSk8_o",
    "name": "Ogrofol Sp. z o.o.",
    "category": "Ogrofol Sp. z o.o.",
    "formatted_address": "4,6(134)",
    "phone_number": "+48655370789",
    "source_url": "https://www.google.com/maps/place/Ogrofol+Sp.+z+o.o./data=!4m7!3m6!1s0x4705bf89ee74d0d5:0xfaf3a4046690fc55!8m2!3d51.9362143!4d16.3703016!16s%2Fg%2F1tg6j7mb!19sChIJ1dB07om_BUcRVfyQZgSk8_o?authuser=0&hl=tr&rclk=1",
    "website_url": "",
    "rating_text": "4,6",
    "stars": null,
    "number_of_reviews": null,
    "price_level": "",
    "open_hours": "",
    "extraction_timestamp": "2025-06-07T17:43:27.733Z",
    "source_name": "google",
    "source_query": "Irrigation Equipment",
    "source_country": "PL",
    "country": "Poland",
    "state": "Greater Poland Voivodeship",
    "city": "Włoszakowice"
  },
  {
    "source_id": "ChIJvQQE54q_BUcRmMRXFUi_3e4",
    "name": "Hermes Sp.z.o.o.",
    "category": "Hermes Sp.z.o.o.",
    "formatted_address": "3,3(522)",
    "phone_number": "+48655370059",
    "source_url": "https://www.google.com/maps/place/Hermes+Sp.z.o.o./data=!4m7!3m6!1s0x4705bf8ae70404bd:0xeeddbf481557c498!8m2!3d51.9256995!4d16.3579368!16s%2Fg%2F1ptycvfqp!19sChIJvQQE54q_BUcRmMRXFUi_3e4?authuser=0&hl=tr&rclk=1",
    "website_url": "",
    "rating_text": "3,3",
    "stars": null,
    "number_of_reviews": null,
    "price_level": "",
    "open_hours": "",
    "extraction_timestamp": "2025-06-07T17:43:27.734Z",
    "source_name": "google",
    "source_query": "Irrigation Equipment",
    "source_country": "PL",
    "country": "Poland",
    "state": "Greater Poland Voivodeship",
    "city": "Włoszakowice"
  },
  {
    "source_id": "ChIJbxjtR4y_BUcRAkebtG_hYV4",
    "name": "Knop - Tereny Zielone",
    "category": "Knop - Tereny Zielone",
    "formatted_address": "4,9(27)",
    "phone_number": "+48609271374",
    "source_url": "https://www.google.com/maps/place/Knop+-+Tereny+Zielone/data=!4m7!3m6!1s0x4705bf8c47ed186f:0x5e61e16fb49b4702!8m2!3d51.9387117!4d16.3713021!16s%2Fg%2F1vcq699j!19sChIJbxjtR4y_BUcRAkebtG_hYV4?authuser=0&hl=tr&rclk=1",
    "website_url": "",
    "rating_text": "4,9",
    "stars": null,
    "number_of_reviews": null,
    "price_level": "",
    "open_hours": "",
    "extraction_timestamp": "2025-06-07T17:43:27.735Z",
    "source_name": "google",
    "source_query": "Irrigation Equipment",
    "source_country": "PL",
    "country": "Poland",
    "state": "Greater Poland Voivodeship",
    "city": "Włoszakowice"
  },
  {
    "source_id": "ChIJCzO-nKa_BUcRjOC6h7lPFvc",
    "name": "Unimed SystemyOgrodzeniowe24.eu",
    "category": "Unimed SystemyOgrodzeniowe24.eu",
    "formatted_address": "5,0(6)",
    "phone_number": "+48609108957",
    "source_url": "https://www.google.com/maps/place/Unimed+SystemyOgrodzeniowe24.eu/data=!4m7!3m6!1s0x4705bfa69cbe330b:0xf7164fb987bae08c!8m2!3d51.9342642!4d16.3725486!16s%2Fg%2F11swchw588!19sChIJCzO-nKa_BUcRjOC6h7lPFvc?authuser=0&hl=tr&rclk=1",
    "website_url": "",
    "rating_text": "5,0",
    "stars": null,
    "number_of_reviews": null,
    "price_level": "",
    "open_hours": "",
    "extraction_timestamp": "2025-06-07T17:43:27.736Z",
    "source_name": "google",
    "source_query": "Irrigation Equipment",
    "source_country": "PL",
    "country": "Poland",
    "state": "Greater Poland Voivodeship",
    "city": "Włoszakowice"
  },
  {
    "source_id": "ChIJN8UkLbnBBUcR_qxUiZRiiV8",
    "name": "Wypożyczalnia Sprzętu Wodnego",
    "category": "Wypożyczalnia Sprzętu Wodnego",
    "formatted_address": "4,9(31)",
    "phone_number": "+48665519475",
    "source_url": "https://www.google.com/maps/place/Wypo%C5%BCyczalnia+Sprz%C4%99tu+Wodnego/data=!4m7!3m6!1s0x4705c1b92d24c537:0x5f8962948954acfe!8m2!3d51.9417333!4d16.2988369!16s%2Fg%2F11nxt07z1t!19sChIJN8UkLbnBBUcR_qxUiZRiiV8?authuser=0&hl=tr&rclk=1",
    "website_url": "",
    "rating_text": "4,9",
    "stars": null,
    "number_of_reviews": null,
    "price_level": "",
    "open_hours": "",
    "extraction_timestamp": "2025-06-07T17:43:27.739Z",
    "source_name": "google",
    "source_query": "Irrigation Equipment",
    "source_country": "PL",
    "country": "Poland",
    "state": "Greater Poland Voivodeship",
    "city": "Włoszakowice"
  },
  {
    "source_id": "ChIJH5bDjZy_BUcRQBefgnM38iU",
    "name": "Gliniany Zakątek \"8\"",
    "category": "Gliniany Zakątek \"8\"",
    "formatted_address": "4,8(18) · zł 20–40",
    "phone_number": "",
    "source_url": "https://www.google.com/maps/place/Gliniany+Zak%C4%85tek+%228%22/data=!4m7!3m6!1s0x4705bf9c8dc3961f:0x25f23773829f1740!8m2!3d51.9391534!4d16.373617!16s%2Fg%2F11k9kt9rk1!19sChIJH5bDjZy_BUcRQBefgnM38iU?authuser=0&hl=tr&rclk=1",
    "website_url": "",
    "rating_text": "4,8",
    "stars": null,
    "number_of_reviews": null,
    "price_level": "",
    "open_hours": "",
    "extraction_timestamp": "2025-06-07T17:43:27.740Z",
    "source_name": "google",
    "source_query": "Irrigation Equipment",
    "source_country": "PL",
    "country": "Poland",
    "state": "Greater Poland Voivodeship",
    "city": "Włoszakowice"
  },
  {
    "source_id": "ChIJhQmBkou_BUcRYBKy3P1gX7I",
    "name": "POLOmarket",
    "category": "POLOmarket",
    "formatted_address": "4,0(436)",
    "phone_number": "+48518011125",
    "source_url": "https://www.google.com/maps/place/POLOmarket/data=!4m7!3m6!1s0x4705bf8b92810985:0xb25f60fddcb21260!8m2!3d51.927859!4d16.3612554!16s%2Fg%2F12nqgnpzl!19sChIJhQmBkou_BUcRYBKy3P1gX7I?authuser=0&hl=tr&rclk=1",
    "website_url": "",
    "rating_text": "4,0",
    "stars": null,
    "number_of_reviews": null,
    "price_level": "",
    "open_hours": "",
    "extraction_timestamp": "2025-06-07T17:43:27.742Z",
    "source_name": "google",
    "source_query": "Irrigation Equipment",
    "source_country": "PL",
    "country": "Poland",
    "state": "Greater Poland Voivodeship",
    "city": "Włoszakowice"
  },
  {
    "source_id": "ChIJ2TqmD4y_BUcRsLYRuY-ZJ6A",
    "name": "Sklep spożywczo-monopolowy \"Czternastka\"",
    "category": "Sklep spożywczo-monopolowy \"Czternastka\"",
    "formatted_address": "4,7(134)",
    "phone_number": "",
    "source_url": "https://www.google.com/maps/place/Sklep+spo%C5%BCywczo-monopolowy+%22Czternastka%22/data=!4m7!3m6!1s0x4705bf8c0fa63ad9:0xa027998fb911b6b0!8m2!3d51.9281737!4d16.3634521!16s%2Fg%2F11f01b5571!19sChIJ2TqmD4y_BUcRsLYRuY-ZJ6A?authuser=0&hl=tr&rclk=1",
    "website_url": "",
    "rating_text": "4,7",
    "stars": null,
    "number_of_reviews": null,
    "price_level": "",
    "open_hours": "",
    "extraction_timestamp": "2025-06-07T17:43:27.743Z",
    "source_name": "google",
    "source_query": "Irrigation Equipment",
    "source_country": "PL",
    "country": "Poland",
    "state": "Greater Poland Voivodeship",
    "city": "Włoszakowice"
  },
  {
    "source_id": "ChIJKUjarw-_BUcRv85s5NTWUSI",
    "name": "Dimah",
    "category": "Dimah",
    "formatted_address": "3,2(6)",
    "phone_number": "+48512112934",
    "source_url": "https://www.google.com/maps/place/Dimah/data=!4m7!3m6!1s0x4705bf0fafda4829:0x2251d6d4e46ccebf!8m2!3d51.94727!4d16.410281!16s%2Fg%2F11bbrbwlpk!19sChIJKUjarw-_BUcRv85s5NTWUSI?authuser=0&hl=tr&rclk=1",
    "website_url": "",
    "rating_text": "3,2",
    "stars": null,
    "number_of_reviews": null,
    "price_level": "",
    "open_hours": "",
    "extraction_timestamp": "2025-06-07T17:43:27.744Z",
    "source_name": "google",
    "source_query": "Irrigation Equipment",
    "source_country": "PL",
    "country": "Poland",
    "state": "Greater Poland Voivodeship",
    "city": "Włoszakowice"
  },
  {
    "source_id": "ChIJ51FwwfTABUcR6JCmJGA2MF0",
    "name": "Ośrodek Wypoczynkowy Lago",
    "category": "Ośrodek Wypoczynkowy Lago",
    "formatted_address": "4,2(58)",
    "phone_number": "+48536571605",
    "source_url": "https://www.google.com/maps/place/O%C5%9Brodek+Wypoczynkowy+Lago/data=!4m7!3m6!1s0x4705c0f4c17051e7:0x5d30366024a690e8!8m2!3d51.9537911!4d16.3339144!16s%2Fg%2F11c5338d7p!19sChIJ51FwwfTABUcR6JCmJGA2MF0?authuser=0&hl=tr&rclk=1",
    "website_url": "",
    "rating_text": "4,2",
    "stars": null,
    "number_of_reviews": null,
    "price_level": "",
    "open_hours": "",
    "extraction_timestamp": "2025-06-07T17:43:27.745Z",
    "source_name": "google",
    "source_query": "Irrigation Equipment",
    "source_country": "PL",
    "country": "Poland",
    "state": "Greater Poland Voivodeship",
    "city": "Włoszakowice"
  },
  {
    "source_id": "ChIJRTtUFke_BUcRuIw8xX3ZcYE",
    "name": "MAX ELEKTRO WŁOSZAKOWICE",
    "category": "MAX ELEKTRO WŁOSZAKOWICE",
    "formatted_address": "4,7(150)",
    "phone_number": "+48502431308",
    "source_url": "https://www.google.com/maps/place/MAX+ELEKTRO+W%C5%81OSZAKOWICE/data=!4m7!3m6!1s0x4705bf4716543b45:0x8171d97dc53c8cb8!8m2!3d51.9317398!4d16.3746426!16s%2Fg%2F11qphhwlm1!19sChIJRTtUFke_BUcRuIw8xX3ZcYE?authuser=0&hl=tr&rclk=1",
    "website_url": "",
    "rating_text": "4,7",
    "stars": null,
    "number_of_reviews": null,
    "price_level": "",
    "open_hours": "",
    "extraction_timestamp": "2025-06-07T17:43:27.747Z",
    "source_name": "google",
    "source_query": "Irrigation Equipment",
    "source_country": "PL",
    "country": "Poland",
    "state": "Greater Poland Voivodeship",
    "city": "Włoszakowice"
  },
  {
    "source_id": "ChIJUdwhqgOYBUcR3jwtTyYHSx4",
    "name": "Hydro-Partner Sp. z o.o.",
    "category": "Hydro-Partner Sp. z o.o.",
    "formatted_address": "4,6(40)",
    "phone_number": "+48655252850",
    "source_url": "https://www.google.com/maps/place/Hydro-Partner+Sp.+z+o.o./data=!4m7!3m6!1s0x47059803aa21dc51:0x1e4b07264f2d3cde!8m2!3d51.8630159!4d16.5752719!16s%2Fg%2F1vgw7b90!19sChIJUdwhqgOYBUcR3jwtTyYHSx4?authuser=0&hl=tr&rclk=1",
    "website_url": "",
    "rating_text": "4,6",
    "stars": null,
    "number_of_reviews": null,
    "price_level": "",
    "open_hours": "",
    "extraction_timestamp": "2025-06-07T17:43:27.748Z",
    "source_name": "google",
    "source_query": "Irrigation Equipment",
    "source_country": "PL",
    "country": "Poland",
    "state": "Greater Poland Voivodeship",
    "city": "Włoszakowice"
  },
  {
    "source_id": "ChIJheEuJBK_BUcR0fYMzuFwan4",
    "name": "Topaz",
    "category": "Topaz",
    "formatted_address": "4,0(3)",
    "phone_number": "+48503503723",
    "source_url": "https://www.google.com/maps/place/Topaz/data=!4m7!3m6!1s0x4705bf12242ee185:0x7e6a70e1ce0cf6d1!8m2!3d51.9328068!4d16.3751039!16s%2Fg%2F11m394cnq3!19sChIJheEuJBK_BUcR0fYMzuFwan4?authuser=0&hl=tr&rclk=1",
    "website_url": "",
    "rating_text": "4,0",
    "stars": null,
    "number_of_reviews": null,
    "price_level": "",
    "open_hours": "",
    "extraction_timestamp": "2025-06-07T17:43:27.749Z",
    "source_name": "google",
    "source_query": "Irrigation Equipment",
    "source_country": "PL",
    "country": "Poland",
    "state": "Greater Poland Voivodeship",
    "city": "Włoszakowice"
  },
  {
    "source_id": "ChIJg8ng7Ym_BUcRzISfYvXheWM",
    "name": "Kom-Soft.pl Sp.z o. o.",
    "category": "Kom-Soft.pl Sp.z o. o.",
    "formatted_address": "4,6(25)",
    "phone_number": "+48730503400",
    "source_url": "https://www.google.com/maps/place/Kom-Soft.pl+Sp.z+o.+o./data=!4m7!3m6!1s0x4705bf89ede0c983:0x6379e1f5629f84cc!8m2!3d51.9273517!4d16.3625375!16s%2Fg%2F1hc5wqrnn!19sChIJg8ng7Ym_BUcRzISfYvXheWM?authuser=0&hl=tr&rclk=1",
    "website_url": "",
    "rating_text": "4,6",
    "stars": null,
    "number_of_reviews": null,
    "price_level": "",
    "open_hours": "",
    "extraction_timestamp": "2025-06-07T17:43:27.774Z",
    "source_name": "google",
    "source_query": "Irrigation Equipment",
    "source_country": "PL",
    "country": "Poland",
    "state": "Greater Poland Voivodeship",
    "city": "Włoszakowice"
  },
  {
    "source_id": "ChIJoexsio-_BUcRkbE4iOKCYl4",
    "name": "Art-Royal sklep monopolowy",
    "category": "Art-Royal sklep monopolowy",
    "formatted_address": "4,7(90)",
    "phone_number": "+48534784144",
    "source_url": "https://www.google.com/maps/place/Art-Royal+sklep+monopolowy/data=!4m7!3m6!1s0x4705bf8f8a6ceca1:0x5e6282e28838b191!8m2!3d51.9329787!4d16.3709177!16s%2Fg%2F1ptxc63sm!19sChIJoexsio-_BUcRkbE4iOKCYl4?authuser=0&hl=tr&rclk=1",
    "website_url": "",
    "rating_text": "4,7",
    "stars": null,
    "number_of_reviews": null,
    "price_level": "",
    "open_hours": "",
    "extraction_timestamp": "2025-06-07T17:43:27.776Z",
    "source_name": "google",
    "source_query": "Irrigation Equipment",
    "source_country": "PL",
    "country": "Poland",
    "state": "Greater Poland Voivodeship",
    "city": "Włoszakowice"
  },
  {
    "source_id": "ChIJ2UgQBLO_BUcR-av24qUYkmI",
    "name": "Dino",
    "category": "Dino",
    "formatted_address": "4,3(46)",
    "phone_number": "",
    "source_url": "https://www.google.com/maps/place/Dino/data=!4m7!3m6!1s0x4705bfb3041048d9:0x629218a5e2f6abf9!8m2!3d51.9203863!4d16.3626343!16s%2Fg%2F11shf_fmfk!19sChIJ2UgQBLO_BUcR-av24qUYkmI?authuser=0&hl=tr&rclk=1",
    "website_url": "",
    "rating_text": "4,3",
    "stars": null,
    "number_of_reviews": null,
    "price_level": "",
    "open_hours": "",
    "extraction_timestamp": "2025-06-07T17:43:27.777Z",
    "source_name": "google",
    "source_query": "Irrigation Equipment",
    "source_country": "PL",
    "country": "Poland",
    "state": "Greater Poland Voivodeship",
    "city": "Włoszakowice"
  },
  {
    "source_id": "ChIJzQEX9VnABUcRDAgdsneTib0",
    "name": "Holiday Resort Magdalena",
    "category": "Holiday Resort Magdalena",
    "formatted_address": "4,6(237)",
    "phone_number": "+48602775567",
    "source_url": "https://www.google.com/maps/place/Holiday+Resort+Magdalena/data=!4m7!3m6!1s0x4705c059f51701cd:0xbd899377b21d080c!8m2!3d51.9459565!4d16.319046!16s%2Fg%2F1tg6nv04!19sChIJzQEX9VnABUcRDAgdsneTib0?authuser=0&hl=tr&rclk=1",
    "website_url": "",
    "rating_text": "4,6",
    "stars": null,
    "number_of_reviews": null,
    "price_level": "",
    "open_hours": "",
    "extraction_timestamp": "2025-06-07T17:43:27.778Z",
    "source_name": "google",
    "source_query": "Irrigation Equipment",
    "source_country": "PL",
    "country": "Poland",
    "state": "Greater Poland Voivodeship",
    "city": "Włoszakowice"
  },
  {
    "source_id": "ChIJ28FC2om_BUcRw8f98xJWbtM",
    "name": "Biedronka",
    "category": "Biedronka",
    "formatted_address": "4,0(914)",
    "phone_number": "+48800080010",
    "source_url": "https://www.google.com/maps/place/Biedronka/data=!4m7!3m6!1s0x4705bf89da42c1db:0xd36e5612f3fdc7c3!8m2!3d51.9322034!4d16.3570712!16s%2Fg%2F1jkyj476z!19sChIJ28FC2om_BUcRw8f98xJWbtM?authuser=0&hl=tr&rclk=1",
    "website_url": "",
    "rating_text": "4,0",
    "stars": null,
    "number_of_reviews": null,
    "price_level": "",
    "open_hours": "",
    "extraction_timestamp": "2025-06-07T17:43:27.779Z",
    "source_name": "google",
    "source_query": "Irrigation Equipment",
    "source_country": "PL",
    "country": "Poland",
    "state": "Greater Poland Voivodeship",
    "city": "Włoszakowice"
  },
  {
    "source_id": "ChIJT-6EyPHABUcRZmyrs6GDGEk",
    "name": "Letnia Szkoła Żeglarska",
    "category": "Letnia Szkoła Żeglarska",
    "formatted_address": "4,7(53)",
    "phone_number": "+48602654362",
    "source_url": "https://www.google.com/maps/place/Letnia+Szko%C5%82a+%C5%BBeglarska/data=!4m7!3m6!1s0x4705c0f1c884ee4f:0x491883a1b3ab6c66!8m2!3d51.9602864!4d16.3320139!16s%2Fg%2F11cnc7mwmk!19sChIJT-6EyPHABUcRZmyrs6GDGEk?authuser=0&hl=tr&rclk=1",
    "website_url": "",
    "rating_text": "4,7",
    "stars": null,
    "number_of_reviews": null,
    "price_level": "",
    "open_hours": "",
    "extraction_timestamp": "2025-06-07T17:43:27.780Z",
    "source_name": "google",
    "source_query": "Irrigation Equipment",
    "source_country": "PL",
    "country": "Poland",
    "state": "Greater Poland Voivodeship",
    "city": "Włoszakowice"
  },
  {
    "source_id": "ChIJCZtI2kqYBUcRZNKDyZAnQsk",
    "name": "Bomis - Ogrzewanie, Łazienka, Klimatyzacja Leszno",
    "category": "Bomis - Ogrzewanie, Łazienka, Klimatyzacja Leszno",
    "formatted_address": "Bomis - Ogrzewanie, Łazienka, Klimatyzacja Leszno",
    "phone_number": "+48697830930",
    "source_url": "https://www.google.com/maps/place/Bomis+-+Ogrzewanie,+%C5%81azienka,+Klimatyzacja+Leszno/data=!4m7!3m6!1s0x4705984ada489b09:0xc9422790c983d264!8m2!3d51.827822!4d16.583249!16s%2Fg%2F1ptw8sfzq!19sChIJCZtI2kqYBUcRZNKDyZAnQsk?authuser=0&hl=tr&rclk=1",
    "website_url": "",
    "rating_text": "3,7",
    "stars": null,
    "number_of_reviews": null,
    "price_level": "",
    "open_hours": "",
    "extraction_timestamp": "2025-06-07T17:43:27.781Z",
    "source_name": "google",
    "source_query": "Irrigation Equipment",
    "source_country": "PL",
    "country": "Poland",
    "state": "Greater Poland Voivodeship",
    "city": "Włoszakowice"
  },
  {
    "source_id": "ChIJI17KKXXBBUcRtFH_gUKGKhM",
    "name": "Hotel Antonińska Resort SPA",
    "category": "Hotel Antonińska Resort SPA",
    "formatted_address": "4,6(300)",
    "phone_number": "+48573789197",
    "source_url": "https://www.google.com/maps/place/Hotel+Antoni%C5%84ska+Resort+SPA/data=!4m10!3m9!1s0x4705c17529ca5e23:0x132a864281ff51b4!5m2!4m1!1i2!8m2!3d51.9592757!4d16.3341646!16s%2Fg%2F11sk3kvs1h!19sChIJI17KKXXBBUcRtFH_gUKGKhM?authuser=0&hl=tr&rclk=1",
    "website_url": "",
    "rating_text": "4,6",
    "stars": null,
    "number_of_reviews": null,
    "price_level": "",
    "open_hours": "",
    "extraction_timestamp": "2025-06-07T17:43:27.782Z",
    "source_name": "google",
    "source_query": "Irrigation Equipment",
    "source_country": "PL",
    "country": "Poland",
    "state": "Greater Poland Voivodeship",
    "city": "Włoszakowice"
  },
  {
    "source_id": "ChIJNQKIjSOYBUcR7IcYwpkL258",
    "name": "Grupa Mo Sp. z o. o., Sp. k.",
    "category": "Grupa Mo Sp. z o. o., Sp. k.",
    "formatted_address": "Grupa Mo Sp. z o. o., Sp. k.",
    "phone_number": "+48655296363",
    "source_url": "https://www.google.com/maps/place/Grupa+Mo+Sp.+z+o.+o.,+Sp.+k./data=!4m7!3m6!1s0x470598238d880235:0x9fdb0b99c21887ec!8m2!3d51.845893!4d16.5700622!16s%2Fg%2F1tczclsp!19sChIJNQKIjSOYBUcR7IcYwpkL258?authuser=0&hl=tr&rclk=1",
    "website_url": "",
    "rating_text": "4,0",
    "stars": null,
    "number_of_reviews": null,
    "price_level": "",
    "open_hours": "",
    "extraction_timestamp": "2025-06-07T17:43:27.783Z",
    "source_name": "google",
    "source_query": "Irrigation Equipment",
    "source_country": "PL",
    "country": "Poland",
    "state": "Greater Poland Voivodeship",
    "city": "Włoszakowice"
  },
  {
    "source_id": "ChIJfxZtaq-_BUcRYRAi760n1ZM",
    "name": "Drogeria Catrine",
    "category": "Drogeria Catrine",
    "formatted_address": "4,7(81)",
    "phone_number": "+48507570779",
    "source_url": "https://www.google.com/maps/place/Drogeria+Catrine/data=!4m7!3m6!1s0x4705bfaf6a6d167f:0x93d527adef221061!8m2!3d51.9273149!4d16.3608158!16s%2Fg%2F11gr6157xw!19sChIJfxZtaq-_BUcRYRAi760n1ZM?authuser=0&hl=tr&rclk=1",
    "website_url": "",
    "rating_text": "4,7",
    "stars": null,
    "number_of_reviews": null,
    "price_level": "",
    "open_hours": "",
    "extraction_timestamp": "2025-06-07T17:43:27.784Z",
    "source_name": "google",
    "source_query": "Irrigation Equipment",
    "source_country": "PL",
    "country": "Poland",
    "state": "Greater Poland Voivodeship",
    "city": "Włoszakowice"
  },
  {
    "source_id": "ChIJs-DQ-SrBBUcRNPXymcM76i0",
    "name": "Plaża gminna",
    "category": "Plaża gminna",
    "formatted_address": "3,9(102)",
    "phone_number": "+48655252964",
    "source_url": "https://www.google.com/maps/place/Pla%C5%BCa+gminna/data=!4m7!3m6!1s0x4705c12af9d0e0b3:0x2dea3bc399f2f534!8m2!3d51.9566228!4d16.3356491!16s%2Fg%2F11rgrnfgn6!19sChIJs-DQ-SrBBUcRNPXymcM76i0?authuser=0&hl=tr&rclk=1",
    "website_url": "",
    "rating_text": "3,9",
    "stars": null,
    "number_of_reviews": null,
    "price_level": "",
    "open_hours": "",
    "extraction_timestamp": "2025-06-07T17:43:27.786Z",
    "source_name": "google",
    "source_query": "Irrigation Equipment",
    "source_country": "PL",
    "country": "Poland",
    "state": "Greater Poland Voivodeship",
    "city": "Włoszakowice"
  },
  {
    "source_id": "ChIJa583JkGZBUcRtPAUIMJX1Xs",
    "name": "Monter Shop Samoobsługowa Hurtownia Instalacyjna Leszno",
    "category": "Monter Shop Samoobsługowa Hurtownia Instalacyjna Leszno",
    "formatted_address": "4,5(11)",
    "phone_number": "+48656141980",
    "source_url": "https://www.google.com/maps/place/Monter+Shop+Samoobs%C5%82ugowa+Hurtownia+Instalacyjna+Leszno/data=!4m7!3m6!1s0x4705994126379f6b:0x7bd557c22014f0b4!8m2!3d51.853552!4d16.569181!16s%2Fg%2F11j7jnsfnd!19sChIJa583JkGZBUcRtPAUIMJX1Xs?authuser=0&hl=tr&rclk=1",
    "website_url": "",
    "rating_text": "4,5",
    "stars": null,
    "number_of_reviews": null,
    "price_level": "",
    "open_hours": "",
    "extraction_timestamp": "2025-06-07T17:43:27.787Z",
    "source_name": "google",
    "source_query": "Irrigation Equipment",
    "source_country": "PL",
    "country": "Poland",
    "state": "Greater Poland Voivodeship",
    "city": "Włoszakowice"
  },
  {
    "source_id": "ChIJl7Gfbbu9BUcR80t2nsjvzW4",
    "name": "Eco Style Michał Krasilewicz",
    "category": "Eco Style Michał Krasilewicz",
    "formatted_address": "5,0(3)",
    "phone_number": "+48791184289",
    "source_url": "https://www.google.com/maps/place/Eco+Style+Micha%C5%82+Krasilewicz/data=!4m7!3m6!1s0x4705bdbb6d9fb197:0x6ecdefc89e764bf3!8m2!3d51.8773182!4d16.5267498!16s%2Fg%2F11tkb4rsfn!19sChIJl7Gfbbu9BUcR80t2nsjvzW4?authuser=0&hl=tr&rclk=1",
    "website_url": "",
    "rating_text": "5,0",
    "stars": null,
    "number_of_reviews": null,
    "price_level": "",
    "open_hours": "",
    "extraction_timestamp": "2025-06-07T17:43:27.788Z",
    "source_name": "google",
    "source_query": "Irrigation Equipment",
    "source_country": "PL",
    "country": "Poland",
    "state": "Greater Poland Voivodeship",
    "city": "Włoszakowice"
  }
]
