[
  {
    "source_id": "ChIJN9B0n-vRBEcRki9ycgB0HmU",
    "name": "Sklep spożywczo- przemysłowy \"Gąska\"",
    "category": "Sklep spożywczo- przemysłowy \"Gąska\"",
    "formatted_address": "3,7(3)",
    "phone_number": "+48632761066",
    "source_url": "https://www.google.com/maps/place/Sklep+spo%C5%BCywczo-+przemys%C5%82owy+%22G%C4%85ska%22/data=!4m7!3m6!1s0x4704d1eb9f74d037:0x651e740072722f92!8m2!3d52.1689148!4d17.9041304!16s%2Fg%2F11y3v66k6y!19sChIJN9B0n-vRBEcRki9ycgB0HmU?authuser=0&hl=tr&rclk=1",
    "website_url": "",
    "rating_text": "3,7",
    "stars": null,
    "number_of_reviews": null,
    "price_level": "",
    "open_hours": "",
    "extraction_timestamp": "2025-06-07T17:44:35.202Z",
    "source_name": "google",
    "source_query": "Irrigation Equipment",
    "source_country": "PL",
    "country": "Poland",
    "state": "Greater Poland Voivodeship",
    "city": "Zagórów"
  },
  {
    "source_id": "ChIJN2ydLLzRBEcRoRTUi55oWCA",
    "name": "Dom Handlowy Plus Wojciech Rutkowski",
    "category": "Dom Handlowy Plus Wojciech Rutkowski",
    "formatted_address": "4,7(136)",
    "phone_number": "+48632761313",
    "source_url": "https://www.google.com/maps/place/Dom+Handlowy+Plus+Wojciech+Rutkowski/data=!4m7!3m6!1s0x4704d1bc2c9d6c37:0x2058689e8bd414a1!8m2!3d52.1678529!4d17.9007011!16s%2Fg%2F11gfb2tq23!19sChIJN2ydLLzRBEcRoRTUi55oWCA?authuser=0&hl=tr&rclk=1",
    "website_url": "",
    "rating_text": "4,7",
    "stars": null,
    "number_of_reviews": null,
    "price_level": "",
    "open_hours": "",
    "extraction_timestamp": "2025-06-07T17:44:35.203Z",
    "source_name": "google",
    "source_query": "Irrigation Equipment",
    "source_country": "PL",
    "country": "Poland",
    "state": "Greater Poland Voivodeship",
    "city": "Zagórów"
  },
  {
    "source_id": "ChIJ0dHe5pXRBEcR6m2xUMAEwY8",
    "name": "Neopunkt \"Oskar\"",
    "category": "Neopunkt \"Oskar\"",
    "formatted_address": "5,0(3)",
    "phone_number": "",
    "source_url": "https://www.google.com/maps/place/Neopunkt+%22Oskar%22/data=!4m7!3m6!1s0x4704d195e6ded1d1:0x8fc104c050b16dea!8m2!3d52.1681853!4d17.9018762!16s%2Fg%2F11jhy6nlcs!19sChIJ0dHe5pXRBEcR6m2xUMAEwY8?authuser=0&hl=tr&rclk=1",
    "website_url": "",
    "rating_text": "5,0",
    "stars": null,
    "number_of_reviews": null,
    "price_level": "",
    "open_hours": "",
    "extraction_timestamp": "2025-06-07T17:44:35.205Z",
    "source_name": "google",
    "source_query": "Irrigation Equipment",
    "source_country": "PL",
    "country": "Poland",
    "state": "Greater Poland Voivodeship",
    "city": "Zagórów"
  },
  {
    "source_id": "ChIJb3LLFrzRBEcRxtjwX7ieXx0",
    "name": "Twój Market",
    "category": "Twój Market",
    "formatted_address": "4,0(138)",
    "phone_number": "+48226598259",
    "source_url": "https://www.google.com/maps/place/Tw%C3%B3j+Market/data=!4m7!3m6!1s0x4704d1bc16cb726f:0x1d5f9eb85ff0d8c6!8m2!3d52.1673018!4d17.8981015!16s%2Fg%2F1tdz83d1!19sChIJb3LLFrzRBEcRxtjwX7ieXx0?authuser=0&hl=tr&rclk=1",
    "website_url": "",
    "rating_text": "4,0",
    "stars": null,
    "number_of_reviews": null,
    "price_level": "",
    "open_hours": "",
    "extraction_timestamp": "2025-06-07T17:44:35.206Z",
    "source_name": "google",
    "source_query": "Irrigation Equipment",
    "source_country": "PL",
    "country": "Poland",
    "state": "Greater Poland Voivodeship",
    "city": "Zagórów"
  },
  {
    "source_id": "ChIJCQpTTpTRBEcRnwNqiP1-qA4",
    "name": "Dino",
    "category": "Dino",
    "formatted_address": "4,3(212)",
    "phone_number": "",
    "source_url": "https://www.google.com/maps/place/Dino/data=!4m7!3m6!1s0x4704d1944e530a09:0xea87efd886a039f!8m2!3d52.1683053!4d17.910313!16s%2Fg%2F11c5sbp0zj!19sChIJCQpTTpTRBEcRnwNqiP1-qA4?authuser=0&hl=tr&rclk=1",
    "website_url": "",
    "rating_text": "4,3",
    "stars": null,
    "number_of_reviews": null,
    "price_level": "",
    "open_hours": "",
    "extraction_timestamp": "2025-06-07T17:44:35.207Z",
    "source_name": "google",
    "source_query": "Irrigation Equipment",
    "source_country": "PL",
    "country": "Poland",
    "state": "Greater Poland Voivodeship",
    "city": "Zagórów"
  },
  {
    "source_id": "ChIJUc0uHLzRBEcRzlnyCypb-Fc",
    "name": "Duet s.c. Sklep z art. przemysłowymi",
    "category": "Duet s.c. Sklep z art. przemysłowymi",
    "formatted_address": "2,8(17)",
    "phone_number": "+48632748909",
    "source_url": "https://www.google.com/maps/place/Duet+s.c.+Sklep+z+art.+przemys%C5%82owymi/data=!4m7!3m6!1s0x4704d1bc1c2ecd51:0x57f85b2a0bf259ce!8m2!3d52.168007!4d17.8984535!16s%2Fg%2F1tfqk29x!19sChIJUc0uHLzRBEcRzlnyCypb-Fc?authuser=0&hl=tr&rclk=1",
    "website_url": "",
    "rating_text": "2,8",
    "stars": null,
    "number_of_reviews": null,
    "price_level": "",
    "open_hours": "",
    "extraction_timestamp": "2025-06-07T17:44:35.209Z",
    "source_name": "google",
    "source_query": "Irrigation Equipment",
    "source_country": "PL",
    "country": "Poland",
    "state": "Greater Poland Voivodeship",
    "city": "Zagórów"
  },
  {
    "source_id": "ChIJsTXVBr7RBEcRgCFEXWrLwPU",
    "name": "Sklep metalowy GS Samopomoc Chłopska",
    "category": "Sklep metalowy GS Samopomoc Chłopska",
    "formatted_address": "",
    "phone_number": "+48632761068",
    "source_url": "https://www.google.com/maps/place/Sklep+metalowy+GS+Samopomoc+Ch%C5%82opska/data=!4m7!3m6!1s0x4704d1be06d535b1:0xf5c0cb6a5d442180!8m2!3d52.1677444!4d17.9046468!16s%2Fg%2F1td9cg9v!19sChIJsTXVBr7RBEcRgCFEXWrLwPU?authuser=0&hl=tr&rclk=1",
    "website_url": "",
    "rating_text": "",
    "stars": null,
    "number_of_reviews": null,
    "price_level": "",
    "open_hours": "",
    "extraction_timestamp": "2025-06-07T17:44:35.210Z",
    "source_name": "google",
    "source_query": "Irrigation Equipment",
    "source_country": "PL",
    "country": "Poland",
    "state": "Greater Poland Voivodeship",
    "city": "Zagórów"
  },
  {
    "source_id": "ChIJRbgjgLnRBEcRNaWY43o9KfA",
    "name": "Biedronka",
    "category": "Biedronka",
    "formatted_address": "4,1(400)",
    "phone_number": "+48800080010",
    "source_url": "https://www.google.com/maps/place/Biedronka/data=!4m7!3m6!1s0x4704d1b98023b845:0xf0293d7ae398a535!8m2!3d52.1689237!4d17.8936356!16s%2Fg%2F11b5wqk04l!19sChIJRbgjgLnRBEcRNaWY43o9KfA?authuser=0&hl=tr&rclk=1",
    "website_url": "",
    "rating_text": "4,1",
    "stars": null,
    "number_of_reviews": null,
    "price_level": "",
    "open_hours": "",
    "extraction_timestamp": "2025-06-07T17:44:35.245Z",
    "source_name": "google",
    "source_query": "Irrigation Equipment",
    "source_country": "PL",
    "country": "Poland",
    "state": "Greater Poland Voivodeship",
    "city": "Zagórów"
  },
  {
    "source_id": "ChIJAy65nL7RBEcR29tCTBh7VLo",
    "name": "Sklep piekarniczy GS Samopomoc Chłopska",
    "category": "Sklep piekarniczy GS Samopomoc Chłopska",
    "formatted_address": "4,3(47)",
    "phone_number": "+48632761014",
    "source_url": "https://www.google.com/maps/place/Sklep+piekarniczy+GS+Samopomoc+Ch%C5%82opska/data=!4m7!3m6!1s0x4704d1be9cb92e03:0xba547b184c42dbdb!8m2!3d52.1686058!4d17.9008726!16s%2Fg%2F1tfb9vwg!19sChIJAy65nL7RBEcR29tCTBh7VLo?authuser=0&hl=tr&rclk=1",
    "website_url": "",
    "rating_text": "4,3",
    "stars": null,
    "number_of_reviews": null,
    "price_level": "",
    "open_hours": "",
    "extraction_timestamp": "2025-06-07T17:44:35.247Z",
    "source_name": "google",
    "source_query": "Irrigation Equipment",
    "source_country": "PL",
    "country": "Poland",
    "state": "Greater Poland Voivodeship",
    "city": "Zagórów"
  },
  {
    "source_id": "ChIJ82fDPAv7BEcR0t557L9SvKI",
    "name": "Agro-Weld Arkadiusz Cegłowski",
    "category": "Agro-Weld Arkadiusz Cegłowski",
    "formatted_address": "5,0(15)",
    "phone_number": "+48725140257",
    "source_url": "https://www.google.com/maps/place/Agro-Weld+Arkadiusz+Ceg%C5%82owski/data=!4m7!3m6!1s0x4704fb0b3cc367f3:0xa2bc52bfec79ded2!8m2!3d52.2281481!4d17.2572359!16s%2Fg%2F11gbf9cdj_!19sChIJ82fDPAv7BEcR0t557L9SvKI?authuser=0&hl=tr&rclk=1",
    "website_url": "",
    "rating_text": "5,0",
    "stars": null,
    "number_of_reviews": null,
    "price_level": "",
    "open_hours": "",
    "extraction_timestamp": "2025-06-07T17:44:35.248Z",
    "source_name": "google",
    "source_query": "Irrigation Equipment",
    "source_country": "PL",
    "country": "Poland",
    "state": "Greater Poland Voivodeship",
    "city": "Zagórów"
  },
  {
    "source_id": "ChIJUc0uHLzRBEcRAzanDTjAnF0",
    "name": "Jedynka. Sklep spożywczy",
    "category": "Jedynka. Sklep spożywczy",
    "formatted_address": "5,0(3)",
    "phone_number": "+48632761063",
    "source_url": "https://www.google.com/maps/place/Jedynka.+Sklep+spo%C5%BCywczy/data=!4m7!3m6!1s0x4704d1bc1c2ecd51:0x5d9cc0380da73603!8m2!3d52.1680341!4d17.8988415!16s%2Fg%2F1vlk080_!19sChIJUc0uHLzRBEcRAzanDTjAnF0?authuser=0&hl=tr&rclk=1",
    "website_url": "",
    "rating_text": "5,0",
    "stars": null,
    "number_of_reviews": null,
    "price_level": "",
    "open_hours": "",
    "extraction_timestamp": "2025-06-07T17:44:35.249Z",
    "source_name": "google",
    "source_query": "Irrigation Equipment",
    "source_country": "PL",
    "country": "Poland",
    "state": "Greater Poland Voivodeship",
    "city": "Zagórów"
  },
  {
    "source_id": "ChIJB6y_v5J2HEcRlDfYx3xmc9M",
    "name": "Milex irrigation systems",
    "category": "Milex irrigation systems",
    "formatted_address": "4,6(37)",
    "phone_number": "+48242775222",
    "source_url": "https://www.google.com/maps/place/Milex+irrigation+systems/data=!4m7!3m6!1s0x471c7692bfbfac07:0xd373667cc7d83794!8m2!3d52.4690634!4d19.7520904!16s%2Fg%2F1w2yy67r!19sChIJB6y_v5J2HEcRlDfYx3xmc9M?authuser=0&hl=tr&rclk=1",
    "website_url": "",
    "rating_text": "4,6",
    "stars": null,
    "number_of_reviews": null,
    "price_level": "",
    "open_hours": "",
    "extraction_timestamp": "2025-06-07T17:44:35.250Z",
    "source_name": "google",
    "source_query": "Irrigation Equipment",
    "source_country": "PL",
    "country": "Poland",
    "state": "Greater Poland Voivodeship",
    "city": "Zagórów"
  },
  {
    "source_id": "ChIJ9WzUZ77RBEcRG15WXhWA-2Q",
    "name": "Delikatesy Centrum",
    "category": "Delikatesy Centrum",
    "formatted_address": "4,4(104)",
    "phone_number": "+48603776823",
    "source_url": "https://www.google.com/maps/place/Delikatesy+Centrum/data=!4m7!3m6!1s0x4704d1be67d46cf5:0x64fb80155e565e1b!8m2!3d52.1691035!4d17.9028163!16s%2Fg%2F11b808c_zv!19sChIJ9WzUZ77RBEcRG15WXhWA-2Q?authuser=0&hl=tr&rclk=1",
    "website_url": "",
    "rating_text": "4,4",
    "stars": null,
    "number_of_reviews": null,
    "price_level": "",
    "open_hours": "",
    "extraction_timestamp": "2025-06-07T17:44:35.251Z",
    "source_name": "google",
    "source_query": "Irrigation Equipment",
    "source_country": "PL",
    "country": "Poland",
    "state": "Greater Poland Voivodeship",
    "city": "Zagórów"
  },
  {
    "source_id": "ChIJyw9mSM1FBEcRvbn0NisHxw8",
    "name": "Agroster | Obróbka CNC",
    "category": "Agroster | Obróbka CNC",
    "formatted_address": "4,8(10)",
    "phone_number": "+48616634315",
    "source_url": "https://www.google.com/maps/place/Agroster+%7C+Obr%C3%B3bka+CNC/data=!4m7!3m6!1s0x470445cd48660fcb:0xfc7072b36f4b9bd!8m2!3d52.4135587!4d16.788875!16s%2Fg%2F1vs1qktr!19sChIJyw9mSM1FBEcRvbn0NisHxw8?authuser=0&hl=tr&rclk=1",
    "website_url": "",
    "rating_text": "4,8",
    "stars": null,
    "number_of_reviews": null,
    "price_level": "",
    "open_hours": "",
    "extraction_timestamp": "2025-06-07T17:44:35.253Z",
    "source_name": "google",
    "source_query": "Irrigation Equipment",
    "source_country": "PL",
    "country": "Poland",
    "state": "Greater Poland Voivodeship",
    "city": "Zagórów"
  },
  {
    "source_id": "ChIJUyzwnpbRBEcRirOS6ezGIak",
    "name": "Miejskie targowisko",
    "category": "Miejskie targowisko",
    "formatted_address": "4,4(56)",
    "phone_number": "",
    "source_url": "https://www.google.com/maps/place/Miejskie+targowisko/data=!4m7!3m6!1s0x4704d1969ef02c53:0xa921c6ece992b38a!8m2!3d52.1665445!4d17.9099989!16s%2Fg%2F11c5s8bzpl!19sChIJUyzwnpbRBEcRirOS6ezGIak?authuser=0&hl=tr&rclk=1",
    "website_url": "",
    "rating_text": "4,4",
    "stars": null,
    "number_of_reviews": null,
    "price_level": "",
    "open_hours": "",
    "extraction_timestamp": "2025-06-07T17:44:35.253Z",
    "source_name": "google",
    "source_query": "Irrigation Equipment",
    "source_country": "PL",
    "country": "Poland",
    "state": "Greater Poland Voivodeship",
    "city": "Zagórów"
  },
  {
    "source_id": "ChIJ4wAoUR3wBEcRp4SAQBIyky8",
    "name": "Domasz Tomasz Waligóra",
    "category": "Domasz Tomasz Waligóra",
    "formatted_address": "4,3(14)",
    "phone_number": "+48668456482",
    "source_url": "https://www.google.com/maps/place/Domasz+Tomasz+Walig%C3%B3ra/data=!4m7!3m6!1s0x4704f01d512800e3:0x2f933212408084a7!8m2!3d52.2913169!4d17.3627449!16s%2Fg%2F1tfvxvsr!19sChIJ4wAoUR3wBEcRp4SAQBIyky8?authuser=0&hl=tr&rclk=1",
    "website_url": "",
    "rating_text": "4,3",
    "stars": null,
    "number_of_reviews": null,
    "price_level": "",
    "open_hours": "",
    "extraction_timestamp": "2025-06-07T17:44:35.254Z",
    "source_name": "google",
    "source_query": "Irrigation Equipment",
    "source_country": "PL",
    "country": "Poland",
    "state": "Greater Poland Voivodeship",
    "city": "Zagórów"
  },
  {
    "source_id": "ChIJXXv9VBfcCEcRGIqoQ3bLLDs",
    "name": "Top-Agro Sp. o.o.",
    "category": "Top-Agro Sp. o.o.",
    "formatted_address": "4,7(176)",
    "phone_number": "+48500443441",
    "source_url": "https://www.google.com/maps/place/Top-Agro+Sp.+o.o./data=!4m7!3m6!1s0x4708dc1754fd7b5d:0x3b2ccb7643a88a18!8m2!3d51.1557359!4d15.0363778!16s%2Fg%2F1q62cyzb7!19sChIJXXv9VBfcCEcRGIqoQ3bLLDs?authuser=0&hl=tr&rclk=1",
    "website_url": "",
    "rating_text": "4,7",
    "stars": null,
    "number_of_reviews": null,
    "price_level": "",
    "open_hours": "",
    "extraction_timestamp": "2025-06-07T17:44:35.255Z",
    "source_name": "google",
    "source_query": "Irrigation Equipment",
    "source_country": "PL",
    "country": "Poland",
    "state": "Greater Poland Voivodeship",
    "city": "Zagórów"
  },
  {
    "source_id": "ChIJVTV3W_PzBEcR6gY0xwQi2_E",
    "name": "Deszczownie.com",
    "category": "Deszczownie.com",
    "formatted_address": "",
    "phone_number": "+48726000030",
    "source_url": "https://www.google.com/maps/place/Deszczownie.com/data=!4m7!3m6!1s0x4704f3f35b773555:0xf1db2204c73406ea!8m2!3d52.3623948!4d17.4021087!16s%2Fg%2F11y3pv4rxr!19sChIJVTV3W_PzBEcR6gY0xwQi2_E?authuser=0&hl=tr&rclk=1",
    "website_url": "",
    "rating_text": "",
    "stars": null,
    "number_of_reviews": null,
    "price_level": "",
    "open_hours": "",
    "extraction_timestamp": "2025-06-07T17:44:35.256Z",
    "source_name": "google",
    "source_query": "Irrigation Equipment",
    "source_country": "PL",
    "country": "Poland",
    "state": "Greater Poland Voivodeship",
    "city": "Zagórów"
  },
  {
    "source_id": "ChIJv2OZP-OlD0cRxevhZwqbfLA",
    "name": "Polboto",
    "category": "Polboto",
    "formatted_address": "4,6(94)",
    "phone_number": "+48767560050",
    "source_url": "https://www.google.com/maps/place/Polboto/data=!4m7!3m6!1s0x470fa5e33f9963bf:0xb07c9b0a67e1ebc5!8m2!3d51.0377606!4d16.4465299!16s%2Fg%2F1vs5vffr!19sChIJv2OZP-OlD0cRxevhZwqbfLA?authuser=0&hl=tr&rclk=1",
    "website_url": "",
    "rating_text": "4,6",
    "stars": null,
    "number_of_reviews": null,
    "price_level": "",
    "open_hours": "",
    "extraction_timestamp": "2025-06-07T17:44:35.257Z",
    "source_name": "google",
    "source_query": "Irrigation Equipment",
    "source_country": "PL",
    "country": "Poland",
    "state": "Greater Poland Voivodeship",
    "city": "Zagórów"
  },
  {
    "source_id": "ChIJUc0uHLzRBEcRQi2yBPotIBk",
    "name": "Pod Złotą Wagą sp.j. Apteka",
    "category": "Pod Złotą Wagą sp.j. Apteka",
    "formatted_address": "4,3(6)",
    "phone_number": "+48632761124",
    "source_url": "https://www.google.com/maps/place/Pod+Z%C5%82ot%C4%85+Wag%C4%85+sp.j.+Apteka/data=!4m7!3m6!1s0x4704d1bc1c2ecd51:0x19202dfa04b22d42!8m2!3d52.1684815!4d17.8987757!16s%2Fg%2F1tf41nnz!19sChIJUc0uHLzRBEcRQi2yBPotIBk?authuser=0&hl=tr&rclk=1",
    "website_url": "",
    "rating_text": "4,3",
    "stars": null,
    "number_of_reviews": null,
    "price_level": "",
    "open_hours": "",
    "extraction_timestamp": "2025-06-07T17:44:35.258Z",
    "source_name": "google",
    "source_query": "Irrigation Equipment",
    "source_country": "PL",
    "country": "Poland",
    "state": "Greater Poland Voivodeship",
    "city": "Zagórów"
  },
  {
    "source_id": "ChIJJ4So7Ng2G0cR-pojczlIvRk",
    "name": "\" TERMO-TECHNIKA \" Technika grzewcza i instalacyjna",
    "category": "\" TERMO-TECHNIKA \" Technika grzewcza i instalacyjna",
    "formatted_address": "5,0(10)",
    "phone_number": "+48665531521",
    "source_url": "https://www.google.com/maps/place/%22+TERMO-TECHNIKA+%22+Technika+grzewcza+i+instalacyjna/data=!4m7!3m6!1s0x471b36d8eca88427:0x19bd483973239afa!8m2!3d52.2365745!4d18.2159209!16s%2Fg%2F1ptw96t32!19sChIJJ4So7Ng2G0cR-pojczlIvRk?authuser=0&hl=tr&rclk=1",
    "website_url": "",
    "rating_text": "5,0",
    "stars": null,
    "number_of_reviews": null,
    "price_level": "",
    "open_hours": "",
    "extraction_timestamp": "2025-06-07T17:44:35.260Z",
    "source_name": "google",
    "source_query": "Irrigation Equipment",
    "source_country": "PL",
    "country": "Poland",
    "state": "Greater Poland Voivodeship",
    "city": "Zagórów"
  },
  {
    "source_id": "ChIJbaXJccY7BUcReQuIKCu_G5M",
    "name": "PROweld Łukasz Olejniczak",
    "category": "PROweld Łukasz Olejniczak",
    "formatted_address": "5,0(2)",
    "phone_number": "+48727772666",
    "source_url": "https://www.google.com/maps/place/PROweld+%C5%81ukasz+Olejniczak/data=!4m7!3m6!1s0x47053bc671c9a56d:0x931bbf2b28880b79!8m2!3d51.8513095!4d17.5955648!16s%2Fg%2F11rn4q80w4!19sChIJbaXJccY7BUcReQuIKCu_G5M?authuser=0&hl=tr&rclk=1",
    "website_url": "",
    "rating_text": "5,0",
    "stars": null,
    "number_of_reviews": null,
    "price_level": "",
    "open_hours": "",
    "extraction_timestamp": "2025-06-07T17:44:35.261Z",
    "source_name": "google",
    "source_query": "Irrigation Equipment",
    "source_country": "PL",
    "country": "Poland",
    "state": "Greater Poland Voivodeship",
    "city": "Zagórów"
  },
  {
    "source_id": "ChIJS74Y7nL9BEcRATf6fAXnzHo",
    "name": "ROLKA - trawniki i nawadniania - Trawa z rolki Poznań",
    "category": "ROLKA - trawniki i nawadniania - Trawa z rolki Poznań",
    "formatted_address": "4,8(25)",
    "phone_number": "+48730311000",
    "source_url": "https://www.google.com/maps/place/ROLKA+-+trawniki+i+nawadniania+-+Trawa+z+rolki+Pozna%C5%84/data=!4m7!3m6!1s0x4704fd72ee18be4b:0x7acce7057cfa3701!8m2!3d52.2468105!4d17.4843038!16s%2Fg%2F11xs837pl!19sChIJS74Y7nL9BEcRATf6fAXnzHo?authuser=0&hl=tr&rclk=1",
    "website_url": "",
    "rating_text": "4,8",
    "stars": null,
    "number_of_reviews": null,
    "price_level": "",
    "open_hours": "",
    "extraction_timestamp": "2025-06-07T17:44:35.262Z",
    "source_name": "google",
    "source_query": "Irrigation Equipment",
    "source_country": "PL",
    "country": "Poland",
    "state": "Greater Poland Voivodeship",
    "city": "Zagórów"
  },
  {
    "source_id": "ChIJARsQ31fPGkcRPp9yuThQF7E",
    "name": "SCAPE sp. z o.o. | Infrastruktura dla architektury krajobrazu",
    "category": "SCAPE sp. z o.o. | Infrastruktura dla architektury krajobrazu",
    "formatted_address": "3,5(11)",
    "phone_number": "+48600044019",
    "source_url": "https://www.google.com/maps/place/SCAPE+sp.+z+o.o.+%7C+Infrastruktura+dla+architektury+krajobrazu/data=!4m7!3m6!1s0x471acf57df101b01:0xb1175038b9729f3e!8m2!3d51.7590375!4d18.0779258!16s%2Fg%2F1pxq7y5hn!19sChIJARsQ31fPGkcRPp9yuThQF7E?authuser=0&hl=tr&rclk=1",
    "website_url": "",
    "rating_text": "3,5",
    "stars": null,
    "number_of_reviews": null,
    "price_level": "",
    "open_hours": "",
    "extraction_timestamp": "2025-06-07T17:44:35.263Z",
    "source_name": "google",
    "source_query": "Irrigation Equipment",
    "source_country": "PL",
    "country": "Poland",
    "state": "Greater Poland Voivodeship",
    "city": "Zagórów"
  },
  {
    "source_id": "ChIJ24WMplPDBEcR6jeWyN6_bfg",
    "name": "MatKam Mateusz Krotoszyński",
    "category": "MatKam Mateusz Krotoszyński",
    "formatted_address": "4,6(9)",
    "phone_number": "+48516447591",
    "source_url": "https://www.google.com/maps/place/MatKam+Mateusz+Krotoszy%C5%84ski/data=!4m7!3m6!1s0x4704c353a68c85db:0xf86dbfdec89637ea!8m2!3d52.2911005!4d17.6440742!16s%2Fg%2F11ts3hgw80!19sChIJ24WMplPDBEcR6jeWyN6_bfg?authuser=0&hl=tr&rclk=1",
    "website_url": "",
    "rating_text": "4,6",
    "stars": null,
    "number_of_reviews": null,
    "price_level": "",
    "open_hours": "",
    "extraction_timestamp": "2025-06-07T17:44:35.264Z",
    "source_name": "google",
    "source_query": "Irrigation Equipment",
    "source_country": "PL",
    "country": "Poland",
    "state": "Greater Poland Voivodeship",
    "city": "Zagórów"
  },
  {
    "source_id": "ChIJU3shE1S-BEcRBmObVpevVJI",
    "name": "Holiday Resort Skorzęcin",
    "category": "Holiday Resort Skorzęcin",
    "formatted_address": "4,4(7.896)",
    "phone_number": "+48614770277",
    "source_url": "https://www.google.com/maps/place/Holiday+Resort+Skorz%C4%99cin/data=!4m7!3m6!1s0x4704be5413217b53:0x9254af97569b6306!8m2!3d52.4577927!4d17.8917354!16s%2Fg%2F1tknj4gk!19sChIJU3shE1S-BEcRBmObVpevVJI?authuser=0&hl=tr&rclk=1",
    "website_url": "",
    "rating_text": "4,4",
    "stars": null,
    "number_of_reviews": null,
    "price_level": "",
    "open_hours": "",
    "extraction_timestamp": "2025-06-07T17:44:35.266Z",
    "source_name": "google",
    "source_query": "Irrigation Equipment",
    "source_country": "PL",
    "country": "Poland",
    "state": "Greater Poland Voivodeship",
    "city": "Zagórów"
  },
  {
    "source_id": "ChIJxX-J0zAMBUcRi1CsoNctuJg",
    "name": "HYDRO-INSTAL Armatura sanitarna, wyposażenie łazienek, technika grzewcza",
    "category": "HYDRO-INSTAL Armatura sanitarna, wyposażenie łazienek, technika grzewcza",
    "formatted_address": "HYDRO-INSTAL Armatura sanitarna, wyposażenie łazienek, technika grzewcza",
    "phone_number": "",
    "source_url": "https://www.google.com/maps/place/HYDRO-INSTAL+Armatura+sanitarna,+wyposa%C5%BCenie+%C5%82azienek,+technika+grzewcza/data=!4m7!3m6!1s0x47050c30d3897fc5:0x98b82dd7a0ac508b!8m2!3d51.8841787!4d17.0711948!16s%2Fg%2F1tmgb40c!19sChIJxX-J0zAMBUcRi1CsoNctuJg?authuser=0&hl=tr&rclk=1",
    "website_url": "",
    "rating_text": "4,8",
    "stars": null,
    "number_of_reviews": null,
    "price_level": "",
    "open_hours": "",
    "extraction_timestamp": "2025-06-07T17:44:35.267Z",
    "source_name": "google",
    "source_query": "Irrigation Equipment",
    "source_country": "PL",
    "country": "Poland",
    "state": "Greater Poland Voivodeship",
    "city": "Zagórów"
  },
  {
    "source_id": "ChIJOezOcEExG0cRTcniczjcqd8",
    "name": "Art-Metal Sp. o.o.",
    "category": "Art-Metal Sp. o.o.",
    "formatted_address": "4,6(141)",
    "phone_number": "+48632445277",
    "source_url": "https://www.google.com/maps/place/Art-Metal+Sp.+o.o./data=!4m7!3m6!1s0x471b314170ceec39:0xdfa9dc3873e2c94d!8m2!3d52.2081415!4d18.2572694!16s%2Fg%2F1tj954xz!19sChIJOezOcEExG0cRTcniczjcqd8?authuser=0&hl=tr&rclk=1",
    "website_url": "",
    "rating_text": "4,6",
    "stars": null,
    "number_of_reviews": null,
    "price_level": "",
    "open_hours": "",
    "extraction_timestamp": "2025-06-07T17:44:35.268Z",
    "source_name": "google",
    "source_query": "Irrigation Equipment",
    "source_country": "PL",
    "country": "Poland",
    "state": "Greater Poland Voivodeship",
    "city": "Zagórów"
  }
]
