[
  {
    "source_id": "ChIJo3IBDe_9BEcRIj9v17cJ-wM",
    "name": "MAG INSTAL GROUP SP. Z O.O. - montaż zabezpieczeń oraz regałów, serwis i przeglądy regałów magazynowych.",
    "category": "MAG INSTAL GROUP SP. Z O.O. - montaż zabezpieczeń oraz regałów, serwis i przeglądy regałów magazynowych.",
    "formatted_address": "MAG INSTAL GROUP SP. Z O.O. - montaż zabezpieczeń oraz regałów, serwis i przeglądy regałów magazynowych.",
    "phone_number": "+48698955864",
    "source_url": "https://www.google.com/maps/place/MAG+INSTAL+GROUP+SP.+Z+O.O.+-+monta%C5%BC+zabezpiecze%C5%84+oraz+rega%C5%82%C3%B3w,+serwis+i+przegl%C4%85dy+rega%C5%82%C3%B3w+magazynowych./data=!4m7!3m6!1s0x4704fdef0d0172a3:0x3fb09b7d76f3f22!8m2!3d52.1617014!4d17.1698107!16s%2Fg%2F11kj5jsb4_!19sChIJo3IBDe_9BEcRIj9v17cJ-wM?authuser=0&hl=tr&rclk=1",
    "website_url": "",
    "rating_text": "4,8",
    "stars": null,
    "number_of_reviews": null,
    "price_level": "",
    "open_hours": "",
    "extraction_timestamp": "2025-06-07T17:53:59.848Z",
    "source_name": "google",
    "source_query": "Irrigation Equipment",
    "source_country": "PL",
    "country": "Poland",
    "state": "Greater Poland Voivodeship",
    "city": "Zaniemyśl"
  },
  {
    "source_id": "ChIJrefV1en9BEcRjISnCx5-Wq8",
    "name": "AlkoShop",
    "category": "AlkoShop",
    "formatted_address": "4,9(617)",
    "phone_number": "+48666666336",
    "source_url": "https://www.google.com/maps/place/AlkoShop/data=!4m7!3m6!1s0x4704fde9d5d5e7ad:0xaf5a7e1e0ba7848c!8m2!3d52.1551721!4d17.1621891!16s%2Fg%2F11c6lj7ld5!19sChIJrefV1en9BEcRjISnCx5-Wq8?authuser=0&hl=tr&rclk=1",
    "website_url": "",
    "rating_text": "4,9",
    "stars": null,
    "number_of_reviews": null,
    "price_level": "",
    "open_hours": "",
    "extraction_timestamp": "2025-06-07T17:53:59.850Z",
    "source_name": "google",
    "source_query": "Irrigation Equipment",
    "source_country": "PL",
    "country": "Poland",
    "state": "Greater Poland Voivodeship",
    "city": "Zaniemyśl"
  },
  {
    "source_id": "ChIJBVnd1un9BEcRFjghz4UI7vU",
    "name": "MARKET TORO",
    "category": "MARKET TORO",
    "formatted_address": "4,5(136)",
    "phone_number": "+48500132214",
    "source_url": "https://www.google.com/maps/place/MARKET+TORO/data=!4m7!3m6!1s0x4704fde9d6dd5905:0xf5ee0885cf213816!8m2!3d52.155048!4d17.1623135!16s%2Fg%2F11g698j0lc!19sChIJBVnd1un9BEcRFjghz4UI7vU?authuser=0&hl=tr&rclk=1",
    "website_url": "",
    "rating_text": "4,5",
    "stars": null,
    "number_of_reviews": null,
    "price_level": "",
    "open_hours": "",
    "extraction_timestamp": "2025-06-07T17:53:59.851Z",
    "source_name": "google",
    "source_query": "Irrigation Equipment",
    "source_country": "PL",
    "country": "Poland",
    "state": "Greater Poland Voivodeship",
    "city": "Zaniemyśl"
  },
  {
    "source_id": "ChIJ43-PiBH9BEcRAjMPjx98RTg",
    "name": "RR INSTAL",
    "category": "RR INSTAL",
    "formatted_address": "5,0(8)",
    "phone_number": "+48510101166",
    "source_url": "https://www.google.com/maps/place/RR+INSTAL/data=!4m7!3m6!1s0x4704fd11888f7fe3:0x38457c1f8f0f3302!8m2!3d52.1477453!4d17.170449!16s%2Fg%2F11nxcm17qh!19sChIJ43-PiBH9BEcRAjMPjx98RTg?authuser=0&hl=tr&rclk=1",
    "website_url": "",
    "rating_text": "5,0",
    "stars": null,
    "number_of_reviews": null,
    "price_level": "",
    "open_hours": "",
    "extraction_timestamp": "2025-06-07T17:53:59.852Z",
    "source_name": "google",
    "source_query": "Irrigation Equipment",
    "source_country": "PL",
    "country": "Poland",
    "state": "Greater Poland Voivodeship",
    "city": "Zaniemyśl"
  },
  {
    "source_id": "ChIJr0oCaov9BEcRfuwYsXAlNfA",
    "name": "Plaża Miejska",
    "category": "Plaża Miejska",
    "formatted_address": "4,3(508)",
    "phone_number": "",
    "source_url": "https://www.google.com/maps/place/Pla%C5%BCa+Miejska/data=!4m7!3m6!1s0x4704fd8b6a024aaf:0xf0352570b118ec7e!8m2!3d52.1517298!4d17.1614737!16s%2Fg%2F11g1knhryw!19sChIJr0oCaov9BEcRfuwYsXAlNfA?authuser=0&hl=tr&rclk=1",
    "website_url": "",
    "rating_text": "4,3",
    "stars": null,
    "number_of_reviews": null,
    "price_level": "",
    "open_hours": "",
    "extraction_timestamp": "2025-06-07T17:53:59.853Z",
    "source_name": "google",
    "source_query": "Irrigation Equipment",
    "source_country": "PL",
    "country": "Poland",
    "state": "Greater Poland Voivodeship",
    "city": "Zaniemyśl"
  },
  {
    "source_id": "ChIJRQlEbZT9BEcRiXSUnyvPN10",
    "name": "Almex. Alina Urbas Łękno ul. Polwicka 3, 63-020 Zaniemyśl",
    "category": "Almex. Alina Urbas Łękno ul. Polwicka 3, 63-020 Zaniemyśl",
    "formatted_address": "Almex. Alina Urbas Łękno ul. Polwicka 3, 63-020 Zaniemyśl",
    "phone_number": "+48612857123",
    "source_url": "https://www.google.com/maps/place/Almex.+Alina+Urbas+%C5%81%C4%99kno+ul.+Polwicka+3,+63-020+Zaniemy%C5%9Bl/data=!4m7!3m6!1s0x4704fd946d440945:0x5d37cf2b9f947489!8m2!3d52.1631797!4d17.1557924!16s%2Fg%2F11m84tj6d1!19sChIJRQlEbZT9BEcRiXSUnyvPN10?authuser=0&hl=tr&rclk=1",
    "website_url": "",
    "rating_text": "4,5",
    "stars": null,
    "number_of_reviews": null,
    "price_level": "",
    "open_hours": "",
    "extraction_timestamp": "2025-06-07T17:53:59.855Z",
    "source_name": "google",
    "source_query": "Irrigation Equipment",
    "source_country": "PL",
    "country": "Poland",
    "state": "Greater Poland Voivodeship",
    "city": "Zaniemyśl"
  },
  {
    "source_id": "ChIJJ6BZ4Jb9BEcRxp6EfRi_NZU",
    "name": "SKLEP POD SOSNĄ",
    "category": "SKLEP POD SOSNĄ",
    "formatted_address": "5,0(3)",
    "phone_number": "+48730511511",
    "source_url": "https://www.google.com/maps/place/SKLEP+POD+SOSN%C4%84/data=!4m7!3m6!1s0x4704fd96e059a027:0x9535bf187d849ec6!8m2!3d52.1435808!4d17.1698983!16s%2Fg%2F11rgyplmw6!19sChIJJ6BZ4Jb9BEcRxp6EfRi_NZU?authuser=0&hl=tr&rclk=1",
    "website_url": "",
    "rating_text": "5,0",
    "stars": null,
    "number_of_reviews": null,
    "price_level": "",
    "open_hours": "",
    "extraction_timestamp": "2025-06-07T17:53:59.856Z",
    "source_name": "google",
    "source_query": "Irrigation Equipment",
    "source_country": "PL",
    "country": "Poland",
    "state": "Greater Poland Voivodeship",
    "city": "Zaniemyśl"
  },
  {
    "source_id": "ChIJh5yUCqH7BEcRmMfxvcU_1bk",
    "name": "InduPartner",
    "category": "InduPartner",
    "formatted_address": "5,0(2)",
    "phone_number": "+48612854487",
    "source_url": "https://www.google.com/maps/place/InduPartner/data=!4m7!3m6!1s0x4704fba10a949c87:0xb9d53fc5bdf1c798!8m2!3d52.2324617!4d17.2500708!16s%2Fg%2F11h109fk2!19sChIJh5yUCqH7BEcRmMfxvcU_1bk?authuser=0&hl=tr&rclk=1",
    "website_url": "",
    "rating_text": "5,0",
    "stars": null,
    "number_of_reviews": null,
    "price_level": "",
    "open_hours": "",
    "extraction_timestamp": "2025-06-07T17:53:59.857Z",
    "source_name": "google",
    "source_query": "Irrigation Equipment",
    "source_country": "PL",
    "country": "Poland",
    "state": "Greater Poland Voivodeship",
    "city": "Zaniemyśl"
  },
  {
    "source_id": "ChIJg24-Xtn9BEcRatGgj-JzYds",
    "name": "Sowiński Piotr. Sklep z art. wędkarskimi i zoologicznymi",
    "category": "Sowiński Piotr. Sklep z art. wędkarskimi i zoologicznymi",
    "formatted_address": "5,0(6)",
    "phone_number": "+48691810482",
    "source_url": "https://www.google.com/maps/place/Sowi%C5%84ski+Piotr.+Sklep+z+art.+w%C4%99dkarskimi+i+zoologicznymi/data=!4m7!3m6!1s0x4704fdd95e3e6e83:0xdb6173e28fa0d16a!8m2!3d52.1555769!4d17.1615627!16s%2Fg%2F1ptwb818v!19sChIJg24-Xtn9BEcRatGgj-JzYds?authuser=0&hl=tr&rclk=1",
    "website_url": "",
    "rating_text": "5,0",
    "stars": null,
    "number_of_reviews": null,
    "price_level": "",
    "open_hours": "",
    "extraction_timestamp": "2025-06-07T17:53:59.858Z",
    "source_name": "google",
    "source_query": "Irrigation Equipment",
    "source_country": "PL",
    "country": "Poland",
    "state": "Greater Poland Voivodeship",
    "city": "Zaniemyśl"
  },
  {
    "source_id": "ChIJITSkxcL9BEcRu8CWqV9Yngc",
    "name": "Rynek w Zaniemyślu",
    "category": "Rynek w Zaniemyślu",
    "formatted_address": "4,3(293)",
    "phone_number": "",
    "source_url": "https://www.google.com/maps/place/Rynek+w+Zaniemy%C5%9Blu/data=!4m7!3m6!1s0x4704fdc2c5a43421:0x79e585fa996c0bb!8m2!3d52.1573151!4d17.1599841!16s%2Fg%2F11c6lgpvt6!19sChIJITSkxcL9BEcRu8CWqV9Yngc?authuser=0&hl=tr&rclk=1",
    "website_url": "",
    "rating_text": "4,3",
    "stars": null,
    "number_of_reviews": null,
    "price_level": "",
    "open_hours": "",
    "extraction_timestamp": "2025-06-07T17:53:59.859Z",
    "source_name": "google",
    "source_query": "Irrigation Equipment",
    "source_country": "PL",
    "country": "Poland",
    "state": "Greater Poland Voivodeship",
    "city": "Zaniemyśl"
  },
  {
    "source_id": "ChIJFdskLUb7BEcRYjm39Uc-uv4",
    "name": "P.P.H.U. Hydro-Pomp Michał Dydymski",
    "category": "P.P.H.U. Hydro-Pomp Michał Dydymski",
    "formatted_address": "5,0(1)",
    "phone_number": "+48612856771",
    "source_url": "https://www.google.com/maps/place/P.P.H.U.+Hydro-Pomp+Micha%C5%82+Dydymski/data=!4m7!3m6!1s0x4704fb462d24db15:0xfeba3e47f5b73962!8m2!3d52.2199578!4d17.2963723!16s%2Fg%2F1tdcq6vc!19sChIJFdskLUb7BEcRYjm39Uc-uv4?authuser=0&hl=tr&rclk=1",
    "website_url": "",
    "rating_text": "5,0",
    "stars": null,
    "number_of_reviews": null,
    "price_level": "",
    "open_hours": "",
    "extraction_timestamp": "2025-06-07T17:53:59.860Z",
    "source_name": "google",
    "source_query": "Irrigation Equipment",
    "source_country": "PL",
    "country": "Poland",
    "state": "Greater Poland Voivodeship",
    "city": "Zaniemyśl"
  },
  {
    "source_id": "ChIJ-yAQKMH9BEcRfoEli1MbDu8",
    "name": "Biedronka",
    "category": "Biedronka",
    "formatted_address": "4,2(763)",
    "phone_number": "+48800080010",
    "source_url": "https://www.google.com/maps/place/Biedronka/data=!4m7!3m6!1s0x4704fdc1281020fb:0xef0e1b538b25817e!8m2!3d52.1587925!4d17.1723269!16s%2Fg%2F11gf8g1jwb!19sChIJ-yAQKMH9BEcRfoEli1MbDu8?authuser=0&hl=tr&rclk=1",
    "website_url": "",
    "rating_text": "4,2",
    "stars": null,
    "number_of_reviews": null,
    "price_level": "",
    "open_hours": "",
    "extraction_timestamp": "2025-06-07T17:53:59.861Z",
    "source_name": "google",
    "source_query": "Irrigation Equipment",
    "source_country": "PL",
    "country": "Poland",
    "state": "Greater Poland Voivodeship",
    "city": "Zaniemyśl"
  },
  {
    "source_id": "ChIJwambh539BEcR4mro6fZ8x-k",
    "name": "Lewiatan",
    "category": "Lewiatan",
    "formatted_address": "4,3(76)",
    "phone_number": "+48796303530",
    "source_url": "https://www.google.com/maps/place/Lewiatan/data=!4m7!3m6!1s0x4704fd9d879ba9c1:0xe9c77cf6e9e86ae2!8m2!3d52.1586273!4d17.1712214!16s%2Fg%2F11n0ybp1f2!19sChIJwambh539BEcR4mro6fZ8x-k?authuser=0&hl=tr&rclk=1",
    "website_url": "",
    "rating_text": "4,3",
    "stars": null,
    "number_of_reviews": null,
    "price_level": "",
    "open_hours": "",
    "extraction_timestamp": "2025-06-07T17:53:59.862Z",
    "source_name": "google",
    "source_query": "Irrigation Equipment",
    "source_country": "PL",
    "country": "Poland",
    "state": "Greater Poland Voivodeship",
    "city": "Zaniemyśl"
  },
  {
    "source_id": "ChIJyVpIe9n9BEcROmnDLKwQcrI",
    "name": "KDS BUD s.c.",
    "category": "KDS BUD s.c.",
    "formatted_address": "1,0(1)",
    "phone_number": "+48514666417",
    "source_url": "https://www.google.com/maps/place/KDS+BUD+s.c./data=!4m7!3m6!1s0x4704fdd97b485ac9:0xb27210ac2cc3693a!8m2!3d52.1414964!4d17.1815234!16s%2Fg%2F1v_s4lyq!19sChIJyVpIe9n9BEcROmnDLKwQcrI?authuser=0&hl=tr&rclk=1",
    "website_url": "",
    "rating_text": "1,0",
    "stars": null,
    "number_of_reviews": null,
    "price_level": "",
    "open_hours": "",
    "extraction_timestamp": "2025-06-07T17:53:59.863Z",
    "source_name": "google",
    "source_query": "Irrigation Equipment",
    "source_country": "PL",
    "country": "Poland",
    "state": "Greater Poland Voivodeship",
    "city": "Zaniemyśl"
  },
  {
    "source_id": "ChIJg24-Xtn9BEcR837OBnAv4cM",
    "name": "Piekarnia - Cukiernia ŁOBZA",
    "category": "Piekarnia - Cukiernia ŁOBZA",
    "formatted_address": "4,5(415) · ₺₺",
    "phone_number": "+48608091634",
    "source_url": "https://www.google.com/maps/place/Piekarnia+-+Cukiernia+%C5%81OBZA/data=!4m7!3m6!1s0x4704fdd95e3e6e83:0xc3e12f7006ce7ef3!8m2!3d52.1552515!4d17.1614691!16s%2Fg%2F1ptyfp0rg!19sChIJg24-Xtn9BEcR837OBnAv4cM?authuser=0&hl=tr&rclk=1",
    "website_url": "",
    "rating_text": "4,5",
    "stars": null,
    "number_of_reviews": null,
    "price_level": "",
    "open_hours": "",
    "extraction_timestamp": "2025-06-07T17:53:59.864Z",
    "source_name": "google",
    "source_query": "Irrigation Equipment",
    "source_country": "PL",
    "country": "Poland",
    "state": "Greater Poland Voivodeship",
    "city": "Zaniemyśl"
  },
  {
    "source_id": "ChIJL97K7GxUBEcRujUApKZmsck",
    "name": "Rolpima. Maszyny Rolnicze, Importer maszyn rolniczych.",
    "category": "Rolpima. Maszyny Rolnicze, Importer maszyn rolniczych.",
    "formatted_address": "Rolpima. Maszyny Rolnicze, Importer maszyn rolniczych.",
    "phone_number": "+48603864496",
    "source_url": "https://www.google.com/maps/place/Rolpima.+Maszyny+Rolnicze,+Importer+maszyn+rolniczych./data=!4m7!3m6!1s0x4704546ceccade2f:0xc9b166a6a40035ba!8m2!3d52.2289389!4d16.949359!16s%2Fg%2F11ggb3gjbf!19sChIJL97K7GxUBEcRujUApKZmsck?authuser=0&hl=tr&rclk=1",
    "website_url": "",
    "rating_text": "4,5",
    "stars": null,
    "number_of_reviews": null,
    "price_level": "",
    "open_hours": "",
    "extraction_timestamp": "2025-06-07T17:53:59.865Z",
    "source_name": "google",
    "source_query": "Irrigation Equipment",
    "source_country": "PL",
    "country": "Poland",
    "state": "Greater Poland Voivodeship",
    "city": "Zaniemyśl"
  },
  {
    "source_id": "ChIJi9CwcnT9BEcRkByST0tYDKM",
    "name": "Camping Zwola",
    "category": "Camping Zwola",
    "formatted_address": "5,0(61)",
    "phone_number": "+48505606186",
    "source_url": "https://www.google.com/maps/place/Camping+Zwola/data=!4m7!3m6!1s0x4704fd7472b0d08b:0xa30c584b4f921c90!8m2!3d52.1392005!4d17.1644187!16s%2Fg%2F11krhxft1y!19sChIJi9CwcnT9BEcRkByST0tYDKM?authuser=0&hl=tr&rclk=1",
    "website_url": "",
    "rating_text": "5,0",
    "stars": null,
    "number_of_reviews": null,
    "price_level": "",
    "open_hours": "",
    "extraction_timestamp": "2025-06-07T17:53:59.866Z",
    "source_name": "google",
    "source_query": "Irrigation Equipment",
    "source_country": "PL",
    "country": "Poland",
    "state": "Greater Poland Voivodeship",
    "city": "Zaniemyśl"
  },
  {
    "source_id": "ChIJXbqE1sP9BEcR9l0IZealKko",
    "name": "Apteka Topfarm",
    "category": "Apteka Topfarm",
    "formatted_address": "4,2(15)",
    "phone_number": "+48611012662",
    "source_url": "https://www.google.com/maps/place/Apteka+Topfarm/data=!4m7!3m6!1s0x4704fdc3d684ba5d:0x4a2aa5e665085df6!8m2!3d52.1555257!4d17.1620325!16s%2Fg%2F11g6bklrm3!19sChIJXbqE1sP9BEcR9l0IZealKko?authuser=0&hl=tr&rclk=1",
    "website_url": "",
    "rating_text": "4,2",
    "stars": null,
    "number_of_reviews": null,
    "price_level": "",
    "open_hours": "",
    "extraction_timestamp": "2025-06-07T17:53:59.866Z",
    "source_name": "google",
    "source_query": "Irrigation Equipment",
    "source_country": "PL",
    "country": "Poland",
    "state": "Greater Poland Voivodeship",
    "city": "Zaniemyśl"
  },
  {
    "source_id": "ChIJg24-Xtn9BEcRlOsoJzZVH8Q",
    "name": "Magdalenka. Apteka. Kucznerowicz W., mgr farm.",
    "category": "Magdalenka. Apteka. Kucznerowicz W., mgr farm.",
    "formatted_address": "Magdalenka. Apteka. Kucznerowicz W., mgr farm.",
    "phone_number": "+48612857024",
    "source_url": "https://www.google.com/maps/place/Magdalenka.+Apteka.+Kucznerowicz+W.,+mgr+farm./data=!4m7!3m6!1s0x4704fdd95e3e6e83:0xc41f55362728eb94!8m2!3d52.1559624!4d17.1613192!16s%2Fg%2F1pt_bbwdy!19sChIJg24-Xtn9BEcRlOsoJzZVH8Q?authuser=0&hl=tr&rclk=1",
    "website_url": "",
    "rating_text": "3,2",
    "stars": null,
    "number_of_reviews": null,
    "price_level": "",
    "open_hours": "",
    "extraction_timestamp": "2025-06-07T17:53:59.867Z",
    "source_name": "google",
    "source_query": "Irrigation Equipment",
    "source_country": "PL",
    "country": "Poland",
    "state": "Greater Poland Voivodeship",
    "city": "Zaniemyśl"
  },
  {
    "source_id": "ChIJB6y_v5J2HEcRlDfYx3xmc9M",
    "name": "Milex irrigation systems",
    "category": "Milex irrigation systems",
    "formatted_address": "4,6(37)",
    "phone_number": "+48242775222",
    "source_url": "https://www.google.com/maps/place/Milex+irrigation+systems/data=!4m7!3m6!1s0x471c7692bfbfac07:0xd373667cc7d83794!8m2!3d52.4690634!4d19.7520904!16s%2Fg%2F1w2yy67r!19sChIJB6y_v5J2HEcRlDfYx3xmc9M?authuser=0&hl=tr&rclk=1",
    "website_url": "",
    "rating_text": "4,6",
    "stars": null,
    "number_of_reviews": null,
    "price_level": "",
    "open_hours": "",
    "extraction_timestamp": "2025-06-07T17:53:59.868Z",
    "source_name": "google",
    "source_query": "Irrigation Equipment",
    "source_country": "PL",
    "country": "Poland",
    "state": "Greater Poland Voivodeship",
    "city": "Zaniemyśl"
  },
  {
    "source_id": "ChIJbfw_EaNXBEcR_4WcJdE-X0w",
    "name": "P.H.P.U. ROMGAZ Roman Sobczak",
    "category": "P.H.P.U. ROMGAZ Roman Sobczak",
    "formatted_address": "4,4(7)",
    "phone_number": "+48616675475",
    "source_url": "https://www.google.com/maps/place/P.H.P.U.+ROMGAZ+Roman+Sobczak/data=!4m7!3m6!1s0x470457a3113ffc6d:0x4c5f3ed1259c85ff!8m2!3d52.2994135!4d17.050767!16s%2Fg%2F1tdl4v7y!19sChIJbfw_EaNXBEcR_4WcJdE-X0w?authuser=0&hl=tr&rclk=1",
    "website_url": "",
    "rating_text": "4,4",
    "stars": null,
    "number_of_reviews": null,
    "price_level": "",
    "open_hours": "",
    "extraction_timestamp": "2025-06-07T17:53:59.869Z",
    "source_name": "google",
    "source_query": "Irrigation Equipment",
    "source_country": "PL",
    "country": "Poland",
    "state": "Greater Poland Voivodeship",
    "city": "Zaniemyśl"
  },
  {
    "source_id": "ChIJJaUKWNl7G0cR7ntWKxioINo",
    "name": "Agricola Hydraulika Siłowa",
    "category": "Agricola Hydraulika Siłowa",
    "formatted_address": "4,6(239)",
    "phone_number": "+48542844000",
    "source_url": "https://www.google.com/maps/place/Agricola+Hydraulika+Si%C5%82owa/data=!4m7!3m6!1s0x471b7bd9580aa525:0xda20a8182b567bee!8m2!3d52.4025839!4d19.1676066!16s%2Fg%2F1tk8mbkz!19sChIJJaUKWNl7G0cR7ntWKxioINo?authuser=0&hl=tr&rclk=1",
    "website_url": "",
    "rating_text": "4,6",
    "stars": null,
    "number_of_reviews": null,
    "price_level": "",
    "open_hours": "",
    "extraction_timestamp": "2025-06-07T17:53:59.870Z",
    "source_name": "google",
    "source_query": "Irrigation Equipment",
    "source_country": "PL",
    "country": "Poland",
    "state": "Greater Poland Voivodeship",
    "city": "Zaniemyśl"
  },
  {
    "source_id": "ChIJHTxQj6ZZBEcRFcFpQwGhP9c",
    "name": "Hydrobud A",
    "category": "Hydrobud A",
    "formatted_address": "5,0(1)",
    "phone_number": "+48502121245",
    "source_url": "https://www.google.com/maps/place/Hydrobud+A/data=!4m7!3m6!1s0x470459a68f503c1d:0xd73fa1014369c115!8m2!3d52.3750156!4d17.0698329!16s%2Fg%2F11wvjndft6!19sChIJHTxQj6ZZBEcRFcFpQwGhP9c?authuser=0&hl=tr&rclk=1",
    "website_url": "",
    "rating_text": "5,0",
    "stars": null,
    "number_of_reviews": null,
    "price_level": "",
    "open_hours": "",
    "extraction_timestamp": "2025-06-07T17:53:59.870Z",
    "source_name": "google",
    "source_query": "Irrigation Equipment",
    "source_country": "PL",
    "country": "Poland",
    "state": "Greater Poland Voivodeship",
    "city": "Zaniemyśl"
  },
  {
    "source_id": "ChIJQaAR7D37BEcRBa5PF0ULYcE",
    "name": "TEST Łukasz i Grzegorz Kiełbowicz sp. j",
    "category": "TEST Łukasz i Grzegorz Kiełbowicz sp. j",
    "formatted_address": "4,9(75)",
    "phone_number": "+48508635200",
    "source_url": "https://www.google.com/maps/place/TEST+%C5%81ukasz+i+Grzegorz+Kie%C5%82bowicz+sp.+j/data=!4m7!3m6!1s0x4704fb3dec11a041:0xc1610b45174fae05!8m2!3d52.5658269!4d17.6143399!16s%2Fg%2F1twyy791!19sChIJQaAR7D37BEcRBa5PF0ULYcE?authuser=0&hl=tr&rclk=1",
    "website_url": "",
    "rating_text": "4,9",
    "stars": null,
    "number_of_reviews": null,
    "price_level": "",
    "open_hours": "",
    "extraction_timestamp": "2025-06-07T17:53:59.871Z",
    "source_name": "google",
    "source_query": "Irrigation Equipment",
    "source_country": "PL",
    "country": "Poland",
    "state": "Greater Poland Voivodeship",
    "city": "Zaniemyśl"
  },
  {
    "source_id": "ChIJ605u-0G4IUgRhGGnUkrEZmw",
    "name": "Kokociński Instalacje",
    "category": "Kokociński Instalacje",
    "formatted_address": "5,0(7)",
    "phone_number": "+48505343933",
    "source_url": "https://www.google.com/maps/place/Kokoci%C5%84ski+Instalacje/data=!4m7!3m6!1s0x4821b841fb6e4eeb:0x6c66c44a52a76184!8m2!3d52.2875954!4d17.1691888!16s%2Fg%2F11lywbpsvf!19sChIJ605u-0G4IUgRhGGnUkrEZmw?authuser=0&hl=tr&rclk=1",
    "website_url": "",
    "rating_text": "5,0",
    "stars": null,
    "number_of_reviews": null,
    "price_level": "",
    "open_hours": "",
    "extraction_timestamp": "2025-06-07T17:53:59.872Z",
    "source_name": "google",
    "source_query": "Irrigation Equipment",
    "source_country": "PL",
    "country": "Poland",
    "state": "Greater Poland Voivodeship",
    "city": "Zaniemyśl"
  },
  {
    "source_id": "ChIJBVnjAp0ABUcRFWrER_0PBAg",
    "name": "Studzienki",
    "category": "Studzienki",
    "formatted_address": "4,6(9)",
    "phone_number": "+48795977712",
    "source_url": "https://www.google.com/maps/place/Studzienki/data=!4m7!3m6!1s0x4705009d02e35905:0x8040ffd47c46a15!8m2!3d52.0691871!4d17.0394171!16s%2Fg%2F11fmmdybt8!19sChIJBVnjAp0ABUcRFWrER_0PBAg?authuser=0&hl=tr&rclk=1",
    "website_url": "",
    "rating_text": "4,6",
    "stars": null,
    "number_of_reviews": null,
    "price_level": "",
    "open_hours": "",
    "extraction_timestamp": "2025-06-07T17:53:59.873Z",
    "source_name": "google",
    "source_query": "Irrigation Equipment",
    "source_country": "PL",
    "country": "Poland",
    "state": "Greater Poland Voivodeship",
    "city": "Zaniemyśl"
  },
  {
    "source_id": "ChIJS74Y7nL9BEcRATf6fAXnzHo",
    "name": "ROLKA - trawniki i nawadniania - Trawa z rolki Poznań",
    "category": "ROLKA - trawniki i nawadniania - Trawa z rolki Poznań",
    "formatted_address": "4,8(25)",
    "phone_number": "+48730311000",
    "source_url": "https://www.google.com/maps/place/ROLKA+-+trawniki+i+nawadniania+-+Trawa+z+rolki+Pozna%C5%84/data=!4m7!3m6!1s0x4704fd72ee18be4b:0x7acce7057cfa3701!8m2!3d52.2468105!4d17.4843038!16s%2Fg%2F11xs837pl!19sChIJS74Y7nL9BEcRATf6fAXnzHo?authuser=0&hl=tr&rclk=1",
    "website_url": "",
    "rating_text": "4,8",
    "stars": null,
    "number_of_reviews": null,
    "price_level": "",
    "open_hours": "",
    "extraction_timestamp": "2025-06-07T17:53:59.874Z",
    "source_name": "google",
    "source_query": "Irrigation Equipment",
    "source_country": "PL",
    "country": "Poland",
    "state": "Greater Poland Voivodeship",
    "city": "Zaniemyśl"
  },
  {
    "source_id": "ChIJmW6iYi8eBUcRl2pHgp-4HAw",
    "name": "Instal-Met",
    "category": "Instal-Met",
    "formatted_address": "4,6(134) · ₺₺",
    "phone_number": "+48612874455",
    "source_url": "https://www.google.com/maps/place/Instal-Met/data=!4m7!3m6!1s0x47051e2f62a26e99:0xc1cb89f82476a97!8m2!3d52.087736!4d17.406122!16s%2Fg%2F1w4vhmn2!19sChIJmW6iYi8eBUcRl2pHgp-4HAw?authuser=0&hl=tr&rclk=1",
    "website_url": "",
    "rating_text": "4,6",
    "stars": null,
    "number_of_reviews": null,
    "price_level": "",
    "open_hours": "",
    "extraction_timestamp": "2025-06-07T17:53:59.876Z",
    "source_name": "google",
    "source_query": "Irrigation Equipment",
    "source_country": "PL",
    "country": "Poland",
    "state": "Greater Poland Voivodeship",
    "city": "Zaniemyśl"
  },
  {
    "source_id": "ChIJEcFieyNaBEcRXPtIc9eaIL0",
    "name": "M&M-BUD",
    "category": "M&M-BUD",
    "formatted_address": "5,0(110)",
    "phone_number": "+48609187655",
    "source_url": "https://www.google.com/maps/place/M%26M-BUD/data=!4m7!3m6!1s0x47045a237b62c111:0xbd209ad77348fb5c!8m2!3d52.360194!4d16.99677!16s%2Fg%2F11f_vfg5qx!19sChIJEcFieyNaBEcRXPtIc9eaIL0?authuser=0&hl=tr&rclk=1",
    "website_url": "",
    "rating_text": "5,0",
    "stars": null,
    "number_of_reviews": null,
    "price_level": "",
    "open_hours": "",
    "extraction_timestamp": "2025-06-07T17:53:59.877Z",
    "source_name": "google",
    "source_query": "Irrigation Equipment",
    "source_country": "PL",
    "country": "Poland",
    "state": "Greater Poland Voivodeship",
    "city": "Zaniemyśl"
  },
  {
    "source_id": "ChIJUQow7dhEBEcROIEBsyxOuHE",
    "name": "Domowa Uprawa",
    "category": "Domowa Uprawa",
    "formatted_address": "4,4(63)",
    "phone_number": "+48788516592",
    "source_url": "https://www.google.com/maps/place/Domowa+Uprawa/data=!4m7!3m6!1s0x470444d8ed300a51:0x71b84e2cb3018138!8m2!3d52.3955619!4d16.8794529!16s%2Fg%2F12hk1kgtr!19sChIJUQow7dhEBEcROIEBsyxOuHE?authuser=0&hl=tr&rclk=1",
    "website_url": "",
    "rating_text": "4,4",
    "stars": null,
    "number_of_reviews": null,
    "price_level": "",
    "open_hours": "",
    "extraction_timestamp": "2025-06-07T17:53:59.878Z",
    "source_name": "google",
    "source_query": "Irrigation Equipment",
    "source_country": "PL",
    "country": "Poland",
    "state": "Greater Poland Voivodeship",
    "city": "Zaniemyśl"
  },
  {
    "source_id": "ChIJsZb08kdaBEcRTcEVlhI8b2I",
    "name": "Siliton sp. z o.o.",
    "category": "Siliton sp. z o.o.",
    "formatted_address": "5,0(83)",
    "phone_number": "+48500346326",
    "source_url": "https://www.google.com/maps/place/Siliton+sp.+z+o.o./data=!4m7!3m6!1s0x47045a47f2f496b1:0x626f3c129615c14d!8m2!3d52.3515692!4d16.981138!16s%2Fg%2F11f0wnc7pt!19sChIJsZb08kdaBEcRTcEVlhI8b2I?authuser=0&hl=tr&rclk=1",
    "website_url": "",
    "rating_text": "5,0",
    "stars": null,
    "number_of_reviews": null,
    "price_level": "",
    "open_hours": "",
    "extraction_timestamp": "2025-06-07T17:53:59.878Z",
    "source_name": "google",
    "source_query": "Irrigation Equipment",
    "source_country": "PL",
    "country": "Poland",
    "state": "Greater Poland Voivodeship",
    "city": "Zaniemyśl"
  }
]
