[
  {
    "source_id": "ChIJUa_eP4U_BEcR3WM30F4KIDc",
    "name": "Kompresory CNG Brc FuelMaker",
    "category": "Kompresory CNG Brc FuelMaker",
    "formatted_address": "5,0(1)",
    "phone_number": "+48660990440",
    "source_url": "https://www.google.com/maps/place/Kompresory+CNG+Brc+FuelMaker/data=!4m7!3m6!1s0x47043f853fdeaf51:0x37200a5ed03763dd!8m2!3d52.2522251!4d15.9245581!16s%2Fg%2F12q4vdnhf!19sChIJUa_eP4U_BEcR3WM30F4KIDc?authuser=0&hl=tr&rclk=1",
    "website_url": "http://www.kompresorcng.pl/",
    "rating_text": "5,0",
    "stars": null,
    "number_of_reviews": null,
    "price_level": "",
    "open_hours": "",
    "extraction_timestamp": "2025-06-07T17:22:15.490Z",
    "source_name": "google",
    "source_query": "Irrigation Equipment",
    "source_country": "PL",
    "country": "Poland",
    "state": "Greater Poland Voivodeship",
    "city": "Zbąszyń"
  },
  {
    "source_id": "ChIJCYZuMZd-BkcRrNTtl7FELiM",
    "name": "Starzyński Systemy Nawadniające",
    "category": "Starzyński Systemy Nawadniające",
    "formatted_address": "4,0(1)",
    "phone_number": "+48713634753",
    "source_url": "https://www.google.com/maps/place/Starzy%C5%84ski+Systemy+Nawadniaj%C4%85ce/data=!4m7!3m6!1s0x47067e97316e8609:0x232e44b197edd4ac!8m2!3d52.2510147!4d15.92529!16s%2Fg%2F1tflwll_!19sChIJCYZuMZd-BkcRrNTtl7FELiM?authuser=0&hl=tr&rclk=1",
    "website_url": "",
    "rating_text": "4,0",
    "stars": null,
    "number_of_reviews": null,
    "price_level": "",
    "open_hours": "",
    "extraction_timestamp": "2025-06-07T17:22:15.490Z",
    "source_name": "google",
    "source_query": "Irrigation Equipment",
    "source_country": "PL",
    "country": "Poland",
    "state": "Greater Poland Voivodeship",
    "city": "Zbąszyń"
  },
  {
    "source_id": "ChIJj8uZ0HN9BkcRqfADQ-IWEFg",
    "name": "ARdom Pawelscy sp.j. Salon Łazienek",
    "category": "ARdom Pawelscy sp.j. Salon Łazienek",
    "formatted_address": "4,5(54)",
    "phone_number": "+48683846165",
    "source_url": "https://www.google.com/maps/place/ARdom+Pawelscy+sp.j.+Salon+%C5%81azienek/data=!4m7!3m6!1s0x47067d73d099cb8f:0x581016e24303f0a9!8m2!3d52.253185!4d15.926189!16s%2Fg%2F11gsbdczs7!19sChIJj8uZ0HN9BkcRqfADQ-IWEFg?authuser=0&hl=tr&rclk=1",
    "website_url": "http://ardom-pawelscy.com.pl/wp-test/?page_id=128",
    "rating_text": "4,5",
    "stars": null,
    "number_of_reviews": null,
    "price_level": "",
    "open_hours": "",
    "extraction_timestamp": "2025-06-07T17:22:15.491Z",
    "source_name": "google",
    "source_query": "Irrigation Equipment",
    "source_country": "PL",
    "country": "Poland",
    "state": "Greater Poland Voivodeship",
    "city": "Zbąszyń"
  },
  {
    "source_id": "ChIJB4vOW5B-BkcRfjNwkFsgV7s",
    "name": "ADF Stihl. Bieganowski T.",
    "category": "ADF Stihl. Bieganowski T.",
    "formatted_address": "4,2(40)",
    "phone_number": "+48683867504",
    "source_url": "https://www.google.com/maps/place/ADF+Stihl.+Bieganowski+T./data=!4m7!3m6!1s0x47067e905bce8b07:0xbb57205b9070337e!8m2!3d52.25267!4d15.9252821!16s%2Fg%2F1tj9s11g!19sChIJB4vOW5B-BkcRfjNwkFsgV7s?authuser=0&hl=tr&rclk=1",
    "website_url": "",
    "rating_text": "4,2",
    "stars": null,
    "number_of_reviews": null,
    "price_level": "",
    "open_hours": "",
    "extraction_timestamp": "2025-06-07T17:22:15.491Z",
    "source_name": "google",
    "source_query": "Irrigation Equipment",
    "source_country": "PL",
    "country": "Poland",
    "state": "Greater Poland Voivodeship",
    "city": "Zbąszyń"
  },
  {
    "source_id": "ChIJu-GXk5t-BkcRC10IpLWH8pA",
    "name": "Zbąszyńskie Centrum Sportu, Turystyki i Rekreacji",
    "category": "Zbąszyńskie Centrum Sportu, Turystyki i Rekreacji",
    "formatted_address": "Zbąszyńskie Centrum Sportu, Turystyki i Rekreacji",
    "phone_number": "+48683868050",
    "source_url": "https://www.google.com/maps/place/Zb%C4%85szy%C5%84skie+Centrum+Sportu,+Turystyki+i+Rekreacji/data=!4m7!3m6!1s0x47067e9b9397e1bb:0x90f287b5a4085d0b!8m2!3d52.2546055!4d15.9164955!16s%2Fg%2F1tftjxpw!19sChIJu-GXk5t-BkcRC10IpLWH8pA?authuser=0&hl=tr&rclk=1",
    "website_url": "http://www.centrumsportu-zbaszyn.pl/",
    "rating_text": "4,5",
    "stars": null,
    "number_of_reviews": null,
    "price_level": "",
    "open_hours": "",
    "extraction_timestamp": "2025-06-07T17:22:15.491Z",
    "source_name": "google",
    "source_query": "Irrigation Equipment",
    "source_country": "PL",
    "country": "Poland",
    "state": "Greater Poland Voivodeship",
    "city": "Zbąszyń"
  },
  {
    "source_id": "ChIJlUpkKox-BkcRDEq-F-TnXwA",
    "name": "Tomiński Jan. Instalatorstwo sanitarne, c.o.",
    "category": "Tomiński Jan. Instalatorstwo sanitarne, c.o.",
    "formatted_address": "Tomiński Jan. Instalatorstwo sanitarne, c.o.",
    "phone_number": "+48608661713",
    "source_url": "https://www.google.com/maps/place/Tomi%C5%84ski+Jan.+Instalatorstwo+sanitarne,+c.o./data=!4m7!3m6!1s0x47067e8c2a644a95:0x5fe7e417be4a0c!8m2!3d52.2584174!4d15.9349521!16s%2Fg%2F1tf5cfxn!19sChIJlUpkKox-BkcRDEq-F-TnXwA?authuser=0&hl=tr&rclk=1",
    "website_url": "http://www.tominski.pl/contacts.html",
    "rating_text": "5,0",
    "stars": null,
    "number_of_reviews": null,
    "price_level": "",
    "open_hours": "",
    "extraction_timestamp": "2025-06-07T17:22:15.492Z",
    "source_name": "google",
    "source_query": "Irrigation Equipment",
    "source_country": "PL",
    "country": "Poland",
    "state": "Greater Poland Voivodeship",
    "city": "Zbąszyń"
  },
  {
    "source_id": "ChIJ4WGtRxR8BkcR13dd0yMr8ns",
    "name": "DUOBUD Paweł Tobys",
    "category": "DUOBUD Paweł Tobys",
    "formatted_address": "5,0(8)",
    "phone_number": "+48660337338",
    "source_url": "https://www.google.com/maps/place/DUOBUD+Pawe%C5%82+Tobys/data=!4m7!3m6!1s0x47067c1447ad61e1:0x7bf22b23d35d77d7!8m2!3d52.2531895!4d15.8781509!16s%2Fg%2F1hc578r_7!19sChIJ4WGtRxR8BkcR13dd0yMr8ns?authuser=0&hl=tr&rclk=1",
    "website_url": "https://www.facebook.com/Duobud-Pawe%C5%82-Tobys-386062035517168/",
    "rating_text": "5,0",
    "stars": null,
    "number_of_reviews": null,
    "price_level": "",
    "open_hours": "",
    "extraction_timestamp": "2025-06-07T17:22:15.492Z",
    "source_name": "google",
    "source_query": "Irrigation Equipment",
    "source_country": "PL",
    "country": "Poland",
    "state": "Greater Poland Voivodeship",
    "city": "Zbąszyń"
  },
  {
    "source_id": "ChIJfXIo4pB-BkcRvHyQDzyVDzQ",
    "name": "TOM-EL Tomasz Jankowiak - Instalacje fotowoltaiczne oraz elektryczne",
    "category": "TOM-EL Tomasz Jankowiak - Instalacje fotowoltaiczne oraz elektryczne",
    "formatted_address": "3,0(2)",
    "phone_number": "+48606172545",
    "source_url": "https://www.google.com/maps/place/TOM-EL+Tomasz+Jankowiak+-+Instalacje+fotowoltaiczne+oraz+elektryczne/data=!4m7!3m6!1s0x47067e90e228727d:0x340f953c0f907cbc!8m2!3d52.2534564!4d15.9337078!16s%2Fg%2F1v62gc2w!19sChIJfXIo4pB-BkcRvHyQDzyVDzQ?authuser=0&hl=tr&rclk=1",
    "website_url": "http://tom-el.pl/",
    "rating_text": "3,0",
    "stars": null,
    "number_of_reviews": null,
    "price_level": "",
    "open_hours": "",
    "extraction_timestamp": "2025-06-07T17:22:15.492Z",
    "source_name": "google",
    "source_query": "Irrigation Equipment",
    "source_country": "PL",
    "country": "Poland",
    "state": "Greater Poland Voivodeship",
    "city": "Zbąszyń"
  },
  {
    "source_id": "ChIJswi5R5h-BkcRjyUMijlUx_s",
    "name": "Targowisko miejskie",
    "category": "Targowisko miejskie",
    "formatted_address": "3,6(32)",
    "phone_number": "",
    "source_url": "https://www.google.com/maps/place/Targowisko+miejskie/data=!4m7!3m6!1s0x47067e9847b908b3:0xfbc754398a0c258f!8m2!3d52.249232!4d15.9193842!16s%2Fg%2F12qf5xydy!19sChIJswi5R5h-BkcRjyUMijlUx_s?authuser=0&hl=tr&rclk=1",
    "website_url": "",
    "rating_text": "3,6",
    "stars": null,
    "number_of_reviews": null,
    "price_level": "",
    "open_hours": "",
    "extraction_timestamp": "2025-06-07T17:22:15.493Z",
    "source_name": "google",
    "source_query": "Irrigation Equipment",
    "source_country": "PL",
    "country": "Poland",
    "state": "Greater Poland Voivodeship",
    "city": "Zbąszyń"
  },
  {
    "source_id": "ChIJv96Ugpp-BkcR3jOpSOIhHaA",
    "name": "PSB Mrówka",
    "category": "PSB Mrówka",
    "formatted_address": "4,3(693)",
    "phone_number": "+48684162990",
    "source_url": "https://www.google.com/maps/place/PSB+Mr%C3%B3wka/data=!4m7!3m6!1s0x47067e9a8294debf:0xa01d21e248a933de!8m2!3d52.2547743!4d15.9246649!16s%2Fg%2F11c1_vf73f!19sChIJv96Ugpp-BkcR3jOpSOIhHaA?authuser=0&hl=tr&rclk=1",
    "website_url": "https://mrowka.com.pl/sklep-psb-mrowka/psb-mrowka-zbaszyn.html",
    "rating_text": "4,3",
    "stars": null,
    "number_of_reviews": null,
    "price_level": "",
    "open_hours": "",
    "extraction_timestamp": "2025-06-07T17:22:15.493Z",
    "source_name": "google",
    "source_query": "Irrigation Equipment",
    "source_country": "PL",
    "country": "Poland",
    "state": "Greater Poland Voivodeship",
    "city": "Zbąszyń"
  },
  {
    "source_id": "ChIJcXK7Dp1-BkcR7h5Wbr3Z7TU",
    "name": "Intermarche",
    "category": "Intermarche",
    "formatted_address": "4,3(482)",
    "phone_number": "",
    "source_url": "https://www.google.com/maps/place/Intermarche/data=!4m7!3m6!1s0x47067e9d0ebb7271:0x35edd9bd6e561eee!8m2!3d52.2545085!4d15.9146718!16s%2Fg%2F1hc4q0_tv!19sChIJcXK7Dp1-BkcR7h5Wbr3Z7TU?authuser=0&hl=tr&rclk=1",
    "website_url": "http://intermarche.pl/",
    "rating_text": "4,3",
    "stars": null,
    "number_of_reviews": null,
    "price_level": "",
    "open_hours": "",
    "extraction_timestamp": "2025-06-07T17:22:15.493Z",
    "source_name": "google",
    "source_query": "Irrigation Equipment",
    "source_country": "PL",
    "country": "Poland",
    "state": "Greater Poland Voivodeship",
    "city": "Zbąszyń"
  },
  {
    "source_id": "ChIJrbu9Ppl_BkcR7UNuI6mXJLo",
    "name": "Hydraulik24h",
    "category": "Hydraulik24h",
    "formatted_address": "5,0(1)",
    "phone_number": "+48730550807",
    "source_url": "https://www.google.com/maps/place/Hydraulik24h/data=!4m7!3m6!1s0x47067f993ebdbbad:0xba2497a9236e43ed!8m2!3d52.2501392!4d15.9239123!16s%2Fg%2F11l35nj8y8!19sChIJrbu9Ppl_BkcR7UNuI6mXJLo?authuser=0&hl=tr&rclk=1",
    "website_url": "https://mok1it.webwave.dev/strona-glowna-3",
    "rating_text": "5,0",
    "stars": null,
    "number_of_reviews": null,
    "price_level": "",
    "open_hours": "",
    "extraction_timestamp": "2025-06-07T17:22:15.494Z",
    "source_name": "google",
    "source_query": "Irrigation Equipment",
    "source_country": "PL",
    "country": "Poland",
    "state": "Greater Poland Voivodeship",
    "city": "Zbąszyń"
  },
  {
    "source_id": "ChIJW9yvXlB5BkcR2KcU57M2Kig",
    "name": "WiewiórGSM - serwis urządzeń mobilnych",
    "category": "WiewiórGSM - serwis urządzeń mobilnych",
    "formatted_address": "5,0(226)",
    "phone_number": "+48721721030",
    "source_url": "https://www.google.com/maps/place/Wiewi%C3%B3rGSM+-+serwis+urz%C4%85dze%C5%84+mobilnych/data=!4m7!3m6!1s0x470679505eafdc5b:0x282a36b3e714a7d8!8m2!3d52.2449556!4d15.9296833!16s%2Fg%2F11fpqc32p3!19sChIJW9yvXlB5BkcR2KcU57M2Kig?authuser=0&hl=tr&rclk=1",
    "website_url": "http://www.wiewiorgsm.pl/",
    "rating_text": "5,0",
    "stars": null,
    "number_of_reviews": null,
    "price_level": "",
    "open_hours": "",
    "extraction_timestamp": "2025-06-07T17:22:15.495Z",
    "source_name": "google",
    "source_query": "Irrigation Equipment",
    "source_country": "PL",
    "country": "Poland",
    "state": "Greater Poland Voivodeship",
    "city": "Zbąszyń"
  },
  {
    "source_id": "ChIJQYnHYv99BkcRS3wO5LjsCac",
    "name": "Serwis kotłów gazowych , Hydraulika ,Ogrzewanie , Gaz",
    "category": "Serwis kotłów gazowych , Hydraulika ,Ogrzewanie , Gaz",
    "formatted_address": "Serwis kotłów gazowych , Hydraulika ,Ogrzewanie , Gaz",
    "phone_number": "+48668699956",
    "source_url": "https://www.google.com/maps/place/Serwis+kot%C5%82%C3%B3w+gazowych+,+Hydraulika+,Ogrzewanie+,+Gaz/data=!4m7!3m6!1s0x47067dff62c78941:0xa709ecb8e40e7c4b!8m2!3d52.2765451!4d15.8990532!16s%2Fg%2F11lgkvtt9j!19sChIJQYnHYv99BkcRS3wO5LjsCac?authuser=0&hl=tr&rclk=1",
    "website_url": "",
    "rating_text": "5,0",
    "stars": null,
    "number_of_reviews": null,
    "price_level": "",
    "open_hours": "",
    "extraction_timestamp": "2025-06-07T17:22:15.495Z",
    "source_name": "google",
    "source_query": "Irrigation Equipment",
    "source_country": "PL",
    "country": "Poland",
    "state": "Greater Poland Voivodeship",
    "city": "Zbąszyń"
  },
  {
    "source_id": "ChIJ5z5Glo1-BkcRxKMjlT8-ooc",
    "name": "GS SCh Gminna Spółdzielnia Samopomoc Chłopska w Zbąszyniu",
    "category": "GS SCh Gminna Spółdzielnia Samopomoc Chłopska w Zbąszyniu",
    "formatted_address": "4,5(45)",
    "phone_number": "+48683846020",
    "source_url": "https://www.google.com/maps/place/GS+SCh+Gminna+Sp%C3%B3%C5%82dzielnia+Samopomoc+Ch%C5%82opska+w+Zb%C4%85szyniu/data=!4m7!3m6!1s0x47067e8d96463ee7:0x87a23e3f9523a3c4!8m2!3d52.2550183!4d15.934032!16s%2Fg%2F1thclgs5!19sChIJ5z5Glo1-BkcRxKMjlT8-ooc?authuser=0&hl=tr&rclk=1",
    "website_url": "",
    "rating_text": "4,5",
    "stars": null,
    "number_of_reviews": null,
    "price_level": "",
    "open_hours": "",
    "extraction_timestamp": "2025-06-07T17:22:15.496Z",
    "source_name": "google",
    "source_query": "Irrigation Equipment",
    "source_country": "PL",
    "country": "Poland",
    "state": "Greater Poland Voivodeship",
    "city": "Zbąszyń"
  },
  {
    "source_id": "ChIJLUC-hGF9BkcRGP1Bir6Zb4A",
    "name": "Eltermix - Cięcie laserem/Spawanie/Obróbka metali",
    "category": "Eltermix - Cięcie laserem/Spawanie/Obróbka metali",
    "formatted_address": "5,0(1)",
    "phone_number": "+48693671041",
    "source_url": "https://www.google.com/maps/place/Eltermix+-+Ci%C4%99cie+laserem%2FSpawanie%2FObr%C3%B3bka+metali/data=!4m7!3m6!1s0x47067d6184be402d:0x806f99be8a41fd18!8m2!3d52.2530782!4d15.8245919!16s%2Fg%2F11jsjfqjfq!19sChIJLUC-hGF9BkcRGP1Bir6Zb4A?authuser=0&hl=tr&rclk=1",
    "website_url": "https://eltermix.pl/index.html",
    "rating_text": "5,0",
    "stars": null,
    "number_of_reviews": null,
    "price_level": "",
    "open_hours": "",
    "extraction_timestamp": "2025-06-07T17:22:15.497Z",
    "source_name": "google",
    "source_query": "Irrigation Equipment",
    "source_country": "PL",
    "country": "Poland",
    "state": "Greater Poland Voivodeship",
    "city": "Zbąszyń"
  },
  {
    "source_id": "ChIJGU2rzZl-BkcRLkxJSu582gQ",
    "name": "ALKAR S.C. Sklep RTV i AGD Monika Biernat i Rafał Starszak",
    "category": "ALKAR S.C. Sklep RTV i AGD Monika Biernat i Rafał Starszak",
    "formatted_address": "4,9(14)",
    "phone_number": "+48683846005",
    "source_url": "https://www.google.com/maps/place/ALKAR+S.C.+Sklep+RTV+i+AGD+Monika+Biernat+i+Rafa%C5%82+Starszak/data=!4m7!3m6!1s0x47067e99cdab4d19:0x4da7cee4a494c2e!8m2!3d52.2495!4d15.9205!16s%2Fg%2F1tc_jvjn!19sChIJGU2rzZl-BkcRLkxJSu582gQ?authuser=0&hl=tr&rclk=1",
    "website_url": "https://maxelektro.pl/siec-sprzedazy/wielkopolskie/zbaszyn/max-elektro-sklep-alkar-rtv-agd/",
    "rating_text": "4,9",
    "stars": null,
    "number_of_reviews": null,
    "price_level": "",
    "open_hours": "",
    "extraction_timestamp": "2025-06-07T17:22:15.498Z",
    "source_name": "google",
    "source_query": "Irrigation Equipment",
    "source_country": "PL",
    "country": "Poland",
    "state": "Greater Poland Voivodeship",
    "city": "Zbąszyń"
  },
  {
    "source_id": "ChIJGdj1Fo1-BkcRIAI4_ql_nFE",
    "name": "Sklep przy stacji paliw Circle K",
    "category": "Sklep przy stacji paliw Circle K",
    "formatted_address": "4,9(9)",
    "phone_number": "+48683868500",
    "source_url": "https://www.google.com/maps/place/Sklep+przy+stacji+paliw+Circle+K/data=!4m7!3m6!1s0x47067e8d16f5d819:0x519c7fa9fe380220!8m2!3d52.2567266!4d15.9401269!16s%2Fg%2F11fy2dmk5_!19sChIJGdj1Fo1-BkcRIAI4_ql_nFE?authuser=0&hl=tr&rclk=1",
    "website_url": "http://sklep.sur.com.pl/",
    "rating_text": "4,9",
    "stars": null,
    "number_of_reviews": null,
    "price_level": "",
    "open_hours": "",
    "extraction_timestamp": "2025-06-07T17:22:15.499Z",
    "source_name": "google",
    "source_query": "Irrigation Equipment",
    "source_country": "PL",
    "country": "Poland",
    "state": "Greater Poland Voivodeship",
    "city": "Zbąszyń"
  },
  {
    "source_id": "ChIJX4Ofxpl-BkcRmRm1izKvRzg",
    "name": "Dorota. PPH. Jaśkowska D.",
    "category": "Dorota. PPH. Jaśkowska D.",
    "formatted_address": "4,6(10)",
    "phone_number": "+48683867167",
    "source_url": "https://www.google.com/maps/place/Dorota.+PPH.+Ja%C5%9Bkowska+D./data=!4m7!3m6!1s0x47067e99c69f835f:0x3847af328bb51999!8m2!3d52.2502237!4d15.9206618!16s%2Fg%2F1tx1422k!19sChIJX4Ofxpl-BkcRmRm1izKvRzg?authuser=0&hl=tr&rclk=1",
    "website_url": "",
    "rating_text": "4,6",
    "stars": null,
    "number_of_reviews": null,
    "price_level": "",
    "open_hours": "",
    "extraction_timestamp": "2025-06-07T17:22:15.500Z",
    "source_name": "google",
    "source_query": "Irrigation Equipment",
    "source_country": "PL",
    "country": "Poland",
    "state": "Greater Poland Voivodeship",
    "city": "Zbąszyń"
  },
  {
    "source_id": "ChIJz3A3y4J_BkcRr4maQYdiCuw",
    "name": "Elpik",
    "category": "Elpik",
    "formatted_address": "5,0(1)",
    "phone_number": "",
    "source_url": "https://www.google.com/maps/place/Elpik/data=!4m7!3m6!1s0x47067f82cb3770cf:0xec0a6287419a89af!8m2!3d52.2483827!4d15.9140594!16s%2Fg%2F11v5c2ymrw!19sChIJz3A3y4J_BkcRr4maQYdiCuw?authuser=0&hl=tr&rclk=1",
    "website_url": "",
    "rating_text": "5,0",
    "stars": null,
    "number_of_reviews": null,
    "price_level": "",
    "open_hours": "",
    "extraction_timestamp": "2025-06-07T17:22:15.501Z",
    "source_name": "google",
    "source_query": "Irrigation Equipment",
    "source_country": "PL",
    "country": "Poland",
    "state": "Greater Poland Voivodeship",
    "city": "Zbąszyń"
  },
  {
    "source_id": "ChIJp_pwODB_BkcRDhEUlM891co",
    "name": "Smażalnia Ryb \"Obłędna\"",
    "category": "Smażalnia Ryb \"Obłędna\"",
    "formatted_address": "4,5(504) · zł 40–60",
    "phone_number": "+48683866099",
    "source_url": "https://www.google.com/maps/place/Sma%C5%BCalnia+Ryb+%22Ob%C5%82%C4%99dna%22/data=!4m7!3m6!1s0x47067f303870faa7:0xcad53dcf9414110e!8m2!3d52.2481749!4d15.9131335!16s%2Fg%2F11h6sp359m!19sChIJp_pwODB_BkcRDhEUlM891co?authuser=0&hl=tr&rclk=1",
    "website_url": "http://smazalniarybzbaszyn.pl/",
    "rating_text": "4,5",
    "stars": null,
    "number_of_reviews": null,
    "price_level": "",
    "open_hours": "",
    "extraction_timestamp": "2025-06-07T17:22:15.502Z",
    "source_name": "google",
    "source_query": "Irrigation Equipment",
    "source_country": "PL",
    "country": "Poland",
    "state": "Greater Poland Voivodeship",
    "city": "Zbąszyń"
  },
  {
    "source_id": "ChIJgwf7IZd-BkcRSi6T_Pr8Q0o",
    "name": "Kamol. Sklep spożywczo - przemysłowy. Kamiński L.",
    "category": "Kamol. Sklep spożywczo - przemysłowy. Kamiński L.",
    "formatted_address": "4,8(4)",
    "phone_number": "+48609351437",
    "source_url": "https://www.google.com/maps/place/Kamol.+Sklep+spo%C5%BCywczo+-+przemys%C5%82owy.+Kami%C5%84ski+L./data=!4m7!3m6!1s0x47067e9721fb0783:0x4a43fcfafc932e4a!8m2!3d52.2500115!4d15.9255907!16s%2Fg%2F1td7l_zx!19sChIJgwf7IZd-BkcRSi6T_Pr8Q0o?authuser=0&hl=tr&rclk=1",
    "website_url": "",
    "rating_text": "4,8",
    "stars": null,
    "number_of_reviews": null,
    "price_level": "",
    "open_hours": "",
    "extraction_timestamp": "2025-06-07T17:22:15.503Z",
    "source_name": "google",
    "source_query": "Irrigation Equipment",
    "source_country": "PL",
    "country": "Poland",
    "state": "Greater Poland Voivodeship",
    "city": "Zbąszyń"
  },
  {
    "source_id": "ChIJuRIXYp5-BkcRLocyvFOVX5Q",
    "name": "Kawiarnia KAWKA kawa i wypieki",
    "category": "Kawiarnia KAWKA kawa i wypieki",
    "formatted_address": "4,7(563) · zł 20–40",
    "phone_number": "+48683868777",
    "source_url": "https://www.google.com/maps/place/Kawiarnia+KAWKA+kawa+i+wypieki/data=!4m7!3m6!1s0x47067e9e621712b9:0x945f9553bc32872e!8m2!3d52.2523029!4d15.9113081!16s%2Fg%2F11c0rkxm79!19sChIJuRIXYp5-BkcRLocyvFOVX5Q?authuser=0&hl=tr&rclk=1",
    "website_url": "http://www.kawiarnia-kawka.pl/",
    "rating_text": "4,7",
    "stars": null,
    "number_of_reviews": null,
    "price_level": "",
    "open_hours": "",
    "extraction_timestamp": "2025-06-07T17:22:15.504Z",
    "source_name": "google",
    "source_query": "Irrigation Equipment",
    "source_country": "PL",
    "country": "Poland",
    "state": "Greater Poland Voivodeship",
    "city": "Zbąszyń"
  },
  {
    "source_id": "ChIJEXi4LouObSER2IwMiNROxus",
    "name": "Usługi hydrauliczne Przemysław Kostyra",
    "category": "Usługi hydrauliczne Przemysław Kostyra",
    "formatted_address": "",
    "phone_number": "+48783791580",
    "source_url": "https://www.google.com/maps/place/Us%C5%82ugi+hydrauliczne+Przemys%C5%82aw+Kostyra/data=!4m7!3m6!1s0x216d8e8b2eb87811:0xebc64ed4880c8cd8!8m2!3d52.2514061!4d15.9118925!16s%2Fg%2F11vzxqqg60!19sChIJEXi4LouObSER2IwMiNROxus?authuser=0&hl=tr&rclk=1",
    "website_url": "https://www.facebook.com/KostiHydraulik",
    "rating_text": "",
    "stars": null,
    "number_of_reviews": null,
    "price_level": "",
    "open_hours": "",
    "extraction_timestamp": "2025-06-07T17:22:15.505Z",
    "source_name": "google",
    "source_query": "Irrigation Equipment",
    "source_country": "PL",
    "country": "Poland",
    "state": "Greater Poland Voivodeship",
    "city": "Zbąszyń"
  },
  {
    "source_id": "ChIJM6_r2Zl-BkcRgl9e5QPrZ2M",
    "name": "Lulkiewicz J. Alkohole",
    "category": "Lulkiewicz J. Alkohole",
    "formatted_address": "5,0(2)",
    "phone_number": "+48683869330",
    "source_url": "https://www.google.com/maps/place/Lulkiewicz+J.+Alkohole/data=!4m7!3m6!1s0x47067e99d9ebaf33:0x6367eb03e55e5f82!8m2!3d52.2499757!4d15.9215023!16s%2Fg%2F1tf6kxjj!19sChIJM6_r2Zl-BkcRgl9e5QPrZ2M?authuser=0&hl=tr&rclk=1",
    "website_url": "",
    "rating_text": "5,0",
    "stars": null,
    "number_of_reviews": null,
    "price_level": "",
    "open_hours": "",
    "extraction_timestamp": "2025-06-07T17:22:15.506Z",
    "source_name": "google",
    "source_query": "Irrigation Equipment",
    "source_country": "PL",
    "country": "Poland",
    "state": "Greater Poland Voivodeship",
    "city": "Zbąszyń"
  },
  {
    "source_id": "ChIJlfQiDUt9BkcRi7obVTCY8_g",
    "name": "Pepco",
    "category": "Pepco",
    "formatted_address": "4,1(27)",
    "phone_number": "",
    "source_url": "https://www.google.com/maps/place/Pepco/data=!4m7!3m6!1s0x47067d4b0d22f495:0xf8f39830551bba8b!8m2!3d52.2533905!4d15.9219095!16s%2Fg%2F11cn32bl_6!19sChIJlfQiDUt9BkcRi7obVTCY8_g?authuser=0&hl=tr&rclk=1",
    "website_url": "https://pepco.pl/",
    "rating_text": "4,1",
    "stars": null,
    "number_of_reviews": null,
    "price_level": "",
    "open_hours": "",
    "extraction_timestamp": "2025-06-07T17:22:15.507Z",
    "source_name": "google",
    "source_query": "Irrigation Equipment",
    "source_country": "PL",
    "country": "Poland",
    "state": "Greater Poland Voivodeship",
    "city": "Zbąszyń"
  },
  {
    "source_id": "ChIJfZ2zmZ58BkcR2jB36ywuG5s",
    "name": "Osiedlowy sklep monopolowo-spożywczy",
    "category": "Osiedlowy sklep monopolowo-spożywczy",
    "formatted_address": "4,5(12)",
    "phone_number": "",
    "source_url": "https://www.google.com/maps/place/Osiedlowy+sklep+monopolowo-spo%C5%BCywczy/data=!4m7!3m6!1s0x47067c9e99b39d7d:0x9b1b2e2ceb7730da!8m2!3d52.244871!4d15.8147361!16s%2Fg%2F1jky1b6v5!19sChIJfZ2zmZ58BkcR2jB36ywuG5s?authuser=0&hl=tr&rclk=1",
    "website_url": "",
    "rating_text": "4,5",
    "stars": null,
    "number_of_reviews": null,
    "price_level": "",
    "open_hours": "",
    "extraction_timestamp": "2025-06-07T17:22:15.507Z",
    "source_name": "google",
    "source_query": "Irrigation Equipment",
    "source_country": "PL",
    "country": "Poland",
    "state": "Greater Poland Voivodeship",
    "city": "Zbąszyń"
  },
  {
    "source_id": "ChIJ6wv6Npp-BkcRTmPaTV5m69g",
    "name": "Biedronka",
    "category": "Biedronka",
    "formatted_address": "3,9(1.089)",
    "phone_number": "+48800080010",
    "source_url": "https://www.google.com/maps/place/Biedronka/data=!4m7!3m6!1s0x47067e9a36fa0beb:0xd8eb665e4dda634e!8m2!3d52.2531974!4d15.9205074!16s%2Fg%2F11b5wpsxpc!19sChIJ6wv6Npp-BkcRTmPaTV5m69g?authuser=0&hl=tr&rclk=1",
    "website_url": "https://www.biedronka.pl/pl?utm_source=gmb",
    "rating_text": "3,9",
    "stars": null,
    "number_of_reviews": null,
    "price_level": "",
    "open_hours": "",
    "extraction_timestamp": "2025-06-07T17:22:15.509Z",
    "source_name": "google",
    "source_query": "Irrigation Equipment",
    "source_country": "PL",
    "country": "Poland",
    "state": "Greater Poland Voivodeship",
    "city": "Zbąszyń"
  },
  {
    "source_id": "ChIJ-5-jZ4h_BkcRCJjBRscVYG0",
    "name": "Dino",
    "category": "Dino",
    "formatted_address": "4,5(251)",
    "phone_number": "",
    "source_url": "https://www.google.com/maps/place/Dino/data=!4m7!3m6!1s0x47067f8867a39ffb:0x6d6015c746c19808!8m2!3d52.2564977!4d15.9380168!16s%2Fg%2F11gxx920yh!19sChIJ-5-jZ4h_BkcRCJjBRscVYG0?authuser=0&hl=tr&rclk=1",
    "website_url": "https://marketdino.pl/",
    "rating_text": "4,5",
    "stars": null,
    "number_of_reviews": null,
    "price_level": "",
    "open_hours": "",
    "extraction_timestamp": "2025-06-07T17:22:15.509Z",
    "source_name": "google",
    "source_query": "Irrigation Equipment",
    "source_country": "PL",
    "country": "Poland",
    "state": "Greater Poland Voivodeship",
    "city": "Zbąszyń"
  },
  {
    "source_id": "ChIJm2p0CXB_BkcRHvMICq175fI",
    "name": "Eco Zoo - Sklep zoologiczny",
    "category": "Eco Zoo - Sklep zoologiczny",
    "formatted_address": "4,6(18)",
    "phone_number": "",
    "source_url": "https://www.google.com/maps/place/Eco+Zoo+-+Sklep+zoologiczny/data=!4m7!3m6!1s0x47067f7009746a9b:0xf2e57bad0a08f31e!8m2!3d52.2498086!4d15.9216261!16s%2Fg%2F11j0vc0l3v!19sChIJm2p0CXB_BkcRHvMICq175fI?authuser=0&hl=tr&rclk=1",
    "website_url": "",
    "rating_text": "4,6",
    "stars": null,
    "number_of_reviews": null,
    "price_level": "",
    "open_hours": "",
    "extraction_timestamp": "2025-06-07T17:22:15.510Z",
    "source_name": "google",
    "source_query": "Irrigation Equipment",
    "source_country": "PL",
    "country": "Poland",
    "state": "Greater Poland Voivodeship",
    "city": "Zbąszyń"
  }
]
