[
  {
    "source_id": "ChIJc2qUjCjFA0cR-_ShCq2uUKM",
    "name": "MG HYDRO-SERWIS Złotów - Usługi hydrauliczne, sprzedaż i montaż pomp ciepła/kotłów na pellet i rekuperacji",
    "category": "MG HYDRO-SERWIS Złotów - Usługi hydrauliczne, sprzedaż i montaż pomp ciepła/kotłów na pellet i rekuperacji",
    "formatted_address": "MG HYDRO-SERWIS Złotów - Usługi hydrauliczne, sprzedaż i montaż pomp ciepła/kotłów na pellet i rekuperacji",
    "phone_number": "+48730822837",
    "source_url": "https://www.google.com/maps/place/MG+HYDRO-SERWIS+Z%C5%82ot%C3%B3w+-+Us%C5%82ugi+hydrauliczne,+sprzeda%C5%BC+i+monta%C5%BC+pomp+ciep%C5%82a%2Fkot%C5%82%C3%B3w+na+pellet+i+rekuperacji/data=!4m7!3m6!1s0x4703c5288c946a73:0xa350aead0aa1f4fb!8m2!3d53.3618437!4d17.0535595!16s%2Fg%2F11vclwm2q3!19sChIJc2qUjCjFA0cR-_ShCq2uUKM?authuser=0&hl=tr&rclk=1",
    "website_url": "",
    "rating_text": "5,0",
    "stars": null,
    "number_of_reviews": null,
    "price_level": "",
    "open_hours": "",
    "extraction_timestamp": "2025-06-07T17:59:29.441Z",
    "source_name": "google",
    "source_query": "Irrigation Equipment",
    "source_country": "PL",
    "country": "Poland",
    "state": "Greater Poland Voivodeship",
    "city": "Złotów"
  },
  {
    "source_id": "ChIJpd08s5jFA0cRJLeICv2GkBU",
    "name": "HYDRON hydraulika siłowa",
    "category": "HYDRON hydraulika siłowa",
    "formatted_address": "4,6(59)",
    "phone_number": "+48673505369",
    "source_url": "https://www.google.com/maps/place/HYDRON+hydraulika+si%C5%82owa/data=!4m7!3m6!1s0x4703c598b33cdda5:0x159086fd0a88b724!8m2!3d53.3598409!4d17.0563879!16s%2Fg%2F11bbyh37jf!19sChIJpd08s5jFA0cRJLeICv2GkBU?authuser=0&hl=tr&rclk=1",
    "website_url": "",
    "rating_text": "4,6",
    "stars": null,
    "number_of_reviews": null,
    "price_level": "",
    "open_hours": "",
    "extraction_timestamp": "2025-06-07T17:59:29.442Z",
    "source_name": "google",
    "source_query": "Irrigation Equipment",
    "source_country": "PL",
    "country": "Poland",
    "state": "Greater Poland Voivodeship",
    "city": "Złotów"
  },
  {
    "source_id": "ChIJPyte_6XFA0cRxg8j4SzhDvs",
    "name": "Zakład Robót Instalacyjno-Inżynieryjnych HYDROPEX Sp. z o.o. Sp.k.",
    "category": "Zakład Robót Instalacyjno-Inżynieryjnych HYDROPEX Sp. z o.o. Sp.k.",
    "formatted_address": "4,6(14)",
    "phone_number": "+48672633964",
    "source_url": "https://www.google.com/maps/place/Zak%C5%82ad+Rob%C3%B3t+Instalacyjno-In%C5%BCynieryjnych+HYDROPEX+Sp.+z+o.o.+Sp.k./data=!4m7!3m6!1s0x4703c5a5ff5e2b3f:0xfb0ee12ce1230fc6!8m2!3d53.350835!4d17.051281!16s%2Fg%2F1v_z7lxw!19sChIJPyte_6XFA0cRxg8j4SzhDvs?authuser=0&hl=tr&rclk=1",
    "website_url": "",
    "rating_text": "4,6",
    "stars": null,
    "number_of_reviews": null,
    "price_level": "",
    "open_hours": "",
    "extraction_timestamp": "2025-06-07T17:59:29.443Z",
    "source_name": "google",
    "source_query": "Irrigation Equipment",
    "source_country": "PL",
    "country": "Poland",
    "state": "Greater Poland Voivodeship",
    "city": "Złotów"
  },
  {
    "source_id": "ChIJO1EUUHPFA0cR2u0IvXdWdgo",
    "name": "WOJCIECHOWSKI",
    "category": "WOJCIECHOWSKI",
    "formatted_address": "4,7(52)",
    "phone_number": "+48672632198",
    "source_url": "https://www.google.com/maps/place/WOJCIECHOWSKI/data=!4m7!3m6!1s0x4703c5735014513b:0xa765677bd08edda!8m2!3d53.3644043!4d17.041864!16s%2Fg%2F1v16n_h1!19sChIJO1EUUHPFA0cR2u0IvXdWdgo?authuser=0&hl=tr&rclk=1",
    "website_url": "",
    "rating_text": "4,7",
    "stars": null,
    "number_of_reviews": null,
    "price_level": "",
    "open_hours": "",
    "extraction_timestamp": "2025-06-07T17:59:29.444Z",
    "source_name": "google",
    "source_query": "Irrigation Equipment",
    "source_country": "PL",
    "country": "Poland",
    "state": "Greater Poland Voivodeship",
    "city": "Złotów"
  },
  {
    "source_id": "ChIJf1-nA6XFA0cRzzM_6ajs5BU",
    "name": "Serwis agregatów gazowych Power-On Site",
    "category": "Serwis agregatów gazowych Power-On Site",
    "formatted_address": "5,0(1)",
    "phone_number": "+48667666958",
    "source_url": "https://www.google.com/maps/place/Serwis+agregat%C3%B3w+gazowych+Power-On+Site/data=!4m7!3m6!1s0x4703c5a503a75f7f:0x15e4eca8e93f33cf!8m2!3d53.3575538!4d17.0500377!16s%2Fg%2F11fmwpyg3f!19sChIJf1-nA6XFA0cRzzM_6ajs5BU?authuser=0&hl=tr&rclk=1",
    "website_url": "",
    "rating_text": "5,0",
    "stars": null,
    "number_of_reviews": null,
    "price_level": "",
    "open_hours": "",
    "extraction_timestamp": "2025-06-07T17:59:29.445Z",
    "source_name": "google",
    "source_query": "Irrigation Equipment",
    "source_country": "PL",
    "country": "Poland",
    "state": "Greater Poland Voivodeship",
    "city": "Złotów"
  },
  {
    "source_id": "ChIJG60RagrFA0cRT_Lrxb0YCn0",
    "name": "PHU PAJĄK",
    "category": "PHU PAJĄK",
    "formatted_address": "4,4(25)",
    "phone_number": "+48606684345",
    "source_url": "https://www.google.com/maps/place/PHU+PAJ%C4%84K/data=!4m7!3m6!1s0x4703c50a6a11ad1b:0x7d0a18bdc5ebf24f!8m2!3d53.3590222!4d17.0459944!16s%2Fg%2F1tnqfpjq!19sChIJG60RagrFA0cRT_Lrxb0YCn0?authuser=0&hl=tr&rclk=1",
    "website_url": "",
    "rating_text": "4,4",
    "stars": null,
    "number_of_reviews": null,
    "price_level": "",
    "open_hours": "",
    "extraction_timestamp": "2025-06-07T17:59:29.446Z",
    "source_name": "google",
    "source_query": "Irrigation Equipment",
    "source_country": "PL",
    "country": "Poland",
    "state": "Greater Poland Voivodeship",
    "city": "Złotów"
  },
  {
    "source_id": "ChIJ8462y-nFA0cRdOU8-uTMsKM",
    "name": "PHU PAJĄK",
    "category": "PHU PAJĄK",
    "formatted_address": "4,2(5)",
    "phone_number": "+48784592767",
    "source_url": "https://www.google.com/maps/place/PHU+PAJ%C4%84K/data=!4m7!3m6!1s0x4703c5e9cbb68ef3:0xa3b0cce4fa3ce574!8m2!3d53.3724589!4d17.0206631!16s%2Fg%2F11h02kzmcn!19sChIJ8462y-nFA0cRdOU8-uTMsKM?authuser=0&hl=tr&rclk=1",
    "website_url": "",
    "rating_text": "4,2",
    "stars": null,
    "number_of_reviews": null,
    "price_level": "",
    "open_hours": "",
    "extraction_timestamp": "2025-06-07T17:59:29.446Z",
    "source_name": "google",
    "source_query": "Irrigation Equipment",
    "source_country": "PL",
    "country": "Poland",
    "state": "Greater Poland Voivodeship",
    "city": "Złotów"
  },
  {
    "source_id": "ChIJXwhPRM7FA0cRjeBbblzBjIg",
    "name": "Usługi Hydrauliczne Paweł Szandała",
    "category": "Usługi Hydrauliczne Paweł Szandała",
    "formatted_address": "5,0(5)",
    "phone_number": "+48796486746",
    "source_url": "https://www.google.com/maps/place/Us%C5%82ugi+Hydrauliczne+Pawe%C5%82+Szanda%C5%82a/data=!4m7!3m6!1s0x4703c5ce444f085f:0x888cc15c6e5be08d!8m2!3d53.3609523!4d17.0365186!16s%2Fg%2F11y1dm123b!19sChIJXwhPRM7FA0cRjeBbblzBjIg?authuser=0&hl=tr&rclk=1",
    "website_url": "",
    "rating_text": "5,0",
    "stars": null,
    "number_of_reviews": null,
    "price_level": "",
    "open_hours": "",
    "extraction_timestamp": "2025-06-07T17:59:29.448Z",
    "source_name": "google",
    "source_query": "Irrigation Equipment",
    "source_country": "PL",
    "country": "Poland",
    "state": "Greater Poland Voivodeship",
    "city": "Złotów"
  },
  {
    "source_id": "ChIJ_2XmoIvFA0cRwM_q0jJo3DE",
    "name": "Usługi Hydrauliczne Grzegorz Stocki",
    "category": "Usługi Hydrauliczne Grzegorz Stocki",
    "formatted_address": "4,4(7)",
    "phone_number": "+48600232449",
    "source_url": "https://www.google.com/maps/place/Us%C5%82ugi+Hydrauliczne+Grzegorz+Stocki/data=!4m7!3m6!1s0x4703c58ba0e665ff:0x31dc6832d2eacfc0!8m2!3d53.3749688!4d17.025259!16s%2Fg%2F11hz_n3sny!19sChIJ_2XmoIvFA0cRwM_q0jJo3DE?authuser=0&hl=tr&rclk=1",
    "website_url": "",
    "rating_text": "4,4",
    "stars": null,
    "number_of_reviews": null,
    "price_level": "",
    "open_hours": "",
    "extraction_timestamp": "2025-06-07T17:59:29.449Z",
    "source_name": "google",
    "source_query": "Irrigation Equipment",
    "source_country": "PL",
    "country": "Poland",
    "state": "Greater Poland Voivodeship",
    "city": "Złotów"
  },
  {
    "source_id": "ChIJ8_MNa-_FA0cREIzkj0975dA",
    "name": "Action Złotów",
    "category": "Action Złotów",
    "formatted_address": "4,1(60)",
    "phone_number": "+48326305898",
    "source_url": "https://www.google.com/maps/place/Action+Z%C5%82ot%C3%B3w/data=!4m7!3m6!1s0x4703c5ef6b0df3f3:0xd0e57b4f8fe48c10!8m2!3d53.3571943!4d17.0450564!16s%2Fg%2F11khznwlm8!19sChIJ8_MNa-_FA0cREIzkj0975dA?authuser=0&hl=tr&rclk=1",
    "website_url": "",
    "rating_text": "4,1",
    "stars": null,
    "number_of_reviews": null,
    "price_level": "",
    "open_hours": "",
    "extraction_timestamp": "2025-06-07T17:59:29.450Z",
    "source_name": "google",
    "source_query": "Irrigation Equipment",
    "source_country": "PL",
    "country": "Poland",
    "state": "Greater Poland Voivodeship",
    "city": "Złotów"
  },
  {
    "source_id": "ChIJcTf7mArFA0cR2sxROExyPns",
    "name": "Przedsiębiorstwo ELEKTROINFORMATYKA, mgr inż. Wojciech Kosiba",
    "category": "Przedsiębiorstwo ELEKTROINFORMATYKA, mgr inż. Wojciech Kosiba",
    "formatted_address": "Przedsiębiorstwo ELEKTROINFORMATYKA, mgr inż. Wojciech Kosiba",
    "phone_number": "+48602277620",
    "source_url": "https://www.google.com/maps/place/Przedsi%C4%99biorstwo+ELEKTROINFORMATYKA,+mgr+in%C5%BC.+Wojciech+Kosiba/data=!4m7!3m6!1s0x4703c50a98fb3771:0x7b3e724c3851ccda!8m2!3d53.3606073!4d17.0513759!16s%2Fg%2F1tgkf_0z!19sChIJcTf7mArFA0cR2sxROExyPns?authuser=0&hl=tr&rclk=1",
    "website_url": "",
    "rating_text": "3,0",
    "stars": null,
    "number_of_reviews": null,
    "price_level": "",
    "open_hours": "",
    "extraction_timestamp": "2025-06-07T17:59:29.451Z",
    "source_name": "google",
    "source_query": "Irrigation Equipment",
    "source_country": "PL",
    "country": "Poland",
    "state": "Greater Poland Voivodeship",
    "city": "Złotów"
  },
  {
    "source_id": "ChIJcWHpR77FA0cRFaEIwfFfiaU",
    "name": "Pracownia BHP i Ochrony Środowiska EKO-SYSTEM Jaromir Cielas",
    "category": "Pracownia BHP i Ochrony Środowiska EKO-SYSTEM Jaromir Cielas",
    "formatted_address": "",
    "phone_number": "+48608035907",
    "source_url": "https://www.google.com/maps/place/Pracownia+BHP+i+Ochrony+%C5%9Arodowiska+EKO-SYSTEM+Jaromir+Cielas/data=!4m7!3m6!1s0x4703c5be47e96171:0xa5895ff1c108a115!8m2!3d53.3576334!4d17.0748387!16s%2Fg%2F1thg94bz!19sChIJcWHpR77FA0cRFaEIwfFfiaU?authuser=0&hl=tr&rclk=1",
    "website_url": "",
    "rating_text": "",
    "stars": null,
    "number_of_reviews": null,
    "price_level": "",
    "open_hours": "",
    "extraction_timestamp": "2025-06-07T17:59:29.452Z",
    "source_name": "google",
    "source_query": "Irrigation Equipment",
    "source_country": "PL",
    "country": "Poland",
    "state": "Greater Poland Voivodeship",
    "city": "Złotów"
  },
  {
    "source_id": "ChIJZ-3TUizFA0cRQCo7kdCIqic",
    "name": "Chińskie Centrum Handlowe \"Borax\"",
    "category": "Chińskie Centrum Handlowe \"Borax\"",
    "formatted_address": "4,3(95)",
    "phone_number": "",
    "source_url": "https://www.google.com/maps/place/Chi%C5%84skie+Centrum+Handlowe+%22Borax%22/data=!4m7!3m6!1s0x4703c52c52d3ed67:0x27aa88d0913b2a40!8m2!3d53.3591604!4d17.0451852!16s%2Fg%2F11gmx0nv20!19sChIJZ-3TUizFA0cRQCo7kdCIqic?authuser=0&hl=tr&rclk=1",
    "website_url": "",
    "rating_text": "4,3",
    "stars": null,
    "number_of_reviews": null,
    "price_level": "",
    "open_hours": "",
    "extraction_timestamp": "2025-06-07T17:59:29.452Z",
    "source_name": "google",
    "source_query": "Irrigation Equipment",
    "source_country": "PL",
    "country": "Poland",
    "state": "Greater Poland Voivodeship",
    "city": "Złotów"
  },
  {
    "source_id": "ChIJccUB8zfFA0cRfLImn1ChMsQ",
    "name": "Martes Sport",
    "category": "Martes Sport",
    "formatted_address": "2,8(19)",
    "phone_number": "+48501674199",
    "source_url": "https://www.google.com/maps/place/Martes+Sport/data=!4m7!3m6!1s0x4703c537f301c571:0xc432a1509f26b27c!8m2!3d53.3644808!4d17.0401286!16s%2Fg%2F11j4gbprp2!19sChIJccUB8zfFA0cRfLImn1ChMsQ?authuser=0&hl=tr&rclk=1",
    "website_url": "",
    "rating_text": "2,8",
    "stars": null,
    "number_of_reviews": null,
    "price_level": "",
    "open_hours": "",
    "extraction_timestamp": "2025-06-07T17:59:29.453Z",
    "source_name": "google",
    "source_query": "Irrigation Equipment",
    "source_country": "PL",
    "country": "Poland",
    "state": "Greater Poland Voivodeship",
    "city": "Złotów"
  },
  {
    "source_id": "ChIJQU09hJ_FA0cRKQQhqWx9si8",
    "name": "Rolnik. Sklep spożywczy GS Samopomoc Chłopska",
    "category": "Rolnik. Sklep spożywczy GS Samopomoc Chłopska",
    "formatted_address": "5,0(5)",
    "phone_number": "+48672635045",
    "source_url": "https://www.google.com/maps/place/Rolnik.+Sklep+spo%C5%BCywczy+GS+Samopomoc+Ch%C5%82opska/data=!4m7!3m6!1s0x4703c59f843d4d41:0x2fb27d6ca9210429!8m2!3d53.3626913!4d17.0531606!16s%2Fg%2F1tjddwz4!19sChIJQU09hJ_FA0cRKQQhqWx9si8?authuser=0&hl=tr&rclk=1",
    "website_url": "",
    "rating_text": "5,0",
    "stars": null,
    "number_of_reviews": null,
    "price_level": "",
    "open_hours": "",
    "extraction_timestamp": "2025-06-07T17:59:29.454Z",
    "source_name": "google",
    "source_query": "Irrigation Equipment",
    "source_country": "PL",
    "country": "Poland",
    "state": "Greater Poland Voivodeship",
    "city": "Złotów"
  },
  {
    "source_id": "ChIJeZvquQzFA0cRXfjrYzh80HU",
    "name": "Alkohole Pod Jeleniem",
    "category": "Alkohole Pod Jeleniem",
    "formatted_address": "4,6(88)",
    "phone_number": "+48500077443",
    "source_url": "https://www.google.com/maps/place/Alkohole+Pod+Jeleniem/data=!4m7!3m6!1s0x4703c50cb9ea9b79:0x75d07c3863ebf85d!8m2!3d53.3634473!4d17.0399694!16s%2Fg%2F11dxrvvs22!19sChIJeZvquQzFA0cRXfjrYzh80HU?authuser=0&hl=tr&rclk=1",
    "website_url": "",
    "rating_text": "4,6",
    "stars": null,
    "number_of_reviews": null,
    "price_level": "",
    "open_hours": "",
    "extraction_timestamp": "2025-06-07T17:59:29.455Z",
    "source_name": "google",
    "source_query": "Irrigation Equipment",
    "source_country": "PL",
    "country": "Poland",
    "state": "Greater Poland Voivodeship",
    "city": "Złotów"
  },
  {
    "source_id": "ChIJ5R5jS53FA0cRzswXjRZ7xCg",
    "name": "Sklep Pasja (znicze, wiązanki, kwiaty)",
    "category": "Sklep Pasja (znicze, wiązanki, kwiaty)",
    "formatted_address": "Sklep Pasja (znicze, wiązanki, kwiaty)",
    "phone_number": "+48785290905",
    "source_url": "https://www.google.com/maps/place/Sklep+Pasja+%28znicze,+wi%C4%85zanki,+kwiaty%29/data=!4m7!3m6!1s0x4703c59d4b631ee5:0x28c47b168d17ccce!8m2!3d53.37243!4d17.0576668!16s%2Fg%2F11fzf6pgkl!19sChIJ5R5jS53FA0cRzswXjRZ7xCg?authuser=0&hl=tr&rclk=1",
    "website_url": "",
    "rating_text": "4,5",
    "stars": null,
    "number_of_reviews": null,
    "price_level": "",
    "open_hours": "",
    "extraction_timestamp": "2025-06-07T17:59:29.456Z",
    "source_name": "google",
    "source_query": "Irrigation Equipment",
    "source_country": "PL",
    "country": "Poland",
    "state": "Greater Poland Voivodeship",
    "city": "Złotów"
  },
  {
    "source_id": "ChIJfZPyfOLEA0cRPTQRmNlb1Q8",
    "name": "PSB Mrówka",
    "category": "PSB Mrówka",
    "formatted_address": "4,1(461)",
    "phone_number": "+48673492596",
    "source_url": "https://www.google.com/maps/place/PSB+Mr%C3%B3wka/data=!4m7!3m6!1s0x4703c4e27cf2937d:0xfd55bd99811343d!8m2!3d53.345356!4d17.0168379!16s%2Fg%2F11rxmtwfm!19sChIJfZPyfOLEA0cRPTQRmNlb1Q8?authuser=0&hl=tr&rclk=1",
    "website_url": "",
    "rating_text": "4,1",
    "stars": null,
    "number_of_reviews": null,
    "price_level": "",
    "open_hours": "",
    "extraction_timestamp": "2025-06-07T17:59:29.456Z",
    "source_name": "google",
    "source_query": "Irrigation Equipment",
    "source_country": "PL",
    "country": "Poland",
    "state": "Greater Poland Voivodeship",
    "city": "Złotów"
  },
  {
    "source_id": "ChIJDSwd1qbFA0cRQrEVBvstWJA",
    "name": "Techmet",
    "category": "Techmet",
    "formatted_address": "5,0(15)",
    "phone_number": "+48672633466",
    "source_url": "https://www.google.com/maps/place/Techmet/data=!4m7!3m6!1s0x4703c5a6d61d2c0d:0x90582dfb0615b142!8m2!3d53.3572179!4d17.0503937!16s%2Fg%2F1tf14ky0!19sChIJDSwd1qbFA0cRQrEVBvstWJA?authuser=0&hl=tr&rclk=1",
    "website_url": "",
    "rating_text": "5,0",
    "stars": null,
    "number_of_reviews": null,
    "price_level": "",
    "open_hours": "",
    "extraction_timestamp": "2025-06-07T17:59:29.457Z",
    "source_name": "google",
    "source_query": "Irrigation Equipment",
    "source_country": "PL",
    "country": "Poland",
    "state": "Greater Poland Voivodeship",
    "city": "Złotów"
  },
  {
    "source_id": "ChIJdZ63caHFA0cRxEEeXxmWChc",
    "name": "Złotów - spożywczy sklep internetowy z dostawą do domu",
    "category": "Złotów - spożywczy sklep internetowy z dostawą do domu",
    "formatted_address": "4,4(48)",
    "phone_number": "+48672632657",
    "source_url": "https://www.google.com/maps/place/Z%C5%82ot%C3%B3w+-+spo%C5%BCywczy+sklep+internetowy+z+dostaw%C4%85+do+domu/data=!4m7!3m6!1s0x4703c5a171b79e75:0x170a96195f1e41c4!8m2!3d53.3587599!4d17.0541689!16s%2Fg%2F11b6_d7zpv!19sChIJdZ63caHFA0cRxEEeXxmWChc?authuser=0&hl=tr&rclk=1",
    "website_url": "",
    "rating_text": "4,4",
    "stars": null,
    "number_of_reviews": null,
    "price_level": "",
    "open_hours": "",
    "extraction_timestamp": "2025-06-07T17:59:29.458Z",
    "source_name": "google",
    "source_query": "Irrigation Equipment",
    "source_country": "PL",
    "country": "Poland",
    "state": "Greater Poland Voivodeship",
    "city": "Złotów"
  },
  {
    "source_id": "ChIJbz4PoDnFA0cRMQC8XHjxlTQ",
    "name": "Drinks Dyskont Alkoholowy",
    "category": "Drinks Dyskont Alkoholowy",
    "formatted_address": "4,7(21)",
    "phone_number": "+48512049907",
    "source_url": "https://www.google.com/maps/place/Drinks+Dyskont+Alkoholowy/data=!4m7!3m6!1s0x4703c539a00f3e6f:0x3495f1785cbc0031!8m2!3d53.3566746!4d17.0455918!16s%2Fg%2F11j0twlhjh!19sChIJbz4PoDnFA0cRMQC8XHjxlTQ?authuser=0&hl=tr&rclk=1",
    "website_url": "",
    "rating_text": "4,7",
    "stars": null,
    "number_of_reviews": null,
    "price_level": "",
    "open_hours": "",
    "extraction_timestamp": "2025-06-07T17:59:29.459Z",
    "source_name": "google",
    "source_query": "Irrigation Equipment",
    "source_country": "PL",
    "country": "Poland",
    "state": "Greater Poland Voivodeship",
    "city": "Złotów"
  },
  {
    "source_id": "ChIJUbhdUCTFA0cRJw2JdgwEzoE",
    "name": "Myjnia Bezdotykowa Ehrle",
    "category": "Myjnia Bezdotykowa Ehrle",
    "formatted_address": "4,4(96)",
    "phone_number": "+48668428576",
    "source_url": "https://www.google.com/maps/place/Myjnia+Bezdotykowa+Ehrle/data=!4m7!3m6!1s0x4703c524505db851:0x81ce040c76890d27!8m2!3d53.3549749!4d17.0466564!16s%2Fg%2F11kgr05bpd!19sChIJUbhdUCTFA0cRJw2JdgwEzoE?authuser=0&hl=tr&rclk=1",
    "website_url": "",
    "rating_text": "4,4",
    "stars": null,
    "number_of_reviews": null,
    "price_level": "",
    "open_hours": "",
    "extraction_timestamp": "2025-06-07T17:59:29.460Z",
    "source_name": "google",
    "source_query": "Irrigation Equipment",
    "source_country": "PL",
    "country": "Poland",
    "state": "Greater Poland Voivodeship",
    "city": "Złotów"
  },
  {
    "source_id": "ChIJL_GSoX7FA0cRkLIJHGPuwfc",
    "name": "THE ZOO",
    "category": "THE ZOO",
    "formatted_address": "4,1(31)",
    "phone_number": "+48796590560",
    "source_url": "https://www.google.com/maps/place/THE+ZOO/data=!4m7!3m6!1s0x4703c57ea192f12f:0xf7c1ee631c09b290!8m2!3d53.3572927!4d17.0450924!16s%2Fg%2F11vkrx1c8z!19sChIJL_GSoX7FA0cRkLIJHGPuwfc?authuser=0&hl=tr&rclk=1",
    "website_url": "",
    "rating_text": "4,1",
    "stars": null,
    "number_of_reviews": null,
    "price_level": "",
    "open_hours": "",
    "extraction_timestamp": "2025-06-07T17:59:29.460Z",
    "source_name": "google",
    "source_query": "Irrigation Equipment",
    "source_country": "PL",
    "country": "Poland",
    "state": "Greater Poland Voivodeship",
    "city": "Złotów"
  },
  {
    "source_id": "ChIJzSNDTQrFA0cRKvwEBfBU878",
    "name": "W.P.H.U. \"Delfin\" Sklep zoologiczny - Złotów",
    "category": "W.P.H.U. \"Delfin\" Sklep zoologiczny - Złotów",
    "formatted_address": "4,2(138)",
    "phone_number": "+48692447068",
    "source_url": "https://www.google.com/maps/place/W.P.H.U.+%22Delfin%22+Sklep+zoologiczny+-+Z%C5%82ot%C3%B3w/data=!4m7!3m6!1s0x4703c50a4d4323cd:0xbff354f00504fc2a!8m2!3d53.3633924!4d17.0372758!16s%2Fg%2F1tmpcmtc!19sChIJzSNDTQrFA0cRKvwEBfBU878?authuser=0&hl=tr&rclk=1",
    "website_url": "",
    "rating_text": "4,2",
    "stars": null,
    "number_of_reviews": null,
    "price_level": "",
    "open_hours": "",
    "extraction_timestamp": "2025-06-07T17:59:29.461Z",
    "source_name": "google",
    "source_query": "Irrigation Equipment",
    "source_country": "PL",
    "country": "Poland",
    "state": "Greater Poland Voivodeship",
    "city": "Złotów"
  },
  {
    "source_id": "ChIJQ2UA3AzFA0cR92L5uW4gGAo",
    "name": "świat Smaków",
    "category": "świat Smaków",
    "formatted_address": "4,9(77)",
    "phone_number": "+48672633076",
    "source_url": "https://www.google.com/maps/place/%C5%9Bwiat+Smak%C3%B3w/data=!4m7!3m6!1s0x4703c50cdc006543:0xa18206eb9f962f7!8m2!3d53.3635138!4d17.0387979!16s%2Fg%2F11b6c4_mfy!19sChIJQ2UA3AzFA0cR92L5uW4gGAo?authuser=0&hl=tr&rclk=1",
    "website_url": "",
    "rating_text": "4,9",
    "stars": null,
    "number_of_reviews": null,
    "price_level": "",
    "open_hours": "",
    "extraction_timestamp": "2025-06-07T17:59:29.462Z",
    "source_name": "google",
    "source_query": "Irrigation Equipment",
    "source_country": "PL",
    "country": "Poland",
    "state": "Greater Poland Voivodeship",
    "city": "Złotów"
  },
  {
    "source_id": "ChIJkZEL0ZrFA0cRk2lNIogDj00",
    "name": "Myjnia Bezdotykowa Ósemka",
    "category": "Myjnia Bezdotykowa Ósemka",
    "formatted_address": "5,0(7)",
    "phone_number": "+48574888908",
    "source_url": "https://www.google.com/maps/place/Myjnia+Bezdotykowa+%C3%93semka/data=!4m7!3m6!1s0x4703c59ad10b9191:0x4d8f0388224d6993!8m2!3d53.3577295!4d17.050071!16s%2Fg%2F11ycm29hcw!19sChIJkZEL0ZrFA0cRk2lNIogDj00?authuser=0&hl=tr&rclk=1",
    "website_url": "",
    "rating_text": "5,0",
    "stars": null,
    "number_of_reviews": null,
    "price_level": "",
    "open_hours": "",
    "extraction_timestamp": "2025-06-07T17:59:29.463Z",
    "source_name": "google",
    "source_query": "Irrigation Equipment",
    "source_country": "PL",
    "country": "Poland",
    "state": "Greater Poland Voivodeship",
    "city": "Złotów"
  },
  {
    "source_id": "ChIJRYSVnT7FA0cREDAjPyWx1YE",
    "name": "ZOO Kimbra",
    "category": "ZOO Kimbra",
    "formatted_address": "5,0(22)",
    "phone_number": "",
    "source_url": "https://www.google.com/maps/place/ZOO+Kimbra/data=!4m7!3m6!1s0x4703c53e9d958445:0x81d5b1253f233010!8m2!3d53.3590066!4d17.0458278!16s%2Fg%2F11smkczt3v!19sChIJRYSVnT7FA0cREDAjPyWx1YE?authuser=0&hl=tr&rclk=1",
    "website_url": "",
    "rating_text": "5,0",
    "stars": null,
    "number_of_reviews": null,
    "price_level": "",
    "open_hours": "",
    "extraction_timestamp": "2025-06-07T17:59:29.463Z",
    "source_name": "google",
    "source_query": "Irrigation Equipment",
    "source_country": "PL",
    "country": "Poland",
    "state": "Greater Poland Voivodeship",
    "city": "Złotów"
  }
]
