[
  {
    "source_id": "ChIJcc9hA9i-A0cRXQqpKbnnaV0",
    "name": "Sklep rolniczo-techniczny Powered by Kramp Łobżenica",
    "category": "Sklep rolniczo-techniczny Powered by Kramp Łobżenica",
    "formatted_address": "4,3(15)",
    "phone_number": "+48883391402",
    "source_url": "https://www.google.com/maps/place/Sklep+rolniczo-techniczny+Powered+by+Kramp+%C5%81ob%C5%BCenica/data=!4m7!3m6!1s0x4703bed80361cf71:0x5d69e7b929a90a5d!8m2!3d53.2551155!4d17.251219!16s%2Fg%2F11bbrjlz2s!19sChIJcc9hA9i-A0cRXQqpKbnnaV0?authuser=0&hl=tr&rclk=1",
    "website_url": "",
    "rating_text": "4,3",
    "stars": null,
    "number_of_reviews": null,
    "price_level": "",
    "open_hours": "",
    "extraction_timestamp": "2025-06-07T17:37:21.897Z",
    "source_name": "google",
    "source_query": "Irrigation Equipment",
    "source_country": "PL",
    "country": "Poland",
    "state": "Greater Poland Voivodeship",
    "city": "Łobżenica"
  },
  {
    "source_id": "ChIJf55ha9K-A0cRDgeBkmIm-gU",
    "name": "Agropol Adam Kowalski",
    "category": "Agropol Adam Kowalski",
    "formatted_address": "4,8(38)",
    "phone_number": "+48672861244",
    "source_url": "https://www.google.com/maps/place/Agropol+Adam+Kowalski/data=!4m7!3m6!1s0x4703bed26b619e7f:0x5fa26629281070e!8m2!3d53.2592758!4d17.2666285!16s%2Fg%2F1tdcq6qb!19sChIJf55ha9K-A0cRDgeBkmIm-gU?authuser=0&hl=tr&rclk=1",
    "website_url": "",
    "rating_text": "4,8",
    "stars": null,
    "number_of_reviews": null,
    "price_level": "",
    "open_hours": "",
    "extraction_timestamp": "2025-06-07T17:37:21.898Z",
    "source_name": "google",
    "source_query": "Irrigation Equipment",
    "source_country": "PL",
    "country": "Poland",
    "state": "Greater Poland Voivodeship",
    "city": "Łobżenica"
  },
  {
    "source_id": "ChIJOebHZWu_A0cRYkVamKaWO-M",
    "name": "Centrum Ogrodnicze Pluta",
    "category": "Centrum Ogrodnicze Pluta",
    "formatted_address": "5,0(1)",
    "phone_number": "+48666356608",
    "source_url": "https://www.google.com/maps/place/Centrum+Ogrodnicze+Pluta/data=!4m7!3m6!1s0x4703bf6b65c7e639:0xe33b96a6985a4562!8m2!3d53.2586479!4d17.2609005!16s%2Fg%2F11tx6nb8pn!19sChIJOebHZWu_A0cRYkVamKaWO-M?authuser=0&hl=tr&rclk=1",
    "website_url": "",
    "rating_text": "5,0",
    "stars": null,
    "number_of_reviews": null,
    "price_level": "",
    "open_hours": "",
    "extraction_timestamp": "2025-06-07T17:37:21.899Z",
    "source_name": "google",
    "source_query": "Irrigation Equipment",
    "source_country": "PL",
    "country": "Poland",
    "state": "Greater Poland Voivodeship",
    "city": "Łobżenica"
  },
  {
    "source_id": "ChIJLyG319S4A0cRD11CeMGJO_Y",
    "name": "Neumann Krzysztof. PW. Dodatki paszowe",
    "category": "Neumann Krzysztof. PW. Dodatki paszowe",
    "formatted_address": "4,8(18)",
    "phone_number": "+48672863233",
    "source_url": "https://www.google.com/maps/place/Neumann+Krzysztof.+PW.+Dodatki+paszowe/data=!4m7!3m6!1s0x4703b8d4d7b7212f:0xf63b89c178425d0f!8m2!3d53.2351847!4d17.2389349!16s%2Fg%2F1ptw82gp7!19sChIJLyG319S4A0cRD11CeMGJO_Y?authuser=0&hl=tr&rclk=1",
    "website_url": "",
    "rating_text": "4,8",
    "stars": null,
    "number_of_reviews": null,
    "price_level": "",
    "open_hours": "",
    "extraction_timestamp": "2025-06-07T17:37:21.900Z",
    "source_name": "google",
    "source_query": "Irrigation Equipment",
    "source_country": "PL",
    "country": "Poland",
    "state": "Greater Poland Voivodeship",
    "city": "Łobżenica"
  },
  {
    "source_id": "ChIJh2lEc9a-A0cRvTONGKm5PvA",
    "name": "Jerzy Warszawski Sklep Przemysłowo- Motoryzacyjny",
    "category": "Jerzy Warszawski Sklep Przemysłowo- Motoryzacyjny",
    "formatted_address": "4,3(41)",
    "phone_number": "",
    "source_url": "https://www.google.com/maps/place/Jerzy+Warszawski+Sklep+Przemys%C5%82owo-+Motoryzacyjny/data=!4m7!3m6!1s0x4703bed673446987:0xf03eb9a9188d33bd!8m2!3d53.259744!4d17.2554624!16s%2Fg%2F11c5bf372n!19sChIJh2lEc9a-A0cRvTONGKm5PvA?authuser=0&hl=tr&rclk=1",
    "website_url": "",
    "rating_text": "4,3",
    "stars": null,
    "number_of_reviews": null,
    "price_level": "",
    "open_hours": "",
    "extraction_timestamp": "2025-06-07T17:37:21.901Z",
    "source_name": "google",
    "source_query": "Irrigation Equipment",
    "source_country": "PL",
    "country": "Poland",
    "state": "Greater Poland Voivodeship",
    "city": "Łobżenica"
  },
  {
    "source_id": "ChIJudCr1y6_A0cRw-2ZK4Y9Eac",
    "name": "Ren-Wit. Łobżenica - chemia budowlana, narzędzia, DPD Pickup, czyszczenie dywanów i ubrań",
    "category": "Ren-Wit. Łobżenica - chemia budowlana, narzędzia, DPD Pickup, czyszczenie dywanów i ubrań",
    "formatted_address": "Ren-Wit. Łobżenica - chemia budowlana, narzędzia, DPD Pickup, czyszczenie dywanów i ubrań",
    "phone_number": "+48896502670",
    "source_url": "https://www.google.com/maps/place/Ren-Wit.+%C5%81ob%C5%BCenica+-+chemia+budowlana,+narz%C4%99dzia,+DPD+Pickup,+czyszczenie+dywan%C3%B3w+i+ubra%C5%84/data=!4m7!3m6!1s0x4703bf2ed7abd0b9:0xa7113d862b99edc3!8m2!3d53.2604827!4d17.2551644!16s%2Fg%2F1td9cg66!19sChIJudCr1y6_A0cRw-2ZK4Y9Eac?authuser=0&hl=tr&rclk=1",
    "website_url": "",
    "rating_text": "5,0",
    "stars": null,
    "number_of_reviews": null,
    "price_level": "",
    "open_hours": "",
    "extraction_timestamp": "2025-06-07T17:37:21.902Z",
    "source_name": "google",
    "source_query": "Irrigation Equipment",
    "source_country": "PL",
    "country": "Poland",
    "state": "Greater Poland Voivodeship",
    "city": "Łobżenica"
  },
  {
    "source_id": "ChIJRcE7A9i-A0cR--abQz5bkHs",
    "name": "Spar",
    "category": "Spar",
    "formatted_address": "3,9(137) · ₺",
    "phone_number": "+48608613934",
    "source_url": "https://www.google.com/maps/place/Spar/data=!4m7!3m6!1s0x4703bed8033bc145:0x7b905b3e439be6fb!8m2!3d53.2551155!4d17.251219!16s%2Fg%2F11c6qqgptb!19sChIJRcE7A9i-A0cR--abQz5bkHs?authuser=0&hl=tr&rclk=1",
    "website_url": "",
    "rating_text": "3,9",
    "stars": null,
    "number_of_reviews": null,
    "price_level": "",
    "open_hours": "",
    "extraction_timestamp": "2025-06-07T17:37:21.903Z",
    "source_name": "google",
    "source_query": "Irrigation Equipment",
    "source_country": "PL",
    "country": "Poland",
    "state": "Greater Poland Voivodeship",
    "city": "Łobżenica"
  },
  {
    "source_id": "ChIJX4TZR9a-A0cRSlG0YB6F9UI",
    "name": "AUTO - CZĘŚCI DŁUGOŁĘCKI",
    "category": "AUTO - CZĘŚCI DŁUGOŁĘCKI",
    "formatted_address": "4,8(48)",
    "phone_number": "+48692395750",
    "source_url": "https://www.google.com/maps/place/AUTO+-+CZ%C4%98%C5%9ACI+D%C5%81UGO%C5%81%C4%98CKI/data=!4m7!3m6!1s0x4703bed647d9845f:0x42f5851e60b4514a!8m2!3d53.257837!4d17.255184!16s%2Fg%2F1td_9cs9!19sChIJX4TZR9a-A0cRSlG0YB6F9UI?authuser=0&hl=tr&rclk=1",
    "website_url": "",
    "rating_text": "4,8",
    "stars": null,
    "number_of_reviews": null,
    "price_level": "",
    "open_hours": "",
    "extraction_timestamp": "2025-06-07T17:37:21.904Z",
    "source_name": "google",
    "source_query": "Irrigation Equipment",
    "source_country": "PL",
    "country": "Poland",
    "state": "Greater Poland Voivodeship",
    "city": "Łobżenica"
  },
  {
    "source_id": "ChIJc0RT01O_A0cRKrT1ZpkGxyI",
    "name": "Smakosz",
    "category": "Smakosz",
    "formatted_address": "4,0(8)",
    "phone_number": "",
    "source_url": "https://www.google.com/maps/place/Smakosz/data=!4m7!3m6!1s0x4703bf53d3534473:0x22c7069966f5b42a!8m2!3d53.2606461!4d17.2551821!16s%2Fg%2F11g19qf49q!19sChIJc0RT01O_A0cRKrT1ZpkGxyI?authuser=0&hl=tr&rclk=1",
    "website_url": "",
    "rating_text": "4,0",
    "stars": null,
    "number_of_reviews": null,
    "price_level": "",
    "open_hours": "",
    "extraction_timestamp": "2025-06-07T17:37:21.905Z",
    "source_name": "google",
    "source_query": "Irrigation Equipment",
    "source_country": "PL",
    "country": "Poland",
    "state": "Greater Poland Voivodeship",
    "city": "Łobżenica"
  },
  {
    "source_id": "ChIJXekF59W-A0cRXUnRKUneCJo",
    "name": "Fandrób. PHU. Maława E.",
    "category": "Fandrób. PHU. Maława E.",
    "formatted_address": "3,3(3)",
    "phone_number": "+48663744319",
    "source_url": "https://www.google.com/maps/place/Fandr%C3%B3b.+PHU.+Ma%C5%82awa+E./data=!4m7!3m6!1s0x4703bed5e705e95d:0x9a08de4929d1495d!8m2!3d53.2604366!4d17.2551257!16s%2Fg%2F1hc30tj1p!19sChIJXekF59W-A0cRXUnRKUneCJo?authuser=0&hl=tr&rclk=1",
    "website_url": "",
    "rating_text": "3,3",
    "stars": null,
    "number_of_reviews": null,
    "price_level": "",
    "open_hours": "",
    "extraction_timestamp": "2025-06-07T17:37:21.906Z",
    "source_name": "google",
    "source_query": "Irrigation Equipment",
    "source_country": "PL",
    "country": "Poland",
    "state": "Greater Poland Voivodeship",
    "city": "Łobżenica"
  },
  {
    "source_id": "ChIJM7rapte-A0cR1vfw26J054I",
    "name": "POP-LOz 1",
    "category": "POP-LOz 1",
    "formatted_address": "3,4(14)",
    "phone_number": "",
    "source_url": "https://www.google.com/maps/place/POP-LOz+1/data=!4m7!3m6!1s0x4703bed7a6daba33:0x82e774a2dbf0f7d6!8m2!3d53.256426!4d17.2549373!16s%2Fg%2F11hb03rvp_!19sChIJM7rapte-A0cR1vfw26J054I?authuser=0&hl=tr&rclk=1",
    "website_url": "",
    "rating_text": "3,4",
    "stars": null,
    "number_of_reviews": null,
    "price_level": "",
    "open_hours": "",
    "extraction_timestamp": "2025-06-07T17:37:21.906Z",
    "source_name": "google",
    "source_query": "Irrigation Equipment",
    "source_country": "PL",
    "country": "Poland",
    "state": "Greater Poland Voivodeship",
    "city": "Łobżenica"
  },
  {
    "source_id": "ChIJ18pQa9a-A0cR-5ct8FLAVS8",
    "name": "Lewiatan",
    "category": "Lewiatan",
    "formatted_address": "4,3(134)",
    "phone_number": "",
    "source_url": "https://www.google.com/maps/place/Lewiatan/data=!4m7!3m6!1s0x4703bed66b50cad7:0x2f55c052f02d97fb!8m2!3d53.2590744!4d17.2551738!16s%2Fg%2F1ptx90vwf!19sChIJ18pQa9a-A0cR-5ct8FLAVS8?authuser=0&hl=tr&rclk=1",
    "website_url": "",
    "rating_text": "4,3",
    "stars": null,
    "number_of_reviews": null,
    "price_level": "",
    "open_hours": "",
    "extraction_timestamp": "2025-06-07T17:37:21.907Z",
    "source_name": "google",
    "source_query": "Irrigation Equipment",
    "source_country": "PL",
    "country": "Poland",
    "state": "Greater Poland Voivodeship",
    "city": "Łobżenica"
  },
  {
    "source_id": "ChIJzdlyDwC_A0cRZxct3FX2v3s",
    "name": "Dino",
    "category": "Dino",
    "formatted_address": "3,8(17)",
    "phone_number": "",
    "source_url": "https://www.google.com/maps/place/Dino/data=!4m7!3m6!1s0x4703bf000f72d9cd:0x7bbff655dc2d1767!8m2!3d53.2529872!4d17.2471618!16s%2Fg%2F11vzchqncd!19sChIJzdlyDwC_A0cRZxct3FX2v3s?authuser=0&hl=tr&rclk=1",
    "website_url": "",
    "rating_text": "3,8",
    "stars": null,
    "number_of_reviews": null,
    "price_level": "",
    "open_hours": "",
    "extraction_timestamp": "2025-06-07T17:37:21.908Z",
    "source_name": "google",
    "source_query": "Irrigation Equipment",
    "source_country": "PL",
    "country": "Poland",
    "state": "Greater Poland Voivodeship",
    "city": "Łobżenica"
  },
  {
    "source_id": "ChIJXYJVtdW-A0cRii-3eqqgw6U",
    "name": "Biedronka",
    "category": "Biedronka",
    "formatted_address": "4,0(497)",
    "phone_number": "+48800080010",
    "source_url": "https://www.google.com/maps/place/Biedronka/data=!4m7!3m6!1s0x4703bed5b555825d:0xa5c3a0aa7ab72f8a!8m2!3d53.2610304!4d17.2583332!16s%2Fg%2F11dx9fszrc!19sChIJXYJVtdW-A0cRii-3eqqgw6U?authuser=0&hl=tr&rclk=1",
    "website_url": "",
    "rating_text": "4,0",
    "stars": null,
    "number_of_reviews": null,
    "price_level": "",
    "open_hours": "",
    "extraction_timestamp": "2025-06-07T17:37:21.909Z",
    "source_name": "google",
    "source_query": "Irrigation Equipment",
    "source_country": "PL",
    "country": "Poland",
    "state": "Greater Poland Voivodeship",
    "city": "Łobżenica"
  }
]
