[
  {
    "source_id": "ChIJT1w3DeSNBEcREYbbSj-cKIM",
    "name": "AGROM sp. z o.o.",
    "category": "AGROM sp. z o.o.",
    "formatted_address": "4,5(34)",
    "phone_number": "+48614275239",
    "source_url": "https://www.google.com/maps/place/AGROM+sp.+z+o.o./data=!4m7!3m6!1s0x47048de40d375c4f:0x83289c3f4adb8611!8m2!3d52.514301!4d17.468802!16s%2Fg%2F1vp6yx3h!19sChIJT1w3DeSNBEcREYbbSj-cKIM?authuser=0&hl=tr&rclk=1",
    "website_url": "https://www.agrom.pl/",
    "rating_text": "4,5",
    "stars": null,
    "number_of_reviews": null,
    "price_level": "",
    "open_hours": "",
    "extraction_timestamp": "2025-06-07T17:52:25.888Z",
    "source_name": "google",
    "source_query": "Irrigation Equipment",
    "source_country": "PL",
    "country": "Poland",
    "state": "Greater Poland Voivodeship",
    "city": "Łubowo"
  },
  {
    "source_id": "ChIJya8AkuGNBEcRmn4YDaT8GfU",
    "name": "ARMATURA \"EFEKT\" S.A.",
    "category": "ARMATURA \"EFEKT\" S.A.",
    "formatted_address": "3,0(2)",
    "phone_number": "+48614272245",
    "source_url": "https://www.google.com/maps/place/ARMATURA+%22EFEKT%22+S.A./data=!4m7!3m6!1s0x47048de19200afc9:0xf519fca40d187e9a!8m2!3d52.528009!4d17.4845186!16s%2Fg%2F1thvrd6_!19sChIJya8AkuGNBEcRmn4YDaT8GfU?authuser=0&hl=tr&rclk=1",
    "website_url": "http://www.efekt.gniezno.pl/",
    "rating_text": "3,0",
    "stars": null,
    "number_of_reviews": null,
    "price_level": "",
    "open_hours": "",
    "extraction_timestamp": "2025-06-07T17:52:25.889Z",
    "source_name": "google",
    "source_query": "Irrigation Equipment",
    "source_country": "PL",
    "country": "Poland",
    "state": "Greater Poland Voivodeship",
    "city": "Łubowo"
  },
  {
    "source_id": "ChIJJaUKWNl7G0cR7ntWKxioINo",
    "name": "Agricola Hydraulika Siłowa",
    "category": "Agricola Hydraulika Siłowa",
    "formatted_address": "4,6(239)",
    "phone_number": "+48542844000",
    "source_url": "https://www.google.com/maps/place/Agricola+Hydraulika+Si%C5%82owa/data=!4m7!3m6!1s0x471b7bd9580aa525:0xda20a8182b567bee!8m2!3d52.4025839!4d19.1676066!16s%2Fg%2F1tk8mbkz!19sChIJJaUKWNl7G0cR7ntWKxioINo?authuser=0&hl=tr&rclk=1",
    "website_url": "http://www.sklepdlarolnika.pl/",
    "rating_text": "4,6",
    "stars": null,
    "number_of_reviews": null,
    "price_level": "",
    "open_hours": "",
    "extraction_timestamp": "2025-06-07T17:52:25.890Z",
    "source_name": "google",
    "source_query": "Irrigation Equipment",
    "source_country": "PL",
    "country": "Poland",
    "state": "Greater Poland Voivodeship",
    "city": "Łubowo"
  },
  {
    "source_id": "ChIJFVCITOVPBEcRG-lA_g1qlqk",
    "name": "Technika Wody",
    "category": "Technika Wody",
    "formatted_address": "4,6(288)",
    "phone_number": "+48502506622",
    "source_url": "https://www.google.com/maps/place/Technika+Wody/data=!4m7!3m6!1s0x47044fe54c885015:0xa9966a0dfe40e91b!8m2!3d52.3740842!4d16.819808!16s%2Fg%2F11b7vsdjf5!19sChIJFVCITOVPBEcRG-lA_g1qlqk?authuser=0&hl=tr&rclk=1",
    "website_url": "http://technikawody.pl/",
    "rating_text": "4,6",
    "stars": null,
    "number_of_reviews": null,
    "price_level": "",
    "open_hours": "",
    "extraction_timestamp": "2025-06-07T17:52:25.891Z",
    "source_name": "google",
    "source_query": "Irrigation Equipment",
    "source_country": "PL",
    "country": "Poland",
    "state": "Greater Poland Voivodeship",
    "city": "Łubowo"
  },
  {
    "source_id": "ChIJB6y_v5J2HEcRlDfYx3xmc9M",
    "name": "Milex irrigation systems",
    "category": "Milex irrigation systems",
    "formatted_address": "4,6(37)",
    "phone_number": "+48242775222",
    "source_url": "https://www.google.com/maps/place/Milex+irrigation+systems/data=!4m7!3m6!1s0x471c7692bfbfac07:0xd373667cc7d83794!8m2!3d52.4690634!4d19.7520904!16s%2Fg%2F1w2yy67r!19sChIJB6y_v5J2HEcRlDfYx3xmc9M?authuser=0&hl=tr&rclk=1",
    "website_url": "https://www.milex.pl/",
    "rating_text": "4,6",
    "stars": null,
    "number_of_reviews": null,
    "price_level": "",
    "open_hours": "",
    "extraction_timestamp": "2025-06-07T17:52:25.893Z",
    "source_name": "google",
    "source_query": "Irrigation Equipment",
    "source_country": "PL",
    "country": "Poland",
    "state": "Greater Poland Voivodeship",
    "city": "Łubowo"
  },
  {
    "source_id": "ChIJtzXm1cKNBEcRpgZWh2hjKqU",
    "name": "Mistral - Chłodnictwo",
    "category": "Mistral - Chłodnictwo",
    "formatted_address": "5,0(2)",
    "phone_number": "+48693554943",
    "source_url": "https://www.google.com/maps/place/Mistral+-+Ch%C5%82odnictwo/data=!4m7!3m6!1s0x47048dc2d5e635b7:0xa52a6368875606a6!8m2!3d52.5147829!4d17.467574!16s%2Fg%2F11fm16n6mc!19sChIJtzXm1cKNBEcRpgZWh2hjKqU?authuser=0&hl=tr&rclk=1",
    "website_url": "http://mistral-chlodnictwo.pl/",
    "rating_text": "5,0",
    "stars": null,
    "number_of_reviews": null,
    "price_level": "",
    "open_hours": "",
    "extraction_timestamp": "2025-06-07T17:52:25.893Z",
    "source_name": "google",
    "source_query": "Irrigation Equipment",
    "source_country": "PL",
    "country": "Poland",
    "state": "Greater Poland Voivodeship",
    "city": "Łubowo"
  },
  {
    "source_id": "ChIJ99-KcwCNBEcRBttRymsjFec",
    "name": "Łubowo IV",
    "category": "Łubowo IV",
    "formatted_address": "5,0(2)",
    "phone_number": "",
    "source_url": "https://www.google.com/maps/place/%C5%81ubowo+IV/data=!4m7!3m6!1s0x47048d00738adff7:0xe715236bca51db06!8m2!3d52.5016245!4d17.4362643!16s%2Fg%2F11wg95bbbx!19sChIJ99-KcwCNBEcRBttRymsjFec?authuser=0&hl=tr&rclk=1",
    "website_url": "",
    "rating_text": "5,0",
    "stars": null,
    "number_of_reviews": null,
    "price_level": "",
    "open_hours": "",
    "extraction_timestamp": "2025-06-07T17:52:25.894Z",
    "source_name": "google",
    "source_query": "Irrigation Equipment",
    "source_country": "PL",
    "country": "Poland",
    "state": "Greater Poland Voivodeship",
    "city": "Łubowo"
  },
  {
    "source_id": "ChIJeZgY1xqRBEcRpcLMUkxBkfI",
    "name": "Ha-Two-O Paweł Filipiak",
    "category": "Ha-Two-O Paweł Filipiak",
    "formatted_address": "4,8(101)",
    "phone_number": "+48575579000",
    "source_url": "https://www.google.com/maps/place/Ha-Two-O+Pawe%C5%82+Filipiak/data=!4m7!3m6!1s0x4704911ad7189879:0xf291414c52ccc2a5!8m2!3d52.5491138!4d17.555824!16s%2Fg%2F1x6q0ggt!19sChIJeZgY1xqRBEcRpcLMUkxBkfI?authuser=0&hl=tr&rclk=1",
    "website_url": "https://www.ha-dwa-o.pl/",
    "rating_text": "4,8",
    "stars": null,
    "number_of_reviews": null,
    "price_level": "",
    "open_hours": "",
    "extraction_timestamp": "2025-06-07T17:52:25.895Z",
    "source_name": "google",
    "source_query": "Irrigation Equipment",
    "source_country": "PL",
    "country": "Poland",
    "state": "Greater Poland Voivodeship",
    "city": "Łubowo"
  }
]
