[
  {
    "source_id": "ChIJKasctIS5BUcReGZjmggxnME",
    "name": "Firma Handlowa RYNMAR Tadeusz Cichoszewski",
    "category": "Firma Handlowa RYNMAR Tadeusz Cichoszewski",
    "formatted_address": "4,8(4)",
    "phone_number": "+48655180598",
    "source_url": "https://www.google.com/maps/place/Firma+Handlowa+RYNMAR+Tadeusz+Cichoszewski/data=!4m7!3m6!1s0x4705b984b41cab29:0xc19c31089a636678!8m2!3d52.0159304!4d16.5205747!16s%2Fg%2F1tlc6s5w!19sChIJKasctIS5BUcReGZjmggxnME?authuser=0&hl=tr&rclk=1",
    "website_url": "",
    "rating_text": "4,8",
    "stars": null,
    "number_of_reviews": null,
    "price_level": "",
    "open_hours": "",
    "extraction_timestamp": "2025-06-07T17:41:32.640Z",
    "source_name": "google",
    "source_query": "Irrigation Equipment",
    "source_country": "PL",
    "country": "Poland",
    "state": "Greater Poland Voivodeship",
    "city": "Śmigiel"
  },
  {
    "source_id": "ChIJgQ_ZBZa5BUcRnDliZhoCHAY",
    "name": "Ogrody Adamczewski - wypożyczalnia, trawa z rolki i skład kamienia",
    "category": "Ogrody Adamczewski - wypożyczalnia, trawa z rolki i skład kamienia",
    "formatted_address": "Ogrody Adamczewski - wypożyczalnia, trawa z rolki i skład kamienia",
    "phone_number": "+48789334284",
    "source_url": "https://www.google.com/maps/place/Ogrody+Adamczewski+-+wypo%C5%BCyczalnia,+trawa+z+rolki+i+sk%C5%82ad+kamienia/data=!4m7!3m6!1s0x4705b99605d90f81:0x61c021a6662399c!8m2!3d52.0071886!4d16.5182745!16s%2Fg%2F11j5z1mz2w!19sChIJgQ_ZBZa5BUcRnDliZhoCHAY?authuser=0&hl=tr&rclk=1",
    "website_url": "",
    "rating_text": "4,9",
    "stars": null,
    "number_of_reviews": null,
    "price_level": "",
    "open_hours": "",
    "extraction_timestamp": "2025-06-07T17:41:32.641Z",
    "source_name": "google",
    "source_query": "Irrigation Equipment",
    "source_country": "PL",
    "country": "Poland",
    "state": "Greater Poland Voivodeship",
    "city": "Śmigiel"
  },
  {
    "source_id": "ChIJQwIJm9e7BUcRx7B8swInoQw",
    "name": "Hurtownia instalacyjna KOTŁOWNIA s.c.",
    "category": "Hurtownia instalacyjna KOTŁOWNIA s.c.",
    "formatted_address": "4,7(36)",
    "phone_number": "+48570497715",
    "source_url": "https://www.google.com/maps/place/Hurtownia+instalacyjna+KOT%C5%81OWNIA+s.c./data=!4m7!3m6!1s0x4705bbd79b090243:0xca12702b37cb0c7!8m2!3d51.9983253!4d16.5288199!16s%2Fg%2F11f55z8gw2!19sChIJQwIJm9e7BUcRx7B8swInoQw?authuser=0&hl=tr&rclk=1",
    "website_url": "",
    "rating_text": "4,7",
    "stars": null,
    "number_of_reviews": null,
    "price_level": "",
    "open_hours": "",
    "extraction_timestamp": "2025-06-07T17:41:32.642Z",
    "source_name": "google",
    "source_query": "Irrigation Equipment",
    "source_country": "PL",
    "country": "Poland",
    "state": "Greater Poland Voivodeship",
    "city": "Śmigiel"
  },
  {
    "source_id": "ChIJaQ2SFn-7BUcR4l51aBSm9Ko",
    "name": "\"u Wiechcia\" Śmigiel",
    "category": "\"u Wiechcia\" Śmigiel",
    "formatted_address": "4,5(76)",
    "phone_number": "+48789267958",
    "source_url": "https://www.google.com/maps/place/%22u+Wiechcia%22+%C5%9Amigiel/data=!4m7!3m6!1s0x4705bb7f16920d69:0xaaf4a61468755ee2!8m2!3d52.0003509!4d16.528719!16s%2Fg%2F11rg8stk21!19sChIJaQ2SFn-7BUcR4l51aBSm9Ko?authuser=0&hl=tr&rclk=1",
    "website_url": "",
    "rating_text": "4,5",
    "stars": null,
    "number_of_reviews": null,
    "price_level": "",
    "open_hours": "",
    "extraction_timestamp": "2025-06-07T17:41:32.644Z",
    "source_name": "google",
    "source_query": "Irrigation Equipment",
    "source_country": "PL",
    "country": "Poland",
    "state": "Greater Poland Voivodeship",
    "city": "Śmigiel"
  },
  {
    "source_id": "ChIJUWu_dt25BUcRNz5HgVaWSMI",
    "name": "HYDRO-MATI Mateusz Szulc",
    "category": "HYDRO-MATI Mateusz Szulc",
    "formatted_address": "5,0(6)",
    "phone_number": "+48723912155",
    "source_url": "https://www.google.com/maps/place/HYDRO-MATI+Mateusz+Szulc/data=!4m7!3m6!1s0x4705b9dd76bf6b51:0xc248965681473e37!8m2!3d52.0120277!4d16.5316417!16s%2Fg%2F11q3s6v6m3!19sChIJUWu_dt25BUcRNz5HgVaWSMI?authuser=0&hl=tr&rclk=1",
    "website_url": "",
    "rating_text": "5,0",
    "stars": null,
    "number_of_reviews": null,
    "price_level": "",
    "open_hours": "",
    "extraction_timestamp": "2025-06-07T17:41:32.645Z",
    "source_name": "google",
    "source_query": "Irrigation Equipment",
    "source_country": "PL",
    "country": "Poland",
    "state": "Greater Poland Voivodeship",
    "city": "Śmigiel"
  },
  {
    "source_id": "ChIJSa8ORpu5BUcRBXdq_7-mSZw",
    "name": "Centrum Ogrodnicze Jankowski",
    "category": "Centrum Ogrodnicze Jankowski",
    "formatted_address": "4,6(149)",
    "phone_number": "+48655180274",
    "source_url": "https://www.google.com/maps/place/Centrum+Ogrodnicze+Jankowski/data=!4m7!3m6!1s0x4705b99b460eaf49:0x9c49a6bfff6a7705!8m2!3d52.0167974!4d16.5174111!16s%2Fg%2F1vcjkyz3!19sChIJSa8ORpu5BUcRBXdq_7-mSZw?authuser=0&hl=tr&rclk=1",
    "website_url": "",
    "rating_text": "4,6",
    "stars": null,
    "number_of_reviews": null,
    "price_level": "",
    "open_hours": "",
    "extraction_timestamp": "2025-06-07T17:41:32.646Z",
    "source_name": "google",
    "source_query": "Irrigation Equipment",
    "source_country": "PL",
    "country": "Poland",
    "state": "Greater Poland Voivodeship",
    "city": "Śmigiel"
  },
  {
    "source_id": "ChIJe1TJVoG5BUcR6BAzbRfhpRo",
    "name": "Market \"Pod wiatrakiem\"",
    "category": "Market \"Pod wiatrakiem\"",
    "formatted_address": "4,4(42)",
    "phone_number": "",
    "source_url": "https://www.google.com/maps/place/Market+%22Pod+wiatrakiem%22/data=!4m7!3m6!1s0x4705b98156c9547b:0x1aa5e1176d3310e8!8m2!3d52.01355!4d16.5269807!16s%2Fg%2F11fy_nf09y!19sChIJe1TJVoG5BUcR6BAzbRfhpRo?authuser=0&hl=tr&rclk=1",
    "website_url": "",
    "rating_text": "4,4",
    "stars": null,
    "number_of_reviews": null,
    "price_level": "",
    "open_hours": "",
    "extraction_timestamp": "2025-06-07T17:41:32.647Z",
    "source_name": "google",
    "source_query": "Irrigation Equipment",
    "source_country": "PL",
    "country": "Poland",
    "state": "Greater Poland Voivodeship",
    "city": "Śmigiel"
  },
  {
    "source_id": "ChIJR4XgKum5BUcRk4qLNXocWVw",
    "name": "Targ Śmigiel",
    "category": "Targ Śmigiel",
    "formatted_address": "4,5(302)",
    "phone_number": "",
    "source_url": "https://www.google.com/maps/place/Targ+%C5%9Amigiel/data=!4m7!3m6!1s0x4705b9e92ae08547:0x5c591c7a358b8a93!8m2!3d52.0138255!4d16.5222426!16s%2Fg%2F11gyxh430_!19sChIJR4XgKum5BUcRk4qLNXocWVw?authuser=0&hl=tr&rclk=1",
    "website_url": "",
    "rating_text": "4,5",
    "stars": null,
    "number_of_reviews": null,
    "price_level": "",
    "open_hours": "",
    "extraction_timestamp": "2025-06-07T17:41:32.648Z",
    "source_name": "google",
    "source_query": "Irrigation Equipment",
    "source_country": "PL",
    "country": "Poland",
    "state": "Greater Poland Voivodeship",
    "city": "Śmigiel"
  },
  {
    "source_id": "ChIJUatKRX65BUcROWUHxywc7-4",
    "name": "POLOmarket",
    "category": "POLOmarket",
    "formatted_address": "4,3(219)",
    "phone_number": "+48518011110",
    "source_url": "https://www.google.com/maps/place/POLOmarket/data=!4m7!3m6!1s0x4705b97e454aab51:0xeeef1c2cc7076539!8m2!3d52.0049383!4d16.5257697!16s%2Fg%2F11bbrk_fnd!19sChIJUatKRX65BUcROWUHxywc7-4?authuser=0&hl=tr&rclk=1",
    "website_url": "",
    "rating_text": "4,3",
    "stars": null,
    "number_of_reviews": null,
    "price_level": "",
    "open_hours": "",
    "extraction_timestamp": "2025-06-07T17:41:32.649Z",
    "source_name": "google",
    "source_query": "Irrigation Equipment",
    "source_country": "PL",
    "country": "Poland",
    "state": "Greater Poland Voivodeship",
    "city": "Śmigiel"
  },
  {
    "source_id": "ChIJf6gKZ4G5BUcRCoBNKItP0f4",
    "name": "Rynek",
    "category": "Rynek",
    "formatted_address": "4,4(959)",
    "phone_number": "",
    "source_url": "https://www.google.com/maps/place/Rynek/data=!4m7!3m6!1s0x4705b981670aa87f:0xfed14f8b284d800a!8m2!3d52.0128555!4d16.5268949!16s%2Fg%2F11b73q_96x!19sChIJf6gKZ4G5BUcRCoBNKItP0f4?authuser=0&hl=tr&rclk=1",
    "website_url": "",
    "rating_text": "4,4",
    "stars": null,
    "number_of_reviews": null,
    "price_level": "",
    "open_hours": "",
    "extraction_timestamp": "2025-06-07T17:41:32.650Z",
    "source_name": "google",
    "source_query": "Irrigation Equipment",
    "source_country": "PL",
    "country": "Poland",
    "state": "Greater Poland Voivodeship",
    "city": "Śmigiel"
  },
  {
    "source_id": "ChIJiXaxO-K5BUcRWySAH6gCmIE",
    "name": "Na Garnuszku",
    "category": "Na Garnuszku",
    "formatted_address": "4,9(130) · zł 20–40",
    "phone_number": "+48603181841",
    "source_url": "https://www.google.com/maps/place/Na+Garnuszku/data=!4m7!3m6!1s0x4705b9e23bb17689:0x819802a81f80245b!8m2!3d52.0169706!4d16.5197794!16s%2Fg%2F11gxs241p9!19sChIJiXaxO-K5BUcRWySAH6gCmIE?authuser=0&hl=tr&rclk=1",
    "website_url": "",
    "rating_text": "4,9",
    "stars": null,
    "number_of_reviews": null,
    "price_level": "",
    "open_hours": "",
    "extraction_timestamp": "2025-06-07T17:41:32.653Z",
    "source_name": "google",
    "source_query": "Irrigation Equipment",
    "source_country": "PL",
    "country": "Poland",
    "state": "Greater Poland Voivodeship",
    "city": "Śmigiel"
  },
  {
    "source_id": "ChIJA1MHymK5BUcRWSzrOGRbNZM",
    "name": "LasCorals Akwarystyka Morska",
    "category": "LasCorals Akwarystyka Morska",
    "formatted_address": "5,0(13)",
    "phone_number": "+48608353030",
    "source_url": "https://www.google.com/maps/place/LasCorals+Akwarystyka+Morska/data=!4m7!3m6!1s0x4705b962ca075303:0x93355b6438eb2c59!8m2!3d52.0088384!4d16.5267892!16s%2Fg%2F11wfsl0g8h!19sChIJA1MHymK5BUcRWSzrOGRbNZM?authuser=0&hl=tr&rclk=1",
    "website_url": "",
    "rating_text": "5,0",
    "stars": null,
    "number_of_reviews": null,
    "price_level": "",
    "open_hours": "",
    "extraction_timestamp": "2025-06-07T17:41:32.654Z",
    "source_name": "google",
    "source_query": "Irrigation Equipment",
    "source_country": "PL",
    "country": "Poland",
    "state": "Greater Poland Voivodeship",
    "city": "Śmigiel"
  },
  {
    "source_id": "ChIJNfLvRp25BUcRPVDUWBxw9iM",
    "name": "Drogeria Vica",
    "category": "Drogeria Vica",
    "formatted_address": "4,6(60)",
    "phone_number": "+48661946770",
    "source_url": "https://www.google.com/maps/place/Drogeria+Vica/data=!4m7!3m6!1s0x4705b99d46eff235:0x23f6701c58d4503d!8m2!3d52.0113965!4d16.5152276!16s%2Fg%2F11g8bv6phx!19sChIJNfLvRp25BUcRPVDUWBxw9iM?authuser=0&hl=tr&rclk=1",
    "website_url": "",
    "rating_text": "4,6",
    "stars": null,
    "number_of_reviews": null,
    "price_level": "",
    "open_hours": "",
    "extraction_timestamp": "2025-06-07T17:41:32.655Z",
    "source_name": "google",
    "source_query": "Irrigation Equipment",
    "source_country": "PL",
    "country": "Poland",
    "state": "Greater Poland Voivodeship",
    "city": "Śmigiel"
  },
  {
    "source_id": "ChIJMQ8K7EG4BUcR9P1K91x8hWE",
    "name": "Sklep Sp. z o.o.",
    "category": "Sklep Sp. z o.o.",
    "formatted_address": "4,8(38)",
    "phone_number": "",
    "source_url": "https://www.google.com/maps/place/Sklep+Sp.+z+o.o./data=!4m7!3m6!1s0x4705b841ec0a0f31:0x61857c5cf74afdf4!8m2!3d51.9949811!4d16.5319689!16s%2Fg%2F11gg70s5wp!19sChIJMQ8K7EG4BUcR9P1K91x8hWE?authuser=0&hl=tr&rclk=1",
    "website_url": "",
    "rating_text": "4,8",
    "stars": null,
    "number_of_reviews": null,
    "price_level": "",
    "open_hours": "",
    "extraction_timestamp": "2025-06-07T17:41:32.656Z",
    "source_name": "google",
    "source_query": "Irrigation Equipment",
    "source_country": "PL",
    "country": "Poland",
    "state": "Greater Poland Voivodeship",
    "city": "Śmigiel"
  },
  {
    "source_id": "ChIJJX4kdP6oBUcRgBCQ2j4_m7g",
    "name": "INSTAL-FILTER SA Industrial Systems Air Protection",
    "category": "INSTAL-FILTER SA Industrial Systems Air Protection",
    "formatted_address": "3,3(10)",
    "phone_number": "+48655351200",
    "source_url": "https://www.google.com/maps/place/INSTAL-FILTER+SA+Industrial+Systems+Air+Protection/data=!4m7!3m6!1s0x4705a8fe74247e25:0xb89b3f3eda901080!8m2!3d52.0898624!4d16.6636458!16s%2Fg%2F11c52ybp21!19sChIJJX4kdP6oBUcRgBCQ2j4_m7g?authuser=0&hl=tr&rclk=1",
    "website_url": "",
    "rating_text": "3,3",
    "stars": null,
    "number_of_reviews": null,
    "price_level": "",
    "open_hours": "",
    "extraction_timestamp": "2025-06-07T17:41:32.657Z",
    "source_name": "google",
    "source_query": "Irrigation Equipment",
    "source_country": "PL",
    "country": "Poland",
    "state": "Greater Poland Voivodeship",
    "city": "Śmigiel"
  },
  {
    "source_id": "ChIJtcIfsrU1BEcRhAzZEVThp5o",
    "name": "NDS Nawadnianie",
    "category": "NDS Nawadnianie",
    "formatted_address": "4,4(14)",
    "phone_number": "+48618140398",
    "source_url": "https://www.google.com/maps/place/NDS+Nawadnianie/data=!4m7!3m6!1s0x470435b5b21fc2b5:0x9aa7e15411d90c84!8m2!3d52.2906716!4d16.515175!16s%2Fg%2F1td5kd4g!19sChIJtcIfsrU1BEcRhAzZEVThp5o?authuser=0&hl=tr&rclk=1",
    "website_url": "",
    "rating_text": "4,4",
    "stars": null,
    "number_of_reviews": null,
    "price_level": "",
    "open_hours": "",
    "extraction_timestamp": "2025-06-07T17:41:32.658Z",
    "source_name": "google",
    "source_query": "Irrigation Equipment",
    "source_country": "PL",
    "country": "Poland",
    "state": "Greater Poland Voivodeship",
    "city": "Śmigiel"
  },
  {
    "source_id": "ChIJWxczv4a5BUcR_xYzhy5bsQc",
    "name": "Aquazoo, sprzedaż internetowa artykułów zoologicznych",
    "category": "Aquazoo, sprzedaż internetowa artykułów zoologicznych",
    "formatted_address": "Aquazoo, sprzedaż internetowa artykułów zoologicznych",
    "phone_number": "+48732251222",
    "source_url": "https://www.google.com/maps/place/Aquazoo,+sprzeda%C5%BC+internetowa+artyku%C5%82%C3%B3w+zoologicznych/data=!4m7!3m6!1s0x4705b986bf33175b:0x7b15b2e873316ff!8m2!3d52.0147221!4d16.5290699!16s%2Fg%2F1q6qdwx_x!19sChIJWxczv4a5BUcR_xYzhy5bsQc?authuser=0&hl=tr&rclk=1",
    "website_url": "",
    "rating_text": "4,8",
    "stars": null,
    "number_of_reviews": null,
    "price_level": "",
    "open_hours": "",
    "extraction_timestamp": "2025-06-07T17:41:32.659Z",
    "source_name": "google",
    "source_query": "Irrigation Equipment",
    "source_country": "PL",
    "country": "Poland",
    "state": "Greater Poland Voivodeship",
    "city": "Śmigiel"
  },
  {
    "source_id": "ChIJMwYKe5u5BUcRPcMInOs9QFk",
    "name": "Łatka Patrycja, Grzelak Julita. Sklep spożywczy s.c.",
    "category": "Łatka Patrycja, Grzelak Julita. Sklep spożywczy s.c.",
    "formatted_address": "Łatka Patrycja, Grzelak Julita. Sklep spożywczy s.c.",
    "phone_number": "+48661971949",
    "source_url": "https://www.google.com/maps/place/%C5%81atka+Patrycja,+Grzelak+Julita.+Sklep+spo%C5%BCywczy+s.c./data=!4m7!3m6!1s0x4705b99b7b0a0633:0x59403deb9c08c33d!8m2!3d52.0159279!4d16.5166431!16s%2Fg%2F1hc2r100c!19sChIJMwYKe5u5BUcRPcMInOs9QFk?authuser=0&hl=tr&rclk=1",
    "website_url": "",
    "rating_text": "4,8",
    "stars": null,
    "number_of_reviews": null,
    "price_level": "",
    "open_hours": "",
    "extraction_timestamp": "2025-06-07T17:41:32.660Z",
    "source_name": "google",
    "source_query": "Irrigation Equipment",
    "source_country": "PL",
    "country": "Poland",
    "state": "Greater Poland Voivodeship",
    "city": "Śmigiel"
  },
  {
    "source_id": "ChIJOR3gQn65BUcR3lTlZiOCwpc",
    "name": "Świat Prasy",
    "category": "Świat Prasy",
    "formatted_address": "4,7(3)",
    "phone_number": "+48518014185",
    "source_url": "https://www.google.com/maps/place/%C5%9Awiat+Prasy/data=!4m7!3m6!1s0x4705b97e42e01d39:0x97c2822366e554de!8m2!3d52.0049649!4d16.5262617!16s%2Fg%2F11f504mp9n!19sChIJOR3gQn65BUcR3lTlZiOCwpc?authuser=0&hl=tr&rclk=1",
    "website_url": "",
    "rating_text": "4,7",
    "stars": null,
    "number_of_reviews": null,
    "price_level": "",
    "open_hours": "",
    "extraction_timestamp": "2025-06-07T17:41:32.662Z",
    "source_name": "google",
    "source_query": "Irrigation Equipment",
    "source_country": "PL",
    "country": "Poland",
    "state": "Greater Poland Voivodeship",
    "city": "Śmigiel"
  },
  {
    "source_id": "ChIJj6ZmmtG7BUcRGBYbw1W_6ag",
    "name": "Biedronka",
    "category": "Biedronka",
    "formatted_address": "4,5(95)",
    "phone_number": "+48800080010",
    "source_url": "https://www.google.com/maps/place/Biedronka/data=!4m7!3m6!1s0x4705bbd19a66a68f:0xa8e9bf55c31b1618!8m2!3d52.0002565!4d16.5273188!16s%2Fg%2F11l2_0107w!19sChIJj6ZmmtG7BUcRGBYbw1W_6ag?authuser=0&hl=tr&rclk=1",
    "website_url": "",
    "rating_text": "4,5",
    "stars": null,
    "number_of_reviews": null,
    "price_level": "",
    "open_hours": "",
    "extraction_timestamp": "2025-06-07T17:41:32.663Z",
    "source_name": "google",
    "source_query": "Irrigation Equipment",
    "source_country": "PL",
    "country": "Poland",
    "state": "Greater Poland Voivodeship",
    "city": "Śmigiel"
  },
  {
    "source_id": "ChIJKbbNUZPUBUcRZzH5Q_PEZ7Y",
    "name": "Z.U.H. Wojciech Rajewski",
    "category": "Z.U.H. Wojciech Rajewski",
    "formatted_address": "4,8(13)",
    "phone_number": "+48601643831",
    "source_url": "https://www.google.com/maps/place/Z.U.H.+Wojciech+Rajewski/data=!4m7!3m6!1s0x4705d49351cdb629:0xb667c4f343f93167!8m2!3d52.2544057!4d16.1341154!16s%2Fg%2F11ddx40f1p!19sChIJKbbNUZPUBUcRZzH5Q_PEZ7Y?authuser=0&hl=tr&rclk=1",
    "website_url": "",
    "rating_text": "4,8",
    "stars": null,
    "number_of_reviews": null,
    "price_level": "",
    "open_hours": "",
    "extraction_timestamp": "2025-06-07T17:41:32.664Z",
    "source_name": "google",
    "source_query": "Irrigation Equipment",
    "source_country": "PL",
    "country": "Poland",
    "state": "Greater Poland Voivodeship",
    "city": "Śmigiel"
  },
  {
    "source_id": "ChIJZ5rkM3OxBUcRZpPh1o1dyFQ",
    "name": "Undersun Kościan FOTOWOLTAIKA KLIMATYZACJE POMPY CIEPŁA",
    "category": "Undersun Kościan FOTOWOLTAIKA KLIMATYZACJE POMPY CIEPŁA",
    "formatted_address": "5,0(12)",
    "phone_number": "+48575107003",
    "source_url": "https://www.google.com/maps/place/Undersun+Ko%C5%9Bcian+FOTOWOLTAIKA+KLIMATYZACJE+POMPY+CIEP%C5%81A/data=!4m7!3m6!1s0x4705b17333e49a67:0x54c85d8dd6e19366!8m2!3d52.090604!4d16.663888!16s%2Fg%2F11fcqfljhj!19sChIJZ5rkM3OxBUcRZpPh1o1dyFQ?authuser=0&hl=tr&rclk=1",
    "website_url": "",
    "rating_text": "5,0",
    "stars": null,
    "number_of_reviews": null,
    "price_level": "",
    "open_hours": "",
    "extraction_timestamp": "2025-06-07T17:41:32.665Z",
    "source_name": "google",
    "source_query": "Irrigation Equipment",
    "source_country": "PL",
    "country": "Poland",
    "state": "Greater Poland Voivodeship",
    "city": "Śmigiel"
  },
  {
    "source_id": "ChIJRagHfANTBEcROYPFqgQlaGo",
    "name": "h2o-instal Anna Baszkiewicz",
    "category": "h2o-instal Anna Baszkiewicz",
    "formatted_address": "h2o-instal Anna Baszkiewicz",
    "phone_number": "+48517543949",
    "source_url": "https://www.google.com/maps/place/h2o-instal+Anna+Baszkiewicz/data=!4m7!3m6!1s0x470453037c07a845:0x6a682504aac58339!8m2!3d52.2435155!4d16.8551901!16s%2Fg%2F11lcvkhrrt!19sChIJRagHfANTBEcROYPFqgQlaGo?authuser=0&hl=tr&rclk=1",
    "website_url": "",
    "rating_text": "5,0",
    "stars": null,
    "number_of_reviews": null,
    "price_level": "",
    "open_hours": "",
    "extraction_timestamp": "2025-06-07T17:41:32.665Z",
    "source_name": "google",
    "source_query": "Irrigation Equipment",
    "source_country": "PL",
    "country": "Poland",
    "state": "Greater Poland Voivodeship",
    "city": "Śmigiel"
  },
  {
    "source_id": "ChIJL2l4W0dSBEcRYYLVDPWdG7w",
    "name": "Orchidea - ogrody, tereny miejskie, pola golfowe, boiska piłkarskie. Nasze usługi oferujemy na terenie całej Polski.",
    "category": "Orchidea - ogrody, tereny miejskie, pola golfowe, boiska piłkarskie. Nasze usługi oferujemy na terenie całej Polski.",
    "formatted_address": "Orchidea - ogrody, tereny miejskie, pola golfowe, boiska piłkarskie. Nasze usługi oferujemy na terenie całej Polski.",
    "phone_number": "+48604633811",
    "source_url": "https://www.google.com/maps/place/Orchidea+-+ogrody,+tereny+miejskie,+pola+golfowe,+boiska+pi%C5%82karskie.+Nasze+us%C5%82ugi+oferujemy+na+terenie+ca%C5%82ej+Polski./data=!4m7!3m6!1s0x470452475b78692f:0xbc1b9df50cd58261!8m2!3d52.2297429!4d16.8055359!16s%2Fg%2F1wz51dw1!19sChIJL2l4W0dSBEcRYYLVDPWdG7w?authuser=0&hl=tr&rclk=1",
    "website_url": "",
    "rating_text": "4,7",
    "stars": null,
    "number_of_reviews": null,
    "price_level": "",
    "open_hours": "",
    "extraction_timestamp": "2025-06-07T17:41:32.667Z",
    "source_name": "google",
    "source_query": "Irrigation Equipment",
    "source_country": "PL",
    "country": "Poland",
    "state": "Greater Poland Voivodeship",
    "city": "Śmigiel"
  },
  {
    "source_id": "ChIJHfArN5u5BUcRl1R-Ls4qiEs",
    "name": "Bakery Piotr Kaczmarek",
    "category": "Bakery Piotr Kaczmarek",
    "formatted_address": "4,5(152) · zł 1–20",
    "phone_number": "+48655188371",
    "source_url": "https://www.google.com/maps/place/Bakery+Piotr+Kaczmarek/data=!4m7!3m6!1s0x4705b99b372bf01d:0x4b882ace2e7e5497!8m2!3d52.0167386!4d16.5196298!16s%2Fg%2F1vxw6zpr!19sChIJHfArN5u5BUcRl1R-Ls4qiEs?authuser=0&hl=tr&rclk=1",
    "website_url": "",
    "rating_text": "4,5",
    "stars": null,
    "number_of_reviews": null,
    "price_level": "",
    "open_hours": "",
    "extraction_timestamp": "2025-06-07T17:41:32.668Z",
    "source_name": "google",
    "source_query": "Irrigation Equipment",
    "source_country": "PL",
    "country": "Poland",
    "state": "Greater Poland Voivodeship",
    "city": "Śmigiel"
  },
  {
    "source_id": "ChIJZWF9iPK7BUcR_xE0VdOgC54",
    "name": "Dino",
    "category": "Dino",
    "formatted_address": "4,4(124)",
    "phone_number": "",
    "source_url": "https://www.google.com/maps/place/Dino/data=!4m7!3m6!1s0x4705bbf2887d6165:0x9e0ba0d3553411ff!8m2!3d51.9999994!4d16.5285884!16s%2Fg%2F11qmx9w13s!19sChIJZWF9iPK7BUcR_xE0VdOgC54?authuser=0&hl=tr&rclk=1",
    "website_url": "",
    "rating_text": "4,4",
    "stars": null,
    "number_of_reviews": null,
    "price_level": "",
    "open_hours": "",
    "extraction_timestamp": "2025-06-07T17:41:32.669Z",
    "source_name": "google",
    "source_query": "Irrigation Equipment",
    "source_country": "PL",
    "country": "Poland",
    "state": "Greater Poland Voivodeship",
    "city": "Śmigiel"
  },
  {
    "source_id": "ChIJaS7lRp25BUcRJZmdJqt_N1E",
    "name": "Dino",
    "category": "Dino",
    "formatted_address": "4,2(397)",
    "phone_number": "",
    "source_url": "https://www.google.com/maps/place/Dino/data=!4m7!3m6!1s0x4705b99d46e52e69:0x51377fab269d9925!8m2!3d52.0113902!4d16.5152397!16s%2Fg%2F1vvdsxyk!19sChIJaS7lRp25BUcRJZmdJqt_N1E?authuser=0&hl=tr&rclk=1",
    "website_url": "",
    "rating_text": "4,2",
    "stars": null,
    "number_of_reviews": null,
    "price_level": "",
    "open_hours": "",
    "extraction_timestamp": "2025-06-07T17:41:32.669Z",
    "source_name": "google",
    "source_query": "Irrigation Equipment",
    "source_country": "PL",
    "country": "Poland",
    "state": "Greater Poland Voivodeship",
    "city": "Śmigiel"
  },
  {
    "source_id": "ChIJ9wfPK9IABUcR9VfMIHsdrfY",
    "name": "T&A Hurt-Detal - Andrzej Gorzkiewicz",
    "category": "T&A Hurt-Detal - Andrzej Gorzkiewicz",
    "formatted_address": "5,0(1)",
    "phone_number": "+48602384031",
    "source_url": "https://www.google.com/maps/place/T%26A+Hurt-Detal+-+Andrzej+Gorzkiewicz/data=!4m7!3m6!1s0x470500d22bcf07f7:0xf6ad1d7b20cc57f5!8m2!3d52.082917!4d17.0063397!16s%2Fg%2F11g__294z!19sChIJ9wfPK9IABUcR9VfMIHsdrfY?authuser=0&hl=tr&rclk=1",
    "website_url": "",
    "rating_text": "5,0",
    "stars": null,
    "number_of_reviews": null,
    "price_level": "",
    "open_hours": "",
    "extraction_timestamp": "2025-06-07T17:41:32.670Z",
    "source_name": "google",
    "source_query": "Irrigation Equipment",
    "source_country": "PL",
    "country": "Poland",
    "state": "Greater Poland Voivodeship",
    "city": "Śmigiel"
  },
  {
    "source_id": "ChIJ37TlOvO5BUcRgRGdkSP-am8",
    "name": "Instal. Sprzedaż i montaż art. instalacyjnych",
    "category": "Instal. Sprzedaż i montaż art. instalacyjnych",
    "formatted_address": "4,7(30)",
    "phone_number": "+48655188615",
    "source_url": "https://www.google.com/maps/place/Instal.+Sprzeda%C5%BC+i+monta%C5%BC+art.+instalacyjnych/data=!4m7!3m6!1s0x4705b9f33ae5b4df:0x6f6afe23919d1181!8m2!3d52.0322876!4d16.5279451!16s%2Fg%2F1tdxp4d6!19sChIJ37TlOvO5BUcRgRGdkSP-am8?authuser=0&hl=tr&rclk=1",
    "website_url": "",
    "rating_text": "4,7",
    "stars": null,
    "number_of_reviews": null,
    "price_level": "",
    "open_hours": "",
    "extraction_timestamp": "2025-06-07T17:41:32.671Z",
    "source_name": "google",
    "source_query": "Irrigation Equipment",
    "source_country": "PL",
    "country": "Poland",
    "state": "Greater Poland Voivodeship",
    "city": "Śmigiel"
  }
]
