[
  {
    "source_id": "ChIJUTMqpaMBBUcRXLxSuQ6UEis",
    "name": "Raitech Sp. z o. o. Oddział Śrem",
    "category": "Raitech Sp. z o. o. Oddział Śrem",
    "formatted_address": "4,2(76)",
    "phone_number": "+48523116400",
    "source_url": "https://www.google.com/maps/place/Raitech+Sp.+z+o.+o.+Oddzia%C5%82+%C5%9Arem/data=!4m7!3m6!1s0x470501a3a52a3351:0x2b12940eb952bc5c!8m2!3d52.1122703!4d17.0377487!16s%2Fg%2F1pv61bfss!19sChIJUTMqpaMBBUcRXLxSuQ6UEis?authuser=0&hl=tr&rclk=1",
    "website_url": "",
    "rating_text": "4,2",
    "stars": null,
    "number_of_reviews": null,
    "price_level": "",
    "open_hours": "",
    "extraction_timestamp": "2025-06-07T17:23:54.347Z",
    "source_name": "google",
    "source_query": "Irrigation Equipment",
    "source_country": "PL",
    "country": "Poland",
    "state": "Greater Poland Voivodeship",
    "city": "Śrem"
  },
  {
    "source_id": "ChIJuQ2mFzIBBUcRtXNKVtkvswI",
    "name": "EFLI GROUP sp. Z o. o. sp. Komandytowa",
    "category": "EFLI GROUP sp. Z o. o. sp. Komandytowa",
    "formatted_address": "4,7(7)",
    "phone_number": "+48600573908",
    "source_url": "https://www.google.com/maps/place/EFLI+GROUP+sp.+Z+o.+o.+sp.+Komandytowa/data=!4m7!3m6!1s0x4705013217a60db9:0x2b32fd9564a73b5!8m2!3d52.0902229!4d17.0040819!16s%2Fg%2F1tk61tlw!19sChIJuQ2mFzIBBUcRtXNKVtkvswI?authuser=0&hl=tr&rclk=1",
    "website_url": "",
    "rating_text": "4,7",
    "stars": null,
    "number_of_reviews": null,
    "price_level": "",
    "open_hours": "",
    "extraction_timestamp": "2025-06-07T17:23:54.347Z",
    "source_name": "google",
    "source_query": "Irrigation Equipment",
    "source_country": "PL",
    "country": "Poland",
    "state": "Greater Poland Voivodeship",
    "city": "Śrem"
  },
  {
    "source_id": "ChIJ2XxqGV8BBUcR60v_Uqnbt1U",
    "name": "Hydrozet Zakuwanie węży hydrauliczych i naprawa siłowników hydraulicznych",
    "category": "Hydrozet Zakuwanie węży hydrauliczych i naprawa siłowników hydraulicznych",
    "formatted_address": "4,9(22)",
    "phone_number": "+48503487003",
    "source_url": "https://www.google.com/maps/place/Hydrozet+Zakuwanie+w%C4%99%C5%BCy+hydrauliczych+i+naprawa+si%C5%82ownik%C3%B3w+hydraulicznych/data=!4m7!3m6!1s0x4705015f196a7cd9:0x55b7dba952ff4beb!8m2!3d52.0819272!4d17.0230982!16s%2Fg%2F11jm9t5k2g!19sChIJ2XxqGV8BBUcR60v_Uqnbt1U?authuser=0&hl=tr&rclk=1",
    "website_url": "",
    "rating_text": "4,9",
    "stars": null,
    "number_of_reviews": null,
    "price_level": "",
    "open_hours": "",
    "extraction_timestamp": "2025-06-07T17:23:54.348Z",
    "source_name": "google",
    "source_query": "Irrigation Equipment",
    "source_country": "PL",
    "country": "Poland",
    "state": "Greater Poland Voivodeship",
    "city": "Śrem"
  },
  {
    "source_id": "ChIJBVnjAp0ABUcRFWrER_0PBAg",
    "name": "Studzienki",
    "category": "Studzienki",
    "formatted_address": "4,6(9)",
    "phone_number": "+48795977712",
    "source_url": "https://www.google.com/maps/place/Studzienki/data=!4m7!3m6!1s0x4705009d02e35905:0x8040ffd47c46a15!8m2!3d52.0691871!4d17.0394171!16s%2Fg%2F11fmmdybt8!19sChIJBVnjAp0ABUcRFWrER_0PBAg?authuser=0&hl=tr&rclk=1",
    "website_url": "",
    "rating_text": "4,6",
    "stars": null,
    "number_of_reviews": null,
    "price_level": "",
    "open_hours": "",
    "extraction_timestamp": "2025-06-07T17:23:54.349Z",
    "source_name": "google",
    "source_query": "Irrigation Equipment",
    "source_country": "PL",
    "country": "Poland",
    "state": "Greater Poland Voivodeship",
    "city": "Śrem"
  },
  {
    "source_id": "ChIJ4a7q9-oABUcRf6B5ZmUAP9U",
    "name": "GASPIR. Gazy Techniczne, Materiały Spawalnicze",
    "category": "GASPIR. Gazy Techniczne, Materiały Spawalnicze",
    "formatted_address": "GASPIR. Gazy Techniczne, Materiały Spawalnicze",
    "phone_number": "+48612835477",
    "source_url": "https://www.google.com/maps/place/GASPIR.+Gazy+Techniczne,+Materia%C5%82y+Spawalnicze/data=!4m7!3m6!1s0x470500eaf7eaaee1:0xd53f00656679a07f!8m2!3d52.092847!4d17.008044!16s%2Fg%2F1tdvt066!19sChIJ4a7q9-oABUcRf6B5ZmUAP9U?authuser=0&hl=tr&rclk=1",
    "website_url": "",
    "rating_text": "4,3",
    "stars": null,
    "number_of_reviews": null,
    "price_level": "",
    "open_hours": "",
    "extraction_timestamp": "2025-06-07T17:23:54.350Z",
    "source_name": "google",
    "source_query": "Irrigation Equipment",
    "source_country": "PL",
    "country": "Poland",
    "state": "Greater Poland Voivodeship",
    "city": "Śrem"
  },
  {
    "source_id": "ChIJ2bK4P9MABUcRhp7lI4WUDfE",
    "name": "Kąpielisko Miejskie Śrem",
    "category": "Kąpielisko Miejskie Śrem",
    "formatted_address": "4,3(899)",
    "phone_number": "",
    "source_url": "https://www.google.com/maps/place/K%C4%85pielisko+Miejskie+%C5%9Arem/data=!4m7!3m6!1s0x470500d33fb8b2d9:0xf10d948523e59e86!8m2!3d52.070966!4d17.0097007!16s%2Fg%2F1tggmbp7!19sChIJ2bK4P9MABUcRhp7lI4WUDfE?authuser=0&hl=tr&rclk=1",
    "website_url": "",
    "rating_text": "4,3",
    "stars": null,
    "number_of_reviews": null,
    "price_level": "",
    "open_hours": "",
    "extraction_timestamp": "2025-06-07T17:23:54.350Z",
    "source_name": "google",
    "source_query": "Irrigation Equipment",
    "source_country": "PL",
    "country": "Poland",
    "state": "Greater Poland Voivodeship",
    "city": "Śrem"
  },
  {
    "source_id": "ChIJ6-OvnJsABUcRs6PoEhsFph8",
    "name": "\"AQUA - Grupa SBS\" sp. z o.o. oddział Śrem",
    "category": "\"AQUA - Grupa SBS\" sp. z o.o. oddział Śrem",
    "formatted_address": "3,7(3)",
    "phone_number": "+48616222637",
    "source_url": "https://www.google.com/maps/place/%22AQUA+-+Grupa+SBS%22+sp.+z+o.o.+oddzia%C5%82+%C5%9Arem/data=!4m7!3m6!1s0x4705009b9cafe3eb:0x1fa6051b12e8a3b3!8m2!3d52.1020183!4d16.986658!16s%2Fg%2F11c1n6rc_3!19sChIJ6-OvnJsABUcRs6PoEhsFph8?authuser=0&hl=tr&rclk=1",
    "website_url": "",
    "rating_text": "3,7",
    "stars": null,
    "number_of_reviews": null,
    "price_level": "",
    "open_hours": "",
    "extraction_timestamp": "2025-06-07T17:23:54.351Z",
    "source_name": "google",
    "source_query": "Irrigation Equipment",
    "source_country": "PL",
    "country": "Poland",
    "state": "Greater Poland Voivodeship",
    "city": "Śrem"
  },
  {
    "source_id": "ChIJ_QAhleYABUcRJD5i66MyznU",
    "name": "Instal Partner",
    "category": "Instal Partner",
    "formatted_address": "4,5(53)",
    "phone_number": "+48612830977",
    "source_url": "https://www.google.com/maps/place/Instal+Partner/data=!4m7!3m6!1s0x470500e6952100fd:0x75ce32a3eb623e24!8m2!3d52.0926587!4d17.0413143!16s%2Fg%2F1w9x_thc!19sChIJ_QAhleYABUcRJD5i66MyznU?authuser=0&hl=tr&rclk=1",
    "website_url": "",
    "rating_text": "4,5",
    "stars": null,
    "number_of_reviews": null,
    "price_level": "",
    "open_hours": "",
    "extraction_timestamp": "2025-06-07T17:23:54.351Z",
    "source_name": "google",
    "source_query": "Irrigation Equipment",
    "source_country": "PL",
    "country": "Poland",
    "state": "Greater Poland Voivodeship",
    "city": "Śrem"
  },
  {
    "source_id": "ChIJWS_j-MQABUcRQkqo1yZMqXY",
    "name": "P.H.U. Instal-Dom Ewa Klemm-Kominek",
    "category": "P.H.U. Instal-Dom Ewa Klemm-Kominek",
    "formatted_address": "4,7(58)",
    "phone_number": "+48606998849",
    "source_url": "https://www.google.com/maps/place/P.H.U.+Instal-Dom+Ewa+Klemm-Kominek/data=!4m7!3m6!1s0x470500c4f8e32f59:0x76a94c26d7a84a42!8m2!3d52.0826187!4d17.0103513!16s%2Fg%2F1tdw2560!19sChIJWS_j-MQABUcRQkqo1yZMqXY?authuser=0&hl=tr&rclk=1",
    "website_url": "",
    "rating_text": "4,7",
    "stars": null,
    "number_of_reviews": null,
    "price_level": "",
    "open_hours": "",
    "extraction_timestamp": "2025-06-07T17:23:54.352Z",
    "source_name": "google",
    "source_query": "Irrigation Equipment",
    "source_country": "PL",
    "country": "Poland",
    "state": "Greater Poland Voivodeship",
    "city": "Śrem"
  },
  {
    "source_id": "ChIJ34jVPtsABUcRMmqc911tFjk",
    "name": "EL-BUD Śrem Hurtownia materiałów budowlanych i hutniczych",
    "category": "EL-BUD Śrem Hurtownia materiałów budowlanych i hutniczych",
    "formatted_address": "3,3(202)",
    "phone_number": "+48612836520",
    "source_url": "https://www.google.com/maps/place/EL-BUD+%C5%9Arem+Hurtownia+materia%C5%82%C3%B3w+budowlanych+i+hutniczych/data=!4m7!3m6!1s0x470500db3ed588df:0x39166d5df79c6a32!8m2!3d52.0809485!4d17.0204543!16s%2Fg%2F1tknj4g_!19sChIJ34jVPtsABUcRMmqc911tFjk?authuser=0&hl=tr&rclk=1",
    "website_url": "",
    "rating_text": "3,3",
    "stars": null,
    "number_of_reviews": null,
    "price_level": "",
    "open_hours": "",
    "extraction_timestamp": "2025-06-07T17:23:54.353Z",
    "source_name": "google",
    "source_query": "Irrigation Equipment",
    "source_country": "PL",
    "country": "Poland",
    "state": "Greater Poland Voivodeship",
    "city": "Śrem"
  },
  {
    "source_id": "ChIJAYurDCcBBUcRiUBKMPQuS6w",
    "name": "Rolchem. Skrzypczak S.",
    "category": "Rolchem. Skrzypczak S.",
    "formatted_address": "4,8(20)",
    "phone_number": "+48502360623",
    "source_url": "https://www.google.com/maps/place/Rolchem.+Skrzypczak+S./data=!4m7!3m6!1s0x470501270cab8b01:0xac4b2ef4304a4089!8m2!3d52.079826!4d17.0303596!16s%2Fg%2F1vm_wlfv!19sChIJAYurDCcBBUcRiUBKMPQuS6w?authuser=0&hl=tr&rclk=1",
    "website_url": "",
    "rating_text": "4,8",
    "stars": null,
    "number_of_reviews": null,
    "price_level": "",
    "open_hours": "",
    "extraction_timestamp": "2025-06-07T17:23:54.354Z",
    "source_name": "google",
    "source_query": "Irrigation Equipment",
    "source_country": "PL",
    "country": "Poland",
    "state": "Greater Poland Voivodeship",
    "city": "Śrem"
  },
  {
    "source_id": "ChIJF_MaNU0HBUcRsSIWFsFzmgk",
    "name": "Dymowscy. PPHU. Dymowski A.",
    "category": "Dymowscy. PPHU. Dymowski A.",
    "formatted_address": "4,6(252)",
    "phone_number": "+48612819071",
    "source_url": "https://www.google.com/maps/place/Dymowscy.+PPHU.+Dymowski+A./data=!4m7!3m6!1s0x4705074d351af317:0x99a73c1161622b1!8m2!3d52.0759305!4d16.9915466!16s%2Fg%2F1tc_2t3q!19sChIJF_MaNU0HBUcRsSIWFsFzmgk?authuser=0&hl=tr&rclk=1",
    "website_url": "",
    "rating_text": "4,6",
    "stars": null,
    "number_of_reviews": null,
    "price_level": "",
    "open_hours": "",
    "extraction_timestamp": "2025-06-07T17:23:54.354Z",
    "source_name": "google",
    "source_query": "Irrigation Equipment",
    "source_country": "PL",
    "country": "Poland",
    "state": "Greater Poland Voivodeship",
    "city": "Śrem"
  },
  {
    "source_id": "ChIJF_qL_ld-nygRUo6Il1vwCdI",
    "name": "Joteł Instalacje",
    "category": "Joteł Instalacje",
    "formatted_address": "4,5(26)",
    "phone_number": "+48511428762",
    "source_url": "https://www.google.com/maps/place/Jote%C5%82+Instalacje/data=!4m7!3m6!1s0x289f7e57fe8bfa17:0xd209f05b97888e52!8m2!3d52.0736492!4d17.0105604!16s%2Fg%2F11sxydz9md!19sChIJF_qL_ld-nygRUo6Il1vwCdI?authuser=0&hl=tr&rclk=1",
    "website_url": "",
    "rating_text": "4,5",
    "stars": null,
    "number_of_reviews": null,
    "price_level": "",
    "open_hours": "",
    "extraction_timestamp": "2025-06-07T17:23:54.355Z",
    "source_name": "google",
    "source_query": "Irrigation Equipment",
    "source_country": "PL",
    "country": "Poland",
    "state": "Greater Poland Voivodeship",
    "city": "Śrem"
  },
  {
    "source_id": "ChIJpZKkWfMBBUcRC421BN_oySw",
    "name": "HECHT Polska - Śrem",
    "category": "HECHT Polska - Śrem",
    "formatted_address": "4,1(31)",
    "phone_number": "+48616661304",
    "source_url": "https://www.google.com/maps/place/HECHT+Polska+-+%C5%9Arem/data=!4m7!3m6!1s0x470501f359a492a5:0x2cc9e8df04b58d0b!8m2!3d52.0772376!4d17.0313355!16s%2Fg%2F11h3_yl508!19sChIJpZKkWfMBBUcRC421BN_oySw?authuser=0&hl=tr&rclk=1",
    "website_url": "",
    "rating_text": "4,1",
    "stars": null,
    "number_of_reviews": null,
    "price_level": "",
    "open_hours": "",
    "extraction_timestamp": "2025-06-07T17:23:54.356Z",
    "source_name": "google",
    "source_query": "Irrigation Equipment",
    "source_country": "PL",
    "country": "Poland",
    "state": "Greater Poland Voivodeship",
    "city": "Śrem"
  },
  {
    "source_id": "ChIJ9wfPK9IABUcR9VfMIHsdrfY",
    "name": "T&A Hurt-Detal - Andrzej Gorzkiewicz",
    "category": "T&A Hurt-Detal - Andrzej Gorzkiewicz",
    "formatted_address": "5,0(1)",
    "phone_number": "+48602384031",
    "source_url": "https://www.google.com/maps/place/T%26A+Hurt-Detal+-+Andrzej+Gorzkiewicz/data=!4m7!3m6!1s0x470500d22bcf07f7:0xf6ad1d7b20cc57f5!8m2!3d52.082917!4d17.0063397!16s%2Fg%2F11g__294z!19sChIJ9wfPK9IABUcR9VfMIHsdrfY?authuser=0&hl=tr&rclk=1",
    "website_url": "",
    "rating_text": "5,0",
    "stars": null,
    "number_of_reviews": null,
    "price_level": "",
    "open_hours": "",
    "extraction_timestamp": "2025-06-07T17:23:54.357Z",
    "source_name": "google",
    "source_query": "Irrigation Equipment",
    "source_country": "PL",
    "country": "Poland",
    "state": "Greater Poland Voivodeship",
    "city": "Śrem"
  },
  {
    "source_id": "ChIJFUpyOOQABUcRm5LVatG0LBE",
    "name": "Bricomarché",
    "category": "Bricomarché",
    "formatted_address": "4,1(1.477)",
    "phone_number": "+48612848100",
    "source_url": "https://www.google.com/maps/place/Bricomarch%C3%A9/data=!4m7!3m6!1s0x470500e438724a15:0x112cb4d16ad5929b!8m2!3d52.0953171!4d17.026183!16s%2Fg%2F1hbpwq8zt!19sChIJFUpyOOQABUcRm5LVatG0LBE?authuser=0&hl=tr&rclk=1",
    "website_url": "",
    "rating_text": "4,1",
    "stars": null,
    "number_of_reviews": null,
    "price_level": "",
    "open_hours": "",
    "extraction_timestamp": "2025-06-07T17:23:54.359Z",
    "source_name": "google",
    "source_query": "Irrigation Equipment",
    "source_country": "PL",
    "country": "Poland",
    "state": "Greater Poland Voivodeship",
    "city": "Śrem"
  },
  {
    "source_id": "ChIJgWpfvSgBBUcRSSXBI-yYPtw",
    "name": "Green Bike Mega Store",
    "category": "Green Bike Mega Store",
    "formatted_address": "4,3(341)",
    "phone_number": "+48504837640",
    "source_url": "https://www.google.com/maps/place/Green+Bike+Mega+Store/data=!4m7!3m6!1s0x47050128bd5f6a81:0xdc3e98ec23c12549!8m2!3d52.0775963!4d17.0304733!16s%2Fg%2F1tfpyk5p!19sChIJgWpfvSgBBUcRSSXBI-yYPtw?authuser=0&hl=tr&rclk=1",
    "website_url": "",
    "rating_text": "4,3",
    "stars": null,
    "number_of_reviews": null,
    "price_level": "",
    "open_hours": "",
    "extraction_timestamp": "2025-06-07T17:23:54.359Z",
    "source_name": "google",
    "source_query": "Irrigation Equipment",
    "source_country": "PL",
    "country": "Poland",
    "state": "Greater Poland Voivodeship",
    "city": "Śrem"
  },
  {
    "source_id": "ChIJuw0gPd8ABUcRb0wlMKy2iYY",
    "name": "MEGA SPORTING Sklep rowerowy, serwis i naprawa rowerów",
    "category": "MEGA SPORTING Sklep rowerowy, serwis i naprawa rowerów",
    "formatted_address": "MEGA SPORTING Sklep rowerowy, serwis i naprawa rowerów",
    "phone_number": "+48795126551",
    "source_url": "https://www.google.com/maps/place/MEGA+SPORTING+Sklep+rowerowy,+serwis+i+naprawa+rower%C3%B3w/data=!4m7!3m6!1s0x470500df3d200dbb:0x8689b6ac30254c6f!8m2!3d52.083674!4d17.027895!16s%2Fg%2F1tfyc8j4!19sChIJuw0gPd8ABUcRb0wlMKy2iYY?authuser=0&hl=tr&rclk=1",
    "website_url": "",
    "rating_text": "4,8",
    "stars": null,
    "number_of_reviews": null,
    "price_level": "",
    "open_hours": "",
    "extraction_timestamp": "2025-06-07T17:23:54.360Z",
    "source_name": "google",
    "source_query": "Irrigation Equipment",
    "source_country": "PL",
    "country": "Poland",
    "state": "Greater Poland Voivodeship",
    "city": "Śrem"
  },
  {
    "source_id": "ChIJOcN4nesBBUcRKgQH9RykWOI",
    "name": "Sklep ogrodniczy Sójka | Śrem",
    "category": "Sklep ogrodniczy Sójka | Śrem",
    "formatted_address": "5,0(15)",
    "phone_number": "+48730220190",
    "source_url": "https://www.google.com/maps/place/Sklep+ogrodniczy+S%C3%B3jka+%7C+%C5%9Arem/data=!4m7!3m6!1s0x470501eb9d78c339:0xe258a41cf507042a!8m2!3d52.0846479!4d17.0225788!16s%2Fg%2F11sjw3twh7!19sChIJOcN4nesBBUcRKgQH9RykWOI?authuser=0&hl=tr&rclk=1",
    "website_url": "",
    "rating_text": "5,0",
    "stars": null,
    "number_of_reviews": null,
    "price_level": "",
    "open_hours": "",
    "extraction_timestamp": "2025-06-07T17:23:54.361Z",
    "source_name": "google",
    "source_query": "Irrigation Equipment",
    "source_country": "PL",
    "country": "Poland",
    "state": "Greater Poland Voivodeship",
    "city": "Śrem"
  },
  {
    "source_id": "ChIJk86uvcQABUcRP4plhUN4ix4",
    "name": "GREEN BIKE Poland",
    "category": "GREEN BIKE Poland",
    "formatted_address": "3,4(95)",
    "phone_number": "+48612830172",
    "source_url": "https://www.google.com/maps/place/GREEN+BIKE+Poland/data=!4m7!3m6!1s0x470500c4bdaece93:0x1e8b784385658a3f!8m2!3d52.0837969!4d17.012848!16s%2Fg%2F1vj5yxwf!19sChIJk86uvcQABUcRP4plhUN4ix4?authuser=0&hl=tr&rclk=1",
    "website_url": "",
    "rating_text": "3,4",
    "stars": null,
    "number_of_reviews": null,
    "price_level": "",
    "open_hours": "",
    "extraction_timestamp": "2025-06-07T17:23:54.362Z",
    "source_name": "google",
    "source_query": "Irrigation Equipment",
    "source_country": "PL",
    "country": "Poland",
    "state": "Greater Poland Voivodeship",
    "city": "Śrem"
  },
  {
    "source_id": "ChIJD3o8YdwABUcR3UHHr4_gQK8",
    "name": "ANImalia sklep zoologiczny",
    "category": "ANImalia sklep zoologiczny",
    "formatted_address": "4,9(244)",
    "phone_number": "+48730740236",
    "source_url": "https://www.google.com/maps/place/ANImalia+sklep+zoologiczny/data=!4m7!3m6!1s0x470500dc613c7a0f:0xaf40e08fafc741dd!8m2!3d52.0849754!4d17.0228463!16s%2Fg%2F12jsp5_ts!19sChIJD3o8YdwABUcR3UHHr4_gQK8?authuser=0&hl=tr&rclk=1",
    "website_url": "",
    "rating_text": "4,9",
    "stars": null,
    "number_of_reviews": null,
    "price_level": "",
    "open_hours": "",
    "extraction_timestamp": "2025-06-07T17:23:54.363Z",
    "source_name": "google",
    "source_query": "Irrigation Equipment",
    "source_country": "PL",
    "country": "Poland",
    "state": "Greater Poland Voivodeship",
    "city": "Śrem"
  },
  {
    "source_id": "ChIJ06eE8c8ABUcRLsTqsNJ1kV8",
    "name": "PSS Społem nr 21 \"Jubilat\"",
    "category": "PSS Społem nr 21 \"Jubilat\"",
    "formatted_address": "4,1(384)",
    "phone_number": "+48797602921",
    "source_url": "https://www.google.com/maps/place/PSS+Spo%C5%82em+nr+21+%22Jubilat%22/data=!4m7!3m6!1s0x470500cff184a7d3:0x5f9175d2b0eac42e!8m2!3d52.079021!4d17.0105235!16s%2Fg%2F1vp6yx3_!19sChIJ06eE8c8ABUcRLsTqsNJ1kV8?authuser=0&hl=tr&rclk=1",
    "website_url": "",
    "rating_text": "4,1",
    "stars": null,
    "number_of_reviews": null,
    "price_level": "",
    "open_hours": "",
    "extraction_timestamp": "2025-06-07T17:23:54.363Z",
    "source_name": "google",
    "source_query": "Irrigation Equipment",
    "source_country": "PL",
    "country": "Poland",
    "state": "Greater Poland Voivodeship",
    "city": "Śrem"
  },
  {
    "source_id": "ChIJf_7ITDwBBUcRe0pp48QGQ-A",
    "name": "PROMIL",
    "category": "PROMIL",
    "formatted_address": "5,0(13)",
    "phone_number": "",
    "source_url": "https://www.google.com/maps/place/PROMIL/data=!4m7!3m6!1s0x4705013c4cc8fe7f:0xe04306c4e3694a7b!8m2!3d52.0939173!4d17.0212385!16s%2Fg%2F11sfrw343p!19sChIJf_7ITDwBBUcRe0pp48QGQ-A?authuser=0&hl=tr&rclk=1",
    "website_url": "",
    "rating_text": "5,0",
    "stars": null,
    "number_of_reviews": null,
    "price_level": "",
    "open_hours": "",
    "extraction_timestamp": "2025-06-07T17:23:54.364Z",
    "source_name": "google",
    "source_query": "Irrigation Equipment",
    "source_country": "PL",
    "country": "Poland",
    "state": "Greater Poland Voivodeship",
    "city": "Śrem"
  },
  {
    "source_id": "ChIJtzzeot4ABUcRllzWgazwB0c",
    "name": "Wódki Świata",
    "category": "Wódki Świata",
    "formatted_address": "4,5(68)",
    "phone_number": "",
    "source_url": "https://www.google.com/maps/place/W%C3%B3dki+%C5%9Awiata/data=!4m7!3m6!1s0x470500dea2de3cb7:0x4707f0ac81d65c96!8m2!3d52.088719!4d17.0164466!16s%2Fg%2F1th6221b!19sChIJtzzeot4ABUcRllzWgazwB0c?authuser=0&hl=tr&rclk=1",
    "website_url": "",
    "rating_text": "4,5",
    "stars": null,
    "number_of_reviews": null,
    "price_level": "",
    "open_hours": "",
    "extraction_timestamp": "2025-06-07T17:23:54.364Z",
    "source_name": "google",
    "source_query": "Irrigation Equipment",
    "source_country": "PL",
    "country": "Poland",
    "state": "Greater Poland Voivodeship",
    "city": "Śrem"
  },
  {
    "source_id": "ChIJIWIkIdwABUcR0DRhL3KxZoE",
    "name": "Al-Ko",
    "category": "Al-Ko",
    "formatted_address": "4,0(1)",
    "phone_number": "",
    "source_url": "https://www.google.com/maps/place/Al-Ko/data=!4m7!3m6!1s0x470500dc21246221:0x8166b1722f6134d0!8m2!3d52.0848424!4d17.0231354!16s%2Fg%2F11w2xljtyp!19sChIJIWIkIdwABUcR0DRhL3KxZoE?authuser=0&hl=tr&rclk=1",
    "website_url": "",
    "rating_text": "4,0",
    "stars": null,
    "number_of_reviews": null,
    "price_level": "",
    "open_hours": "",
    "extraction_timestamp": "2025-06-07T17:23:54.364Z",
    "source_name": "google",
    "source_query": "Irrigation Equipment",
    "source_country": "PL",
    "country": "Poland",
    "state": "Greater Poland Voivodeship",
    "city": "Śrem"
  },
  {
    "source_id": "ChIJ6YF3RuQABUcR18yjiMfmblg",
    "name": "Intermarche Supermarket",
    "category": "Intermarche Supermarket",
    "formatted_address": "4,0(857)",
    "phone_number": "+48612810780",
    "source_url": "https://www.google.com/maps/place/Intermarche+Supermarket/data=!4m7!3m6!1s0x470500e4467781e9:0x586ee6c788a3ccd7!8m2!3d52.0948672!4d17.0267732!16s%2Fg%2F1tfcry4d!19sChIJ6YF3RuQABUcR18yjiMfmblg?authuser=0&hl=tr&rclk=1",
    "website_url": "",
    "rating_text": "4,0",
    "stars": null,
    "number_of_reviews": null,
    "price_level": "",
    "open_hours": "",
    "extraction_timestamp": "2025-06-07T17:23:54.365Z",
    "source_name": "google",
    "source_query": "Irrigation Equipment",
    "source_country": "PL",
    "country": "Poland",
    "state": "Greater Poland Voivodeship",
    "city": "Śrem"
  }
]
