[
  {
    "source_id": "ChIJZTUkncv7BEcRsv-FuPvJd0E",
    "name": "TEST INSTALACJE – Hurtownia instalacyjna Środa Wielkopolska",
    "category": "TEST INSTALACJE – Hurtownia instalacyjna Środa Wielkopolska",
    "formatted_address": "4,1(20)",
    "phone_number": "+48612856282",
    "source_url": "https://www.google.com/maps/place/TEST+INSTALACJE+%E2%80%93+Hurtownia+instalacyjna+%C5%9Aroda+Wielkopolska/data=!4m7!3m6!1s0x4704fbcb9d243565:0x4177c9fbb885ffb2!8m2!3d52.2386542!4d17.2761103!16s%2Fg%2F11n0p8cszw!19sChIJZTUkncv7BEcRsv-FuPvJd0E?authuser=0&hl=tr&rclk=1",
    "website_url": "",
    "rating_text": "4,1",
    "stars": null,
    "number_of_reviews": null,
    "price_level": "",
    "open_hours": "",
    "extraction_timestamp": "2025-06-07T17:18:57.929Z",
    "source_name": "google",
    "source_query": "Irrigation Equipment",
    "source_country": "PL",
    "country": "Poland",
    "state": "Greater Poland Voivodeship",
    "city": "Środa Wielkopolska"
  },
  {
    "source_id": "ChIJH0tpQaD7BEcRYQQ-PETrOIQ",
    "name": "ASW TECHNIK",
    "category": "ASW TECHNIK",
    "formatted_address": "4,8(46)",
    "phone_number": "+48577887997",
    "source_url": "https://www.google.com/maps/place/ASW+TECHNIK/data=!4m7!3m6!1s0x4704fba041694b1f:0x8438eb443c3e0461!8m2!3d52.2275708!4d17.2607921!16s%2Fg%2F11h_sld0sr!19sChIJH0tpQaD7BEcRYQQ-PETrOIQ?authuser=0&hl=tr&rclk=1",
    "website_url": "",
    "rating_text": "4,8",
    "stars": null,
    "number_of_reviews": null,
    "price_level": "",
    "open_hours": "",
    "extraction_timestamp": "2025-06-07T17:18:57.930Z",
    "source_name": "google",
    "source_query": "Irrigation Equipment",
    "source_country": "PL",
    "country": "Poland",
    "state": "Greater Poland Voivodeship",
    "city": "Środa Wielkopolska"
  },
  {
    "source_id": "ChIJ82fDPAv7BEcR0t557L9SvKI",
    "name": "Agro-Weld Arkadiusz Cegłowski",
    "category": "Agro-Weld Arkadiusz Cegłowski",
    "formatted_address": "5,0(15)",
    "phone_number": "+48725140257",
    "source_url": "https://www.google.com/maps/place/Agro-Weld+Arkadiusz+Ceg%C5%82owski/data=!4m7!3m6!1s0x4704fb0b3cc367f3:0xa2bc52bfec79ded2!8m2!3d52.2281481!4d17.2572359!16s%2Fg%2F11gbf9cdj_!19sChIJ82fDPAv7BEcR0t557L9SvKI?authuser=0&hl=tr&rclk=1",
    "website_url": "",
    "rating_text": "5,0",
    "stars": null,
    "number_of_reviews": null,
    "price_level": "",
    "open_hours": "",
    "extraction_timestamp": "2025-06-07T17:18:57.930Z",
    "source_name": "google",
    "source_query": "Irrigation Equipment",
    "source_country": "PL",
    "country": "Poland",
    "state": "Greater Poland Voivodeship",
    "city": "Środa Wielkopolska"
  },
  {
    "source_id": "ChIJh5yUCqH7BEcRmMfxvcU_1bk",
    "name": "InduPartner",
    "category": "InduPartner",
    "formatted_address": "5,0(2)",
    "phone_number": "+48612854487",
    "source_url": "https://www.google.com/maps/place/InduPartner/data=!4m7!3m6!1s0x4704fba10a949c87:0xb9d53fc5bdf1c798!8m2!3d52.2324617!4d17.2500708!16s%2Fg%2F11h109fk2!19sChIJh5yUCqH7BEcRmMfxvcU_1bk?authuser=0&hl=tr&rclk=1",
    "website_url": "",
    "rating_text": "5,0",
    "stars": null,
    "number_of_reviews": null,
    "price_level": "",
    "open_hours": "",
    "extraction_timestamp": "2025-06-07T17:18:57.931Z",
    "source_name": "google",
    "source_query": "Irrigation Equipment",
    "source_country": "PL",
    "country": "Poland",
    "state": "Greater Poland Voivodeship",
    "city": "Środa Wielkopolska"
  },
  {
    "source_id": "ChIJm39DBg37BEcR6VzuAQW1-qI",
    "name": "SKLEP SMOLIŃSCY KOSIARKI , TRAKORKI , PILARKI,SERWIS",
    "category": "SKLEP SMOLIŃSCY KOSIARKI , TRAKORKI , PILARKI,SERWIS",
    "formatted_address": "SKLEP SMOLIŃSCY KOSIARKI , TRAKORKI , PILARKI,SERWIS",
    "phone_number": "+48612856918",
    "source_url": "https://www.google.com/maps/place/SKLEP+SMOLI%C5%83SCY+KOSIARKI+,+TRAKORKI+,+PILARKI,SERWIS/data=!4m7!3m6!1s0x4704fb0d06437f9b:0xa2fab50501ee5ce9!8m2!3d52.2289253!4d17.26692!16s%2Fg%2F1wfvlc3g!19sChIJm39DBg37BEcR6VzuAQW1-qI?authuser=0&hl=tr&rclk=1",
    "website_url": "",
    "rating_text": "4,5",
    "stars": null,
    "number_of_reviews": null,
    "price_level": "",
    "open_hours": "",
    "extraction_timestamp": "2025-06-07T17:18:57.932Z",
    "source_name": "google",
    "source_query": "Irrigation Equipment",
    "source_country": "PL",
    "country": "Poland",
    "state": "Greater Poland Voivodeship",
    "city": "Środa Wielkopolska"
  },
  {
    "source_id": "ChIJqbVEkUb7BEcREO8ZMhizOrc",
    "name": "Jackowski-Sikora sp.j. PH",
    "category": "Jackowski-Sikora sp.j. PH",
    "formatted_address": "4,2(13)",
    "phone_number": "+48612856733",
    "source_url": "https://www.google.com/maps/place/Jackowski-Sikora+sp.j.+PH/data=!4m7!3m6!1s0x4704fb469144b5a9:0xb73ab3183219ef10!8m2!3d52.2193753!4d17.2909303!16s%2Fg%2F1tf6kxgh!19sChIJqbVEkUb7BEcREO8ZMhizOrc?authuser=0&hl=tr&rclk=1",
    "website_url": "",
    "rating_text": "4,2",
    "stars": null,
    "number_of_reviews": null,
    "price_level": "",
    "open_hours": "",
    "extraction_timestamp": "2025-06-07T17:18:57.933Z",
    "source_name": "google",
    "source_query": "Irrigation Equipment",
    "source_country": "PL",
    "country": "Poland",
    "state": "Greater Poland Voivodeship",
    "city": "Środa Wielkopolska"
  },
  {
    "source_id": "ChIJyzL7W0f7BEcR8QnhWuq5xfk",
    "name": "GRENE",
    "category": "GRENE",
    "formatted_address": "4,6(25)",
    "phone_number": "+48601900528",
    "source_url": "https://www.google.com/maps/place/GRENE/data=!4m7!3m6!1s0x4704fb475bfb32cb:0xf9c5b9ea5ae109f1!8m2!3d52.2219952!4d17.2932154!16s%2Fg%2F1thqfgdx!19sChIJyzL7W0f7BEcR8QnhWuq5xfk?authuser=0&hl=tr&rclk=1",
    "website_url": "",
    "rating_text": "4,6",
    "stars": null,
    "number_of_reviews": null,
    "price_level": "",
    "open_hours": "",
    "extraction_timestamp": "2025-06-07T17:18:57.934Z",
    "source_name": "google",
    "source_query": "Irrigation Equipment",
    "source_country": "PL",
    "country": "Poland",
    "state": "Greater Poland Voivodeship",
    "city": "Środa Wielkopolska"
  },
  {
    "source_id": "ChIJ7_GfVBH7BEcRXWKRfPAbYHg",
    "name": "Polmatur Sp. Z O.o.",
    "category": "Polmatur Sp. Z O.o.",
    "formatted_address": "5,0(2)",
    "phone_number": "+48797350884",
    "source_url": "https://www.google.com/maps/place/Polmatur+Sp.+Z+O.o./data=!4m7!3m6!1s0x4704fb11549ff1ef:0x78601bf07c91625d!8m2!3d52.2309844!4d17.253851!16s%2Fg%2F11h0vqrksh!19sChIJ7_GfVBH7BEcRXWKRfPAbYHg?authuser=0&hl=tr&rclk=1",
    "website_url": "",
    "rating_text": "5,0",
    "stars": null,
    "number_of_reviews": null,
    "price_level": "",
    "open_hours": "",
    "extraction_timestamp": "2025-06-07T17:18:57.935Z",
    "source_name": "google",
    "source_query": "Irrigation Equipment",
    "source_country": "PL",
    "country": "Poland",
    "state": "Greater Poland Voivodeship",
    "city": "Środa Wielkopolska"
  },
  {
    "source_id": "ChIJp_EbW6D7BEcRHA_tO3OIuCo",
    "name": "WWTS Wytwarzanie Wyrobów z Tworzyw Sztucznych Andrzej Pawlak",
    "category": "WWTS Wytwarzanie Wyrobów z Tworzyw Sztucznych Andrzej Pawlak",
    "formatted_address": "5,0(3)",
    "phone_number": "+48502502788",
    "source_url": "https://www.google.com/maps/place/WWTS+Wytwarzanie+Wyrob%C3%B3w+z+Tworzyw+Sztucznych+Andrzej+Pawlak/data=!4m7!3m6!1s0x4704fba05b1bf1a7:0x2ab888733bed0f1c!8m2!3d52.2305378!4d17.2481424!16s%2Fg%2F1tdm70b4!19sChIJp_EbW6D7BEcRHA_tO3OIuCo?authuser=0&hl=tr&rclk=1",
    "website_url": "",
    "rating_text": "5,0",
    "stars": null,
    "number_of_reviews": null,
    "price_level": "",
    "open_hours": "",
    "extraction_timestamp": "2025-06-07T17:18:57.936Z",
    "source_name": "google",
    "source_query": "Irrigation Equipment",
    "source_country": "PL",
    "country": "Poland",
    "state": "Greater Poland Voivodeship",
    "city": "Środa Wielkopolska"
  },
  {
    "source_id": "ChIJyzL7W0f7BEcRIrwPg2IxjUQ",
    "name": "Łopatka. FH. Łopatka S.",
    "category": "Łopatka. FH. Łopatka S.",
    "formatted_address": "4,3(81)",
    "phone_number": "+48602299869",
    "source_url": "https://www.google.com/maps/place/%C5%81opatka.+FH.+%C5%81opatka+S./data=!4m7!3m6!1s0x4704fb475bfb32cb:0x448d3162830fbc22!8m2!3d52.2230714!4d17.2916644!16s%2Fg%2F1v299qj5!19sChIJyzL7W0f7BEcRIrwPg2IxjUQ?authuser=0&hl=tr&rclk=1",
    "website_url": "",
    "rating_text": "4,3",
    "stars": null,
    "number_of_reviews": null,
    "price_level": "",
    "open_hours": "",
    "extraction_timestamp": "2025-06-07T17:18:57.936Z",
    "source_name": "google",
    "source_query": "Irrigation Equipment",
    "source_country": "PL",
    "country": "Poland",
    "state": "Greater Poland Voivodeship",
    "city": "Środa Wielkopolska"
  },
  {
    "source_id": "ChIJFdskLUb7BEcRYjm39Uc-uv4",
    "name": "P.P.H.U. Hydro-Pomp Michał Dydymski",
    "category": "P.P.H.U. Hydro-Pomp Michał Dydymski",
    "formatted_address": "5,0(1)",
    "phone_number": "+48612856771",
    "source_url": "https://www.google.com/maps/place/P.P.H.U.+Hydro-Pomp+Micha%C5%82+Dydymski/data=!4m7!3m6!1s0x4704fb462d24db15:0xfeba3e47f5b73962!8m2!3d52.2199578!4d17.2963723!16s%2Fg%2F1tdcq6vc!19sChIJFdskLUb7BEcRYjm39Uc-uv4?authuser=0&hl=tr&rclk=1",
    "website_url": "",
    "rating_text": "5,0",
    "stars": null,
    "number_of_reviews": null,
    "price_level": "",
    "open_hours": "",
    "extraction_timestamp": "2025-06-07T17:18:57.937Z",
    "source_name": "google",
    "source_query": "Irrigation Equipment",
    "source_country": "PL",
    "country": "Poland",
    "state": "Greater Poland Voivodeship",
    "city": "Środa Wielkopolska"
  },
  {
    "source_id": "ChIJV3QGaQT7BEcR_a5c-9ID-vg",
    "name": "San-Instal Krzysztof Michalak",
    "category": "San-Instal Krzysztof Michalak",
    "formatted_address": "4,5(6)",
    "phone_number": "+48537884522",
    "source_url": "https://www.google.com/maps/place/San-Instal+Krzysztof+Michalak/data=!4m7!3m6!1s0x4704fb0469067457:0xf8fa03d2fb5caefd!8m2!3d52.223062!4d17.280877!16s%2Fg%2F11gh27vvyf!19sChIJV3QGaQT7BEcR_a5c-9ID-vg?authuser=0&hl=tr&rclk=1",
    "website_url": "",
    "rating_text": "4,5",
    "stars": null,
    "number_of_reviews": null,
    "price_level": "",
    "open_hours": "",
    "extraction_timestamp": "2025-06-07T17:18:57.938Z",
    "source_name": "google",
    "source_query": "Irrigation Equipment",
    "source_country": "PL",
    "country": "Poland",
    "state": "Greater Poland Voivodeship",
    "city": "Środa Wielkopolska"
  },
  {
    "source_id": "ChIJi2itdkH7BEcRStT6jTHE-MY",
    "name": "Związek Spółek Wodnych",
    "category": "Związek Spółek Wodnych",
    "formatted_address": "5,0(1)",
    "phone_number": "+48612852761",
    "source_url": "https://www.google.com/maps/place/Zwi%C4%85zek+Sp%C3%B3%C5%82ek+Wodnych/data=!4m7!3m6!1s0x4704fb4176ad688b:0xc6f8c4318dfad44a!8m2!3d52.2226384!4d17.2668277!16s%2Fg%2F1w3w1rtm!19sChIJi2itdkH7BEcRStT6jTHE-MY?authuser=0&hl=tr&rclk=1",
    "website_url": "",
    "rating_text": "5,0",
    "stars": null,
    "number_of_reviews": null,
    "price_level": "",
    "open_hours": "",
    "extraction_timestamp": "2025-06-07T17:18:57.939Z",
    "source_name": "google",
    "source_query": "Irrigation Equipment",
    "source_country": "PL",
    "country": "Poland",
    "state": "Greater Poland Voivodeship",
    "city": "Środa Wielkopolska"
  },
  {
    "source_id": "ChIJ6f9xCaH7BEcRo65n9I_Qg00",
    "name": "\"Techmet\" Biuro Techniczno-Handlowe Małgorzata Świetlik",
    "category": "\"Techmet\" Biuro Techniczno-Handlowe Małgorzata Świetlik",
    "formatted_address": "4,9(8)",
    "phone_number": "+48692413319",
    "source_url": "https://www.google.com/maps/place/%22Techmet%22+Biuro+Techniczno-Handlowe+Ma%C5%82gorzata+%C5%9Awietlik/data=!4m7!3m6!1s0x4704fba10971ffe9:0x4d83d08ff467aea3!8m2!3d52.2323826!4d17.251065!16s%2Fg%2F1tdflzpf!19sChIJ6f9xCaH7BEcRo65n9I_Qg00?authuser=0&hl=tr&rclk=1",
    "website_url": "",
    "rating_text": "4,9",
    "stars": null,
    "number_of_reviews": null,
    "price_level": "",
    "open_hours": "",
    "extraction_timestamp": "2025-06-07T17:18:57.940Z",
    "source_name": "google",
    "source_query": "Irrigation Equipment",
    "source_country": "PL",
    "country": "Poland",
    "state": "Greater Poland Voivodeship",
    "city": "Środa Wielkopolska"
  },
  {
    "source_id": "ChIJfbKnWD77BEcRAJA63QEgIZA",
    "name": "Piotr-instal. Instalacje wodne, kanalizacyjne, gazowe, grzewcze",
    "category": "Piotr-instal. Instalacje wodne, kanalizacyjne, gazowe, grzewcze",
    "formatted_address": "Piotr-instal. Instalacje wodne, kanalizacyjne, gazowe, grzewcze",
    "phone_number": "+48508352998",
    "source_url": "https://www.google.com/maps/place/Piotr-instal.+Instalacje+wodne,+kanalizacyjne,+gazowe,+grzewcze/data=!4m7!3m6!1s0x4704fb3e58a7b27d:0x90212001dd3a9000!8m2!3d52.2255218!4d17.2814791!16s%2Fg%2F11y1ns7qry!19sChIJfbKnWD77BEcRAJA63QEgIZA?authuser=0&hl=tr&rclk=1",
    "website_url": "",
    "rating_text": "4,5",
    "stars": null,
    "number_of_reviews": null,
    "price_level": "",
    "open_hours": "",
    "extraction_timestamp": "2025-06-07T17:18:57.941Z",
    "source_name": "google",
    "source_query": "Irrigation Equipment",
    "source_country": "PL",
    "country": "Poland",
    "state": "Greater Poland Voivodeship",
    "city": "Środa Wielkopolska"
  },
  {
    "source_id": "ChIJDdP-yEb7BEcR5GNYBxBYF6s",
    "name": "Bricomarché",
    "category": "Bricomarché",
    "formatted_address": "4,2(1.294)",
    "phone_number": "+48612852244",
    "source_url": "https://www.google.com/maps/place/Bricomarch%C3%A9/data=!4m7!3m6!1s0x4704fb46c8fed30d:0xab175810075863e4!8m2!3d52.2199287!4d17.2906799!16s%2Fg%2F11gzdvgff!19sChIJDdP-yEb7BEcR5GNYBxBYF6s?authuser=0&hl=tr&rclk=1",
    "website_url": "",
    "rating_text": "4,2",
    "stars": null,
    "number_of_reviews": null,
    "price_level": "",
    "open_hours": "",
    "extraction_timestamp": "2025-06-07T17:18:57.942Z",
    "source_name": "google",
    "source_query": "Irrigation Equipment",
    "source_country": "PL",
    "country": "Poland",
    "state": "Greater Poland Voivodeship",
    "city": "Środa Wielkopolska"
  },
  {
    "source_id": "ChIJWRHDnAr7BEcRi-y-7iptxWI",
    "name": "HOMAG Polska",
    "category": "HOMAG Polska",
    "formatted_address": "4,2(129)",
    "phone_number": "+48616474500",
    "source_url": "https://www.google.com/maps/place/HOMAG+Polska/data=!4m7!3m6!1s0x4704fb0a9cc31159:0x62c56d2aeebeec8b!8m2!3d52.2310332!4d17.2558263!16s%2Fg%2F1tf7qv7c!19sChIJWRHDnAr7BEcRi-y-7iptxWI?authuser=0&hl=tr&rclk=1",
    "website_url": "",
    "rating_text": "4,2",
    "stars": null,
    "number_of_reviews": null,
    "price_level": "",
    "open_hours": "",
    "extraction_timestamp": "2025-06-07T17:18:57.943Z",
    "source_name": "google",
    "source_query": "Irrigation Equipment",
    "source_country": "PL",
    "country": "Poland",
    "state": "Greater Poland Voivodeship",
    "city": "Środa Wielkopolska"
  },
  {
    "source_id": "ChIJiyePc2r7BEcRKbTgeodGZbo",
    "name": "Green Bike Poland S.C.",
    "category": "Green Bike Poland S.C.",
    "formatted_address": "3,3(63)",
    "phone_number": "+48612853390",
    "source_url": "https://www.google.com/maps/place/Green+Bike+Poland+S.C./data=!4m7!3m6!1s0x4704fb6a738f278b:0xba6546877ae0b429!8m2!3d52.2209484!4d17.2811233!16s%2Fg%2F1hhk5qq0d!19sChIJiyePc2r7BEcRKbTgeodGZbo?authuser=0&hl=tr&rclk=1",
    "website_url": "",
    "rating_text": "3,3",
    "stars": null,
    "number_of_reviews": null,
    "price_level": "",
    "open_hours": "",
    "extraction_timestamp": "2025-06-07T17:18:57.944Z",
    "source_name": "google",
    "source_query": "Irrigation Equipment",
    "source_country": "PL",
    "country": "Poland",
    "state": "Greater Poland Voivodeship",
    "city": "Środa Wielkopolska"
  },
  {
    "source_id": "ChIJPQhvQ8H7BEcRIBTYyv-iKrI",
    "name": "Zielona Magia Centrum ogrodnicze",
    "category": "Zielona Magia Centrum ogrodnicze",
    "formatted_address": "5,0(26)",
    "phone_number": "+48698358348",
    "source_url": "https://www.google.com/maps/place/Zielona+Magia+Centrum+ogrodnicze/data=!4m7!3m6!1s0x4704fbc1436f083d:0xb22aa2ffcad81420!8m2!3d52.2148789!4d17.2783445!16s%2Fg%2F11rfn4075h!19sChIJPQhvQ8H7BEcRIBTYyv-iKrI?authuser=0&hl=tr&rclk=1",
    "website_url": "",
    "rating_text": "5,0",
    "stars": null,
    "number_of_reviews": null,
    "price_level": "",
    "open_hours": "",
    "extraction_timestamp": "2025-06-07T17:18:57.945Z",
    "source_name": "google",
    "source_query": "Irrigation Equipment",
    "source_country": "PL",
    "country": "Poland",
    "state": "Greater Poland Voivodeship",
    "city": "Środa Wielkopolska"
  },
  {
    "source_id": "ChIJyzL7W0f7BEcRR1pVYF5-cVY",
    "name": "Sklep ogrodniczy Rom-Tech - Środa Wielkopolska",
    "category": "Sklep ogrodniczy Rom-Tech - Środa Wielkopolska",
    "formatted_address": "4,5(57)",
    "phone_number": "+48612852336",
    "source_url": "https://www.google.com/maps/place/Sklep+ogrodniczy+Rom-Tech+-+%C5%9Aroda+Wielkopolska/data=!4m7!3m6!1s0x4704fb475bfb32cb:0x56717e5e60555a47!8m2!3d52.2214874!4d17.2879683!16s%2Fg%2F1w6_mjdh!19sChIJyzL7W0f7BEcRR1pVYF5-cVY?authuser=0&hl=tr&rclk=1",
    "website_url": "",
    "rating_text": "4,5",
    "stars": null,
    "number_of_reviews": null,
    "price_level": "",
    "open_hours": "",
    "extraction_timestamp": "2025-06-07T17:18:57.945Z",
    "source_name": "google",
    "source_query": "Irrigation Equipment",
    "source_country": "PL",
    "country": "Poland",
    "state": "Greater Poland Voivodeship",
    "city": "Środa Wielkopolska"
  },
  {
    "source_id": "ChIJTdS3eSL7BEcRQ1t5-_DW2ZU",
    "name": "Plaża miejska",
    "category": "Plaża miejska",
    "formatted_address": "4,5(291)",
    "phone_number": "",
    "source_url": "https://www.google.com/maps/place/Pla%C5%BCa+miejska/data=!4m7!3m6!1s0x4704fb2279b7d44d:0x95d9d6f0fb795b43!8m2!3d52.2375778!4d17.2924473!16s%2Fg%2F11g9q3j4wn!19sChIJTdS3eSL7BEcRQ1t5-_DW2ZU?authuser=0&hl=tr&rclk=1",
    "website_url": "",
    "rating_text": "4,5",
    "stars": null,
    "number_of_reviews": null,
    "price_level": "",
    "open_hours": "",
    "extraction_timestamp": "2025-06-07T17:18:57.946Z",
    "source_name": "google",
    "source_query": "Irrigation Equipment",
    "source_country": "PL",
    "country": "Poland",
    "state": "Greater Poland Voivodeship",
    "city": "Środa Wielkopolska"
  },
  {
    "source_id": "ChIJm6r69EH7BEcRkn1EqQ3q9aE",
    "name": "HIPPER.pl",
    "category": "HIPPER.pl",
    "formatted_address": "4,2(745)",
    "phone_number": "+48509145277",
    "source_url": "https://www.google.com/maps/place/HIPPER.pl/data=!4m7!3m6!1s0x4704fb41f4faaa9b:0xa1f5ea0da9447d92!8m2!3d52.2194444!4d17.2825!16s%2Fg%2F11gfhyvykl!19sChIJm6r69EH7BEcRkn1EqQ3q9aE?authuser=0&hl=tr&rclk=1",
    "website_url": "",
    "rating_text": "4,2",
    "stars": null,
    "number_of_reviews": null,
    "price_level": "",
    "open_hours": "",
    "extraction_timestamp": "2025-06-07T17:18:57.947Z",
    "source_name": "google",
    "source_query": "Irrigation Equipment",
    "source_country": "PL",
    "country": "Poland",
    "state": "Greater Poland Voivodeship",
    "city": "Środa Wielkopolska"
  },
  {
    "source_id": "ChIJWb-9sPzlBEcRa1zP4tBrWQk",
    "name": "MWdragons Centrum Zoologiczne",
    "category": "MWdragons Centrum Zoologiczne",
    "formatted_address": "4,9(28)",
    "phone_number": "+48730106505",
    "source_url": "https://www.google.com/maps/place/MWdragons+Centrum+Zoologiczne/data=!4m7!3m6!1s0x4704e5fcb0bdbf59:0x9596bd0e2cf5c6b!8m2!3d52.2193143!4d17.2829769!16s%2Fg%2F11sgjw2jwt!19sChIJWb-9sPzlBEcRa1zP4tBrWQk?authuser=0&hl=tr&rclk=1",
    "website_url": "",
    "rating_text": "4,9",
    "stars": null,
    "number_of_reviews": null,
    "price_level": "",
    "open_hours": "",
    "extraction_timestamp": "2025-06-07T17:18:57.948Z",
    "source_name": "google",
    "source_query": "Irrigation Equipment",
    "source_country": "PL",
    "country": "Poland",
    "state": "Greater Poland Voivodeship",
    "city": "Środa Wielkopolska"
  },
  {
    "source_id": "ChIJy5KFaOz7BEcRmXpRVHnwyjU",
    "name": "Action Środa Wielkopolska",
    "category": "Action Środa Wielkopolska",
    "formatted_address": "4,5(188)",
    "phone_number": "+48326305898",
    "source_url": "https://www.google.com/maps/place/Action+%C5%9Aroda+Wielkopolska/data=!4m7!3m6!1s0x4704fbec688592cb:0x35caf07954517a99!8m2!3d52.2296566!4d17.2773713!16s%2Fg%2F11nntyggr5!19sChIJy5KFaOz7BEcRmXpRVHnwyjU?authuser=0&hl=tr&rclk=1",
    "website_url": "",
    "rating_text": "4,5",
    "stars": null,
    "number_of_reviews": null,
    "price_level": "",
    "open_hours": "",
    "extraction_timestamp": "2025-06-07T17:18:57.948Z",
    "source_name": "google",
    "source_query": "Irrigation Equipment",
    "source_country": "PL",
    "country": "Poland",
    "state": "Greater Poland Voivodeship",
    "city": "Środa Wielkopolska"
  },
  {
    "source_id": "ChIJIe4bW6D7BEcRBcS-f2m6Gkg",
    "name": "Milltec Poznań Sp. z o.o.",
    "category": "Milltec Poznań Sp. z o.o.",
    "formatted_address": "4,4(8)",
    "phone_number": "+48616793258",
    "source_url": "https://www.google.com/maps/place/Milltec+Pozna%C5%84+Sp.+z+o.o./data=!4m7!3m6!1s0x4704fba05b1bee21:0x481aba697fbec405!8m2!3d52.2299421!4d17.250985!16s%2Fg%2F11bxc7k32t!19sChIJIe4bW6D7BEcRBcS-f2m6Gkg?authuser=0&hl=tr&rclk=1",
    "website_url": "",
    "rating_text": "4,4",
    "stars": null,
    "number_of_reviews": null,
    "price_level": "",
    "open_hours": "",
    "extraction_timestamp": "2025-06-07T17:18:57.949Z",
    "source_name": "google",
    "source_query": "Irrigation Equipment",
    "source_country": "PL",
    "country": "Poland",
    "state": "Greater Poland Voivodeship",
    "city": "Środa Wielkopolska"
  },
  {
    "source_id": "ChIJzxUl_lj7BEcR2k4RlO6Mn2I",
    "name": "TIKO PLUS Janusz Nitsche. Technika grzewcza i sanitarna.",
    "category": "TIKO PLUS Janusz Nitsche. Technika grzewcza i sanitarna.",
    "formatted_address": "",
    "phone_number": "+48690099099",
    "source_url": "https://www.google.com/maps/place/TIKO+PLUS+Janusz+Nitsche.+Technika+grzewcza+i+sanitarna./data=!4m7!3m6!1s0x4704fb58fe2515cf:0x629f8cee94114eda!8m2!3d52.2291675!4d17.2669237!16s%2Fg%2F11w3gh9fth!19sChIJzxUl_lj7BEcR2k4RlO6Mn2I?authuser=0&hl=tr&rclk=1",
    "website_url": "",
    "rating_text": "",
    "stars": null,
    "number_of_reviews": null,
    "price_level": "",
    "open_hours": "",
    "extraction_timestamp": "2025-06-07T17:18:57.950Z",
    "source_name": "google",
    "source_query": "Irrigation Equipment",
    "source_country": "PL",
    "country": "Poland",
    "state": "Greater Poland Voivodeship",
    "city": "Środa Wielkopolska"
  },
  {
    "source_id": "ChIJ7z4p-kH7BEcRFf8fnoOOofU",
    "name": "SPA Ogrodowe Poznań",
    "category": "SPA Ogrodowe Poznań",
    "formatted_address": "4,7(82)",
    "phone_number": "+48530743002",
    "source_url": "https://www.google.com/maps/place/SPA+Ogrodowe+Pozna%C5%84/data=!4m7!3m6!1s0x4704fb41fa293eef:0xf5a18e839e1fff15!8m2!3d52.2257783!4d17.2862364!16s%2Fg%2F11f5d442yk!19sChIJ7z4p-kH7BEcRFf8fnoOOofU?authuser=0&hl=tr&rclk=1",
    "website_url": "",
    "rating_text": "4,7",
    "stars": null,
    "number_of_reviews": null,
    "price_level": "",
    "open_hours": "",
    "extraction_timestamp": "2025-06-07T17:18:57.951Z",
    "source_name": "google",
    "source_query": "Irrigation Equipment",
    "source_country": "PL",
    "country": "Poland",
    "state": "Greater Poland Voivodeship",
    "city": "Środa Wielkopolska"
  },
  {
    "source_id": "ChIJF9XFFEH7BEcRnWp4qK-vYJk",
    "name": "Euronyl Assembling",
    "category": "Euronyl Assembling",
    "formatted_address": "3,9(31)",
    "phone_number": "",
    "source_url": "https://www.google.com/maps/place/Euronyl+Assembling/data=!4m7!3m6!1s0x4704fb4114c5d517:0x9960afafa8786a9d!8m2!3d52.2201353!4d17.286763!16s%2Fg%2F11bv2lp0gt!19sChIJF9XFFEH7BEcRnWp4qK-vYJk?authuser=0&hl=tr&rclk=1",
    "website_url": "",
    "rating_text": "3,9",
    "stars": null,
    "number_of_reviews": null,
    "price_level": "",
    "open_hours": "",
    "extraction_timestamp": "2025-06-07T17:18:57.951Z",
    "source_name": "google",
    "source_query": "Irrigation Equipment",
    "source_country": "PL",
    "country": "Poland",
    "state": "Greater Poland Voivodeship",
    "city": "Środa Wielkopolska"
  },
  {
    "source_id": "ChIJYz5vchT7BEcRQFlo5BAIFrw",
    "name": "Eska s.c. PH. Dobrzańska K., Kniat S.J.",
    "category": "Eska s.c. PH. Dobrzańska K., Kniat S.J.",
    "formatted_address": "Eska s.c. PH. Dobrzańska K., Kniat S.J.",
    "phone_number": "+48612865326",
    "source_url": "https://www.google.com/maps/place/Eska+s.c.+PH.+Dobrza%C5%84ska+K.,+Kniat+S.J./data=!4m7!3m6!1s0x4704fb14726f3e63:0xbc160810e4685940!8m2!3d52.2291237!4d17.2794788!16s%2Fg%2F1tgxs779!19sChIJYz5vchT7BEcRQFlo5BAIFrw?authuser=0&hl=tr&rclk=1",
    "website_url": "",
    "rating_text": "4,4",
    "stars": null,
    "number_of_reviews": null,
    "price_level": "",
    "open_hours": "",
    "extraction_timestamp": "2025-06-07T17:18:57.952Z",
    "source_name": "google",
    "source_query": "Irrigation Equipment",
    "source_country": "PL",
    "country": "Poland",
    "state": "Greater Poland Voivodeship",
    "city": "Środa Wielkopolska"
  },
  {
    "source_id": "ChIJix4ELRP7BEcRT9N4qSEyz14",
    "name": "Cora",
    "category": "Cora",
    "formatted_address": "4,4(14)",
    "phone_number": "+48516076500",
    "source_url": "https://www.google.com/maps/place/Cora/data=!4m7!3m6!1s0x4704fb132d041e8b:0x5ecf3221a978d34f!8m2!3d52.2262966!4d17.2730846!16s%2Fg%2F1tm09hxt!19sChIJix4ELRP7BEcRT9N4qSEyz14?authuser=0&hl=tr&rclk=1",
    "website_url": "",
    "rating_text": "4,4",
    "stars": null,
    "number_of_reviews": null,
    "price_level": "",
    "open_hours": "",
    "extraction_timestamp": "2025-06-07T17:18:57.953Z",
    "source_name": "google",
    "source_query": "Irrigation Equipment",
    "source_country": "PL",
    "country": "Poland",
    "state": "Greater Poland Voivodeship",
    "city": "Środa Wielkopolska"
  }
]
