[
  {
    "source_id": "ChIJw7ED7X69BUcRurdzx167SUs",
    "name": "Agregaty",
    "category": "Agregaty",
    "formatted_address": "4,8(13)",
    "phone_number": "+48655349282",
    "source_url": "https://www.google.com/maps/place/Agregaty/data=!4m7!3m6!1s0x4705bd7eed03b1c3:0x4b49bb5ec773b7ba!8m2!3d51.8817381!4d16.524245!16s%2Fg%2F11h48wln4w!19sChIJw7ED7X69BUcRurdzx167SUs?authuser=0&hl=tr&rclk=1",
    "website_url": "",
    "rating_text": "4,8",
    "stars": null,
    "number_of_reviews": null,
    "price_level": "",
    "open_hours": "",
    "extraction_timestamp": "2025-06-07T17:37:30.329Z",
    "source_name": "google",
    "source_query": "Irrigation Equipment",
    "source_country": "PL",
    "country": "Poland",
    "state": "Greater Poland Voivodeship",
    "city": "Święciechowa"
  },
  {
    "source_id": "ChIJ_cHhV0uWBUcR59ChNIi4W7o",
    "name": "Hurtowet sp.j. Pawlisiak, Haława, Nolbrzyk",
    "category": "Hurtowet sp.j. Pawlisiak, Haława, Nolbrzyk",
    "formatted_address": "Hurtowet sp.j. Pawlisiak, Haława, Nolbrzyk",
    "phone_number": "+48655209932",
    "source_url": "https://www.google.com/maps/place/Hurtowet+sp.j.+Pawlisiak,+Ha%C5%82awa,+Nolbrzyk/data=!4m7!3m6!1s0x4705964b57e1c1fd:0xba5bb88834a1d0e7!8m2!3d51.858451!4d16.505316!16s%2Fg%2F1tfvrnkz!19sChIJ_cHhV0uWBUcR59ChNIi4W7o?authuser=0&hl=tr&rclk=1",
    "website_url": "",
    "rating_text": "4,5",
    "stars": null,
    "number_of_reviews": null,
    "price_level": "",
    "open_hours": "",
    "extraction_timestamp": "2025-06-07T17:37:30.330Z",
    "source_name": "google",
    "source_query": "Irrigation Equipment",
    "source_country": "PL",
    "country": "Poland",
    "state": "Greater Poland Voivodeship",
    "city": "Święciechowa"
  },
  {
    "source_id": "ChIJy3P-BHeXBUcRo0TfLYobfsA",
    "name": "Hurtownia artykułów sanitarnych - Hydro Kan Instal",
    "category": "Hurtownia artykułów sanitarnych - Hydro Kan Instal",
    "formatted_address": "4,6(17)",
    "phone_number": "+48500125737",
    "source_url": "https://www.google.com/maps/place/Hurtownia+artyku%C5%82%C3%B3w+sanitarnych+-+Hydro+Kan+Instal/data=!4m7!3m6!1s0x4705977704fe73cb:0xc07e1b8a2ddf44a3!8m2!3d51.847698!4d16.5429689!16s%2Fg%2F11h4vn9cx5!19sChIJy3P-BHeXBUcRo0TfLYobfsA?authuser=0&hl=tr&rclk=1",
    "website_url": "",
    "rating_text": "4,6",
    "stars": null,
    "number_of_reviews": null,
    "price_level": "",
    "open_hours": "",
    "extraction_timestamp": "2025-06-07T17:37:30.331Z",
    "source_name": "google",
    "source_query": "Irrigation Equipment",
    "source_country": "PL",
    "country": "Poland",
    "state": "Greater Poland Voivodeship",
    "city": "Święciechowa"
  },
  {
    "source_id": "ChIJyUvLztWXBUcRsLslPcmitPE",
    "name": "HYDRO KAN INSTAL J. SZCZERBAL, P. SIADEK - SPÓŁKA JAWNA",
    "category": "HYDRO KAN INSTAL J. SZCZERBAL, P. SIADEK - SPÓŁKA JAWNA",
    "formatted_address": "HYDRO KAN INSTAL J. SZCZERBAL, P. SIADEK - SPÓŁKA JAWNA",
    "phone_number": "+48500125737",
    "source_url": "https://www.google.com/maps/place/HYDRO+KAN+INSTAL+J.+SZCZERBAL,+P.+SIADEK+-+SP%C3%93%C5%81KA+JAWNA/data=!4m7!3m6!1s0x470597d5cecb4bc9:0xf1b4a2c93d25bbb0!8m2!3d51.847698!4d16.5429689!16s%2Fg%2F11lcmw3rwr!19sChIJyUvLztWXBUcRsLslPcmitPE?authuser=0&hl=tr&rclk=1",
    "website_url": "",
    "rating_text": "5,0",
    "stars": null,
    "number_of_reviews": null,
    "price_level": "",
    "open_hours": "",
    "extraction_timestamp": "2025-06-07T17:37:30.331Z",
    "source_name": "google",
    "source_query": "Irrigation Equipment",
    "source_country": "PL",
    "country": "Poland",
    "state": "Greater Poland Voivodeship",
    "city": "Święciechowa"
  },
  {
    "source_id": "ChIJUdwhqgOYBUcR3jwtTyYHSx4",
    "name": "Hydro-Partner Sp. z o.o.",
    "category": "Hydro-Partner Sp. z o.o.",
    "formatted_address": "4,6(40)",
    "phone_number": "+48655252850",
    "source_url": "https://www.google.com/maps/place/Hydro-Partner+Sp.+z+o.o./data=!4m7!3m6!1s0x47059803aa21dc51:0x1e4b07264f2d3cde!8m2!3d51.8630159!4d16.5752719!16s%2Fg%2F1vgw7b90!19sChIJUdwhqgOYBUcR3jwtTyYHSx4?authuser=0&hl=tr&rclk=1",
    "website_url": "",
    "rating_text": "4,6",
    "stars": null,
    "number_of_reviews": null,
    "price_level": "",
    "open_hours": "",
    "extraction_timestamp": "2025-06-07T17:37:30.332Z",
    "source_name": "google",
    "source_query": "Irrigation Equipment",
    "source_country": "PL",
    "country": "Poland",
    "state": "Greater Poland Voivodeship",
    "city": "Święciechowa"
  },
  {
    "source_id": "ChIJFcf_V0uWBUcRysnuZxQtCsc",
    "name": "Centrum Ogrodnicze Święciechowa",
    "category": "Centrum Ogrodnicze Święciechowa",
    "formatted_address": "4,5(138)",
    "phone_number": "+48693621693",
    "source_url": "https://www.google.com/maps/place/Centrum+Ogrodnicze+%C5%9Awi%C4%99ciechowa/data=!4m7!3m6!1s0x4705964b57ffc715:0xc70a2d1467eec9ca!8m2!3d51.8492814!4d16.5292894!16s%2Fg%2F1tx_51n2!19sChIJFcf_V0uWBUcRysnuZxQtCsc?authuser=0&hl=tr&rclk=1",
    "website_url": "",
    "rating_text": "4,5",
    "stars": null,
    "number_of_reviews": null,
    "price_level": "",
    "open_hours": "",
    "extraction_timestamp": "2025-06-07T17:37:30.333Z",
    "source_name": "google",
    "source_query": "Irrigation Equipment",
    "source_country": "PL",
    "country": "Poland",
    "state": "Greater Poland Voivodeship",
    "city": "Święciechowa"
  },
  {
    "source_id": "ChIJ__8vRjGYBUcRbRkFMNRnGzI",
    "name": "NOVATECH silowniki24.pl",
    "category": "NOVATECH silowniki24.pl",
    "formatted_address": "5,0(2)",
    "phone_number": "+48660678158",
    "source_url": "https://www.google.com/maps/place/NOVATECH+silowniki24.pl/data=!4m7!3m6!1s0x47059831462fffff:0x321b67d43005196d!8m2!3d51.8340968!4d16.5760434!16s%2Fg%2F11m2dzxfrx!19sChIJ__8vRjGYBUcRbRkFMNRnGzI?authuser=0&hl=tr&rclk=1",
    "website_url": "",
    "rating_text": "5,0",
    "stars": null,
    "number_of_reviews": null,
    "price_level": "",
    "open_hours": "",
    "extraction_timestamp": "2025-06-07T17:37:30.334Z",
    "source_name": "google",
    "source_query": "Irrigation Equipment",
    "source_country": "PL",
    "country": "Poland",
    "state": "Greater Poland Voivodeship",
    "city": "Święciechowa"
  },
  {
    "source_id": "ChIJTyMyBb6XBUcRAGTGcCIZoPY",
    "name": "Instalacje sanitarno-grzewcze Przemysław Królikowski",
    "category": "Instalacje sanitarno-grzewcze Przemysław Królikowski",
    "formatted_address": "",
    "phone_number": "+48609424097",
    "source_url": "https://www.google.com/maps/place/Instalacje+sanitarno-grzewcze+Przemys%C5%82aw+Kr%C3%B3likowski/data=!4m7!3m6!1s0x470597be0532234f:0xf6a0192270c66400!8m2!3d51.8554208!4d16.5054013!16s%2Fg%2F11lwrq0c9_!19sChIJTyMyBb6XBUcRAGTGcCIZoPY?authuser=0&hl=tr&rclk=1",
    "website_url": "",
    "rating_text": "",
    "stars": null,
    "number_of_reviews": null,
    "price_level": "",
    "open_hours": "",
    "extraction_timestamp": "2025-06-07T17:37:30.335Z",
    "source_name": "google",
    "source_query": "Irrigation Equipment",
    "source_country": "PL",
    "country": "Poland",
    "state": "Greater Poland Voivodeship",
    "city": "Święciechowa"
  },
  {
    "source_id": "ChIJ_UJ2K0uWBUcRyGPpHVxQYE4",
    "name": "POLOmarket",
    "category": "POLOmarket",
    "formatted_address": "3,9(227)",
    "phone_number": "+48518011119",
    "source_url": "https://www.google.com/maps/place/POLOmarket/data=!4m7!3m6!1s0x4705964b2b7642fd:0x4e60505c1de963c8!8m2!3d51.8580506!4d16.5039958!16s%2Fg%2F12mm8byrv!19sChIJ_UJ2K0uWBUcRyGPpHVxQYE4?authuser=0&hl=tr&rclk=1",
    "website_url": "",
    "rating_text": "3,9",
    "stars": null,
    "number_of_reviews": null,
    "price_level": "",
    "open_hours": "",
    "extraction_timestamp": "2025-06-07T17:37:30.336Z",
    "source_name": "google",
    "source_query": "Irrigation Equipment",
    "source_country": "PL",
    "country": "Poland",
    "state": "Greater Poland Voivodeship",
    "city": "Święciechowa"
  },
  {
    "source_id": "ChIJEyFOF7SXBUcRaWGn_egJ4rc",
    "name": "Sklep Wielobranżowy Groszek",
    "category": "Sklep Wielobranżowy Groszek",
    "formatted_address": "4,4(40)",
    "phone_number": "",
    "source_url": "https://www.google.com/maps/place/Sklep+Wielobran%C5%BCowy+Groszek/data=!4m7!3m6!1s0x470597b4174e2113:0xb7e209e8fda76169!8m2!3d51.8545961!4d16.5085439!16s%2Fg%2F11cs2b2tp9!19sChIJEyFOF7SXBUcRaWGn_egJ4rc?authuser=0&hl=tr&rclk=1",
    "website_url": "",
    "rating_text": "4,4",
    "stars": null,
    "number_of_reviews": null,
    "price_level": "",
    "open_hours": "",
    "extraction_timestamp": "2025-06-07T17:37:30.336Z",
    "source_name": "google",
    "source_query": "Irrigation Equipment",
    "source_country": "PL",
    "country": "Poland",
    "state": "Greater Poland Voivodeship",
    "city": "Święciechowa"
  },
  {
    "source_id": "ChIJpTTxV0uWBUcRQk-cGAQmiUQ",
    "name": "Agra. Sklep spożywczy",
    "category": "Agra. Sklep spożywczy",
    "formatted_address": "4,0(1)",
    "phone_number": "+48655330617",
    "source_url": "https://www.google.com/maps/place/Agra.+Sklep+spo%C5%BCywczy/data=!4m7!3m6!1s0x4705964b57f134a5:0x44892604189c4f42!8m2!3d51.8546896!4d16.5006055!16s%2Fg%2F1pv2l7rxb!19sChIJpTTxV0uWBUcRQk-cGAQmiUQ?authuser=0&hl=tr&rclk=1",
    "website_url": "",
    "rating_text": "4,0",
    "stars": null,
    "number_of_reviews": null,
    "price_level": "",
    "open_hours": "",
    "extraction_timestamp": "2025-06-07T17:37:30.337Z",
    "source_name": "google",
    "source_query": "Irrigation Equipment",
    "source_country": "PL",
    "country": "Poland",
    "state": "Greater Poland Voivodeship",
    "city": "Święciechowa"
  },
  {
    "source_id": "ChIJhcHqBAKXBUcRTw4D9vu0s1Y",
    "name": "Biedronka",
    "category": "Biedronka",
    "formatted_address": "4,6(68)",
    "phone_number": "+48800080010",
    "source_url": "https://www.google.com/maps/place/Biedronka/data=!4m7!3m6!1s0x4705970204eac185:0x56b3b4fbf6030e4f!8m2!3d51.8504856!4d16.5219727!16s%2Fg%2F11y2nst__2!19sChIJhcHqBAKXBUcRTw4D9vu0s1Y?authuser=0&hl=tr&rclk=1",
    "website_url": "",
    "rating_text": "4,6",
    "stars": null,
    "number_of_reviews": null,
    "price_level": "",
    "open_hours": "",
    "extraction_timestamp": "2025-06-07T17:37:30.338Z",
    "source_name": "google",
    "source_query": "Irrigation Equipment",
    "source_country": "PL",
    "country": "Poland",
    "state": "Greater Poland Voivodeship",
    "city": "Święciechowa"
  },
  {
    "source_id": "ChIJSYFe-tCXBUcROAYKDW5QEe4",
    "name": "Home Master Paweł Masłowski",
    "category": "Home Master Paweł Masłowski",
    "formatted_address": "2,3(3)",
    "phone_number": "+48669974426",
    "source_url": "https://www.google.com/maps/place/Home+Master+Pawe%C5%82+Mas%C5%82owski/data=!4m7!3m6!1s0x470597d0fa5e8149:0xee11506e0d0a0638!8m2!3d51.8549839!4d16.5107049!16s%2Fg%2F11q9cb5h46!19sChIJSYFe-tCXBUcROAYKDW5QEe4?authuser=0&hl=tr&rclk=1",
    "website_url": "",
    "rating_text": "2,3",
    "stars": null,
    "number_of_reviews": null,
    "price_level": "",
    "open_hours": "",
    "extraction_timestamp": "2025-06-07T17:37:30.339Z",
    "source_name": "google",
    "source_query": "Irrigation Equipment",
    "source_country": "PL",
    "country": "Poland",
    "state": "Greater Poland Voivodeship",
    "city": "Święciechowa"
  },
  {
    "source_id": "ChIJD3ySpI-XBUcRNZqgJgF1FKM",
    "name": "Dino",
    "category": "Dino",
    "formatted_address": "4,0(22)",
    "phone_number": "",
    "source_url": "https://www.google.com/maps/place/Dino/data=!4m7!3m6!1s0x4705978fa4927c0f:0xa314750126a09a35!8m2!3d51.8601963!4d16.5055441!16s%2Fg%2F11vm7btb70!19sChIJD3ySpI-XBUcRNZqgJgF1FKM?authuser=0&hl=tr&rclk=1",
    "website_url": "",
    "rating_text": "4,0",
    "stars": null,
    "number_of_reviews": null,
    "price_level": "",
    "open_hours": "",
    "extraction_timestamp": "2025-06-07T17:37:30.340Z",
    "source_name": "google",
    "source_query": "Irrigation Equipment",
    "source_country": "PL",
    "country": "Poland",
    "state": "Greater Poland Voivodeship",
    "city": "Święciechowa"
  },
  {
    "source_id": "ChIJu8X346OXBUcRhg-t1PuoE8Q",
    "name": "Chata Polska. Sklep spożywczy",
    "category": "Chata Polska. Sklep spożywczy",
    "formatted_address": "2,9(10)",
    "phone_number": "",
    "source_url": "https://www.google.com/maps/place/Chata+Polska.+Sklep+spo%C5%BCywczy/data=!4m7!3m6!1s0x470597a3e3f7c5bb:0xc413a8fbd4ad0f86!8m2!3d51.8548193!4d16.4945645!16s%2Fg%2F11q30vmwsw!19sChIJu8X346OXBUcRhg-t1PuoE8Q?authuser=0&hl=tr&rclk=1",
    "website_url": "",
    "rating_text": "2,9",
    "stars": null,
    "number_of_reviews": null,
    "price_level": "",
    "open_hours": "",
    "extraction_timestamp": "2025-06-07T17:37:30.341Z",
    "source_name": "google",
    "source_query": "Irrigation Equipment",
    "source_country": "PL",
    "country": "Poland",
    "state": "Greater Poland Voivodeship",
    "city": "Święciechowa"
  }
]
