[
  {
    "source_id": "ChIJH6ynqqIgBUcRn19MZegvbnc",
    "name": "Mati. PHU. Matuszak R.",
    "category": "Mati. PHU. Matuszak R.",
    "formatted_address": "5,0(1)",
    "phone_number": "+48627403758",
    "source_url": "https://www.google.com/maps/place/Mati.+PHU.+Matuszak+R./data=!4m7!3m6!1s0x470520a2aaa7ac1f:0x776e2fe8654c5f9f!8m2!3d52.0603406!4d17.5718605!16s%2Fg%2F1wfcmvws!19sChIJH6ynqqIgBUcRn19MZegvbnc?authuser=0&hl=tr&rclk=1",
    "website_url": "",
    "rating_text": "5,0",
    "stars": null,
    "number_of_reviews": null,
    "price_level": "",
    "open_hours": "",
    "extraction_timestamp": "2025-06-07T17:42:39.699Z",
    "source_name": "google",
    "source_query": "Irrigation Equipment",
    "source_country": "PL",
    "country": "Poland",
    "state": "Greater Poland Voivodeship",
    "city": "Żerków"
  },
  {
    "source_id": "ChIJF2kZufEhBUcRrTJH92s39W4",
    "name": "Firma Handlowa \"SEMILLA\" (Drogeria)",
    "category": "Firma Handlowa \"SEMILLA\" (Drogeria)",
    "formatted_address": "5,0(1)",
    "phone_number": "",
    "source_url": "https://www.google.com/maps/place/Firma+Handlowa+%22SEMILLA%22+%28Drogeria%29/data=!4m7!3m6!1s0x470521f1b9196917:0x6ef5376bf74732ad!8m2!3d52.0683886!4d17.5640656!16s%2Fg%2F11s8yplb3f!19sChIJF2kZufEhBUcRrTJH92s39W4?authuser=0&hl=tr&rclk=1",
    "website_url": "",
    "rating_text": "5,0",
    "stars": null,
    "number_of_reviews": null,
    "price_level": "",
    "open_hours": "",
    "extraction_timestamp": "2025-06-07T17:42:39.700Z",
    "source_name": "google",
    "source_query": "Irrigation Equipment",
    "source_country": "PL",
    "country": "Poland",
    "state": "Greater Poland Voivodeship",
    "city": "Żerków"
  },
  {
    "source_id": "ChIJgwwajZwgBUcRWvLui6Q4b-c",
    "name": "BORYS ZABAWKI Żerków - Walczyk T.",
    "category": "BORYS ZABAWKI Żerków - Walczyk T.",
    "formatted_address": "4,6(22)",
    "phone_number": "+48519168204",
    "source_url": "https://www.google.com/maps/place/BORYS+ZABAWKI+%C5%BBerk%C3%B3w+-+Walczyk+T./data=!4m7!3m6!1s0x4705209c8d1a0c83:0xe76f38a48beef25a!8m2!3d52.0705151!4d17.5631465!16s%2Fg%2F1tznl1lv!19sChIJgwwajZwgBUcRWvLui6Q4b-c?authuser=0&hl=tr&rclk=1",
    "website_url": "",
    "rating_text": "4,6",
    "stars": null,
    "number_of_reviews": null,
    "price_level": "",
    "open_hours": "",
    "extraction_timestamp": "2025-06-07T17:42:39.703Z",
    "source_name": "google",
    "source_query": "Irrigation Equipment",
    "source_country": "PL",
    "country": "Poland",
    "state": "Greater Poland Voivodeship",
    "city": "Żerków"
  },
  {
    "source_id": "ChIJAYYoq2LfBEcR7V6l74pZNN4",
    "name": "Frątczak G., Szulc J. Rzeźnictwo, wędliny sp.j.",
    "category": "Frątczak G., Szulc J. Rzeźnictwo, wędliny sp.j.",
    "formatted_address": "Frątczak G., Szulc J. Rzeźnictwo, wędliny sp.j.",
    "phone_number": "+48627402180",
    "source_url": "https://www.google.com/maps/place/Fr%C4%85tczak+G.,+Szulc+J.+Rze%C5%BAnictwo,+w%C4%99dliny+sp.j./data=!4m7!3m6!1s0x4704df62ab288601:0xde34598aefa55eed!8m2!3d52.0690969!4d17.5633257!16s%2Fg%2F1tfb0ptp!19sChIJAYYoq2LfBEcR7V6l74pZNN4?authuser=0&hl=tr&rclk=1",
    "website_url": "",
    "rating_text": "5,0",
    "stars": null,
    "number_of_reviews": null,
    "price_level": "",
    "open_hours": "",
    "extraction_timestamp": "2025-06-07T17:42:39.704Z",
    "source_name": "google",
    "source_query": "Irrigation Equipment",
    "source_country": "PL",
    "country": "Poland",
    "state": "Greater Poland Voivodeship",
    "city": "Żerków"
  },
  {
    "source_id": "ChIJwzuTe4MgBUcRz4St0KFg5HY",
    "name": "Konieczny Grzegorz. Sklep spożywczo - warzywny",
    "category": "Konieczny Grzegorz. Sklep spożywczo - warzywny",
    "formatted_address": "4,8(6)",
    "phone_number": "+48627403718",
    "source_url": "https://www.google.com/maps/place/Konieczny+Grzegorz.+Sklep+spo%C5%BCywczo+-+warzywny/data=!4m7!3m6!1s0x470520837b933bc3:0x76e460a1d0ad84cf!8m2!3d52.0692286!4d17.5529086!16s%2Fg%2F1tgz459w!19sChIJwzuTe4MgBUcRz4St0KFg5HY?authuser=0&hl=tr&rclk=1",
    "website_url": "",
    "rating_text": "4,8",
    "stars": null,
    "number_of_reviews": null,
    "price_level": "",
    "open_hours": "",
    "extraction_timestamp": "2025-06-07T17:42:39.706Z",
    "source_name": "google",
    "source_query": "Irrigation Equipment",
    "source_country": "PL",
    "country": "Poland",
    "state": "Greater Poland Voivodeship",
    "city": "Żerków"
  },
  {
    "source_id": "ChIJiVFzHoMgBUcRmyZX3n5Jbnw",
    "name": "Dino",
    "category": "Dino",
    "formatted_address": "4,3(81)",
    "phone_number": "",
    "source_url": "https://www.google.com/maps/place/Dino/data=!4m7!3m6!1s0x470520831e735189:0x7c6e497ede57269b!8m2!3d52.0706268!4d17.5586699!16s%2Fg%2F11bzzw02m4!19sChIJiVFzHoMgBUcRmyZX3n5Jbnw?authuser=0&hl=tr&rclk=1",
    "website_url": "",
    "rating_text": "4,3",
    "stars": null,
    "number_of_reviews": null,
    "price_level": "",
    "open_hours": "",
    "extraction_timestamp": "2025-06-07T17:42:39.707Z",
    "source_name": "google",
    "source_query": "Irrigation Equipment",
    "source_country": "PL",
    "country": "Poland",
    "state": "Greater Poland Voivodeship",
    "city": "Żerków"
  },
  {
    "source_id": "ChIJl7mRtrvfBEcRSFUqBleC8n8",
    "name": "Sklep Polski",
    "category": "Sklep Polski",
    "formatted_address": "3,7(3)",
    "phone_number": "+48572778095",
    "source_url": "https://www.google.com/maps/place/Sklep+Polski/data=!4m7!3m6!1s0x4704dfbbb691b997:0x7ff28257062a5548!8m2!3d52.0738495!4d17.5586562!16s%2Fg%2F11nffprsb7!19sChIJl7mRtrvfBEcRSFUqBleC8n8?authuser=0&hl=tr&rclk=1",
    "website_url": "",
    "rating_text": "3,7",
    "stars": null,
    "number_of_reviews": null,
    "price_level": "",
    "open_hours": "",
    "extraction_timestamp": "2025-06-07T17:42:39.709Z",
    "source_name": "google",
    "source_query": "Irrigation Equipment",
    "source_country": "PL",
    "country": "Poland",
    "state": "Greater Poland Voivodeship",
    "city": "Żerków"
  },
  {
    "source_id": "ChIJgwwajZwgBUcRnNx1E5nxOUA",
    "name": "Sklep GS Samopomoc Chłopska",
    "category": "Sklep GS Samopomoc Chłopska",
    "formatted_address": "4,0(1)",
    "phone_number": "+48627403014",
    "source_url": "https://www.google.com/maps/place/Sklep+GS+Samopomoc+Ch%C5%82opska/data=!4m7!3m6!1s0x4705209c8d1a0c83:0x4039f1991375dc9c!8m2!3d52.069048!4d17.5637701!16s%2Fg%2F1tdpdx64!19sChIJgwwajZwgBUcRnNx1E5nxOUA?authuser=0&hl=tr&rclk=1",
    "website_url": "",
    "rating_text": "4,0",
    "stars": null,
    "number_of_reviews": null,
    "price_level": "",
    "open_hours": "",
    "extraction_timestamp": "2025-06-07T17:42:39.710Z",
    "source_name": "google",
    "source_query": "Irrigation Equipment",
    "source_country": "PL",
    "country": "Poland",
    "state": "Greater Poland Voivodeship",
    "city": "Żerków"
  },
  {
    "source_id": "ChIJ25rNQCchBUcR5RIEiiOdyNM",
    "name": "Biedronka",
    "category": "Biedronka",
    "formatted_address": "4,3(122)",
    "phone_number": "+48800080010",
    "source_url": "https://www.google.com/maps/place/Biedronka/data=!4m7!3m6!1s0x4705212740cd9adb:0xd3c89d238a0412e5!8m2!3d52.0719032!4d17.5571937!16s%2Fg%2F11q7kjf7nj!19sChIJ25rNQCchBUcR5RIEiiOdyNM?authuser=0&hl=tr&rclk=1",
    "website_url": "",
    "rating_text": "4,3",
    "stars": null,
    "number_of_reviews": null,
    "price_level": "",
    "open_hours": "",
    "extraction_timestamp": "2025-06-07T17:42:39.711Z",
    "source_name": "google",
    "source_query": "Irrigation Equipment",
    "source_country": "PL",
    "country": "Poland",
    "state": "Greater Poland Voivodeship",
    "city": "Żerków"
  },
  {
    "source_id": "ChIJB6y_v5J2HEcRlDfYx3xmc9M",
    "name": "Milex irrigation systems",
    "category": "Milex irrigation systems",
    "formatted_address": "4,6(37)",
    "phone_number": "+48242775222",
    "source_url": "https://www.google.com/maps/place/Milex+irrigation+systems/data=!4m7!3m6!1s0x471c7692bfbfac07:0xd373667cc7d83794!8m2!3d52.4690634!4d19.7520904!16s%2Fg%2F1w2yy67r!19sChIJB6y_v5J2HEcRlDfYx3xmc9M?authuser=0&hl=tr&rclk=1",
    "website_url": "",
    "rating_text": "4,6",
    "stars": null,
    "number_of_reviews": null,
    "price_level": "",
    "open_hours": "",
    "extraction_timestamp": "2025-06-07T17:42:39.712Z",
    "source_name": "google",
    "source_query": "Irrigation Equipment",
    "source_country": "PL",
    "country": "Poland",
    "state": "Greater Poland Voivodeship",
    "city": "Żerków"
  },
  {
    "source_id": "ChIJHYGVlEohBUcRD2JsiIIHuHY",
    "name": "Dino",
    "category": "Dino",
    "formatted_address": "4,2(70)",
    "phone_number": "",
    "source_url": "https://www.google.com/maps/place/Dino/data=!4m7!3m6!1s0x4705214a9495811d:0x76b80782886c620f!8m2!3d52.0621299!4d17.565874!16s%2Fg%2F11jgnz0s0w!19sChIJHYGVlEohBUcRD2JsiIIHuHY?authuser=0&hl=tr&rclk=1",
    "website_url": "",
    "rating_text": "4,2",
    "stars": null,
    "number_of_reviews": null,
    "price_level": "",
    "open_hours": "",
    "extraction_timestamp": "2025-06-07T17:42:39.713Z",
    "source_name": "google",
    "source_query": "Irrigation Equipment",
    "source_country": "PL",
    "country": "Poland",
    "state": "Greater Poland Voivodeship",
    "city": "Żerków"
  },
  {
    "source_id": "ChIJF6aZUEIhBUcRuGaD_BibGH4",
    "name": "Sklep Zoologiczno-Wędkarski Żerków",
    "category": "Sklep Zoologiczno-Wędkarski Żerków",
    "formatted_address": "4,2(5)",
    "phone_number": "+48781256443",
    "source_url": "https://www.google.com/maps/place/Sklep+Zoologiczno-W%C4%99dkarski+%C5%BBerk%C3%B3w/data=!4m7!3m6!1s0x470521425099a617:0x7e189b18fc8366b8!8m2!3d52.067848!4d17.5640559!16s%2Fg%2F11lh4ry7jz!19sChIJF6aZUEIhBUcRuGaD_BibGH4?authuser=0&hl=tr&rclk=1",
    "website_url": "",
    "rating_text": "4,2",
    "stars": null,
    "number_of_reviews": null,
    "price_level": "",
    "open_hours": "",
    "extraction_timestamp": "2025-06-07T17:42:39.714Z",
    "source_name": "google",
    "source_query": "Irrigation Equipment",
    "source_country": "PL",
    "country": "Poland",
    "state": "Greater Poland Voivodeship",
    "city": "Żerków"
  },
  {
    "source_id": "ChIJP3K7Yi8eBUcRhBndI0-3v9Q",
    "name": "Jakubczak Krzysztof Systemy Wagowe Żerkowska 12a, 63-040 Nowe Miasto nad Wartą",
    "category": "Jakubczak Krzysztof Systemy Wagowe Żerkowska 12a, 63-040 Nowe Miasto nad Wartą",
    "formatted_address": "Jakubczak Krzysztof Systemy Wagowe Żerkowska 12a, 63-040 Nowe Miasto nad Wartą",
    "phone_number": "+48601779327",
    "source_url": "https://www.google.com/maps/place/Jakubczak+Krzysztof+Systemy+Wagowe+%C5%BBerkowska+12a,+63-040+Nowe+Miasto+nad+Wart%C4%85/data=!4m7!3m6!1s0x47051e2f62bb723f:0xd4bfb74f23dd1984!8m2!3d52.0897762!4d17.4178925!16s%2Fg%2F1v3dqv1d!19sChIJP3K7Yi8eBUcRhBndI0-3v9Q?authuser=0&hl=tr&rclk=1",
    "website_url": "",
    "rating_text": "",
    "stars": null,
    "number_of_reviews": null,
    "price_level": "",
    "open_hours": "",
    "extraction_timestamp": "2025-06-07T17:42:39.715Z",
    "source_name": "google",
    "source_query": "Irrigation Equipment",
    "source_country": "PL",
    "country": "Poland",
    "state": "Greater Poland Voivodeship",
    "city": "Żerków"
  },
  {
    "source_id": "ChIJDTKZiJkgBUcRuxOapvX4JMY",
    "name": "Małgowska Urszula. Sklep wielobranżowy",
    "category": "Małgowska Urszula. Sklep wielobranżowy",
    "formatted_address": "",
    "phone_number": "+48627403363",
    "source_url": "https://www.google.com/maps/place/Ma%C5%82gowska+Urszula.+Sklep+wielobran%C5%BCowy/data=!4m7!3m6!1s0x470520998899320d:0xc624f8f5a69a13bb!8m2!3d52.0679183!4d17.5637251!16s%2Fg%2F1tk6tmc8!19sChIJDTKZiJkgBUcRuxOapvX4JMY?authuser=0&hl=tr&rclk=1",
    "website_url": "",
    "rating_text": "",
    "stars": null,
    "number_of_reviews": null,
    "price_level": "",
    "open_hours": "",
    "extraction_timestamp": "2025-06-07T17:42:39.716Z",
    "source_name": "google",
    "source_query": "Irrigation Equipment",
    "source_country": "PL",
    "country": "Poland",
    "state": "Greater Poland Voivodeship",
    "city": "Żerków"
  },
  {
    "source_id": "ChIJz56LIEQhBUcRxr4RzNAQoBw",
    "name": "Delikatesy Centrum",
    "category": "Delikatesy Centrum",
    "formatted_address": "4,2(277)",
    "phone_number": "+48530130970",
    "source_url": "https://www.google.com/maps/place/Delikatesy+Centrum/data=!4m7!3m6!1s0x47052144208b9ecf:0x1ca010d0cc11bec6!8m2!3d52.0690929!4d17.563543!16s%2Fg%2F11cjhr9c37!19sChIJz56LIEQhBUcRxr4RzNAQoBw?authuser=0&hl=tr&rclk=1",
    "website_url": "",
    "rating_text": "4,2",
    "stars": null,
    "number_of_reviews": null,
    "price_level": "",
    "open_hours": "",
    "extraction_timestamp": "2025-06-07T17:42:39.717Z",
    "source_name": "google",
    "source_query": "Irrigation Equipment",
    "source_country": "PL",
    "country": "Poland",
    "state": "Greater Poland Voivodeship",
    "city": "Żerków"
  },
  {
    "source_id": "ChIJgwwajZwgBUcRMEyvUuKQyXE",
    "name": "Szulc Lucjan. Części do samochodów osobowych",
    "category": "Szulc Lucjan. Części do samochodów osobowych",
    "formatted_address": "3,8(10)",
    "phone_number": "+48627403779",
    "source_url": "https://www.google.com/maps/place/Szulc+Lucjan.+Cz%C4%99%C5%9Bci+do+samochod%C3%B3w+osobowych/data=!4m7!3m6!1s0x4705209c8d1a0c83:0x71c990e252af4c30!8m2!3d52.0688072!4d17.5627217!16s%2Fg%2F1vd3thcd!19sChIJgwwajZwgBUcRMEyvUuKQyXE?authuser=0&hl=tr&rclk=1",
    "website_url": "",
    "rating_text": "3,8",
    "stars": null,
    "number_of_reviews": null,
    "price_level": "",
    "open_hours": "",
    "extraction_timestamp": "2025-06-07T17:42:39.718Z",
    "source_name": "google",
    "source_query": "Irrigation Equipment",
    "source_country": "PL",
    "country": "Poland",
    "state": "Greater Poland Voivodeship",
    "city": "Żerków"
  },
  {
    "source_id": "ChIJT738lcgjBUcRRTr16KOh0l4",
    "name": "Szkolenia z hydrografiki WaterDesign",
    "category": "Szkolenia z hydrografiki WaterDesign",
    "formatted_address": "",
    "phone_number": "+48888457277",
    "source_url": "https://www.google.com/maps/place/Szkolenia+z+hydrografiki+WaterDesign/data=!4m7!3m6!1s0x470523c895fcbd4f:0x5ed2a1a3e8f53a45!8m2!3d51.977434!4d17.4999495!16s%2Fg%2F11bwkz8_bn!19sChIJT738lcgjBUcRRTr16KOh0l4?authuser=0&hl=tr&rclk=1",
    "website_url": "",
    "rating_text": "",
    "stars": null,
    "number_of_reviews": null,
    "price_level": "",
    "open_hours": "",
    "extraction_timestamp": "2025-06-07T17:42:39.719Z",
    "source_name": "google",
    "source_query": "Irrigation Equipment",
    "source_country": "PL",
    "country": "Poland",
    "state": "Greater Poland Voivodeship",
    "city": "Żerków"
  },
  {
    "source_id": "ChIJgwwajZwgBUcRWWzio9Xupog",
    "name": "Stróżykowie. Apteka. Stróżyk J., mgr farm.",
    "category": "Stróżykowie. Apteka. Stróżyk J., mgr farm.",
    "formatted_address": "Stróżykowie. Apteka. Stróżyk J., mgr farm.",
    "phone_number": "+48627403019",
    "source_url": "https://www.google.com/maps/place/Str%C3%B3%C5%BCykowie.+Apteka.+Str%C3%B3%C5%BCyk+J.,+mgr+farm./data=!4m7!3m6!1s0x4705209c8d1a0c83:0x88a6eed5a3e26c59!8m2!3d52.0683017!4d17.5631774!16s%2Fg%2F1v_slyxy!19sChIJgwwajZwgBUcRWWzio9Xupog?authuser=0&hl=tr&rclk=1",
    "website_url": "",
    "rating_text": "4,9",
    "stars": null,
    "number_of_reviews": null,
    "price_level": "",
    "open_hours": "",
    "extraction_timestamp": "2025-06-07T17:42:39.720Z",
    "source_name": "google",
    "source_query": "Irrigation Equipment",
    "source_country": "PL",
    "country": "Poland",
    "state": "Greater Poland Voivodeship",
    "city": "Żerków"
  },
  {
    "source_id": "ChIJVTV3W_PzBEcR6gY0xwQi2_E",
    "name": "Deszczownie.com",
    "category": "Deszczownie.com",
    "formatted_address": "",
    "phone_number": "+48726000030",
    "source_url": "https://www.google.com/maps/place/Deszczownie.com/data=!4m7!3m6!1s0x4704f3f35b773555:0xf1db2204c73406ea!8m2!3d52.3623948!4d17.4021087!16s%2Fg%2F11y3pv4rxr!19sChIJVTV3W_PzBEcR6gY0xwQi2_E?authuser=0&hl=tr&rclk=1",
    "website_url": "",
    "rating_text": "",
    "stars": null,
    "number_of_reviews": null,
    "price_level": "",
    "open_hours": "",
    "extraction_timestamp": "2025-06-07T17:42:39.721Z",
    "source_name": "google",
    "source_query": "Irrigation Equipment",
    "source_country": "PL",
    "country": "Poland",
    "state": "Greater Poland Voivodeship",
    "city": "Żerków"
  }
]
