[
  {
    "source_id": "ChIJzS7S3y9LqxURNopfPWqg5kQ",
    "name": "Octopus World Dahab Dive Center",
    "category": "Octopus World Dahab Dive Center",
    "formatted_address": "4,9(983)",
    "phone_number": "+201006894588",
    "source_url": "https://www.google.com/maps/place/Octopus+World+Dahab+Dive+Center/data=!4m7!3m6!1s0x15ab4b2fdfd22ecd:0x44e6a06a3d5f8a36!8m2!3d28.499099!4d34.518682!16s%2Fg%2F11xgf67wk!19sChIJzS7S3y9LqxURNopfPWqg5kQ?authuser=0&hl=tr&rclk=1",
    "website_url": "",
    "rating_text": "4,9",
    "stars": null,
    "number_of_reviews": null,
    "price_level": "",
    "open_hours": "",
    "extraction_timestamp": "2025-06-07T15:14:38.259Z",
    "source_name": "google",
    "source_query": "Irrigation Equipment",
    "source_country": "EG",
    "country": "Egypt",
    "state": "South Sinai",
    "city": "Dahab"
  },
  {
    "source_id": "ChIJCzMAUDZLqxURheCSBan-ShQ",
    "name": "Liquid Adventures Dahab",
    "category": "Liquid Adventures Dahab",
    "formatted_address": "4,9(73)",
    "phone_number": "+201012219766",
    "source_url": "https://www.google.com/maps/place/Liquid+Adventures+Dahab/data=!4m7!3m6!1s0x15ab4b365000330b:0x144afea90592e085!8m2!3d28.4960293!4d34.5163596!16s%2Fg%2F11b72ldxv_!19sChIJCzMAUDZLqxURheCSBan-ShQ?authuser=0&hl=tr&rclk=1",
    "website_url": "",
    "rating_text": "4,9",
    "stars": null,
    "number_of_reviews": null,
    "price_level": "",
    "open_hours": "",
    "extraction_timestamp": "2025-06-07T15:14:38.260Z",
    "source_name": "google",
    "source_query": "Irrigation Equipment",
    "source_country": "EG",
    "country": "Egypt",
    "state": "South Sinai",
    "city": "Dahab"
  },
  {
    "source_id": "ChIJh6bBA_1LqxUR7GcJIK78bHk",
    "name": "Cafe Del Sur (Beans, Cocoa & Tea) - بن الجنوب",
    "category": "Cafe Del Sur (Beans, Cocoa & Tea) - بن الجنوب",
    "formatted_address": "Cafe Del Sur (Beans, Cocoa & Tea) - بن الجنوب",
    "phone_number": "+201061480619",
    "source_url": "https://www.google.com/maps/place/Cafe+Del+Sur+%28Beans,+Cocoa+%26+Tea%29+-+%D8%A8%D9%86+%D8%A7%D9%84%D8%AC%D9%86%D9%88%D8%A8%E2%80%AD/data=!4m7!3m6!1s0x15ab4bfd03c1a687:0x796cfcae200967ec!8m2!3d28.5080981!4d34.5163889!16s%2Fg%2F11gkbbq5zw!19sChIJh6bBA_1LqxUR7GcJIK78bHk?authuser=0&hl=tr&rclk=1",
    "website_url": "",
    "rating_text": "4,9",
    "stars": null,
    "number_of_reviews": null,
    "price_level": "",
    "open_hours": "",
    "extraction_timestamp": "2025-06-07T15:14:38.262Z",
    "source_name": "google",
    "source_query": "Irrigation Equipment",
    "source_country": "EG",
    "country": "Egypt",
    "state": "South Sinai",
    "city": "Dahab"
  },
  {
    "source_id": "ChIJudrWeJtLqxUR0rYix078GAs",
    "name": "Easy Shisha - Wholesale and Retail",
    "category": "Easy Shisha - Wholesale and Retail",
    "formatted_address": "5,0(3)",
    "phone_number": "+201062948274",
    "source_url": "https://www.google.com/maps/place/Easy+Shisha+-+Wholesale+and+Retail/data=!4m7!3m6!1s0x15ab4b9b78d6dab9:0xb18fc4ec722b6d2!8m2!3d28.4980788!4d34.5154731!16s%2Fg%2F11jg3m80xd!19sChIJudrWeJtLqxUR0rYix078GAs?authuser=0&hl=tr&rclk=1",
    "website_url": "",
    "rating_text": "5,0",
    "stars": null,
    "number_of_reviews": null,
    "price_level": "",
    "open_hours": "",
    "extraction_timestamp": "2025-06-07T15:14:38.263Z",
    "source_name": "google",
    "source_query": "Irrigation Equipment",
    "source_country": "EG",
    "country": "Egypt",
    "state": "South Sinai",
    "city": "Dahab"
  },
  {
    "source_id": "ChIJU84nG7FLqxURPC6KFXcrDAM",
    "name": "Safari2Go",
    "category": "Safari2Go",
    "formatted_address": "5,0(59)",
    "phone_number": "+201021210201",
    "source_url": "https://www.google.com/maps/place/Safari2Go/data=!4m7!3m6!1s0x15ab4bb11b27ce53:0x30c2b77158a2e3c!8m2!3d28.4989955!4d34.5187733!16s%2Fg%2F11wbxpv59b!19sChIJU84nG7FLqxURPC6KFXcrDAM?authuser=0&hl=tr&rclk=1",
    "website_url": "",
    "rating_text": "5,0",
    "stars": null,
    "number_of_reviews": null,
    "price_level": "",
    "open_hours": "",
    "extraction_timestamp": "2025-06-07T15:14:38.264Z",
    "source_name": "google",
    "source_query": "Irrigation Equipment",
    "source_country": "EG",
    "country": "Egypt",
    "state": "South Sinai",
    "city": "Dahab"
  },
  {
    "source_id": "ChIJY2TVtylLqxURkgWlmTGIPyc",
    "name": "Back to Nature",
    "category": "Back to Nature",
    "formatted_address": "4,5(142)",
    "phone_number": "+201154445772",
    "source_url": "https://www.google.com/maps/place/Back+to+Nature/data=!4m7!3m6!1s0x15ab4b29b7d56463:0x273f883199a50592!8m2!3d28.5082254!4d34.5163071!16s%2Fg%2F11cm0h54fv!19sChIJY2TVtylLqxURkgWlmTGIPyc?authuser=0&hl=tr&rclk=1",
    "website_url": "",
    "rating_text": "4,5",
    "stars": null,
    "number_of_reviews": null,
    "price_level": "",
    "open_hours": "",
    "extraction_timestamp": "2025-06-07T15:14:38.267Z",
    "source_name": "google",
    "source_query": "Irrigation Equipment",
    "source_country": "EG",
    "country": "Egypt",
    "state": "South Sinai",
    "city": "Dahab"
  },
  {
    "source_id": "ChIJSXaFYnJLqxURbaSolHE2MME",
    "name": "New drinks shop",
    "category": "New drinks shop",
    "formatted_address": "4,2(82)",
    "phone_number": "+201000436311",
    "source_url": "https://www.google.com/maps/place/New+drinks+shop/data=!4m7!3m6!1s0x15ab4b7262857649:0xc130367194a8a46d!8m2!3d28.507149!4d34.5169369!16s%2Fg%2F11j1mgm0sv!19sChIJSXaFYnJLqxURbaSolHE2MME?authuser=0&hl=tr&rclk=1",
    "website_url": "",
    "rating_text": "4,2",
    "stars": null,
    "number_of_reviews": null,
    "price_level": "",
    "open_hours": "",
    "extraction_timestamp": "2025-06-07T15:14:38.268Z",
    "source_name": "google",
    "source_query": "Irrigation Equipment",
    "source_country": "EG",
    "country": "Egypt",
    "state": "South Sinai",
    "city": "Dahab"
  },
  {
    "source_id": "ChIJF_OoyjFLqxURWl9EFbcGxvw",
    "name": "Fish And Friends Diving Center",
    "category": "Fish And Friends Diving Center",
    "formatted_address": "4,8(44)",
    "phone_number": "+201112141114",
    "source_url": "https://www.google.com/maps/place/Fish+And+Friends+Diving+Center/data=!4m7!3m6!1s0x15ab4b31caa8f317:0xfcc606b715445f5a!8m2!3d28.4977171!4d34.5169683!16s%2Fg%2F11c0rh0tg2!19sChIJF_OoyjFLqxURWl9EFbcGxvw?authuser=0&hl=tr&rclk=1",
    "website_url": "",
    "rating_text": "4,8",
    "stars": null,
    "number_of_reviews": null,
    "price_level": "",
    "open_hours": "",
    "extraction_timestamp": "2025-06-07T15:14:38.269Z",
    "source_name": "google",
    "source_query": "Irrigation Equipment",
    "source_country": "EG",
    "country": "Egypt",
    "state": "South Sinai",
    "city": "Dahab"
  },
  {
    "source_id": "ChIJg_fzfiVLqxURlS-Wmgm7Ruo",
    "name": "Dahab Divers Lodge - Padi 5* dive centre Dahab",
    "category": "Dahab Divers Lodge - Padi 5* dive centre Dahab",
    "formatted_address": "4,7(219)",
    "phone_number": "+201223818515",
    "source_url": "https://www.google.com/maps/place/Dahab+Divers+Lodge+-+Padi+5*+dive+centre+Dahab/data=!4m7!3m6!1s0x15ab4b257ef3f783:0xea46bb099a962f95!8m2!3d28.500688!4d34.5198062!16s%2Fg%2F1tv40p_q!19sChIJg_fzfiVLqxURlS-Wmgm7Ruo?authuser=0&hl=tr&rclk=1",
    "website_url": "",
    "rating_text": "4,7",
    "stars": null,
    "number_of_reviews": null,
    "price_level": "",
    "open_hours": "",
    "extraction_timestamp": "2025-06-07T15:14:38.271Z",
    "source_name": "google",
    "source_query": "Irrigation Equipment",
    "source_country": "EG",
    "country": "Egypt",
    "state": "South Sinai",
    "city": "Dahab"
  },
  {
    "source_id": "ChIJ4cAluSpLqxURMGoMKHruG_I",
    "name": "RAMADAN SONS MARKET",
    "category": "RAMADAN SONS MARKET",
    "formatted_address": "4,1(80)",
    "phone_number": "+201000790196",
    "source_url": "https://www.google.com/maps/place/RAMADAN+SONS+MARKET/data=!4m7!3m6!1s0x15ab4b2ab925c0e1:0xf21bee7a280c6a30!8m2!3d28.5101929!4d34.5098638!16s%2Fg%2F11hcz4t6p2!19sChIJ4cAluSpLqxURMGoMKHruG_I?authuser=0&hl=tr&rclk=1",
    "website_url": "",
    "rating_text": "4,1",
    "stars": null,
    "number_of_reviews": null,
    "price_level": "",
    "open_hours": "",
    "extraction_timestamp": "2025-06-07T15:14:38.272Z",
    "source_name": "google",
    "source_query": "Irrigation Equipment",
    "source_country": "EG",
    "country": "Egypt",
    "state": "South Sinai",
    "city": "Dahab"
  },
  {
    "source_id": "ChIJn5f_milLqxURT8qtWpLFhpQ",
    "name": "Kiro supermarket - سوبرماركت كيرو",
    "category": "Kiro supermarket - سوبرماركت كيرو",
    "formatted_address": "4,3(44)",
    "phone_number": "+201020869650",
    "source_url": "https://www.google.com/maps/place/Kiro+supermarket+-+%D8%B3%D9%88%D8%A8%D8%B1%D9%85%D8%A7%D8%B1%D9%83%D8%AA+%D9%83%D9%8A%D8%B1%D9%88%E2%80%AD/data=!4m7!3m6!1s0x15ab4b299aff979f:0x9486c5925aadca4f!8m2!3d28.5091583!4d34.5136139!16s%2Fg%2F11c581nzlz!19sChIJn5f_milLqxURT8qtWpLFhpQ?authuser=0&hl=tr&rclk=1",
    "website_url": "",
    "rating_text": "4,3",
    "stars": null,
    "number_of_reviews": null,
    "price_level": "",
    "open_hours": "",
    "extraction_timestamp": "2025-06-07T15:14:38.273Z",
    "source_name": "google",
    "source_query": "Irrigation Equipment",
    "source_country": "EG",
    "country": "Egypt",
    "state": "South Sinai",
    "city": "Dahab"
  },
  {
    "source_id": "ChIJYf9OIDBLqxURNTqCrKZlBHE",
    "name": "Desert Divers Dahab",
    "category": "Desert Divers Dahab",
    "formatted_address": "4,7(113)",
    "phone_number": "+201004040181",
    "source_url": "https://www.google.com/maps/place/Desert+Divers+Dahab/data=!4m7!3m6!1s0x15ab4b30204eff61:0x710465a6ac823a35!8m2!3d28.5018774!4d34.5204124!16s%2Fg%2F1tg5rf1p!19sChIJYf9OIDBLqxURNTqCrKZlBHE?authuser=0&hl=tr&rclk=1",
    "website_url": "",
    "rating_text": "4,7",
    "stars": null,
    "number_of_reviews": null,
    "price_level": "",
    "open_hours": "",
    "extraction_timestamp": "2025-06-07T15:14:38.274Z",
    "source_name": "google",
    "source_query": "Irrigation Equipment",
    "source_country": "EG",
    "country": "Egypt",
    "state": "South Sinai",
    "city": "Dahab"
  },
  {
    "source_id": "ChIJ6bP-KplLqxURvWp2v_pTaPo",
    "name": "مقلة وعطارة الفيروز - AlFayrouz for Spices & Nuts",
    "category": "مقلة وعطارة الفيروز - AlFayrouz for Spices & Nuts",
    "formatted_address": "5,0(30)",
    "phone_number": "+201092223303",
    "source_url": "https://www.google.com/maps/place/%D9%85%D9%82%D9%84%D8%A9+%D9%88%D8%B9%D8%B7%D8%A7%D8%B1%D8%A9+%D8%A7%D9%84%D9%81%D9%8A%D8%B1%D9%88%D8%B2+-+AlFayrouz+for+Spices+%26+Nuts%E2%80%AD/data=!4m7!3m6!1s0x15ab4b992afeb3e9:0xfa6853fabf766abd!8m2!3d28.5066512!4d34.5175504!16s%2Fg%2F11qqh4t7w_!19sChIJ6bP-KplLqxURvWp2v_pTaPo?authuser=0&hl=tr&rclk=1",
    "website_url": "",
    "rating_text": "5,0",
    "stars": null,
    "number_of_reviews": null,
    "price_level": "",
    "open_hours": "",
    "extraction_timestamp": "2025-06-07T15:14:38.275Z",
    "source_name": "google",
    "source_query": "Irrigation Equipment",
    "source_country": "EG",
    "country": "Egypt",
    "state": "South Sinai",
    "city": "Dahab"
  },
  {
    "source_id": "ChIJ3-dUgXpLqxUR4kpVEYKUJ_8",
    "name": "Sina Market",
    "category": "Sina Market",
    "formatted_address": "4,3(197)",
    "phone_number": "+2011080020",
    "source_url": "https://www.google.com/maps/place/Sina+Market/data=!4m7!3m6!1s0x15ab4b7a8154e7df:0xff27948211554ae2!8m2!3d28.5106388!4d34.5153844!16s%2Fg%2F11fl7crwj0!19sChIJ3-dUgXpLqxUR4kpVEYKUJ_8?authuser=0&hl=tr&rclk=1",
    "website_url": "",
    "rating_text": "4,3",
    "stars": null,
    "number_of_reviews": null,
    "price_level": "",
    "open_hours": "",
    "extraction_timestamp": "2025-06-07T15:14:38.276Z",
    "source_name": "google",
    "source_query": "Irrigation Equipment",
    "source_country": "EG",
    "country": "Egypt",
    "state": "South Sinai",
    "city": "Dahab"
  },
  {
    "source_id": "ChIJQUbgZytLqxURCC-wpboBxjo",
    "name": "Blue Ocean Freedivers",
    "category": "Blue Ocean Freedivers",
    "formatted_address": "4,8(80)",
    "phone_number": "+201023062346",
    "source_url": "https://www.google.com/maps/place/Blue+Ocean+Freedivers/data=!4m7!3m6!1s0x15ab4b2b67e04641:0x3ac601baa5b02f08!8m2!3d28.506911!4d34.510405!16s%2Fg%2F1hhwy964z!19sChIJQUbgZytLqxURCC-wpboBxjo?authuser=0&hl=tr&rclk=1",
    "website_url": "",
    "rating_text": "4,8",
    "stars": null,
    "number_of_reviews": null,
    "price_level": "",
    "open_hours": "",
    "extraction_timestamp": "2025-06-07T15:14:38.277Z",
    "source_name": "google",
    "source_query": "Irrigation Equipment",
    "source_country": "EG",
    "country": "Egypt",
    "state": "South Sinai",
    "city": "Dahab"
  },
  {
    "source_id": "ChIJ3YY2_ChLqxURcB92hD3dtLE",
    "name": "1000 Items Supermarket",
    "category": "1000 Items Supermarket",
    "formatted_address": "4,5(295)",
    "phone_number": "+201002483437",
    "source_url": "https://www.google.com/maps/place/1000+Items+Supermarket/data=!4m7!3m6!1s0x15ab4b28fc3686dd:0xb1b4dd3d84761f70!8m2!3d28.5063492!4d34.5170303!16s%2Fg%2F11c6yflqy2!19sChIJ3YY2_ChLqxURcB92hD3dtLE?authuser=0&hl=tr&rclk=1",
    "website_url": "",
    "rating_text": "4,5",
    "stars": null,
    "number_of_reviews": null,
    "price_level": "",
    "open_hours": "",
    "extraction_timestamp": "2025-06-07T15:14:38.278Z",
    "source_name": "google",
    "source_query": "Irrigation Equipment",
    "source_country": "EG",
    "country": "Egypt",
    "state": "South Sinai",
    "city": "Dahab"
  },
  {
    "source_id": "ChIJpYOO2ylLqxURxNG0X6XT5_4",
    "name": "Coloured Canyon Shop",
    "category": "Coloured Canyon Shop",
    "formatted_address": "3,9(31)",
    "phone_number": "+201003691618",
    "source_url": "https://www.google.com/maps/place/Coloured+Canyon+Shop/data=!4m7!3m6!1s0x15ab4b29db8e83a5:0xfee7d3a55fb4d1c4!8m2!3d28.5091583!4d34.5136139!16s%2Fg%2F11c1wj3jfc!19sChIJpYOO2ylLqxURxNG0X6XT5_4?authuser=0&hl=tr&rclk=1",
    "website_url": "",
    "rating_text": "3,9",
    "stars": null,
    "number_of_reviews": null,
    "price_level": "",
    "open_hours": "",
    "extraction_timestamp": "2025-06-07T15:14:38.279Z",
    "source_name": "google",
    "source_query": "Irrigation Equipment",
    "source_country": "EG",
    "country": "Egypt",
    "state": "South Sinai",
    "city": "Dahab"
  },
  {
    "source_id": "ChIJ9R6hf6a0VBQR2BOwYB0WpXQ",
    "name": "Vetratoria windsurfing & SUP center",
    "category": "Vetratoria windsurfing & SUP center",
    "formatted_address": "4,9(140)",
    "phone_number": "+201029321772",
    "source_url": "https://www.google.com/maps/place/Vetratoria+windsurfing+%26+SUP+center/data=!4m7!3m6!1s0x1454b4a67fa11ef5:0x74a5161d60b013d8!8m2!3d28.4795566!4d34.4948585!16s%2Fg%2F11c1n9r5b3!19sChIJ9R6hf6a0VBQR2BOwYB0WpXQ?authuser=0&hl=tr&rclk=1",
    "website_url": "",
    "rating_text": "4,9",
    "stars": null,
    "number_of_reviews": null,
    "price_level": "",
    "open_hours": "",
    "extraction_timestamp": "2025-06-07T15:14:38.280Z",
    "source_name": "google",
    "source_query": "Irrigation Equipment",
    "source_country": "EG",
    "country": "Egypt",
    "state": "South Sinai",
    "city": "Dahab"
  },
  {
    "source_id": "ChIJW1xh9C9LqxURLJG0Eoy832Q",
    "name": "Fourth Element",
    "category": "Fourth Element",
    "formatted_address": "2,8(8)",
    "phone_number": "+20693642601",
    "source_url": "https://www.google.com/maps/place/Fourth+Element/data=!4m7!3m6!1s0x15ab4b2ff4615c5b:0x64dfbc8c12b4912c!8m2!3d28.4994838!4d34.5195472!16s%2Fg%2F12hl4w8hc!19sChIJW1xh9C9LqxURLJG0Eoy832Q?authuser=0&hl=tr&rclk=1",
    "website_url": "",
    "rating_text": "2,8",
    "stars": null,
    "number_of_reviews": null,
    "price_level": "",
    "open_hours": "",
    "extraction_timestamp": "2025-06-07T15:14:38.281Z",
    "source_name": "google",
    "source_query": "Irrigation Equipment",
    "source_country": "EG",
    "country": "Egypt",
    "state": "South Sinai",
    "city": "Dahab"
  },
  {
    "source_id": "ChIJOVTx7y9LqxURSh6xQ4tu5_U",
    "name": "Dahab Freedivers",
    "category": "Dahab Freedivers",
    "formatted_address": "4,9(168)",
    "phone_number": "+201207964473",
    "source_url": "https://www.google.com/maps/place/Dahab+Freedivers/data=!4m7!3m6!1s0x15ab4b2feff15439:0xf5e76e8b43b11e4a!8m2!3d28.4991962!4d34.5188475!16s%2Fg%2F11cmzz95jp!19sChIJOVTx7y9LqxURSh6xQ4tu5_U?authuser=0&hl=tr&rclk=1",
    "website_url": "",
    "rating_text": "4,9",
    "stars": null,
    "number_of_reviews": null,
    "price_level": "",
    "open_hours": "",
    "extraction_timestamp": "2025-06-07T15:14:38.282Z",
    "source_name": "google",
    "source_query": "Irrigation Equipment",
    "source_country": "EG",
    "country": "Egypt",
    "state": "South Sinai",
    "city": "Dahab"
  },
  {
    "source_id": "ChIJS94jzx1LqxUR_0OKR_XigTw",
    "name": "Coffee Corner",
    "category": "Coffee Corner",
    "formatted_address": "4,6(249) · E£1–100",
    "phone_number": "+201110109700",
    "source_url": "https://www.google.com/maps/place/Coffee+Corner/data=!4m7!3m6!1s0x15ab4b1dcf23de4b:0x3c81e2f5478a43ff!8m2!3d28.5006424!4d34.5158572!16s%2Fg%2F11h2ldv6jz!19sChIJS94jzx1LqxUR_0OKR_XigTw?authuser=0&hl=tr&rclk=1",
    "website_url": "",
    "rating_text": "4,6",
    "stars": null,
    "number_of_reviews": null,
    "price_level": "",
    "open_hours": "",
    "extraction_timestamp": "2025-06-07T15:14:38.284Z",
    "source_name": "google",
    "source_query": "Irrigation Equipment",
    "source_country": "EG",
    "country": "Egypt",
    "state": "South Sinai",
    "city": "Dahab"
  },
  {
    "source_id": "ChIJuZKY94hLqxURtZ5vUk5D3S0",
    "name": "PlayStation Cafe Dahab",
    "category": "PlayStation Cafe Dahab",
    "formatted_address": "4,9(32)",
    "phone_number": "+201275748802",
    "source_url": "https://www.google.com/maps/place/PlayStation+Cafe+Dahab/data=!4m7!3m6!1s0x15ab4b88f79892b9:0x2ddd434e526f9eb5!8m2!3d28.4930811!4d34.5141007!16s%2Fg%2F11qr9lq9wx!19sChIJuZKY94hLqxURtZ5vUk5D3S0?authuser=0&hl=tr&rclk=1",
    "website_url": "",
    "rating_text": "4,9",
    "stars": null,
    "number_of_reviews": null,
    "price_level": "",
    "open_hours": "",
    "extraction_timestamp": "2025-06-07T15:14:38.285Z",
    "source_name": "google",
    "source_query": "Irrigation Equipment",
    "source_country": "EG",
    "country": "Egypt",
    "state": "South Sinai",
    "city": "Dahab"
  },
  {
    "source_id": "ChIJGcR_CetLqxURxCHmQMUtJF8",
    "name": "Ralphs German Bakery",
    "category": "Ralphs German Bakery",
    "formatted_address": "4,5(563) · E£200–300",
    "phone_number": "+201150535566",
    "source_url": "https://www.google.com/maps/place/Ralphs+German+Bakery/data=!4m7!3m6!1s0x15ab4beb097fc419:0x5f242dc540e621c4!8m2!3d28.4887602!4d34.5147263!16s%2Fg%2F11rgy9kygg!19sChIJGcR_CetLqxURxCHmQMUtJF8?authuser=0&hl=tr&rclk=1",
    "website_url": "",
    "rating_text": "4,5",
    "stars": null,
    "number_of_reviews": null,
    "price_level": "",
    "open_hours": "",
    "extraction_timestamp": "2025-06-07T15:14:38.286Z",
    "source_name": "google",
    "source_query": "Irrigation Equipment",
    "source_country": "EG",
    "country": "Egypt",
    "state": "South Sinai",
    "city": "Dahab"
  },
  {
    "source_id": "ChIJv0YCc9lLqxURVKFN8oYlLnc",
    "name": "The Juicery Dahab",
    "category": "The Juicery Dahab",
    "formatted_address": "5,0(111) · E£1–100",
    "phone_number": "+201005142099",
    "source_url": "https://www.google.com/maps/place/The+Juicery+Dahab/data=!4m7!3m6!1s0x15ab4bd9730246bf:0x772e2586f24da154!8m2!3d28.4978717!4d34.5171539!16s%2Fg%2F11y47_1slf!19sChIJv0YCc9lLqxURVKFN8oYlLnc?authuser=0&hl=tr&rclk=1",
    "website_url": "",
    "rating_text": "5,0",
    "stars": null,
    "number_of_reviews": null,
    "price_level": "",
    "open_hours": "",
    "extraction_timestamp": "2025-06-07T15:14:38.287Z",
    "source_name": "google",
    "source_query": "Irrigation Equipment",
    "source_country": "EG",
    "country": "Egypt",
    "state": "South Sinai",
    "city": "Dahab"
  },
  {
    "source_id": "ChIJbzcvQutLqxURz3L1oKaI2gE",
    "name": "Station house Dahab",
    "category": "Station house Dahab",
    "formatted_address": "4,6(89)",
    "phone_number": "+201156622304",
    "source_url": "https://www.google.com/maps/place/Station+house+Dahab/data=!4m10!3m9!1s0x15ab4beb422f376f:0x1da88a6a0f572cf!5m2!4m1!1i2!8m2!3d28.4880555!4d34.5143857!16s%2Fg%2F11jw4jlp0m!19sChIJbzcvQutLqxURz3L1oKaI2gE?authuser=0&hl=tr&rclk=1",
    "website_url": "",
    "rating_text": "4,6",
    "stars": null,
    "number_of_reviews": null,
    "price_level": "",
    "open_hours": "",
    "extraction_timestamp": "2025-06-07T15:14:38.288Z",
    "source_name": "google",
    "source_query": "Irrigation Equipment",
    "source_country": "EG",
    "country": "Egypt",
    "state": "South Sinai",
    "city": "Dahab"
  },
  {
    "source_id": "ChIJmxZsFiZLqxUR013DPNiYT70",
    "name": "Clarity Market سوبر ماركت كلاريتي",
    "category": "Clarity Market سوبر ماركت كلاريتي",
    "formatted_address": "4,1(18)",
    "phone_number": "+201067792942",
    "source_url": "https://www.google.com/maps/place/Clarity+Market+%D8%B3%D9%88%D8%A8%D8%B1+%D9%85%D8%A7%D8%B1%D9%83%D8%AA+%D9%83%D9%84%D8%A7%D8%B1%D9%8A%D8%AA%D9%8A%E2%80%AD/data=!4m7!3m6!1s0x15ab4b26166c169b:0xbd4f98d83cc35dd3!8m2!3d28.500486!4d34.5197224!16s%2Fg%2F11h713_3z9!19sChIJmxZsFiZLqxUR013DPNiYT70?authuser=0&hl=tr&rclk=1",
    "website_url": "",
    "rating_text": "4,1",
    "stars": null,
    "number_of_reviews": null,
    "price_level": "",
    "open_hours": "",
    "extraction_timestamp": "2025-06-07T15:14:38.289Z",
    "source_name": "google",
    "source_query": "Irrigation Equipment",
    "source_country": "EG",
    "country": "Egypt",
    "state": "South Sinai",
    "city": "Dahab"
  },
  {
    "source_id": "ChIJccka9ihLqxURISgZmaInxus",
    "name": "Ghazala Market",
    "category": "Ghazala Market",
    "formatted_address": "3,9(282)",
    "phone_number": "+201145482838",
    "source_url": "https://www.google.com/maps/place/Ghazala+Market/data=!4m7!3m6!1s0x15ab4b28f61ac971:0xebc627a299192821!8m2!3d28.5064559!4d34.5177233!16s%2Fg%2F11b6x9yf0l!19sChIJccka9ihLqxURISgZmaInxus?authuser=0&hl=tr&rclk=1",
    "website_url": "",
    "rating_text": "3,9",
    "stars": null,
    "number_of_reviews": null,
    "price_level": "",
    "open_hours": "",
    "extraction_timestamp": "2025-06-07T15:14:38.290Z",
    "source_name": "google",
    "source_query": "Irrigation Equipment",
    "source_country": "EG",
    "country": "Egypt",
    "state": "South Sinai",
    "city": "Dahab"
  },
  {
    "source_id": "ChIJCfhryctLqxURVCHnRl0wIi4",
    "name": "ماركت الحصرى",
    "category": "ماركت الحصرى",
    "formatted_address": "4,1(27)",
    "phone_number": "+201021252937",
    "source_url": "https://www.google.com/maps/place/%D9%85%D8%A7%D8%B1%D9%83%D8%AA+%D8%A7%D9%84%D8%AD%D8%B5%D8%B1%D9%89%E2%80%AD/data=!4m7!3m6!1s0x15ab4bcbc96bf809:0x2e22305d46e72154!8m2!3d28.5041392!4d34.5100941!16s%2Fg%2F11nxs0m9z0!19sChIJCfhryctLqxURVCHnRl0wIi4?authuser=0&hl=tr&rclk=1",
    "website_url": "",
    "rating_text": "4,1",
    "stars": null,
    "number_of_reviews": null,
    "price_level": "",
    "open_hours": "",
    "extraction_timestamp": "2025-06-07T15:14:38.291Z",
    "source_name": "google",
    "source_query": "Irrigation Equipment",
    "source_country": "EG",
    "country": "Egypt",
    "state": "South Sinai",
    "city": "Dahab"
  },
  {
    "source_id": "ChIJG0AnAgpLqxUR1l85sD_yoZI",
    "name": "S",
    "category": "S",
    "formatted_address": "4,5(42) · E£1–200",
    "phone_number": "",
    "source_url": "https://www.google.com/maps/place/S/data=!4m7!3m6!1s0x15ab4b0a0227401b:0x92a1f23fb0395fd6!8m2!3d28.499724!4d34.5062757!16s%2Fg%2F11sm8v_6gv!19sChIJG0AnAgpLqxUR1l85sD_yoZI?authuser=0&hl=tr&rclk=1",
    "website_url": "",
    "rating_text": "4,5",
    "stars": null,
    "number_of_reviews": null,
    "price_level": "",
    "open_hours": "",
    "extraction_timestamp": "2025-06-07T15:14:38.291Z",
    "source_name": "google",
    "source_query": "Irrigation Equipment",
    "source_country": "EG",
    "country": "Egypt",
    "state": "South Sinai",
    "city": "Dahab"
  },
  {
    "source_id": "ChIJd3htRohLqxUR0bSDNNoEfgM",
    "name": "Farouk Coffe shop & Restaurant",
    "category": "Farouk Coffe shop & Restaurant",
    "formatted_address": "4,9(45) · E£1–100",
    "phone_number": "+201061377770",
    "source_url": "https://www.google.com/maps/place/Farouk+Coffe+shop+%26+Restaurant/data=!4m7!3m6!1s0x15ab4b88466d7877:0x37e04da3483b4d1!8m2!3d28.4939847!4d34.514984!16s%2Fg%2F11l2tfzq3x!19sChIJd3htRohLqxUR0bSDNNoEfgM?authuser=0&hl=tr&rclk=1",
    "website_url": "",
    "rating_text": "4,9",
    "stars": null,
    "number_of_reviews": null,
    "price_level": "",
    "open_hours": "",
    "extraction_timestamp": "2025-06-07T15:14:38.292Z",
    "source_name": "google",
    "source_query": "Irrigation Equipment",
    "source_country": "EG",
    "country": "Egypt",
    "state": "South Sinai",
    "city": "Dahab"
  },
  {
    "source_id": "ChIJUdfFsQJLqxUR3MXU0s4x-7g",
    "name": "Arabian Tea & Coffee",
    "category": "Arabian Tea & Coffee",
    "formatted_address": "4,9(16)",
    "phone_number": "+2050335649",
    "source_url": "https://www.google.com/maps/place/Arabian+Tea+%26+Coffee/data=!4m7!3m6!1s0x15ab4b02b1c5d751:0xb8fb31ced2d4c5dc!8m2!3d28.504464!4d34.515461!16s%2Fg%2F11kj4r7qzn!19sChIJUdfFsQJLqxUR3MXU0s4x-7g?authuser=0&hl=tr&rclk=1",
    "website_url": "",
    "rating_text": "4,9",
    "stars": null,
    "number_of_reviews": null,
    "price_level": "",
    "open_hours": "",
    "extraction_timestamp": "2025-06-07T15:14:38.293Z",
    "source_name": "google",
    "source_query": "Irrigation Equipment",
    "source_country": "EG",
    "country": "Egypt",
    "state": "South Sinai",
    "city": "Dahab"
  }
]
