[
  {
    "source_id": "ChIJOy4TWysLABURnWHOG-ce08M",
    "name": "Coral Resort Nuweiba",
    "category": "Coral Resort Nuweiba",
    "formatted_address": "3,8(942)",
    "phone_number": "+20693520321",
    "source_url": "https://www.google.com/maps/place/Coral+Resort+Nuweiba/data=!4m10!3m9!1s0x15000b2b5b132e3b:0xc3d31ee71bce619d!5m2!4m1!1i2!8m2!3d28.978669!4d34.675557!16s%2Fg%2F1v47p4cr!19sChIJOy4TWysLABURnWHOG-ce08M?authuser=0&hl=tr&rclk=1",
    "website_url": "http://www.coralresortnuweiba.online/",
    "rating_text": "3,8",
    "stars": null,
    "number_of_reviews": null,
    "price_level": "",
    "open_hours": "",
    "extraction_timestamp": "2025-06-07T15:14:19.302Z",
    "source_name": "google",
    "source_query": "Irrigation Equipment",
    "source_country": "EG",
    "country": "Egypt",
    "state": "South Sinai",
    "city": "Nuwaybi‘a"
  },
  {
    "source_id": "ChIJbz-9czXPqhURIz642G4QPtA",
    "name": "Venus Diving Center",
    "category": "Venus Diving Center",
    "formatted_address": "5,0(66)",
    "phone_number": "+201551513838",
    "source_url": "https://www.google.com/maps/place/Venus+Diving+Center/data=!4m7!3m6!1s0x15aacf3573bd3f6f:0xd03e106ed8b83e23!8m2!3d28.9773845!4d34.6756857!16s%2Fg%2F11j8tljv6v!19sChIJbz-9czXPqhURIz642G4QPtA?authuser=0&hl=tr&rclk=1",
    "website_url": "https://www.instagram.com/venusdivingcenter?igsh=dWQ1Y3FyYzYzaHNn",
    "rating_text": "5,0",
    "stars": null,
    "number_of_reviews": null,
    "price_level": "",
    "open_hours": "",
    "extraction_timestamp": "2025-06-07T15:14:19.324Z",
    "source_name": "google",
    "source_query": "Irrigation Equipment",
    "source_country": "EG",
    "country": "Egypt",
    "state": "South Sinai",
    "city": "Nuwaybi‘a"
  },
  {
    "source_id": "ChIJ3fqmAJDPqhURFqkwtgH2gsc",
    "name": "Kheir Baladna Market",
    "category": "Kheir Baladna Market",
    "formatted_address": "4,6(48)",
    "phone_number": "+201227477928",
    "source_url": "https://www.google.com/maps/place/Kheir+Baladna+Market/data=!4m7!3m6!1s0x15aacf9000a6fadd:0xc782f601b630a916!8m2!3d29.0321079!4d34.6666689!16s%2Fg%2F11fmxzwc_c!19sChIJ3fqmAJDPqhURFqkwtgH2gsc?authuser=0&hl=tr&rclk=1",
    "website_url": "",
    "rating_text": "4,6",
    "stars": null,
    "number_of_reviews": null,
    "price_level": "",
    "open_hours": "",
    "extraction_timestamp": "2025-06-07T15:14:19.324Z",
    "source_name": "google",
    "source_query": "Irrigation Equipment",
    "source_country": "EG",
    "country": "Egypt",
    "state": "South Sinai",
    "city": "Nuwaybi‘a"
  },
  {
    "source_id": "ChIJ_6vUL9LRqhURjHloAzqy8u8",
    "name": "Ciao Mart",
    "category": "Ciao Mart",
    "formatted_address": "4,4(29)",
    "phone_number": "+201095641313",
    "source_url": "https://www.google.com/maps/place/Ciao+Mart/data=!4m7!3m6!1s0x15aad1d22fd4abff:0xeff2b23a0368798c!8m2!3d28.9802171!4d34.6457559!16s%2Fg%2F11j21bhy81!19sChIJ_6vUL9LRqhURjHloAzqy8u8?authuser=0&hl=tr&rclk=1",
    "website_url": "https://www.facebook.com/Ciao-Mart-616044689056879/",
    "rating_text": "4,4",
    "stars": null,
    "number_of_reviews": null,
    "price_level": "",
    "open_hours": "",
    "extraction_timestamp": "2025-06-07T15:14:19.325Z",
    "source_name": "google",
    "source_query": "Irrigation Equipment",
    "source_country": "EG",
    "country": "Egypt",
    "state": "South Sinai",
    "city": "Nuwaybi‘a"
  },
  {
    "source_id": "ChIJKaNaYIDPqhURh4NoPfZTHhc",
    "name": "AL-Mhalawy Cafe",
    "category": "AL-Mhalawy Cafe",
    "formatted_address": "4,7(43) · E£1–100",
    "phone_number": "+201200807200",
    "source_url": "https://www.google.com/maps/place/AL-Mhalawy+Cafe/data=!4m7!3m6!1s0x15aacf80605aa329:0x171e53f63d688387!8m2!3d29.0358368!4d34.6702573!16s%2Fg%2F11t6kxx_l7!19sChIJKaNaYIDPqhURh4NoPfZTHhc?authuser=0&hl=tr&rclk=1",
    "website_url": "https://www.facebook.com/Almhalawy.Caffe/",
    "rating_text": "4,7",
    "stars": null,
    "number_of_reviews": null,
    "price_level": "",
    "open_hours": "",
    "extraction_timestamp": "2025-06-07T15:14:19.327Z",
    "source_name": "google",
    "source_query": "Irrigation Equipment",
    "source_country": "EG",
    "country": "Egypt",
    "state": "South Sinai",
    "city": "Nuwaybi‘a"
  },
  {
    "source_id": "ChIJWYGh09_PqhURHV3FIA22InE",
    "name": "Local supermarket",
    "category": "Local supermarket",
    "formatted_address": "3,7(3)",
    "phone_number": "",
    "source_url": "https://www.google.com/maps/place/Local+supermarket/data=!4m7!3m6!1s0x15aacfdfd3a18159:0x7122b60d20c55d1d!8m2!3d29.0492238!4d34.660867!16s%2Fg%2F11fn003r1h!19sChIJWYGh09_PqhURHV3FIA22InE?authuser=0&hl=tr&rclk=1",
    "website_url": "",
    "rating_text": "3,7",
    "stars": null,
    "number_of_reviews": null,
    "price_level": "",
    "open_hours": "",
    "extraction_timestamp": "2025-06-07T15:14:19.328Z",
    "source_name": "google",
    "source_query": "Irrigation Equipment",
    "source_country": "EG",
    "country": "Egypt",
    "state": "South Sinai",
    "city": "Nuwaybi‘a"
  },
  {
    "source_id": "ChIJa8Nfh53PqhURfBQvsEbiSR0",
    "name": "Beer shop",
    "category": "Beer shop",
    "formatted_address": "3,7(52)",
    "phone_number": "+20693500605",
    "source_url": "https://www.google.com/maps/place/Beer+shop/data=!4m7!3m6!1s0x15aacf9d875fc36b:0x1d49e246b02f147c!8m2!3d29.0335655!4d34.6662902!16s%2Fg%2F11lg2nr8rn!19sChIJa8Nfh53PqhURfBQvsEbiSR0?authuser=0&hl=tr&rclk=1",
    "website_url": "",
    "rating_text": "3,7",
    "stars": null,
    "number_of_reviews": null,
    "price_level": "",
    "open_hours": "",
    "extraction_timestamp": "2025-06-07T15:14:19.329Z",
    "source_name": "google",
    "source_query": "Irrigation Equipment",
    "source_country": "EG",
    "country": "Egypt",
    "state": "South Sinai",
    "city": "Nuwaybi‘a"
  },
  {
    "source_id": "ChIJM270LPPPqhURKmqieWrMvSE",
    "name": "سوبر ماركت اولاد شعلان",
    "category": "سوبر ماركت اولاد شعلان",
    "formatted_address": "4,4(26)",
    "phone_number": "",
    "source_url": "https://www.google.com/maps/place/%D8%B3%D9%88%D8%A8%D8%B1+%D9%85%D8%A7%D8%B1%D9%83%D8%AA+%D8%A7%D9%88%D9%84%D8%A7%D8%AF+%D8%B4%D8%B9%D9%84%D8%A7%D9%86%E2%80%AD/data=!4m7!3m6!1s0x15aacff32cf46e33:0x21bdcc6a79a26a2a!8m2!3d29.0386583!4d34.6617724!16s%2Fg%2F11rjkrcj0r!19sChIJM270LPPPqhURKmqieWrMvSE?authuser=0&hl=tr&rclk=1",
    "website_url": "",
    "rating_text": "4,4",
    "stars": null,
    "number_of_reviews": null,
    "price_level": "",
    "open_hours": "",
    "extraction_timestamp": "2025-06-07T15:14:19.330Z",
    "source_name": "google",
    "source_query": "Irrigation Equipment",
    "source_country": "EG",
    "country": "Egypt",
    "state": "South Sinai",
    "city": "Nuwaybi‘a"
  },
  {
    "source_id": "ChIJD13dS0DQqhUR7kBIc12xKWY",
    "name": "Supermarket son Dakahlia",
    "category": "Supermarket son Dakahlia",
    "formatted_address": "4,6(13)",
    "phone_number": "+201007011318",
    "source_url": "https://www.google.com/maps/place/Supermarket+son+Dakahlia/data=!4m7!3m6!1s0x15aad0404bdd5d0f:0x6629b15d734840ee!8m2!3d28.975967!4d34.6618291!16s%2Fg%2F11g6bkn3zv!19sChIJD13dS0DQqhUR7kBIc12xKWY?authuser=0&hl=tr&rclk=1",
    "website_url": "https://www.facebook.com/fawzy.aboadham.79",
    "rating_text": "4,6",
    "stars": null,
    "number_of_reviews": null,
    "price_level": "",
    "open_hours": "",
    "extraction_timestamp": "2025-06-07T15:14:19.331Z",
    "source_name": "google",
    "source_query": "Irrigation Equipment",
    "source_country": "EG",
    "country": "Egypt",
    "state": "South Sinai",
    "city": "Nuwaybi‘a"
  },
  {
    "source_id": "ChIJB5LCPCvPqhUR3HL9Qub70Zw",
    "name": "Khaymet Baba",
    "category": "Khaymet Baba",
    "formatted_address": "5,0(1)",
    "phone_number": "+201144100370",
    "source_url": "https://www.google.com/maps/place/Khaymet+Baba/data=!4m7!3m6!1s0x15aacf2b3cc29207:0x9cd1fbe642fd72dc!8m2!3d29.0264571!4d34.6736697!16s%2Fg%2F11qqmwqqd9!19sChIJB5LCPCvPqhUR3HL9Qub70Zw?authuser=0&hl=tr&rclk=1",
    "website_url": "",
    "rating_text": "5,0",
    "stars": null,
    "number_of_reviews": null,
    "price_level": "",
    "open_hours": "",
    "extraction_timestamp": "2025-06-07T15:14:19.332Z",
    "source_name": "google",
    "source_query": "Irrigation Equipment",
    "source_country": "EG",
    "country": "Egypt",
    "state": "South Sinai",
    "city": "Nuwaybi‘a"
  },
  {
    "source_id": "ChIJCddhG7LPqhURGj2A4cGwLEg",
    "name": "Shish Bish",
    "category": "Shish Bish",
    "formatted_address": "5,0(2)",
    "phone_number": "+201001925649",
    "source_url": "https://www.google.com/maps/place/Shish+Bish/data=!4m7!3m6!1s0x15aacfb21b61d709:0x482cb0c1e1803d1a!8m2!3d29.0283886!4d34.6720229!16s%2Fg%2F11v3ts065c!19sChIJCddhG7LPqhURGj2A4cGwLEg?authuser=0&hl=tr&rclk=1",
    "website_url": "",
    "rating_text": "5,0",
    "stars": null,
    "number_of_reviews": null,
    "price_level": "",
    "open_hours": "",
    "extraction_timestamp": "2025-06-07T15:14:19.333Z",
    "source_name": "google",
    "source_query": "Irrigation Equipment",
    "source_country": "EG",
    "country": "Egypt",
    "state": "South Sinai",
    "city": "Nuwaybi‘a"
  },
  {
    "source_id": "ChIJK2_KaT_QqhURrO4cTI5kM8w",
    "name": "Mini HyperMarket / ميني هايبر ماركت",
    "category": "Mini HyperMarket / ميني هايبر ماركت",
    "formatted_address": "3,8(24)",
    "phone_number": "",
    "source_url": "https://www.google.com/maps/place/Mini+HyperMarket+%2F+%D9%85%D9%8A%D9%86%D9%8A+%D9%87%D8%A7%D9%8A%D8%A8%D8%B1+%D9%85%D8%A7%D8%B1%D9%83%D8%AA%E2%80%AD/data=!4m7!3m6!1s0x15aad03f69ca6f2b:0xcc33648e4c1ceeac!8m2!3d28.9796889!4d34.6594639!16s%2Fg%2F11g6z2bb1q!19sChIJK2_KaT_QqhURrO4cTI5kM8w?authuser=0&hl=tr&rclk=1",
    "website_url": "",
    "rating_text": "3,8",
    "stars": null,
    "number_of_reviews": null,
    "price_level": "",
    "open_hours": "",
    "extraction_timestamp": "2025-06-07T15:14:19.334Z",
    "source_name": "google",
    "source_query": "Irrigation Equipment",
    "source_country": "EG",
    "country": "Egypt",
    "state": "South Sinai",
    "city": "Nuwaybi‘a"
  },
  {
    "source_id": "ChIJuftjcGzPqhURl7s0SvU-uUE",
    "name": "آسواق الروبي",
    "category": "آسواق الروبي",
    "formatted_address": "3,9(42)",
    "phone_number": "+201095099996",
    "source_url": "https://www.google.com/maps/place/%D8%A2%D8%B3%D9%88%D8%A7%D9%82+%D8%A7%D9%84%D8%B1%D9%88%D8%A8%D9%8A%E2%80%AD/data=!4m7!3m6!1s0x15aacf6c7063fbb9:0x41b93ef54a34bb97!8m2!3d29.0343067!4d34.6664052!16s%2Fg%2F11j6hx0__t!19sChIJuftjcGzPqhURl7s0SvU-uUE?authuser=0&hl=tr&rclk=1",
    "website_url": "",
    "rating_text": "3,9",
    "stars": null,
    "number_of_reviews": null,
    "price_level": "",
    "open_hours": "",
    "extraction_timestamp": "2025-06-07T15:14:19.335Z",
    "source_name": "google",
    "source_query": "Irrigation Equipment",
    "source_country": "EG",
    "country": "Egypt",
    "state": "South Sinai",
    "city": "Nuwaybi‘a"
  },
  {
    "source_id": "ChIJUxBBnWrQqhUR53ndxmIuPMc",
    "name": "Delta Market",
    "category": "Delta Market",
    "formatted_address": "4,0(1)",
    "phone_number": "+20693520262",
    "source_url": "https://www.google.com/maps/place/Delta+Market/data=!4m7!3m6!1s0x15aad06a9d411053:0xc73c2e62c6dd79e7!8m2!3d28.9734441!4d34.6534332!16s%2Fg%2F1q6n2k_qf!19sChIJUxBBnWrQqhUR53ndxmIuPMc?authuser=0&hl=tr&rclk=1",
    "website_url": "",
    "rating_text": "4,0",
    "stars": null,
    "number_of_reviews": null,
    "price_level": "",
    "open_hours": "",
    "extraction_timestamp": "2025-06-07T15:14:19.336Z",
    "source_name": "google",
    "source_query": "Irrigation Equipment",
    "source_country": "EG",
    "country": "Egypt",
    "state": "South Sinai",
    "city": "Nuwaybi‘a"
  },
  {
    "source_id": "ChIJPys7YHjRqhUR9rj5GKmuJ34",
    "name": "sinai's best camp & restaurant",
    "category": "sinai's best camp & restaurant",
    "formatted_address": "5,0(1)",
    "phone_number": "+201065006924",
    "source_url": "https://www.google.com/maps/place/sinai%27s+best+camp+%26+restaurant/data=!4m10!3m9!1s0x15aad178603b2b3f:0x7e27aea918f9b8f6!5m2!4m1!1i2!8m2!3d28.9734441!4d34.6534332!16s%2Fg%2F11q8s7wvlv!19sChIJPys7YHjRqhUR9rj5GKmuJ34?authuser=0&hl=tr&rclk=1",
    "website_url": "",
    "rating_text": "5,0",
    "stars": null,
    "number_of_reviews": null,
    "price_level": "",
    "open_hours": "",
    "extraction_timestamp": "2025-06-07T15:14:19.338Z",
    "source_name": "google",
    "source_query": "Irrigation Equipment",
    "source_country": "EG",
    "country": "Egypt",
    "state": "South Sinai",
    "city": "Nuwaybi‘a"
  },
  {
    "source_id": "ChIJMZW-sxjPqhURZTe8L3EiISQ",
    "name": "سوبر ماركت دينا",
    "category": "سوبر ماركت دينا",
    "formatted_address": "4,0(70)",
    "phone_number": "",
    "source_url": "https://www.google.com/maps/place/%D8%B3%D9%88%D8%A8%D8%B1+%D9%85%D8%A7%D8%B1%D9%83%D8%AA+%D8%AF%D9%8A%D9%86%D8%A7%E2%80%AD/data=!4m7!3m6!1s0x15aacf18b3be9531:0x242122712fbc3765!8m2!3d29.0373051!4d34.6614435!16s%2Fg%2F11jv14q7zj!19sChIJMZW-sxjPqhURZTe8L3EiISQ?authuser=0&hl=tr&rclk=1",
    "website_url": "",
    "rating_text": "4,0",
    "stars": null,
    "number_of_reviews": null,
    "price_level": "",
    "open_hours": "",
    "extraction_timestamp": "2025-06-07T15:14:19.339Z",
    "source_name": "google",
    "source_query": "Irrigation Equipment",
    "source_country": "EG",
    "country": "Egypt",
    "state": "South Sinai",
    "city": "Nuwaybi‘a"
  },
  {
    "source_id": "ChIJC6T4GzLPqhURzP9WNOS597k",
    "name": "MARKET EVERYDAY EL ZBARGY",
    "category": "MARKET EVERYDAY EL ZBARGY",
    "formatted_address": "3,7(15)",
    "phone_number": "+2033747477",
    "source_url": "https://www.google.com/maps/place/MARKET+EVERYDAY+EL+ZBARGY/data=!4m7!3m6!1s0x15aacf321bf8a40b:0xb9f7b9e43456ffcc!8m2!3d29.0485444!4d34.6633964!16s%2Fg%2F11rgh5dhcy!19sChIJC6T4GzLPqhURzP9WNOS597k?authuser=0&hl=tr&rclk=1",
    "website_url": "",
    "rating_text": "3,7",
    "stars": null,
    "number_of_reviews": null,
    "price_level": "",
    "open_hours": "",
    "extraction_timestamp": "2025-06-07T15:14:19.351Z",
    "source_name": "google",
    "source_query": "Irrigation Equipment",
    "source_country": "EG",
    "country": "Egypt",
    "state": "South Sinai",
    "city": "Nuwaybi‘a"
  },
  {
    "source_id": "ChIJMcw9WS_PqhURgb_99QKgwdk",
    "name": "عمرابوعمار omar abo ammar",
    "category": "عمرابوعمار omar abo ammar",
    "formatted_address": "3,6(19)",
    "phone_number": "+2017523134",
    "source_url": "https://www.google.com/maps/place/%D8%B9%D9%85%D8%B1%D8%A7%D8%A8%D9%88%D8%B9%D9%85%D8%A7%D8%B1+omar+abo+ammar%E2%80%AD/data=!4m7!3m6!1s0x15aacf2f593dcc31:0xd9c1a002f5fdbf81!8m2!3d29.0487731!4d34.6612118!16s%2Fg%2F11p5l80cxy!19sChIJMcw9WS_PqhURgb_99QKgwdk?authuser=0&hl=tr&rclk=1",
    "website_url": "",
    "rating_text": "3,6",
    "stars": null,
    "number_of_reviews": null,
    "price_level": "",
    "open_hours": "",
    "extraction_timestamp": "2025-06-07T15:14:19.352Z",
    "source_name": "google",
    "source_query": "Irrigation Equipment",
    "source_country": "EG",
    "country": "Egypt",
    "state": "South Sinai",
    "city": "Nuwaybi‘a"
  },
  {
    "source_id": "ChIJ8Wcs1p7PqhURmZanY8NQST0",
    "name": "New Dream Orange",
    "category": "New Dream Orange",
    "formatted_address": "4,2(20)",
    "phone_number": "+201200119114",
    "source_url": "https://www.google.com/maps/place/New+Dream+Orange/data=!4m7!3m6!1s0x15aacf9ed62c67f1:0x3d4950c363a79699!8m2!3d29.0333369!4d34.6663053!16s%2Fg%2F11cs0f0j03!19sChIJ8Wcs1p7PqhURmZanY8NQST0?authuser=0&hl=tr&rclk=1",
    "website_url": "",
    "rating_text": "4,2",
    "stars": null,
    "number_of_reviews": null,
    "price_level": "",
    "open_hours": "",
    "extraction_timestamp": "2025-06-07T15:14:19.353Z",
    "source_name": "google",
    "source_query": "Irrigation Equipment",
    "source_country": "EG",
    "country": "Egypt",
    "state": "South Sinai",
    "city": "Nuwaybi‘a"
  },
  {
    "source_id": "ChIJt8rx7PPPqhURUoV4kx9PmTA",
    "name": "Nakhil inn Hotel Nuweiba",
    "category": "Nakhil inn Hotel Nuweiba",
    "formatted_address": "4,6(321)",
    "phone_number": "+201222105906",
    "source_url": "https://www.google.com/maps/place/Nakhil+inn+Hotel+Nuweiba/data=!4m10!3m9!1s0x15aacff3ecf1cab7:0x30994f1f93788552!5m2!4m1!1i2!8m2!3d29.0510559!4d34.6680488!16s%2Fg%2F1th46gd2!19sChIJt8rx7PPPqhURUoV4kx9PmTA?authuser=0&hl=tr&rclk=1",
    "website_url": "",
    "rating_text": "4,6",
    "stars": null,
    "number_of_reviews": null,
    "price_level": "",
    "open_hours": "",
    "extraction_timestamp": "2025-06-07T15:14:19.354Z",
    "source_name": "google",
    "source_query": "Irrigation Equipment",
    "source_country": "EG",
    "country": "Egypt",
    "state": "South Sinai",
    "city": "Nuwaybi‘a"
  }
]
