[
  {
    "source_id": "ChIJtxikjmA5UxQREPaF6CWeXHc",
    "name": "Water Systems",
    "category": "Water Systems",
    "formatted_address": "4,0(3)",
    "phone_number": "+201110304000",
    "source_url": "https://www.google.com/maps/place/Water+Systems/data=!4m7!3m6!1s0x145339608ea418b7:0x775c9e25e885f610!8m2!3d27.9135914!4d34.2869289!16s%2Fg%2F11h26bz6xf!19sChIJtxikjmA5UxQREPaF6CWeXHc?authuser=0&hl=tr&rclk=1",
    "website_url": "",
    "rating_text": "4,0",
    "stars": null,
    "number_of_reviews": null,
    "price_level": "",
    "open_hours": "",
    "extraction_timestamp": "2025-06-07T15:14:28.146Z",
    "source_name": "google",
    "source_query": "Irrigation Equipment",
    "source_country": "EG",
    "country": "Egypt",
    "state": "South Sinai",
    "city": "Sharm el-Sheikh"
  },
  {
    "source_id": "ChIJZcBTOg85UxQRNeq8JTpMwzg",
    "name": "الوطنيه للغلايات National Steam Boilers Supplies Co",
    "category": "الوطنيه للغلايات National Steam Boilers Supplies Co",
    "formatted_address": "5,0(8)",
    "phone_number": "+201206015578",
    "source_url": "https://www.google.com/maps/place/%D8%A7%D9%84%D9%88%D8%B7%D9%86%D9%8A%D9%87+%D9%84%D9%84%D8%BA%D9%84%D8%A7%D9%8A%D8%A7%D8%AA+National+Steam+Boilers+Supplies+Co%E2%80%AD/data=!4m7!3m6!1s0x1453390f3a53c065:0x38c34c3a25bcea35!8m2!3d27.8970445!4d34.2966003!16s%2Fg%2F11mw5xfckn!19sChIJZcBTOg85UxQRNeq8JTpMwzg?authuser=0&hl=tr&rclk=1",
    "website_url": "http://www.nsb-egy.com/",
    "rating_text": "5,0",
    "stars": null,
    "number_of_reviews": null,
    "price_level": "",
    "open_hours": "",
    "extraction_timestamp": "2025-06-07T15:14:28.147Z",
    "source_name": "google",
    "source_query": "Irrigation Equipment",
    "source_country": "EG",
    "country": "Egypt",
    "state": "South Sinai",
    "city": "Sharm el-Sheikh"
  },
  {
    "source_id": "ChIJG7zJD5A5UxQR5rPfT-oEb_Q",
    "name": "Fox For trading & Supply",
    "category": "Fox For trading & Supply",
    "formatted_address": "",
    "phone_number": "+201227756100",
    "source_url": "https://www.google.com/maps/place/Fox+For+trading+%26+Supply/data=!4m7!3m6!1s0x145339900fc9bc1b:0xf46f04ea4fdfb3e6!8m2!3d27.8848121!4d34.2983324!16s%2Fg%2F11c55rwgp5!19sChIJG7zJD5A5UxQR5rPfT-oEb_Q?authuser=0&hl=tr&rclk=1",
    "website_url": "",
    "rating_text": "",
    "stars": null,
    "number_of_reviews": null,
    "price_level": "",
    "open_hours": "",
    "extraction_timestamp": "2025-06-07T15:14:28.148Z",
    "source_name": "google",
    "source_query": "Irrigation Equipment",
    "source_country": "EG",
    "country": "Egypt",
    "state": "South Sinai",
    "city": "Sharm el-Sheikh"
  },
  {
    "source_id": "ChIJPyLEwaI5UxQRtzwjmsJIXrc",
    "name": "sabtaya",
    "category": "sabtaya",
    "formatted_address": "5,0(1)",
    "phone_number": "",
    "source_url": "https://www.google.com/maps/place/sabtaya/data=!4m7!3m6!1s0x145339a2c1c4223f:0xb75e48c29a233cb7!8m2!3d27.8847534!4d34.2992544!16s%2Fg%2F11j4kvxfdw!19sChIJPyLEwaI5UxQRtzwjmsJIXrc?authuser=0&hl=tr&rclk=1",
    "website_url": "",
    "rating_text": "5,0",
    "stars": null,
    "number_of_reviews": null,
    "price_level": "",
    "open_hours": "",
    "extraction_timestamp": "2025-06-07T15:14:28.149Z",
    "source_name": "google",
    "source_query": "Irrigation Equipment",
    "source_country": "EG",
    "country": "Egypt",
    "state": "South Sinai",
    "city": "Sharm el-Sheikh"
  },
  {
    "source_id": "ChIJV6Tlr485UxQRG52498XfaCk",
    "name": "Aqua Marine Water Systems",
    "category": "Aqua Marine Water Systems",
    "formatted_address": "Yüzme Havuzu İşleri Yüklenicisi · Sharm El Sheikh International Hospital, طريق السلام+20 10 06637481",
    "phone_number": "+201006637481",
    "source_url": "https://www.google.com/maps/place/Aqua+Marine+Water+Systems/data=!4m7!3m6!1s0x1453398fafe5a457:0x2968dfc5f7b89d1b!8m2!3d27.8816423!4d34.299857!16s%2Fg%2F11b5pjjmfj!19sChIJV6Tlr485UxQRG52498XfaCk?authuser=0&hl=tr&rclk=1",
    "website_url": "https://www.yellowpages.com.eg/en/profile/Aqua-Marine-Water-Systems/213897",
    "rating_text": "",
    "stars": null,
    "number_of_reviews": null,
    "price_level": "",
    "open_hours": "",
    "extraction_timestamp": "2025-06-07T15:14:28.149Z",
    "source_name": "google",
    "source_query": "Irrigation Equipment",
    "source_country": "EG",
    "country": "Egypt",
    "state": "South Sinai",
    "city": "Sharm el-Sheikh"
  },
  {
    "source_id": "ChIJGb1emCw4UxQRRtZap7py3oc",
    "name": "Beyond Limits Egypt",
    "category": "Beyond Limits Egypt",
    "formatted_address": "4,6(29)",
    "phone_number": "+201015070592",
    "source_url": "https://www.google.com/maps/place/Beyond+Limits+Egypt/data=!4m7!3m6!1s0x1453382c985ebd19:0x87de72baa75ad646!8m2!3d27.9088521!4d34.324195!16s%2Fg%2F1thv1vf6!19sChIJGb1emCw4UxQRRtZap7py3oc?authuser=0&hl=tr&rclk=1",
    "website_url": "http://www.beyondlimitsegypt.com/",
    "rating_text": "4,6",
    "stars": null,
    "number_of_reviews": null,
    "price_level": "",
    "open_hours": "",
    "extraction_timestamp": "2025-06-07T15:14:28.150Z",
    "source_name": "google",
    "source_query": "Irrigation Equipment",
    "source_country": "EG",
    "country": "Egypt",
    "state": "South Sinai",
    "city": "Sharm el-Sheikh"
  },
  {
    "source_id": "ChIJp8vA1Rc6UxQRUfuwoTZ7s18",
    "name": "Pickalbatros Aqua Park Resort - Sharm El Sheikh",
    "category": "Pickalbatros Aqua Park Resort - Sharm El Sheikh",
    "formatted_address": "4,8(12.760)",
    "phone_number": "+20693667296",
    "source_url": "https://www.google.com/maps/place/Pickalbatros+Aqua+Park+Resort+-+Sharm+El+Sheikh/data=!4m10!3m9!1s0x14533a17d5c0cba7:0x5fb37b36a1b0fb51!5m2!4m1!1i2!8m2!3d27.857415!4d34.3101498!16s%2Fg%2F11dxm620kn!19sChIJp8vA1Rc6UxQRUfuwoTZ7s18?authuser=0&hl=tr&rclk=1",
    "website_url": "https://www.pickalbatros.com/",
    "rating_text": "4,8",
    "stars": null,
    "number_of_reviews": null,
    "price_level": "",
    "open_hours": "",
    "extraction_timestamp": "2025-06-07T15:14:28.151Z",
    "source_name": "google",
    "source_query": "Irrigation Equipment",
    "source_country": "EG",
    "country": "Egypt",
    "state": "South Sinai",
    "city": "Sharm el-Sheikh"
  },
  {
    "source_id": "ChIJdYYrGDw6UxQR-_Xth3bzLIQ",
    "name": "Pickalbatros Aqua Blu Resort - Sharm El Sheikh",
    "category": "Pickalbatros Aqua Blu Resort - Sharm El Sheikh",
    "formatted_address": "4,7(16.038)",
    "phone_number": "+20653413500",
    "source_url": "https://www.google.com/maps/place/Pickalbatros+Aqua+Blu+Resort+-+Sharm+El+Sheikh/data=!4m10!3m9!1s0x14533a3c182b8675:0x842cf37687edf5fb!5m2!4m1!1i2!8m2!3d27.8568459!4d34.3042704!16s%2Fg%2F1th1x6l9!19sChIJdYYrGDw6UxQR-_Xth3bzLIQ?authuser=0&hl=tr&rclk=1",
    "website_url": "",
    "rating_text": "4,7",
    "stars": null,
    "number_of_reviews": null,
    "price_level": "",
    "open_hours": "",
    "extraction_timestamp": "2025-06-07T15:14:28.166Z",
    "source_name": "google",
    "source_query": "Irrigation Equipment",
    "source_country": "EG",
    "country": "Egypt",
    "state": "South Sinai",
    "city": "Sharm el-Sheikh"
  },
  {
    "source_id": "ChIJMTg2YI83UxQRc4FaUBU02ko",
    "name": "Oonas Dive Club",
    "category": "Oonas Dive Club",
    "formatted_address": "4,4(201)",
    "phone_number": "+20693600581",
    "source_url": "https://www.google.com/maps/place/Oonas+Dive+Club/data=!4m10!3m9!1s0x1453378f60363831:0x4ada3415505a8173!5m2!4m1!1i2!8m2!3d27.9154176!4d34.3358938!16s%2Fg%2F1tf1811m!19sChIJMTg2YI83UxQRc4FaUBU02ko?authuser=0&hl=tr&rclk=1",
    "website_url": "http://www.oonasdiveclub.com/",
    "rating_text": "4,4",
    "stars": null,
    "number_of_reviews": null,
    "price_level": "",
    "open_hours": "",
    "extraction_timestamp": "2025-06-07T15:14:28.168Z",
    "source_name": "google",
    "source_query": "Irrigation Equipment",
    "source_country": "EG",
    "country": "Egypt",
    "state": "South Sinai",
    "city": "Sharm el-Sheikh"
  },
  {
    "source_id": "ChIJGdBQais4UxQRitIXHvWEhFo",
    "name": "Diving Vision",
    "category": "Diving Vision",
    "formatted_address": "4,7(63)",
    "phone_number": "+3901011112462",
    "source_url": "https://www.google.com/maps/place/Diving+Vision/data=!4m7!3m6!1s0x1453382b6a50d019:0x5a8484f51e17d28a!8m2!3d27.9083037!4d34.326537!16s%2Fg%2F11b_2v727_!19sChIJGdBQais4UxQRitIXHvWEhFo?authuser=0&hl=tr&rclk=1",
    "website_url": "https://goatdiving.com/",
    "rating_text": "4,7",
    "stars": null,
    "number_of_reviews": null,
    "price_level": "",
    "open_hours": "",
    "extraction_timestamp": "2025-06-07T15:14:28.172Z",
    "source_name": "google",
    "source_query": "Irrigation Equipment",
    "source_country": "EG",
    "country": "Egypt",
    "state": "South Sinai",
    "city": "Sharm el-Sheikh"
  }
]
