[
  {
    "source_id": "ChIJ02H1fJm8akARGkCR2BU48us",
    "name": "Iratek LLC",
    "category": "Iratek LLC",
    "formatted_address": "4,7(3)",
    "phone_number": "+37433646646",
    "source_url": "https://www.google.com/maps/place/Iratek+LLC/data=!4m7!3m6!1s0x406abc997cf561d3:0xebf23815d891401a!8m2!3d40.1702145!4d44.5495049!16s%2Fg%2F11b7c2xs5d!19sChIJ02H1fJm8akARGkCR2BU48us?authuser=0&hl=tr&rclk=1",
    "website_url": "",
    "rating_text": "4,7",
    "stars": null,
    "number_of_reviews": null,
    "price_level": "",
    "open_hours": "",
    "extraction_timestamp": "2025-06-07T13:38:20.645Z",
    "source_name": "google",
    "source_query": "Irrigation Equipment",
    "source_country": "AM",
    "country": "Armenia",
    "state": "Yerevan",
    "city": "K’anak’erravan"
  },
  {
    "source_id": "ChIJ6_q5mYujakARHImBZS4MM5U",
    "name": "Aqua Master",
    "category": "Aqua Master",
    "formatted_address": "5,0(3)",
    "phone_number": "+37443826682",
    "source_url": "https://www.google.com/maps/place/Aqua+Master/data=!4m7!3m6!1s0x406aa38b99b9faeb:0x95330c2e6581891c!8m2!3d40.2408716!4d44.5710315!16s%2Fg%2F11l6mbhtpr!19sChIJ6_q5mYujakARHImBZS4MM5U?authuser=0&hl=tr&rclk=1",
    "website_url": "",
    "rating_text": "5,0",
    "stars": null,
    "number_of_reviews": null,
    "price_level": "",
    "open_hours": "",
    "extraction_timestamp": "2025-06-07T13:38:20.647Z",
    "source_name": "google",
    "source_query": "Irrigation Equipment",
    "source_country": "AM",
    "country": "Armenia",
    "state": "Yerevan",
    "city": "K’anak’erravan"
  },
  {
    "source_id": "ChIJSehc_K69akAR5hWXcDHb1G0",
    "name": "IRRRISAL Irrigation systems",
    "category": "IRRRISAL Irrigation systems",
    "formatted_address": "Sulama Ekipmanları Tedarikçisi · 210/1 Arshakunyats AveKapanmak üzere ⋅ 18:00 ⋅ Açılış zamanı: Paz 10:00 · +374 99 000559",
    "phone_number": "+37499000559",
    "source_url": "https://www.google.com/maps/place/IRRRISAL+Irrigation+systems/data=!4m7!3m6!1s0x406abdaefc5ce849:0x6dd4db31709715e6!8m2!3d40.1428036!4d44.4957727!16s%2Fg%2F11jgmv2bl9!19sChIJSehc_K69akAR5hWXcDHb1G0?authuser=0&hl=tr&rclk=1",
    "website_url": "",
    "rating_text": "",
    "stars": null,
    "number_of_reviews": null,
    "price_level": "",
    "open_hours": "",
    "extraction_timestamp": "2025-06-07T13:38:20.649Z",
    "source_name": "google",
    "source_query": "Irrigation Equipment",
    "source_country": "AM",
    "country": "Armenia",
    "state": "Yerevan",
    "city": "K’anak’erravan"
  },
  {
    "source_id": "ChIJ3QgOc2m8akARc6hr3RZ5AK8",
    "name": "Jokarian Hydraulic Hose Service",
    "category": "Jokarian Hydraulic Hose Service",
    "formatted_address": "5,0(2)",
    "phone_number": "+37494304207",
    "source_url": "https://www.google.com/maps/place/Jokarian+Hydraulic+Hose+Service/data=!4m7!3m6!1s0x406abc69730e08dd:0xaf007916dd6ba873!8m2!3d40.1603257!4d44.5087481!16s%2Fg%2F11bbrcgbs6!19sChIJ3QgOc2m8akARc6hr3RZ5AK8?authuser=0&hl=tr&rclk=1",
    "website_url": "",
    "rating_text": "5,0",
    "stars": null,
    "number_of_reviews": null,
    "price_level": "",
    "open_hours": "",
    "extraction_timestamp": "2025-06-07T13:38:20.672Z",
    "source_name": "google",
    "source_query": "Irrigation Equipment",
    "source_country": "AM",
    "country": "Armenia",
    "state": "Yerevan",
    "city": "K’anak’erravan"
  },
  {
    "source_id": "ChIJnyguhOi8akARiVRDUBBquQ0",
    "name": "Landshaft",
    "category": "Landshaft",
    "formatted_address": "4,8(13)",
    "phone_number": "+37410555048",
    "source_url": "https://www.google.com/maps/place/Landshaft/data=!4m7!3m6!1s0x406abce8842e289f:0xdb96a1050435489!8m2!3d40.182802!4d44.52789!16s%2Fg%2F113htk9_j!19sChIJnyguhOi8akARiVRDUBBquQ0?authuser=0&hl=tr&rclk=1",
    "website_url": "",
    "rating_text": "4,8",
    "stars": null,
    "number_of_reviews": null,
    "price_level": "",
    "open_hours": "",
    "extraction_timestamp": "2025-06-07T13:38:20.674Z",
    "source_name": "google",
    "source_query": "Irrigation Equipment",
    "source_country": "AM",
    "country": "Armenia",
    "state": "Yerevan",
    "city": "K’anak’erravan"
  },
  {
    "source_id": "ChIJy4VveRC8akARfotxo0e3iVw",
    "name": "Welding Materials, Generators, Power Tools Makita",
    "category": "Welding Materials, Generators, Power Tools Makita",
    "formatted_address": "Welding Materials, Generators, Power Tools Makita",
    "phone_number": "+37410444448",
    "source_url": "https://www.google.com/maps/place/Welding+Materials,+Generators,+Power+Tools+Makita/data=!4m7!3m6!1s0x406abc10796f85cb:0x5c89b747a3718b7e!8m2!3d40.149533!4d44.497557!16s%2Fg%2F1ptvt8hj_!19sChIJy4VveRC8akARfotxo0e3iVw?authuser=0&hl=tr&rclk=1",
    "website_url": "",
    "rating_text": "5,0",
    "stars": null,
    "number_of_reviews": null,
    "price_level": "",
    "open_hours": "",
    "extraction_timestamp": "2025-06-07T13:38:20.677Z",
    "source_name": "google",
    "source_query": "Irrigation Equipment",
    "source_country": "AM",
    "country": "Armenia",
    "state": "Yerevan",
    "city": "K’anak’erravan"
  },
  {
    "source_id": "ChIJx-5mAOW8akAR4hHamywAWKQ",
    "name": "Ani-Inter Co. Ltd.",
    "category": "Ani-Inter Co. Ltd.",
    "formatted_address": "5,0(1)",
    "phone_number": "+37410568983",
    "source_url": "https://www.google.com/maps/place/Ani-Inter+Co.+Ltd./data=!4m7!3m6!1s0x406abce50066eec7:0xa458002c9bda11e2!8m2!3d40.1817771!4d44.5200133!16s%2Fg%2F1hm2f6s85!19sChIJx-5mAOW8akAR4hHamywAWKQ?authuser=0&hl=tr&rclk=1",
    "website_url": "",
    "rating_text": "5,0",
    "stars": null,
    "number_of_reviews": null,
    "price_level": "",
    "open_hours": "",
    "extraction_timestamp": "2025-06-07T13:38:20.678Z",
    "source_name": "google",
    "source_query": "Irrigation Equipment",
    "source_country": "AM",
    "country": "Armenia",
    "state": "Yerevan",
    "city": "K’anak’erravan"
  },
  {
    "source_id": "ChIJ41d2ixC8akARcc1vkItDPcg",
    "name": "Հիլկո Հայաստան",
    "category": "Հիլկո Հայաստան",
    "formatted_address": "5,0(3)",
    "phone_number": "+37494493223",
    "source_url": "https://www.google.com/maps/place/%D5%80%D5%AB%D5%AC%D5%AF%D5%B8+%D5%80%D5%A1%D5%B5%D5%A1%D5%BD%D5%BF%D5%A1%D5%B6/data=!4m7!3m6!1s0x406abc108b7657e3:0xc83d438b906fcd71!8m2!3d40.1492873!4d44.497491!16s%2Fg%2F1pp2vltyg!19sChIJ41d2ixC8akARcc1vkItDPcg?authuser=0&hl=tr&rclk=1",
    "website_url": "",
    "rating_text": "5,0",
    "stars": null,
    "number_of_reviews": null,
    "price_level": "",
    "open_hours": "",
    "extraction_timestamp": "2025-06-07T13:38:20.680Z",
    "source_name": "google",
    "source_query": "Irrigation Equipment",
    "source_country": "AM",
    "country": "Armenia",
    "state": "Yerevan",
    "city": "K’anak’erravan"
  },
  {
    "source_id": "ChIJhxIgSJijakARCzCc9k6qVv4",
    "name": "Իմ այգին",
    "category": "Իմ այգին",
    "formatted_address": "3,7(3)",
    "phone_number": "+37499239697",
    "source_url": "https://www.google.com/maps/place/%D4%BB%D5%B4+%D5%A1%D5%B5%D5%A3%D5%AB%D5%B6/data=!4m7!3m6!1s0x406aa39848201287:0xfe56aa4ef69c300b!8m2!3d40.2391478!4d44.5658917!16s%2Fg%2F11h_4876gt!19sChIJhxIgSJijakARCzCc9k6qVv4?authuser=0&hl=tr&rclk=1",
    "website_url": "",
    "rating_text": "3,7",
    "stars": null,
    "number_of_reviews": null,
    "price_level": "",
    "open_hours": "",
    "extraction_timestamp": "2025-06-07T13:38:20.682Z",
    "source_name": "google",
    "source_query": "Irrigation Equipment",
    "source_country": "AM",
    "country": "Armenia",
    "state": "Yerevan",
    "city": "K’anak’erravan"
  },
  {
    "source_id": "ChIJJQbOq6G9akARpX0a4QF_DSQ",
    "name": "Aqua Line",
    "category": "Aqua Line",
    "formatted_address": "5,0(4)",
    "phone_number": "+37491198269",
    "source_url": "https://www.google.com/maps/place/Aqua+Line/data=!4m7!3m6!1s0x406abda1abce0625:0x240d7f01e11a7da5!8m2!3d40.1772503!4d44.5219606!16s%2Fg%2F11pvhs06_n!19sChIJJQbOq6G9akARpX0a4QF_DSQ?authuser=0&hl=tr&rclk=1",
    "website_url": "",
    "rating_text": "5,0",
    "stars": null,
    "number_of_reviews": null,
    "price_level": "",
    "open_hours": "",
    "extraction_timestamp": "2025-06-07T13:38:20.684Z",
    "source_name": "google",
    "source_query": "Irrigation Equipment",
    "source_country": "AM",
    "country": "Armenia",
    "state": "Yerevan",
    "city": "K’anak’erravan"
  },
  {
    "source_id": "ChIJsflFZbS9akARtu4T15QsHrk",
    "name": "Weldlend",
    "category": "Weldlend",
    "formatted_address": "4,8(5)",
    "phone_number": "+37491521492",
    "source_url": "https://www.google.com/maps/place/Weldlend/data=!4m7!3m6!1s0x406abdb46545f9b1:0xb91e2c94d713eeb6!8m2!3d40.1632609!4d44.5106359!16s%2Fg%2F11gx_f36qf!19sChIJsflFZbS9akARtu4T15QsHrk?authuser=0&hl=tr&rclk=1",
    "website_url": "",
    "rating_text": "4,8",
    "stars": null,
    "number_of_reviews": null,
    "price_level": "",
    "open_hours": "",
    "extraction_timestamp": "2025-06-07T13:38:20.686Z",
    "source_name": "google",
    "source_query": "Irrigation Equipment",
    "source_country": "AM",
    "country": "Armenia",
    "state": "Yerevan",
    "city": "K’anak’erravan"
  },
  {
    "source_id": "ChIJVVXl4PS8akARiI91mzdLyCI",
    "name": "AQUA Systems Armenia",
    "category": "AQUA Systems Armenia",
    "formatted_address": "3,9(16)",
    "phone_number": "+37433606060",
    "source_url": "https://www.google.com/maps/place/AQUA+Systems+Armenia/data=!4m7!3m6!1s0x406abcf4e0e55555:0x22c84b379b758f88!8m2!3d40.1711706!4d44.520994!16s%2Fg%2F11h84zy3x2!19sChIJVVXl4PS8akARiI91mzdLyCI?authuser=0&hl=tr&rclk=1",
    "website_url": "",
    "rating_text": "3,9",
    "stars": null,
    "number_of_reviews": null,
    "price_level": "",
    "open_hours": "",
    "extraction_timestamp": "2025-06-07T13:38:20.687Z",
    "source_name": "google",
    "source_query": "Irrigation Equipment",
    "source_country": "AM",
    "country": "Armenia",
    "state": "Yerevan",
    "city": "K’anak’erravan"
  },
  {
    "source_id": "ChIJ8_riUEq9akARq1_fzkTLj9w",
    "name": "Gorciqner.am",
    "category": "Gorciqner.am",
    "formatted_address": "4,6(25)",
    "phone_number": "+37495065176",
    "source_url": "https://www.google.com/maps/place/Gorciqner.am/data=!4m7!3m6!1s0x406abd4a50e2faf3:0xdc8fcb44cedf5fab!8m2!3d40.2078698!4d44.5402048!16s%2Fg%2F11hczz26vn!19sChIJ8_riUEq9akARq1_fzkTLj9w?authuser=0&hl=tr&rclk=1",
    "website_url": "",
    "rating_text": "4,6",
    "stars": null,
    "number_of_reviews": null,
    "price_level": "",
    "open_hours": "",
    "extraction_timestamp": "2025-06-07T13:38:20.689Z",
    "source_name": "google",
    "source_query": "Irrigation Equipment",
    "source_country": "AM",
    "country": "Armenia",
    "state": "Yerevan",
    "city": "K’anak’erravan"
  },
  {
    "source_id": "ChIJkQkLn6eXakARsnkoD2RCHgw",
    "name": "O2 Gardens",
    "category": "O2 Gardens",
    "formatted_address": "O2 Gardens",
    "phone_number": "+37411202202",
    "source_url": "https://www.google.com/maps/place/O2+Gardens/data=!4m7!3m6!1s0x406a97a79f0b0991:0xc1e42640f2879b2!8m2!3d40.2159135!4d44.4382438!16s%2Fg%2F11rtzltrtb!19sChIJkQkLn6eXakARsnkoD2RCHgw?authuser=0&hl=tr&rclk=1",
    "website_url": "",
    "rating_text": "4,2",
    "stars": null,
    "number_of_reviews": null,
    "price_level": "",
    "open_hours": "",
    "extraction_timestamp": "2025-06-07T13:38:20.691Z",
    "source_name": "google",
    "source_query": "Irrigation Equipment",
    "source_country": "AM",
    "country": "Armenia",
    "state": "Yerevan",
    "city": "K’anak’erravan"
  },
  {
    "source_id": "ChIJq_4PXay-akARX7xK9fOoao0",
    "name": "Аквапул",
    "category": "Аквапул",
    "formatted_address": "5,0(1)",
    "phone_number": "+37498073235",
    "source_url": "https://www.google.com/maps/place/%D0%90%D0%BA%D0%B2%D0%B0%D0%BF%D1%83%D0%BB/data=!4m7!3m6!1s0x406abeac5d0ffeab:0x8d6aa8f3f54abc5f!8m2!3d40.1708246!4d44.5088319!16s%2Fg%2F11flzdbl1p!19sChIJq_4PXay-akARX7xK9fOoao0?authuser=0&hl=tr&rclk=1",
    "website_url": "",
    "rating_text": "5,0",
    "stars": null,
    "number_of_reviews": null,
    "price_level": "",
    "open_hours": "",
    "extraction_timestamp": "2025-06-07T13:38:20.692Z",
    "source_name": "google",
    "source_query": "Irrigation Equipment",
    "source_country": "AM",
    "country": "Armenia",
    "state": "Yerevan",
    "city": "K’anak’erravan"
  },
  {
    "source_id": "ChIJZSqztvGiakARBvvChudt_lw",
    "name": "Ակվատուս",
    "category": "Ակվատուս",
    "formatted_address": "4,5(10)",
    "phone_number": "+37410622299",
    "source_url": "https://www.google.com/maps/place/%D4%B1%D5%AF%D5%BE%D5%A1%D5%BF%D5%B8%D6%82%D5%BD/data=!4m7!3m6!1s0x406aa2f1b6b32a65:0x5cfe6de786c2fb06!8m2!3d40.2230039!4d44.5598609!16s%2Fg%2F11clw69vn_!19sChIJZSqztvGiakARBvvChudt_lw?authuser=0&hl=tr&rclk=1",
    "website_url": "",
    "rating_text": "4,5",
    "stars": null,
    "number_of_reviews": null,
    "price_level": "",
    "open_hours": "",
    "extraction_timestamp": "2025-06-07T13:38:20.693Z",
    "source_name": "google",
    "source_query": "Irrigation Equipment",
    "source_country": "AM",
    "country": "Armenia",
    "state": "Yerevan",
    "city": "K’anak’erravan"
  }
]
