[
  {
    "source_id": "ChIJhbyNKUX1PUAR7tWOyN-Ctic",
    "name": "Spar Market",
    "category": "Spar Market",
    "formatted_address": "1,0(1)",
    "phone_number": "",
    "source_url": "https://www.google.com/maps/place/Spar+Market/data=!4m7!3m6!1s0x403df545298dbc85:0x27b682dfc88ed5ee!8m2!3d39.3375194!4d46.5885135!16s%2Fg%2F11v3knzsll!19sChIJhbyNKUX1PUAR7tWOyN-Ctic?authuser=0&hl=tr&rclk=1",
    "website_url": "",
    "rating_text": "1,0",
    "stars": null,
    "number_of_reviews": null,
    "price_level": "",
    "open_hours": "",
    "extraction_timestamp": "2025-06-07T13:50:09.670Z",
    "source_name": "google",
    "source_query": "Irrigation Equipment",
    "source_country": "AZ",
    "country": "Azerbaijan",
    "state": "Qubadli District",
    "city": "Qubadlı"
  },
  {
    "source_id": "ChIJ2cGjdFD1PUARG5QZqh9sD0E",
    "name": "AL Market",
    "category": "AL Market",
    "formatted_address": "1,0(1)",
    "phone_number": "",
    "source_url": "https://www.google.com/maps/place/AL+Market/data=!4m7!3m6!1s0x403df55074a3c1d9:0x410f6c1faa19941b!8m2!3d39.3373862!4d46.58975!16s%2Fg%2F11t9qhtsy3!19sChIJ2cGjdFD1PUARG5QZqh9sD0E?authuser=0&hl=tr&rclk=1",
    "website_url": "",
    "rating_text": "1,0",
    "stars": null,
    "number_of_reviews": null,
    "price_level": "",
    "open_hours": "",
    "extraction_timestamp": "2025-06-07T13:50:09.672Z",
    "source_name": "google",
    "source_query": "Irrigation Equipment",
    "source_country": "AZ",
    "country": "Azerbaijan",
    "state": "Qubadli District",
    "city": "Qubadlı"
  },
  {
    "source_id": "ChIJxwN_zRvJQEARgXH2ZNBe0f0",
    "name": "Agrodrip Şəmkir",
    "category": "Agrodrip Şəmkir",
    "formatted_address": "5,0(4)",
    "phone_number": "+994502415197",
    "source_url": "https://www.google.com/maps/place/Agrodrip+%C5%9E%C9%99mkir/data=!4m7!3m6!1s0x4040c91bcd7f03c7:0xfdd15ed064f67181!8m2!3d40.8678125!4d46.0256876!16s%2Fg%2F11k55dj9gg!19sChIJxwN_zRvJQEARgXH2ZNBe0f0?authuser=0&hl=tr&rclk=1",
    "website_url": "http://www.agrodrip.az/",
    "rating_text": "5,0",
    "stars": null,
    "number_of_reviews": null,
    "price_level": "",
    "open_hours": "",
    "extraction_timestamp": "2025-06-07T13:50:09.673Z",
    "source_name": "google",
    "source_query": "Irrigation Equipment",
    "source_country": "AZ",
    "country": "Azerbaijan",
    "state": "Qubadli District",
    "city": "Qubadlı"
  },
  {
    "source_id": "ChIJ55jFEXm7N0AR188RurR30p8",
    "name": "Agrodrip Quba",
    "category": "Agrodrip Quba",
    "formatted_address": "5,0(3)",
    "phone_number": "+994502415196",
    "source_url": "https://www.google.com/maps/place/Agrodrip+Quba/data=!4m7!3m6!1s0x4037bb7911c598e7:0x9fd277b4ba11cfd7!8m2!3d41.3695656!4d48.5696676!16s%2Fg%2F11sf9k7r6b!19sChIJ55jFEXm7N0AR188RurR30p8?authuser=0&hl=tr&rclk=1",
    "website_url": "http://www.agrodrip.az/",
    "rating_text": "5,0",
    "stars": null,
    "number_of_reviews": null,
    "price_level": "",
    "open_hours": "",
    "extraction_timestamp": "2025-06-07T13:50:09.674Z",
    "source_name": "google",
    "source_query": "Irrigation Equipment",
    "source_country": "AZ",
    "country": "Azerbaijan",
    "state": "Qubadli District",
    "city": "Qubadlı"
  },
  {
    "source_id": "ChIJ6flE3E71PUAR_sjlpyNIf-I",
    "name": "Qubadlı Ticarət Mərkəzi",
    "category": "Qubadlı Ticarət Mərkəzi",
    "formatted_address": "1,0(1)",
    "phone_number": "",
    "source_url": "https://www.google.com/maps/place/Qubadl%C4%B1+Ticar%C9%99t+M%C9%99rk%C9%99zi/data=!4m7!3m6!1s0x403df54edc44f9e9:0xe27f4823a7e5c8fe!8m2!3d39.3366111!4d46.5898475!16s%2Fg%2F11vhkvjdy6!19sChIJ6flE3E71PUAR_sjlpyNIf-I?authuser=0&hl=tr&rclk=1",
    "website_url": "",
    "rating_text": "1,0",
    "stars": null,
    "number_of_reviews": null,
    "price_level": "",
    "open_hours": "",
    "extraction_timestamp": "2025-06-07T13:50:09.675Z",
    "source_name": "google",
    "source_query": "Irrigation Equipment",
    "source_country": "AZ",
    "country": "Azerbaijan",
    "state": "Qubadli District",
    "city": "Qubadlı"
  },
  {
    "source_id": "ChIJqxmV43N9MEAR7GYVNUTBgw0",
    "name": "Irrigation",
    "category": "Irrigation",
    "formatted_address": "4,0(7)",
    "phone_number": "+994103176119",
    "source_url": "https://www.google.com/maps/place/Irrigation/data=!4m7!3m6!1s0x40307d73e39519ab:0xd83c144351566ec!8m2!3d40.3731008!4d49.834286!16s%2Fg%2F11bwp4ycwf!19sChIJqxmV43N9MEAR7GYVNUTBgw0?authuser=0&hl=tr&rclk=1",
    "website_url": "http://www.irrigation.az/",
    "rating_text": "4,0",
    "stars": null,
    "number_of_reviews": null,
    "price_level": "",
    "open_hours": "",
    "extraction_timestamp": "2025-06-07T13:50:09.676Z",
    "source_name": "google",
    "source_query": "Irrigation Equipment",
    "source_country": "AZ",
    "country": "Azerbaijan",
    "state": "Qubadli District",
    "city": "Qubadlı"
  }
]
