[
  {
    "source_id": "ChIJ4fw1nFa5QUARZpdfB8bE0Do",
    "name": "Lori Stadium",
    "category": "Lori Stadium",
    "formatted_address": "4,7(19)",
    "phone_number": "",
    "source_url": "https://www.google.com/maps/place/Lori+Stadium/data=!4m7!3m6!1s0x4041b9569c35fce1:0x3ad0c4c6075f9766!8m2!3d40.7974546!4d44.4939542!16s%2Fm%2F0g58jny!19sChIJ4fw1nFa5QUARZpdfB8bE0Do?authuser=0&hl=tr&rclk=1",
    "website_url": "",
    "rating_text": "4,7",
    "stars": null,
    "number_of_reviews": null,
    "price_level": "",
    "open_hours": "",
    "extraction_timestamp": "2025-06-07T14:57:23.044Z",
    "source_name": "google",
    "source_query": "Ոռոգման սարքավորումներ",
    "source_country": "AM",
    "country": "Armenia",
    "state": "Lori Region",
    "city": "Darpas"
  },
  {
    "source_id": "ChIJ61BhNkSjQUARV5umIfKgsQo",
    "name": "ANGAR",
    "category": "ANGAR",
    "formatted_address": "4,4(27)",
    "phone_number": "+37498686890",
    "source_url": "https://www.google.com/maps/place/ANGAR/data=!4m7!3m6!1s0x4041a344366150eb:0xab1a0f221a69b57!8m2!3d40.8938769!4d44.6123742!16s%2Fg%2F11rylk9r_n!19sChIJ61BhNkSjQUARV5umIfKgsQo?authuser=0&hl=tr&rclk=1",
    "website_url": "https://angar.cc/",
    "rating_text": "4,4",
    "stars": null,
    "number_of_reviews": null,
    "price_level": "",
    "open_hours": "",
    "extraction_timestamp": "2025-06-07T14:57:23.049Z",
    "source_name": "google",
    "source_query": "Ոռոգման սարքավորումներ",
    "source_country": "AM",
    "country": "Armenia",
    "state": "Lori Region",
    "city": "Darpas"
  },
  {
    "source_id": "ChIJ9Ql3v12fQUARXqmHcQTXCRU",
    "name": "Արևածագի ձոր",
    "category": "Արևածագի ձոր",
    "formatted_address": "4,8(46)",
    "phone_number": "",
    "source_url": "https://www.google.com/maps/place/%D4%B1%D6%80%D6%87%D5%A1%D5%AE%D5%A1%D5%A3%D5%AB+%D5%B1%D5%B8%D6%80/data=!4m7!3m6!1s0x40419f5dbf7709f5:0x1509d7047187a95e!8m2!3d40.9606994!4d44.6058152!16s%2Fg%2F11srl4x8ts!19sChIJ9Ql3v12fQUARXqmHcQTXCRU?authuser=0&hl=tr&rclk=1",
    "website_url": "",
    "rating_text": "4,8",
    "stars": null,
    "number_of_reviews": null,
    "price_level": "",
    "open_hours": "",
    "extraction_timestamp": "2025-06-07T14:57:23.049Z",
    "source_name": "google",
    "source_query": "Ոռոգման սարքավորումներ",
    "source_country": "AM",
    "country": "Armenia",
    "state": "Lori Region",
    "city": "Darpas"
  },
  {
    "source_id": "ChIJM3iaDACbQUARHRb7182b5RI",
    "name": "Մայորի ձոր",
    "category": "Մայորի ձոր",
    "formatted_address": "5,0(3)",
    "phone_number": "",
    "source_url": "https://www.google.com/maps/place/%D5%84%D5%A1%D5%B5%D5%B8%D6%80%D5%AB+%D5%B1%D5%B8%D6%80/data=!4m7!3m6!1s0x40419b000c9a7833:0x12e59bcdd7fb161d!8m2!3d41.0090422!4d44.4039528!16s%2Fg%2F11y76q4zc7!19sChIJM3iaDACbQUARHRb7182b5RI?authuser=0&hl=tr&rclk=1",
    "website_url": "",
    "rating_text": "5,0",
    "stars": null,
    "number_of_reviews": null,
    "price_level": "",
    "open_hours": "",
    "extraction_timestamp": "2025-06-07T14:57:23.050Z",
    "source_name": "google",
    "source_query": "Ոռոգման սարքավորումներ",
    "source_country": "AM",
    "country": "Armenia",
    "state": "Lori Region",
    "city": "Darpas"
  },
  {
    "source_id": "ChIJcZ3LbJ-cQUAR_628SX24l1I",
    "name": "Lori Berd Fortress",
    "category": "Lori Berd Fortress",
    "formatted_address": "4,7(169)",
    "phone_number": "",
    "source_url": "https://www.google.com/maps/place/Lori+Berd+Fortress/data=!4m7!3m6!1s0x40419c9f6ccb9d71:0x5297b87d49bcadff!8m2!3d41.003925!4d44.430058!16s%2Fm%2F0h1cw21!19sChIJcZ3LbJ-cQUAR_628SX24l1I?authuser=0&hl=tr&rclk=1",
    "website_url": "http://www.mshakuyt.com/page-details.php?lang=ru&id=57",
    "rating_text": "4,7",
    "stars": null,
    "number_of_reviews": null,
    "price_level": "",
    "open_hours": "",
    "extraction_timestamp": "2025-06-07T14:57:23.050Z",
    "source_name": "google",
    "source_query": "Ոռոգման սարքավորումներ",
    "source_country": "AM",
    "country": "Armenia",
    "state": "Lori Region",
    "city": "Darpas"
  },
  {
    "source_id": "ChIJSYxLACK8QUARED_Pryj5WCw",
    "name": "Lori Police Department",
    "category": "Lori Police Department",
    "formatted_address": "Ոստիկանական բաժանմունք · 1/1 Tigran Mets Ave+374 322 40202",
    "phone_number": "+37432240202",
    "source_url": "https://www.google.com/maps/place/Lori+Police+Department/data=!4m7!3m6!1s0x4041bc22004b8c49:0x2c58f928afcf3f10!8m2!3d40.8150017!4d44.475926!16s%2Fg%2F1hm6btb06!19sChIJSYxLACK8QUARED_Pryj5WCw?authuser=0&hl=tr&rclk=1",
    "website_url": "http://www.police.am/",
    "rating_text": "",
    "stars": null,
    "number_of_reviews": null,
    "price_level": "",
    "open_hours": "",
    "extraction_timestamp": "2025-06-07T14:57:23.051Z",
    "source_name": "google",
    "source_query": "Ոռոգման սարքավորումներ",
    "source_country": "AM",
    "country": "Armenia",
    "state": "Lori Region",
    "city": "Darpas"
  }
]
