[
  {
    "source_id": "ChIJM3iaDACbQUARHRb7182b5RI",
    "name": "Մայորի ձոր",
    "category": "Մայորի ձոր",
    "formatted_address": "5,0(3)",
    "phone_number": "",
    "source_url": "https://www.google.com/maps/place/%D5%84%D5%A1%D5%B5%D5%B8%D6%80%D5%AB+%D5%B1%D5%B8%D6%80/data=!4m7!3m6!1s0x40419b000c9a7833:0x12e59bcdd7fb161d!8m2!3d41.0090422!4d44.4039528!16s%2Fg%2F11y76q4zc7!19sChIJM3iaDACbQUARHRb7182b5RI?authuser=0&hl=tr&rclk=1",
    "website_url": "",
    "rating_text": "5,0",
    "stars": null,
    "number_of_reviews": null,
    "price_level": "",
    "open_hours": "",
    "extraction_timestamp": "2025-06-07T15:01:04.503Z",
    "source_name": "google",
    "source_query": "Ոռոգման սարքավորումներ",
    "source_country": "AM",
    "country": "Armenia",
    "state": "Lori Region",
    "city": "Step’anavan"
  },
  {
    "source_id": "ChIJ9Ql3v12fQUARXqmHcQTXCRU",
    "name": "Արևածագի ձոր",
    "category": "Արևածագի ձոր",
    "formatted_address": "4,8(46)",
    "phone_number": "",
    "source_url": "https://www.google.com/maps/place/%D4%B1%D6%80%D6%87%D5%A1%D5%AE%D5%A1%D5%A3%D5%AB+%D5%B1%D5%B8%D6%80/data=!4m7!3m6!1s0x40419f5dbf7709f5:0x1509d7047187a95e!8m2!3d40.9606994!4d44.6058152!16s%2Fg%2F11srl4x8ts!19sChIJ9Ql3v12fQUARXqmHcQTXCRU?authuser=0&hl=tr&rclk=1",
    "website_url": "",
    "rating_text": "4,8",
    "stars": null,
    "number_of_reviews": null,
    "price_level": "",
    "open_hours": "",
    "extraction_timestamp": "2025-06-07T15:01:04.504Z",
    "source_name": "google",
    "source_query": "Ոռոգման սարքավորումներ",
    "source_country": "AM",
    "country": "Armenia",
    "state": "Lori Region",
    "city": "Step’anavan"
  },
  {
    "source_id": "ChIJcZ3LbJ-cQUAR_628SX24l1I",
    "name": "Lori Berd Fortress",
    "category": "Lori Berd Fortress",
    "formatted_address": "4,7(169)",
    "phone_number": "",
    "source_url": "https://www.google.com/maps/place/Lori+Berd+Fortress/data=!4m7!3m6!1s0x40419c9f6ccb9d71:0x5297b87d49bcadff!8m2!3d41.003925!4d44.430058!16s%2Fm%2F0h1cw21!19sChIJcZ3LbJ-cQUAR_628SX24l1I?authuser=0&hl=tr&rclk=1",
    "website_url": "http://www.mshakuyt.com/page-details.php?lang=ru&id=57",
    "rating_text": "4,7",
    "stars": null,
    "number_of_reviews": null,
    "price_level": "",
    "open_hours": "",
    "extraction_timestamp": "2025-06-07T15:01:04.505Z",
    "source_name": "google",
    "source_query": "Ոռոգման սարքավորումներ",
    "source_country": "AM",
    "country": "Armenia",
    "state": "Lori Region",
    "city": "Step’anavan"
  },
  {
    "source_id": "ChIJex3da7KfQUARk1RrJkQEbp0",
    "name": "Arevatsag Canyon",
    "category": "Arevatsag Canyon",
    "formatted_address": "4,8(66)",
    "phone_number": "",
    "source_url": "https://www.google.com/maps/place/Arevatsag+Canyon/data=!4m7!3m6!1s0x40419fb26bdd1d7b:0x9d6e0444266b5493!8m2!3d40.959478!4d44.607109!16s%2Fg%2F11htbgvnv2!19sChIJex3da7KfQUARk1RrJkQEbp0?authuser=0&hl=tr&rclk=1",
    "website_url": "",
    "rating_text": "4,8",
    "stars": null,
    "number_of_reviews": null,
    "price_level": "",
    "open_hours": "",
    "extraction_timestamp": "2025-06-07T15:01:04.505Z",
    "source_name": "google",
    "source_query": "Ոռոգման սարքավորումներ",
    "source_country": "AM",
    "country": "Armenia",
    "state": "Lori Region",
    "city": "Step’anavan"
  },
  {
    "source_id": "ChIJ4fw1nFa5QUARZpdfB8bE0Do",
    "name": "Lori Stadium",
    "category": "Lori Stadium",
    "formatted_address": "4,7(19)",
    "phone_number": "",
    "source_url": "https://www.google.com/maps/place/Lori+Stadium/data=!4m7!3m6!1s0x4041b9569c35fce1:0x3ad0c4c6075f9766!8m2!3d40.7974546!4d44.4939542!16s%2Fm%2F0g58jny!19sChIJ4fw1nFa5QUARZpdfB8bE0Do?authuser=0&hl=tr&rclk=1",
    "website_url": "",
    "rating_text": "4,7",
    "stars": null,
    "number_of_reviews": null,
    "price_level": "",
    "open_hours": "",
    "extraction_timestamp": "2025-06-07T15:01:04.506Z",
    "source_name": "google",
    "source_query": "Ոռոգման սարքավորումներ",
    "source_country": "AM",
    "country": "Armenia",
    "state": "Lori Region",
    "city": "Step’anavan"
  },
  {
    "source_id": "ChIJCcrqbgmZQUARoLt0vHBZfsQ",
    "name": "Stepanavan Dendropark",
    "category": "Stepanavan Dendropark",
    "formatted_address": "4,8(441)",
    "phone_number": "+37410253141",
    "source_url": "https://www.google.com/maps/place/Stepanavan+Dendropark/data=!4m7!3m6!1s0x404199096eeaca09:0xc47e5970bc74bba0!8m2!3d40.9363742!4d44.478519!16s%2Fm%2F05bzsng!19sChIJCcrqbgmZQUARoLt0vHBZfsQ?authuser=0&hl=tr&rclk=1",
    "website_url": "",
    "rating_text": "4,8",
    "stars": null,
    "number_of_reviews": null,
    "price_level": "",
    "open_hours": "",
    "extraction_timestamp": "2025-06-07T15:01:04.509Z",
    "source_name": "google",
    "source_query": "Ոռոգման սարքավորումներ",
    "source_country": "AM",
    "country": "Armenia",
    "state": "Lori Region",
    "city": "Step’anavan"
  },
  {
    "source_id": "ChIJYwAAwKijQUARyZgqFDOT-rc",
    "name": "Lori Resort",
    "category": "Lori Resort",
    "formatted_address": "4,5(2)",
    "phone_number": "+37493401080",
    "source_url": "https://www.google.com/maps/place/Lori+Resort/data=!4m10!3m9!1s0x4041a3a8c0000063:0xb7fa9333142a98c9!5m2!4m1!1i2!8m2!3d40.883692!4d44.589098!16s%2Fg%2F11r_ngr8z9!19sChIJYwAAwKijQUARyZgqFDOT-rc?authuser=0&hl=tr&rclk=1",
    "website_url": "",
    "rating_text": "4,5",
    "stars": null,
    "number_of_reviews": null,
    "price_level": "",
    "open_hours": "",
    "extraction_timestamp": "2025-06-07T15:01:04.509Z",
    "source_name": "google",
    "source_query": "Ոռոգման սարքավորումներ",
    "source_country": "AM",
    "country": "Armenia",
    "state": "Lori Region",
    "city": "Step’anavan"
  },
  {
    "source_id": "ChIJJyEkM8ubQUAR09HSzrPOZVw",
    "name": "ԼՈՌԻ ՀԱՆԳՍՏՅԱՆ ՏՈՒՆ",
    "category": "ԼՈՌԻ ՀԱՆԳՍՏՅԱՆ ՏՈՒՆ",
    "formatted_address": "3,3(6)",
    "phone_number": "",
    "source_url": "https://www.google.com/maps/place/%D4%BC%D5%88%D5%8C%D4%BB+%D5%80%D4%B1%D5%86%D4%B3%D5%8D%D5%8F%D5%85%D4%B1%D5%86+%D5%8F%D5%88%D5%92%D5%86/data=!4m7!3m6!1s0x40419bcb33242127:0x5c65ceb3ced2d1d3!8m2!3d40.9963249!4d44.3834977!16s%2Fg%2F11k79m4g21!19sChIJJyEkM8ubQUAR09HSzrPOZVw?authuser=0&hl=tr&rclk=1",
    "website_url": "http://www.lorihotel.am/resthomearm.html",
    "rating_text": "3,3",
    "stars": null,
    "number_of_reviews": null,
    "price_level": "",
    "open_hours": "",
    "extraction_timestamp": "2025-06-07T15:01:04.510Z",
    "source_name": "google",
    "source_query": "Ոռոգման սարքավորումներ",
    "source_country": "AM",
    "country": "Armenia",
    "state": "Lori Region",
    "city": "Step’anavan"
  },
  {
    "source_id": "ChIJnRDhBwyZQUARrekCTP8DnmY",
    "name": "Sochut spa Resort",
    "category": "Sochut spa Resort",
    "formatted_address": "4,3(78)",
    "phone_number": "+37460501199",
    "source_url": "https://www.google.com/maps/place/Sochut+spa+Resort/data=!4m10!3m9!1s0x4041990c07e1109d:0x669e03ff4c02e9ad!5m2!4m1!1i2!8m2!3d40.9385892!4d44.4791794!16s%2Fg%2F1tjs3f23!19sChIJnRDhBwyZQUARrekCTP8DnmY?authuser=0&hl=tr&rclk=1",
    "website_url": "",
    "rating_text": "4,3",
    "stars": null,
    "number_of_reviews": null,
    "price_level": "",
    "open_hours": "",
    "extraction_timestamp": "2025-06-07T15:01:04.510Z",
    "source_name": "google",
    "source_query": "Ոռոգման սարքավորումներ",
    "source_country": "AM",
    "country": "Armenia",
    "state": "Lori Region",
    "city": "Step’anavan"
  },
  {
    "source_id": "ChIJ_2iDr7GEQUARq_nkSpHZi6s",
    "name": "Lori Hotel",
    "category": "Lori Hotel",
    "formatted_address": "3,3(23)",
    "phone_number": "+37425622323",
    "source_url": "https://www.google.com/maps/place/Lori+Hotel/data=!4m10!3m9!1s0x404184b1af8368ff:0xab8bd9914ae4f9ab!5m2!4m1!1i2!8m2!3d41.0084951!4d44.3844786!16s%2Fg%2F11f5ly881s!19sChIJ_2iDr7GEQUARq_nkSpHZi6s?authuser=0&hl=tr&rclk=1",
    "website_url": "http://lorihotel.am/",
    "rating_text": "3,3",
    "stars": null,
    "number_of_reviews": null,
    "price_level": "",
    "open_hours": "",
    "extraction_timestamp": "2025-06-07T15:01:04.510Z",
    "source_name": "google",
    "source_query": "Ոռոգման սարքավորումներ",
    "source_country": "AM",
    "country": "Armenia",
    "state": "Lori Region",
    "city": "Step’anavan"
  }
]
