[
  {
    "source_id": "ChIJBYwaxDHhBkARM8NqWPtQxls",
    "name": "JUNGLE",
    "category": "JUNGLE",
    "formatted_address": "5,0(2)",
    "phone_number": "+9647512771001",
    "source_url": "https://www.google.com/maps/place/JUNGLE/data=!4m7!3m6!1s0x4006e131c41a8c05:0x5bc650fb586ac333!8m2!3d36.3024533!4d44.022644!16s%2Fg%2F11vqpbp9_k!19sChIJBYwaxDHhBkARM8NqWPtQxls?authuser=0&hl=tr&rclk=1",
    "website_url": "",
    "rating_text": "5,0",
    "stars": null,
    "number_of_reviews": null,
    "price_level": "",
    "open_hours": "",
    "extraction_timestamp": "2025-06-07T15:39:26.695Z",
    "source_name": "google",
    "source_query": "Irrigation Equipment",
    "source_country": "IQ",
    "country": "Iraq",
    "state": "Nineveh",
    "city": "Tallkayf"
  },
  {
    "source_id": "ChIJSSXz223FB0ARsguOLrdIVtg",
    "name": "محل اليقين - Al-Yaqin Market",
    "category": "محل اليقين - Al-Yaqin Market",
    "formatted_address": "5,0(1)",
    "phone_number": "+917555529861",
    "source_url": "https://www.google.com/maps/place/%D9%85%D8%AD%D9%84+%D8%A7%D9%84%D9%8A%D9%82%D9%8A%D9%86+-+Al-Yaqin+Market%E2%80%AD/data=!4m7!3m6!1s0x4007c56ddbf32549:0xd85648b72e8e0bb2!8m2!3d36.4914202!4d43.1141436!16s%2Fg%2F11n07d_9fw!19sChIJSSXz223FB0ARsguOLrdIVtg?authuser=0&hl=tr&rclk=1",
    "website_url": "",
    "rating_text": "5,0",
    "stars": null,
    "number_of_reviews": null,
    "price_level": "",
    "open_hours": "",
    "extraction_timestamp": "2025-06-07T15:39:26.696Z",
    "source_name": "google",
    "source_query": "Irrigation Equipment",
    "source_country": "IQ",
    "country": "Iraq",
    "state": "Nineveh",
    "city": "Tallkayf"
  },
  {
    "source_id": "ChIJ6XXZ5wHFB0ARDyaAjA68LWE",
    "name": "Abu Abd Store",
    "category": "Abu Abd Store",
    "formatted_address": "5,0(2)",
    "phone_number": "+9647516252765",
    "source_url": "https://www.google.com/maps/place/Abu+Abd+Store/data=!4m7!3m6!1s0x4007c501e7d975e9:0x612dbc0e8c80260f!8m2!3d36.4915609!4d43.1196285!16s%2Fg%2F11ry6cyvfs!19sChIJ6XXZ5wHFB0ARDyaAjA68LWE?authuser=0&hl=tr&rclk=1",
    "website_url": "",
    "rating_text": "5,0",
    "stars": null,
    "number_of_reviews": null,
    "price_level": "",
    "open_hours": "",
    "extraction_timestamp": "2025-06-07T15:39:26.697Z",
    "source_name": "google",
    "source_query": "Irrigation Equipment",
    "source_country": "IQ",
    "country": "Iraq",
    "state": "Nineveh",
    "city": "Tallkayf"
  },
  {
    "source_id": "ChIJy_Uwl2GOCEARDH3ulqvxFS4",
    "name": "FIRAT",
    "category": "FIRAT",
    "formatted_address": "4,4(16)",
    "phone_number": "+9647504672761",
    "source_url": "https://www.google.com/maps/place/FIRAT/data=!4m7!3m6!1s0x40088e619730f5cb:0x2e15f1ab96ee7d0c!8m2!3d36.8449355!4d43.0444813!16s%2Fg%2F1261l7r2s!19sChIJy_Uwl2GOCEARDH3ulqvxFS4?authuser=0&hl=tr&rclk=1",
    "website_url": "https://instagram.com/firatduhok?igshid=MzRlODBiNWFlZA==",
    "rating_text": "4,4",
    "stars": null,
    "number_of_reviews": null,
    "price_level": "",
    "open_hours": "",
    "extraction_timestamp": "2025-06-07T15:39:26.697Z",
    "source_name": "google",
    "source_query": "Irrigation Equipment",
    "source_country": "IQ",
    "country": "Iraq",
    "state": "Nineveh",
    "city": "Tallkayf"
  },
  {
    "source_id": "ChIJOynPa-PFB0AR6sggRPxgER4",
    "name": "Sadan Market",
    "category": "Sadan Market",
    "formatted_address": "5,0(3)",
    "phone_number": "",
    "source_url": "https://www.google.com/maps/place/Sadan+Market/data=!4m7!3m6!1s0x4007c5e36bcf293b:0x1e1160fc4420c8ea!8m2!3d36.4959157!4d43.1217225!16s%2Fg%2F11l6s6zl90!19sChIJOynPa-PFB0AR6sggRPxgER4?authuser=0&hl=tr&rclk=1",
    "website_url": "",
    "rating_text": "5,0",
    "stars": null,
    "number_of_reviews": null,
    "price_level": "",
    "open_hours": "",
    "extraction_timestamp": "2025-06-07T15:39:26.698Z",
    "source_name": "google",
    "source_query": "Irrigation Equipment",
    "source_country": "IQ",
    "country": "Iraq",
    "state": "Nineveh",
    "city": "Tallkayf"
  },
  {
    "source_id": "ChIJRbw8DgDFB0ARzXFT3ee8waU",
    "name": "Tel Keppe Market",
    "category": "Tel Keppe Market",
    "formatted_address": "4,0(2)",
    "phone_number": "",
    "source_url": "https://www.google.com/maps/place/Tel+Keppe+Market/data=!4m7!3m6!1s0x4007c5000e3cbc45:0xa5c1bce7dd5371cd!8m2!3d36.4903926!4d43.1235953!16s%2Fg%2F11vz117zj5!19sChIJRbw8DgDFB0ARzXFT3ee8waU?authuser=0&hl=tr&rclk=1",
    "website_url": "",
    "rating_text": "4,0",
    "stars": null,
    "number_of_reviews": null,
    "price_level": "",
    "open_hours": "",
    "extraction_timestamp": "2025-06-07T15:39:26.698Z",
    "source_name": "google",
    "source_query": "Irrigation Equipment",
    "source_country": "IQ",
    "country": "Iraq",
    "state": "Nineveh",
    "city": "Tallkayf"
  }
]
