[
  {
    "source_id": "ChIJBYwaxDHhBkARM8NqWPtQxls",
    "name": "JUNGLE",
    "category": "JUNGLE",
    "formatted_address": "5,0(2)",
    "phone_number": "+9647512771001",
    "source_url": "https://www.google.com/maps/place/JUNGLE/data=!4m7!3m6!1s0x4006e131c41a8c05:0x5bc650fb586ac333!8m2!3d36.3024533!4d44.022644!16s%2Fg%2F11vqpbp9_k!19sChIJBYwaxDHhBkARM8NqWPtQxls?authuser=0&hl=tr&rclk=1",
    "website_url": "",
    "rating_text": "5,0",
    "stars": null,
    "number_of_reviews": null,
    "price_level": "",
    "open_hours": "",
    "extraction_timestamp": "2025-06-07T15:39:56.375Z",
    "source_name": "google",
    "source_query": "Irrigation Equipment",
    "source_country": "IQ",
    "country": "Iraq",
    "state": "Nineveh",
    "city": "Tall ‘Afar"
  },
  {
    "source_id": "ChIJGXl4CgBTTRURzxinfy0aAAM",
    "name": "أسواق محمد فاضل بك",
    "category": "أسواق محمد فاضل بك",
    "formatted_address": "5,0(1)",
    "phone_number": "",
    "source_url": "https://www.google.com/maps/place/%D8%A3%D8%B3%D9%88%D8%A7%D9%82+%D9%85%D8%AD%D9%85%D8%AF+%D9%81%D8%A7%D8%B6%D9%84+%D8%A8%D9%83%E2%80%AD/data=!4m7!3m6!1s0x154d53000a787919:0x3001a2d7fa718cf!8m2!3d36.3751699!4d42.4279466!16s%2Fg%2F11xgd25cjv!19sChIJGXl4CgBTTRURzxinfy0aAAM?authuser=0&hl=tr&rclk=1",
    "website_url": "",
    "rating_text": "5,0",
    "stars": null,
    "number_of_reviews": null,
    "price_level": "",
    "open_hours": "",
    "extraction_timestamp": "2025-06-07T15:39:56.375Z",
    "source_name": "google",
    "source_query": "Irrigation Equipment",
    "source_country": "IQ",
    "country": "Iraq",
    "state": "Nineveh",
    "city": "Tall ‘Afar"
  },
  {
    "source_id": "ChIJveGksEJTTRURb3B5B9YOuMo",
    "name": "جرزات طيبة",
    "category": "جرزات طيبة",
    "formatted_address": "5,0(1)",
    "phone_number": "+9647731087201",
    "source_url": "https://www.google.com/maps/place/%D8%AC%D8%B1%D8%B2%D8%A7%D8%AA+%D8%B7%D9%8A%D8%A8%D8%A9%E2%80%AD/data=!4m7!3m6!1s0x154d5342b0a4e1bd:0xcab80ed60779706f!8m2!3d36.3806426!4d42.44964!16s%2Fg%2F11p61ttjzx!19sChIJveGksEJTTRURb3B5B9YOuMo?authuser=0&hl=tr&rclk=1",
    "website_url": "",
    "rating_text": "5,0",
    "stars": null,
    "number_of_reviews": null,
    "price_level": "",
    "open_hours": "",
    "extraction_timestamp": "2025-06-07T15:39:56.376Z",
    "source_name": "google",
    "source_query": "Irrigation Equipment",
    "source_country": "IQ",
    "country": "Iraq",
    "state": "Nineveh",
    "city": "Tall ‘Afar"
  },
  {
    "source_id": "ChIJkfiU5_hRTRURkS3FTohu-0E",
    "name": "طلعت واوي",
    "category": "طلعت واوي",
    "formatted_address": "4,3(32)",
    "phone_number": "",
    "source_url": "https://www.google.com/maps/place/%D8%B7%D9%84%D8%B9%D8%AA+%D9%88%D8%A7%D9%88%D9%8A%E2%80%AD/data=!4m7!3m6!1s0x154d51f8e794f891:0x41fb6e884ec52d91!8m2!3d36.3638163!4d42.410444!16s%2Fg%2F11pxprnjgc!19sChIJkfiU5_hRTRURkS3FTohu-0E?authuser=0&hl=tr&rclk=1",
    "website_url": "",
    "rating_text": "4,3",
    "stars": null,
    "number_of_reviews": null,
    "price_level": "",
    "open_hours": "",
    "extraction_timestamp": "2025-06-07T15:39:56.377Z",
    "source_name": "google",
    "source_query": "Irrigation Equipment",
    "source_country": "IQ",
    "country": "Iraq",
    "state": "Nineveh",
    "city": "Tall ‘Afar"
  },
  {
    "source_id": "ChIJ5ZsarodJB0ARpqoHHnxcH00",
    "name": "Serwan Saady company",
    "category": "Serwan Saady company",
    "formatted_address": "5,0(2)",
    "phone_number": "+9647504478054",
    "source_url": "https://www.google.com/maps/place/Serwan+Saady+company/data=!4m7!3m6!1s0x40074987ae1a9be5:0x4d1f5c7c1e07aaa6!8m2!3d36.0373773!4d43.9317342!16s%2Fg%2F11v3fqbl1p!19sChIJ5ZsarodJB0ARpqoHHnxcH00?authuser=0&hl=tr&rclk=1",
    "website_url": "",
    "rating_text": "5,0",
    "stars": null,
    "number_of_reviews": null,
    "price_level": "",
    "open_hours": "",
    "extraction_timestamp": "2025-06-07T15:39:56.377Z",
    "source_name": "google",
    "source_query": "Irrigation Equipment",
    "source_country": "IQ",
    "country": "Iraq",
    "state": "Nineveh",
    "city": "Tall ‘Afar"
  },
  {
    "source_id": "ChIJM4fRTi5TTRUR2PWD33AAKwU",
    "name": "Family Bazar",
    "category": "Family Bazar",
    "formatted_address": "4,8(4)",
    "phone_number": "",
    "source_url": "https://www.google.com/maps/place/Family+Bazar/data=!4m7!3m6!1s0x154d532e4ed18733:0x52b0070df83f5d8!8m2!3d36.3823041!4d42.4616156!16s%2Fg%2F11nyzgy07b!19sChIJM4fRTi5TTRUR2PWD33AAKwU?authuser=0&hl=tr&rclk=1",
    "website_url": "",
    "rating_text": "4,8",
    "stars": null,
    "number_of_reviews": null,
    "price_level": "",
    "open_hours": "",
    "extraction_timestamp": "2025-06-07T15:39:56.378Z",
    "source_name": "google",
    "source_query": "Irrigation Equipment",
    "source_country": "IQ",
    "country": "Iraq",
    "state": "Nineveh",
    "city": "Tall ‘Afar"
  },
  {
    "source_id": "ChIJ0UG2xiJTTRURIBe94lRitrY",
    "name": "علوة محمد علي ورقه",
    "category": "علوة محمد علي ورقه",
    "formatted_address": "4,0(38)",
    "phone_number": "+9647512193452",
    "source_url": "https://www.google.com/maps/place/%D8%B9%D9%84%D9%88%D8%A9+%D9%85%D8%AD%D9%85%D8%AF+%D8%B9%D9%84%D9%8A+%D9%88%D8%B1%D9%82%D9%87%E2%80%AD/data=!4m7!3m6!1s0x154d5322c6b641d1:0xb6b66254e2bd1720!8m2!3d36.3751274!4d42.4262411!16s%2Fg%2F11fvmy7h0g!19sChIJ0UG2xiJTTRURIBe94lRitrY?authuser=0&hl=tr&rclk=1",
    "website_url": "",
    "rating_text": "4,0",
    "stars": null,
    "number_of_reviews": null,
    "price_level": "",
    "open_hours": "",
    "extraction_timestamp": "2025-06-07T15:39:56.379Z",
    "source_name": "google",
    "source_query": "Irrigation Equipment",
    "source_country": "IQ",
    "country": "Iraq",
    "state": "Nineveh",
    "city": "Tall ‘Afar"
  },
  {
    "source_id": "ChIJV91U-VFTTRURCeFkm_WYxLw",
    "name": "محلات سيد اكرم عبدالقادر",
    "category": "محلات سيد اكرم عبدالقادر",
    "formatted_address": "5,0(1)",
    "phone_number": "",
    "source_url": "https://www.google.com/maps/place/%D9%85%D8%AD%D9%84%D8%A7%D8%AA+%D8%B3%D9%8A%D8%AF+%D8%A7%D9%83%D8%B1%D9%85+%D8%B9%D8%A8%D8%AF%D8%A7%D9%84%D9%82%D8%A7%D8%AF%D8%B1%E2%80%AD/data=!4m7!3m6!1s0x154d5351f954dd57:0xbcc498f59b64e109!8m2!3d36.4050472!4d42.4520227!16s%2Fg%2F11k4sw7s4_!19sChIJV91U-VFTTRURCeFkm_WYxLw?authuser=0&hl=tr&rclk=1",
    "website_url": "",
    "rating_text": "5,0",
    "stars": null,
    "number_of_reviews": null,
    "price_level": "",
    "open_hours": "",
    "extraction_timestamp": "2025-06-07T15:39:56.379Z",
    "source_name": "google",
    "source_query": "Irrigation Equipment",
    "source_country": "IQ",
    "country": "Iraq",
    "state": "Nineveh",
    "city": "Tall ‘Afar"
  },
  {
    "source_id": "ChIJUXvrLvhTTRURZOG62d_58qQ",
    "name": "مجمع البقال",
    "category": "مجمع البقال",
    "formatted_address": "4,5(4)",
    "phone_number": "+9647519284877",
    "source_url": "https://www.google.com/maps/place/%D9%85%D8%AC%D9%85%D8%B9+%D8%A7%D9%84%D8%A8%D9%82%D8%A7%D9%84%E2%80%AD/data=!4m7!3m6!1s0x154d53f82eeb7b51:0xa4f2f9dfd9bae164!8m2!3d36.3876199!4d42.4629857!16s%2Fg%2F11l5jnxj08!19sChIJUXvrLvhTTRURZOG62d_58qQ?authuser=0&hl=tr&rclk=1",
    "website_url": "",
    "rating_text": "4,5",
    "stars": null,
    "number_of_reviews": null,
    "price_level": "",
    "open_hours": "",
    "extraction_timestamp": "2025-06-07T15:39:56.380Z",
    "source_name": "google",
    "source_query": "Irrigation Equipment",
    "source_country": "IQ",
    "country": "Iraq",
    "state": "Nineveh",
    "city": "Tall ‘Afar"
  },
  {
    "source_id": "ChIJgUIf72hTTRURqC4ZxVabWbY",
    "name": "معرض المحبة",
    "category": "معرض المحبة",
    "formatted_address": "4,2(46)",
    "phone_number": "",
    "source_url": "https://www.google.com/maps/place/%D9%85%D8%B9%D8%B1%D8%B6+%D8%A7%D9%84%D9%85%D8%AD%D8%A8%D8%A9%E2%80%AD/data=!4m7!3m6!1s0x154d5368ef1f4281:0xb6599b56c5192ea8!8m2!3d36.3734629!4d42.4413378!16s%2Fg%2F11sz2ddrd2!19sChIJgUIf72hTTRURqC4ZxVabWbY?authuser=0&hl=tr&rclk=1",
    "website_url": "",
    "rating_text": "4,2",
    "stars": null,
    "number_of_reviews": null,
    "price_level": "",
    "open_hours": "",
    "extraction_timestamp": "2025-06-07T15:39:56.381Z",
    "source_name": "google",
    "source_query": "Irrigation Equipment",
    "source_country": "IQ",
    "country": "Iraq",
    "state": "Nineveh",
    "city": "Tall ‘Afar"
  },
  {
    "source_id": "ChIJy_Uwl2GOCEARDH3ulqvxFS4",
    "name": "FIRAT",
    "category": "FIRAT",
    "formatted_address": "4,4(16)",
    "phone_number": "+9647504672761",
    "source_url": "https://www.google.com/maps/place/FIRAT/data=!4m7!3m6!1s0x40088e619730f5cb:0x2e15f1ab96ee7d0c!8m2!3d36.8449355!4d43.0444813!16s%2Fg%2F1261l7r2s!19sChIJy_Uwl2GOCEARDH3ulqvxFS4?authuser=0&hl=tr&rclk=1",
    "website_url": "https://instagram.com/firatduhok?igshid=MzRlODBiNWFlZA==",
    "rating_text": "4,4",
    "stars": null,
    "number_of_reviews": null,
    "price_level": "",
    "open_hours": "",
    "extraction_timestamp": "2025-06-07T15:39:56.382Z",
    "source_name": "google",
    "source_query": "Irrigation Equipment",
    "source_country": "IQ",
    "country": "Iraq",
    "state": "Nineveh",
    "city": "Tall ‘Afar"
  },
  {
    "source_id": "ChIJY5rDxnbjUxURmMTBL6QXUnE",
    "name": "Starting of Al-Khizamiya canal",
    "category": "Starting of Al-Khizamiya canal",
    "formatted_address": "4,3(3)",
    "phone_number": "",
    "source_url": "https://www.google.com/maps/place/Starting+of+Al-Khizamiya+canal/data=!4m7!3m6!1s0x1553e376c6c39a63:0x715217a42fc1c498!8m2!3d34.7699382!4d43.6289199!16s%2Fg%2F11rsb2wbwb!19sChIJY5rDxnbjUxURmMTBL6QXUnE?authuser=0&hl=tr&rclk=1",
    "website_url": "",
    "rating_text": "4,3",
    "stars": null,
    "number_of_reviews": null,
    "price_level": "",
    "open_hours": "",
    "extraction_timestamp": "2025-06-07T15:39:56.383Z",
    "source_name": "google",
    "source_query": "Irrigation Equipment",
    "source_country": "IQ",
    "country": "Iraq",
    "state": "Nineveh",
    "city": "Tall ‘Afar"
  },
  {
    "source_id": "ChIJA5U3iYNTTRURiTjjWzAocVc",
    "name": "الامير للتسوق المنزلي",
    "category": "الامير للتسوق المنزلي",
    "formatted_address": "4,8(4)",
    "phone_number": "",
    "source_url": "https://www.google.com/maps/place/%D8%A7%D9%84%D8%A7%D9%85%D9%8A%D8%B1+%D9%84%D9%84%D8%AA%D8%B3%D9%88%D9%82+%D8%A7%D9%84%D9%85%D9%86%D8%B2%D9%84%D9%8A%E2%80%AD/data=!4m7!3m6!1s0x154d538389379503:0x577128305be33889!8m2!3d36.3858681!4d42.4514346!16s%2Fg%2F11rvbly1xp!19sChIJA5U3iYNTTRURiTjjWzAocVc?authuser=0&hl=tr&rclk=1",
    "website_url": "",
    "rating_text": "4,8",
    "stars": null,
    "number_of_reviews": null,
    "price_level": "",
    "open_hours": "",
    "extraction_timestamp": "2025-06-07T15:39:56.383Z",
    "source_name": "google",
    "source_query": "Irrigation Equipment",
    "source_country": "IQ",
    "country": "Iraq",
    "state": "Nineveh",
    "city": "Tall ‘Afar"
  },
  {
    "source_id": "ChIJtXXNgiJTTRURcEG1FPGbyqY",
    "name": "Market Of İkhwan",
    "category": "Market Of İkhwan",
    "formatted_address": "5,0(1)",
    "phone_number": "",
    "source_url": "https://www.google.com/maps/place/Market+Of+%C4%B0khwan/data=!4m7!3m6!1s0x154d532282cd75b5:0xa6ca9bf114b54170!8m2!3d36.387567!4d42.461677!16s%2Fg%2F11ssngf59n!19sChIJtXXNgiJTTRURcEG1FPGbyqY?authuser=0&hl=tr&rclk=1",
    "website_url": "",
    "rating_text": "5,0",
    "stars": null,
    "number_of_reviews": null,
    "price_level": "",
    "open_hours": "",
    "extraction_timestamp": "2025-06-07T15:39:56.384Z",
    "source_name": "google",
    "source_query": "Irrigation Equipment",
    "source_country": "IQ",
    "country": "Iraq",
    "state": "Nineveh",
    "city": "Tall ‘Afar"
  },
  {
    "source_id": "ChIJ7wBzXVtTTRUR8g7jSjjud1k",
    "name": "ماركت الخالصة اولاد شهاب جلبي",
    "category": "ماركت الخالصة اولاد شهاب جلبي",
    "formatted_address": "4,4(7)",
    "phone_number": "",
    "source_url": "https://www.google.com/maps/place/%D9%85%D8%A7%D8%B1%D9%83%D8%AA+%D8%A7%D9%84%D8%AE%D8%A7%D9%84%D8%B5%D8%A9+%D8%A7%D9%88%D9%84%D8%A7%D8%AF+%D8%B4%D9%87%D8%A7%D8%A8+%D8%AC%D9%84%D8%A8%D9%8A%E2%80%AD/data=!4m7!3m6!1s0x154d535b5d7300ef:0x5977ee384ae30ef2!8m2!3d36.3674375!4d42.4405625!16s%2Fg%2F11ht_0hg0n!19sChIJ7wBzXVtTTRUR8g7jSjjud1k?authuser=0&hl=tr&rclk=1",
    "website_url": "",
    "rating_text": "4,4",
    "stars": null,
    "number_of_reviews": null,
    "price_level": "",
    "open_hours": "",
    "extraction_timestamp": "2025-06-07T15:39:56.384Z",
    "source_name": "google",
    "source_query": "Irrigation Equipment",
    "source_country": "IQ",
    "country": "Iraq",
    "state": "Nineveh",
    "city": "Tall ‘Afar"
  },
  {
    "source_id": "ChIJQTQmSNxTTRURYXrvqCCNJag",
    "name": "قاسم البياتي",
    "category": "قاسم البياتي",
    "formatted_address": "5,0(1)",
    "phone_number": "+9647727275801",
    "source_url": "https://www.google.com/maps/place/%D9%82%D8%A7%D8%B3%D9%85+%D8%A7%D9%84%D8%A8%D9%8A%D8%A7%D8%AA%D9%8A%E2%80%AD/data=!4m7!3m6!1s0x154d53dc48263441:0xa8258d20a8ef7a61!8m2!3d36.3752178!4d42.4293606!16s%2Fg%2F11qgpr3kj2!19sChIJQTQmSNxTTRURYXrvqCCNJag?authuser=0&hl=tr&rclk=1",
    "website_url": "",
    "rating_text": "5,0",
    "stars": null,
    "number_of_reviews": null,
    "price_level": "",
    "open_hours": "",
    "extraction_timestamp": "2025-06-07T15:39:56.385Z",
    "source_name": "google",
    "source_query": "Irrigation Equipment",
    "source_country": "IQ",
    "country": "Iraq",
    "state": "Nineveh",
    "city": "Tall ‘Afar"
  },
  {
    "source_id": "ChIJfVKlPpdTTRURellRme_O46Q",
    "name": "اسواق حسن هادي علي كله",
    "category": "اسواق حسن هادي علي كله",
    "formatted_address": "5,0(3)",
    "phone_number": "",
    "source_url": "https://www.google.com/maps/place/%D8%A7%D8%B3%D9%88%D8%A7%D9%82+%D8%AD%D8%B3%D9%86+%D9%87%D8%A7%D8%AF%D9%8A+%D8%B9%D9%84%D9%8A+%D9%83%D9%84%D9%87%E2%80%AD/data=!4m7!3m6!1s0x154d53973ea5527d:0xa4e3ceef9951597a!8m2!3d36.3716143!4d42.4301866!16s%2Fg%2F11vf31g424!19sChIJfVKlPpdTTRURellRme_O46Q?authuser=0&hl=tr&rclk=1",
    "website_url": "",
    "rating_text": "5,0",
    "stars": null,
    "number_of_reviews": null,
    "price_level": "",
    "open_hours": "",
    "extraction_timestamp": "2025-06-07T15:39:56.386Z",
    "source_name": "google",
    "source_query": "Irrigation Equipment",
    "source_country": "IQ",
    "country": "Iraq",
    "state": "Nineveh",
    "city": "Tall ‘Afar"
  },
  {
    "source_id": "ChIJz3tDvVRTTRURf1YA-eo34MU",
    "name": "اسواق الموسيقار",
    "category": "اسواق الموسيقار",
    "formatted_address": "5,0(1)",
    "phone_number": "+9647705280938",
    "source_url": "https://www.google.com/maps/place/%D8%A7%D8%B3%D9%88%D8%A7%D9%82+%D8%A7%D9%84%D9%85%D9%88%D8%B3%D9%8A%D9%82%D8%A7%D8%B1%E2%80%AD/data=!4m7!3m6!1s0x154d5354bd437bcf:0xc5e037eaf900567f!8m2!3d36.3786809!4d42.4340685!16s%2Fg%2F11frnp6xj7!19sChIJz3tDvVRTTRURf1YA-eo34MU?authuser=0&hl=tr&rclk=1",
    "website_url": "",
    "rating_text": "5,0",
    "stars": null,
    "number_of_reviews": null,
    "price_level": "",
    "open_hours": "",
    "extraction_timestamp": "2025-06-07T15:39:56.387Z",
    "source_name": "google",
    "source_query": "Irrigation Equipment",
    "source_country": "IQ",
    "country": "Iraq",
    "state": "Nineveh",
    "city": "Tall ‘Afar"
  },
  {
    "source_id": "ChIJ1bT4CbdTTRURhYkjNw44Fhc",
    "name": "اسواق الشهيدين",
    "category": "اسواق الشهيدين",
    "formatted_address": "4,3(47)",
    "phone_number": "",
    "source_url": "https://www.google.com/maps/place/%D8%A7%D8%B3%D9%88%D8%A7%D9%82+%D8%A7%D9%84%D8%B4%D9%87%D9%8A%D8%AF%D9%8A%D9%86%E2%80%AD/data=!4m7!3m6!1s0x154d53b709f8b4d5:0x1716380e37238985!8m2!3d36.3752692!4d42.428642!16s%2Fg%2F11l8gf3m0_!19sChIJ1bT4CbdTTRURhYkjNw44Fhc?authuser=0&hl=tr&rclk=1",
    "website_url": "",
    "rating_text": "4,3",
    "stars": null,
    "number_of_reviews": null,
    "price_level": "",
    "open_hours": "",
    "extraction_timestamp": "2025-06-07T15:39:56.387Z",
    "source_name": "google",
    "source_query": "Irrigation Equipment",
    "source_country": "IQ",
    "country": "Iraq",
    "state": "Nineveh",
    "city": "Tall ‘Afar"
  },
  {
    "source_id": "ChIJ1U8G1ZZTTRURhiPxHfNYD7A",
    "name": "اسواق مصطفى الهزو",
    "category": "اسواق مصطفى الهزو",
    "formatted_address": "3,0(1)",
    "phone_number": "+9647507549368",
    "source_url": "https://www.google.com/maps/place/%D8%A7%D8%B3%D9%88%D8%A7%D9%82+%D9%85%D8%B5%D8%B7%D9%81%D9%89+%D8%A7%D9%84%D9%87%D8%B2%D9%88%E2%80%AD/data=!4m7!3m6!1s0x154d5396d5064fd5:0xb00f58f31df12386!8m2!3d36.3774417!4d42.4623978!16s%2Fg%2F11ss1fsxg2!19sChIJ1U8G1ZZTTRURhiPxHfNYD7A?authuser=0&hl=tr&rclk=1",
    "website_url": "",
    "rating_text": "3,0",
    "stars": null,
    "number_of_reviews": null,
    "price_level": "",
    "open_hours": "",
    "extraction_timestamp": "2025-06-07T15:39:56.388Z",
    "source_name": "google",
    "source_query": "Irrigation Equipment",
    "source_country": "IQ",
    "country": "Iraq",
    "state": "Nineveh",
    "city": "Tall ‘Afar"
  }
]
