[
  {
    "source_id": "ChIJBYwaxDHhBkARM8NqWPtQxls",
    "name": "JUNGLE",
    "category": "JUNGLE",
    "formatted_address": "5,0(2)",
    "phone_number": "+9647512771001",
    "source_url": "https://www.google.com/maps/place/JUNGLE/data=!4m7!3m6!1s0x4006e131c41a8c05:0x5bc650fb586ac333!8m2!3d36.3024533!4d44.022644!16s%2Fg%2F11vqpbp9_k!19sChIJBYwaxDHhBkARM8NqWPtQxls?authuser=0&hl=tr&rclk=1",
    "website_url": "",
    "rating_text": "5,0",
    "stars": null,
    "number_of_reviews": null,
    "price_level": "",
    "open_hours": "",
    "extraction_timestamp": "2025-06-07T15:39:36.061Z",
    "source_name": "google",
    "source_query": "Irrigation Equipment",
    "source_country": "IQ",
    "country": "Iraq",
    "state": "Nineveh",
    "city": "‘Aqrah"
  },
  {
    "source_id": "ChIJHffKlJ49B0ARHV-LlDpMNr4",
    "name": "Baraw .company",
    "category": "Baraw .company",
    "formatted_address": "3,7(15)",
    "phone_number": "+9647504761182",
    "source_url": "https://www.google.com/maps/place/Baraw+.company/data=!4m7!3m6!1s0x40073d9e94caf71d:0xbe364c3a948b5f1d!8m2!3d36.1738982!4d43.9309477!16s%2Fg%2F11n867cqyz!19sChIJHffKlJ49B0ARHV-LlDpMNr4?authuser=0&hl=tr&rclk=1",
    "website_url": "",
    "rating_text": "3,7",
    "stars": null,
    "number_of_reviews": null,
    "price_level": "",
    "open_hours": "",
    "extraction_timestamp": "2025-06-07T15:39:36.063Z",
    "source_name": "google",
    "source_query": "Irrigation Equipment",
    "source_country": "IQ",
    "country": "Iraq",
    "state": "Nineveh",
    "city": "‘Aqrah"
  },
  {
    "source_id": "ChIJzYPurGZrBkARPvCTUdLbTq4",
    "name": "هایپەر ماڕكێتا نای بازار",
    "category": "هایپەر ماڕكێتا نای بازار",
    "formatted_address": "4,2(60)",
    "phone_number": "+9647503546838",
    "source_url": "https://www.google.com/maps/place/%D9%87%D8%A7%DB%8C%D9%BE%DB%95%D8%B1+%D9%85%D8%A7%DA%95%D9%83%DB%8E%D8%AA%D8%A7+%D9%86%D8%A7%DB%8C+%D8%A8%D8%A7%D8%B2%D8%A7%D8%B1%E2%80%AD/data=!4m7!3m6!1s0x40066b66acee83cd:0xae4edbd25193f03e!8m2!3d36.7297038!4d43.8520695!16s%2Fg%2F11mvhgd1db!19sChIJzYPurGZrBkARPvCTUdLbTq4?authuser=0&hl=tr&rclk=1",
    "website_url": "",
    "rating_text": "4,2",
    "stars": null,
    "number_of_reviews": null,
    "price_level": "",
    "open_hours": "",
    "extraction_timestamp": "2025-06-07T15:39:36.064Z",
    "source_name": "google",
    "source_query": "Irrigation Equipment",
    "source_country": "IQ",
    "country": "Iraq",
    "state": "Nineveh",
    "city": "‘Aqrah"
  },
  {
    "source_id": "ChIJk-iOrbdrBkARIWBksxv9cS8",
    "name": "محل شانيك Shanik",
    "category": "محل شانيك Shanik",
    "formatted_address": "3,9(7)",
    "phone_number": "+9647504710459",
    "source_url": "https://www.google.com/maps/place/%D9%85%D8%AD%D9%84+%D8%B4%D8%A7%D9%86%D9%8A%D9%83+Shanik%E2%80%AD/data=!4m7!3m6!1s0x40066bb7ad8ee893:0x2f71fd1bb3646021!8m2!3d36.728722!4d43.8557934!16s%2Fg%2F11qt3wl2p4!19sChIJk-iOrbdrBkARIWBksxv9cS8?authuser=0&hl=tr&rclk=1",
    "website_url": "",
    "rating_text": "3,9",
    "stars": null,
    "number_of_reviews": null,
    "price_level": "",
    "open_hours": "",
    "extraction_timestamp": "2025-06-07T15:39:36.065Z",
    "source_name": "google",
    "source_query": "Irrigation Equipment",
    "source_country": "IQ",
    "country": "Iraq",
    "state": "Nineveh",
    "city": "‘Aqrah"
  },
  {
    "source_id": "ChIJ5ZsarodJB0ARpqoHHnxcH00",
    "name": "Serwan Saady company",
    "category": "Serwan Saady company",
    "formatted_address": "5,0(2)",
    "phone_number": "+9647504478054",
    "source_url": "https://www.google.com/maps/place/Serwan+Saady+company/data=!4m7!3m6!1s0x40074987ae1a9be5:0x4d1f5c7c1e07aaa6!8m2!3d36.0373773!4d43.9317342!16s%2Fg%2F11v3fqbl1p!19sChIJ5ZsarodJB0ARpqoHHnxcH00?authuser=0&hl=tr&rclk=1",
    "website_url": "",
    "rating_text": "5,0",
    "stars": null,
    "number_of_reviews": null,
    "price_level": "",
    "open_hours": "",
    "extraction_timestamp": "2025-06-07T15:39:36.066Z",
    "source_name": "google",
    "source_query": "Irrigation Equipment",
    "source_country": "IQ",
    "country": "Iraq",
    "state": "Nineveh",
    "city": "‘Aqrah"
  },
  {
    "source_id": "ChIJPZfD7XRtBkARKyFX0l-CuIA",
    "name": "Rudaw Market",
    "category": "Rudaw Market",
    "formatted_address": "4,1(106)",
    "phone_number": "+9647504747725",
    "source_url": "https://www.google.com/maps/place/Rudaw+Market/data=!4m7!3m6!1s0x40066d74edc3973d:0x80b8825fd257212b!8m2!3d36.7240389!4d43.8729214!16s%2Fg%2F11h23jm0fw!19sChIJPZfD7XRtBkARKyFX0l-CuIA?authuser=0&hl=tr&rclk=1",
    "website_url": "",
    "rating_text": "4,1",
    "stars": null,
    "number_of_reviews": null,
    "price_level": "",
    "open_hours": "",
    "extraction_timestamp": "2025-06-07T15:39:36.067Z",
    "source_name": "google",
    "source_query": "Irrigation Equipment",
    "source_country": "IQ",
    "country": "Iraq",
    "state": "Nineveh",
    "city": "‘Aqrah"
  },
  {
    "source_id": "ChIJAR0DsWptBkARonjVvlQPDZg",
    "name": "YAD BAZAR",
    "category": "YAD BAZAR",
    "formatted_address": "4,0(1)",
    "phone_number": "+9647515424054",
    "source_url": "https://www.google.com/maps/place/YAD+BAZAR/data=!4m7!3m6!1s0x40066d6ab1031d01:0x980d0f54bed578a2!8m2!3d36.7337707!4d43.8819607!16s%2Fg%2F11j9kvjztf!19sChIJAR0DsWptBkARonjVvlQPDZg?authuser=0&hl=tr&rclk=1",
    "website_url": "",
    "rating_text": "4,0",
    "stars": null,
    "number_of_reviews": null,
    "price_level": "",
    "open_hours": "",
    "extraction_timestamp": "2025-06-07T15:39:36.069Z",
    "source_name": "google",
    "source_query": "Irrigation Equipment",
    "source_country": "IQ",
    "country": "Iraq",
    "state": "Nineveh",
    "city": "‘Aqrah"
  },
  {
    "source_id": "ChIJ-eF2sS9tBkARNp9QBSvdlzg",
    "name": "فرۆشگەها ڕێبەر",
    "category": "فرۆشگەها ڕێبەر",
    "formatted_address": "4,6(12)",
    "phone_number": "",
    "source_url": "https://www.google.com/maps/place/%D9%81%D8%B1%DB%86%D8%B4%DA%AF%DB%95%D9%87%D8%A7+%DA%95%DB%8E%D8%A8%DB%95%D8%B1%E2%80%AD/data=!4m7!3m6!1s0x40066d2fb176e1f9:0x3897dd2b05509f36!8m2!3d36.7469189!4d43.8934503!16s%2Fg%2F11ncmcz73p!19sChIJ-eF2sS9tBkARNp9QBSvdlzg?authuser=0&hl=tr&rclk=1",
    "website_url": "",
    "rating_text": "4,6",
    "stars": null,
    "number_of_reviews": null,
    "price_level": "",
    "open_hours": "",
    "extraction_timestamp": "2025-06-07T15:39:36.069Z",
    "source_name": "google",
    "source_query": "Irrigation Equipment",
    "source_country": "IQ",
    "country": "Iraq",
    "state": "Nineveh",
    "city": "‘Aqrah"
  },
  {
    "source_id": "ChIJBUENDwhtBkARB0krNYh7dPc",
    "name": "سياوش الكهربائية",
    "category": "سياوش الكهربائية",
    "formatted_address": "4,5(2)",
    "phone_number": "+9647504266211",
    "source_url": "https://www.google.com/maps/place/%D8%B3%D9%8A%D8%A7%D9%88%D8%B4+%D8%A7%D9%84%D9%83%D9%87%D8%B1%D8%A8%D8%A7%D8%A6%D9%8A%D8%A9%E2%80%AD/data=!4m7!3m6!1s0x40066d080f0d4105:0xf7747b88352b4907!8m2!3d36.7395765!4d43.8924207!16s%2Fg%2F11sfx2g1g7!19sChIJBUENDwhtBkARB0krNYh7dPc?authuser=0&hl=tr&rclk=1",
    "website_url": "",
    "rating_text": "4,5",
    "stars": null,
    "number_of_reviews": null,
    "price_level": "",
    "open_hours": "",
    "extraction_timestamp": "2025-06-07T15:39:36.071Z",
    "source_name": "google",
    "source_query": "Irrigation Equipment",
    "source_country": "IQ",
    "country": "Iraq",
    "state": "Nineveh",
    "city": "‘Aqrah"
  },
  {
    "source_id": "ChIJtxTdLJRtBkARxkKJ0e2JEwI",
    "name": "ساردەمەنیا ڤين Vin Refreshment",
    "category": "ساردەمەنیا ڤين Vin Refreshment",
    "formatted_address": "4,0(24)",
    "phone_number": "",
    "source_url": "https://www.google.com/maps/place/%D8%B3%D8%A7%D8%B1%D8%AF%DB%95%D9%85%DB%95%D9%86%DB%8C%D8%A7+%DA%A4%D9%8A%D9%86+Vin+Refreshment%E2%80%AD/data=!4m7!3m6!1s0x40066d942cdd14b7:0x21389edd18942c6!8m2!3d36.7329138!4d43.8839529!16s%2Fg%2F11sfq9mhqs!19sChIJtxTdLJRtBkARxkKJ0e2JEwI?authuser=0&hl=tr&rclk=1",
    "website_url": "",
    "rating_text": "4,0",
    "stars": null,
    "number_of_reviews": null,
    "price_level": "",
    "open_hours": "",
    "extraction_timestamp": "2025-06-07T15:39:36.071Z",
    "source_name": "google",
    "source_query": "Irrigation Equipment",
    "source_country": "IQ",
    "country": "Iraq",
    "state": "Nineveh",
    "city": "‘Aqrah"
  },
  {
    "source_id": "ChIJbXU4GABtBkAR8qNCJxIfGAo",
    "name": "Akre Center",
    "category": "Akre Center",
    "formatted_address": "5,0(1)",
    "phone_number": "+9647509945406",
    "source_url": "https://www.google.com/maps/place/Akre+Center/data=!4m7!3m6!1s0x40066d001838756d:0xa181f122742a3f2!8m2!3d36.7379056!4d43.8737414!16s%2Fg%2F11wj3nytls!19sChIJbXU4GABtBkAR8qNCJxIfGAo?authuser=0&hl=tr&rclk=1",
    "website_url": "",
    "rating_text": "5,0",
    "stars": null,
    "number_of_reviews": null,
    "price_level": "",
    "open_hours": "",
    "extraction_timestamp": "2025-06-07T15:39:36.072Z",
    "source_name": "google",
    "source_query": "Irrigation Equipment",
    "source_country": "IQ",
    "country": "Iraq",
    "state": "Nineveh",
    "city": "‘Aqrah"
  },
  {
    "source_id": "ChIJjzADcKVtBkARweQ61uGXdKg",
    "name": "دلشاد سيبة",
    "category": "دلشاد سيبة",
    "formatted_address": "3,9(47)",
    "phone_number": "+9647514880660",
    "source_url": "https://www.google.com/maps/place/%D8%AF%D9%84%D8%B4%D8%A7%D8%AF+%D8%B3%D9%8A%D8%A8%D8%A9%E2%80%AD/data=!4m7!3m6!1s0x40066da57003308f:0xa87497e1d63ae4c1!8m2!3d36.7549597!4d43.8984821!16s%2Fg%2F11jllq35w6!19sChIJjzADcKVtBkARweQ61uGXdKg?authuser=0&hl=tr&rclk=1",
    "website_url": "",
    "rating_text": "3,9",
    "stars": null,
    "number_of_reviews": null,
    "price_level": "",
    "open_hours": "",
    "extraction_timestamp": "2025-06-07T15:39:36.074Z",
    "source_name": "google",
    "source_query": "Irrigation Equipment",
    "source_country": "IQ",
    "country": "Iraq",
    "state": "Nineveh",
    "city": "‘Aqrah"
  },
  {
    "source_id": "ChIJG_U8gRxtBkARzgKeq4o92vU",
    "name": "پەرگەھا ئاکرێ Akre stationary قرطاسية عقرة",
    "category": "پەرگەھا ئاکرێ Akre stationary قرطاسية عقرة",
    "formatted_address": "3,6(17)",
    "phone_number": "+9647504459063",
    "source_url": "https://www.google.com/maps/place/%D9%BE%DB%95%D8%B1%DA%AF%DB%95%DA%BE%D8%A7+%D8%A6%D8%A7%DA%A9%D8%B1%DB%8E+Akre+stationary+%D9%82%D8%B1%D8%B7%D8%A7%D8%B3%D9%8A%D8%A9+%D8%B9%D9%82%D8%B1%D8%A9%E2%80%AD/data=!4m7!3m6!1s0x40066d1c813cf51b:0xf5da3d8aab9e02ce!8m2!3d36.7300458!4d43.8781554!16s%2Fg%2F11g1rvfs68!19sChIJG_U8gRxtBkARzgKeq4o92vU?authuser=0&hl=tr&rclk=1",
    "website_url": "",
    "rating_text": "3,6",
    "stars": null,
    "number_of_reviews": null,
    "price_level": "",
    "open_hours": "",
    "extraction_timestamp": "2025-06-07T15:39:36.076Z",
    "source_name": "google",
    "source_query": "Irrigation Equipment",
    "source_country": "IQ",
    "country": "Iraq",
    "state": "Nineveh",
    "city": "‘Aqrah"
  },
  {
    "source_id": "ChIJN_3Gnp5tBkARwTk0qmDuUGw",
    "name": "Akre Kistan",
    "category": "Akre Kistan",
    "formatted_address": "5,0(3)",
    "phone_number": "+9647504576804",
    "source_url": "https://www.google.com/maps/place/Akre+Kistan/data=!4m7!3m6!1s0x40066d9e9ec6fd37:0x6c50ee60aa3439c1!8m2!3d36.7606447!4d43.8918266!16s%2Fg%2F11l2264q7w!19sChIJN_3Gnp5tBkARwTk0qmDuUGw?authuser=0&hl=tr&rclk=1",
    "website_url": "",
    "rating_text": "5,0",
    "stars": null,
    "number_of_reviews": null,
    "price_level": "",
    "open_hours": "",
    "extraction_timestamp": "2025-06-07T15:39:36.076Z",
    "source_name": "google",
    "source_query": "Irrigation Equipment",
    "source_country": "IQ",
    "country": "Iraq",
    "state": "Nineveh",
    "city": "‘Aqrah"
  },
  {
    "source_id": "ChIJu03M4WVtBkARBQtPTsQB7_s",
    "name": "Zikry Shop",
    "category": "Zikry Shop",
    "formatted_address": "4,6(31)",
    "phone_number": "+9647504747930",
    "source_url": "https://www.google.com/maps/place/Zikry+Shop/data=!4m7!3m6!1s0x40066d65e1cc4dbb:0xfbef01c44e4f0b05!8m2!3d36.7454931!4d43.8921729!16s%2Fg%2F11qq7b2dcd!19sChIJu03M4WVtBkARBQtPTsQB7_s?authuser=0&hl=tr&rclk=1",
    "website_url": "",
    "rating_text": "4,6",
    "stars": null,
    "number_of_reviews": null,
    "price_level": "",
    "open_hours": "",
    "extraction_timestamp": "2025-06-07T15:39:36.077Z",
    "source_name": "google",
    "source_query": "Irrigation Equipment",
    "source_country": "IQ",
    "country": "Iraq",
    "state": "Nineveh",
    "city": "‘Aqrah"
  },
  {
    "source_id": "ChIJg-8k931tBkARQ-eFB7yDql4",
    "name": "7ama zebarii",
    "category": "7ama zebarii",
    "formatted_address": "5,0(1)",
    "phone_number": "+9647501643033",
    "source_url": "https://www.google.com/maps/place/7ama+zebarii/data=!4m7!3m6!1s0x40066d7df724ef83:0x5eaa83bc0785e743!8m2!3d36.7265112!4d43.8798438!16s%2Fg%2F11tjzs_thd!19sChIJg-8k931tBkARQ-eFB7yDql4?authuser=0&hl=tr&rclk=1",
    "website_url": "",
    "rating_text": "5,0",
    "stars": null,
    "number_of_reviews": null,
    "price_level": "",
    "open_hours": "",
    "extraction_timestamp": "2025-06-07T15:39:36.078Z",
    "source_name": "google",
    "source_query": "Irrigation Equipment",
    "source_country": "IQ",
    "country": "Iraq",
    "state": "Nineveh",
    "city": "‘Aqrah"
  },
  {
    "source_id": "ChIJ32xdzoptBkARON76Ms3hAFc",
    "name": "محل شيروان ئاكرئ",
    "category": "محل شيروان ئاكرئ",
    "formatted_address": "5,0(2)",
    "phone_number": "+9647504022838",
    "source_url": "https://www.google.com/maps/place/%D9%85%D8%AD%D9%84+%D8%B4%D9%8A%D8%B1%D9%88%D8%A7%D9%86+%D8%A6%D8%A7%D9%83%D8%B1%D8%A6%E2%80%AD/data=!4m7!3m6!1s0x40066d8ace5d6cdf:0x5700e1cd32fade38!8m2!3d36.7411854!4d43.8808631!16s%2Fg%2F11t3tp8v93!19sChIJ32xdzoptBkARON76Ms3hAFc?authuser=0&hl=tr&rclk=1",
    "website_url": "",
    "rating_text": "5,0",
    "stars": null,
    "number_of_reviews": null,
    "price_level": "",
    "open_hours": "",
    "extraction_timestamp": "2025-06-07T15:39:36.079Z",
    "source_name": "google",
    "source_query": "Irrigation Equipment",
    "source_country": "IQ",
    "country": "Iraq",
    "state": "Nineveh",
    "city": "‘Aqrah"
  },
  {
    "source_id": "ChIJ1TwvewBrBkARTfmoVatuTOI",
    "name": "Aspi Rash Akre",
    "category": "Aspi Rash Akre",
    "formatted_address": "",
    "phone_number": "+9647507634126",
    "source_url": "https://www.google.com/maps/place/Aspi+Rash+Akre/data=!4m7!3m6!1s0x40066b007b2f3cd5:0xe24c6eab55a8f94d!8m2!3d36.7276392!4d43.8584431!16s%2Fg%2F11w_p6x41x!19sChIJ1TwvewBrBkARTfmoVatuTOI?authuser=0&hl=tr&rclk=1",
    "website_url": "",
    "rating_text": "",
    "stars": null,
    "number_of_reviews": null,
    "price_level": "",
    "open_hours": "",
    "extraction_timestamp": "2025-06-07T15:39:36.080Z",
    "source_name": "google",
    "source_query": "Irrigation Equipment",
    "source_country": "IQ",
    "country": "Iraq",
    "state": "Nineveh",
    "city": "‘Aqrah"
  }
]
