[
  {
    "source_id": "ChIJuWhdbDnnLRUR3zEtFuEXwDc",
    "name": "MARYAPI TOPTAN iNSAAT MALZ.",
    "category": "MARYAPI TOPTAN iNSAAT MALZ.",
    "formatted_address": "4,2(26)",
    "phone_number": "+903442320440",
    "source_url": "https://www.google.com/maps/place/MARYAPI+TOPTAN+iNSAAT+MALZ./data=!4m7!3m6!1s0x152de7396c5d68b9:0x37c017e1162d31df!8m2!3d37.5750868!4d36.9723514!16s%2Fg%2F11ghxbyqp2!19sChIJuWhdbDnnLRUR3zEtFuEXwDc?authuser=0&hl=tr&rclk=1",
    "website_url": "http://www.marasmaryapi.com/",
    "rating_text": "4,2",
    "stars": null,
    "number_of_reviews": null,
    "price_level": "",
    "open_hours": "",
    "extraction_timestamp": "2025-06-07T14:43:53.021Z",
    "source_name": "google",
    "source_query": "Irrigation Equipment",
    "source_country": "TR",
    "country": "Turkey",
    "state": "Kahramanmaraş",
    "city": "Dulkadiroğlu"
  },
  {
    "source_id": "ChIJ4QMea4LdLRUR8zrXwXEU1_Y",
    "name": "Doğru İnşaat",
    "category": "Doğru İnşaat",
    "formatted_address": "5,0(2)",
    "phone_number": "+905363770826",
    "source_url": "https://www.google.com/maps/place/Do%C4%9Fru+%C4%B0n%C5%9Faat/data=!4m7!3m6!1s0x152ddd826b1e03e1:0xf6d71471c1d73af3!8m2!3d37.5664804!4d36.9219131!16s%2Fg%2F11vbtygtpc!19sChIJ4QMea4LdLRUR8zrXwXEU1_Y?authuser=0&hl=tr&rclk=1",
    "website_url": "",
    "rating_text": "5,0",
    "stars": null,
    "number_of_reviews": null,
    "price_level": "",
    "open_hours": "",
    "extraction_timestamp": "2025-06-07T14:43:53.022Z",
    "source_name": "google",
    "source_query": "Irrigation Equipment",
    "source_country": "TR",
    "country": "Turkey",
    "state": "Kahramanmaraş",
    "city": "Dulkadiroğlu"
  },
  {
    "source_id": "ChIJmZGzPLeJLRUR2tPNP_zkpcw",
    "name": "Aydemir Ticaret",
    "category": "Aydemir Ticaret",
    "formatted_address": "2,3(3)",
    "phone_number": "",
    "source_url": "https://www.google.com/maps/place/Aydemir+Ticaret/data=!4m7!3m6!1s0x152d89b73cb39199:0xcca5e4fc3fcdd3da!8m2!3d37.7495521!4d37.2892988!16s%2Fg%2F11ft9zttd6!19sChIJmZGzPLeJLRUR2tPNP_zkpcw?authuser=0&hl=tr&rclk=1",
    "website_url": "",
    "rating_text": "2,3",
    "stars": null,
    "number_of_reviews": null,
    "price_level": "",
    "open_hours": "",
    "extraction_timestamp": "2025-06-07T14:44:01.315Z",
    "source_name": "google",
    "source_query": "Irrigation Equipment",
    "source_country": "TR",
    "country": "Turkey",
    "state": "Kahramanmaraş",
    "city": "Çağlayancerit"
  },
  {
    "source_id": "ChIJfycPRsndLRURpPWp5UPDkY4",
    "name": "Kombici serkan Su Tesisatçısı Tamircisi su kaçak tespiti tıkanıklık açma",
    "category": "Kombici serkan Su Tesisatçısı Tamircisi su kaçak tespiti tıkanıklık açma",
    "formatted_address": "4,9(63)",
    "phone_number": "+905074933239",
    "source_url": "https://www.google.com/maps/place/Kombici+serkan+Su+Tesisat%C3%A7%C4%B1s%C4%B1+Tamircisi+su+ka%C3%A7ak+tespiti+t%C4%B1kan%C4%B1kl%C4%B1k+a%C3%A7ma/data=!4m7!3m6!1s0x152dddc9460f277f:0x8e91c343e5a9f5a4!8m2!3d37.74528!4d37.3062046!16s%2Fg%2F11h64vk4g5!19sChIJfycPRsndLRURpPWp5UPDkY4?authuser=0&hl=tr&rclk=1",
    "website_url": "",
    "rating_text": "4,9",
    "stars": null,
    "number_of_reviews": null,
    "price_level": "",
    "open_hours": "",
    "extraction_timestamp": "2025-06-07T14:44:01.317Z",
    "source_name": "google",
    "source_query": "Irrigation Equipment",
    "source_country": "TR",
    "country": "Turkey",
    "state": "Kahramanmaraş",
    "city": "Çağlayancerit"
  },
  {
    "source_id": "ChIJdxy1dMjdLRURYRwMDn9i944",
    "name": "SUCU YAKUP USTA",
    "category": "SUCU YAKUP USTA",
    "formatted_address": "4,8(20)",
    "phone_number": "+905374790947",
    "source_url": "https://www.google.com/maps/place/SUCU+YAKUP+USTA/data=!4m7!3m6!1s0x152dddc874b51c77:0x8ef7627f0e0c1c61!8m2!3d37.5658274!4d36.9231644!16s%2Fg%2F11h51b7ywd!19sChIJdxy1dMjdLRURYRwMDn9i944?authuser=0&hl=tr&rclk=1",
    "website_url": "",
    "rating_text": "4,8",
    "stars": null,
    "number_of_reviews": null,
    "price_level": "",
    "open_hours": "",
    "extraction_timestamp": "2025-06-07T14:44:39.286Z",
    "source_name": "google",
    "source_query": "Irrigation Equipment",
    "source_country": "TR",
    "country": "Turkey",
    "state": "Kahramanmaraş",
    "city": "Onikişubat"
  },
  {
    "source_id": "ChIJz-423FvXLRURae78LNBCVUI",
    "name": "Garden Drip Damlama Sulama Sistemleri",
    "category": "Garden Drip Damlama Sulama Sistemleri",
    "formatted_address": "",
    "phone_number": "+905395057912",
    "source_url": "https://www.google.com/maps/place/Garden+Drip+Damlama+Sulama+Sistemleri/data=!4m7!3m6!1s0x152dd75bdc36eecf:0x425542d02cfcee69!8m2!3d37.6004466!4d36.7549441!16s%2Fg%2F11lyy_g86g!19sChIJz-423FvXLRURae78LNBCVUI?authuser=0&hl=tr&rclk=1",
    "website_url": "",
    "rating_text": "",
    "stars": null,
    "number_of_reviews": null,
    "price_level": "",
    "open_hours": "",
    "extraction_timestamp": "2025-06-07T14:44:39.286Z",
    "source_name": "google",
    "source_query": "Irrigation Equipment",
    "source_country": "TR",
    "country": "Turkey",
    "state": "Kahramanmaraş",
    "city": "Onikişubat"
  },
  {
    "source_id": "ChIJ2Vi4l3zdLRURy4tg59lRh44",
    "name": "ŞİMŞEK SIHHİ TESİSAT",
    "category": "ŞİMŞEK SIHHİ TESİSAT",
    "formatted_address": "5,0(5)",
    "phone_number": "+905468464601",
    "source_url": "https://www.google.com/maps/place/%C5%9E%C4%B0M%C5%9EEK+SIHH%C4%B0+TES%C4%B0SAT/data=!4m7!3m6!1s0x152ddd7c97b858d9:0x8e8751d9e7608bcb!8m2!3d37.6004763!4d36.870736!16s%2Fg%2F11lp66nqry!19sChIJ2Vi4l3zdLRURy4tg59lRh44?authuser=0&hl=tr&rclk=1",
    "website_url": "",
    "rating_text": "5,0",
    "stars": null,
    "number_of_reviews": null,
    "price_level": "",
    "open_hours": "",
    "extraction_timestamp": "2025-06-07T14:44:39.287Z",
    "source_name": "google",
    "source_query": "Irrigation Equipment",
    "source_country": "TR",
    "country": "Turkey",
    "state": "Kahramanmaraş",
    "city": "Onikişubat"
  },
  {
    "source_id": "ChIJH9y8kbndLRURKsniAdViV48",
    "name": "ERG Mühendislik Sıhhi Tesisat Doğalgaz Isı Sis. İnş. San.ve Tic.Ltd.Şti.",
    "category": "ERG Mühendislik Sıhhi Tesisat Doğalgaz Isı Sis. İnş. San.ve Tic.Ltd.Şti.",
    "formatted_address": "4,7(123)",
    "phone_number": "+903442352575",
    "source_url": "https://www.google.com/maps/place/ERG+M%C3%BChendislik+S%C4%B1hhi+Tesisat+Do%C4%9Falgaz+Is%C4%B1+Sis.+%C4%B0n%C5%9F.+San.ve+Tic.Ltd.%C5%9Eti./data=!4m7!3m6!1s0x152dddb991bcdc1f:0x8f5762d501e2c92a!8m2!3d37.564708!4d36.924575!16s%2Fg%2F1tctp0mf!19sChIJH9y8kbndLRURKsniAdViV48?authuser=0&hl=tr&rclk=1",
    "website_url": "",
    "rating_text": "4,7",
    "stars": null,
    "number_of_reviews": null,
    "price_level": "",
    "open_hours": "",
    "extraction_timestamp": "2025-06-07T14:44:39.288Z",
    "source_name": "google",
    "source_query": "Irrigation Equipment",
    "source_country": "TR",
    "country": "Turkey",
    "state": "Kahramanmaraş",
    "city": "Onikişubat"
  },
  {
    "source_id": "ChIJYyHK_JPdLRURxShP3OYtn94",
    "name": "GENC YAPI MARKET",
    "category": "GENC YAPI MARKET",
    "formatted_address": "4,4(24)",
    "phone_number": "+905432421010",
    "source_url": "https://www.google.com/maps/place/GENC+YAPI+MARKET/data=!4m7!3m6!1s0x152ddd93fcca2163:0xde9f2de6dc4f28c5!8m2!3d37.590627!4d36.891086!16s%2Fg%2F11h056zblq!19sChIJYyHK_JPdLRURxShP3OYtn94?authuser=0&hl=tr&rclk=1",
    "website_url": "",
    "rating_text": "4,4",
    "stars": null,
    "number_of_reviews": null,
    "price_level": "",
    "open_hours": "",
    "extraction_timestamp": "2025-06-07T14:44:39.288Z",
    "source_name": "google",
    "source_query": "Irrigation Equipment",
    "source_country": "TR",
    "country": "Turkey",
    "state": "Kahramanmaraş",
    "city": "Onikişubat"
  },
  {
    "source_id": "ChIJ7RytGszdLRURBelbl0nX1Nc",
    "name": "Yüce Sıhhi Tesisat Ve Sucu",
    "category": "Yüce Sıhhi Tesisat Ve Sucu",
    "formatted_address": "5,0(16)",
    "phone_number": "+905050986766",
    "source_url": "https://www.google.com/maps/place/Y%C3%BCce+S%C4%B1hhi+Tesisat+Ve+Sucu/data=!4m7!3m6!1s0x152dddcc1aad1ced:0xd7d4d749975be905!8m2!3d37.5908067!4d36.8837758!16s%2Fg%2F11thn8vbb3!19sChIJ7RytGszdLRURBelbl0nX1Nc?authuser=0&hl=tr&rclk=1",
    "website_url": "",
    "rating_text": "5,0",
    "stars": null,
    "number_of_reviews": null,
    "price_level": "",
    "open_hours": "",
    "extraction_timestamp": "2025-06-07T14:44:39.289Z",
    "source_name": "google",
    "source_query": "Irrigation Equipment",
    "source_country": "TR",
    "country": "Turkey",
    "state": "Kahramanmaraş",
    "city": "Onikişubat"
  },
  {
    "source_id": "ChIJpR44KGndLRURKbFdsvAlVU8",
    "name": "FEBA Doğalgaz ve Yapı Market Kahramanmaraş",
    "category": "FEBA Doğalgaz ve Yapı Market Kahramanmaraş",
    "formatted_address": "5,0(2)",
    "phone_number": "+905332363286",
    "source_url": "https://www.google.com/maps/place/FEBA+Do%C4%9Falgaz+ve+Yap%C4%B1+Market+Kahramanmara%C5%9F/data=!4m7!3m6!1s0x152ddd6928381ea5:0x4f5525f0b25db129!8m2!3d37.5812613!4d36.9084664!16s%2Fg%2F11wj0dqmkp!19sChIJpR44KGndLRURKbFdsvAlVU8?authuser=0&hl=tr&rclk=1",
    "website_url": "",
    "rating_text": "5,0",
    "stars": null,
    "number_of_reviews": null,
    "price_level": "",
    "open_hours": "",
    "extraction_timestamp": "2025-06-07T14:44:39.302Z",
    "source_name": "google",
    "source_query": "Irrigation Equipment",
    "source_country": "TR",
    "country": "Turkey",
    "state": "Kahramanmaraş",
    "city": "Onikişubat"
  },
  {
    "source_id": "ChIJLQb5jITbLRURx4lo4dF8TOE",
    "name": "AYKARSU TESİSAT",
    "category": "AYKARSU TESİSAT",
    "formatted_address": "5,0(11)",
    "phone_number": "+905306376999",
    "source_url": "https://www.google.com/maps/place/AYKARSU+TES%C4%B0SAT/data=!4m7!3m6!1s0x152ddb848cf9062d:0xe14c7cd1e16889c7!8m2!3d37.5970886!4d36.8369512!16s%2Fg%2F11wp950n7p!19sChIJLQb5jITbLRURx4lo4dF8TOE?authuser=0&hl=tr&rclk=1",
    "website_url": "",
    "rating_text": "5,0",
    "stars": null,
    "number_of_reviews": null,
    "price_level": "",
    "open_hours": "",
    "extraction_timestamp": "2025-06-07T14:44:39.302Z",
    "source_name": "google",
    "source_query": "Irrigation Equipment",
    "source_country": "TR",
    "country": "Turkey",
    "state": "Kahramanmaraş",
    "city": "Onikişubat"
  },
  {
    "source_id": "ChIJN7uhHy3dLRUR29dJ6J1XiQk",
    "name": "Sucu ve dogalgaz tesisatçısı Yusuf usta",
    "category": "Sucu ve dogalgaz tesisatçısı Yusuf usta",
    "formatted_address": "5,0(2)",
    "phone_number": "+905415182421",
    "source_url": "https://www.google.com/maps/place/Sucu+ve+dogalgaz+tesisat%C3%A7%C4%B1s%C4%B1+Yusuf+usta/data=!4m7!3m6!1s0x152ddd2d1fa1bb37:0x989579de849d7db!8m2!3d37.5920479!4d36.8963921!16s%2Fg%2F11t9r0wqmf!19sChIJN7uhHy3dLRUR29dJ6J1XiQk?authuser=0&hl=tr&rclk=1",
    "website_url": "",
    "rating_text": "5,0",
    "stars": null,
    "number_of_reviews": null,
    "price_level": "",
    "open_hours": "",
    "extraction_timestamp": "2025-06-07T14:44:39.303Z",
    "source_name": "google",
    "source_query": "Irrigation Equipment",
    "source_country": "TR",
    "country": "Turkey",
    "state": "Kahramanmaraş",
    "city": "Onikişubat"
  },
  {
    "source_id": "ChIJy2gaGc3bLRURUxWyzfko5nc",
    "name": "AYDIN TARIM&PEYZAJ",
    "category": "AYDIN TARIM&PEYZAJ",
    "formatted_address": "5,0(10)",
    "phone_number": "+905458957458",
    "source_url": "https://www.google.com/maps/place/AYDIN+TARIM%26PEYZAJ/data=!4m7!3m6!1s0x152ddbcd191a68cb:0x77e628f9cdb21553!8m2!3d37.5889317!4d36.8561749!16s%2Fg%2F11x18hk_dj!19sChIJy2gaGc3bLRURUxWyzfko5nc?authuser=0&hl=tr&rclk=1",
    "website_url": "",
    "rating_text": "5,0",
    "stars": null,
    "number_of_reviews": null,
    "price_level": "",
    "open_hours": "",
    "extraction_timestamp": "2025-06-07T14:44:39.303Z",
    "source_name": "google",
    "source_query": "Irrigation Equipment",
    "source_country": "TR",
    "country": "Turkey",
    "state": "Kahramanmaraş",
    "city": "Onikişubat"
  },
  {
    "source_id": "ChIJSc4ehAndLRUR0dWFYqkxpCM",
    "name": "TAŞDEMİR TİCARET",
    "category": "TAŞDEMİR TİCARET",
    "formatted_address": "5,0(8)",
    "phone_number": "+903442148252",
    "source_url": "https://www.google.com/maps/place/TA%C5%9EDEM%C4%B0R+T%C4%B0CARET/data=!4m7!3m6!1s0x152ddd09841ece49:0x23a431a96285d5d1!8m2!3d37.5801251!4d36.8737134!16s%2Fg%2F11f3b2g_n5!19sChIJSc4ehAndLRUR0dWFYqkxpCM?authuser=0&hl=tr&rclk=1",
    "website_url": "",
    "rating_text": "5,0",
    "stars": null,
    "number_of_reviews": null,
    "price_level": "",
    "open_hours": "",
    "extraction_timestamp": "2025-06-07T14:44:39.304Z",
    "source_name": "google",
    "source_query": "Irrigation Equipment",
    "source_country": "TR",
    "country": "Turkey",
    "state": "Kahramanmaraş",
    "city": "Onikişubat"
  },
  {
    "source_id": "ChIJFd_fEfDdLRUR-XBsOshe1cI",
    "name": "Sucu Murat Yüce Sıhhi Tesisat",
    "category": "Sucu Murat Yüce Sıhhi Tesisat",
    "formatted_address": "2,9(17)",
    "phone_number": "+905354076872",
    "source_url": "https://www.google.com/maps/place/Sucu+Murat+Y%C3%BCce+S%C4%B1hhi+Tesisat/data=!4m7!3m6!1s0x152dddf011dfdf15:0xc2d55ec83a6c70f9!8m2!3d37.5918715!4d36.8962983!16s%2Fg%2F11h0g_4x2z!19sChIJFd_fEfDdLRUR-XBsOshe1cI?authuser=0&hl=tr&rclk=1",
    "website_url": "",
    "rating_text": "2,9",
    "stars": null,
    "number_of_reviews": null,
    "price_level": "",
    "open_hours": "",
    "extraction_timestamp": "2025-06-07T14:44:39.304Z",
    "source_name": "google",
    "source_query": "Irrigation Equipment",
    "source_country": "TR",
    "country": "Turkey",
    "state": "Kahramanmaraş",
    "city": "Onikişubat"
  },
  {
    "source_id": "ChIJ5QvgNVPcLRURid-bMlpILio",
    "name": "ŞAHİN TESİSAT",
    "category": "ŞAHİN TESİSAT",
    "formatted_address": "5,0(3)",
    "phone_number": "+905355776038",
    "source_url": "https://www.google.com/maps/place/%C5%9EAH%C4%B0N+TES%C4%B0SAT/data=!4m7!3m6!1s0x152ddc5335e00be5:0x2a2e485a329bdf89!8m2!3d37.5895501!4d36.9057425!16s%2Fg%2F11dzdhc4jz!19sChIJ5QvgNVPcLRURid-bMlpILio?authuser=0&hl=tr&rclk=1",
    "website_url": "",
    "rating_text": "5,0",
    "stars": null,
    "number_of_reviews": null,
    "price_level": "",
    "open_hours": "",
    "extraction_timestamp": "2025-06-07T14:44:39.305Z",
    "source_name": "google",
    "source_query": "Irrigation Equipment",
    "source_country": "TR",
    "country": "Turkey",
    "state": "Kahramanmaraş",
    "city": "Onikişubat"
  },
  {
    "source_id": "ChIJrUFhhPrcLRURKA0NMCeFWCc",
    "name": "PAK YAPI",
    "category": "PAK YAPI",
    "formatted_address": "4,9(7)",
    "phone_number": "+903442217253",
    "source_url": "https://www.google.com/maps/place/PAK+YAPI/data=!4m7!3m6!1s0x152ddcfa846141ad:0x27588527300d0d28!8m2!3d37.5910438!4d36.9081564!16s%2Fg%2F11gdsj28q3!19sChIJrUFhhPrcLRURKA0NMCeFWCc?authuser=0&hl=tr&rclk=1",
    "website_url": "",
    "rating_text": "4,9",
    "stars": null,
    "number_of_reviews": null,
    "price_level": "",
    "open_hours": "",
    "extraction_timestamp": "2025-06-07T14:44:39.306Z",
    "source_name": "google",
    "source_query": "Irrigation Equipment",
    "source_country": "TR",
    "country": "Turkey",
    "state": "Kahramanmaraş",
    "city": "Onikişubat"
  },
  {
    "source_id": "ChIJ-ZbTt4LdLRURwxFj8XM3owg",
    "name": "GÖKÇEOĞLU YAPI MARKET/FBY İNŞAAT LTD.ŞTİ.",
    "category": "GÖKÇEOĞLU YAPI MARKET/FBY İNŞAAT LTD.ŞTİ.",
    "formatted_address": "4,5(15)",
    "phone_number": "+905336163943",
    "source_url": "https://www.google.com/maps/place/G%C3%96K%C3%87EO%C4%9ELU+YAPI+MARKET%2FFBY+%C4%B0N%C5%9EAAT+LTD.%C5%9ET%C4%B0./data=!4m7!3m6!1s0x152ddd82b7d396f9:0x8a33773f16311c3!8m2!3d37.5685226!4d36.9190039!16s%2Fg%2F11qh41qtlj!19sChIJ-ZbTt4LdLRURwxFj8XM3owg?authuser=0&hl=tr&rclk=1",
    "website_url": "",
    "rating_text": "4,5",
    "stars": null,
    "number_of_reviews": null,
    "price_level": "",
    "open_hours": "",
    "extraction_timestamp": "2025-06-07T14:44:39.306Z",
    "source_name": "google",
    "source_query": "Irrigation Equipment",
    "source_country": "TR",
    "country": "Turkey",
    "state": "Kahramanmaraş",
    "city": "Onikişubat"
  },
  {
    "source_id": "ChIJiY_tLwPdLRURzvxhdUsah0U",
    "name": "Huzur Tesisat",
    "category": "Huzur Tesisat",
    "formatted_address": "5,0(3)",
    "phone_number": "+905366224948",
    "source_url": "https://www.google.com/maps/place/Huzur+Tesisat/data=!4m7!3m6!1s0x152ddd032fed8f89:0x45871a4b7561fcce!8m2!3d37.5933218!4d36.887939!16s%2Fg%2F11lh6gcyyt!19sChIJiY_tLwPdLRURzvxhdUsah0U?authuser=0&hl=tr&rclk=1",
    "website_url": "",
    "rating_text": "5,0",
    "stars": null,
    "number_of_reviews": null,
    "price_level": "",
    "open_hours": "",
    "extraction_timestamp": "2025-06-07T14:44:39.307Z",
    "source_name": "google",
    "source_query": "Irrigation Equipment",
    "source_country": "TR",
    "country": "Turkey",
    "state": "Kahramanmaraş",
    "city": "Onikişubat"
  },
  {
    "source_id": "ChIJV07bUULdLRUR4SrB_Elkd5M",
    "name": "BERRAK SU ARITMA SİSTEMLERİ",
    "category": "BERRAK SU ARITMA SİSTEMLERİ",
    "formatted_address": "5,0(23)",
    "phone_number": "+905309348288",
    "source_url": "https://www.google.com/maps/place/BERRAK+SU+ARITMA+S%C4%B0STEMLER%C4%B0/data=!4m7!3m6!1s0x152ddd4251db4e57:0x93776449fcc12ae1!8m2!3d37.5915126!4d36.8779663!16s%2Fg%2F11y4t3qcvs!19sChIJV07bUULdLRUR4SrB_Elkd5M?authuser=0&hl=tr&rclk=1",
    "website_url": "",
    "rating_text": "5,0",
    "stars": null,
    "number_of_reviews": null,
    "price_level": "",
    "open_hours": "",
    "extraction_timestamp": "2025-06-07T14:44:39.307Z",
    "source_name": "google",
    "source_query": "Irrigation Equipment",
    "source_country": "TR",
    "country": "Turkey",
    "state": "Kahramanmaraş",
    "city": "Onikişubat"
  },
  {
    "source_id": "ChIJdUS1dYPnLRURpzdQg-PCfe4",
    "name": "Pınar Plastik Boru",
    "category": "Pınar Plastik Boru",
    "formatted_address": "4,6(27)",
    "phone_number": "+905524016049",
    "source_url": "https://www.google.com/maps/place/P%C4%B1nar+Plastik+Boru/data=!4m7!3m6!1s0x152de78375b54475:0xee7dc2e3835037a7!8m2!3d37.566583!4d36.962331!16s%2Fg%2F11bycjkh4m!19sChIJdUS1dYPnLRURpzdQg-PCfe4?authuser=0&hl=tr&rclk=1",
    "website_url": "",
    "rating_text": "4,6",
    "stars": null,
    "number_of_reviews": null,
    "price_level": "",
    "open_hours": "",
    "extraction_timestamp": "2025-06-07T14:44:39.308Z",
    "source_name": "google",
    "source_query": "Irrigation Equipment",
    "source_country": "TR",
    "country": "Turkey",
    "state": "Kahramanmaraş",
    "city": "Onikişubat"
  },
  {
    "source_id": "ChIJNyXBmdrdLRUR5ifKumy5e9s",
    "name": "TOPALOĞLU TİCARET",
    "category": "TOPALOĞLU TİCARET",
    "formatted_address": "4,2(6)",
    "phone_number": "+905376204324",
    "source_url": "https://www.google.com/maps/place/TOPALO%C4%9ELU+T%C4%B0CARET/data=!4m7!3m6!1s0x152dddda99c12537:0xdb7bb96cbaca27e6!8m2!3d37.5945268!4d36.9080432!16s%2Fg%2F11fmbzd59s!19sChIJNyXBmdrdLRUR5ifKumy5e9s?authuser=0&hl=tr&rclk=1",
    "website_url": "",
    "rating_text": "4,2",
    "stars": null,
    "number_of_reviews": null,
    "price_level": "",
    "open_hours": "",
    "extraction_timestamp": "2025-06-07T14:44:39.308Z",
    "source_name": "google",
    "source_query": "Irrigation Equipment",
    "source_country": "TR",
    "country": "Turkey",
    "state": "Kahramanmaraş",
    "city": "Onikişubat"
  },
  {
    "source_id": "ChIJ3S-wdp7bLRUR0peadSCy8WE",
    "name": "HASKAN YAPI MARKET",
    "category": "HASKAN YAPI MARKET",
    "formatted_address": "5,0(1)",
    "phone_number": "+905352259250",
    "source_url": "https://www.google.com/maps/place/HASKAN+YAPI+MARKET/data=!4m7!3m6!1s0x152ddb9e76b02fdd:0x61f1b220759a97d2!8m2!3d37.5984356!4d36.8516911!16s%2Fg%2F11vlv04sb0!19sChIJ3S-wdp7bLRUR0peadSCy8WE?authuser=0&hl=tr&rclk=1",
    "website_url": "",
    "rating_text": "5,0",
    "stars": null,
    "number_of_reviews": null,
    "price_level": "",
    "open_hours": "",
    "extraction_timestamp": "2025-06-07T14:44:39.309Z",
    "source_name": "google",
    "source_query": "Irrigation Equipment",
    "source_country": "TR",
    "country": "Turkey",
    "state": "Kahramanmaraş",
    "city": "Onikişubat"
  },
  {
    "source_id": "ChIJTfXEo_TdLRUR3_rXXyUBoY8",
    "name": "Bi Kamping Outdoor",
    "category": "Bi Kamping Outdoor",
    "formatted_address": "4,2(103)",
    "phone_number": "+908502419746",
    "source_url": "https://www.google.com/maps/place/Bi+Kamping+Outdoor/data=!4m7!3m6!1s0x152dddf4a3c4f54d:0x8fa101255fd7fadf!8m2!3d37.5942725!4d36.894592!16s%2Fg%2F11m482z4j0!19sChIJTfXEo_TdLRUR3_rXXyUBoY8?authuser=0&hl=tr&rclk=1",
    "website_url": "",
    "rating_text": "4,2",
    "stars": null,
    "number_of_reviews": null,
    "price_level": "",
    "open_hours": "",
    "extraction_timestamp": "2025-06-07T14:44:39.309Z",
    "source_name": "google",
    "source_query": "Irrigation Equipment",
    "source_country": "TR",
    "country": "Turkey",
    "state": "Kahramanmaraş",
    "city": "Onikişubat"
  },
  {
    "source_id": "ChIJh5J9mRbdLRURMtHokS6rxh0",
    "name": "AKSU MÜHENDİSLİK DOĞALGAZ",
    "category": "AKSU MÜHENDİSLİK DOĞALGAZ",
    "formatted_address": "2,3(3)",
    "phone_number": "+905427174306",
    "source_url": "https://www.google.com/maps/place/AKSU+M%C3%9CHEND%C4%B0SL%C4%B0K+DO%C4%9EALGAZ/data=!4m7!3m6!1s0x152ddd16997d9287:0x1dc6ab2e91e8d132!8m2!3d37.5723751!4d36.930877!16s%2Fg%2F11mvtrqwhs!19sChIJh5J9mRbdLRURMtHokS6rxh0?authuser=0&hl=tr&rclk=1",
    "website_url": "",
    "rating_text": "2,3",
    "stars": null,
    "number_of_reviews": null,
    "price_level": "",
    "open_hours": "",
    "extraction_timestamp": "2025-06-07T14:44:39.310Z",
    "source_name": "google",
    "source_query": "Irrigation Equipment",
    "source_country": "TR",
    "country": "Turkey",
    "state": "Kahramanmaraş",
    "city": "Onikişubat"
  },
  {
    "source_id": "ChIJPetzx4PbLRUR3hCICVQNymw",
    "name": "BÖLGE YAPI - FATURA ÖDEME VE KAHRAMANKART DOLUM - VODAFONE BAYİ",
    "category": "BÖLGE YAPI - FATURA ÖDEME VE KAHRAMANKART DOLUM - VODAFONE BAYİ",
    "formatted_address": "5,0(26)",
    "phone_number": "+903442161601",
    "source_url": "https://www.google.com/maps/place/B%C3%96LGE+YAPI+-+FATURA+%C3%96DEME+VE+KAHRAMANKART+DOLUM+-+VODAFONE+BAY%C4%B0/data=!4m7!3m6!1s0x152ddb83c773eb3d:0x6cca0d54098810de!8m2!3d37.5966904!4d36.8615299!16s%2Fg%2F11bw_5_qbf!19sChIJPetzx4PbLRUR3hCICVQNymw?authuser=0&hl=tr&rclk=1",
    "website_url": "",
    "rating_text": "5,0",
    "stars": null,
    "number_of_reviews": null,
    "price_level": "",
    "open_hours": "",
    "extraction_timestamp": "2025-06-07T14:44:39.310Z",
    "source_name": "google",
    "source_query": "Irrigation Equipment",
    "source_country": "TR",
    "country": "Turkey",
    "state": "Kahramanmaraş",
    "city": "Onikişubat"
  },
  {
    "source_id": "ChIJi-fB5CXbLRUReem25vbc3ME",
    "name": "berra ticaret",
    "category": "berra ticaret",
    "formatted_address": "",
    "phone_number": "+905465034098",
    "source_url": "https://www.google.com/maps/place/berra+ticaret/data=!4m7!3m6!1s0x152ddb25e4c1e78b:0xc1dcdcf6e6b6e979!8m2!3d37.5789369!4d36.8601406!16s%2Fg%2F11hz60lqc7!19sChIJi-fB5CXbLRUReem25vbc3ME?authuser=0&hl=tr&rclk=1",
    "website_url": "",
    "rating_text": "",
    "stars": null,
    "number_of_reviews": null,
    "price_level": "",
    "open_hours": "",
    "extraction_timestamp": "2025-06-07T14:44:39.311Z",
    "source_name": "google",
    "source_query": "Irrigation Equipment",
    "source_country": "TR",
    "country": "Turkey",
    "state": "Kahramanmaraş",
    "city": "Onikişubat"
  },
  {
    "source_id": "ChIJuzGRJ6TdLRURVmbu5PTTyIM",
    "name": "İhlas Pazarlama Kahramanmaraş",
    "category": "İhlas Pazarlama Kahramanmaraş",
    "formatted_address": "4,3(8)",
    "phone_number": "+903442320203",
    "source_url": "https://www.google.com/maps/place/%C4%B0hlas+Pazarlama+Kahramanmara%C5%9F/data=!4m7!3m6!1s0x152ddda4279131bb:0x83c8d3f4e4ee6656!8m2!3d37.5642665!4d36.8919112!16s%2Fg%2F1td8p1zv!19sChIJuzGRJ6TdLRURVmbu5PTTyIM?authuser=0&hl=tr&rclk=1",
    "website_url": "",
    "rating_text": "4,3",
    "stars": null,
    "number_of_reviews": null,
    "price_level": "",
    "open_hours": "",
    "extraction_timestamp": "2025-06-07T14:44:39.311Z",
    "source_name": "google",
    "source_query": "Irrigation Equipment",
    "source_country": "TR",
    "country": "Turkey",
    "state": "Kahramanmaraş",
    "city": "Onikişubat"
  },
  {
    "source_id": "ChIJvUIfKHncLRURma8BdIHHYno",
    "name": "VitrA | ᴀʀᴛᴇᴍᴀ Yetkili Servis - B&M Tesisat",
    "category": "VitrA | ᴀʀᴛᴇᴍᴀ Yetkili Servis - B&M Tesisat",
    "formatted_address": "5,0(6)",
    "phone_number": "+905336215717",
    "source_url": "https://www.google.com/maps/place/VitrA+%7C+%E1%B4%80%CA%80%E1%B4%9B%E1%B4%87%E1%B4%8D%E1%B4%80+Yetkili+Servis+-+B%26M+Tesisat/data=!4m7!3m6!1s0x152ddc79281f42bd:0x7a62c7817401af99!8m2!3d37.5910643!4d36.8709143!16s%2Fg%2F1q66xy7vb!19sChIJvUIfKHncLRURma8BdIHHYno?authuser=0&hl=tr&rclk=1",
    "website_url": "",
    "rating_text": "5,0",
    "stars": null,
    "number_of_reviews": null,
    "price_level": "",
    "open_hours": "",
    "extraction_timestamp": "2025-06-07T14:44:39.313Z",
    "source_name": "google",
    "source_query": "Irrigation Equipment",
    "source_country": "TR",
    "country": "Turkey",
    "state": "Kahramanmaraş",
    "city": "Onikişubat"
  },
  {
    "source_id": "ChIJP7Bb1oHdLRURAUjqG3Lh3OU",
    "name": "YEDİ İKLİM ISITMA SİSTEMLERİ & DOĞALGAZ",
    "category": "YEDİ İKLİM ISITMA SİSTEMLERİ & DOĞALGAZ",
    "formatted_address": "5,0(3)",
    "phone_number": "+905362945817",
    "source_url": "https://www.google.com/maps/place/YED%C4%B0+%C4%B0KL%C4%B0M+ISITMA+S%C4%B0STEMLER%C4%B0+%26+DO%C4%9EALGAZ/data=!4m7!3m6!1s0x152ddd81d65bb03f:0xe5dce1721bea4801!8m2!3d37.5734667!4d36.9091899!16s%2Fg%2F11mr2wqx7h!19sChIJP7Bb1oHdLRURAUjqG3Lh3OU?authuser=0&hl=tr&rclk=1",
    "website_url": "",
    "rating_text": "5,0",
    "stars": null,
    "number_of_reviews": null,
    "price_level": "",
    "open_hours": "",
    "extraction_timestamp": "2025-06-07T14:44:39.313Z",
    "source_name": "google",
    "source_query": "Irrigation Equipment",
    "source_country": "TR",
    "country": "Turkey",
    "state": "Kahramanmaraş",
    "city": "Onikişubat"
  },
  {
    "source_id": "ChIJL7V9w7LdLRURKtA3tRygDEc",
    "name": "MARZEN YAPI MARKET",
    "category": "MARZEN YAPI MARKET",
    "formatted_address": "3,7(34)",
    "phone_number": "+905444627936",
    "source_url": "https://www.google.com/maps/place/MARZEN+YAPI+MARKET/data=!4m7!3m6!1s0x152dddb2c37db52f:0x470ca01cb537d02a!8m2!3d37.5901913!4d36.8882036!16s%2Fg%2F11vq_ggl76!19sChIJL7V9w7LdLRURKtA3tRygDEc?authuser=0&hl=tr&rclk=1",
    "website_url": "",
    "rating_text": "3,7",
    "stars": null,
    "number_of_reviews": null,
    "price_level": "",
    "open_hours": "",
    "extraction_timestamp": "2025-06-07T14:44:39.314Z",
    "source_name": "google",
    "source_query": "Irrigation Equipment",
    "source_country": "TR",
    "country": "Turkey",
    "state": "Kahramanmaraş",
    "city": "Onikişubat"
  },
  {
    "source_id": "ChIJ_Vd9a_z3LRURO4ngTAwILbQ",
    "name": "Ece tesisat",
    "category": "Ece tesisat",
    "formatted_address": "5,0(7)",
    "phone_number": "+905427423499",
    "source_url": "https://www.google.com/maps/place/Ece+tesisat/data=!4m7!3m6!1s0x152df7fc6b7d57fd:0xb42d080c4ce0893b!8m2!3d37.486217!4d37.292534!16s%2Fg%2F11hckhj1v_!19sChIJ_Vd9a_z3LRURO4ngTAwILbQ?authuser=0&hl=tr&rclk=1",
    "website_url": "",
    "rating_text": "5,0",
    "stars": null,
    "number_of_reviews": null,
    "price_level": "",
    "open_hours": "",
    "extraction_timestamp": "2025-06-07T14:45:15.642Z",
    "source_name": "google",
    "source_query": "Irrigation Equipment",
    "source_country": "TR",
    "country": "Turkey",
    "state": "Kahramanmaraş",
    "city": "Pazarcık"
  },
  {
    "source_id": "ChIJxxyFPAn3LRURz472g9SYI00",
    "name": "EMİN DOĞALGAZ & YAPI MARKET",
    "category": "EMİN DOĞALGAZ & YAPI MARKET",
    "formatted_address": "2,5(8)",
    "phone_number": "+905072168699",
    "source_url": "https://www.google.com/maps/place/EM%C4%B0N+DO%C4%9EALGAZ+%26+YAPI+MARKET/data=!4m7!3m6!1s0x152df7093c851cc7:0x4d2398d483f68ecf!8m2!3d37.4904183!4d37.2967158!16s%2Fg%2F11r7hpsy5d!19sChIJxxyFPAn3LRURz472g9SYI00?authuser=0&hl=tr&rclk=1",
    "website_url": "",
    "rating_text": "2,5",
    "stars": null,
    "number_of_reviews": null,
    "price_level": "",
    "open_hours": "",
    "extraction_timestamp": "2025-06-07T14:45:15.643Z",
    "source_name": "google",
    "source_query": "Irrigation Equipment",
    "source_country": "TR",
    "country": "Turkey",
    "state": "Kahramanmaraş",
    "city": "Pazarcık"
  },
  {
    "source_id": "ChIJJ36eN8v3LRURF9UI_mvEENA",
    "name": "SDY Su Arıtma Dünyası",
    "category": "SDY Su Arıtma Dünyası",
    "formatted_address": "5,0(5)",
    "phone_number": "+905432091739",
    "source_url": "https://www.google.com/maps/place/SDY+Su+Ar%C4%B1tma+D%C3%BCnyas%C4%B1/data=!4m7!3m6!1s0x152df7cb379e7e27:0xd010c46bfe08d517!8m2!3d37.490281!4d37.2971238!16s%2Fg%2F11kqsf4ryx!19sChIJJ36eN8v3LRURF9UI_mvEENA?authuser=0&hl=tr&rclk=1",
    "website_url": "",
    "rating_text": "5,0",
    "stars": null,
    "number_of_reviews": null,
    "price_level": "",
    "open_hours": "",
    "extraction_timestamp": "2025-06-07T14:45:15.644Z",
    "source_name": "google",
    "source_query": "Irrigation Equipment",
    "source_country": "TR",
    "country": "Turkey",
    "state": "Kahramanmaraş",
    "city": "Pazarcık"
  },
  {
    "source_id": "ChIJvfFrBHn3LRURCngP8_2-tEs",
    "name": "ASEL SU ARITMA SİSTEMLERİ",
    "category": "ASEL SU ARITMA SİSTEMLERİ",
    "formatted_address": "5,0(5)",
    "phone_number": "+905326852683",
    "source_url": "https://www.google.com/maps/place/ASEL+SU+ARITMA+S%C4%B0STEMLER%C4%B0/data=!4m7!3m6!1s0x152df779046bf1bd:0x4bb4befdf30f780a!8m2!3d37.4860526!4d37.2943765!16s%2Fg%2F11vj488dv_!19sChIJvfFrBHn3LRURCngP8_2-tEs?authuser=0&hl=tr&rclk=1",
    "website_url": "",
    "rating_text": "5,0",
    "stars": null,
    "number_of_reviews": null,
    "price_level": "",
    "open_hours": "",
    "extraction_timestamp": "2025-06-07T14:45:15.645Z",
    "source_name": "google",
    "source_query": "Irrigation Equipment",
    "source_country": "TR",
    "country": "Turkey",
    "state": "Kahramanmaraş",
    "city": "Pazarcık"
  },
  {
    "source_id": "ChIJ-zNOAAMIMhURfTNnin17GwE",
    "name": "Çiftepala Market",
    "category": "Çiftepala Market",
    "formatted_address": "4,6(35)",
    "phone_number": "+905453111635",
    "source_url": "https://www.google.com/maps/place/%C3%87iftepala+Market/data=!4m7!3m6!1s0x15320803004e33fb:0x11b7b7d8a67337d!8m2!3d37.4895098!4d37.2956543!16s%2Fg%2F113jykvjs!19sChIJ-zNOAAMIMhURfTNnin17GwE?authuser=0&hl=tr&rclk=1",
    "website_url": "",
    "rating_text": "4,6",
    "stars": null,
    "number_of_reviews": null,
    "price_level": "",
    "open_hours": "",
    "extraction_timestamp": "2025-06-07T14:45:15.646Z",
    "source_name": "google",
    "source_query": "Irrigation Equipment",
    "source_country": "TR",
    "country": "Turkey",
    "state": "Kahramanmaraş",
    "city": "Pazarcık"
  },
  {
    "source_id": "ChIJC2WCFx4IMhURTlKwt7VBMys",
    "name": "Ünal Market",
    "category": "Ünal Market",
    "formatted_address": "3,9(293)",
    "phone_number": "+903443116250",
    "source_url": "https://www.google.com/maps/place/%C3%9Cnal+Market/data=!4m7!3m6!1s0x1532081e1782650b:0x2b3341b5b7b0524e!8m2!3d37.491909!4d37.297902!16s%2Fg%2F11b7p_m56k!19sChIJC2WCFx4IMhURTlKwt7VBMys?authuser=0&hl=tr&rclk=1",
    "website_url": "",
    "rating_text": "3,9",
    "stars": null,
    "number_of_reviews": null,
    "price_level": "",
    "open_hours": "",
    "extraction_timestamp": "2025-06-07T14:45:15.647Z",
    "source_name": "google",
    "source_query": "Irrigation Equipment",
    "source_country": "TR",
    "country": "Turkey",
    "state": "Kahramanmaraş",
    "city": "Pazarcık"
  },
  {
    "source_id": "ChIJMSWLbacJMhUR8SOuTmgi5h0",
    "name": "Su Deposu",
    "category": "Su Deposu",
    "formatted_address": "5,0(1)",
    "phone_number": "",
    "source_url": "https://www.google.com/maps/place/Su+Deposu/data=!4m7!3m6!1s0x153209a76d8b2531:0x1de622684eae23f1!8m2!3d37.5113143!4d37.3398284!16s%2Fg%2F11b7q4x4mt!19sChIJMSWLbacJMhUR8SOuTmgi5h0?authuser=0&hl=tr&rclk=1",
    "website_url": "",
    "rating_text": "5,0",
    "stars": null,
    "number_of_reviews": null,
    "price_level": "",
    "open_hours": "",
    "extraction_timestamp": "2025-06-07T14:45:15.647Z",
    "source_name": "google",
    "source_query": "Irrigation Equipment",
    "source_country": "TR",
    "country": "Turkey",
    "state": "Kahramanmaraş",
    "city": "Pazarcık"
  },
  {
    "source_id": "ChIJiUF0pgcTLRURgp55jfTfLrI",
    "name": "BAŞARANLAR İNŞAAT MARKET",
    "category": "BAŞARANLAR İNŞAAT MARKET",
    "formatted_address": "4,9(19)",
    "phone_number": "+903445118493",
    "source_url": "https://www.google.com/maps/place/BA%C5%9EARANLAR+%C4%B0N%C5%9EAAT+MARKET/data=!4m7!3m6!1s0x152d1307a6744189:0xb22edff48d799e82!8m2!3d38.2497377!4d36.9130093!16s%2Fg%2F11gh2v_p6_!19sChIJiUF0pgcTLRURgp55jfTfLrI?authuser=0&hl=tr&rclk=1",
    "website_url": "http://www.basaranlarinsaatmarket.com/",
    "rating_text": "4,9",
    "stars": null,
    "number_of_reviews": null,
    "price_level": "",
    "open_hours": "",
    "extraction_timestamp": "2025-06-07T14:45:24.600Z",
    "source_name": "google",
    "source_query": "Irrigation Equipment",
    "source_country": "TR",
    "country": "Turkey",
    "state": "Kahramanmaraş",
    "city": "Afşin"
  },
  {
    "source_id": "ChIJA7-Kn1ETLRUR30t3llApUcg",
    "name": "Atlas yapı market Kahramanmaraş",
    "category": "Atlas yapı market Kahramanmaraş",
    "formatted_address": "5,0(2)",
    "phone_number": "+905334880429",
    "source_url": "https://www.google.com/maps/place/Atlas+yap%C4%B1+market+Kahramanmara%C5%9F/data=!4m7!3m6!1s0x152d13519f8abf03:0xc851295096774bdf!8m2!3d38.2292284!4d36.9489518!16s%2Fg%2F11r6_147q4!19sChIJA7-Kn1ETLRUR30t3llApUcg?authuser=0&hl=tr&rclk=1",
    "website_url": "",
    "rating_text": "5,0",
    "stars": null,
    "number_of_reviews": null,
    "price_level": "",
    "open_hours": "",
    "extraction_timestamp": "2025-06-07T14:45:24.601Z",
    "source_name": "google",
    "source_query": "Irrigation Equipment",
    "source_country": "TR",
    "country": "Turkey",
    "state": "Kahramanmaraş",
    "city": "Afşin"
  },
  {
    "source_id": "ChIJW0-o_8ITLRURF2Du2YF37MY",
    "name": "Ak-Su Arıtma",
    "category": "Ak-Su Arıtma",
    "formatted_address": "3,0(2)",
    "phone_number": "+905360353009",
    "source_url": "https://www.google.com/maps/place/Ak-Su+Ar%C4%B1tma/data=!4m7!3m6!1s0x152d13c2ffa84f5b:0xc6ec7781d9ee6017!8m2!3d38.2445154!4d36.9118246!16s%2Fg%2F11ky8zvwh_!19sChIJW0-o_8ITLRURF2Du2YF37MY?authuser=0&hl=tr&rclk=1",
    "website_url": "",
    "rating_text": "3,0",
    "stars": null,
    "number_of_reviews": null,
    "price_level": "",
    "open_hours": "",
    "extraction_timestamp": "2025-06-07T14:45:24.601Z",
    "source_name": "google",
    "source_query": "Irrigation Equipment",
    "source_country": "TR",
    "country": "Turkey",
    "state": "Kahramanmaraş",
    "city": "Afşin"
  },
  {
    "source_id": "ChIJWRy9eZ0_LRURUh-nG3baEZk",
    "name": "Afşin-Elbistan-Göksun Endüstriyel Zemin, Saha, Tabla Beton",
    "category": "Afşin-Elbistan-Göksun Endüstriyel Zemin, Saha, Tabla Beton",
    "formatted_address": "Afşin-Elbistan-Göksun Endüstriyel Zemin, Saha, Tabla Beton",
    "phone_number": "+905448731221",
    "source_url": "https://www.google.com/maps/place/Af%C5%9Fin-Elbistan-G%C3%B6ksun+End%C3%BCstriyel+Zemin,+Saha,+Tabla+Beton/data=!4m7!3m6!1s0x152d3f9d79bd1c59:0x9911da761ba71f52!8m2!3d38.2421011!4d36.9262969!16s%2Fg%2F11lm2nt32p!19sChIJWRy9eZ0_LRURUh-nG3baEZk?authuser=0&hl=tr&rclk=1",
    "website_url": "",
    "rating_text": "",
    "stars": null,
    "number_of_reviews": null,
    "price_level": "",
    "open_hours": "",
    "extraction_timestamp": "2025-06-07T14:45:24.602Z",
    "source_name": "google",
    "source_query": "Irrigation Equipment",
    "source_country": "TR",
    "country": "Turkey",
    "state": "Kahramanmaraş",
    "city": "Afşin"
  },
  {
    "source_id": "ChIJNQER8gif2kMR9K0aSsF9iys",
    "name": "mert tesisat afşin",
    "category": "mert tesisat afşin",
    "formatted_address": "3,0(2)",
    "phone_number": "+905434307449",
    "source_url": "https://www.google.com/maps/place/mert+tesisat+af%C5%9Fin/data=!4m7!3m6!1s0x43da9f08f2110135:0x2b8b7dc14a1aadf4!8m2!3d38.247243!4d36.915289!16s%2Fg%2F11l1cbyjr9!19sChIJNQER8gif2kMR9K0aSsF9iys?authuser=0&hl=tr&rclk=1",
    "website_url": "",
    "rating_text": "3,0",
    "stars": null,
    "number_of_reviews": null,
    "price_level": "",
    "open_hours": "",
    "extraction_timestamp": "2025-06-07T14:45:24.603Z",
    "source_name": "google",
    "source_query": "Irrigation Equipment",
    "source_country": "TR",
    "country": "Turkey",
    "state": "Kahramanmaraş",
    "city": "Afşin"
  },
  {
    "source_id": "ChIJD8RhP7ibLhURjj95UXZa1ic",
    "name": "Andırın Dogadan / Drone zirai ilaçlama drone",
    "category": "Andırın Dogadan / Drone zirai ilaçlama drone",
    "formatted_address": "5,0(14)",
    "phone_number": "+905355073577",
    "source_url": "https://www.google.com/maps/place/And%C4%B1r%C4%B1n+Dogadan+%2F+Drone+zirai+ila%C3%A7lama+drone/data=!4m7!3m6!1s0x152e9bb83f61c40f:0x27d65a7651793f8e!8m2!3d37.572958!4d36.360329!16s%2Fg%2F11sm8x31nz!19sChIJD8RhP7ibLhURjj95UXZa1ic?authuser=0&hl=tr&rclk=1",
    "website_url": "",
    "rating_text": "5,0",
    "stars": null,
    "number_of_reviews": null,
    "price_level": "",
    "open_hours": "",
    "extraction_timestamp": "2025-06-07T14:45:33.148Z",
    "source_name": "google",
    "source_query": "Irrigation Equipment",
    "source_country": "TR",
    "country": "Turkey",
    "state": "Kahramanmaraş",
    "city": "Andırın"
  },
  {
    "source_id": "ChIJtTn73hqbLhURnArPW_cv4Sc",
    "name": "Daloğlu Market",
    "category": "Daloğlu Market",
    "formatted_address": "",
    "phone_number": "+905346030571",
    "source_url": "https://www.google.com/maps/place/Dalo%C4%9Flu+Market/data=!4m7!3m6!1s0x152e9b1adefb39b5:0x27e12ff75bcf0a9c!8m2!3d37.572379!4d36.352071!16s%2Fg%2F11pdrwhghh!19sChIJtTn73hqbLhURnArPW_cv4Sc?authuser=0&hl=tr&rclk=1",
    "website_url": "",
    "rating_text": "",
    "stars": null,
    "number_of_reviews": null,
    "price_level": "",
    "open_hours": "",
    "extraction_timestamp": "2025-06-07T14:45:33.152Z",
    "source_name": "google",
    "source_query": "Irrigation Equipment",
    "source_country": "TR",
    "country": "Turkey",
    "state": "Kahramanmaraş",
    "city": "Andırın"
  },
  {
    "source_id": "ChIJOzeDCISZLhURx5FSZDcWUFU",
    "name": "Şok Market",
    "category": "Şok Market",
    "formatted_address": "3,4(16)",
    "phone_number": "",
    "source_url": "https://www.google.com/maps/place/%C5%9Eok+Market/data=!4m7!3m6!1s0x152e99840883373b:0x55501637645291c7!8m2!3d37.5768401!4d36.3511236!16s%2Fg%2F11hzph34fg!19sChIJOzeDCISZLhURx5FSZDcWUFU?authuser=0&hl=tr&rclk=1",
    "website_url": "https://kurumsal.sokmarket.com.tr/?utm_source=GMB&utm_medium=315&utm_campaign=magazayonlendirme",
    "rating_text": "3,4",
    "stars": null,
    "number_of_reviews": null,
    "price_level": "",
    "open_hours": "",
    "extraction_timestamp": "2025-06-07T14:45:33.152Z",
    "source_name": "google",
    "source_query": "Irrigation Equipment",
    "source_country": "TR",
    "country": "Turkey",
    "state": "Kahramanmaraş",
    "city": "Andırın"
  },
  {
    "source_id": "ChIJVVVVVd6bLhUReha5wvL8VE8",
    "name": "Andırın Belediyesi",
    "category": "Andırın Belediyesi",
    "formatted_address": "3,7(59)",
    "phone_number": "+903445612012",
    "source_url": "https://www.google.com/maps/place/And%C4%B1r%C4%B1n+Belediyesi/data=!4m7!3m6!1s0x152e9bde55555555:0x4f54fcf2c2b9167a!8m2!3d37.5759232!4d36.3489865!16s%2Fg%2F113hqz82w!19sChIJVVVVVd6bLhUReha5wvL8VE8?authuser=0&hl=tr&rclk=1",
    "website_url": "http://www.andirin.bel.tr/",
    "rating_text": "3,7",
    "stars": null,
    "number_of_reviews": null,
    "price_level": "",
    "open_hours": "",
    "extraction_timestamp": "2025-06-07T14:45:33.152Z",
    "source_name": "google",
    "source_query": "Irrigation Equipment",
    "source_country": "TR",
    "country": "Turkey",
    "state": "Kahramanmaraş",
    "city": "Andırın"
  },
  {
    "source_id": "ChIJCS3c1eabLhURONJId76z45o",
    "name": "A101",
    "category": "A101",
    "formatted_address": "3,8(51)",
    "phone_number": "+908508082101",
    "source_url": "https://www.google.com/maps/place/A101/data=!4m7!3m6!1s0x152e9be6d5dc2d09:0x9ae3b3be7748d238!8m2!3d37.5761!4d36.3495!16s%2Fg%2F11sq1kszw3!19sChIJCS3c1eabLhURONJId76z45o?authuser=0&hl=tr&rclk=1",
    "website_url": "",
    "rating_text": "3,8",
    "stars": null,
    "number_of_reviews": null,
    "price_level": "",
    "open_hours": "",
    "extraction_timestamp": "2025-06-07T14:45:33.153Z",
    "source_name": "google",
    "source_query": "Irrigation Equipment",
    "source_country": "TR",
    "country": "Turkey",
    "state": "Kahramanmaraş",
    "city": "Andırın"
  },
  {
    "source_id": "ChIJZ6t-aaBxLhURpAXLytV6rGU",
    "name": "Deva Tarım",
    "category": "Deva Tarım",
    "formatted_address": "5,0(2)",
    "phone_number": "+905433460678",
    "source_url": "https://www.google.com/maps/place/Deva+Tar%C4%B1m/data=!4m7!3m6!1s0x152e71a0697eab67:0x65ac7ad5cacb05a4!8m2!3d37.3825812!4d36.8448521!16s%2Fg%2F11b7qc4581!19sChIJZ6t-aaBxLhURpAXLytV6rGU?authuser=0&hl=tr&rclk=1",
    "website_url": "",
    "rating_text": "5,0",
    "stars": null,
    "number_of_reviews": null,
    "price_level": "",
    "open_hours": "",
    "extraction_timestamp": "2025-06-07T14:45:42.186Z",
    "source_name": "google",
    "source_query": "Irrigation Equipment",
    "source_country": "TR",
    "country": "Turkey",
    "state": "Kahramanmaraş",
    "city": "Türkoğlu"
  },
  {
    "source_id": "ChIJE1NIlHVxLhUR5_Cnjigyi5M",
    "name": "Türkoğlu su arıtma",
    "category": "Türkoğlu su arıtma",
    "formatted_address": "3,9(242)",
    "phone_number": "+905433940370",
    "source_url": "https://www.google.com/maps/place/T%C3%BCrko%C4%9Flu+su+ar%C4%B1tma/data=!4m7!3m6!1s0x152e717594485313:0x938b32288ea7f0e7!8m2!3d37.3825914!4d36.8503826!16s%2Fg%2F1td6vh25!19sChIJE1NIlHVxLhUR5_Cnjigyi5M?authuser=0&hl=tr&rclk=1",
    "website_url": "",
    "rating_text": "3,9",
    "stars": null,
    "number_of_reviews": null,
    "price_level": "",
    "open_hours": "",
    "extraction_timestamp": "2025-06-07T14:45:42.187Z",
    "source_name": "google",
    "source_query": "Irrigation Equipment",
    "source_country": "TR",
    "country": "Turkey",
    "state": "Kahramanmaraş",
    "city": "Türkoğlu"
  },
  {
    "source_id": "ChIJuScx1XRxLhURb4LYIUtrscI",
    "name": "Yetimoğlu Hırdavat",
    "category": "Yetimoğlu Hırdavat",
    "formatted_address": "4,4(7)",
    "phone_number": "+903446183040",
    "source_url": "https://www.google.com/maps/place/Yetimo%C4%9Flu+H%C4%B1rdavat/data=!4m7!3m6!1s0x152e7174d53127b9:0xc2b16b4b21d8826f!8m2!3d37.3869219!4d36.8475951!16s%2Fg%2F11clzh9jfm!19sChIJuScx1XRxLhURb4LYIUtrscI?authuser=0&hl=tr&rclk=1",
    "website_url": "",
    "rating_text": "4,4",
    "stars": null,
    "number_of_reviews": null,
    "price_level": "",
    "open_hours": "",
    "extraction_timestamp": "2025-06-07T14:45:42.187Z",
    "source_name": "google",
    "source_query": "Irrigation Equipment",
    "source_country": "TR",
    "country": "Turkey",
    "state": "Kahramanmaraş",
    "city": "Türkoğlu"
  },
  {
    "source_id": "ChIJA5PO3GZxLhURjN6QYPlVSjg",
    "name": "Marinas Yapı Market",
    "category": "Marinas Yapı Market",
    "formatted_address": "5,0(3)",
    "phone_number": "+903442217025",
    "source_url": "https://www.google.com/maps/place/Marinas+Yap%C4%B1+Market/data=!4m7!3m6!1s0x152e7166dcce9303:0x384a55f96090de8c!8m2!3d37.393176!4d36.861578!16s%2Fg%2F11c1mzmln0!19sChIJA5PO3GZxLhURjN6QYPlVSjg?authuser=0&hl=tr&rclk=1",
    "website_url": "",
    "rating_text": "5,0",
    "stars": null,
    "number_of_reviews": null,
    "price_level": "",
    "open_hours": "",
    "extraction_timestamp": "2025-06-07T14:45:42.188Z",
    "source_name": "google",
    "source_query": "Irrigation Equipment",
    "source_country": "TR",
    "country": "Turkey",
    "state": "Kahramanmaraş",
    "city": "Türkoğlu"
  },
  {
    "source_id": "ChIJYx5CAABxLhURQt6xqnUsXLg",
    "name": "güçlü bims yapı market",
    "category": "güçlü bims yapı market",
    "formatted_address": "5,0(1)",
    "phone_number": "",
    "source_url": "https://www.google.com/maps/place/g%C3%BC%C3%A7l%C3%BC+bims+yap%C4%B1+market/data=!4m7!3m6!1s0x152e710000421e63:0xb85c2c75aab1de42!8m2!3d37.3760526!4d36.8612338!16s%2Fg%2F11y4vdvnxq!19sChIJYx5CAABxLhURQt6xqnUsXLg?authuser=0&hl=tr&rclk=1",
    "website_url": "",
    "rating_text": "5,0",
    "stars": null,
    "number_of_reviews": null,
    "price_level": "",
    "open_hours": "",
    "extraction_timestamp": "2025-06-07T14:45:42.189Z",
    "source_name": "google",
    "source_query": "Irrigation Equipment",
    "source_country": "TR",
    "country": "Turkey",
    "state": "Kahramanmaraş",
    "city": "Türkoğlu"
  },
  {
    "source_id": "ChIJIxyOxXBpLhURvhLEnmyl6-s",
    "name": "türkoğlu su arıtma",
    "category": "türkoğlu su arıtma",
    "formatted_address": "5,0(1)",
    "phone_number": "",
    "source_url": "https://www.google.com/maps/place/t%C3%BCrko%C4%9Flu+su+ar%C4%B1tma/data=!4m7!3m6!1s0x152e6970c58e1c23:0xebeba56c9ec412be!8m2!3d37.2892095!4d36.7869075!16s%2Fg%2F11h_2lqvzx!19sChIJIxyOxXBpLhURvhLEnmyl6-s?authuser=0&hl=tr&rclk=1",
    "website_url": "",
    "rating_text": "5,0",
    "stars": null,
    "number_of_reviews": null,
    "price_level": "",
    "open_hours": "",
    "extraction_timestamp": "2025-06-07T14:45:42.190Z",
    "source_name": "google",
    "source_query": "Irrigation Equipment",
    "source_country": "TR",
    "country": "Turkey",
    "state": "Kahramanmaraş",
    "city": "Türkoğlu"
  },
  {
    "source_id": "ChIJVfmnKgtxLhURIwrpbNRBRBU",
    "name": "Tuncay Gıda",
    "category": "Tuncay Gıda",
    "formatted_address": "4,9(11)",
    "phone_number": "+905356565934",
    "source_url": "https://www.google.com/maps/place/Tuncay+G%C4%B1da/data=!4m7!3m6!1s0x152e710b2aa7f955:0x154441d46ce90a23!8m2!3d37.369298!4d36.8367554!16s%2Fg%2F11b7q5bl3p!19sChIJVfmnKgtxLhURIwrpbNRBRBU?authuser=0&hl=tr&rclk=1",
    "website_url": "",
    "rating_text": "4,9",
    "stars": null,
    "number_of_reviews": null,
    "price_level": "",
    "open_hours": "",
    "extraction_timestamp": "2025-06-07T14:45:42.191Z",
    "source_name": "google",
    "source_query": "Irrigation Equipment",
    "source_country": "TR",
    "country": "Turkey",
    "state": "Kahramanmaraş",
    "city": "Türkoğlu"
  },
  {
    "source_id": "ChIJ57O_Om9xLhURAGdMVuA4vMs",
    "name": "Türkoğlu Belediyesi",
    "category": "Türkoğlu Belediyesi",
    "formatted_address": "3,8(122)",
    "phone_number": "+903446181005",
    "source_url": "https://www.google.com/maps/place/T%C3%BCrko%C4%9Flu+Belediyesi/data=!4m7!3m6!1s0x152e716f3abfb3e7:0xcbbc38e0564c6700!8m2!3d37.393017!4d36.855378!16s%2Fg%2F1td3c2kn!19sChIJ57O_Om9xLhURAGdMVuA4vMs?authuser=0&hl=tr&rclk=1",
    "website_url": "",
    "rating_text": "3,8",
    "stars": null,
    "number_of_reviews": null,
    "price_level": "",
    "open_hours": "",
    "extraction_timestamp": "2025-06-07T14:45:42.191Z",
    "source_name": "google",
    "source_query": "Irrigation Equipment",
    "source_country": "TR",
    "country": "Turkey",
    "state": "Kahramanmaraş",
    "city": "Türkoğlu"
  },
  {
    "source_id": "ChIJZWyWArjdLRURjlu4BqJxank",
    "name": "Bosch Yetkili Satıcısı",
    "category": "Bosch Yetkili Satıcısı",
    "formatted_address": "",
    "phone_number": "+905386925982",
    "source_url": "https://www.google.com/maps/place/Bosch+Yetkili+Sat%C4%B1c%C4%B1s%C4%B1/data=!4m7!3m6!1s0x152dddb802966c65:0x796a71a206b85b8e!8m2!3d37.3805736!4d36.8439502!16s%2Fg%2F11ybzhb5nn!19sChIJZWyWArjdLRURjlu4BqJxank?authuser=0&hl=tr&rclk=1",
    "website_url": "",
    "rating_text": "",
    "stars": null,
    "number_of_reviews": null,
    "price_level": "",
    "open_hours": "",
    "extraction_timestamp": "2025-06-07T14:45:42.192Z",
    "source_name": "google",
    "source_query": "Irrigation Equipment",
    "source_country": "TR",
    "country": "Turkey",
    "state": "Kahramanmaraş",
    "city": "Türkoğlu"
  },
  {
    "source_id": "ChIJG2hYruNxLhURxJEv7UdrWec",
    "name": "AVANTAJ MARKET",
    "category": "AVANTAJ MARKET",
    "formatted_address": "",
    "phone_number": "+905327207936",
    "source_url": "https://www.google.com/maps/place/AVANTAJ+MARKET/data=!4m7!3m6!1s0x152e71e3ae58681b:0xe7596b47ed2f91c4!8m2!3d37.373136!4d36.839183!16s%2Fg%2F11rjsvl7_y!19sChIJG2hYruNxLhURxJEv7UdrWec?authuser=0&hl=tr&rclk=1",
    "website_url": "",
    "rating_text": "",
    "stars": null,
    "number_of_reviews": null,
    "price_level": "",
    "open_hours": "",
    "extraction_timestamp": "2025-06-07T14:45:42.192Z",
    "source_name": "google",
    "source_query": "Irrigation Equipment",
    "source_country": "TR",
    "country": "Turkey",
    "state": "Kahramanmaraş",
    "city": "Türkoğlu"
  },
  {
    "source_id": "ChIJ9_RnznRxLhURxysmO5hXUCA",
    "name": "Profilo",
    "category": "Profilo",
    "formatted_address": "",
    "phone_number": "+903446183479",
    "source_url": "https://www.google.com/maps/place/Profilo/data=!4m7!3m6!1s0x152e7174ce67f4f7:0x205057983b262bc7!8m2!3d37.385855!4d36.846861!16s%2Fg%2F11b7q5fh20!19sChIJ9_RnznRxLhURxysmO5hXUCA?authuser=0&hl=tr&rclk=1",
    "website_url": "",
    "rating_text": "",
    "stars": null,
    "number_of_reviews": null,
    "price_level": "",
    "open_hours": "",
    "extraction_timestamp": "2025-06-07T14:45:42.193Z",
    "source_name": "google",
    "source_query": "Irrigation Equipment",
    "source_country": "TR",
    "country": "Turkey",
    "state": "Kahramanmaraş",
    "city": "Türkoğlu"
  },
  {
    "source_id": "ChIJMzTXcmpnLRURSTYi61zIOvw",
    "name": "TOPÇUOĞLU YAPI MARKET",
    "category": "TOPÇUOĞLU YAPI MARKET",
    "formatted_address": "4,0(4)",
    "phone_number": "+903447143020",
    "source_url": "https://www.google.com/maps/place/TOP%C3%87UO%C4%9ELU+YAPI+MARKET/data=!4m7!3m6!1s0x152d676a72d73433:0xfc3ac85ceb223649!8m2!3d38.0193776!4d36.4952622!16s%2Fg%2F11h0ms77yw!19sChIJMzTXcmpnLRURSTYi61zIOvw?authuser=0&hl=tr&rclk=1",
    "website_url": "",
    "rating_text": "4,0",
    "stars": null,
    "number_of_reviews": null,
    "price_level": "",
    "open_hours": "",
    "extraction_timestamp": "2025-06-07T14:45:50.769Z",
    "source_name": "google",
    "source_query": "Irrigation Equipment",
    "source_country": "TR",
    "country": "Turkey",
    "state": "Kahramanmaraş",
    "city": "Göksun"
  },
  {
    "source_id": "ChIJt3WgGIRPLBURaxNTEu8P0LY",
    "name": "Göksun Çobanoğlu İnşaat Elektrik Sondaj Tel Çit Sistemleri Ltd.Şti.",
    "category": "Göksun Çobanoğlu İnşaat Elektrik Sondaj Tel Çit Sistemleri Ltd.Şti.",
    "formatted_address": "5,0(1)",
    "phone_number": "",
    "source_url": "https://www.google.com/maps/place/G%C3%B6ksun+%C3%87obano%C4%9Flu+%C4%B0n%C5%9Faat+Elektrik+Sondaj+Tel+%C3%87it+Sistemleri+Ltd.%C5%9Eti./data=!4m7!3m6!1s0x152c4f8418a075b7:0xb6d00fef1253136b!8m2!3d38.0225439!4d36.5023111!16s%2Fg%2F11lgwmm78g!19sChIJt3WgGIRPLBURaxNTEu8P0LY?authuser=0&hl=tr&rclk=1",
    "website_url": "",
    "rating_text": "5,0",
    "stars": null,
    "number_of_reviews": null,
    "price_level": "",
    "open_hours": "",
    "extraction_timestamp": "2025-06-07T14:45:50.770Z",
    "source_name": "google",
    "source_query": "Irrigation Equipment",
    "source_country": "TR",
    "country": "Turkey",
    "state": "Kahramanmaraş",
    "city": "Göksun"
  },
  {
    "source_id": "ChIJZU7pnRlPLBUREQbgd8J-8Gc",
    "name": "Sistem Bilgisayar & İnternet Cafe",
    "category": "Sistem Bilgisayar & İnternet Cafe",
    "formatted_address": "3,7(32)",
    "phone_number": "+905415093801",
    "source_url": "https://www.google.com/maps/place/Sistem+Bilgisayar+%26+%C4%B0nternet+Cafe/data=!4m7!3m6!1s0x152c4f199de94e65:0x67f07ec277e00611!8m2!3d38.0196918!4d36.495422!16s%2Fg%2F11jqfpy872!19sChIJZU7pnRlPLBUREQbgd8J-8Gc?authuser=0&hl=tr&rclk=1",
    "website_url": "",
    "rating_text": "3,7",
    "stars": null,
    "number_of_reviews": null,
    "price_level": "",
    "open_hours": "",
    "extraction_timestamp": "2025-06-07T14:45:50.771Z",
    "source_name": "google",
    "source_query": "Irrigation Equipment",
    "source_country": "TR",
    "country": "Turkey",
    "state": "Kahramanmaraş",
    "city": "Göksun"
  },
  {
    "source_id": "ChIJw-f3vr5PLBUR9_vz_Myu7rU",
    "name": "Coşkun gross",
    "category": "Coşkun gross",
    "formatted_address": "4,6(15)",
    "phone_number": "+905056517272",
    "source_url": "https://www.google.com/maps/place/Co%C5%9Fkun+gross/data=!4m7!3m6!1s0x152c4fbebef7e7c3:0xb5eeaeccfcf3fbf7!8m2!3d38.0217546!4d36.4983245!16s%2Fg%2F11h4vlshsl!19sChIJw-f3vr5PLBUR9_vz_Myu7rU?authuser=0&hl=tr&rclk=1",
    "website_url": "",
    "rating_text": "4,6",
    "stars": null,
    "number_of_reviews": null,
    "price_level": "",
    "open_hours": "",
    "extraction_timestamp": "2025-06-07T14:45:50.773Z",
    "source_name": "google",
    "source_query": "Irrigation Equipment",
    "source_country": "TR",
    "country": "Turkey",
    "state": "Kahramanmaraş",
    "city": "Göksun"
  },
  {
    "source_id": "ChIJq7QvbOdPLBUR_JaVeNMNQeg",
    "name": "Göksun Eren Pet Shop",
    "category": "Göksun Eren Pet Shop",
    "formatted_address": "4,9(14)",
    "phone_number": "+905464058926",
    "source_url": "https://www.google.com/maps/place/G%C3%B6ksun+Eren+Pet+Shop/data=!4m7!3m6!1s0x152c4fe76c2fb4ab:0xe8410dd3789596fc!8m2!3d38.0208339!4d36.4983751!16s%2Fg%2F11vb60ll0r!19sChIJq7QvbOdPLBUR_JaVeNMNQeg?authuser=0&hl=tr&rclk=1",
    "website_url": "",
    "rating_text": "4,9",
    "stars": null,
    "number_of_reviews": null,
    "price_level": "",
    "open_hours": "",
    "extraction_timestamp": "2025-06-07T14:45:50.773Z",
    "source_name": "google",
    "source_query": "Irrigation Equipment",
    "source_country": "TR",
    "country": "Turkey",
    "state": "Kahramanmaraş",
    "city": "Göksun"
  },
  {
    "source_id": "ChIJVbXk8IRPLBURXqmNzDHSbV4",
    "name": "Göksun Kapalı Semt Pazarı",
    "category": "Göksun Kapalı Semt Pazarı",
    "formatted_address": "4,2(37)",
    "phone_number": "",
    "source_url": "https://www.google.com/maps/place/G%C3%B6ksun+Kapal%C4%B1+Semt+Pazar%C4%B1/data=!4m7!3m6!1s0x152c4f84f0e4b555:0x5e6dd231cc8da95e!8m2!3d38.0215618!4d36.4875872!16s%2Fg%2F11s30krgr6!19sChIJVbXk8IRPLBURXqmNzDHSbV4?authuser=0&hl=tr&rclk=1",
    "website_url": "",
    "rating_text": "4,2",
    "stars": null,
    "number_of_reviews": null,
    "price_level": "",
    "open_hours": "",
    "extraction_timestamp": "2025-06-07T14:45:50.774Z",
    "source_name": "google",
    "source_query": "Irrigation Equipment",
    "source_country": "TR",
    "country": "Turkey",
    "state": "Kahramanmaraş",
    "city": "Göksun"
  },
  {
    "source_id": "ChIJG1L2kMJmLRURKxwh3yJM3Xs",
    "name": "AGRODAL TARIM KİMYA LTD. ŞTİ.",
    "category": "AGRODAL TARIM KİMYA LTD. ŞTİ.",
    "formatted_address": "4,8(34)",
    "phone_number": "+903444133525",
    "source_url": "https://www.google.com/maps/place/AGRODAL+TARIM+K%C4%B0MYA+LTD.+%C5%9ET%C4%B0./data=!4m7!3m6!1s0x152d66c290f6521b:0x7bdd4c22df211c2b!8m2!3d38.2018997!4d37.183483!16s%2Fg%2F11cnsb87rt!19sChIJG1L2kMJmLRURKxwh3yJM3Xs?authuser=0&hl=tr&rclk=1",
    "website_url": "",
    "rating_text": "4,8",
    "stars": null,
    "number_of_reviews": null,
    "price_level": "",
    "open_hours": "",
    "extraction_timestamp": "2025-06-07T14:46:01.422Z",
    "source_name": "google",
    "source_query": "Irrigation Equipment",
    "source_country": "TR",
    "country": "Turkey",
    "state": "Kahramanmaraş",
    "city": "Elbistan"
  },
  {
    "source_id": "ChIJ22Lrx2thLRURMawEf0UG9gw",
    "name": "BEYZA ISI SİSTEMLERİ Doğalgaz sıhhi tesisat",
    "category": "BEYZA ISI SİSTEMLERİ Doğalgaz sıhhi tesisat",
    "formatted_address": "5,0(6)",
    "phone_number": "+905362035528",
    "source_url": "https://www.google.com/maps/place/BEYZA+ISI+S%C4%B0STEMLER%C4%B0+Do%C4%9Falgaz+s%C4%B1hhi+tesisat/data=!4m7!3m6!1s0x152d616bc7eb62db:0xcf606457f04ac31!8m2!3d38.1948468!4d37.2233574!16s%2Fg%2F11vz016z6s!19sChIJ22Lrx2thLRURMawEf0UG9gw?authuser=0&hl=tr&rclk=1",
    "website_url": "",
    "rating_text": "5,0",
    "stars": null,
    "number_of_reviews": null,
    "price_level": "",
    "open_hours": "",
    "extraction_timestamp": "2025-06-07T14:46:01.427Z",
    "source_name": "google",
    "source_query": "Irrigation Equipment",
    "source_country": "TR",
    "country": "Turkey",
    "state": "Kahramanmaraş",
    "city": "Elbistan"
  },
  {
    "source_id": "ChIJ2QKYFnNnLRUR5R5k9Ghtr90",
    "name": "Elbistan su tesisatçısı cihazla kaçak su tespit tıkanıklık açma",
    "category": "Elbistan su tesisatçısı cihazla kaçak su tespit tıkanıklık açma",
    "formatted_address": "4,0(8)",
    "phone_number": "+905365718902",
    "source_url": "https://www.google.com/maps/place/Elbistan+su+tesisat%C3%A7%C4%B1s%C4%B1+cihazla+ka%C3%A7ak+su+tespit+t%C4%B1kan%C4%B1kl%C4%B1k+a%C3%A7ma/data=!4m7!3m6!1s0x152d6773169802d9:0xddaf6d68f4641ee5!8m2!3d38.2025976!4d37.1888919!16s%2Fg%2F11shlgblm4!19sChIJ2QKYFnNnLRUR5R5k9Ghtr90?authuser=0&hl=tr&rclk=1",
    "website_url": "",
    "rating_text": "4,0",
    "stars": null,
    "number_of_reviews": null,
    "price_level": "",
    "open_hours": "",
    "extraction_timestamp": "2025-06-07T14:46:01.428Z",
    "source_name": "google",
    "source_query": "Irrigation Equipment",
    "source_country": "TR",
    "country": "Turkey",
    "state": "Kahramanmaraş",
    "city": "Elbistan"
  },
  {
    "source_id": "ChIJb_j2m-5mLRURcAWBFcAhCxw",
    "name": "Eldas Mühendislik Elbistan, Elbistan Su arıtma cihazı",
    "category": "Eldas Mühendislik Elbistan, Elbistan Su arıtma cihazı",
    "formatted_address": "Eldas Mühendislik Elbistan, Elbistan Su arıtma cihazı",
    "phone_number": "+905536574646",
    "source_url": "https://www.google.com/maps/place/Eldas+M%C3%BChendislik+Elbistan,+Elbistan+Su+ar%C4%B1tma+cihaz%C4%B1/data=!4m7!3m6!1s0x152d66ee9bf6f86f:0x1c0b21c015810570!8m2!3d38.2003671!4d37.1997463!16s%2Fg%2F11hcflhghz!19sChIJb_j2m-5mLRURcAWBFcAhCxw?authuser=0&hl=tr&rclk=1",
    "website_url": "",
    "rating_text": "4,2",
    "stars": null,
    "number_of_reviews": null,
    "price_level": "",
    "open_hours": "",
    "extraction_timestamp": "2025-06-07T14:46:01.428Z",
    "source_name": "google",
    "source_query": "Irrigation Equipment",
    "source_country": "TR",
    "country": "Turkey",
    "state": "Kahramanmaraş",
    "city": "Elbistan"
  },
  {
    "source_id": "ChIJecRRaMJmLRURT5gfkOXsaW0",
    "name": "Çınar Mağazası",
    "category": "Çınar Mağazası",
    "formatted_address": "5,0(70)",
    "phone_number": "+905053534463",
    "source_url": "https://www.google.com/maps/place/%C3%87%C4%B1nar+Ma%C4%9Fazas%C4%B1/data=!4m7!3m6!1s0x152d66c26851c479:0x6d69ece5901f984f!8m2!3d38.2027808!4d37.1892648!16s%2Fg%2F11fy_dbycj!19sChIJecRRaMJmLRURT5gfkOXsaW0?authuser=0&hl=tr&rclk=1",
    "website_url": "",
    "rating_text": "5,0",
    "stars": null,
    "number_of_reviews": null,
    "price_level": "",
    "open_hours": "",
    "extraction_timestamp": "2025-06-07T14:46:01.429Z",
    "source_name": "google",
    "source_query": "Irrigation Equipment",
    "source_country": "TR",
    "country": "Turkey",
    "state": "Kahramanmaraş",
    "city": "Elbistan"
  },
  {
    "source_id": "ChIJLcdFgrNnLRURipQHFLa_Ffk",
    "name": "DEMİR ISI",
    "category": "DEMİR ISI",
    "formatted_address": "5,0(20)",
    "phone_number": "+905541241846",
    "source_url": "https://www.google.com/maps/place/DEM%C4%B0R+ISI/data=!4m7!3m6!1s0x152d67b38245c72d:0xf915bfb61407948a!8m2!3d38.2004744!4d37.1849052!16s%2Fg%2F11fr2yv2j7!19sChIJLcdFgrNnLRURipQHFLa_Ffk?authuser=0&hl=tr&rclk=1",
    "website_url": "",
    "rating_text": "5,0",
    "stars": null,
    "number_of_reviews": null,
    "price_level": "",
    "open_hours": "",
    "extraction_timestamp": "2025-06-07T14:46:01.429Z",
    "source_name": "google",
    "source_query": "Irrigation Equipment",
    "source_country": "TR",
    "country": "Turkey",
    "state": "Kahramanmaraş",
    "city": "Elbistan"
  },
  {
    "source_id": "ChIJg5sbzStnLRURA8yxdOBtCUA",
    "name": "Depdep Ticaret Su",
    "category": "Depdep Ticaret Su",
    "formatted_address": "5,0(2)",
    "phone_number": "",
    "source_url": "https://www.google.com/maps/place/Depdep+Ticaret+Su/data=!4m7!3m6!1s0x152d672bcd1b9b83:0x40096de074b1cc03!8m2!3d38.1871617!4d37.1988495!16s%2Fg%2F11j4n8djvq!19sChIJg5sbzStnLRURA8yxdOBtCUA?authuser=0&hl=tr&rclk=1",
    "website_url": "",
    "rating_text": "5,0",
    "stars": null,
    "number_of_reviews": null,
    "price_level": "",
    "open_hours": "",
    "extraction_timestamp": "2025-06-07T14:46:01.430Z",
    "source_name": "google",
    "source_query": "Irrigation Equipment",
    "source_country": "TR",
    "country": "Turkey",
    "state": "Kahramanmaraş",
    "city": "Elbistan"
  },
  {
    "source_id": "ChIJacrLtulmLRURJWB6hF8qhBE",
    "name": "Aslan Isı Ticaret",
    "category": "Aslan Isı Ticaret",
    "formatted_address": "1,0(1)",
    "phone_number": "",
    "source_url": "https://www.google.com/maps/place/Aslan+Is%C4%B1+Ticaret/data=!4m7!3m6!1s0x152d66e9b6cbca69:0x11842a5f847a6025!8m2!3d38.2028163!4d37.1887012!16s%2Fg%2F11c1s0m2d0!19sChIJacrLtulmLRURJWB6hF8qhBE?authuser=0&hl=tr&rclk=1",
    "website_url": "",
    "rating_text": "1,0",
    "stars": null,
    "number_of_reviews": null,
    "price_level": "",
    "open_hours": "",
    "extraction_timestamp": "2025-06-07T14:46:01.430Z",
    "source_name": "google",
    "source_query": "Irrigation Equipment",
    "source_country": "TR",
    "country": "Turkey",
    "state": "Kahramanmaraş",
    "city": "Elbistan"
  },
  {
    "source_id": "ChIJZYe1W3VnLRUR0vuwXcsLn8c",
    "name": "BİLGİN ISI SU ARITMA SİSTEMLERİ BAKIM VE SATIŞ NOKTASI",
    "category": "BİLGİN ISI SU ARITMA SİSTEMLERİ BAKIM VE SATIŞ NOKTASI",
    "formatted_address": "5,0(6)",
    "phone_number": "+905424109931",
    "source_url": "https://www.google.com/maps/place/B%C4%B0LG%C4%B0N+ISI+SU+ARITMA+S%C4%B0STEMLER%C4%B0+BAKIM+VE+SATI%C5%9E+NOKTASI/data=!4m7!3m6!1s0x152d67755bb58765:0xc79f0bcb5db0fbd2!8m2!3d38.2029396!4d37.1944668!16s%2Fg%2F11h045sr8n!19sChIJZYe1W3VnLRUR0vuwXcsLn8c?authuser=0&hl=tr&rclk=1",
    "website_url": "",
    "rating_text": "5,0",
    "stars": null,
    "number_of_reviews": null,
    "price_level": "",
    "open_hours": "",
    "extraction_timestamp": "2025-06-07T14:46:01.430Z",
    "source_name": "google",
    "source_query": "Irrigation Equipment",
    "source_country": "TR",
    "country": "Turkey",
    "state": "Kahramanmaraş",
    "city": "Elbistan"
  },
  {
    "source_id": "ChIJyVtsU9tmLRUR_RP6SA-ZgVA",
    "name": "El-Su Yapi Market",
    "category": "El-Su Yapi Market",
    "formatted_address": "5,0(2)",
    "phone_number": "+903444131049",
    "source_url": "https://www.google.com/maps/place/El-Su+Yapi+Market/data=!4m7!3m6!1s0x152d66db536c5bc9:0x5081990f48fa13fd!8m2!3d38.2040056!4d37.1995432!16s%2Fg%2F11c57n2st1!19sChIJyVtsU9tmLRUR_RP6SA-ZgVA?authuser=0&hl=tr&rclk=1",
    "website_url": "",
    "rating_text": "5,0",
    "stars": null,
    "number_of_reviews": null,
    "price_level": "",
    "open_hours": "",
    "extraction_timestamp": "2025-06-07T14:46:01.431Z",
    "source_name": "google",
    "source_query": "Irrigation Equipment",
    "source_country": "TR",
    "country": "Turkey",
    "state": "Kahramanmaraş",
    "city": "Elbistan"
  },
  {
    "source_id": "ChIJQcr90ZVmLRURtf4uYtywtwA",
    "name": "Elbistan Su Deposu",
    "category": "Elbistan Su Deposu",
    "formatted_address": "5,0(1)",
    "phone_number": "",
    "source_url": "https://www.google.com/maps/place/Elbistan+Su+Deposu/data=!4m7!3m6!1s0x152d6695d1fdca41:0xb7b0dc622efeb5!8m2!3d38.192603!4d37.187844!16s%2Fg%2F11b7q8lrwc!19sChIJQcr90ZVmLRURtf4uYtywtwA?authuser=0&hl=tr&rclk=1",
    "website_url": "",
    "rating_text": "5,0",
    "stars": null,
    "number_of_reviews": null,
    "price_level": "",
    "open_hours": "",
    "extraction_timestamp": "2025-06-07T14:46:01.431Z",
    "source_name": "google",
    "source_query": "Irrigation Equipment",
    "source_country": "TR",
    "country": "Turkey",
    "state": "Kahramanmaraş",
    "city": "Elbistan"
  },
  {
    "source_id": "ChIJI8DGqrtnLRURtHBNi2VOv7k",
    "name": "İhlas Pazarlama Elbistan",
    "category": "İhlas Pazarlama Elbistan",
    "formatted_address": "1,0(2)",
    "phone_number": "+903445036688",
    "source_url": "https://www.google.com/maps/place/%C4%B0hlas+Pazarlama+Elbistan/data=!4m7!3m6!1s0x152d67bbaac6c023:0xb9bf4e658b4d70b4!8m2!3d38.2000395!4d37.194145!16s%2Fg%2F11tnm04dyd!19sChIJI8DGqrtnLRURtHBNi2VOv7k?authuser=0&hl=tr&rclk=1",
    "website_url": "",
    "rating_text": "1,0",
    "stars": null,
    "number_of_reviews": null,
    "price_level": "",
    "open_hours": "",
    "extraction_timestamp": "2025-06-07T14:46:01.431Z",
    "source_name": "google",
    "source_query": "Irrigation Equipment",
    "source_country": "TR",
    "country": "Turkey",
    "state": "Kahramanmaraş",
    "city": "Elbistan"
  },
  {
    "source_id": "ChIJ-66XM6tnLRUR5oQCv2Mige4",
    "name": "BUDAKOĞLU YAPI MARKET",
    "category": "BUDAKOĞLU YAPI MARKET",
    "formatted_address": "2,7(16)",
    "phone_number": "+905012347446",
    "source_url": "https://www.google.com/maps/place/BUDAKO%C4%9ELU+YAPI+MARKET/data=!4m7!3m6!1s0x152d67ab3397aefb:0xee812263bf0284e6!8m2!3d38.207867!4d37.1727304!16s%2Fg%2F11rtlbcbv9!19sChIJ-66XM6tnLRUR5oQCv2Mige4?authuser=0&hl=tr&rclk=1",
    "website_url": "",
    "rating_text": "2,7",
    "stars": null,
    "number_of_reviews": null,
    "price_level": "",
    "open_hours": "",
    "extraction_timestamp": "2025-06-07T14:46:01.432Z",
    "source_name": "google",
    "source_query": "Irrigation Equipment",
    "source_country": "TR",
    "country": "Turkey",
    "state": "Kahramanmaraş",
    "city": "Elbistan"
  },
  {
    "source_id": "ChIJM0NWaMJmLRURXraMQTaBpjU",
    "name": "İhlas Mağazası",
    "category": "İhlas Mağazası",
    "formatted_address": "5,0(2)",
    "phone_number": "",
    "source_url": "https://www.google.com/maps/place/%C4%B0hlas+Ma%C4%9Fazas%C4%B1/data=!4m7!3m6!1s0x152d66c268564333:0x35a68136418cb65e!8m2!3d38.2028131!4d37.1892182!16s%2Fg%2F11b7q4mrr1!19sChIJM0NWaMJmLRURXraMQTaBpjU?authuser=0&hl=tr&rclk=1",
    "website_url": "",
    "rating_text": "5,0",
    "stars": null,
    "number_of_reviews": null,
    "price_level": "",
    "open_hours": "",
    "extraction_timestamp": "2025-06-07T14:46:01.433Z",
    "source_name": "google",
    "source_query": "Irrigation Equipment",
    "source_country": "TR",
    "country": "Turkey",
    "state": "Kahramanmaraş",
    "city": "Elbistan"
  },
  {
    "source_id": "ChIJrQ1dlqpnLRURP67IHrJklNs",
    "name": "Hanifi yazıcı",
    "category": "Hanifi yazıcı",
    "formatted_address": "5,0(1)",
    "phone_number": "",
    "source_url": "https://www.google.com/maps/place/Hanifi+yaz%C4%B1c%C4%B1/data=!4m7!3m6!1s0x152d67aa965d0dad:0xdb9464b21ec8ae3f!8m2!3d38.2018566!4d37.1920533!16s%2Fg%2F11g1y18ky1!19sChIJrQ1dlqpnLRURP67IHrJklNs?authuser=0&hl=tr&rclk=1",
    "website_url": "",
    "rating_text": "5,0",
    "stars": null,
    "number_of_reviews": null,
    "price_level": "",
    "open_hours": "",
    "extraction_timestamp": "2025-06-07T14:46:01.433Z",
    "source_name": "google",
    "source_query": "Irrigation Equipment",
    "source_country": "TR",
    "country": "Turkey",
    "state": "Kahramanmaraş",
    "city": "Elbistan"
  },
  {
    "source_id": "ChIJ8-YaYcJmLRURzOlIO8xdfsI",
    "name": "KEÇEBİR DTM BOSCH BAYİİ",
    "category": "KEÇEBİR DTM BOSCH BAYİİ",
    "formatted_address": "4,1(16)",
    "phone_number": "+903444130642",
    "source_url": "https://www.google.com/maps/place/KE%C3%87EB%C4%B0R+DTM+BOSCH+BAY%C4%B0%C4%B0/data=!4m7!3m6!1s0x152d66c2611ae6f3:0xc27e5dcc3b48e9cc!8m2!3d38.2015861!4d37.1915943!16s%2Fg%2F11h0z31l9!19sChIJ8-YaYcJmLRURzOlIO8xdfsI?authuser=0&hl=tr&rclk=1",
    "website_url": "",
    "rating_text": "4,1",
    "stars": null,
    "number_of_reviews": null,
    "price_level": "",
    "open_hours": "",
    "extraction_timestamp": "2025-06-07T14:46:01.434Z",
    "source_name": "google",
    "source_query": "Irrigation Equipment",
    "source_country": "TR",
    "country": "Turkey",
    "state": "Kahramanmaraş",
    "city": "Elbistan"
  },
  {
    "source_id": "ChIJwfw22sNmLRURKt1tXnG4nWE",
    "name": "SEZER TİCARET",
    "category": "SEZER TİCARET",
    "formatted_address": "4,4(37)",
    "phone_number": "+903444131430",
    "source_url": "https://www.google.com/maps/place/SEZER+T%C4%B0CARET/data=!4m7!3m6!1s0x152d66c3da36fcc1:0x619db8715e6ddd2a!8m2!3d38.1995931!4d37.1935841!16s%2Fg%2F11b7q8_82s!19sChIJwfw22sNmLRURKt1tXnG4nWE?authuser=0&hl=tr&rclk=1",
    "website_url": "",
    "rating_text": "4,4",
    "stars": null,
    "number_of_reviews": null,
    "price_level": "",
    "open_hours": "",
    "extraction_timestamp": "2025-06-07T14:46:01.434Z",
    "source_name": "google",
    "source_query": "Irrigation Equipment",
    "source_country": "TR",
    "country": "Turkey",
    "state": "Kahramanmaraş",
    "city": "Elbistan"
  },
  {
    "source_id": "ChIJMSoCPeVmLRURL4V6hhFyws0",
    "name": "Elbistan Kuş & Balık Evi",
    "category": "Elbistan Kuş & Balık Evi",
    "formatted_address": "4,5(45)",
    "phone_number": "",
    "source_url": "https://www.google.com/maps/place/Elbistan+Ku%C5%9F+%26+Bal%C4%B1k+Evi/data=!4m7!3m6!1s0x152d66e53d022a31:0xcdc27211867a852f!8m2!3d38.199094!4d37.1918489!16s%2Fg%2F11g6mwhy64!19sChIJMSoCPeVmLRURL4V6hhFyws0?authuser=0&hl=tr&rclk=1",
    "website_url": "",
    "rating_text": "4,5",
    "stars": null,
    "number_of_reviews": null,
    "price_level": "",
    "open_hours": "",
    "extraction_timestamp": "2025-06-07T14:46:01.435Z",
    "source_name": "google",
    "source_query": "Irrigation Equipment",
    "source_country": "TR",
    "country": "Turkey",
    "state": "Kahramanmaraş",
    "city": "Elbistan"
  },
  {
    "source_id": "ChIJP1tzZ7ZnLRURaU60bjK5pBQ",
    "name": "Sefa Gross",
    "category": "Sefa Gross",
    "formatted_address": "3,6(50)",
    "phone_number": "",
    "source_url": "https://www.google.com/maps/place/Sefa+Gross/data=!4m7!3m6!1s0x152d67b667735b3f:0x14a4b9326eb44e69!8m2!3d38.1749841!4d37.2059479!16s%2Fg%2F11r3wh4wdh!19sChIJP1tzZ7ZnLRURaU60bjK5pBQ?authuser=0&hl=tr&rclk=1",
    "website_url": "",
    "rating_text": "3,6",
    "stars": null,
    "number_of_reviews": null,
    "price_level": "",
    "open_hours": "",
    "extraction_timestamp": "2025-06-07T14:46:01.435Z",
    "source_name": "google",
    "source_query": "Irrigation Equipment",
    "source_country": "TR",
    "country": "Turkey",
    "state": "Kahramanmaraş",
    "city": "Elbistan"
  },
  {
    "source_id": "ChIJzQL7lutmLRURhffQjQ8t_NE",
    "name": "Elbistan Uğur Elektrik Sondaj Mak.İnş.Tar.Ürün.San. Ve .Tic.Ltd.Şti.",
    "category": "Elbistan Uğur Elektrik Sondaj Mak.İnş.Tar.Ürün.San. Ve .Tic.Ltd.Şti.",
    "formatted_address": "4,8(23)",
    "phone_number": "+903444136935",
    "source_url": "https://www.google.com/maps/place/Elbistan+U%C4%9Fur+Elektrik+Sondaj+Mak.%C4%B0n%C5%9F.Tar.%C3%9Cr%C3%BCn.San.+Ve+.Tic.Ltd.%C5%9Eti./data=!4m7!3m6!1s0x152d66eb96fb02cd:0xd1fc2d0f8dd0f785!8m2!3d38.2030706!4d37.1248364!16s%2Fg%2F11c3k2v5nj!19sChIJzQL7lutmLRURhffQjQ8t_NE?authuser=0&hl=tr&rclk=1",
    "website_url": "",
    "rating_text": "4,8",
    "stars": null,
    "number_of_reviews": null,
    "price_level": "",
    "open_hours": "",
    "extraction_timestamp": "2025-06-07T14:46:01.435Z",
    "source_name": "google",
    "source_query": "Irrigation Equipment",
    "source_country": "TR",
    "country": "Turkey",
    "state": "Kahramanmaraş",
    "city": "Elbistan"
  },
  {
    "source_id": "ChIJs5y1y8NmLRUR7si8rFSFyic",
    "name": "Öz Yıldırımlar",
    "category": "Öz Yıldırımlar",
    "formatted_address": "5,0(2)",
    "phone_number": "+903444120065",
    "source_url": "https://www.google.com/maps/place/%C3%96z+Y%C4%B1ld%C4%B1r%C4%B1mlar/data=!4m7!3m6!1s0x152d66c3cbb59cb3:0x27ca8554acbcc8ee!8m2!3d38.2002486!4d37.1931798!16s%2Fg%2F1ptxn77x1!19sChIJs5y1y8NmLRUR7si8rFSFyic?authuser=0&hl=tr&rclk=1",
    "website_url": "",
    "rating_text": "5,0",
    "stars": null,
    "number_of_reviews": null,
    "price_level": "",
    "open_hours": "",
    "extraction_timestamp": "2025-06-07T14:46:01.436Z",
    "source_name": "google",
    "source_query": "Irrigation Equipment",
    "source_country": "TR",
    "country": "Turkey",
    "state": "Kahramanmaraş",
    "city": "Elbistan"
  },
  {
    "source_id": "ChIJR41OD31nLRURAuKmXeaus9E",
    "name": "Admin internet kafe",
    "category": "Admin internet kafe",
    "formatted_address": "4,6(39)",
    "phone_number": "+905444684644",
    "source_url": "https://www.google.com/maps/place/Admin+internet+kafe/data=!4m7!3m6!1s0x152d677d0f4e8d47:0xd1b3aee65da6e202!8m2!3d38.2015445!4d37.1943932!16s%2Fg%2F11j9czv9mz!19sChIJR41OD31nLRURAuKmXeaus9E?authuser=0&hl=tr&rclk=1",
    "website_url": "",
    "rating_text": "4,6",
    "stars": null,
    "number_of_reviews": null,
    "price_level": "",
    "open_hours": "",
    "extraction_timestamp": "2025-06-07T14:46:01.436Z",
    "source_name": "google",
    "source_query": "Irrigation Equipment",
    "source_country": "TR",
    "country": "Turkey",
    "state": "Kahramanmaraş",
    "city": "Elbistan"
  },
  {
    "source_id": "ChIJpVVH_ltnLRURPnapvpUEEsM",
    "name": "Migros M",
    "category": "Migros M",
    "formatted_address": "4,1(17)",
    "phone_number": "",
    "source_url": "https://www.google.com/maps/place/Migros+M/data=!4m7!3m6!1s0x152d675bfe4755a5:0xc3120495bea9763e!8m2!3d38.1987586!4d37.1862397!16s%2Fg%2F11v9slsgdj!19sChIJpVVH_ltnLRURPnapvpUEEsM?authuser=0&hl=tr&rclk=1",
    "website_url": "",
    "rating_text": "4,1",
    "stars": null,
    "number_of_reviews": null,
    "price_level": "",
    "open_hours": "",
    "extraction_timestamp": "2025-06-07T14:46:01.436Z",
    "source_name": "google",
    "source_query": "Irrigation Equipment",
    "source_country": "TR",
    "country": "Turkey",
    "state": "Kahramanmaraş",
    "city": "Elbistan"
  },
  {
    "source_id": "ChIJ_6zwZMJmLRURmufa7FM8_M4",
    "name": "Bosch-kral Kardeşler",
    "category": "Bosch-kral Kardeşler",
    "formatted_address": "5,0(4)",
    "phone_number": "",
    "source_url": "https://www.google.com/maps/place/Bosch-kral+Karde%C5%9Fler/data=!4m7!3m6!1s0x152d66c264f0acff:0xcefc3c53ecdae79a!8m2!3d38.2020084!4d37.1910314!16s%2Fg%2F11b7p_mvm4!19sChIJ_6zwZMJmLRURmufa7FM8_M4?authuser=0&hl=tr&rclk=1",
    "website_url": "",
    "rating_text": "5,0",
    "stars": null,
    "number_of_reviews": null,
    "price_level": "",
    "open_hours": "",
    "extraction_timestamp": "2025-06-07T14:46:01.437Z",
    "source_name": "google",
    "source_query": "Irrigation Equipment",
    "source_country": "TR",
    "country": "Turkey",
    "state": "Kahramanmaraş",
    "city": "Elbistan"
  },
  {
    "source_id": "ChIJkyuKP75nLRURfO1TV31SwCc",
    "name": "Kılıçlar ısı",
    "category": "Kılıçlar ısı",
    "formatted_address": "",
    "phone_number": "+905442285821",
    "source_url": "https://www.google.com/maps/place/K%C4%B1l%C4%B1%C3%A7lar+%C4%B1s%C4%B1/data=!4m7!3m6!1s0x152d67be3f8a2b93:0x27c0527d5753ed7c!8m2!3d38.1999009!4d37.186958!16s%2Fg%2F11vt75sfm4!19sChIJkyuKP75nLRURfO1TV31SwCc?authuser=0&hl=tr&rclk=1",
    "website_url": "",
    "rating_text": "",
    "stars": null,
    "number_of_reviews": null,
    "price_level": "",
    "open_hours": "",
    "extraction_timestamp": "2025-06-07T14:46:01.437Z",
    "source_name": "google",
    "source_query": "Irrigation Equipment",
    "source_country": "TR",
    "country": "Turkey",
    "state": "Kahramanmaraş",
    "city": "Elbistan"
  },
  {
    "source_id": "ChIJeykU_9tmLRURt3tleczfg9c",
    "name": "Otogar Market",
    "category": "Otogar Market",
    "formatted_address": "3,5(20)",
    "phone_number": "",
    "source_url": "https://www.google.com/maps/place/Otogar+Market/data=!4m7!3m6!1s0x152d66dbff14297b:0xd783dfcc79657bb7!8m2!3d38.2072357!4d37.1956214!16s%2Fg%2F11c0xr0cv2!19sChIJeykU_9tmLRURt3tleczfg9c?authuser=0&hl=tr&rclk=1",
    "website_url": "",
    "rating_text": "3,5",
    "stars": null,
    "number_of_reviews": null,
    "price_level": "",
    "open_hours": "",
    "extraction_timestamp": "2025-06-07T14:46:01.437Z",
    "source_name": "google",
    "source_query": "Irrigation Equipment",
    "source_country": "TR",
    "country": "Turkey",
    "state": "Kahramanmaraş",
    "city": "Elbistan"
  },
  {
    "source_id": "ChIJpbHZx-hmLRURyMewa4zp2aQ",
    "name": "Açık Pazar Alanı",
    "category": "Açık Pazar Alanı",
    "formatted_address": "3,8(685)",
    "phone_number": "+905432568626",
    "source_url": "https://www.google.com/maps/place/A%C3%A7%C4%B1k+Pazar+Alan%C4%B1/data=!4m7!3m6!1s0x152d66e8c7d9b1a5:0xa4d9e98c6bb0c7c8!8m2!3d38.2049948!4d37.1853373!16s%2Fg%2F1th96zs9!19sChIJpbHZx-hmLRURyMewa4zp2aQ?authuser=0&hl=tr&rclk=1",
    "website_url": "",
    "rating_text": "3,8",
    "stars": null,
    "number_of_reviews": null,
    "price_level": "",
    "open_hours": "",
    "extraction_timestamp": "2025-06-07T14:46:01.438Z",
    "source_name": "google",
    "source_query": "Irrigation Equipment",
    "source_country": "TR",
    "country": "Turkey",
    "state": "Kahramanmaraş",
    "city": "Elbistan"
  },
  {
    "source_id": "ChIJ-f___7TFYkARMdSP8Iypd3Q",
    "name": "CarrefourSA",
    "category": "CarrefourSA",
    "formatted_address": "3,7(78)",
    "phone_number": "+904441000",
    "source_url": "https://www.google.com/maps/place/CarrefourSA/data=!4m7!3m6!1s0x4062c5b4fffffff9:0x7477a98cf08fd431!8m2!3d38.1981555!4d37.2080131!16s%2Fg%2F11hbprjl8h!19sChIJ-f___7TFYkARMdSP8Iypd3Q?authuser=0&hl=tr&rclk=1",
    "website_url": "",
    "rating_text": "3,7",
    "stars": null,
    "number_of_reviews": null,
    "price_level": "",
    "open_hours": "",
    "extraction_timestamp": "2025-06-07T14:46:01.438Z",
    "source_name": "google",
    "source_query": "Irrigation Equipment",
    "source_country": "TR",
    "country": "Turkey",
    "state": "Kahramanmaraş",
    "city": "Elbistan"
  },
  {
    "source_id": "ChIJ-zh9CsJmLRURPfBU1anovlo",
    "name": "Profilo Güneşli Bayi Elbistan Pak Kimya",
    "category": "Profilo Güneşli Bayi Elbistan Pak Kimya",
    "formatted_address": "3,0(5)",
    "phone_number": "+903444151166",
    "source_url": "https://www.google.com/maps/place/Profilo+G%C3%BCne%C5%9Fli+Bayi+Elbistan+Pak+Kimya/data=!4m7!3m6!1s0x152d66c20a7d38fb:0x5abee8a9d554f03d!8m2!3d38.2012238!4d37.1901403!16s%2Fg%2F11h1p7m24!19sChIJ-zh9CsJmLRURPfBU1anovlo?authuser=0&hl=tr&rclk=1",
    "website_url": "",
    "rating_text": "3,0",
    "stars": null,
    "number_of_reviews": null,
    "price_level": "",
    "open_hours": "",
    "extraction_timestamp": "2025-06-07T14:46:01.439Z",
    "source_name": "google",
    "source_query": "Irrigation Equipment",
    "source_country": "TR",
    "country": "Turkey",
    "state": "Kahramanmaraş",
    "city": "Elbistan"
  },
  {
    "source_id": "ChIJT1vMDYLJKBUR_qzsT1sql8k",
    "name": "Aslantaş Yapı Tarim",
    "category": "Aslantaş Yapı Tarim",
    "formatted_address": "4,8(30)",
    "phone_number": "+905522679033",
    "source_url": "https://www.google.com/maps/place/Aslanta%C5%9F+Yap%C4%B1+Tarim/data=!4m7!3m6!1s0x1528c9820dcc5b4f:0xc9972a5b4fecacfe!8m2!3d37.0907577!4d36.2496244!16s%2Fg%2F11ny32v6gf!19sChIJT1vMDYLJKBUR_qzsT1sql8k?authuser=0&hl=tr&rclk=1",
    "website_url": "",
    "rating_text": "4,8",
    "stars": null,
    "number_of_reviews": null,
    "price_level": "",
    "open_hours": "",
    "extraction_timestamp": "2025-06-08T03:23:54.768Z",
    "source_name": "google",
    "source_query": "Irrigation Equipment",
    "source_country": "TR",
    "country": "Turkey",
    "state": "Osmaniye",
    "city": "Merkez"
  },
  {
    "source_id": "ChIJ1_uGgQMhLxURsc9pLT-x5bI",
    "name": "Akdeniz Hidrafor Sistemleri",
    "category": "Akdeniz Hidrafor Sistemleri",
    "formatted_address": "4,8(22)",
    "phone_number": "+905432701978",
    "source_url": "https://www.google.com/maps/place/Akdeniz+Hidrafor+Sistemleri/data=!4m7!3m6!1s0x152f21038186fbd7:0xb2e5b13f2d69cfb1!8m2!3d37.0699829!4d36.2472484!16s%2Fg%2F11rhqm34kh!19sChIJ1_uGgQMhLxURsc9pLT-x5bI?authuser=0&hl=tr&rclk=1",
    "website_url": "",
    "rating_text": "4,8",
    "stars": null,
    "number_of_reviews": null,
    "price_level": "",
    "open_hours": "",
    "extraction_timestamp": "2025-06-08T03:23:54.770Z",
    "source_name": "google",
    "source_query": "Irrigation Equipment",
    "source_country": "TR",
    "country": "Turkey",
    "state": "Osmaniye",
    "city": "Merkez"
  },
  {
    "source_id": "ChIJEauk4ikhLxUR9K3dAnrIpb4",
    "name": "MS HİDRAFOR SİSTEMLERİ ELEKTRİK SU",
    "category": "MS HİDRAFOR SİSTEMLERİ ELEKTRİK SU",
    "formatted_address": "5,0(4)",
    "phone_number": "+905466718182",
    "source_url": "https://www.google.com/maps/place/MS+H%C4%B0DRAFOR+S%C4%B0STEMLER%C4%B0+ELEKTR%C4%B0K+SU/data=!4m7!3m6!1s0x152f2129e2a4ab11:0xbea5c87a02ddadf4!8m2!3d37.0590968!4d36.2482775!16s%2Fg%2F11wpl3sn6f!19sChIJEauk4ikhLxUR9K3dAnrIpb4?authuser=0&hl=tr&rclk=1",
    "website_url": "",
    "rating_text": "5,0",
    "stars": null,
    "number_of_reviews": null,
    "price_level": "",
    "open_hours": "",
    "extraction_timestamp": "2025-06-08T03:23:54.772Z",
    "source_name": "google",
    "source_query": "Irrigation Equipment",
    "source_country": "TR",
    "country": "Turkey",
    "state": "Osmaniye",
    "city": "Merkez"
  },
  {
    "source_id": "ChIJAe_Byk0hLxURqoo0ifH_Dxg",
    "name": "OSMANİYE Şehir Hidrofor",
    "category": "OSMANİYE Şehir Hidrofor",
    "formatted_address": "5,0(8)",
    "phone_number": "+905350316145",
    "source_url": "https://www.google.com/maps/place/OSMAN%C4%B0YE+%C5%9Eehir+Hidrofor/data=!4m7!3m6!1s0x152f214dcac1ef01:0x180ffff189348aaa!8m2!3d37.0819518!4d36.2521762!16s%2Fg%2F11v6fg5zsn!19sChIJAe_Byk0hLxURqoo0ifH_Dxg?authuser=0&hl=tr&rclk=1",
    "website_url": "",
    "rating_text": "5,0",
    "stars": null,
    "number_of_reviews": null,
    "price_level": "",
    "open_hours": "",
    "extraction_timestamp": "2025-06-08T03:23:54.774Z",
    "source_name": "google",
    "source_query": "Irrigation Equipment",
    "source_country": "TR",
    "country": "Turkey",
    "state": "Osmaniye",
    "city": "Merkez"
  },
  {
    "source_id": "ChIJrQE-f9IhLxURbF8QtzIEuf4",
    "name": "ŞEKERLER SU TESİSAT",
    "category": "ŞEKERLER SU TESİSAT",
    "formatted_address": "4,7(42)",
    "phone_number": "+905442722658",
    "source_url": "https://www.google.com/maps/place/%C5%9EEKERLER+SU+TES%C4%B0SAT/data=!4m7!3m6!1s0x152f21d27f3e01ad:0xfeb90432b7105f6c!8m2!3d37.0747122!4d36.2531572!16s%2Fg%2F11p12w16_z!19sChIJrQE-f9IhLxURbF8QtzIEuf4?authuser=0&hl=tr&rclk=1",
    "website_url": "",
    "rating_text": "4,7",
    "stars": null,
    "number_of_reviews": null,
    "price_level": "",
    "open_hours": "",
    "extraction_timestamp": "2025-06-08T03:23:54.775Z",
    "source_name": "google",
    "source_query": "Irrigation Equipment",
    "source_country": "TR",
    "country": "Turkey",
    "state": "Osmaniye",
    "city": "Merkez"
  },
  {
    "source_id": "ChIJ5YgonKghLxURfevEbkGeHrE",
    "name": "Osmaniye Su Arıtma Dünyası (Akdeniz Su Arıtma)",
    "category": "Osmaniye Su Arıtma Dünyası (Akdeniz Su Arıtma)",
    "formatted_address": "5,0(25)",
    "phone_number": "+905425062340",
    "source_url": "https://www.google.com/maps/place/Osmaniye+Su+Ar%C4%B1tma+D%C3%BCnyas%C4%B1+%28Akdeniz+Su+Ar%C4%B1tma%29/data=!4m7!3m6!1s0x152f21a89c2888e5:0xb11e9e416ec4eb7d!8m2!3d37.0623714!4d36.2477027!16s%2Fg%2F11hzpjws4d!19sChIJ5YgonKghLxURfevEbkGeHrE?authuser=0&hl=tr&rclk=1",
    "website_url": "",
    "rating_text": "5,0",
    "stars": null,
    "number_of_reviews": null,
    "price_level": "",
    "open_hours": "",
    "extraction_timestamp": "2025-06-08T03:23:54.778Z",
    "source_name": "google",
    "source_query": "Irrigation Equipment",
    "source_country": "TR",
    "country": "Turkey",
    "state": "Osmaniye",
    "city": "Merkez"
  },
  {
    "source_id": "ChIJUaLqyLohLxURL8bd4v8XgsI",
    "name": "YILDIRIM SUTESİSAT",
    "category": "YILDIRIM SUTESİSAT",
    "formatted_address": "4,9(82)",
    "phone_number": "+905435184542",
    "source_url": "https://www.google.com/maps/place/YILDIRIM+SUTES%C4%B0SAT/data=!4m7!3m6!1s0x152f21bac8eaa251:0xc28217ffe2ddc62f!8m2!3d37.0731466!4d36.2361885!16s%2Fg%2F11s21p6n26!19sChIJUaLqyLohLxURL8bd4v8XgsI?authuser=0&hl=tr&rclk=1",
    "website_url": "",
    "rating_text": "4,9",
    "stars": null,
    "number_of_reviews": null,
    "price_level": "",
    "open_hours": "",
    "extraction_timestamp": "2025-06-08T03:23:54.780Z",
    "source_name": "google",
    "source_query": "Irrigation Equipment",
    "source_country": "TR",
    "country": "Turkey",
    "state": "Osmaniye",
    "city": "Merkez"
  },
  {
    "source_id": "ChIJxbC4W4shLxURELnGFou1RUo",
    "name": "Eren Makina Teknik Hırdavat ve Yapı Market",
    "category": "Eren Makina Teknik Hırdavat ve Yapı Market",
    "formatted_address": "4,5(26)",
    "phone_number": "+903288132287",
    "source_url": "https://www.google.com/maps/place/Eren+Makina+Teknik+H%C4%B1rdavat+ve+Yap%C4%B1+Market/data=!4m7!3m6!1s0x152f218b5bb8b0c5:0x4a45b58b16c6b910!8m2!3d37.0703459!4d36.2377097!16s%2Fg%2F11fhklp4hj!19sChIJxbC4W4shLxURELnGFou1RUo?authuser=0&hl=tr&rclk=1",
    "website_url": "",
    "rating_text": "4,5",
    "stars": null,
    "number_of_reviews": null,
    "price_level": "",
    "open_hours": "",
    "extraction_timestamp": "2025-06-08T03:23:54.816Z",
    "source_name": "google",
    "source_query": "Irrigation Equipment",
    "source_country": "TR",
    "country": "Turkey",
    "state": "Osmaniye",
    "city": "Merkez"
  },
  {
    "source_id": "ChIJPQvE2tMhLxURe7fl_ERmMJs",
    "name": "Yaban hayatı",
    "category": "Yaban hayatı",
    "formatted_address": "4,6(40)",
    "phone_number": "+905447711018",
    "source_url": "https://www.google.com/maps/place/Yaban+hayat%C4%B1/data=!4m7!3m6!1s0x152f21d3dac40b3d:0x9b306644fce5b77b!8m2!3d37.0688051!4d36.255856!16s%2Fg%2F11gwmhlt2c!19sChIJPQvE2tMhLxURe7fl_ERmMJs?authuser=0&hl=tr&rclk=1",
    "website_url": "",
    "rating_text": "4,6",
    "stars": null,
    "number_of_reviews": null,
    "price_level": "",
    "open_hours": "",
    "extraction_timestamp": "2025-06-08T03:23:54.819Z",
    "source_name": "google",
    "source_query": "Irrigation Equipment",
    "source_country": "TR",
    "country": "Turkey",
    "state": "Osmaniye",
    "city": "Merkez"
  },
  {
    "source_id": "ChIJa796l_8hLxURPWwzJXWGrcM",
    "name": "ELEKTRO MÜH. OSMANİYE SONDAJ HİDROFOR DALGIÇ POMPA KORUGE",
    "category": "ELEKTRO MÜH. OSMANİYE SONDAJ HİDROFOR DALGIÇ POMPA KORUGE",
    "formatted_address": "3,4(5)",
    "phone_number": "+905334725994",
    "source_url": "https://www.google.com/maps/place/ELEKTRO+M%C3%9CH.+OSMAN%C4%B0YE+SONDAJ+H%C4%B0DROFOR+DALGI%C3%87+POMPA+KORUGE/data=!4m7!3m6!1s0x152f21ff977abf6b:0xc3ad867525336c3d!8m2!3d37.0916501!4d36.237097!16s%2Fg%2F11g2xqvb_1!19sChIJa796l_8hLxURPWwzJXWGrcM?authuser=0&hl=tr&rclk=1",
    "website_url": "",
    "rating_text": "3,4",
    "stars": null,
    "number_of_reviews": null,
    "price_level": "",
    "open_hours": "",
    "extraction_timestamp": "2025-06-08T03:23:54.821Z",
    "source_name": "google",
    "source_query": "Irrigation Equipment",
    "source_country": "TR",
    "country": "Turkey",
    "state": "Osmaniye",
    "city": "Merkez"
  },
  {
    "source_id": "ChIJg-ggxZkhLxURb4w18m5ZUOo",
    "name": "Osmaniye Demir Ticaret Elektrik Su Boya Hırdavat Çeşitleri",
    "category": "Osmaniye Demir Ticaret Elektrik Su Boya Hırdavat Çeşitleri",
    "formatted_address": "4,9(37)",
    "phone_number": "+905423454171",
    "source_url": "https://www.google.com/maps/place/Osmaniye+Demir+Ticaret+Elektrik+Su+Boya+H%C4%B1rdavat+%C3%87e%C5%9Fitleri/data=!4m7!3m6!1s0x152f2199c520e883:0xea50596ef2358c6f!8m2!3d37.0652237!4d36.2618995!16s%2Fg%2F11mwgb_cfx!19sChIJg-ggxZkhLxURb4w18m5ZUOo?authuser=0&hl=tr&rclk=1",
    "website_url": "",
    "rating_text": "4,9",
    "stars": null,
    "number_of_reviews": null,
    "price_level": "",
    "open_hours": "",
    "extraction_timestamp": "2025-06-08T03:23:54.824Z",
    "source_name": "google",
    "source_query": "Irrigation Equipment",
    "source_country": "TR",
    "country": "Turkey",
    "state": "Osmaniye",
    "city": "Merkez"
  },
  {
    "source_id": "ChIJEWoVrjogLxUR_Ha9sWvRYFI",
    "name": "FİLLİ BOYA (+) - MUTLU YAPI - OSMANİYE/MERKEZ",
    "category": "FİLLİ BOYA (+) - MUTLU YAPI - OSMANİYE/MERKEZ",
    "formatted_address": "5,0(14)",
    "phone_number": "+905354460010",
    "source_url": "https://www.google.com/maps/place/F%C4%B0LL%C4%B0+BOYA+%28%2B%29+-+MUTLU+YAPI+-+OSMAN%C4%B0YE%2FMERKEZ/data=!4m7!3m6!1s0x152f203aae156a11:0x5260d16bb1bd76fc!8m2!3d37.0807354!4d36.2525937!16s%2Fg%2F1hc1j7qz5!19sChIJEWoVrjogLxUR_Ha9sWvRYFI?authuser=0&hl=tr&rclk=1",
    "website_url": "",
    "rating_text": "5,0",
    "stars": null,
    "number_of_reviews": null,
    "price_level": "",
    "open_hours": "",
    "extraction_timestamp": "2025-06-08T03:23:54.828Z",
    "source_name": "google",
    "source_query": "Irrigation Equipment",
    "source_country": "TR",
    "country": "Turkey",
    "state": "Osmaniye",
    "city": "Merkez"
  },
  {
    "source_id": "ChIJcwmZ_5QhLxUR2oO55Z8saYA",
    "name": "Usûl Mühendislik Doğalgaz",
    "category": "Usûl Mühendislik Doğalgaz",
    "formatted_address": "5,0(1)",
    "phone_number": "+905334504347",
    "source_url": "https://www.google.com/maps/place/Us%C3%BBl+M%C3%BChendislik+Do%C4%9Falgaz/data=!4m7!3m6!1s0x152f2194ff990973:0x80692c9fe5b983da!8m2!3d37.068696!4d36.2484409!16s%2Fg%2F12q4ylvtp!19sChIJcwmZ_5QhLxUR2oO55Z8saYA?authuser=0&hl=tr&rclk=1",
    "website_url": "",
    "rating_text": "5,0",
    "stars": null,
    "number_of_reviews": null,
    "price_level": "",
    "open_hours": "",
    "extraction_timestamp": "2025-06-08T03:23:54.831Z",
    "source_name": "google",
    "source_query": "Irrigation Equipment",
    "source_country": "TR",
    "country": "Turkey",
    "state": "Osmaniye",
    "city": "Merkez"
  },
  {
    "source_id": "ChIJl7HnhXIhLxURhr15-J8f8ho",
    "name": "Koçtaş Fix",
    "category": "Koçtaş Fix",
    "formatted_address": "3,9(54)",
    "phone_number": "+903288112300",
    "source_url": "https://www.google.com/maps/place/Ko%C3%A7ta%C5%9F+Fix/data=!4m7!3m6!1s0x152f217285e7b197:0x1af21f9ff879bd86!8m2!3d37.0717119!4d36.2435567!16s%2Fg%2F11rjlspxp7!19sChIJl7HnhXIhLxURhr15-J8f8ho?authuser=0&hl=tr&rclk=1",
    "website_url": "",
    "rating_text": "3,9",
    "stars": null,
    "number_of_reviews": null,
    "price_level": "",
    "open_hours": "",
    "extraction_timestamp": "2025-06-08T03:23:54.833Z",
    "source_name": "google",
    "source_query": "Irrigation Equipment",
    "source_country": "TR",
    "country": "Turkey",
    "state": "Osmaniye",
    "city": "Merkez"
  },
  {
    "source_id": "ChIJjZqPFLIhLxUR67odXLa_LYc",
    "name": "AdS SU ARITMA MÜHENDİSLİK",
    "category": "AdS SU ARITMA MÜHENDİSLİK",
    "formatted_address": "4,5(8)",
    "phone_number": "",
    "source_url": "https://www.google.com/maps/place/AdS+SU+ARITMA+M%C3%9CHEND%C4%B0SL%C4%B0K/data=!4m7!3m6!1s0x152f21b2148f9a8d:0x872dbfb65c1dbaeb!8m2!3d37.0690024!4d36.2441095!16s%2Fg%2F11fth0b6gl!19sChIJjZqPFLIhLxUR67odXLa_LYc?authuser=0&hl=tr&rclk=1",
    "website_url": "",
    "rating_text": "4,5",
    "stars": null,
    "number_of_reviews": null,
    "price_level": "",
    "open_hours": "",
    "extraction_timestamp": "2025-06-08T03:23:54.836Z",
    "source_name": "google",
    "source_query": "Irrigation Equipment",
    "source_country": "TR",
    "country": "Turkey",
    "state": "Osmaniye",
    "city": "Merkez"
  },
  {
    "source_id": "ChIJUyavshIhLxUR76XPsNC8wBI",
    "name": "Tercih Krom",
    "category": "Tercih Krom",
    "formatted_address": "5,0(2)",
    "phone_number": "+905415090099",
    "source_url": "https://www.google.com/maps/place/Tercih+Krom/data=!4m7!3m6!1s0x152f2112b2af2653:0x12c0bcd0b0cfa5ef!8m2!3d37.0588992!4d36.2349009!16s%2Fg%2F11p0z90qqm!19sChIJUyavshIhLxUR76XPsNC8wBI?authuser=0&hl=tr&rclk=1",
    "website_url": "",
    "rating_text": "5,0",
    "stars": null,
    "number_of_reviews": null,
    "price_level": "",
    "open_hours": "",
    "extraction_timestamp": "2025-06-08T03:23:54.838Z",
    "source_name": "google",
    "source_query": "Irrigation Equipment",
    "source_country": "TR",
    "country": "Turkey",
    "state": "Osmaniye",
    "city": "Merkez"
  },
  {
    "source_id": "ChIJ1RdNTL8hLxURLq1M97-T3H8",
    "name": "Onur Isı Osmaniye Güneş Enerji Sistemleri",
    "category": "Onur Isı Osmaniye Güneş Enerji Sistemleri",
    "formatted_address": "4,4(18)",
    "phone_number": "+903288148698",
    "source_url": "https://www.google.com/maps/place/Onur+Is%C4%B1+Osmaniye+G%C3%BCne%C5%9F+Enerji+Sistemleri/data=!4m7!3m6!1s0x152f21bf4c4d17d5:0x7fdc93bff74cad2e!8m2!3d37.0639887!4d36.2405642!16s%2Fg%2F11c4bpqm03!19sChIJ1RdNTL8hLxURLq1M97-T3H8?authuser=0&hl=tr&rclk=1",
    "website_url": "",
    "rating_text": "4,4",
    "stars": null,
    "number_of_reviews": null,
    "price_level": "",
    "open_hours": "",
    "extraction_timestamp": "2025-06-08T03:23:54.840Z",
    "source_name": "google",
    "source_query": "Irrigation Equipment",
    "source_country": "TR",
    "country": "Turkey",
    "state": "Osmaniye",
    "city": "Merkez"
  },
  {
    "source_id": "ChIJ6V1-W-4hLxURhnN-CZiyTo8",
    "name": "Özgün Su Arıtma",
    "category": "Özgün Su Arıtma",
    "formatted_address": "5,0(3)",
    "phone_number": "+905414307676",
    "source_url": "https://www.google.com/maps/place/%C3%96zg%C3%BCn+Su+Ar%C4%B1tma/data=!4m7!3m6!1s0x152f21ee5b7e5de9:0x8f4eb298097e7386!8m2!3d37.0752566!4d36.2510655!16s%2Fg%2F11hlctgzw2!19sChIJ6V1-W-4hLxURhnN-CZiyTo8?authuser=0&hl=tr&rclk=1",
    "website_url": "",
    "rating_text": "5,0",
    "stars": null,
    "number_of_reviews": null,
    "price_level": "",
    "open_hours": "",
    "extraction_timestamp": "2025-06-08T03:23:54.841Z",
    "source_name": "google",
    "source_query": "Irrigation Equipment",
    "source_country": "TR",
    "country": "Turkey",
    "state": "Osmaniye",
    "city": "Merkez"
  },
  {
    "source_id": "ChIJAfEow80hLxURP2_UmKimdCM",
    "name": "A-Arıtma Su Arıtma Cihazları Osmaniye",
    "category": "A-Arıtma Su Arıtma Cihazları Osmaniye",
    "formatted_address": "5,0(1)",
    "phone_number": "+903288129911",
    "source_url": "https://www.google.com/maps/place/A-Ar%C4%B1tma+Su+Ar%C4%B1tma+Cihazlar%C4%B1+Osmaniye/data=!4m7!3m6!1s0x152f21cdc328f101:0x2374a6a898d46f3f!8m2!3d37.0708182!4d36.2505992!16s%2Fg%2F11b6dg530h!19sChIJAfEow80hLxURP2_UmKimdCM?authuser=0&hl=tr&rclk=1",
    "website_url": "",
    "rating_text": "5,0",
    "stars": null,
    "number_of_reviews": null,
    "price_level": "",
    "open_hours": "",
    "extraction_timestamp": "2025-06-08T03:23:54.843Z",
    "source_name": "google",
    "source_query": "Irrigation Equipment",
    "source_country": "TR",
    "country": "Turkey",
    "state": "Osmaniye",
    "city": "Merkez"
  },
  {
    "source_id": "ChIJ1VDaf3ghLxURgVc6hFLVxXw",
    "name": "Osmaniye yangın Söndürme tüpü dolumu satışı",
    "category": "Osmaniye yangın Söndürme tüpü dolumu satışı",
    "formatted_address": "5,0(2)",
    "phone_number": "+905414641150",
    "source_url": "https://www.google.com/maps/place/Osmaniye+yang%C4%B1n+S%C3%B6nd%C3%BCrme+t%C3%BCp%C3%BC+dolumu+sat%C4%B1%C5%9F%C4%B1/data=!4m7!3m6!1s0x152f21787fda50d5:0x7cc5d552843a5781!8m2!3d37.0699124!4d36.2472742!16s%2Fg%2F11vc1bnpcz!19sChIJ1VDaf3ghLxURgVc6hFLVxXw?authuser=0&hl=tr&rclk=1",
    "website_url": "",
    "rating_text": "5,0",
    "stars": null,
    "number_of_reviews": null,
    "price_level": "",
    "open_hours": "",
    "extraction_timestamp": "2025-06-08T03:23:54.844Z",
    "source_name": "google",
    "source_query": "Irrigation Equipment",
    "source_country": "TR",
    "country": "Turkey",
    "state": "Osmaniye",
    "city": "Merkez"
  },
  {
    "source_id": "ChIJpThbBGYhLxURb3uc4fQeUAI",
    "name": "Meyna Gross Toptan Market",
    "category": "Meyna Gross Toptan Market",
    "formatted_address": "3,9(430)",
    "phone_number": "+903288141519",
    "source_url": "https://www.google.com/maps/place/Meyna+Gross+Toptan+Market/data=!4m7!3m6!1s0x152f2166045b38a5:0x2501ef4e19c7b6f!8m2!3d37.063112!4d36.202934!16s%2Fg%2F11f15cxd48!19sChIJpThbBGYhLxURb3uc4fQeUAI?authuser=0&hl=tr&rclk=1",
    "website_url": "",
    "rating_text": "3,9",
    "stars": null,
    "number_of_reviews": null,
    "price_level": "",
    "open_hours": "",
    "extraction_timestamp": "2025-06-08T03:23:54.845Z",
    "source_name": "google",
    "source_query": "Irrigation Equipment",
    "source_country": "TR",
    "country": "Turkey",
    "state": "Osmaniye",
    "city": "Merkez"
  },
  {
    "source_id": "ChIJEwhqvtEhLxURDu8RfWU1BE8",
    "name": "TeknoTeknik Büro Makinaları Tonerci",
    "category": "TeknoTeknik Büro Makinaları Tonerci",
    "formatted_address": "5,0(23)",
    "phone_number": "+905552924701",
    "source_url": "https://www.google.com/maps/place/TeknoTeknik+B%C3%BCro+Makinalar%C4%B1+Tonerci/data=!4m7!3m6!1s0x152f21d1be6a0813:0x4f0435657d11ef0e!8m2!3d37.0677238!4d36.2538049!16s%2Fg%2F11j8lzbkrd!19sChIJEwhqvtEhLxURDu8RfWU1BE8?authuser=0&hl=tr&rclk=1",
    "website_url": "",
    "rating_text": "5,0",
    "stars": null,
    "number_of_reviews": null,
    "price_level": "",
    "open_hours": "",
    "extraction_timestamp": "2025-06-08T03:23:54.847Z",
    "source_name": "google",
    "source_query": "Irrigation Equipment",
    "source_country": "TR",
    "country": "Turkey",
    "state": "Osmaniye",
    "city": "Merkez"
  },
  {
    "source_id": "ChIJmVV98NwhLxURHuNvZpn2cNs",
    "name": "Enver elektrik ve sıhhi tesisat",
    "category": "Enver elektrik ve sıhhi tesisat",
    "formatted_address": "5,0(2)",
    "phone_number": "+905058657393",
    "source_url": "https://www.google.com/maps/place/Enver+elektrik+ve+s%C4%B1hhi+tesisat/data=!4m7!3m6!1s0x152f21dcf07d5599:0xdb70f699666fe31e!8m2!3d37.0542671!4d36.2408877!16s%2Fg%2F11w1yn3f2t!19sChIJmVV98NwhLxURHuNvZpn2cNs?authuser=0&hl=tr&rclk=1",
    "website_url": "",
    "rating_text": "5,0",
    "stars": null,
    "number_of_reviews": null,
    "price_level": "",
    "open_hours": "",
    "extraction_timestamp": "2025-06-08T03:23:54.848Z",
    "source_name": "google",
    "source_query": "Irrigation Equipment",
    "source_country": "TR",
    "country": "Turkey",
    "state": "Osmaniye",
    "city": "Merkez"
  },
  {
    "source_id": "ChIJzXybXdQhLxURKnvYJiZAuB0",
    "name": "KALKAN GROS MARKET",
    "category": "KALKAN GROS MARKET",
    "formatted_address": "4,7(53)",
    "phone_number": "",
    "source_url": "https://www.google.com/maps/place/KALKAN+GROS+MARKET/data=!4m7!3m6!1s0x152f21d45d9b7ccd:0x1db8402626d87b2a!8m2!3d37.0888296!4d36.2618193!16s%2Fg%2F11q1vs2vmc!19sChIJzXybXdQhLxURKnvYJiZAuB0?authuser=0&hl=tr&rclk=1",
    "website_url": "",
    "rating_text": "4,7",
    "stars": null,
    "number_of_reviews": null,
    "price_level": "",
    "open_hours": "",
    "extraction_timestamp": "2025-06-08T03:23:54.850Z",
    "source_name": "google",
    "source_query": "Irrigation Equipment",
    "source_country": "TR",
    "country": "Turkey",
    "state": "Osmaniye",
    "city": "Merkez"
  },
  {
    "source_id": "ChIJP-5D380hLxURKriswyAdlRU",
    "name": "AY-SU Arıtma",
    "category": "AY-SU Arıtma",
    "formatted_address": "3,1(8)",
    "phone_number": "",
    "source_url": "https://www.google.com/maps/place/AY-SU+Ar%C4%B1tma/data=!4m7!3m6!1s0x152f21cddf43ee3f:0x15951d20c3acb82a!8m2!3d37.0701593!4d36.2504243!16s%2Fg%2F11d_tgkh6n!19sChIJP-5D380hLxURKriswyAdlRU?authuser=0&hl=tr&rclk=1",
    "website_url": "",
    "rating_text": "3,1",
    "stars": null,
    "number_of_reviews": null,
    "price_level": "",
    "open_hours": "",
    "extraction_timestamp": "2025-06-08T03:23:54.851Z",
    "source_name": "google",
    "source_query": "Irrigation Equipment",
    "source_country": "TR",
    "country": "Turkey",
    "state": "Osmaniye",
    "city": "Merkez"
  },
  {
    "source_id": "ChIJ4bfJCfghLxUR2bmwaisX1HQ",
    "name": "Demir mekanik elektrik",
    "category": "Demir mekanik elektrik",
    "formatted_address": "5,0(30)",
    "phone_number": "+905454043736",
    "source_url": "https://www.google.com/maps/place/Demir+mekanik+elektrik/data=!4m7!3m6!1s0x152f21f809c9b7e1:0x74d4172b6ab0b9d9!8m2!3d37.046096!4d36.2295215!16s%2Fg%2F11sn_4f6m_!19sChIJ4bfJCfghLxUR2bmwaisX1HQ?authuser=0&hl=tr&rclk=1",
    "website_url": "",
    "rating_text": "5,0",
    "stars": null,
    "number_of_reviews": null,
    "price_level": "",
    "open_hours": "",
    "extraction_timestamp": "2025-06-08T03:23:54.852Z",
    "source_name": "google",
    "source_query": "Irrigation Equipment",
    "source_country": "TR",
    "country": "Turkey",
    "state": "Osmaniye",
    "city": "Merkez"
  },
  {
    "source_id": "ChIJ3eesT6YhLxUROpVCh60D51g",
    "name": "Seç Market Yaverpaşa Şubesi",
    "category": "Seç Market Yaverpaşa Şubesi",
    "formatted_address": "4,5(49)",
    "phone_number": "",
    "source_url": "https://www.google.com/maps/place/Se%C3%A7+Market+Yaverpa%C5%9Fa+%C5%9Eubesi/data=!4m7!3m6!1s0x152f21a64face7dd:0x58e703ad8742953a!8m2!3d37.07353!4d36.2229129!16s%2Fg%2F11c57m9bfw!19sChIJ3eesT6YhLxUROpVCh60D51g?authuser=0&hl=tr&rclk=1",
    "website_url": "",
    "rating_text": "4,5",
    "stars": null,
    "number_of_reviews": null,
    "price_level": "",
    "open_hours": "",
    "extraction_timestamp": "2025-06-08T03:23:54.853Z",
    "source_name": "google",
    "source_query": "Irrigation Equipment",
    "source_country": "TR",
    "country": "Turkey",
    "state": "Osmaniye",
    "city": "Merkez"
  },
  {
    "source_id": "ChIJBWq21awhLxUR9z8gXLYdXmg",
    "name": "ulucan yapı market",
    "category": "ulucan yapı market",
    "formatted_address": "Tesisatçı · kazım karabekir caddesi, önal sitesi 37/a D:cKapalı ⋅ Açılış saati: 07:00 · 0553 227 20 53",
    "phone_number": "+905532272053",
    "source_url": "https://www.google.com/maps/place/ulucan+yap%C4%B1+market/data=!4m7!3m6!1s0x152f21acd5b66a05:0x685e1db65c203ff7!8m2!3d37.0696879!4d36.2552981!16s%2Fg%2F11trgc1wx3!19sChIJBWq21awhLxUR9z8gXLYdXmg?authuser=0&hl=tr&rclk=1",
    "website_url": "",
    "rating_text": "",
    "stars": null,
    "number_of_reviews": null,
    "price_level": "",
    "open_hours": "",
    "extraction_timestamp": "2025-06-08T03:23:54.854Z",
    "source_name": "google",
    "source_query": "Irrigation Equipment",
    "source_country": "TR",
    "country": "Turkey",
    "state": "Osmaniye",
    "city": "Merkez"
  },
  {
    "source_id": "ChIJ825YdnvPLhUR7hrNlkvNhm4",
    "name": "Güven Tarım Aletleri San. ve Tic.",
    "category": "Güven Tarım Aletleri San. ve Tic.",
    "formatted_address": "4,7(38)",
    "phone_number": "+903287185359",
    "source_url": "https://www.google.com/maps/place/G%C3%BCven+Tar%C4%B1m+Aletleri+San.+ve+Tic./data=!4m7!3m6!1s0x152ecf7b76586ef3:0x6e86cd4b96cd1aee!8m2!3d37.3648291!4d36.0831498!16s%2Fg%2F11h1k85hz!19sChIJ825YdnvPLhUR7hrNlkvNhm4?authuser=0&hl=tr&rclk=1",
    "website_url": "http://www.guventarim.org/",
    "rating_text": "4,7",
    "stars": null,
    "number_of_reviews": null,
    "price_level": "",
    "open_hours": "",
    "extraction_timestamp": "2025-06-08T03:24:30.421Z",
    "source_name": "google",
    "source_query": "Irrigation Equipment",
    "source_country": "TR",
    "country": "Turkey",
    "state": "Osmaniye",
    "city": "Kadirli"
  },
  {
    "source_id": "ChIJR_E29WLPLhUR5bMn5iV_r2I",
    "name": "Doğuş Tarım",
    "category": "Doğuş Tarım",
    "formatted_address": "4,8(48)",
    "phone_number": "",
    "source_url": "https://www.google.com/maps/place/Do%C4%9Fu%C5%9F+Tar%C4%B1m/data=!4m7!3m6!1s0x152ecf62f536f147:0x62af7f25e627b3e5!8m2!3d37.3676066!4d36.0876783!16s%2Fg%2F11bxdt9wr7!19sChIJR_E29WLPLhUR5bMn5iV_r2I?authuser=0&hl=tr&rclk=1",
    "website_url": "",
    "rating_text": "4,8",
    "stars": null,
    "number_of_reviews": null,
    "price_level": "",
    "open_hours": "",
    "extraction_timestamp": "2025-06-08T03:24:30.423Z",
    "source_name": "google",
    "source_query": "Irrigation Equipment",
    "source_country": "TR",
    "country": "Turkey",
    "state": "Osmaniye",
    "city": "Kadirli"
  },
  {
    "source_id": "ChIJS-j5yYvFLhURkHoc3lFzT84",
    "name": "ALPSEM MÜHENDİSLİK DOĞALGAZ",
    "category": "ALPSEM MÜHENDİSLİK DOĞALGAZ",
    "formatted_address": "5,0(5)",
    "phone_number": "+905387153795",
    "source_url": "https://www.google.com/maps/place/ALPSEM+M%C3%9CHEND%C4%B0SL%C4%B0K+DO%C4%9EALGAZ/data=!4m7!3m6!1s0x152ec58bc9f9e84b:0xce4f7351de1c7a90!8m2!3d37.3673658!4d36.0946031!16s%2Fg%2F11x2pmxqgk!19sChIJS-j5yYvFLhURkHoc3lFzT84?authuser=0&hl=tr&rclk=1",
    "website_url": "",
    "rating_text": "5,0",
    "stars": null,
    "number_of_reviews": null,
    "price_level": "",
    "open_hours": "",
    "extraction_timestamp": "2025-06-08T03:24:30.425Z",
    "source_name": "google",
    "source_query": "Irrigation Equipment",
    "source_country": "TR",
    "country": "Turkey",
    "state": "Osmaniye",
    "city": "Kadirli"
  },
  {
    "source_id": "ChIJo-fBky4lLxURENkkyEMc3OQ",
    "name": "Toprakkale terra Tarım",
    "category": "Toprakkale terra Tarım",
    "formatted_address": "5,0(1)",
    "phone_number": "+905442233827",
    "source_url": "https://www.google.com/maps/place/Toprakkale+terra+Tar%C4%B1m/data=!4m7!3m6!1s0x152f252e93c1e7a3:0xe4dc1c43c824d910!8m2!3d37.0685985!4d36.1435615!16s%2Fg%2F11y8zwdywr!19sChIJo-fBky4lLxURENkkyEMc3OQ?authuser=0&hl=tr&rclk=1",
    "website_url": "",
    "rating_text": "5,0",
    "stars": null,
    "number_of_reviews": null,
    "price_level": "",
    "open_hours": "",
    "extraction_timestamp": "2025-06-08T03:24:38.448Z",
    "source_name": "google",
    "source_query": "Irrigation Equipment",
    "source_country": "TR",
    "country": "Turkey",
    "state": "Osmaniye",
    "city": "Toprakkale"
  },
  {
    "source_id": "ChIJdX-JTjXxLhURaJZbmcRACgI",
    "name": "Düziçi Teknik Tesisat",
    "category": "Düziçi Teknik Tesisat",
    "formatted_address": "5,0(4)",
    "phone_number": "+905412283020",
    "source_url": "https://www.google.com/maps/place/D%C3%BCzi%C3%A7i+Teknik+Tesisat/data=!4m7!3m6!1s0x152ef1354e897f75:0x20a40c4995b9668!8m2!3d37.241843!4d36.453963!16s%2Fg%2F11vb2js782!19sChIJdX-JTjXxLhURaJZbmcRACgI?authuser=0&hl=tr&rclk=1",
    "website_url": "",
    "rating_text": "5,0",
    "stars": null,
    "number_of_reviews": null,
    "price_level": "",
    "open_hours": "",
    "extraction_timestamp": "2025-06-08T03:24:46.386Z",
    "source_name": "google",
    "source_query": "Irrigation Equipment",
    "source_country": "TR",
    "country": "Turkey",
    "state": "Osmaniye",
    "city": "Düziçi"
  },
  {
    "source_id": "ChIJe4qeyvPxLhURvaNNZk5ojno",
    "name": "DÜZİCİ TEKNİK TARIMSAL YAYIM VE DANIŞMANLIK",
    "category": "DÜZİCİ TEKNİK TARIMSAL YAYIM VE DANIŞMANLIK",
    "formatted_address": "3,0(1)",
    "phone_number": "+905438715034",
    "source_url": "https://www.google.com/maps/place/D%C3%9CZ%C4%B0C%C4%B0+TEKN%C4%B0K+TARIMSAL+YAYIM+VE+DANI%C5%9EMANLIK/data=!4m7!3m6!1s0x152ef1f3ca9e8a7b:0x7a8e684e664da3bd!8m2!3d37.2402665!4d36.4493943!16s%2Fg%2F11gpndyz1f!19sChIJe4qeyvPxLhURvaNNZk5ojno?authuser=0&hl=tr&rclk=1",
    "website_url": "",
    "rating_text": "3,0",
    "stars": null,
    "number_of_reviews": null,
    "price_level": "",
    "open_hours": "",
    "extraction_timestamp": "2025-06-08T03:24:46.387Z",
    "source_name": "google",
    "source_query": "Irrigation Equipment",
    "source_country": "TR",
    "country": "Turkey",
    "state": "Osmaniye",
    "city": "Düziçi"
  },
  {
    "source_id": "ChIJCzgmPMDxLhURNqzhGJfJYY0",
    "name": "Gök-Su Aritma Cihazlari",
    "category": "Gök-Su Aritma Cihazlari",
    "formatted_address": "5,0(6)",
    "phone_number": "",
    "source_url": "https://www.google.com/maps/place/G%C3%B6k-Su+Aritma+Cihazlari/data=!4m7!3m6!1s0x152ef1c03c26380b:0x8d61c99718e1ac36!8m2!3d37.2434409!4d36.4565086!16s%2Fg%2F11c2p_n3yk!19sChIJCzgmPMDxLhURNqzhGJfJYY0?authuser=0&hl=tr&rclk=1",
    "website_url": "",
    "rating_text": "5,0",
    "stars": null,
    "number_of_reviews": null,
    "price_level": "",
    "open_hours": "",
    "extraction_timestamp": "2025-06-08T03:24:46.387Z",
    "source_name": "google",
    "source_query": "Irrigation Equipment",
    "source_country": "TR",
    "country": "Turkey",
    "state": "Osmaniye",
    "city": "Düziçi"
  },
  {
    "source_id": "ChIJZ4lQV_bxLhURFzheX8Fg_OA",
    "name": "ASİLLİ TİCARET MARGAZ TÜP BAYİİ & AYRAN SU SATIŞ NOKTASI",
    "category": "ASİLLİ TİCARET MARGAZ TÜP BAYİİ & AYRAN SU SATIŞ NOKTASI",
    "formatted_address": "",
    "phone_number": "+905419559880",
    "source_url": "https://www.google.com/maps/place/AS%C4%B0LL%C4%B0+T%C4%B0CARET+MARGAZ+T%C3%9CP+BAY%C4%B0%C4%B0+%26+AYRAN+SU+SATI%C5%9E+NOKTASI/data=!4m7!3m6!1s0x152ef1f657508967:0xe0fc60c15f5e3817!8m2!3d37.2403647!4d36.4521778!16s%2Fg%2F11x1sldzp0!19sChIJZ4lQV_bxLhURFzheX8Fg_OA?authuser=0&hl=tr&rclk=1",
    "website_url": "",
    "rating_text": "",
    "stars": null,
    "number_of_reviews": null,
    "price_level": "",
    "open_hours": "",
    "extraction_timestamp": "2025-06-08T03:24:46.387Z",
    "source_name": "google",
    "source_query": "Irrigation Equipment",
    "source_country": "TR",
    "country": "Turkey",
    "state": "Osmaniye",
    "city": "Düziçi"
  },
  {
    "source_id": "ChIJh5KzSIP3LhUR1bR7CzEIrak",
    "name": "MERİÇ YAPI MARKET-HIRDAVAT/-TARIM/-İNŞAAT",
    "category": "MERİÇ YAPI MARKET-HIRDAVAT/-TARIM/-İNŞAAT",
    "formatted_address": "4,0(2)",
    "phone_number": "+905416118969",
    "source_url": "https://www.google.com/maps/place/MER%C4%B0%C3%87+YAPI+MARKET-HIRDAVAT%2F-TARIM%2F-%C4%B0N%C5%9EAAT/data=!4m7!3m6!1s0x152ef78348b39287:0xa9ad08310b7bb4d5!8m2!3d37.2036183!4d36.5812571!16s%2Fg%2F11gr0s6xlj!19sChIJh5KzSIP3LhUR1bR7CzEIrak?authuser=0&hl=tr&rclk=1",
    "website_url": "",
    "rating_text": "4,0",
    "stars": null,
    "number_of_reviews": null,
    "price_level": "",
    "open_hours": "",
    "extraction_timestamp": "2025-06-08T03:24:54.072Z",
    "source_name": "google",
    "source_query": "Irrigation Equipment",
    "source_country": "TR",
    "country": "Turkey",
    "state": "Osmaniye",
    "city": "Bahçe"
  },
  {
    "source_id": "ChIJt9l1pYz3LhURANtpKCKPSic",
    "name": "Sucu habib usta",
    "category": "Sucu habib usta",
    "formatted_address": "",
    "phone_number": "+905317352942",
    "source_url": "https://www.google.com/maps/place/Sucu+habib+usta/data=!4m7!3m6!1s0x152ef78ca575d9b7:0x274a8f222869db00!8m2!3d37.2011315!4d36.5790134!16s%2Fg%2F11shwnwv06!19sChIJt9l1pYz3LhURANtpKCKPSic?authuser=0&hl=tr&rclk=1",
    "website_url": "",
    "rating_text": "",
    "stars": null,
    "number_of_reviews": null,
    "price_level": "",
    "open_hours": "",
    "extraction_timestamp": "2025-06-08T03:24:54.073Z",
    "source_name": "google",
    "source_query": "Irrigation Equipment",
    "source_country": "TR",
    "country": "Turkey",
    "state": "Osmaniye",
    "city": "Bahçe"
  }
]
