[
  {
    "source_id": "ChIJa7mzanlPNj4Rd4eVnIcrftc",
    "name": "Cebent Water Company",
    "category": "Cebent Water Company",
    "formatted_address": "4,4(35)",
    "phone_number": "+966503912083",
    "source_url": "https://www.google.com/maps/place/Cebent+Water+Company/data=!4m7!3m6!1s0x3e364f796ab3b96b:0xd77e2b879c958777!8m2!3d25.8974515!4d49.5725766!16s%2Fg%2F11ggzbnrg6!19sChIJa7mzanlPNj4Rd4eVnIcrftc?authuser=0&hl=tr&rclk=1",
    "website_url": "",
    "rating_text": "4,4",
    "stars": null,
    "number_of_reviews": null,
    "price_level": "",
    "open_hours": "",
    "extraction_timestamp": "2025-06-08T03:06:31.461Z",
    "source_name": "google",
    "source_query": "Irrigation Equipment",
    "source_country": "SA",
    "country": "Saudi Arabia",
    "state": "Eastern Province",
    "city": "Abqaiq"
  },
  {
    "source_id": "ChIJM8lyfoRFNj4RH65RLxKeeco",
    "name": "Sinopec Service Yard 2",
    "category": "Sinopec Service Yard 2",
    "formatted_address": "4,2(5)",
    "phone_number": "+966597462616",
    "source_url": "https://www.google.com/maps/place/Sinopec+Service+Yard+2/data=!4m7!3m6!1s0x3e3645847e72c933:0xca799e122f51ae1f!8m2!3d25.9112069!4d49.5741548!16s%2Fg%2F11gzp150s!19sChIJM8lyfoRFNj4RH65RLxKeeco?authuser=0&hl=tr&rclk=1",
    "website_url": "",
    "rating_text": "4,2",
    "stars": null,
    "number_of_reviews": null,
    "price_level": "",
    "open_hours": "",
    "extraction_timestamp": "2025-06-08T03:06:31.461Z",
    "source_name": "google",
    "source_query": "Irrigation Equipment",
    "source_country": "SA",
    "country": "Saudi Arabia",
    "state": "Eastern Province",
    "city": "Abqaiq"
  },
  {
    "source_id": "ChIJ848909zvST4RB5fRC91hN80",
    "name": "MEAC AL-KHOBAR",
    "category": "MEAC AL-KHOBAR",
    "formatted_address": "4,9(8)",
    "phone_number": "+966561027930",
    "source_url": "https://www.google.com/maps/place/MEAC+AL-KHOBAR/data=!4m7!3m6!1s0x3e49efdcd33d8ff3:0xcd3761dd0bd19707!8m2!3d26.3914925!4d50.1782674!16s%2Fg%2F11j00lf0vv!19sChIJ848909zvST4RB5fRC91hN80?authuser=0&hl=tr&rclk=1",
    "website_url": "",
    "rating_text": "4,9",
    "stars": null,
    "number_of_reviews": null,
    "price_level": "",
    "open_hours": "",
    "extraction_timestamp": "2025-06-08T03:06:31.462Z",
    "source_name": "google",
    "source_query": "Irrigation Equipment",
    "source_country": "SA",
    "country": "Saudi Arabia",
    "state": "Eastern Province",
    "city": "Abqaiq"
  },
  {
    "source_id": "ChIJqdDqBzdPNj4R9wBpsvz4MN0",
    "name": "Ahmed Al Yami Group",
    "category": "Ahmed Al Yami Group",
    "formatted_address": "4,3(27)",
    "phone_number": "+966135652666",
    "source_url": "https://www.google.com/maps/place/Ahmed+Al+Yami+Group/data=!4m7!3m6!1s0x3e364f3707ead0a9:0xdd30f8fcb26900f7!8m2!3d25.9346119!4d49.6576544!16s%2Fg%2F11clgm77ym!19sChIJqdDqBzdPNj4R9wBpsvz4MN0?authuser=0&hl=tr&rclk=1",
    "website_url": "",
    "rating_text": "4,3",
    "stars": null,
    "number_of_reviews": null,
    "price_level": "",
    "open_hours": "",
    "extraction_timestamp": "2025-06-08T03:06:31.462Z",
    "source_name": "google",
    "source_query": "Irrigation Equipment",
    "source_country": "SA",
    "country": "Saudi Arabia",
    "state": "Eastern Province",
    "city": "Abqaiq"
  },
  {
    "source_id": "ChIJTfRGseNJNj4RnWxbTgeiOjg",
    "name": "Al Dossary Trading",
    "category": "Al Dossary Trading",
    "formatted_address": "3,8(5)",
    "phone_number": "",
    "source_url": "https://www.google.com/maps/place/Al+Dossary+Trading/data=!4m7!3m6!1s0x3e3649e3b146f44d:0x383aa2074e5b6c9d!8m2!3d25.9278386!4d49.6619106!16s%2Fg%2F11fmvc_csw!19sChIJTfRGseNJNj4RnWxbTgeiOjg?authuser=0&hl=tr&rclk=1",
    "website_url": "",
    "rating_text": "3,8",
    "stars": null,
    "number_of_reviews": null,
    "price_level": "",
    "open_hours": "",
    "extraction_timestamp": "2025-06-08T03:06:31.462Z",
    "source_name": "google",
    "source_query": "Irrigation Equipment",
    "source_country": "SA",
    "country": "Saudi Arabia",
    "state": "Eastern Province",
    "city": "Abqaiq"
  },
  {
    "source_id": "ChIJqTdF-kb8ST4RFt5vpSnQ5yc",
    "name": "مؤسسة الأنهار الزراعية للمضخات,AGRICULTURAL RIVERS FOR PUMPS",
    "category": "مؤسسة الأنهار الزراعية للمضخات,AGRICULTURAL RIVERS FOR PUMPS",
    "formatted_address": "مؤسسة الأنهار الزراعية للمضخات,AGRICULTURAL RIVERS FOR PUMPS",
    "phone_number": "+966558364553",
    "source_url": "https://www.google.com/maps/place/%D9%85%D8%A4%D8%B3%D8%B3%D8%A9+%D8%A7%D9%84%D8%A3%D9%86%D9%87%D8%A7%D8%B1+%D8%A7%D9%84%D8%B2%D8%B1%D8%A7%D8%B9%D9%8A%D8%A9+%D9%84%D9%84%D9%85%D8%B6%D8%AE%D8%A7%D8%AA,AGRICULTURAL+RIVERS+FOR+PUMPS%E2%80%AD/data=!4m7!3m6!1s0x3e49fc46fa4537a9:0x27e7d029a56fde16!8m2!3d26.4414581!4d50.0727931!16s%2Fg%2F11f306cj0y!19sChIJqTdF-kb8ST4RFt5vpSnQ5yc?authuser=0&hl=tr&rclk=1",
    "website_url": "",
    "rating_text": "4,2",
    "stars": null,
    "number_of_reviews": null,
    "price_level": "",
    "open_hours": "",
    "extraction_timestamp": "2025-06-08T03:06:31.463Z",
    "source_name": "google",
    "source_query": "Irrigation Equipment",
    "source_country": "SA",
    "country": "Saudi Arabia",
    "state": "Eastern Province",
    "city": "Abqaiq"
  },
  {
    "source_id": "ChIJvYf7v078ST4R_r35JksPSTc",
    "name": "مؤسسة الحديقة والمزرعة الدمام",
    "category": "مؤسسة الحديقة والمزرعة الدمام",
    "formatted_address": "4,3(32)",
    "phone_number": "+966138172212",
    "source_url": "https://www.google.com/maps/place/%D9%85%D8%A4%D8%B3%D8%B3%D8%A9+%D8%A7%D9%84%D8%AD%D8%AF%D9%8A%D9%82%D8%A9+%D9%88%D8%A7%D9%84%D9%85%D8%B2%D8%B1%D8%B9%D8%A9+%D8%A7%D9%84%D8%AF%D9%85%D8%A7%D9%85%E2%80%AD/data=!4m7!3m6!1s0x3e49fc4ebffb87bd:0x37490f4b26f9bdfe!8m2!3d26.4366926!4d50.0655234!16s%2Fg%2F11b7fv8h61!19sChIJvYf7v078ST4R_r35JksPSTc?authuser=0&hl=tr&rclk=1",
    "website_url": "",
    "rating_text": "4,3",
    "stars": null,
    "number_of_reviews": null,
    "price_level": "",
    "open_hours": "",
    "extraction_timestamp": "2025-06-08T03:06:31.463Z",
    "source_name": "google",
    "source_query": "Irrigation Equipment",
    "source_country": "SA",
    "country": "Saudi Arabia",
    "state": "Eastern Province",
    "city": "Abqaiq"
  },
  {
    "source_id": "ChIJ5yQM4_BJNj4R2XOM1LMwxGA",
    "name": "جداول الشموخ فرع 2شارع العام للزيوت والفلاتر وقطع كهربائية",
    "category": "جداول الشموخ فرع 2شارع العام للزيوت والفلاتر وقطع كهربائية",
    "formatted_address": "3,8(4)",
    "phone_number": "+966552862181",
    "source_url": "https://www.google.com/maps/place/%D8%AC%D8%AF%D8%A7%D9%88%D9%84+%D8%A7%D9%84%D8%B4%D9%85%D9%88%D8%AE+%D9%81%D8%B1%D8%B9+2%D8%B4%D8%A7%D8%B1%D8%B9+%D8%A7%D9%84%D8%B9%D8%A7%D9%85+%D9%84%D9%84%D8%B2%D9%8A%D9%88%D8%AA+%D9%88%D8%A7%D9%84%D9%81%D9%84%D8%A7%D8%AA%D8%B1+%D9%88%D9%82%D8%B7%D8%B9+%D9%83%D9%87%D8%B1%D8%A8%D8%A7%D8%A6%D9%8A%D8%A9%E2%80%AD/data=!4m7!3m6!1s0x3e3649f0e30c24e7:0x60c430b3d48c73d9!8m2!3d25.9225141!4d49.6575478!16s%2Fg%2F11kj95rnk9!19sChIJ5yQM4_BJNj4R2XOM1LMwxGA?authuser=0&hl=tr&rclk=1",
    "website_url": "",
    "rating_text": "3,8",
    "stars": null,
    "number_of_reviews": null,
    "price_level": "",
    "open_hours": "",
    "extraction_timestamp": "2025-06-08T03:06:31.463Z",
    "source_name": "google",
    "source_query": "Irrigation Equipment",
    "source_country": "SA",
    "country": "Saudi Arabia",
    "state": "Eastern Province",
    "city": "Abqaiq"
  },
  {
    "source_id": "ChIJy05DN6RHNj4ROKYS9JgFuIw",
    "name": "حديقة الخزان",
    "category": "حديقة الخزان",
    "formatted_address": "4,3(123)",
    "phone_number": "",
    "source_url": "https://www.google.com/maps/place/%D8%AD%D8%AF%D9%8A%D9%82%D8%A9+%D8%A7%D9%84%D8%AE%D8%B2%D8%A7%D9%86%E2%80%AD/data=!4m7!3m6!1s0x3e3647a437434ecb:0x8cb80598f412a638!8m2!3d25.9313342!4d49.6550716!16s%2Fg%2F11f5q6d2g6!19sChIJy05DN6RHNj4ROKYS9JgFuIw?authuser=0&hl=tr&rclk=1",
    "website_url": "",
    "rating_text": "4,3",
    "stars": null,
    "number_of_reviews": null,
    "price_level": "",
    "open_hours": "",
    "extraction_timestamp": "2025-06-08T03:06:31.463Z",
    "source_name": "google",
    "source_query": "Irrigation Equipment",
    "source_country": "SA",
    "country": "Saudi Arabia",
    "state": "Eastern Province",
    "city": "Abqaiq"
  },
  {
    "source_id": "ChIJV4kq99JHNj4RJPnAvw-pixQ",
    "name": "Durra Marketing Center",
    "category": "Durra Marketing Center",
    "formatted_address": "3,8(213)",
    "phone_number": "+966558829917",
    "source_url": "https://www.google.com/maps/place/Durra+Marketing+Center/data=!4m7!3m6!1s0x3e3647d2f72a8957:0x148ba90fbfc0f924!8m2!3d25.9385367!4d49.6525514!16s%2Fg%2F11c1p57g21!19sChIJV4kq99JHNj4RJPnAvw-pixQ?authuser=0&hl=tr&rclk=1",
    "website_url": "",
    "rating_text": "3,8",
    "stars": null,
    "number_of_reviews": null,
    "price_level": "",
    "open_hours": "",
    "extraction_timestamp": "2025-06-08T03:06:31.464Z",
    "source_name": "google",
    "source_query": "Irrigation Equipment",
    "source_country": "SA",
    "country": "Saudi Arabia",
    "state": "Eastern Province",
    "city": "Abqaiq"
  },
  {
    "source_id": "ChIJKVGZ89ZHNj4RSR2qLQgSk5k",
    "name": "Caravan Grocery Store",
    "category": "Caravan Grocery Store",
    "formatted_address": "3,7(105)",
    "phone_number": "+966135660821",
    "source_url": "https://www.google.com/maps/place/Caravan+Grocery+Store/data=!4m7!3m6!1s0x3e3647d6f3995129:0x999312082daa1d49!8m2!3d25.9345582!4d49.6568673!16s%2Fg%2F11b_20z703!19sChIJKVGZ89ZHNj4RSR2qLQgSk5k?authuser=0&hl=tr&rclk=1",
    "website_url": "",
    "rating_text": "3,7",
    "stars": null,
    "number_of_reviews": null,
    "price_level": "",
    "open_hours": "",
    "extraction_timestamp": "2025-06-08T03:06:31.464Z",
    "source_name": "google",
    "source_query": "Irrigation Equipment",
    "source_country": "SA",
    "country": "Saudi Arabia",
    "state": "Eastern Province",
    "city": "Abqaiq"
  },
  {
    "source_id": "ChIJrSvRhd5HNj4R2ztu3jdicK4",
    "name": "Lulu Hypermarket",
    "category": "Lulu Hypermarket",
    "formatted_address": "4,0(412)",
    "phone_number": "",
    "source_url": "https://www.google.com/maps/place/Lulu+Hypermarket/data=!4m7!3m6!1s0x3e3647de85d12bad:0xae706237de6e3bdb!8m2!3d25.9395841!4d49.6679496!16s%2Fg%2F11bzq3hdtt!19sChIJrSvRhd5HNj4R2ztu3jdicK4?authuser=0&hl=tr&rclk=1",
    "website_url": "",
    "rating_text": "4,0",
    "stars": null,
    "number_of_reviews": null,
    "price_level": "",
    "open_hours": "",
    "extraction_timestamp": "2025-06-08T03:06:31.464Z",
    "source_name": "google",
    "source_query": "Irrigation Equipment",
    "source_country": "SA",
    "country": "Saudi Arabia",
    "state": "Eastern Province",
    "city": "Abqaiq"
  },
  {
    "source_id": "ChIJhUw0Hrj3Lz4RzhCpNRuELWY",
    "name": "Akel Factory",
    "category": "Akel Factory",
    "formatted_address": "5,0(4)",
    "phone_number": "",
    "source_url": "https://www.google.com/maps/place/Akel+Factory/data=!4m7!3m6!1s0x3e2ff7b81e344c85:0x662d841b35a910ce!8m2!3d24.3600361!4d47.2630823!16s%2Fg%2F11fxzkx5m9!19sChIJhUw0Hrj3Lz4RzhCpNRuELWY?authuser=0&hl=tr&rclk=1",
    "website_url": "",
    "rating_text": "5,0",
    "stars": null,
    "number_of_reviews": null,
    "price_level": "",
    "open_hours": "",
    "extraction_timestamp": "2025-06-08T03:06:31.465Z",
    "source_name": "google",
    "source_query": "Irrigation Equipment",
    "source_country": "SA",
    "country": "Saudi Arabia",
    "state": "Eastern Province",
    "city": "Abqaiq"
  },
  {
    "source_id": "ChIJ_ewzIj2jLz4RG1ZkOVBSGXQ",
    "name": "SAUDI DRIP IRRIGATION SYSTEMS COMPANY",
    "category": "SAUDI DRIP IRRIGATION SYSTEMS COMPANY",
    "formatted_address": "4,5(2)",
    "phone_number": "+966112650445",
    "source_url": "https://www.google.com/maps/place/SAUDI+DRIP+IRRIGATION+SYSTEMS+COMPANY/data=!4m7!3m6!1s0x3e2fa33d2233ecfd:0x741952503964561b!8m2!3d24.5274617!4d46.9076911!16s%2Fg%2F11j4lpbk7m!19sChIJ_ewzIj2jLz4RG1ZkOVBSGXQ?authuser=0&hl=tr&rclk=1",
    "website_url": "",
    "rating_text": "4,5",
    "stars": null,
    "number_of_reviews": null,
    "price_level": "",
    "open_hours": "",
    "extraction_timestamp": "2025-06-08T03:06:31.489Z",
    "source_name": "google",
    "source_query": "Irrigation Equipment",
    "source_country": "SA",
    "country": "Saudi Arabia",
    "state": "Eastern Province",
    "city": "Abqaiq"
  },
  {
    "source_id": "ChIJoaYPmjVJNj4Rs82BK3CLHwk",
    "name": "Coffee HiSh",
    "category": "Coffee HiSh",
    "formatted_address": "4,6(24)",
    "phone_number": "+966598991757",
    "source_url": "https://www.google.com/maps/place/Coffee+HiSh/data=!4m7!3m6!1s0x3e3649359a0fa6a1:0x91f8b702b81cdb3!8m2!3d25.9189603!4d49.6599765!16s%2Fg%2F11pd299kn4!19sChIJoaYPmjVJNj4Rs82BK3CLHwk?authuser=0&hl=tr&rclk=1",
    "website_url": "",
    "rating_text": "4,6",
    "stars": null,
    "number_of_reviews": null,
    "price_level": "",
    "open_hours": "",
    "extraction_timestamp": "2025-06-08T03:06:31.491Z",
    "source_name": "google",
    "source_query": "Irrigation Equipment",
    "source_country": "SA",
    "country": "Saudi Arabia",
    "state": "Eastern Province",
    "city": "Abqaiq"
  },
  {
    "source_id": "ChIJiXGuZqdHNj4Rx4KM_JxyA7A",
    "name": "Aldrees",
    "category": "Aldrees",
    "formatted_address": "4,1(425)",
    "phone_number": "+966920002667",
    "source_url": "https://www.google.com/maps/place/Aldrees/data=!4m7!3m6!1s0x3e3647a766ae7189:0xb003729cfc8c82c7!8m2!3d25.9212054!4d49.6128732!16s%2Fg%2F11qrw7h8lj!19sChIJiXGuZqdHNj4Rx4KM_JxyA7A?authuser=0&hl=tr&rclk=1",
    "website_url": "",
    "rating_text": "4,1",
    "stars": null,
    "number_of_reviews": null,
    "price_level": "",
    "open_hours": "",
    "extraction_timestamp": "2025-06-08T03:06:31.493Z",
    "source_name": "google",
    "source_query": "Irrigation Equipment",
    "source_country": "SA",
    "country": "Saudi Arabia",
    "state": "Eastern Province",
    "city": "Abqaiq"
  },
  {
    "source_id": "ChIJv1P1ugpJNj4R_O39Qw6Q3Tk",
    "name": "Locus oils",
    "category": "Locus oils",
    "formatted_address": "4,7(21)",
    "phone_number": "",
    "source_url": "https://www.google.com/maps/place/Locus+oils/data=!4m7!3m6!1s0x3e36490abaf553bf:0x39dd900e43fdedfc!8m2!3d25.921088!4d49.649977!16s%2Fg%2F11g079f2hh!19sChIJv1P1ugpJNj4R_O39Qw6Q3Tk?authuser=0&hl=tr&rclk=1",
    "website_url": "",
    "rating_text": "4,7",
    "stars": null,
    "number_of_reviews": null,
    "price_level": "",
    "open_hours": "",
    "extraction_timestamp": "2025-06-08T03:06:31.493Z",
    "source_name": "google",
    "source_query": "Irrigation Equipment",
    "source_country": "SA",
    "country": "Saudi Arabia",
    "state": "Eastern Province",
    "city": "Abqaiq"
  },
  {
    "source_id": "ChIJ1VTpJABJNj4RV8yDz7Xwcy0",
    "name": "FANAN KARAK فنان كرك",
    "category": "FANAN KARAK فنان كرك",
    "formatted_address": "4,8(70) · SAR 1–20",
    "phone_number": "+966502010441",
    "source_url": "https://www.google.com/maps/place/FANAN+KARAK+%D9%81%D9%86%D8%A7%D9%86+%D9%83%D8%B1%D9%83%E2%80%AD/data=!4m7!3m6!1s0x3e36490024e954d5:0x2d73f0b5cf83cc57!8m2!3d25.9302876!4d49.6586192!16s%2Fg%2F11xfdhgh4q!19sChIJ1VTpJABJNj4RV8yDz7Xwcy0?authuser=0&hl=tr&rclk=1",
    "website_url": "",
    "rating_text": "4,8",
    "stars": null,
    "number_of_reviews": null,
    "price_level": "",
    "open_hours": "",
    "extraction_timestamp": "2025-06-08T03:06:31.494Z",
    "source_name": "google",
    "source_query": "Irrigation Equipment",
    "source_country": "SA",
    "country": "Saudi Arabia",
    "state": "Eastern Province",
    "city": "Abqaiq"
  },
  {
    "source_id": "ChIJD6C0KYyhLz4RH-kmnmst48s",
    "name": "Saudi Mais Co. for Irrigation Systems",
    "category": "Saudi Mais Co. for Irrigation Systems",
    "formatted_address": "4,0(22)",
    "phone_number": "+966112652300",
    "source_url": "https://www.google.com/maps/place/Saudi+Mais+Co.+for+Irrigation+Systems/data=!4m7!3m6!1s0x3e2fa18c29b4a00f:0xcbe32d6b9e26e91f!8m2!3d24.5413895!4d46.8959501!16s%2Fg%2F11cr_r7bxm!19sChIJD6C0KYyhLz4RH-kmnmst48s?authuser=0&hl=tr&rclk=1",
    "website_url": "",
    "rating_text": "4,0",
    "stars": null,
    "number_of_reviews": null,
    "price_level": "",
    "open_hours": "",
    "extraction_timestamp": "2025-06-08T03:06:31.495Z",
    "source_name": "google",
    "source_query": "Irrigation Equipment",
    "source_country": "SA",
    "country": "Saudi Arabia",
    "state": "Eastern Province",
    "city": "Abqaiq"
  },
  {
    "source_id": "ChIJbUP36RboST4RXDIQcOoxfMk",
    "name": "Saudi Powerline Trading Co Ltd - Oil & Gas Supplier",
    "category": "Saudi Powerline Trading Co Ltd - Oil & Gas Supplier",
    "formatted_address": "3,3(4)",
    "phone_number": "+966138978444",
    "source_url": "https://www.google.com/maps/place/Saudi+Powerline+Trading+Co+Ltd+-+Oil+%26+Gas+Supplier/data=!4m7!3m6!1s0x3e49e816e9f7436d:0xc97c31ea7010325c!8m2!3d26.2835064!4d50.2009522!16s%2Fg%2F1jgm0s198!19sChIJbUP36RboST4RXDIQcOoxfMk?authuser=0&hl=tr&rclk=1",
    "website_url": "",
    "rating_text": "3,3",
    "stars": null,
    "number_of_reviews": null,
    "price_level": "",
    "open_hours": "",
    "extraction_timestamp": "2025-06-08T03:06:31.496Z",
    "source_name": "google",
    "source_query": "Irrigation Equipment",
    "source_country": "SA",
    "country": "Saudi Arabia",
    "state": "Eastern Province",
    "city": "Abqaiq"
  }
]
