[
  {
    "source_id": "ChIJR4vfnc__NT4R9fVvkq7OA50",
    "name": "العدة المتكاملة",
    "category": "العدة المتكاملة",
    "formatted_address": "4,9(327)",
    "phone_number": "+966543931900",
    "source_url": "https://www.google.com/maps/place/%D8%A7%D9%84%D8%B9%D8%AF%D8%A9+%D8%A7%D9%84%D9%85%D8%AA%D9%83%D8%A7%D9%85%D9%84%D8%A9%E2%80%AD/data=!4m7!3m6!1s0x3e35ffcf9ddf8b47:0x9d03ceae926ff5f5!8m2!3d26.5431499!4d49.9563848!16s%2Fg%2F11rhrs5c70!19sChIJR4vfnc__NT4R9fVvkq7OA50?authuser=0&hl=tr&rclk=1",
    "website_url": "",
    "rating_text": "4,9",
    "stars": null,
    "number_of_reviews": null,
    "price_level": "",
    "open_hours": "",
    "extraction_timestamp": "2025-06-08T03:12:43.569Z",
    "source_name": "google",
    "source_query": "Irrigation Equipment",
    "source_country": "SA",
    "country": "Saudi Arabia",
    "state": "Eastern Province",
    "city": "Al-Awjam"
  },
  {
    "source_id": "ChIJK03yG2D-NT4R-aihomr6k8w",
    "name": "Cold Oasis For General Co. Ltd. - COG Al-Rushaid",
    "category": "Cold Oasis For General Co. Ltd. - COG Al-Rushaid",
    "formatted_address": "4,1(43)",
    "phone_number": "+966920003841",
    "source_url": "https://www.google.com/maps/place/Cold+Oasis+For+General+Co.+Ltd.+-+COG+Al-Rushaid/data=!4m7!3m6!1s0x3e35fe601bf24d2b:0xcc93fa6aa2a1a8f9!8m2!3d26.5423397!4d49.9564109!16s%2Fg%2F11b6lj26kr!19sChIJK03yG2D-NT4R-aihomr6k8w?authuser=0&hl=tr&rclk=1",
    "website_url": "",
    "rating_text": "4,1",
    "stars": null,
    "number_of_reviews": null,
    "price_level": "",
    "open_hours": "",
    "extraction_timestamp": "2025-06-08T03:12:43.569Z",
    "source_name": "google",
    "source_query": "Irrigation Equipment",
    "source_country": "SA",
    "country": "Saudi Arabia",
    "state": "Eastern Province",
    "city": "Al-Awjam"
  },
  {
    "source_id": "ChIJ848909zvST4RB5fRC91hN80",
    "name": "MEAC AL-KHOBAR",
    "category": "MEAC AL-KHOBAR",
    "formatted_address": "4,9(8)",
    "phone_number": "+966561027930",
    "source_url": "https://www.google.com/maps/place/MEAC+AL-KHOBAR/data=!4m7!3m6!1s0x3e49efdcd33d8ff3:0xcd3761dd0bd19707!8m2!3d26.3914925!4d50.1782674!16s%2Fg%2F11j00lf0vv!19sChIJ848909zvST4RB5fRC91hN80?authuser=0&hl=tr&rclk=1",
    "website_url": "",
    "rating_text": "4,9",
    "stars": null,
    "number_of_reviews": null,
    "price_level": "",
    "open_hours": "",
    "extraction_timestamp": "2025-06-08T03:12:43.570Z",
    "source_name": "google",
    "source_query": "Irrigation Equipment",
    "source_country": "SA",
    "country": "Saudi Arabia",
    "state": "Eastern Province",
    "city": "Al-Awjam"
  },
  {
    "source_id": "ChIJ_97l05v-NT4RACBA-QUMy10",
    "name": "مؤسسة نور الاوجام التجارية- Noor Al Awjam Trading EST",
    "category": "مؤسسة نور الاوجام التجارية- Noor Al Awjam Trading EST",
    "formatted_address": "4,7(46)",
    "phone_number": "+966504827503",
    "source_url": "https://www.google.com/maps/place/%D9%85%D8%A4%D8%B3%D8%B3%D8%A9+%D9%86%D9%88%D8%B1+%D8%A7%D9%84%D8%A7%D9%88%D8%AC%D8%A7%D9%85+%D8%A7%D9%84%D8%AA%D8%AC%D8%A7%D8%B1%D9%8A%D8%A9-+Noor+Al+Awjam+Trading+EST%E2%80%AD/data=!4m7!3m6!1s0x3e35fe9bd3e5deff:0x5dcb0c05f9402000!8m2!3d26.552999!4d49.9440687!16s%2Fg%2F11dxdcrxlj!19sChIJ_97l05v-NT4RACBA-QUMy10?authuser=0&hl=tr&rclk=1",
    "website_url": "",
    "rating_text": "4,7",
    "stars": null,
    "number_of_reviews": null,
    "price_level": "",
    "open_hours": "",
    "extraction_timestamp": "2025-06-08T03:12:43.570Z",
    "source_name": "google",
    "source_query": "Irrigation Equipment",
    "source_country": "SA",
    "country": "Saudi Arabia",
    "state": "Eastern Province",
    "city": "Al-Awjam"
  },
  {
    "source_id": "ChIJg37e36__NT4RRorKeLnoi8w",
    "name": "ALMANAMEEN TRADING GROUP المناميين للمضخات وتحلية المياه",
    "category": "ALMANAMEEN TRADING GROUP المناميين للمضخات وتحلية المياه",
    "formatted_address": "3,7(7)",
    "phone_number": "+966138522286",
    "source_url": "https://www.google.com/maps/place/ALMANAMEEN+TRADING+GROUP+%D8%A7%D9%84%D9%85%D9%86%D8%A7%D9%85%D9%8A%D9%8A%D9%86+%D9%84%D9%84%D9%85%D8%B6%D8%AE%D8%A7%D8%AA+%D9%88%D8%AA%D8%AD%D9%84%D9%8A%D8%A9+%D8%A7%D9%84%D9%85%D9%8A%D8%A7%D9%87%E2%80%AD/data=!4m7!3m6!1s0x3e35ffafdfde7e83:0xcc8be8b978ca8a46!8m2!3d26.5551972!4d50.0017526!16s%2Fg%2F11h6ybjh55!19sChIJg37e36__NT4RRorKeLnoi8w?authuser=0&hl=tr&rclk=1",
    "website_url": "",
    "rating_text": "3,7",
    "stars": null,
    "number_of_reviews": null,
    "price_level": "",
    "open_hours": "",
    "extraction_timestamp": "2025-06-08T03:12:43.571Z",
    "source_name": "google",
    "source_query": "Irrigation Equipment",
    "source_country": "SA",
    "country": "Saudi Arabia",
    "state": "Eastern Province",
    "city": "Al-Awjam"
  },
  {
    "source_id": "ChIJHZAApIr-NT4R1MStgiRo62E",
    "name": "Divers island center",
    "category": "Divers island center",
    "formatted_address": "4,6(191)",
    "phone_number": "+966560857026",
    "source_url": "https://www.google.com/maps/place/Divers+island+center/data=!4m7!3m6!1s0x3e35fe8aa400901d:0x61eb682482adc4d4!8m2!3d26.5431139!4d49.9563816!16s%2Fg%2F11c5bjsm5_!19sChIJHZAApIr-NT4R1MStgiRo62E?authuser=0&hl=tr&rclk=1",
    "website_url": "",
    "rating_text": "4,6",
    "stars": null,
    "number_of_reviews": null,
    "price_level": "",
    "open_hours": "",
    "extraction_timestamp": "2025-06-08T03:12:43.571Z",
    "source_name": "google",
    "source_query": "Irrigation Equipment",
    "source_country": "SA",
    "country": "Saudi Arabia",
    "state": "Eastern Province",
    "city": "Al-Awjam"
  },
  {
    "source_id": "ChIJIYTLUZP-NT4RelLpJavP8Kc",
    "name": "( Brosco ) Elite Brothers International Company شركة نخبة الأخوة الدولية",
    "category": "( Brosco ) Elite Brothers International Company شركة نخبة الأخوة الدولية",
    "formatted_address": "4,7(9)",
    "phone_number": "+966920010322",
    "source_url": "https://www.google.com/maps/place/%28+Brosco+%29+Elite+Brothers+International+Company+%D8%B4%D8%B1%D9%83%D8%A9+%D9%86%D8%AE%D8%A8%D8%A9+%D8%A7%D9%84%D8%A3%D8%AE%D9%88%D8%A9+%D8%A7%D9%84%D8%AF%D9%88%D9%84%D9%8A%D8%A9%E2%80%AD/data=!4m7!3m6!1s0x3e35fe9351cb8421:0xa7f0cfab25e9527a!8m2!3d26.5535285!4d49.956369!16s%2Fg%2F11c1wznf3d!19sChIJIYTLUZP-NT4RelLpJavP8Kc?authuser=0&hl=tr&rclk=1",
    "website_url": "",
    "rating_text": "4,7",
    "stars": null,
    "number_of_reviews": null,
    "price_level": "",
    "open_hours": "",
    "extraction_timestamp": "2025-06-08T03:12:43.572Z",
    "source_name": "google",
    "source_query": "Irrigation Equipment",
    "source_country": "SA",
    "country": "Saudi Arabia",
    "state": "Eastern Province",
    "city": "Al-Awjam"
  },
  {
    "source_id": "ChIJM1WKScj8ST4RzQx0i0GJL1k",
    "name": "Alwasail Industrial Co. - Dammam Branch",
    "category": "Alwasail Industrial Co. - Dammam Branch",
    "formatted_address": "3,6(59)",
    "phone_number": "+966506404317",
    "source_url": "https://www.google.com/maps/place/Alwasail+Industrial+Co.+-+Dammam+Branch/data=!4m7!3m6!1s0x3e49fcc8498a5533:0x592f89418b740ccd!8m2!3d26.3945113!4d50.0785528!16s%2Fg%2F11dxb1q20b!19sChIJM1WKScj8ST4RzQx0i0GJL1k?authuser=0&hl=tr&rclk=1",
    "website_url": "",
    "rating_text": "3,6",
    "stars": null,
    "number_of_reviews": null,
    "price_level": "",
    "open_hours": "",
    "extraction_timestamp": "2025-06-08T03:12:43.586Z",
    "source_name": "google",
    "source_query": "Irrigation Equipment",
    "source_country": "SA",
    "country": "Saudi Arabia",
    "state": "Eastern Province",
    "city": "Al-Awjam"
  }
]
