[
  {
    "source_id": "ChIJ6c9TRt2TNz4RzHpF3i6jtoo",
    "name": "Alyaseen Agri Co.",
    "category": "Alyaseen Agri Co.",
    "formatted_address": "4,1(112)",
    "phone_number": "+966504922538",
    "source_url": "https://www.google.com/maps/place/Alyaseen+Agri+Co./data=!4m7!3m6!1s0x3e3793dd4653cfe9:0x8ab6a32ede457acc!8m2!3d25.3484541!4d49.6135477!16s%2Fg%2F11c54grx7m!19sChIJ6c9TRt2TNz4RzHpF3i6jtoo?authuser=0&hl=tr&rclk=1",
    "website_url": "",
    "rating_text": "4,1",
    "stars": null,
    "number_of_reviews": null,
    "price_level": "",
    "open_hours": "",
    "extraction_timestamp": "2025-06-08T03:12:26.684Z",
    "source_name": "google",
    "source_query": "Irrigation Equipment",
    "source_country": "SA",
    "country": "Saudi Arabia",
    "state": "Eastern Province",
    "city": "Al Hufūf"
  },
  {
    "source_id": "ChIJPYMtzOGRNz4R5HfeW6lXCWk",
    "name": "بن ناشي BIN NASHI",
    "category": "بن ناشي BIN NASHI",
    "formatted_address": "4,9(9)",
    "phone_number": "+966545988082",
    "source_url": "https://www.google.com/maps/place/%D8%A8%D9%86+%D9%86%D8%A7%D8%B4%D9%8A+BIN+NASHI%E2%80%AD/data=!4m7!3m6!1s0x3e3791e1cc2d833d:0x690957a95bde77e4!8m2!3d25.3114817!4d49.563472!16s%2Fg%2F11swrvdg9t!19sChIJPYMtzOGRNz4R5HfeW6lXCWk?authuser=0&hl=tr&rclk=1",
    "website_url": "",
    "rating_text": "4,9",
    "stars": null,
    "number_of_reviews": null,
    "price_level": "",
    "open_hours": "",
    "extraction_timestamp": "2025-06-08T03:12:26.685Z",
    "source_name": "google",
    "source_query": "Irrigation Equipment",
    "source_country": "SA",
    "country": "Saudi Arabia",
    "state": "Eastern Province",
    "city": "Al Hufūf"
  },
  {
    "source_id": "ChIJrXH9uwOUNz4Rvsjw7W2yo2s",
    "name": "Melhem of submersibles pumps",
    "category": "Melhem of submersibles pumps",
    "formatted_address": "3,7(18)",
    "phone_number": "+966135879957",
    "source_url": "https://www.google.com/maps/place/Melhem+of+submersibles+pumps/data=!4m7!3m6!1s0x3e379403bbfd71ad:0x6ba3b26dedf0c8be!8m2!3d25.3739468!4d49.612967!16s%2Fg%2F11bw7hxnn0!19sChIJrXH9uwOUNz4Rvsjw7W2yo2s?authuser=0&hl=tr&rclk=1",
    "website_url": "",
    "rating_text": "3,7",
    "stars": null,
    "number_of_reviews": null,
    "price_level": "",
    "open_hours": "",
    "extraction_timestamp": "2025-06-08T03:12:26.686Z",
    "source_name": "google",
    "source_query": "Irrigation Equipment",
    "source_country": "SA",
    "country": "Saudi Arabia",
    "state": "Eastern Province",
    "city": "Al Hufūf"
  },
  {
    "source_id": "ChIJGbDWkOyWNz4R2unSU_hpdFU",
    "name": "Samnan Water Solutions",
    "category": "Samnan Water Solutions",
    "formatted_address": "3,3(95)",
    "phone_number": "+966500529574",
    "source_url": "https://www.google.com/maps/place/Samnan+Water+Solutions/data=!4m7!3m6!1s0x3e3796ec90d6b019:0x557469f853d2e9da!8m2!3d25.3845682!4d49.5877588!16s%2Fg%2F11c1h_jq72!19sChIJGbDWkOyWNz4R2unSU_hpdFU?authuser=0&hl=tr&rclk=1",
    "website_url": "",
    "rating_text": "3,3",
    "stars": null,
    "number_of_reviews": null,
    "price_level": "",
    "open_hours": "",
    "extraction_timestamp": "2025-06-08T03:12:26.687Z",
    "source_name": "google",
    "source_query": "Irrigation Equipment",
    "source_country": "SA",
    "country": "Saudi Arabia",
    "state": "Eastern Province",
    "city": "Al Hufūf"
  },
  {
    "source_id": "ChIJ8VVla1mRNz4RkvyOVzk2gps",
    "name": "شركة البوسعد التجارية",
    "category": "شركة البوسعد التجارية",
    "formatted_address": "4,1(694)",
    "phone_number": "+966135806777",
    "source_url": "https://www.google.com/maps/place/%D8%B4%D8%B1%D9%83%D8%A9+%D8%A7%D9%84%D8%A8%D9%88%D8%B3%D8%B9%D8%AF+%D8%A7%D9%84%D8%AA%D8%AC%D8%A7%D8%B1%D9%8A%D8%A9%E2%80%AD/data=!4m7!3m6!1s0x3e3791596b6555f1:0x9b823639578efc92!8m2!3d25.325108!4d49.5721664!16s%2Fg%2F1pp2twn50!19sChIJ8VVla1mRNz4RkvyOVzk2gps?authuser=0&hl=tr&rclk=1",
    "website_url": "",
    "rating_text": "4,1",
    "stars": null,
    "number_of_reviews": null,
    "price_level": "",
    "open_hours": "",
    "extraction_timestamp": "2025-06-08T03:12:26.689Z",
    "source_name": "google",
    "source_query": "Irrigation Equipment",
    "source_country": "SA",
    "country": "Saudi Arabia",
    "state": "Eastern Province",
    "city": "Al Hufūf"
  },
  {
    "source_id": "ChIJJ538hWaRNz4RSn27yMknOO4",
    "name": "Zone A",
    "category": "Zone A",
    "formatted_address": "5,0(1)",
    "phone_number": "",
    "source_url": "https://www.google.com/maps/place/Zone+A/data=!4m7!3m6!1s0x3e37916685fc9d27:0xee3827c9c8bb7d4a!8m2!3d25.3455701!4d49.5956269!16s%2Fg%2F11l5dk46nt!19sChIJJ538hWaRNz4RSn27yMknOO4?authuser=0&hl=tr&rclk=1",
    "website_url": "",
    "rating_text": "5,0",
    "stars": null,
    "number_of_reviews": null,
    "price_level": "",
    "open_hours": "",
    "extraction_timestamp": "2025-06-08T03:12:26.689Z",
    "source_name": "google",
    "source_query": "Irrigation Equipment",
    "source_country": "SA",
    "country": "Saudi Arabia",
    "state": "Eastern Province",
    "city": "Al Hufūf"
  },
  {
    "source_id": "ChIJPSbw0c-WNz4R-Jo9q8PFs24",
    "name": "البنيان لمواد السباكة",
    "category": "البنيان لمواد السباكة",
    "formatted_address": "4,6(5)",
    "phone_number": "",
    "source_url": "https://www.google.com/maps/place/%D8%A7%D9%84%D8%A8%D9%86%D9%8A%D8%A7%D9%86+%D9%84%D9%85%D9%88%D8%A7%D8%AF+%D8%A7%D9%84%D8%B3%D8%A8%D8%A7%D9%83%D8%A9%E2%80%AD/data=!4m7!3m6!1s0x3e3796cfd1f0263d:0x6eb3c5c3ab3d9af8!8m2!3d25.3639258!4d49.579532!16s%2Fg%2F11bzwrgpjs!19sChIJPSbw0c-WNz4R-Jo9q8PFs24?authuser=0&hl=tr&rclk=1",
    "website_url": "",
    "rating_text": "4,6",
    "stars": null,
    "number_of_reviews": null,
    "price_level": "",
    "open_hours": "",
    "extraction_timestamp": "2025-06-08T03:12:26.690Z",
    "source_name": "google",
    "source_query": "Irrigation Equipment",
    "source_country": "SA",
    "country": "Saudi Arabia",
    "state": "Eastern Province",
    "city": "Al Hufūf"
  },
  {
    "source_id": "ChIJ98JZeWqUNz4RcT1mi8U8eeQ",
    "name": "شركة حسين عبدالهادي بوحليقه التجارية - فرع الخدود",
    "category": "شركة حسين عبدالهادي بوحليقه التجارية - فرع الخدود",
    "formatted_address": "4,5(50)",
    "phone_number": "+966135976120",
    "source_url": "https://www.google.com/maps/place/%D8%B4%D8%B1%D9%83%D8%A9+%D8%AD%D8%B3%D9%8A%D9%86+%D8%B9%D8%A8%D8%AF%D8%A7%D9%84%D9%87%D8%A7%D8%AF%D9%8A+%D8%A8%D9%88%D8%AD%D9%84%D9%8A%D9%82%D9%87+%D8%A7%D9%84%D8%AA%D8%AC%D8%A7%D8%B1%D9%8A%D8%A9+-+%D9%81%D8%B1%D8%B9+%D8%A7%D9%84%D8%AE%D8%AF%D9%88%D8%AF%E2%80%AD/data=!4m7!3m6!1s0x3e37946a7959c2f7:0xe4793cc58b663d71!8m2!3d25.393499!4d49.6328534!16s%2Fg%2F11c206ff7x!19sChIJ98JZeWqUNz4RcT1mi8U8eeQ?authuser=0&hl=tr&rclk=1",
    "website_url": "",
    "rating_text": "4,5",
    "stars": null,
    "number_of_reviews": null,
    "price_level": "",
    "open_hours": "",
    "extraction_timestamp": "2025-06-08T03:12:26.691Z",
    "source_name": "google",
    "source_query": "Irrigation Equipment",
    "source_country": "SA",
    "country": "Saudi Arabia",
    "state": "Eastern Province",
    "city": "Al Hufūf"
  },
  {
    "source_id": "ChIJ9aj8_pmWNz4RFiG4DFu9M7w",
    "name": "اسامة بوحليقة للمواد الصحية والكهربائية Buhalika for sanitary and electrical materials",
    "category": "اسامة بوحليقة للمواد الصحية والكهربائية Buhalika for sanitary and electrical materials",
    "formatted_address": "4,9(18)",
    "phone_number": "+966555925311",
    "source_url": "https://www.google.com/maps/place/%D8%A7%D8%B3%D8%A7%D9%85%D8%A9+%D8%A8%D9%88%D8%AD%D9%84%D9%8A%D9%82%D8%A9+%D9%84%D9%84%D9%85%D9%88%D8%A7%D8%AF+%D8%A7%D9%84%D8%B5%D8%AD%D9%8A%D8%A9+%D9%88%D8%A7%D9%84%D9%83%D9%87%D8%B1%D8%A8%D8%A7%D8%A6%D9%8A%D8%A9+Buhalika+for+sanitary+and+electrical+materials%E2%80%AD/data=!4m7!3m6!1s0x3e379699fefca8f5:0xbc33bd5b0cb82116!8m2!3d25.3868348!4d49.5995649!16s%2Fg%2F11bychszn7!19sChIJ9aj8_pmWNz4RFiG4DFu9M7w?authuser=0&hl=tr&rclk=1",
    "website_url": "",
    "rating_text": "4,9",
    "stars": null,
    "number_of_reviews": null,
    "price_level": "",
    "open_hours": "",
    "extraction_timestamp": "2025-06-08T03:12:26.692Z",
    "source_name": "google",
    "source_query": "Irrigation Equipment",
    "source_country": "SA",
    "country": "Saudi Arabia",
    "state": "Eastern Province",
    "city": "Al Hufūf"
  },
  {
    "source_id": "ChIJQ1Yk6JmWNz4RXl_13Krx8XA",
    "name": "مؤسسة جري ستف التجارية",
    "category": "مؤسسة جري ستف التجارية",
    "formatted_address": "5,0(4)",
    "phone_number": "+966135850200",
    "source_url": "https://www.google.com/maps/place/%D9%85%D8%A4%D8%B3%D8%B3%D8%A9+%D8%AC%D8%B1%D9%8A+%D8%B3%D8%AA%D9%81+%D8%A7%D9%84%D8%AA%D8%AC%D8%A7%D8%B1%D9%8A%D8%A9%E2%80%AD/data=!4m7!3m6!1s0x3e379699e8245643:0x70f1f1aadcf55f5e!8m2!3d25.386611!4d49.6000618!16s%2Fg%2F11f635cy0p!19sChIJQ1Yk6JmWNz4RXl_13Krx8XA?authuser=0&hl=tr&rclk=1",
    "website_url": "",
    "rating_text": "5,0",
    "stars": null,
    "number_of_reviews": null,
    "price_level": "",
    "open_hours": "",
    "extraction_timestamp": "2025-06-08T03:12:26.693Z",
    "source_name": "google",
    "source_query": "Irrigation Equipment",
    "source_country": "SA",
    "country": "Saudi Arabia",
    "state": "Eastern Province",
    "city": "Al Hufūf"
  },
  {
    "source_id": "ChIJn05cxfKXNz4R0CMR271DOiw",
    "name": "سباكة وكهرباء",
    "category": "سباكة وكهرباء",
    "formatted_address": "5,0(8)",
    "phone_number": "+966570199324",
    "source_url": "https://www.google.com/maps/place/%D8%B3%D8%A8%D8%A7%D9%83%D8%A9+%D9%88%D9%83%D9%87%D8%B1%D8%A8%D8%A7%D8%A1%E2%80%AD/data=!4m7!3m6!1s0x3e3797f2c55c4e9f:0x2c3a43bddb1123d0!8m2!3d25.3434525!4d49.5337319!16s%2Fg%2F11x98njw05!19sChIJn05cxfKXNz4R0CMR271DOiw?authuser=0&hl=tr&rclk=1",
    "website_url": "",
    "rating_text": "5,0",
    "stars": null,
    "number_of_reviews": null,
    "price_level": "",
    "open_hours": "",
    "extraction_timestamp": "2025-06-08T03:12:26.693Z",
    "source_name": "google",
    "source_query": "Irrigation Equipment",
    "source_country": "SA",
    "country": "Saudi Arabia",
    "state": "Eastern Province",
    "city": "Al Hufūf"
  },
  {
    "source_id": "ChIJD3_jXq6XNz4R3X2DlJ660es",
    "name": "مؤسسة مصطفى موسى الرمضان للتجارة",
    "category": "مؤسسة مصطفى موسى الرمضان للتجارة",
    "formatted_address": "4,4(8)",
    "phone_number": "+966505916915",
    "source_url": "https://www.google.com/maps/place/%D9%85%D8%A4%D8%B3%D8%B3%D8%A9+%D9%85%D8%B5%D8%B7%D9%81%D9%89+%D9%85%D9%88%D8%B3%D9%89+%D8%A7%D9%84%D8%B1%D9%85%D8%B6%D8%A7%D9%86+%D9%84%D9%84%D8%AA%D8%AC%D8%A7%D8%B1%D8%A9%E2%80%AD/data=!4m7!3m6!1s0x3e3797ae5ee37f0f:0xebd1ba9e94837ddd!8m2!3d25.380026!4d49.5887652!16s%2Fg%2F11cr_ns945!19sChIJD3_jXq6XNz4R3X2DlJ660es?authuser=0&hl=tr&rclk=1",
    "website_url": "",
    "rating_text": "4,4",
    "stars": null,
    "number_of_reviews": null,
    "price_level": "",
    "open_hours": "",
    "extraction_timestamp": "2025-06-08T03:12:26.694Z",
    "source_name": "google",
    "source_query": "Irrigation Equipment",
    "source_country": "SA",
    "country": "Saudi Arabia",
    "state": "Eastern Province",
    "city": "Al Hufūf"
  },
  {
    "source_id": "ChIJoxkFlwiRNz4RVUy7a8IAxso",
    "name": "Dental Zone",
    "category": "Dental Zone",
    "formatted_address": "5,0(1)",
    "phone_number": "",
    "source_url": "https://www.google.com/maps/place/Dental+Zone/data=!4m7!3m6!1s0x3e379108970519a3:0xcac600c26bbb4c55!8m2!3d25.3499236!4d49.5938073!16s%2Fg%2F11vkh3bl1x!19sChIJoxkFlwiRNz4RVUy7a8IAxso?authuser=0&hl=tr&rclk=1",
    "website_url": "",
    "rating_text": "5,0",
    "stars": null,
    "number_of_reviews": null,
    "price_level": "",
    "open_hours": "",
    "extraction_timestamp": "2025-06-08T03:12:26.694Z",
    "source_name": "google",
    "source_query": "Irrigation Equipment",
    "source_country": "SA",
    "country": "Saudi Arabia",
    "state": "Eastern Province",
    "city": "Al Hufūf"
  },
  {
    "source_id": "ChIJswtwTJWWNz4RpbehwIOoYuE",
    "name": "Riyadh Palace for Cooling & Catering Equipment",
    "category": "Riyadh Palace for Cooling & Catering Equipment",
    "formatted_address": "4,9(292)",
    "phone_number": "+966135820161",
    "source_url": "https://www.google.com/maps/place/Riyadh+Palace+for+Cooling+%26+Catering+Equipment/data=!4m7!3m6!1s0x3e3796954c700bb3:0xe162a883c0a1b7a5!8m2!3d25.3801955!4d49.5898289!16s%2Fg%2F11b61q0bdt!19sChIJswtwTJWWNz4RpbehwIOoYuE?authuser=0&hl=tr&rclk=1",
    "website_url": "",
    "rating_text": "4,9",
    "stars": null,
    "number_of_reviews": null,
    "price_level": "",
    "open_hours": "",
    "extraction_timestamp": "2025-06-08T03:12:26.695Z",
    "source_name": "google",
    "source_query": "Irrigation Equipment",
    "source_country": "SA",
    "country": "Saudi Arabia",
    "state": "Eastern Province",
    "city": "Al Hufūf"
  },
  {
    "source_id": "ChIJr7FMeCmRNz4RSH1hmhncCQk",
    "name": "My garden Agricultural Foundation",
    "category": "My garden Agricultural Foundation",
    "formatted_address": "4,2(92)",
    "phone_number": "+966537360008",
    "source_url": "https://www.google.com/maps/place/My+garden+Agricultural+Foundation/data=!4m7!3m6!1s0x3e379129784cb1af:0x909dc199a617d48!8m2!3d25.3747681!4d49.5666164!16s%2Fg%2F11c0w_xn5d!19sChIJr7FMeCmRNz4RSH1hmhncCQk?authuser=0&hl=tr&rclk=1",
    "website_url": "",
    "rating_text": "4,2",
    "stars": null,
    "number_of_reviews": null,
    "price_level": "",
    "open_hours": "",
    "extraction_timestamp": "2025-06-08T03:12:26.696Z",
    "source_name": "google",
    "source_query": "Irrigation Equipment",
    "source_country": "SA",
    "country": "Saudi Arabia",
    "state": "Eastern Province",
    "city": "Al Hufūf"
  },
  {
    "source_id": "ChIJYX0tXTuWNz4R7Edb2DPFlOg",
    "name": "AlSsaleh",
    "category": "AlSsaleh",
    "formatted_address": "4,3(426)",
    "phone_number": "+966503919533",
    "source_url": "https://www.google.com/maps/place/AlSsaleh/data=!4m7!3m6!1s0x3e37963b5d2d7d61:0xe894c533d85b47ec!8m2!3d25.4253566!4d49.5832839!16s%2Fg%2F11dxql7w22!19sChIJYX0tXTuWNz4R7Edb2DPFlOg?authuser=0&hl=tr&rclk=1",
    "website_url": "",
    "rating_text": "4,3",
    "stars": null,
    "number_of_reviews": null,
    "price_level": "",
    "open_hours": "",
    "extraction_timestamp": "2025-06-08T03:12:26.697Z",
    "source_name": "google",
    "source_query": "Irrigation Equipment",
    "source_country": "SA",
    "country": "Saudi Arabia",
    "state": "Eastern Province",
    "city": "Al Hufūf"
  },
  {
    "source_id": "ChIJTfSaIr-WNz4RHd9kNOE6uo0",
    "name": "Rashed Electricity",
    "category": "Rashed Electricity",
    "formatted_address": "4,1(88)",
    "phone_number": "+966543529770",
    "source_url": "https://www.google.com/maps/place/Rashed+Electricity/data=!4m7!3m6!1s0x3e3796bf229af44d:0x8dba3ae13464df1d!8m2!3d25.3761351!4d49.5910845!16s%2Fg%2F11cnct3cvy!19sChIJTfSaIr-WNz4RHd9kNOE6uo0?authuser=0&hl=tr&rclk=1",
    "website_url": "",
    "rating_text": "4,1",
    "stars": null,
    "number_of_reviews": null,
    "price_level": "",
    "open_hours": "",
    "extraction_timestamp": "2025-06-08T03:12:26.697Z",
    "source_name": "google",
    "source_query": "Irrigation Equipment",
    "source_country": "SA",
    "country": "Saudi Arabia",
    "state": "Eastern Province",
    "city": "Al Hufūf"
  },
  {
    "source_id": "ChIJwTjHIJiWNz4RveI1Z4d-xk4",
    "name": "Al-Hassan Al-Madhahi Corporation for the sale of sanitary and electrical materials",
    "category": "Al-Hassan Al-Madhahi Corporation for the sale of sanitary and electrical materials",
    "formatted_address": "4,7(20)",
    "phone_number": "+966540448465",
    "source_url": "https://www.google.com/maps/place/Al-Hassan+Al-Madhahi+Corporation+for+the+sale+of+sanitary+and+electrical+materials/data=!4m7!3m6!1s0x3e37969820c738c1:0x4ec67e876735e2bd!8m2!3d25.3833166!4d49.5991868!16s%2Fg%2F11gdmcpqwl!19sChIJwTjHIJiWNz4RveI1Z4d-xk4?authuser=0&hl=tr&rclk=1",
    "website_url": "",
    "rating_text": "4,7",
    "stars": null,
    "number_of_reviews": null,
    "price_level": "",
    "open_hours": "",
    "extraction_timestamp": "2025-06-08T03:12:26.698Z",
    "source_name": "google",
    "source_query": "Irrigation Equipment",
    "source_country": "SA",
    "country": "Saudi Arabia",
    "state": "Eastern Province",
    "city": "Al Hufūf"
  },
  {
    "source_id": "ChIJAwtBYACRNz4RyKotBTX1xnU",
    "name": "مؤسسة سيف العزيزية التجارية",
    "category": "مؤسسة سيف العزيزية التجارية",
    "formatted_address": "5,0(2)",
    "phone_number": "+966537232221",
    "source_url": "https://www.google.com/maps/place/%D9%85%D8%A4%D8%B3%D8%B3%D8%A9+%D8%B3%D9%8A%D9%81+%D8%A7%D9%84%D8%B9%D8%B2%D9%8A%D8%B2%D9%8A%D8%A9+%D8%A7%D9%84%D8%AA%D8%AC%D8%A7%D8%B1%D9%8A%D8%A9%E2%80%AD/data=!4m7!3m6!1s0x3e37910060410b03:0x75c6f535052daac8!8m2!3d25.3240253!4d49.5780902!16s%2Fg%2F11vt58q4jk!19sChIJAwtBYACRNz4RyKotBTX1xnU?authuser=0&hl=tr&rclk=1",
    "website_url": "",
    "rating_text": "5,0",
    "stars": null,
    "number_of_reviews": null,
    "price_level": "",
    "open_hours": "",
    "extraction_timestamp": "2025-06-08T03:12:26.699Z",
    "source_name": "google",
    "source_query": "Irrigation Equipment",
    "source_country": "SA",
    "country": "Saudi Arabia",
    "state": "Eastern Province",
    "city": "Al Hufūf"
  },
  {
    "source_id": "ChIJo6cXL_2XNz4RzmB91lZmfj8",
    "name": "مؤسسة مجال الخدمه للتجارة",
    "category": "مؤسسة مجال الخدمه للتجارة",
    "formatted_address": "5,0(4)",
    "phone_number": "+966539400016",
    "source_url": "https://www.google.com/maps/place/%D9%85%D8%A4%D8%B3%D8%B3%D8%A9+%D9%85%D8%AC%D8%A7%D9%84+%D8%A7%D9%84%D8%AE%D8%AF%D9%85%D9%87+%D9%84%D9%84%D8%AA%D8%AC%D8%A7%D8%B1%D8%A9%E2%80%AD/data=!4m7!3m6!1s0x3e3797fd2f17a7a3:0x3f7e6656d67d60ce!8m2!3d25.3641885!4d49.5578277!16s%2Fg%2F11v3kt2b_h!19sChIJo6cXL_2XNz4RzmB91lZmfj8?authuser=0&hl=tr&rclk=1",
    "website_url": "",
    "rating_text": "5,0",
    "stars": null,
    "number_of_reviews": null,
    "price_level": "",
    "open_hours": "",
    "extraction_timestamp": "2025-06-08T03:12:26.700Z",
    "source_name": "google",
    "source_query": "Irrigation Equipment",
    "source_country": "SA",
    "country": "Saudi Arabia",
    "state": "Eastern Province",
    "city": "Al Hufūf"
  },
  {
    "source_id": "ChIJC9uBp5uXNz4RjeDxIRO0CSY",
    "name": "اتكو للسراميك والادوات الصحية ATCO",
    "category": "اتكو للسراميك والادوات الصحية ATCO",
    "formatted_address": "4,5(38)",
    "phone_number": "+966555846630",
    "source_url": "https://www.google.com/maps/place/%D8%A7%D8%AA%D9%83%D9%88+%D9%84%D9%84%D8%B3%D8%B1%D8%A7%D9%85%D9%8A%D9%83+%D9%88%D8%A7%D9%84%D8%A7%D8%AF%D9%88%D8%A7%D8%AA+%D8%A7%D9%84%D8%B5%D8%AD%D9%8A%D8%A9+ATCO%E2%80%AD/data=!4m7!3m6!1s0x3e37979ba781db0b:0x2609b41321f1e08d!8m2!3d25.3739367!4d49.6066654!16s%2Fg%2F11rrqc029k!19sChIJC9uBp5uXNz4RjeDxIRO0CSY?authuser=0&hl=tr&rclk=1",
    "website_url": "",
    "rating_text": "4,5",
    "stars": null,
    "number_of_reviews": null,
    "price_level": "",
    "open_hours": "",
    "extraction_timestamp": "2025-06-08T03:12:26.701Z",
    "source_name": "google",
    "source_query": "Irrigation Equipment",
    "source_country": "SA",
    "country": "Saudi Arabia",
    "state": "Eastern Province",
    "city": "Al Hufūf"
  },
  {
    "source_id": "ChIJhceniriTNz4R_S9Gg0g0HJs",
    "name": "Al-Bushaier Trading & Contracting Co.",
    "category": "Al-Bushaier Trading & Contracting Co.",
    "formatted_address": "3,8(129)",
    "phone_number": "+966135891999",
    "source_url": "https://www.google.com/maps/place/Al-Bushaier+Trading+%26+Contracting+Co./data=!4m7!3m6!1s0x3e3793b88aa7c785:0x9b1c344883462ffd!8m2!3d25.3467832!4d49.6307818!16s%2Fg%2F1pp2x6cs3!19sChIJhceniriTNz4R_S9Gg0g0HJs?authuser=0&hl=tr&rclk=1",
    "website_url": "",
    "rating_text": "3,8",
    "stars": null,
    "number_of_reviews": null,
    "price_level": "",
    "open_hours": "",
    "extraction_timestamp": "2025-06-08T03:12:26.701Z",
    "source_name": "google",
    "source_query": "Irrigation Equipment",
    "source_country": "SA",
    "country": "Saudi Arabia",
    "state": "Eastern Province",
    "city": "Al Hufūf"
  },
  {
    "source_id": "ChIJp73Wfq-WNz4RQkevjA22Pjo",
    "name": "مؤسسة يوسف للتجارة",
    "category": "مؤسسة يوسف للتجارة",
    "formatted_address": "3,9(7)",
    "phone_number": "+966541890703",
    "source_url": "https://www.google.com/maps/place/%D9%85%D8%A4%D8%B3%D8%B3%D8%A9+%D9%8A%D9%88%D8%B3%D9%81+%D9%84%D9%84%D8%AA%D8%AC%D8%A7%D8%B1%D8%A9%E2%80%AD/data=!4m7!3m6!1s0x3e3796af7ed6bda7:0x3a3eb60d8caf4742!8m2!3d25.373443!4d49.601973!16s%2Fg%2F11gjhgfksp!19sChIJp73Wfq-WNz4RQkevjA22Pjo?authuser=0&hl=tr&rclk=1",
    "website_url": "",
    "rating_text": "3,9",
    "stars": null,
    "number_of_reviews": null,
    "price_level": "",
    "open_hours": "",
    "extraction_timestamp": "2025-06-08T03:12:26.702Z",
    "source_name": "google",
    "source_query": "Irrigation Equipment",
    "source_country": "SA",
    "country": "Saudi Arabia",
    "state": "Eastern Province",
    "city": "Al Hufūf"
  },
  {
    "source_id": "ChIJX2BcF3CXNz4RmWyLg11BLAk",
    "name": "مشكاتي للإنارة والكهرباء",
    "category": "مشكاتي للإنارة والكهرباء",
    "formatted_address": "4,6(689)",
    "phone_number": "+9668004300030",
    "source_url": "https://www.google.com/maps/place/%D9%85%D8%B4%D9%83%D8%A7%D8%AA%D9%8A+%D9%84%D9%84%D8%A5%D9%86%D8%A7%D8%B1%D8%A9+%D9%88%D8%A7%D9%84%D9%83%D9%87%D8%B1%D8%A8%D8%A7%D8%A1%E2%80%AD/data=!4m7!3m6!1s0x3e379770175c605f:0x92c415d838b6c99!8m2!3d25.4142558!4d49.5766197!16s%2Fg%2F11fj3s990f!19sChIJX2BcF3CXNz4RmWyLg11BLAk?authuser=0&hl=tr&rclk=1",
    "website_url": "",
    "rating_text": "4,6",
    "stars": null,
    "number_of_reviews": null,
    "price_level": "",
    "open_hours": "",
    "extraction_timestamp": "2025-06-08T03:12:26.703Z",
    "source_name": "google",
    "source_query": "Irrigation Equipment",
    "source_country": "SA",
    "country": "Saudi Arabia",
    "state": "Eastern Province",
    "city": "Al Hufūf"
  },
  {
    "source_id": "ChIJBx05IwCXNz4RthIiSifefrE",
    "name": "مؤسسة يوسف علي العلي للتجارة والمقاولات",
    "category": "مؤسسة يوسف علي العلي للتجارة والمقاولات",
    "formatted_address": "5,0(1)",
    "phone_number": "+966552315439",
    "source_url": "https://www.google.com/maps/place/%D9%85%D8%A4%D8%B3%D8%B3%D8%A9+%D9%8A%D9%88%D8%B3%D9%81+%D8%B9%D9%84%D9%8A+%D8%A7%D9%84%D8%B9%D9%84%D9%8A+%D9%84%D9%84%D8%AA%D8%AC%D8%A7%D8%B1%D8%A9+%D9%88%D8%A7%D9%84%D9%85%D9%82%D8%A7%D9%88%D9%84%D8%A7%D8%AA%E2%80%AD/data=!4m7!3m6!1s0x3e37970023391d07:0xb17ede274a2212b6!8m2!3d25.380026!4d49.5887652!16s%2Fg%2F11y4359vlk!19sChIJBx05IwCXNz4RthIiSifefrE?authuser=0&hl=tr&rclk=1",
    "website_url": "",
    "rating_text": "5,0",
    "stars": null,
    "number_of_reviews": null,
    "price_level": "",
    "open_hours": "",
    "extraction_timestamp": "2025-06-08T03:12:26.704Z",
    "source_name": "google",
    "source_query": "Irrigation Equipment",
    "source_country": "SA",
    "country": "Saudi Arabia",
    "state": "Eastern Province",
    "city": "Al Hufūf"
  },
  {
    "source_id": "ChIJW3YT68WWNz4RApzVgaK6WQ4",
    "name": "world cooling center",
    "category": "world cooling center",
    "formatted_address": "4,4(88)",
    "phone_number": "+966135853373",
    "source_url": "https://www.google.com/maps/place/world+cooling+center/data=!4m7!3m6!1s0x3e3796c5eb13765b:0xe59baa281d59c02!8m2!3d25.3684387!4d49.5827888!16s%2Fg%2F11ghsgdhl1!19sChIJW3YT68WWNz4RApzVgaK6WQ4?authuser=0&hl=tr&rclk=1",
    "website_url": "",
    "rating_text": "4,4",
    "stars": null,
    "number_of_reviews": null,
    "price_level": "",
    "open_hours": "",
    "extraction_timestamp": "2025-06-08T03:12:26.705Z",
    "source_name": "google",
    "source_query": "Irrigation Equipment",
    "source_country": "SA",
    "country": "Saudi Arabia",
    "state": "Eastern Province",
    "city": "Al Hufūf"
  },
  {
    "source_id": "ChIJa7A7yDaRNz4RwASOc1n2Wek",
    "name": "مؤسسة المطور الذكي للأدوات الصحية",
    "category": "مؤسسة المطور الذكي للأدوات الصحية",
    "formatted_address": "5,0(3)",
    "phone_number": "+966550535314",
    "source_url": "https://www.google.com/maps/place/%D9%85%D8%A4%D8%B3%D8%B3%D8%A9+%D8%A7%D9%84%D9%85%D8%B7%D9%88%D8%B1+%D8%A7%D9%84%D8%B0%D9%83%D9%8A+%D9%84%D9%84%D8%A3%D8%AF%D9%88%D8%A7%D8%AA+%D8%A7%D9%84%D8%B5%D8%AD%D9%8A%D8%A9%E2%80%AD/data=!4m7!3m6!1s0x3e379136c83bb06b:0xe959f659738e04c0!8m2!3d25.3201586!4d49.5888415!16s%2Fg%2F11vr_7np3q!19sChIJa7A7yDaRNz4RwASOc1n2Wek?authuser=0&hl=tr&rclk=1",
    "website_url": "",
    "rating_text": "5,0",
    "stars": null,
    "number_of_reviews": null,
    "price_level": "",
    "open_hours": "",
    "extraction_timestamp": "2025-06-08T03:12:26.705Z",
    "source_name": "google",
    "source_query": "Irrigation Equipment",
    "source_country": "SA",
    "country": "Saudi Arabia",
    "state": "Eastern Province",
    "city": "Al Hufūf"
  },
  {
    "source_id": "ChIJgTisuaiWNz4RjFy95GYhpUg",
    "name": "Antco",
    "category": "Antco",
    "formatted_address": "5,0(1)",
    "phone_number": "+966553666189",
    "source_url": "https://www.google.com/maps/place/Antco/data=!4m7!3m6!1s0x3e3796a8b9ac3881:0x48a52166e4bd5c8c!8m2!3d25.3737257!4d49.6051819!16s%2Fg%2F1jkw4b7cn!19sChIJgTisuaiWNz4RjFy95GYhpUg?authuser=0&hl=tr&rclk=1",
    "website_url": "",
    "rating_text": "5,0",
    "stars": null,
    "number_of_reviews": null,
    "price_level": "",
    "open_hours": "",
    "extraction_timestamp": "2025-06-08T03:12:26.706Z",
    "source_name": "google",
    "source_query": "Irrigation Equipment",
    "source_country": "SA",
    "country": "Saudi Arabia",
    "state": "Eastern Province",
    "city": "Al Hufūf"
  },
  {
    "source_id": "ChIJo4cLBa6VNz4RQ8rgnx6g1i4",
    "name": "مدار للعدد والادوات Madar Hardware",
    "category": "مدار للعدد والادوات Madar Hardware",
    "formatted_address": "4,0(2)",
    "phone_number": "+966582748818",
    "source_url": "https://www.google.com/maps/place/%D9%85%D8%AF%D8%A7%D8%B1+%D9%84%D9%84%D8%B9%D8%AF%D8%AF+%D9%88%D8%A7%D9%84%D8%A7%D8%AF%D9%88%D8%A7%D8%AA+Madar+Hardware%E2%80%AD/data=!4m7!3m6!1s0x3e3795ae050b87a3:0x2ed6a01e9fe0ca43!8m2!3d25.376484!4d49.6361452!16s%2Fg%2F11h4wkt87m!19sChIJo4cLBa6VNz4RQ8rgnx6g1i4?authuser=0&hl=tr&rclk=1",
    "website_url": "",
    "rating_text": "4,0",
    "stars": null,
    "number_of_reviews": null,
    "price_level": "",
    "open_hours": "",
    "extraction_timestamp": "2025-06-08T03:12:26.707Z",
    "source_name": "google",
    "source_query": "Irrigation Equipment",
    "source_country": "SA",
    "country": "Saudi Arabia",
    "state": "Eastern Province",
    "city": "Al Hufūf"
  },
  {
    "source_id": "ChIJ7W2bRwyRNz4R0k5Z44T7uxg",
    "name": "اكفا التجارية",
    "category": "اكفا التجارية",
    "formatted_address": "5,0(9)",
    "phone_number": "",
    "source_url": "https://www.google.com/maps/place/%D8%A7%D9%83%D9%81%D8%A7+%D8%A7%D9%84%D8%AA%D8%AC%D8%A7%D8%B1%D9%8A%D8%A9%E2%80%AD/data=!4m7!3m6!1s0x3e37910c479b6ded:0x18bbfb84e3594ed2!8m2!3d25.3276948!4d49.5790409!16s%2Fg%2F11j2fq0_35!19sChIJ7W2bRwyRNz4R0k5Z44T7uxg?authuser=0&hl=tr&rclk=1",
    "website_url": "",
    "rating_text": "5,0",
    "stars": null,
    "number_of_reviews": null,
    "price_level": "",
    "open_hours": "",
    "extraction_timestamp": "2025-06-08T03:12:26.707Z",
    "source_name": "google",
    "source_query": "Irrigation Equipment",
    "source_country": "SA",
    "country": "Saudi Arabia",
    "state": "Eastern Province",
    "city": "Al Hufūf"
  }
]
