[
  {
    "source_id": "ChIJv1OWIGGgNT4RsOv03kQQVPQ",
    "name": "Gulf Al Jubail Trading Est",
    "category": "Gulf Al Jubail Trading Est",
    "formatted_address": "4,6(42)",
    "phone_number": "+966531387667",
    "source_url": "https://www.google.com/maps/place/Gulf+Al+Jubail+Trading+Est/data=!4m7!3m6!1s0x3e35a061209653bf:0xf4541044def4ebb0!8m2!3d27.01131!4d49.6543399!16s%2Fg%2F11dxqlpnn3!19sChIJv1OWIGGgNT4RsOv03kQQVPQ?authuser=0&hl=tr&rclk=1",
    "website_url": "http://www.gulfaljubail.com/",
    "rating_text": "4,6",
    "stars": null,
    "number_of_reviews": null,
    "price_level": "",
    "open_hours": "",
    "extraction_timestamp": "2025-06-08T03:10:15.840Z",
    "source_name": "google",
    "source_query": "Irrigation Equipment",
    "source_country": "SA",
    "country": "Saudi Arabia",
    "state": "Eastern Province",
    "city": "Al Jubayl"
  },
  {
    "source_id": "ChIJjTevrTShNT4RCzQA6ptrgU8",
    "name": "Fateh Al Jubail Trading Est",
    "category": "Fateh Al Jubail Trading Est",
    "formatted_address": "4,8(25)",
    "phone_number": "+966555065430",
    "source_url": "https://www.google.com/maps/place/Fateh+Al+Jubail+Trading+Est/data=!4m7!3m6!1s0x3e35a134adaf378d:0x4f816b9bea00340b!8m2!3d27.0088898!4d49.6465797!16s%2Fg%2F11ttbcsl32!19sChIJjTevrTShNT4RCzQA6ptrgU8?authuser=0&hl=tr&rclk=1",
    "website_url": "http://www.fatehaljubail.com/",
    "rating_text": "4,8",
    "stars": null,
    "number_of_reviews": null,
    "price_level": "",
    "open_hours": "",
    "extraction_timestamp": "2025-06-08T03:10:15.841Z",
    "source_name": "google",
    "source_query": "Irrigation Equipment",
    "source_country": "SA",
    "country": "Saudi Arabia",
    "state": "Eastern Province",
    "city": "Al Jubayl"
  },
  {
    "source_id": "ChIJr2dxn4mgNT4R-Ab--EUwFkM",
    "name": "Al Naimi for Safety Equipment| شركة النعيمي للسلامة",
    "category": "Al Naimi for Safety Equipment| شركة النعيمي للسلامة",
    "formatted_address": "4,1(98)",
    "phone_number": "+966541522322",
    "source_url": "https://www.google.com/maps/place/Al+Naimi+for+Safety+Equipment%7C+%D8%B4%D8%B1%D9%83%D8%A9+%D8%A7%D9%84%D9%86%D8%B9%D9%8A%D9%85%D9%8A+%D9%84%D9%84%D8%B3%D9%84%D8%A7%D9%85%D8%A9%E2%80%AD/data=!4m7!3m6!1s0x3e35a0899f7167af:0x43163045f8fe06f8!8m2!3d27.012426!4d49.6483147!16s%2Fg%2F11c6q4mzd6!19sChIJr2dxn4mgNT4R-Ab--EUwFkM?authuser=0&hl=tr&rclk=1",
    "website_url": "http://www.nsafety.net/",
    "rating_text": "4,1",
    "stars": null,
    "number_of_reviews": null,
    "price_level": "",
    "open_hours": "",
    "extraction_timestamp": "2025-06-08T03:10:15.841Z",
    "source_name": "google",
    "source_query": "Irrigation Equipment",
    "source_country": "SA",
    "country": "Saudi Arabia",
    "state": "Eastern Province",
    "city": "Al Jubayl"
  },
  {
    "source_id": "ChIJsfA1z2CgNT4R9iEe_3uVbpw",
    "name": "مشاري الجبيل تجارة Jubail Corporation Trading (JCT)",
    "category": "مشاري الجبيل تجارة Jubail Corporation Trading (JCT)",
    "formatted_address": "4,5(26)",
    "phone_number": "+966133614748",
    "source_url": "https://www.google.com/maps/place/%D9%85%D8%B4%D8%A7%D8%B1%D9%8A+%D8%A7%D9%84%D8%AC%D8%A8%D9%8A%D9%84+%D8%AA%D8%AC%D8%A7%D8%B1%D8%A9+Jubail+Corporation+Trading+%28JCT%29%E2%80%AD/data=!4m7!3m6!1s0x3e35a060cf35f0b1:0x9c6e957bff1e21f6!8m2!3d27.0105139!4d49.6547327!16s%2Fg%2F11b7hf_xfd!19sChIJsfA1z2CgNT4R9iEe_3uVbpw?authuser=0&hl=tr&rclk=1",
    "website_url": "http://www.jubailcorp.com/",
    "rating_text": "4,5",
    "stars": null,
    "number_of_reviews": null,
    "price_level": "",
    "open_hours": "",
    "extraction_timestamp": "2025-06-08T03:10:15.841Z",
    "source_name": "google",
    "source_query": "Irrigation Equipment",
    "source_country": "SA",
    "country": "Saudi Arabia",
    "state": "Eastern Province",
    "city": "Al Jubayl"
  },
  {
    "source_id": "ChIJiSbKZxaiNT4RuBmtow5D0og",
    "name": "Trillium Flow Technologies / Termomeccanica Saudi Co. Ltd.",
    "category": "Trillium Flow Technologies / Termomeccanica Saudi Co. Ltd.",
    "formatted_address": "4,3(21)",
    "phone_number": "+966561438094",
    "source_url": "https://www.google.com/maps/place/Trillium+Flow+Technologies+%2F+Termomeccanica+Saudi+Co.+Ltd./data=!4m7!3m6!1s0x3e35a21667ca2689:0x88d2430ea3ad19b8!8m2!3d26.9430637!4d49.6727561!16s%2Fg%2F11c6f24jws!19sChIJiSbKZxaiNT4RuBmtow5D0og?authuser=0&hl=tr&rclk=1",
    "website_url": "https://www.trilliumflow.com/",
    "rating_text": "4,3",
    "stars": null,
    "number_of_reviews": null,
    "price_level": "",
    "open_hours": "",
    "extraction_timestamp": "2025-06-08T03:10:15.842Z",
    "source_name": "google",
    "source_query": "Irrigation Equipment",
    "source_country": "SA",
    "country": "Saudi Arabia",
    "state": "Eastern Province",
    "city": "Al Jubayl"
  },
  {
    "source_id": "ChIJZ5z-A6GhNT4R7xx-rWyOPyQ",
    "name": "SAPPHIRE ALJUBAIL GENERAL CONTRACTING EST",
    "category": "SAPPHIRE ALJUBAIL GENERAL CONTRACTING EST",
    "formatted_address": "4,7(13)",
    "phone_number": "+966542908146",
    "source_url": "https://www.google.com/maps/place/SAPPHIRE+ALJUBAIL+GENERAL+CONTRACTING+EST/data=!4m7!3m6!1s0x3e35a1a103fe9c67:0x243f8e6cad7e1cef!8m2!3d27.0072007!4d49.6549153!16s%2Fg%2F11hl_r4_0w!19sChIJZ5z-A6GhNT4R7xx-rWyOPyQ?authuser=0&hl=tr&rclk=1",
    "website_url": "",
    "rating_text": "4,7",
    "stars": null,
    "number_of_reviews": null,
    "price_level": "",
    "open_hours": "",
    "extraction_timestamp": "2025-06-08T03:10:15.842Z",
    "source_name": "google",
    "source_query": "Irrigation Equipment",
    "source_country": "SA",
    "country": "Saudi Arabia",
    "state": "Eastern Province",
    "city": "Al Jubayl"
  },
  {
    "source_id": "ChIJI9DbBbmgNT4Rb8FpSWNsft4",
    "name": "Gulf Pipe Supply and Services",
    "category": "Gulf Pipe Supply and Services",
    "formatted_address": "4,1(99)",
    "phone_number": "+966133630061",
    "source_url": "https://www.google.com/maps/place/Gulf+Pipe+Supply+and+Services/data=!4m7!3m6!1s0x3e35a0b905dbd023:0xde7e6c634969c16f!8m2!3d27.0010231!4d49.6227936!16s%2Fg%2F1ptyqpcq2!19sChIJI9DbBbmgNT4Rb8FpSWNsft4?authuser=0&hl=tr&rclk=1",
    "website_url": "http://www.gulfpipesupply.com/",
    "rating_text": "4,1",
    "stars": null,
    "number_of_reviews": null,
    "price_level": "",
    "open_hours": "",
    "extraction_timestamp": "2025-06-08T03:10:15.842Z",
    "source_name": "google",
    "source_query": "Irrigation Equipment",
    "source_country": "SA",
    "country": "Saudi Arabia",
    "state": "Eastern Province",
    "city": "Al Jubayl"
  },
  {
    "source_id": "ChIJSZdG2PegNT4RYlYCxM5nVvA",
    "name": "Samnan Water Solutions",
    "category": "Samnan Water Solutions",
    "formatted_address": "3,6(33)",
    "phone_number": "+966559210741",
    "source_url": "https://www.google.com/maps/place/Samnan+Water+Solutions/data=!4m7!3m6!1s0x3e35a0f7d8469749:0xf05667cec4025662!8m2!3d26.998925!4d49.650347!16s%2Fg%2F11gf0q2ts8!19sChIJSZdG2PegNT4RYlYCxM5nVvA?authuser=0&hl=tr&rclk=1",
    "website_url": "http://www.samnanonline.com/",
    "rating_text": "3,6",
    "stars": null,
    "number_of_reviews": null,
    "price_level": "",
    "open_hours": "",
    "extraction_timestamp": "2025-06-08T03:10:15.843Z",
    "source_name": "google",
    "source_query": "Irrigation Equipment",
    "source_country": "SA",
    "country": "Saudi Arabia",
    "state": "Eastern Province",
    "city": "Al Jubayl"
  },
  {
    "source_id": "ChIJ3aFRT7sPNT4ROHwHBAfrKQE",
    "name": "ETECHS - Industrial Safety & Security Sector (ISSS)",
    "category": "ETECHS - Industrial Safety & Security Sector (ISSS)",
    "formatted_address": "4,8(17)",
    "phone_number": "+966920033046",
    "source_url": "https://www.google.com/maps/place/ETECHS+-+Industrial+Safety+%26+Security+Sector+%28ISSS%29/data=!4m7!3m6!1s0x3e350fbb4f51a1dd:0x129eb0704077c38!8m2!3d27.1216072!4d49.5545799!16s%2Fg%2F1hc0y5fw2!19sChIJ3aFRT7sPNT4ROHwHBAfrKQE?authuser=0&hl=tr&rclk=1",
    "website_url": "http://www.etechsco.com/",
    "rating_text": "4,8",
    "stars": null,
    "number_of_reviews": null,
    "price_level": "",
    "open_hours": "",
    "extraction_timestamp": "2025-06-08T03:10:15.843Z",
    "source_name": "google",
    "source_query": "Irrigation Equipment",
    "source_country": "SA",
    "country": "Saudi Arabia",
    "state": "Eastern Province",
    "city": "Al Jubayl"
  },
  {
    "source_id": "ChIJ2U_fsLEFNT4R7Rt7zVw3GvM",
    "name": "Irrigation pump station",
    "category": "Irrigation pump station",
    "formatted_address": "Sulama Ekipmanları Tedarikçisi · 3F62+2X5, Rd 7Kalıcı olarak kapalı",
    "phone_number": "",
    "source_url": "https://www.google.com/maps/place/Irrigation+pump+station/data=!4m7!3m6!1s0x3e3505b1b0df4fd9:0xf31a375ccd7b1bed!8m2!3d27.0600021!4d49.452475!16s%2Fg%2F11rwwx3j8j!19sChIJ2U_fsLEFNT4R7Rt7zVw3GvM?authuser=0&hl=tr&rclk=1",
    "website_url": "",
    "rating_text": "",
    "stars": null,
    "number_of_reviews": null,
    "price_level": "",
    "open_hours": "",
    "extraction_timestamp": "2025-06-08T03:10:15.844Z",
    "source_name": "google",
    "source_query": "Irrigation Equipment",
    "source_country": "SA",
    "country": "Saudi Arabia",
    "state": "Eastern Province",
    "city": "Al Jubayl"
  }
]
