[
  {
    "source_id": "ChIJYX0tXTuWNz4R7Edb2DPFlOg",
    "name": "AlSsaleh",
    "category": "AlSsaleh",
    "formatted_address": "4,3(426)",
    "phone_number": "+966503919533",
    "source_url": "https://www.google.com/maps/place/AlSsaleh/data=!4m7!3m6!1s0x3e37963b5d2d7d61:0xe894c533d85b47ec!8m2!3d25.4253566!4d49.5832839!16s%2Fg%2F11dxql7w22!19sChIJYX0tXTuWNz4R7Edb2DPFlOg?authuser=0&hl=tr&rclk=1",
    "website_url": "",
    "rating_text": "4,3",
    "stars": null,
    "number_of_reviews": null,
    "price_level": "",
    "open_hours": "",
    "extraction_timestamp": "2025-06-08T03:12:15.840Z",
    "source_name": "google",
    "source_query": "Irrigation Equipment",
    "source_country": "SA",
    "country": "Saudi Arabia",
    "state": "Eastern Province",
    "city": "Al Mubarraz"
  },
  {
    "source_id": "ChIJ82nGNhyXNz4RFs8MeC5gkes",
    "name": "الخزف السعودي المبرز | الهفوف",
    "category": "الخزف السعودي المبرز | الهفوف",
    "formatted_address": "3,6(188)",
    "phone_number": "+966920011124",
    "source_url": "https://www.google.com/maps/place/%D8%A7%D9%84%D8%AE%D8%B2%D9%81+%D8%A7%D9%84%D8%B3%D8%B9%D9%88%D8%AF%D9%8A+%D8%A7%D9%84%D9%85%D8%A8%D8%B1%D8%B2+%7C+%D8%A7%D9%84%D9%87%D9%81%D9%88%D9%81%E2%80%AD/data=!4m7!3m6!1s0x3e37971c36c669f3:0xeb91602e780ccf16!8m2!3d25.3971919!4d49.5830633!16s%2Fg%2F11gy47f_r8!19sChIJ82nGNhyXNz4RFs8MeC5gkes?authuser=0&hl=tr&rclk=1",
    "website_url": "",
    "rating_text": "3,6",
    "stars": null,
    "number_of_reviews": null,
    "price_level": "",
    "open_hours": "",
    "extraction_timestamp": "2025-06-08T03:12:15.842Z",
    "source_name": "google",
    "source_query": "Irrigation Equipment",
    "source_country": "SA",
    "country": "Saudi Arabia",
    "state": "Eastern Province",
    "city": "Al Mubarraz"
  },
  {
    "source_id": "ChIJrXH9uwOUNz4Rvsjw7W2yo2s",
    "name": "Melhem of submersibles pumps",
    "category": "Melhem of submersibles pumps",
    "formatted_address": "3,7(18)",
    "phone_number": "+966135879957",
    "source_url": "https://www.google.com/maps/place/Melhem+of+submersibles+pumps/data=!4m7!3m6!1s0x3e379403bbfd71ad:0x6ba3b26dedf0c8be!8m2!3d25.3739468!4d49.612967!16s%2Fg%2F11bw7hxnn0!19sChIJrXH9uwOUNz4Rvsjw7W2yo2s?authuser=0&hl=tr&rclk=1",
    "website_url": "",
    "rating_text": "3,7",
    "stars": null,
    "number_of_reviews": null,
    "price_level": "",
    "open_hours": "",
    "extraction_timestamp": "2025-06-08T03:12:15.843Z",
    "source_name": "google",
    "source_query": "Irrigation Equipment",
    "source_country": "SA",
    "country": "Saudi Arabia",
    "state": "Eastern Province",
    "city": "Al Mubarraz"
  },
  {
    "source_id": "ChIJV6Dcdua9Nz4RwNZnv2rz0zs",
    "name": "مؤسسة عبدالله طاهر البريه للسباكة والكهرباء والمواد الصحية",
    "category": "مؤسسة عبدالله طاهر البريه للسباكة والكهرباء والمواد الصحية",
    "formatted_address": "4,9(77)",
    "phone_number": "+966135731481",
    "source_url": "https://www.google.com/maps/place/%D9%85%D8%A4%D8%B3%D8%B3%D8%A9+%D8%B9%D8%A8%D8%AF%D8%A7%D9%84%D9%84%D9%87+%D8%B7%D8%A7%D9%87%D8%B1+%D8%A7%D9%84%D8%A8%D8%B1%D9%8A%D9%87+%D9%84%D9%84%D8%B3%D8%A8%D8%A7%D9%83%D8%A9+%D9%88%D8%A7%D9%84%D9%83%D9%87%D8%B1%D8%A8%D8%A7%D8%A1+%D9%88%D8%A7%D9%84%D9%85%D9%88%D8%A7%D8%AF+%D8%A7%D9%84%D8%B5%D8%AD%D9%8A%D8%A9%E2%80%AD/data=!4m7!3m6!1s0x3e37bde676dca057:0x3bd3f36abf67d6c0!8m2!3d25.4570867!4d49.6010261!16s%2Fg%2F11by_fgmdf!19sChIJV6Dcdua9Nz4RwNZnv2rz0zs?authuser=0&hl=tr&rclk=1",
    "website_url": "",
    "rating_text": "4,9",
    "stars": null,
    "number_of_reviews": null,
    "price_level": "",
    "open_hours": "",
    "extraction_timestamp": "2025-06-08T03:12:15.845Z",
    "source_name": "google",
    "source_query": "Irrigation Equipment",
    "source_country": "SA",
    "country": "Saudi Arabia",
    "state": "Eastern Province",
    "city": "Al Mubarraz"
  },
  {
    "source_id": "ChIJBWSzuom9Nz4R3mmiXto1gR4",
    "name": "Samnan For Submersible",
    "category": "Samnan For Submersible",
    "formatted_address": "3,6(13)",
    "phone_number": "+966500335076",
    "source_url": "https://www.google.com/maps/place/Samnan+For+Submersible/data=!4m7!3m6!1s0x3e37bd89bab36405:0x1e8135da5ea269de!8m2!3d25.4378928!4d49.5825723!16s%2Fg%2F11c56sfr9c!19sChIJBWSzuom9Nz4R3mmiXto1gR4?authuser=0&hl=tr&rclk=1",
    "website_url": "",
    "rating_text": "3,6",
    "stars": null,
    "number_of_reviews": null,
    "price_level": "",
    "open_hours": "",
    "extraction_timestamp": "2025-06-08T03:12:15.846Z",
    "source_name": "google",
    "source_query": "Irrigation Equipment",
    "source_country": "SA",
    "country": "Saudi Arabia",
    "state": "Eastern Province",
    "city": "Al Mubarraz"
  },
  {
    "source_id": "ChIJ6c9TRt2TNz4RzHpF3i6jtoo",
    "name": "Alyaseen Agri Co.",
    "category": "Alyaseen Agri Co.",
    "formatted_address": "4,1(112)",
    "phone_number": "+966504922538",
    "source_url": "https://www.google.com/maps/place/Alyaseen+Agri+Co./data=!4m7!3m6!1s0x3e3793dd4653cfe9:0x8ab6a32ede457acc!8m2!3d25.3484541!4d49.6135477!16s%2Fg%2F11c54grx7m!19sChIJ6c9TRt2TNz4RzHpF3i6jtoo?authuser=0&hl=tr&rclk=1",
    "website_url": "",
    "rating_text": "4,1",
    "stars": null,
    "number_of_reviews": null,
    "price_level": "",
    "open_hours": "",
    "extraction_timestamp": "2025-06-08T03:12:15.847Z",
    "source_name": "google",
    "source_query": "Irrigation Equipment",
    "source_country": "SA",
    "country": "Saudi Arabia",
    "state": "Eastern Province",
    "city": "Al Mubarraz"
  },
  {
    "source_id": "ChIJGbDWkOyWNz4R2unSU_hpdFU",
    "name": "Samnan Water Solutions",
    "category": "Samnan Water Solutions",
    "formatted_address": "3,3(95)",
    "phone_number": "+966500529574",
    "source_url": "https://www.google.com/maps/place/Samnan+Water+Solutions/data=!4m7!3m6!1s0x3e3796ec90d6b019:0x557469f853d2e9da!8m2!3d25.3845682!4d49.5877588!16s%2Fg%2F11c1h_jq72!19sChIJGbDWkOyWNz4R2unSU_hpdFU?authuser=0&hl=tr&rclk=1",
    "website_url": "",
    "rating_text": "3,3",
    "stars": null,
    "number_of_reviews": null,
    "price_level": "",
    "open_hours": "",
    "extraction_timestamp": "2025-06-08T03:12:15.849Z",
    "source_name": "google",
    "source_query": "Irrigation Equipment",
    "source_country": "SA",
    "country": "Saudi Arabia",
    "state": "Eastern Province",
    "city": "Al Mubarraz"
  },
  {
    "source_id": "ChIJN8WY8lqWNz4Rey2v9yuy6XE",
    "name": "انبوب للتجارة والصناعة | Inbob Trading & Industrials",
    "category": "انبوب للتجارة والصناعة | Inbob Trading & Industrials",
    "formatted_address": "3,7(15)",
    "phone_number": "+966135850896",
    "source_url": "https://www.google.com/maps/place/%D8%A7%D9%86%D8%A8%D9%88%D8%A8+%D9%84%D9%84%D8%AA%D8%AC%D8%A7%D8%B1%D8%A9+%D9%88%D8%A7%D9%84%D8%B5%D9%86%D8%A7%D8%B9%D8%A9+%7C+Inbob+Trading+%26+Industrials%E2%80%AD/data=!4m7!3m6!1s0x3e37965af298c537:0x71e9b22bf7af2d7b!8m2!3d25.4039808!4d49.580191!16s%2Fg%2F11fzf8mbk4!19sChIJN8WY8lqWNz4Rey2v9yuy6XE?authuser=0&hl=tr&rclk=1",
    "website_url": "",
    "rating_text": "3,7",
    "stars": null,
    "number_of_reviews": null,
    "price_level": "",
    "open_hours": "",
    "extraction_timestamp": "2025-06-08T03:12:15.850Z",
    "source_name": "google",
    "source_query": "Irrigation Equipment",
    "source_country": "SA",
    "country": "Saudi Arabia",
    "state": "Eastern Province",
    "city": "Al Mubarraz"
  },
  {
    "source_id": "ChIJke0IWAu9Nz4RBe4gzZ9DjYk",
    "name": "AL HAWRAA ICE AND SWEET WATER FACTORY",
    "category": "AL HAWRAA ICE AND SWEET WATER FACTORY",
    "formatted_address": "3,8(6)",
    "phone_number": "+966506295977",
    "source_url": "https://www.google.com/maps/place/AL+HAWRAA+ICE+AND+SWEET+WATER+FACTORY/data=!4m7!3m6!1s0x3e37bd0b5808ed91:0x898d439fcd20ee05!8m2!3d25.4452525!4d49.5885697!16s%2Fg%2F11trzpxk3s!19sChIJke0IWAu9Nz4RBe4gzZ9DjYk?authuser=0&hl=tr&rclk=1",
    "website_url": "",
    "rating_text": "3,8",
    "stars": null,
    "number_of_reviews": null,
    "price_level": "",
    "open_hours": "",
    "extraction_timestamp": "2025-06-08T03:12:15.851Z",
    "source_name": "google",
    "source_query": "Irrigation Equipment",
    "source_country": "SA",
    "country": "Saudi Arabia",
    "state": "Eastern Province",
    "city": "Al Mubarraz"
  },
  {
    "source_id": "ChIJswtwTJWWNz4RpbehwIOoYuE",
    "name": "Riyadh Palace for Cooling & Catering Equipment",
    "category": "Riyadh Palace for Cooling & Catering Equipment",
    "formatted_address": "4,9(292)",
    "phone_number": "+966135820161",
    "source_url": "https://www.google.com/maps/place/Riyadh+Palace+for+Cooling+%26+Catering+Equipment/data=!4m7!3m6!1s0x3e3796954c700bb3:0xe162a883c0a1b7a5!8m2!3d25.3801955!4d49.5898289!16s%2Fg%2F11b61q0bdt!19sChIJswtwTJWWNz4RpbehwIOoYuE?authuser=0&hl=tr&rclk=1",
    "website_url": "",
    "rating_text": "4,9",
    "stars": null,
    "number_of_reviews": null,
    "price_level": "",
    "open_hours": "",
    "extraction_timestamp": "2025-06-08T03:12:15.853Z",
    "source_name": "google",
    "source_query": "Irrigation Equipment",
    "source_country": "SA",
    "country": "Saudi Arabia",
    "state": "Eastern Province",
    "city": "Al Mubarraz"
  },
  {
    "source_id": "ChIJ9_9ME4i9Nz4RDNUolMpYPg8",
    "name": "Ahmed Ramadhan Juma Sons Trading Co. L.L.C – Al Ahsa",
    "category": "Ahmed Ramadhan Juma Sons Trading Co. L.L.C – Al Ahsa",
    "formatted_address": "5,0(1)",
    "phone_number": "+966135830602",
    "source_url": "https://www.google.com/maps/place/Ahmed+Ramadhan+Juma+Sons+Trading+Co.+L.L.C+%E2%80%93+Al+Ahsa/data=!4m7!3m6!1s0x3e37bd88134cfff7:0xf3e58ca9428d50c!8m2!3d25.4363485!4d49.579837!16s%2Fg%2F11g6m24z_y!19sChIJ9_9ME4i9Nz4RDNUolMpYPg8?authuser=0&hl=tr&rclk=1",
    "website_url": "",
    "rating_text": "5,0",
    "stars": null,
    "number_of_reviews": null,
    "price_level": "",
    "open_hours": "",
    "extraction_timestamp": "2025-06-08T03:12:15.854Z",
    "source_name": "google",
    "source_query": "Irrigation Equipment",
    "source_country": "SA",
    "country": "Saudi Arabia",
    "state": "Eastern Province",
    "city": "Al Mubarraz"
  },
  {
    "source_id": "ChIJuWMUdsO9Nz4RriTS7A6sR1I",
    "name": "العجمي للأدوات الصحية",
    "category": "العجمي للأدوات الصحية",
    "formatted_address": "2,3(4)",
    "phone_number": "+966135992226",
    "source_url": "https://www.google.com/maps/place/%D8%A7%D9%84%D8%B9%D8%AC%D9%85%D9%8A+%D9%84%D9%84%D8%A3%D8%AF%D9%88%D8%A7%D8%AA+%D8%A7%D9%84%D8%B5%D8%AD%D9%8A%D8%A9%E2%80%AD/data=!4m7!3m6!1s0x3e37bdc3761463b9:0x5247ac0eecd224ae!8m2!3d25.4594986!4d49.5554946!16s%2Fg%2F11rsskrmrd!19sChIJuWMUdsO9Nz4RriTS7A6sR1I?authuser=0&hl=tr&rclk=1",
    "website_url": "",
    "rating_text": "2,3",
    "stars": null,
    "number_of_reviews": null,
    "price_level": "",
    "open_hours": "",
    "extraction_timestamp": "2025-06-08T03:12:15.855Z",
    "source_name": "google",
    "source_query": "Irrigation Equipment",
    "source_country": "SA",
    "country": "Saudi Arabia",
    "state": "Eastern Province",
    "city": "Al Mubarraz"
  },
  {
    "source_id": "ChIJZ-jDDMWXNz4RcDh2rZUtV6M",
    "name": "مؤسسة محمد سعد الدوسري التجارية",
    "category": "مؤسسة محمد سعد الدوسري التجارية",
    "formatted_address": "4,4(16)",
    "phone_number": "+966135930007",
    "source_url": "https://www.google.com/maps/place/%D9%85%D8%A4%D8%B3%D8%B3%D8%A9+%D9%85%D8%AD%D9%85%D8%AF+%D8%B3%D8%B9%D8%AF+%D8%A7%D9%84%D8%AF%D9%88%D8%B3%D8%B1%D9%8A+%D8%A7%D9%84%D8%AA%D8%AC%D8%A7%D8%B1%D9%8A%D8%A9%E2%80%AD/data=!4m7!3m6!1s0x3e3797c50cc3e867:0xa3572d95ad763870!8m2!3d25.4158109!4d49.557134!16s%2Fg%2F11g0hlhj9s!19sChIJZ-jDDMWXNz4RcDh2rZUtV6M?authuser=0&hl=tr&rclk=1",
    "website_url": "",
    "rating_text": "4,4",
    "stars": null,
    "number_of_reviews": null,
    "price_level": "",
    "open_hours": "",
    "extraction_timestamp": "2025-06-08T03:12:15.857Z",
    "source_name": "google",
    "source_query": "Irrigation Equipment",
    "source_country": "SA",
    "country": "Saudi Arabia",
    "state": "Eastern Province",
    "city": "Al Mubarraz"
  },
  {
    "source_id": "ChIJEUAgRvK9Nz4RTN9GVv6NGrA",
    "name": "Saudi Irrigation Organization",
    "category": "Saudi Irrigation Organization",
    "formatted_address": "4,0(6)",
    "phone_number": "+966135300093",
    "source_url": "https://www.google.com/maps/place/Saudi+Irrigation+Organization/data=!4m7!3m6!1s0x3e37bdf246204011:0xb01a8dfe5646df4c!8m2!3d25.4532603!4d49.5674841!16s%2Fg%2F11g10n00hh!19sChIJEUAgRvK9Nz4RTN9GVv6NGrA?authuser=0&hl=tr&rclk=1",
    "website_url": "",
    "rating_text": "4,0",
    "stars": null,
    "number_of_reviews": null,
    "price_level": "",
    "open_hours": "",
    "extraction_timestamp": "2025-06-08T03:12:15.858Z",
    "source_name": "google",
    "source_query": "Irrigation Equipment",
    "source_country": "SA",
    "country": "Saudi Arabia",
    "state": "Eastern Province",
    "city": "Al Mubarraz"
  },
  {
    "source_id": "ChIJCxrTCFK9Nz4RRpz7WWZKzf4",
    "name": "مزرعة المؤسسة العامة للري بجليجلة",
    "category": "مزرعة المؤسسة العامة للري بجليجلة",
    "formatted_address": "4,4(27)",
    "phone_number": "",
    "source_url": "https://www.google.com/maps/place/%D9%85%D8%B2%D8%B1%D8%B9%D8%A9+%D8%A7%D9%84%D9%85%D8%A4%D8%B3%D8%B3%D8%A9+%D8%A7%D9%84%D8%B9%D8%A7%D9%85%D8%A9+%D9%84%D9%84%D8%B1%D9%8A+%D8%A8%D8%AC%D9%84%D9%8A%D8%AC%D9%84%D8%A9%E2%80%AD/data=!4m7!3m6!1s0x3e37bd5208d31a0b:0xfecd4a6659fb9c46!8m2!3d25.5038304!4d49.5931555!16s%2Fg%2F11fb1v6y65!19sChIJCxrTCFK9Nz4RRpz7WWZKzf4?authuser=0&hl=tr&rclk=1",
    "website_url": "",
    "rating_text": "4,4",
    "stars": null,
    "number_of_reviews": null,
    "price_level": "",
    "open_hours": "",
    "extraction_timestamp": "2025-06-08T03:12:15.859Z",
    "source_name": "google",
    "source_query": "Irrigation Equipment",
    "source_country": "SA",
    "country": "Saudi Arabia",
    "state": "Eastern Province",
    "city": "Al Mubarraz"
  },
  {
    "source_id": "ChIJmWoAPzuXNz4RDqJKZ2--Iys",
    "name": "شركة اعمار الاحسا",
    "category": "شركة اعمار الاحسا",
    "formatted_address": "3,7(22)",
    "phone_number": "",
    "source_url": "https://www.google.com/maps/place/%D8%B4%D8%B1%D9%83%D8%A9+%D8%A7%D8%B9%D9%85%D8%A7%D8%B1+%D8%A7%D9%84%D8%A7%D8%AD%D8%B3%D8%A7%E2%80%AD/data=!4m7!3m6!1s0x3e37973b3f006a99:0x2b23be6f674aa20e!8m2!3d25.4043485!4d49.5522265!16s%2Fg%2F11v0f42zqf!19sChIJmWoAPzuXNz4RDqJKZ2--Iys?authuser=0&hl=tr&rclk=1",
    "website_url": "",
    "rating_text": "3,7",
    "stars": null,
    "number_of_reviews": null,
    "price_level": "",
    "open_hours": "",
    "extraction_timestamp": "2025-06-08T03:12:15.860Z",
    "source_name": "google",
    "source_query": "Irrigation Equipment",
    "source_country": "SA",
    "country": "Saudi Arabia",
    "state": "Eastern Province",
    "city": "Al Mubarraz"
  },
  {
    "source_id": "ChIJr7FMeCmRNz4RSH1hmhncCQk",
    "name": "My garden Agricultural Foundation",
    "category": "My garden Agricultural Foundation",
    "formatted_address": "4,2(92)",
    "phone_number": "+966537360008",
    "source_url": "https://www.google.com/maps/place/My+garden+Agricultural+Foundation/data=!4m7!3m6!1s0x3e379129784cb1af:0x909dc199a617d48!8m2!3d25.3747681!4d49.5666164!16s%2Fg%2F11c0w_xn5d!19sChIJr7FMeCmRNz4RSH1hmhncCQk?authuser=0&hl=tr&rclk=1",
    "website_url": "",
    "rating_text": "4,2",
    "stars": null,
    "number_of_reviews": null,
    "price_level": "",
    "open_hours": "",
    "extraction_timestamp": "2025-06-08T03:12:15.861Z",
    "source_name": "google",
    "source_query": "Irrigation Equipment",
    "source_country": "SA",
    "country": "Saudi Arabia",
    "state": "Eastern Province",
    "city": "Al Mubarraz"
  },
  {
    "source_id": "ChIJJ538hWaRNz4RSn27yMknOO4",
    "name": "Zone A",
    "category": "Zone A",
    "formatted_address": "5,0(1)",
    "phone_number": "",
    "source_url": "https://www.google.com/maps/place/Zone+A/data=!4m7!3m6!1s0x3e37916685fc9d27:0xee3827c9c8bb7d4a!8m2!3d25.3455701!4d49.5956269!16s%2Fg%2F11l5dk46nt!19sChIJJ538hWaRNz4RSn27yMknOO4?authuser=0&hl=tr&rclk=1",
    "website_url": "",
    "rating_text": "5,0",
    "stars": null,
    "number_of_reviews": null,
    "price_level": "",
    "open_hours": "",
    "extraction_timestamp": "2025-06-08T03:12:15.862Z",
    "source_name": "google",
    "source_query": "Irrigation Equipment",
    "source_country": "SA",
    "country": "Saudi Arabia",
    "state": "Eastern Province",
    "city": "Al Mubarraz"
  },
  {
    "source_id": "ChIJ9aj8_pmWNz4RFiG4DFu9M7w",
    "name": "اسامة بوحليقة للمواد الصحية والكهربائية Buhalika for sanitary and electrical materials",
    "category": "اسامة بوحليقة للمواد الصحية والكهربائية Buhalika for sanitary and electrical materials",
    "formatted_address": "4,9(18)",
    "phone_number": "+966555925311",
    "source_url": "https://www.google.com/maps/place/%D8%A7%D8%B3%D8%A7%D9%85%D8%A9+%D8%A8%D9%88%D8%AD%D9%84%D9%8A%D9%82%D8%A9+%D9%84%D9%84%D9%85%D9%88%D8%A7%D8%AF+%D8%A7%D9%84%D8%B5%D8%AD%D9%8A%D8%A9+%D9%88%D8%A7%D9%84%D9%83%D9%87%D8%B1%D8%A8%D8%A7%D8%A6%D9%8A%D8%A9+Buhalika+for+sanitary+and+electrical+materials%E2%80%AD/data=!4m7!3m6!1s0x3e379699fefca8f5:0xbc33bd5b0cb82116!8m2!3d25.3868348!4d49.5995649!16s%2Fg%2F11bychszn7!19sChIJ9aj8_pmWNz4RFiG4DFu9M7w?authuser=0&hl=tr&rclk=1",
    "website_url": "",
    "rating_text": "4,9",
    "stars": null,
    "number_of_reviews": null,
    "price_level": "",
    "open_hours": "",
    "extraction_timestamp": "2025-06-08T03:12:15.863Z",
    "source_name": "google",
    "source_query": "Irrigation Equipment",
    "source_country": "SA",
    "country": "Saudi Arabia",
    "state": "Eastern Province",
    "city": "Al Mubarraz"
  },
  {
    "source_id": "ChIJD3_jXq6XNz4R3X2DlJ660es",
    "name": "مؤسسة مصطفى موسى الرمضان للتجارة",
    "category": "مؤسسة مصطفى موسى الرمضان للتجارة",
    "formatted_address": "4,4(8)",
    "phone_number": "+966505916915",
    "source_url": "https://www.google.com/maps/place/%D9%85%D8%A4%D8%B3%D8%B3%D8%A9+%D9%85%D8%B5%D8%B7%D9%81%D9%89+%D9%85%D9%88%D8%B3%D9%89+%D8%A7%D9%84%D8%B1%D9%85%D8%B6%D8%A7%D9%86+%D9%84%D9%84%D8%AA%D8%AC%D8%A7%D8%B1%D8%A9%E2%80%AD/data=!4m7!3m6!1s0x3e3797ae5ee37f0f:0xebd1ba9e94837ddd!8m2!3d25.380026!4d49.5887652!16s%2Fg%2F11cr_ns945!19sChIJD3_jXq6XNz4R3X2DlJ660es?authuser=0&hl=tr&rclk=1",
    "website_url": "",
    "rating_text": "4,4",
    "stars": null,
    "number_of_reviews": null,
    "price_level": "",
    "open_hours": "",
    "extraction_timestamp": "2025-06-08T03:12:15.864Z",
    "source_name": "google",
    "source_query": "Irrigation Equipment",
    "source_country": "SA",
    "country": "Saudi Arabia",
    "state": "Eastern Province",
    "city": "Al Mubarraz"
  },
  {
    "source_id": "ChIJLaCiileRNz4R3qC83FQcq3k",
    "name": "أمان",
    "category": "أمان",
    "formatted_address": "4,0(16)",
    "phone_number": "+966538999362",
    "source_url": "https://www.google.com/maps/place/%D8%A3%D9%85%D8%A7%D9%86%E2%80%AD/data=!4m7!3m6!1s0x3e3791578aa2a02d:0x79ab1c54dcbca0de!8m2!3d25.3561966!4d49.6084907!16s%2Fg%2F11g0ldfrnc!19sChIJLaCiileRNz4R3qC83FQcq3k?authuser=0&hl=tr&rclk=1",
    "website_url": "",
    "rating_text": "4,0",
    "stars": null,
    "number_of_reviews": null,
    "price_level": "",
    "open_hours": "",
    "extraction_timestamp": "2025-06-08T03:12:15.865Z",
    "source_name": "google",
    "source_query": "Irrigation Equipment",
    "source_country": "SA",
    "country": "Saudi Arabia",
    "state": "Eastern Province",
    "city": "Al Mubarraz"
  },
  {
    "source_id": "ChIJ-dkDoACjNz4R0_nZl5coZTI",
    "name": "Steel Force Trading - Al Ahsa, Hofuf",
    "category": "Steel Force Trading - Al Ahsa, Hofuf",
    "formatted_address": "Steel Force Trading - Al Ahsa, Hofuf",
    "phone_number": "+966535466183",
    "source_url": "https://www.google.com/maps/place/Steel+Force+Trading+-+Al+Ahsa,+Hofuf/data=!4m7!3m6!1s0x3e37a300a003d9f9:0x3265289797d9f9d3!8m2!3d25.4119358!4d49.4788151!16s%2Fg%2F11fpd9yh3p!19sChIJ-dkDoACjNz4R0_nZl5coZTI?authuser=0&hl=tr&rclk=1",
    "website_url": "",
    "rating_text": "4,2",
    "stars": null,
    "number_of_reviews": null,
    "price_level": "",
    "open_hours": "",
    "extraction_timestamp": "2025-06-08T03:12:15.866Z",
    "source_name": "google",
    "source_query": "Irrigation Equipment",
    "source_country": "SA",
    "country": "Saudi Arabia",
    "state": "Eastern Province",
    "city": "Al Mubarraz"
  },
  {
    "source_id": "ChIJC9uBp5uXNz4RjeDxIRO0CSY",
    "name": "اتكو للسراميك والادوات الصحية ATCO",
    "category": "اتكو للسراميك والادوات الصحية ATCO",
    "formatted_address": "4,5(38)",
    "phone_number": "+966555846630",
    "source_url": "https://www.google.com/maps/place/%D8%A7%D8%AA%D9%83%D9%88+%D9%84%D9%84%D8%B3%D8%B1%D8%A7%D9%85%D9%8A%D9%83+%D9%88%D8%A7%D9%84%D8%A7%D8%AF%D9%88%D8%A7%D8%AA+%D8%A7%D9%84%D8%B5%D8%AD%D9%8A%D8%A9+ATCO%E2%80%AD/data=!4m7!3m6!1s0x3e37979ba781db0b:0x2609b41321f1e08d!8m2!3d25.3739367!4d49.6066654!16s%2Fg%2F11rrqc029k!19sChIJC9uBp5uXNz4RjeDxIRO0CSY?authuser=0&hl=tr&rclk=1",
    "website_url": "",
    "rating_text": "4,5",
    "stars": null,
    "number_of_reviews": null,
    "price_level": "",
    "open_hours": "",
    "extraction_timestamp": "2025-06-08T03:12:15.867Z",
    "source_name": "google",
    "source_query": "Irrigation Equipment",
    "source_country": "SA",
    "country": "Saudi Arabia",
    "state": "Eastern Province",
    "city": "Al Mubarraz"
  },
  {
    "source_id": "ChIJQ1Yk6JmWNz4RXl_13Krx8XA",
    "name": "مؤسسة جري ستف التجارية",
    "category": "مؤسسة جري ستف التجارية",
    "formatted_address": "5,0(4)",
    "phone_number": "+966135850200",
    "source_url": "https://www.google.com/maps/place/%D9%85%D8%A4%D8%B3%D8%B3%D8%A9+%D8%AC%D8%B1%D9%8A+%D8%B3%D8%AA%D9%81+%D8%A7%D9%84%D8%AA%D8%AC%D8%A7%D8%B1%D9%8A%D8%A9%E2%80%AD/data=!4m7!3m6!1s0x3e379699e8245643:0x70f1f1aadcf55f5e!8m2!3d25.386611!4d49.6000618!16s%2Fg%2F11f635cy0p!19sChIJQ1Yk6JmWNz4RXl_13Krx8XA?authuser=0&hl=tr&rclk=1",
    "website_url": "",
    "rating_text": "5,0",
    "stars": null,
    "number_of_reviews": null,
    "price_level": "",
    "open_hours": "",
    "extraction_timestamp": "2025-06-08T03:12:15.868Z",
    "source_name": "google",
    "source_query": "Irrigation Equipment",
    "source_country": "SA",
    "country": "Saudi Arabia",
    "state": "Eastern Province",
    "city": "Al Mubarraz"
  },
  {
    "source_id": "ChIJRZQCF8S9Nz4R2XStJF-r-dI",
    "name": "منتجع الراشد Alrashid_resort",
    "category": "منتجع الراشد Alrashid_resort",
    "formatted_address": "3,9(552)",
    "phone_number": "+966554332212",
    "source_url": "https://www.google.com/maps/place/%D9%85%D9%86%D8%AA%D8%AC%D8%B9+%D8%A7%D9%84%D8%B1%D8%A7%D8%B4%D8%AF+Alrashid_resort%E2%80%AD/data=!4m7!3m6!1s0x3e37bdc417029445:0xd2f9ab5f24ad74d9!8m2!3d25.468361!4d49.5944112!16s%2Fg%2F11c5t289qy!19sChIJRZQCF8S9Nz4R2XStJF-r-dI?authuser=0&hl=tr&rclk=1",
    "website_url": "",
    "rating_text": "3,9",
    "stars": null,
    "number_of_reviews": null,
    "price_level": "",
    "open_hours": "",
    "extraction_timestamp": "2025-06-08T03:12:15.868Z",
    "source_name": "google",
    "source_query": "Irrigation Equipment",
    "source_country": "SA",
    "country": "Saudi Arabia",
    "state": "Eastern Province",
    "city": "Al Mubarraz"
  },
  {
    "source_id": "ChIJwTjHIJiWNz4RveI1Z4d-xk4",
    "name": "Al-Hassan Al-Madhahi Corporation for the sale of sanitary and electrical materials",
    "category": "Al-Hassan Al-Madhahi Corporation for the sale of sanitary and electrical materials",
    "formatted_address": "4,7(20)",
    "phone_number": "+966540448465",
    "source_url": "https://www.google.com/maps/place/Al-Hassan+Al-Madhahi+Corporation+for+the+sale+of+sanitary+and+electrical+materials/data=!4m7!3m6!1s0x3e37969820c738c1:0x4ec67e876735e2bd!8m2!3d25.3833166!4d49.5991868!16s%2Fg%2F11gdmcpqwl!19sChIJwTjHIJiWNz4RveI1Z4d-xk4?authuser=0&hl=tr&rclk=1",
    "website_url": "",
    "rating_text": "4,7",
    "stars": null,
    "number_of_reviews": null,
    "price_level": "",
    "open_hours": "",
    "extraction_timestamp": "2025-06-08T03:12:15.869Z",
    "source_name": "google",
    "source_query": "Irrigation Equipment",
    "source_country": "SA",
    "country": "Saudi Arabia",
    "state": "Eastern Province",
    "city": "Al Mubarraz"
  },
  {
    "source_id": "ChIJa8N_55mWNz4R8F8CNaj-GPc",
    "name": "Muhammad Ali Foundation Aelaidalsalam",
    "category": "Muhammad Ali Foundation Aelaidalsalam",
    "formatted_address": "4,5(12)",
    "phone_number": "+966544695485",
    "source_url": "https://www.google.com/maps/place/Muhammad+Ali+Foundation+Aelaidalsalam/data=!4m7!3m6!1s0x3e379699e77fc36b:0xf718fea835025ff0!8m2!3d25.3865137!4d49.5997011!16s%2Fg%2F11bxdzc4gp!19sChIJa8N_55mWNz4R8F8CNaj-GPc?authuser=0&hl=tr&rclk=1",
    "website_url": "",
    "rating_text": "4,5",
    "stars": null,
    "number_of_reviews": null,
    "price_level": "",
    "open_hours": "",
    "extraction_timestamp": "2025-06-08T03:12:15.870Z",
    "source_name": "google",
    "source_query": "Irrigation Equipment",
    "source_country": "SA",
    "country": "Saudi Arabia",
    "state": "Eastern Province",
    "city": "Al Mubarraz"
  },
  {
    "source_id": "ChIJJ03VgQGXNz4Rs9OB-ZJmUtg",
    "name": "التوفير الشامل",
    "category": "التوفير الشامل",
    "formatted_address": "4,2(2.740)",
    "phone_number": "+966570988805",
    "source_url": "https://www.google.com/maps/place/%D8%A7%D9%84%D8%AA%D9%88%D9%81%D9%8A%D8%B1+%D8%A7%D9%84%D8%B4%D8%A7%D9%85%D9%84%E2%80%AD/data=!4m7!3m6!1s0x3e37970181d54d27:0xd8526692f981d3b3!8m2!3d25.4210415!4d49.5721199!16s%2Fg%2F11g_tggwd_!19sChIJJ03VgQGXNz4Rs9OB-ZJmUtg?authuser=0&hl=tr&rclk=1",
    "website_url": "",
    "rating_text": "4,2",
    "stars": null,
    "number_of_reviews": null,
    "price_level": "",
    "open_hours": "",
    "extraction_timestamp": "2025-06-08T03:12:15.872Z",
    "source_name": "google",
    "source_query": "Irrigation Equipment",
    "source_country": "SA",
    "country": "Saudi Arabia",
    "state": "Eastern Province",
    "city": "Al Mubarraz"
  },
  {
    "source_id": "ChIJ62t7MKWVNz4RGGS65dVDR9Y",
    "name": "منتجع أكسجين",
    "category": "منتجع أكسجين",
    "formatted_address": "4,4(107)",
    "phone_number": "+966569700609",
    "source_url": "https://www.google.com/maps/place/%D9%85%D9%86%D8%AA%D8%AC%D8%B9+%D8%A3%D9%83%D8%B3%D8%AC%D9%8A%D9%86%E2%80%AD/data=!4m7!3m6!1s0x3e3795a5307b6beb:0xd64743d5e5ba6418!8m2!3d25.4397786!4d49.6105692!16s%2Fg%2F11s69bpy2s!19sChIJ62t7MKWVNz4RGGS65dVDR9Y?authuser=0&hl=tr&rclk=1",
    "website_url": "",
    "rating_text": "4,4",
    "stars": null,
    "number_of_reviews": null,
    "price_level": "",
    "open_hours": "",
    "extraction_timestamp": "2025-06-08T03:12:15.873Z",
    "source_name": "google",
    "source_query": "Irrigation Equipment",
    "source_country": "SA",
    "country": "Saudi Arabia",
    "state": "Eastern Province",
    "city": "Al Mubarraz"
  },
  {
    "source_id": "ChIJY6RnRseXNz4RCT-YJnlNSUw",
    "name": "الحربي للسباكه والكهرباء",
    "category": "الحربي للسباكه والكهرباء",
    "formatted_address": "4,9(11)",
    "phone_number": "+966505932372",
    "source_url": "https://www.google.com/maps/place/%D8%A7%D9%84%D8%AD%D8%B1%D8%A8%D9%8A+%D9%84%D9%84%D8%B3%D8%A8%D8%A7%D9%83%D9%87+%D9%88%D8%A7%D9%84%D9%83%D9%87%D8%B1%D8%A8%D8%A7%D8%A1%E2%80%AD/data=!4m7!3m6!1s0x3e3797c74667a463:0x4c494d7926983f09!8m2!3d25.4080222!4d49.5542043!16s%2Fg%2F11hdkvy277!19sChIJY6RnRseXNz4RCT-YJnlNSUw?authuser=0&hl=tr&rclk=1",
    "website_url": "",
    "rating_text": "4,9",
    "stars": null,
    "number_of_reviews": null,
    "price_level": "",
    "open_hours": "",
    "extraction_timestamp": "2025-06-08T03:12:15.874Z",
    "source_name": "google",
    "source_query": "Irrigation Equipment",
    "source_country": "SA",
    "country": "Saudi Arabia",
    "state": "Eastern Province",
    "city": "Al Mubarraz"
  }
]
