[
  {
    "source_id": "ChIJ848909zvST4RB5fRC91hN80",
    "name": "MEAC AL-KHOBAR",
    "category": "MEAC AL-KHOBAR",
    "formatted_address": "4,9(8)",
    "phone_number": "+966561027930",
    "source_url": "https://www.google.com/maps/place/MEAC+AL-KHOBAR/data=!4m7!3m6!1s0x3e49efdcd33d8ff3:0xcd3761dd0bd19707!8m2!3d26.3914925!4d50.1782674!16s%2Fg%2F11j00lf0vv!19sChIJ848909zvST4RB5fRC91hN80?authuser=0&hl=tr&rclk=1",
    "website_url": "",
    "rating_text": "4,9",
    "stars": null,
    "number_of_reviews": null,
    "price_level": "",
    "open_hours": "",
    "extraction_timestamp": "2025-06-08T03:09:40.429Z",
    "source_name": "google",
    "source_query": "Irrigation Equipment",
    "source_country": "SA",
    "country": "Saudi Arabia",
    "state": "Eastern Province",
    "city": "Al Qārah"
  },
  {
    "source_id": "ChIJ_ewzIj2jLz4RG1ZkOVBSGXQ",
    "name": "SAUDI DRIP IRRIGATION SYSTEMS COMPANY",
    "category": "SAUDI DRIP IRRIGATION SYSTEMS COMPANY",
    "formatted_address": "4,5(2)",
    "phone_number": "+966112650445",
    "source_url": "https://www.google.com/maps/place/SAUDI+DRIP+IRRIGATION+SYSTEMS+COMPANY/data=!4m7!3m6!1s0x3e2fa33d2233ecfd:0x741952503964561b!8m2!3d24.5274617!4d46.9076911!16s%2Fg%2F11j4lpbk7m!19sChIJ_ewzIj2jLz4RG1ZkOVBSGXQ?authuser=0&hl=tr&rclk=1",
    "website_url": "",
    "rating_text": "4,5",
    "stars": null,
    "number_of_reviews": null,
    "price_level": "",
    "open_hours": "",
    "extraction_timestamp": "2025-06-08T03:09:40.430Z",
    "source_name": "google",
    "source_query": "Irrigation Equipment",
    "source_country": "SA",
    "country": "Saudi Arabia",
    "state": "Eastern Province",
    "city": "Al Qārah"
  },
  {
    "source_id": "ChIJrWQct90HLz4RE18CO64Mdjo",
    "name": "IRRIGATION WORLD AGRICULTURE CO. (IWACO) شركة عالم الري الزراعية",
    "category": "IRRIGATION WORLD AGRICULTURE CO. (IWACO) شركة عالم الري الزراعية",
    "formatted_address": "4,4(8)",
    "phone_number": "+966503296463",
    "source_url": "https://www.google.com/maps/place/IRRIGATION+WORLD+AGRICULTURE+CO.+%28IWACO%29+%D8%B4%D8%B1%D9%83%D8%A9+%D8%B9%D8%A7%D9%84%D9%85+%D8%A7%D9%84%D8%B1%D9%8A+%D8%A7%D9%84%D8%B2%D8%B1%D8%A7%D8%B9%D9%8A%D8%A9%E2%80%AD/data=!4m7!3m6!1s0x3e2f07ddb71c64ad:0x3a760cae3b025f13!8m2!3d24.6606155!4d46.7401872!16s%2Fg%2F11tdbbthcg!19sChIJrWQct90HLz4RE18CO64Mdjo?authuser=0&hl=tr&rclk=1",
    "website_url": "",
    "rating_text": "4,4",
    "stars": null,
    "number_of_reviews": null,
    "price_level": "",
    "open_hours": "",
    "extraction_timestamp": "2025-06-08T03:09:40.430Z",
    "source_name": "google",
    "source_query": "Irrigation Equipment",
    "source_country": "SA",
    "country": "Saudi Arabia",
    "state": "Eastern Province",
    "city": "Al Qārah"
  },
  {
    "source_id": "ChIJEUAgRvK9Nz4RTN9GVv6NGrA",
    "name": "Saudi Irrigation Organization",
    "category": "Saudi Irrigation Organization",
    "formatted_address": "4,0(6)",
    "phone_number": "+966135300093",
    "source_url": "https://www.google.com/maps/place/Saudi+Irrigation+Organization/data=!4m7!3m6!1s0x3e37bdf246204011:0xb01a8dfe5646df4c!8m2!3d25.4532603!4d49.5674841!16s%2Fg%2F11g10n00hh!19sChIJEUAgRvK9Nz4RTN9GVv6NGrA?authuser=0&hl=tr&rclk=1",
    "website_url": "https://www.sio.gov.sa/",
    "rating_text": "4,0",
    "stars": null,
    "number_of_reviews": null,
    "price_level": "",
    "open_hours": "",
    "extraction_timestamp": "2025-06-08T03:09:40.430Z",
    "source_name": "google",
    "source_query": "Irrigation Equipment",
    "source_country": "SA",
    "country": "Saudi Arabia",
    "state": "Eastern Province",
    "city": "Al Qārah"
  },
  {
    "source_id": "ChIJqTdF-kb8ST4RFt5vpSnQ5yc",
    "name": "مؤسسة الأنهار الزراعية للمضخات,AGRICULTURAL RIVERS FOR PUMPS",
    "category": "مؤسسة الأنهار الزراعية للمضخات,AGRICULTURAL RIVERS FOR PUMPS",
    "formatted_address": "مؤسسة الأنهار الزراعية للمضخات,AGRICULTURAL RIVERS FOR PUMPS",
    "phone_number": "+966558364553",
    "source_url": "https://www.google.com/maps/place/%D9%85%D8%A4%D8%B3%D8%B3%D8%A9+%D8%A7%D9%84%D8%A3%D9%86%D9%87%D8%A7%D8%B1+%D8%A7%D9%84%D8%B2%D8%B1%D8%A7%D8%B9%D9%8A%D8%A9+%D9%84%D9%84%D9%85%D8%B6%D8%AE%D8%A7%D8%AA,AGRICULTURAL+RIVERS+FOR+PUMPS%E2%80%AD/data=!4m7!3m6!1s0x3e49fc46fa4537a9:0x27e7d029a56fde16!8m2!3d26.4414581!4d50.0727931!16s%2Fg%2F11f306cj0y!19sChIJqTdF-kb8ST4RFt5vpSnQ5yc?authuser=0&hl=tr&rclk=1",
    "website_url": "",
    "rating_text": "4,2",
    "stars": null,
    "number_of_reviews": null,
    "price_level": "",
    "open_hours": "",
    "extraction_timestamp": "2025-06-08T03:09:40.431Z",
    "source_name": "google",
    "source_query": "Irrigation Equipment",
    "source_country": "SA",
    "country": "Saudi Arabia",
    "state": "Eastern Province",
    "city": "Al Qārah"
  },
  {
    "source_id": "ChIJhUw0Hrj3Lz4RzhCpNRuELWY",
    "name": "Akel Factory",
    "category": "Akel Factory",
    "formatted_address": "5,0(4)",
    "phone_number": "",
    "source_url": "https://www.google.com/maps/place/Akel+Factory/data=!4m7!3m6!1s0x3e2ff7b81e344c85:0x662d841b35a910ce!8m2!3d24.3600361!4d47.2630823!16s%2Fg%2F11fxzkx5m9!19sChIJhUw0Hrj3Lz4RzhCpNRuELWY?authuser=0&hl=tr&rclk=1",
    "website_url": "http://www.akel.com.sa/",
    "rating_text": "5,0",
    "stars": null,
    "number_of_reviews": null,
    "price_level": "",
    "open_hours": "",
    "extraction_timestamp": "2025-06-08T03:09:40.431Z",
    "source_name": "google",
    "source_query": "Irrigation Equipment",
    "source_country": "SA",
    "country": "Saudi Arabia",
    "state": "Eastern Province",
    "city": "Al Qārah"
  },
  {
    "source_id": "ChIJJWHufAq9Nz4RtIFjLMkK6t0",
    "name": "المؤسسة العامة للري",
    "category": "المؤسسة العامة للري",
    "formatted_address": "4,0(275)",
    "phone_number": "+9668003060999",
    "source_url": "https://www.google.com/maps/place/%D8%A7%D9%84%D9%85%D8%A4%D8%B3%D8%B3%D8%A9+%D8%A7%D9%84%D8%B9%D8%A7%D9%85%D8%A9+%D9%84%D9%84%D8%B1%D9%8A%E2%80%AD/data=!4m7!3m6!1s0x3e37bd0a7cee6125:0xddea0ac92c6381b4!8m2!3d25.4534273!4d49.5674302!16s%2Fg%2F11hczw5h23!19sChIJJWHufAq9Nz4RtIFjLMkK6t0?authuser=0&hl=tr&rclk=1",
    "website_url": "https://www.sio.gov.sa/",
    "rating_text": "4,0",
    "stars": null,
    "number_of_reviews": null,
    "price_level": "",
    "open_hours": "",
    "extraction_timestamp": "2025-06-08T03:09:40.432Z",
    "source_name": "google",
    "source_query": "Irrigation Equipment",
    "source_country": "SA",
    "country": "Saudi Arabia",
    "state": "Eastern Province",
    "city": "Al Qārah"
  },
  {
    "source_id": "ChIJf4YfzoWhLz4RzvlIbuhw7Ao",
    "name": "Alkhorayef Industries",
    "category": "Alkhorayef Industries",
    "formatted_address": "4,7(41)",
    "phone_number": "+966554421529",
    "source_url": "https://www.google.com/maps/place/Alkhorayef+Industries/data=!4m7!3m6!1s0x3e2fa185ce1f867f:0xaec70e86e48f9ce!8m2!3d24.5487759!4d46.8976593!16s%2Fg%2F1hm5vsyl7!19sChIJf4YfzoWhLz4RzvlIbuhw7Ao?authuser=0&hl=tr&rclk=1",
    "website_url": "http://www.western-irrigation.com/",
    "rating_text": "4,7",
    "stars": null,
    "number_of_reviews": null,
    "price_level": "",
    "open_hours": "",
    "extraction_timestamp": "2025-06-08T03:09:40.432Z",
    "source_name": "google",
    "source_query": "Irrigation Equipment",
    "source_country": "SA",
    "country": "Saudi Arabia",
    "state": "Eastern Province",
    "city": "Al Qārah"
  },
  {
    "source_id": "ChIJr7FMeCmRNz4RSH1hmhncCQk",
    "name": "My garden Agricultural Foundation",
    "category": "My garden Agricultural Foundation",
    "formatted_address": "4,2(92)",
    "phone_number": "+966537360008",
    "source_url": "https://www.google.com/maps/place/My+garden+Agricultural+Foundation/data=!4m7!3m6!1s0x3e379129784cb1af:0x909dc199a617d48!8m2!3d25.3747681!4d49.5666164!16s%2Fg%2F11c0w_xn5d!19sChIJr7FMeCmRNz4RSH1hmhncCQk?authuser=0&hl=tr&rclk=1",
    "website_url": "http://mygardenest.com/",
    "rating_text": "4,2",
    "stars": null,
    "number_of_reviews": null,
    "price_level": "",
    "open_hours": "",
    "extraction_timestamp": "2025-06-08T03:09:40.432Z",
    "source_name": "google",
    "source_query": "Irrigation Equipment",
    "source_country": "SA",
    "country": "Saudi Arabia",
    "state": "Eastern Province",
    "city": "Al Qārah"
  },
  {
    "source_id": "ChIJpQ-DVsyUNz4RM0UrMeJjeAU",
    "name": "ايثار الجبل للمواد الغذائية",
    "category": "ايثار الجبل للمواد الغذائية",
    "formatted_address": "4,1(62)",
    "phone_number": "+966562019255",
    "source_url": "https://www.google.com/maps/place/%D8%A7%D9%8A%D8%AB%D8%A7%D8%B1+%D8%A7%D9%84%D8%AC%D8%A8%D9%84+%D9%84%D9%84%D9%85%D9%88%D8%A7%D8%AF+%D8%A7%D9%84%D8%BA%D8%B0%D8%A7%D8%A6%D9%8A%D8%A9%E2%80%AD/data=!4m7!3m6!1s0x3e3794cc56830fa5:0x57863e2312b4533!8m2!3d25.419022!4d49.688403!16s%2Fg%2F11c1lhyc03!19sChIJpQ-DVsyUNz4RM0UrMeJjeAU?authuser=0&hl=tr&rclk=1",
    "website_url": "",
    "rating_text": "4,1",
    "stars": null,
    "number_of_reviews": null,
    "price_level": "",
    "open_hours": "",
    "extraction_timestamp": "2025-06-08T03:09:40.433Z",
    "source_name": "google",
    "source_query": "Irrigation Equipment",
    "source_country": "SA",
    "country": "Saudi Arabia",
    "state": "Eastern Province",
    "city": "Al Qārah"
  },
  {
    "source_id": "ChIJiUa1650FLz4R0JTUcs1PfKk",
    "name": "شركة عالم الري الزراعية IRRIGATION WORLD AGRICULTURE SALAM BRANCH",
    "category": "شركة عالم الري الزراعية IRRIGATION WORLD AGRICULTURE SALAM BRANCH",
    "formatted_address": "3,8(21)",
    "phone_number": "+966552460940",
    "source_url": "https://www.google.com/maps/place/%D8%B4%D8%B1%D9%83%D8%A9+%D8%B9%D8%A7%D9%84%D9%85+%D8%A7%D9%84%D8%B1%D9%8A+%D8%A7%D9%84%D8%B2%D8%B1%D8%A7%D8%B9%D9%8A%D8%A9+IRRIGATION+WORLD+AGRICULTURE+SALAM+BRANCH%E2%80%AD/data=!4m7!3m6!1s0x3e2f059debb54689:0xa97c4fcd72d494d0!8m2!3d24.6177773!4d46.7102308!16s%2Fg%2F11g8pctrx7!19sChIJiUa1650FLz4R0JTUcs1PfKk?authuser=0&hl=tr&rclk=1",
    "website_url": "",
    "rating_text": "3,8",
    "stars": null,
    "number_of_reviews": null,
    "price_level": "",
    "open_hours": "",
    "extraction_timestamp": "2025-06-08T03:09:40.433Z",
    "source_name": "google",
    "source_query": "Irrigation Equipment",
    "source_country": "SA",
    "country": "Saudi Arabia",
    "state": "Eastern Province",
    "city": "Al Qārah"
  },
  {
    "source_id": "ChIJ05NYbIeVNz4RQeQAF7HAwQA",
    "name": "مؤسسة بريق الجودة السعودية للمقاولات",
    "category": "مؤسسة بريق الجودة السعودية للمقاولات",
    "formatted_address": "4,5(8)",
    "phone_number": "+966502137963",
    "source_url": "https://www.google.com/maps/place/%D9%85%D8%A4%D8%B3%D8%B3%D8%A9+%D8%A8%D8%B1%D9%8A%D9%82+%D8%A7%D9%84%D8%AC%D9%88%D8%AF%D8%A9+%D8%A7%D9%84%D8%B3%D8%B9%D9%88%D8%AF%D9%8A%D8%A9+%D9%84%D9%84%D9%85%D9%82%D8%A7%D9%88%D9%84%D8%A7%D8%AA%E2%80%AD/data=!4m7!3m6!1s0x3e3795876c5893d3:0xc1c0b11700e441!8m2!3d25.4287415!4d49.6712846!16s%2Fg%2F11g0g8zfqp!19sChIJ05NYbIeVNz4RQeQAF7HAwQA?authuser=0&hl=tr&rclk=1",
    "website_url": "http://alfanaagroup.com/",
    "rating_text": "4,5",
    "stars": null,
    "number_of_reviews": null,
    "price_level": "",
    "open_hours": "",
    "extraction_timestamp": "2025-06-08T03:09:40.433Z",
    "source_name": "google",
    "source_query": "Irrigation Equipment",
    "source_country": "SA",
    "country": "Saudi Arabia",
    "state": "Eastern Province",
    "city": "Al Qārah"
  },
  {
    "source_id": "ChIJh0ntIByVNz4RTXZ0hLlL42s",
    "name": "شمس الضحى لبيع المواد الصحيه",
    "category": "شمس الضحى لبيع المواد الصحيه",
    "formatted_address": "4,2(28)",
    "phone_number": "+966135977175",
    "source_url": "https://www.google.com/maps/place/%D8%B4%D9%85%D8%B3+%D8%A7%D9%84%D8%B6%D8%AD%D9%89+%D9%84%D8%A8%D9%8A%D8%B9+%D8%A7%D9%84%D9%85%D9%88%D8%A7%D8%AF+%D8%A7%D9%84%D8%B5%D8%AD%D9%8A%D9%87%E2%80%AD/data=!4m7!3m6!1s0x3e37951c20ed4987:0x6be34bb98474764d!8m2!3d25.4276054!4d49.6656558!16s%2Fg%2F11cp78y24z!19sChIJh0ntIByVNz4RTXZ0hLlL42s?authuser=0&hl=tr&rclk=1",
    "website_url": "",
    "rating_text": "4,2",
    "stars": null,
    "number_of_reviews": null,
    "price_level": "",
    "open_hours": "",
    "extraction_timestamp": "2025-06-08T03:09:40.434Z",
    "source_name": "google",
    "source_query": "Irrigation Equipment",
    "source_country": "SA",
    "country": "Saudi Arabia",
    "state": "Eastern Province",
    "city": "Al Qārah"
  },
  {
    "source_id": "ChIJ6000dcqVNz4Rx8XYzp9ACF8",
    "name": "Alam Altahlia",
    "category": "Alam Altahlia",
    "formatted_address": "5,0(5)",
    "phone_number": "+966592977277",
    "source_url": "https://www.google.com/maps/place/Alam+Altahlia/data=!4m7!3m6!1s0x3e3795ca75344deb:0x5f08409fced8c5c7!8m2!3d25.4218541!4d49.6812992!16s%2Fg%2F11t4y7279g!19sChIJ6000dcqVNz4Rx8XYzp9ACF8?authuser=0&hl=tr&rclk=1",
    "website_url": "https://alamaltahlia.com/",
    "rating_text": "5,0",
    "stars": null,
    "number_of_reviews": null,
    "price_level": "",
    "open_hours": "",
    "extraction_timestamp": "2025-06-08T03:09:40.434Z",
    "source_name": "google",
    "source_query": "Irrigation Equipment",
    "source_country": "SA",
    "country": "Saudi Arabia",
    "state": "Eastern Province",
    "city": "Al Qārah"
  },
  {
    "source_id": "ChIJwSQvs8mUNz4R6qHAjJuARvo",
    "name": "Pottery Shop",
    "category": "Pottery Shop",
    "formatted_address": "4,1(1.060)",
    "phone_number": "+966554977783",
    "source_url": "https://www.google.com/maps/place/Pottery+Shop/data=!4m7!3m6!1s0x3e3794c9b32f24c1:0xfa46809b8cc0a1ea!8m2!3d25.4120218!4d49.6836004!16s%2Fg%2F1ydpvbpnp!19sChIJwSQvs8mUNz4R6qHAjJuARvo?authuser=0&hl=tr&rclk=1",
    "website_url": "",
    "rating_text": "4,1",
    "stars": null,
    "number_of_reviews": null,
    "price_level": "",
    "open_hours": "",
    "extraction_timestamp": "2025-06-08T03:09:40.435Z",
    "source_name": "google",
    "source_query": "Irrigation Equipment",
    "source_country": "SA",
    "country": "Saudi Arabia",
    "state": "Eastern Province",
    "city": "Al Qārah"
  },
  {
    "source_id": "ChIJJb8sq40eNj4Rhl6wM_vwKM4",
    "name": "EBARA PUMPS SAUDI ARABIA LLC (EPS)",
    "category": "EBARA PUMPS SAUDI ARABIA LLC (EPS)",
    "formatted_address": "4,1(18)",
    "phone_number": "+966138300932",
    "source_url": "https://www.google.com/maps/place/EBARA+PUMPS+SAUDI+ARABIA+LLC+%28EPS%29/data=!4m7!3m6!1s0x3e361e8dab2cbf25:0xce28f0fb33b05e86!8m2!3d26.2548796!4d49.9692941!16s%2Fg%2F11c53dcvj8!19sChIJJb8sq40eNj4Rhl6wM_vwKM4?authuser=0&hl=tr&rclk=1",
    "website_url": "http://www.ebara.com/en/index.html",
    "rating_text": "4,1",
    "stars": null,
    "number_of_reviews": null,
    "price_level": "",
    "open_hours": "",
    "extraction_timestamp": "2025-06-08T03:09:40.435Z",
    "source_name": "google",
    "source_query": "Irrigation Equipment",
    "source_country": "SA",
    "country": "Saudi Arabia",
    "state": "Eastern Province",
    "city": "Al Qārah"
  },
  {
    "source_id": "ChIJAV2P3-2UNz4RFBpEPVnOA_0",
    "name": "Tarifi Center Supermarket",
    "category": "Tarifi Center Supermarket",
    "formatted_address": "3,9(97)",
    "phone_number": "",
    "source_url": "https://www.google.com/maps/place/Tarifi+Center+Supermarket/data=!4m7!3m6!1s0x3e3794eddf8f5d01:0xfd03ce593d441a14!8m2!3d25.4080706!4d49.6618711!16s%2Fg%2F11c55vbf0r!19sChIJAV2P3-2UNz4RFBpEPVnOA_0?authuser=0&hl=tr&rclk=1",
    "website_url": "",
    "rating_text": "3,9",
    "stars": null,
    "number_of_reviews": null,
    "price_level": "",
    "open_hours": "",
    "extraction_timestamp": "2025-06-08T03:09:40.436Z",
    "source_name": "google",
    "source_query": "Irrigation Equipment",
    "source_country": "SA",
    "country": "Saudi Arabia",
    "state": "Eastern Province",
    "city": "Al Qārah"
  },
  {
    "source_id": "ChIJYW4p8MSVNz4RWO2wb8knMiQ",
    "name": "مؤسسة العلوان التجارية بالحليلة",
    "category": "مؤسسة العلوان التجارية بالحليلة",
    "formatted_address": "4,0(223)",
    "phone_number": "+966135968204",
    "source_url": "https://www.google.com/maps/place/%D9%85%D8%A4%D8%B3%D8%B3%D8%A9+%D8%A7%D9%84%D8%B9%D9%84%D9%88%D8%A7%D9%86+%D8%A7%D9%84%D8%AA%D8%AC%D8%A7%D8%B1%D9%8A%D8%A9+%D8%A8%D8%A7%D9%84%D8%AD%D9%84%D9%8A%D9%84%D8%A9%E2%80%AD/data=!4m7!3m6!1s0x3e3795c4f0296e61:0x243227c96fb0ed58!8m2!3d25.4268979!4d49.6638928!16s%2Fg%2F11gmcfvwp6!19sChIJYW4p8MSVNz4RWO2wb8knMiQ?authuser=0&hl=tr&rclk=1",
    "website_url": "",
    "rating_text": "4,0",
    "stars": null,
    "number_of_reviews": null,
    "price_level": "",
    "open_hours": "",
    "extraction_timestamp": "2025-06-08T03:09:40.436Z",
    "source_name": "google",
    "source_query": "Irrigation Equipment",
    "source_country": "SA",
    "country": "Saudi Arabia",
    "state": "Eastern Province",
    "city": "Al Qārah"
  },
  {
    "source_id": "ChIJIw0JHMaUNz4RWsd9DddK9HI",
    "name": "Alshateeb Market",
    "category": "Alshateeb Market",
    "formatted_address": "4,3(230)",
    "phone_number": "+966135968020",
    "source_url": "https://www.google.com/maps/place/Alshateeb+Market/data=!4m7!3m6!1s0x3e3794c61c090d23:0x72f44ad70d7dc75a!8m2!3d25.4135364!4d49.6806099!16s%2Fg%2F1tg6j0bn!19sChIJIw0JHMaUNz4RWsd9DddK9HI?authuser=0&hl=tr&rclk=1",
    "website_url": "",
    "rating_text": "4,3",
    "stars": null,
    "number_of_reviews": null,
    "price_level": "",
    "open_hours": "",
    "extraction_timestamp": "2025-06-08T03:09:40.456Z",
    "source_name": "google",
    "source_query": "Irrigation Equipment",
    "source_country": "SA",
    "country": "Saudi Arabia",
    "state": "Eastern Province",
    "city": "Al Qārah"
  },
  {
    "source_id": "ChIJb5I3mNqUNz4Rk5TB4GA9EQc",
    "name": "Panda",
    "category": "Panda",
    "formatted_address": "3,8(1.598)",
    "phone_number": "+966920027707",
    "source_url": "https://www.google.com/maps/place/Panda/data=!4m7!3m6!1s0x3e3794da9837926f:0x7113d60e0c19493!8m2!3d25.4204845!4d49.6803598!16s%2Fg%2F11bwn5ktm6!19sChIJb5I3mNqUNz4Rk5TB4GA9EQc?authuser=0&hl=tr&rclk=1",
    "website_url": "http://www.panda.com.sa/",
    "rating_text": "3,8",
    "stars": null,
    "number_of_reviews": null,
    "price_level": "",
    "open_hours": "",
    "extraction_timestamp": "2025-06-08T03:09:40.457Z",
    "source_name": "google",
    "source_query": "Irrigation Equipment",
    "source_country": "SA",
    "country": "Saudi Arabia",
    "state": "Eastern Province",
    "city": "Al Qārah"
  },
  {
    "source_id": "ChIJG4IjbADtNz4RXyLGk-XF29Y",
    "name": "شركة العمار الساطع التجاريه",
    "category": "شركة العمار الساطع التجاريه",
    "formatted_address": "",
    "phone_number": "+966535704688",
    "source_url": "https://www.google.com/maps/place/%D8%B4%D8%B1%D9%83%D8%A9+%D8%A7%D9%84%D8%B9%D9%85%D8%A7%D8%B1+%D8%A7%D9%84%D8%B3%D8%A7%D8%B7%D8%B9+%D8%A7%D9%84%D8%AA%D8%AC%D8%A7%D8%B1%D9%8A%D9%87%E2%80%AD/data=!4m7!3m6!1s0x3e37ed006c23821b:0xd6dbc5e593c6225f!8m2!3d25.3506859!4d49.7573315!16s%2Fg%2F11y6stdtml!19sChIJG4IjbADtNz4RXyLGk-XF29Y?authuser=0&hl=tr&rclk=1",
    "website_url": "",
    "rating_text": "",
    "stars": null,
    "number_of_reviews": null,
    "price_level": "",
    "open_hours": "",
    "extraction_timestamp": "2025-06-08T03:09:40.457Z",
    "source_name": "google",
    "source_query": "Irrigation Equipment",
    "source_country": "SA",
    "country": "Saudi Arabia",
    "state": "Eastern Province",
    "city": "Al Qārah"
  },
  {
    "source_id": "ChIJc_LuiJSVNz4REzSADV-mZ-Y",
    "name": "مخابز و حلويات العامر القارة",
    "category": "مخابز و حلويات العامر القارة",
    "formatted_address": "4,3(1.246) · SAR 1–20",
    "phone_number": "+966567446760",
    "source_url": "https://www.google.com/maps/place/%D9%85%D8%AE%D8%A7%D8%A8%D8%B2+%D9%88+%D8%AD%D9%84%D9%88%D9%8A%D8%A7%D8%AA+%D8%A7%D9%84%D8%B9%D8%A7%D9%85%D8%B1+%D8%A7%D9%84%D9%82%D8%A7%D8%B1%D8%A9%E2%80%AD/data=!4m7!3m6!1s0x3e37959488eef273:0xe667a65f0d803413!8m2!3d25.4191728!4d49.6834316!16s%2Fg%2F11h1127yf3!19sChIJc_LuiJSVNz4REzSADV-mZ-Y?authuser=0&hl=tr&rclk=1",
    "website_url": "",
    "rating_text": "4,3",
    "stars": null,
    "number_of_reviews": null,
    "price_level": "",
    "open_hours": "",
    "extraction_timestamp": "2025-06-08T03:09:40.458Z",
    "source_name": "google",
    "source_query": "Irrigation Equipment",
    "source_country": "SA",
    "country": "Saudi Arabia",
    "state": "Eastern Province",
    "city": "Al Qārah"
  },
  {
    "source_id": "ChIJswtwTJWWNz4RpbehwIOoYuE",
    "name": "Riyadh Palace for Cooling & Catering Equipment",
    "category": "Riyadh Palace for Cooling & Catering Equipment",
    "formatted_address": "4,9(292)",
    "phone_number": "+966135820161",
    "source_url": "https://www.google.com/maps/place/Riyadh+Palace+for+Cooling+%26+Catering+Equipment/data=!4m7!3m6!1s0x3e3796954c700bb3:0xe162a883c0a1b7a5!8m2!3d25.3801955!4d49.5898289!16s%2Fg%2F11b61q0bdt!19sChIJswtwTJWWNz4RpbehwIOoYuE?authuser=0&hl=tr&rclk=1",
    "website_url": "",
    "rating_text": "4,9",
    "stars": null,
    "number_of_reviews": null,
    "price_level": "",
    "open_hours": "",
    "extraction_timestamp": "2025-06-08T03:09:40.459Z",
    "source_name": "google",
    "source_query": "Irrigation Equipment",
    "source_country": "SA",
    "country": "Saudi Arabia",
    "state": "Eastern Province",
    "city": "Al Qārah"
  },
  {
    "source_id": "ChIJ98JZeWqUNz4RcT1mi8U8eeQ",
    "name": "شركة حسين عبدالهادي بوحليقه التجارية - فرع الخدود",
    "category": "شركة حسين عبدالهادي بوحليقه التجارية - فرع الخدود",
    "formatted_address": "4,5(50)",
    "phone_number": "+966135976120",
    "source_url": "https://www.google.com/maps/place/%D8%B4%D8%B1%D9%83%D8%A9+%D8%AD%D8%B3%D9%8A%D9%86+%D8%B9%D8%A8%D8%AF%D8%A7%D9%84%D9%87%D8%A7%D8%AF%D9%8A+%D8%A8%D9%88%D8%AD%D9%84%D9%8A%D9%82%D9%87+%D8%A7%D9%84%D8%AA%D8%AC%D8%A7%D8%B1%D9%8A%D8%A9+-+%D9%81%D8%B1%D8%B9+%D8%A7%D9%84%D8%AE%D8%AF%D9%88%D8%AF%E2%80%AD/data=!4m7!3m6!1s0x3e37946a7959c2f7:0xe4793cc58b663d71!8m2!3d25.393499!4d49.6328534!16s%2Fg%2F11c206ff7x!19sChIJ98JZeWqUNz4RcT1mi8U8eeQ?authuser=0&hl=tr&rclk=1",
    "website_url": "https://www.habtco.sa/",
    "rating_text": "4,5",
    "stars": null,
    "number_of_reviews": null,
    "price_level": "",
    "open_hours": "",
    "extraction_timestamp": "2025-06-08T03:09:40.459Z",
    "source_name": "google",
    "source_query": "Irrigation Equipment",
    "source_country": "SA",
    "country": "Saudi Arabia",
    "state": "Eastern Province",
    "city": "Al Qārah"
  },
  {
    "source_id": "ChIJuWMUdsO9Nz4RriTS7A6sR1I",
    "name": "العجمي للأدوات الصحية",
    "category": "العجمي للأدوات الصحية",
    "formatted_address": "2,3(4)",
    "phone_number": "+966135992226",
    "source_url": "https://www.google.com/maps/place/%D8%A7%D9%84%D8%B9%D8%AC%D9%85%D9%8A+%D9%84%D9%84%D8%A3%D8%AF%D9%88%D8%A7%D8%AA+%D8%A7%D9%84%D8%B5%D8%AD%D9%8A%D8%A9%E2%80%AD/data=!4m7!3m6!1s0x3e37bdc3761463b9:0x5247ac0eecd224ae!8m2!3d25.4594986!4d49.5554946!16s%2Fg%2F11rsskrmrd!19sChIJuWMUdsO9Nz4RriTS7A6sR1I?authuser=0&hl=tr&rclk=1",
    "website_url": "",
    "rating_text": "2,3",
    "stars": null,
    "number_of_reviews": null,
    "price_level": "",
    "open_hours": "",
    "extraction_timestamp": "2025-06-08T03:09:40.459Z",
    "source_name": "google",
    "source_query": "Irrigation Equipment",
    "source_country": "SA",
    "country": "Saudi Arabia",
    "state": "Eastern Province",
    "city": "Al Qārah"
  },
  {
    "source_id": "ChIJxyN0GgCVNz4RAX6lAUU6DK8",
    "name": "شركة محامص مذاق البن الأصيل",
    "category": "شركة محامص مذاق البن الأصيل",
    "formatted_address": "5,0(9)",
    "phone_number": "+966530927833",
    "source_url": "https://www.google.com/maps/place/%D8%B4%D8%B1%D9%83%D8%A9+%D9%85%D8%AD%D8%A7%D9%85%D8%B5+%D9%85%D8%B0%D8%A7%D9%82+%D8%A7%D9%84%D8%A8%D9%86+%D8%A7%D9%84%D8%A3%D8%B5%D9%8A%D9%84%E2%80%AD/data=!4m7!3m6!1s0x3e3795001a7423c7:0xaf0c3a4501a57e01!8m2!3d25.4267547!4d49.6636014!16s%2Fg%2F11vyj3vq6h!19sChIJxyN0GgCVNz4RAX6lAUU6DK8?authuser=0&hl=tr&rclk=1",
    "website_url": "",
    "rating_text": "5,0",
    "stars": null,
    "number_of_reviews": null,
    "price_level": "",
    "open_hours": "",
    "extraction_timestamp": "2025-06-08T03:09:40.460Z",
    "source_name": "google",
    "source_query": "Irrigation Equipment",
    "source_country": "SA",
    "country": "Saudi Arabia",
    "state": "Eastern Province",
    "city": "Al Qārah"
  },
  {
    "source_id": "ChIJp73Wfq-WNz4RQkevjA22Pjo",
    "name": "مؤسسة يوسف للتجارة",
    "category": "مؤسسة يوسف للتجارة",
    "formatted_address": "3,9(7)",
    "phone_number": "+966541890703",
    "source_url": "https://www.google.com/maps/place/%D9%85%D8%A4%D8%B3%D8%B3%D8%A9+%D9%8A%D9%88%D8%B3%D9%81+%D9%84%D9%84%D8%AA%D8%AC%D8%A7%D8%B1%D8%A9%E2%80%AD/data=!4m7!3m6!1s0x3e3796af7ed6bda7:0x3a3eb60d8caf4742!8m2!3d25.373443!4d49.601973!16s%2Fg%2F11gjhgfksp!19sChIJp73Wfq-WNz4RQkevjA22Pjo?authuser=0&hl=tr&rclk=1",
    "website_url": "",
    "rating_text": "3,9",
    "stars": null,
    "number_of_reviews": null,
    "price_level": "",
    "open_hours": "",
    "extraction_timestamp": "2025-06-08T03:09:40.460Z",
    "source_name": "google",
    "source_query": "Irrigation Equipment",
    "source_country": "SA",
    "country": "Saudi Arabia",
    "state": "Eastern Province",
    "city": "Al Qārah"
  },
  {
    "source_id": "ChIJgTisuaiWNz4RjFy95GYhpUg",
    "name": "Antco",
    "category": "Antco",
    "formatted_address": "5,0(1)",
    "phone_number": "+966553666189",
    "source_url": "https://www.google.com/maps/place/Antco/data=!4m7!3m6!1s0x3e3796a8b9ac3881:0x48a52166e4bd5c8c!8m2!3d25.3737257!4d49.6051819!16s%2Fg%2F1jkw4b7cn!19sChIJgTisuaiWNz4RjFy95GYhpUg?authuser=0&hl=tr&rclk=1",
    "website_url": "",
    "rating_text": "5,0",
    "stars": null,
    "number_of_reviews": null,
    "price_level": "",
    "open_hours": "",
    "extraction_timestamp": "2025-06-08T03:09:40.460Z",
    "source_name": "google",
    "source_query": "Irrigation Equipment",
    "source_country": "SA",
    "country": "Saudi Arabia",
    "state": "Eastern Province",
    "city": "Al Qārah"
  },
  {
    "source_id": "ChIJGZ5jGADtNz4RW2zYQYAuTkg",
    "name": "Al jishah",
    "category": "Al jishah",
    "formatted_address": "4,0(1)",
    "phone_number": "",
    "source_url": "https://www.google.com/maps/place/Al+jishah/data=!4m7!3m6!1s0x3e37ed0018639e19:0x484e2e8041d86c5b!8m2!3d25.387475!4d49.767672!16s%2Fg%2F11ybpwb68m!19sChIJGZ5jGADtNz4RW2zYQYAuTkg?authuser=0&hl=tr&rclk=1",
    "website_url": "",
    "rating_text": "4,0",
    "stars": null,
    "number_of_reviews": null,
    "price_level": "",
    "open_hours": "",
    "extraction_timestamp": "2025-06-08T03:09:40.460Z",
    "source_name": "google",
    "source_query": "Irrigation Equipment",
    "source_country": "SA",
    "country": "Saudi Arabia",
    "state": "Eastern Province",
    "city": "Al Qārah"
  },
  {
    "source_id": "ChIJN8WY8lqWNz4Rey2v9yuy6XE",
    "name": "انبوب للتجارة والصناعة | Inbob Trading & Industrials",
    "category": "انبوب للتجارة والصناعة | Inbob Trading & Industrials",
    "formatted_address": "3,7(15)",
    "phone_number": "+966135850896",
    "source_url": "https://www.google.com/maps/place/%D8%A7%D9%86%D8%A8%D9%88%D8%A8+%D9%84%D9%84%D8%AA%D8%AC%D8%A7%D8%B1%D8%A9+%D9%88%D8%A7%D9%84%D8%B5%D9%86%D8%A7%D8%B9%D8%A9+%7C+Inbob+Trading+%26+Industrials%E2%80%AD/data=!4m7!3m6!1s0x3e37965af298c537:0x71e9b22bf7af2d7b!8m2!3d25.4039808!4d49.580191!16s%2Fg%2F11fzf8mbk4!19sChIJN8WY8lqWNz4Rey2v9yuy6XE?authuser=0&hl=tr&rclk=1",
    "website_url": "http://www.inbob.com/",
    "rating_text": "3,7",
    "stars": null,
    "number_of_reviews": null,
    "price_level": "",
    "open_hours": "",
    "extraction_timestamp": "2025-06-08T03:09:40.461Z",
    "source_name": "google",
    "source_query": "Irrigation Equipment",
    "source_country": "SA",
    "country": "Saudi Arabia",
    "state": "Eastern Province",
    "city": "Al Qārah"
  },
  {
    "source_id": "ChIJe8M0Rm2-Nz4RjlUEBgcgDew",
    "name": "بيت الهفوف الحديث لمواد السباكة والكهرباء",
    "category": "بيت الهفوف الحديث لمواد السباكة والكهرباء",
    "formatted_address": "4,6(16)",
    "phone_number": "+966578318860",
    "source_url": "https://www.google.com/maps/place/%D8%A8%D9%8A%D8%AA+%D8%A7%D9%84%D9%87%D9%81%D9%88%D9%81+%D8%A7%D9%84%D8%AD%D8%AF%D9%8A%D8%AB+%D9%84%D9%85%D9%88%D8%A7%D8%AF+%D8%A7%D9%84%D8%B3%D8%A8%D8%A7%D9%83%D8%A9+%D9%88%D8%A7%D9%84%D9%83%D9%87%D8%B1%D8%A8%D8%A7%D8%A1%E2%80%AD/data=!4m7!3m6!1s0x3e37be6d4634c37b:0xec0d20070604558e!8m2!3d25.4689787!4d49.6208205!16s%2Fg%2F11g0kb_2w3!19sChIJe8M0Rm2-Nz4RjlUEBgcgDew?authuser=0&hl=tr&rclk=1",
    "website_url": "",
    "rating_text": "4,6",
    "stars": null,
    "number_of_reviews": null,
    "price_level": "",
    "open_hours": "",
    "extraction_timestamp": "2025-06-08T03:09:40.461Z",
    "source_name": "google",
    "source_query": "Irrigation Equipment",
    "source_country": "SA",
    "country": "Saudi Arabia",
    "state": "Eastern Province",
    "city": "Al Qārah"
  },
  {
    "source_id": "ChIJ-Vz2uaWVNz4R3PMzc-Fjdu8",
    "name": "مريم ستور",
    "category": "مريم ستور",
    "formatted_address": "3,5(19)",
    "phone_number": "+966582436665",
    "source_url": "https://www.google.com/maps/place/%D9%85%D8%B1%D9%8A%D9%85+%D8%B3%D8%AA%D9%88%D8%B1%E2%80%AD/data=!4m7!3m6!1s0x3e3795a5b9f65cf9:0xef7663e17333f3dc!8m2!3d25.4355313!4d49.6653509!16s%2Fg%2F11hz65d8dq!19sChIJ-Vz2uaWVNz4R3PMzc-Fjdu8?authuser=0&hl=tr&rclk=1",
    "website_url": "",
    "rating_text": "3,5",
    "stars": null,
    "number_of_reviews": null,
    "price_level": "",
    "open_hours": "",
    "extraction_timestamp": "2025-06-08T03:09:40.462Z",
    "source_name": "google",
    "source_query": "Irrigation Equipment",
    "source_country": "SA",
    "country": "Saudi Arabia",
    "state": "Eastern Province",
    "city": "Al Qārah"
  },
  {
    "source_id": "ChIJNztJ3hCVNz4R2h1jzGVRupM",
    "name": "مركز دلفين للمواد الغذائية - بالحليلة",
    "category": "مركز دلفين للمواد الغذائية - بالحليلة",
    "formatted_address": "3,8(277)",
    "phone_number": "+966542002101",
    "source_url": "https://www.google.com/maps/place/%D9%85%D8%B1%D9%83%D8%B2+%D8%AF%D9%84%D9%81%D9%8A%D9%86+%D9%84%D9%84%D9%85%D9%88%D8%A7%D8%AF+%D8%A7%D9%84%D8%BA%D8%B0%D8%A7%D8%A6%D9%8A%D8%A9+-+%D8%A8%D8%A7%D9%84%D8%AD%D9%84%D9%8A%D9%84%D8%A9%E2%80%AD/data=!4m7!3m6!1s0x3e379510de493b37:0x93ba5165cc631dda!8m2!3d25.4359625!4d49.6644531!16s%2Fg%2F11c1q9wx5k!19sChIJNztJ3hCVNz4R2h1jzGVRupM?authuser=0&hl=tr&rclk=1",
    "website_url": "",
    "rating_text": "3,8",
    "stars": null,
    "number_of_reviews": null,
    "price_level": "",
    "open_hours": "",
    "extraction_timestamp": "2025-06-08T03:09:40.463Z",
    "source_name": "google",
    "source_query": "Irrigation Equipment",
    "source_country": "SA",
    "country": "Saudi Arabia",
    "state": "Eastern Province",
    "city": "Al Qārah"
  },
  {
    "source_id": "ChIJD3_jXq6XNz4R3X2DlJ660es",
    "name": "مؤسسة مصطفى موسى الرمضان للتجارة",
    "category": "مؤسسة مصطفى موسى الرمضان للتجارة",
    "formatted_address": "4,4(8)",
    "phone_number": "+966505916915",
    "source_url": "https://www.google.com/maps/place/%D9%85%D8%A4%D8%B3%D8%B3%D8%A9+%D9%85%D8%B5%D8%B7%D9%81%D9%89+%D9%85%D9%88%D8%B3%D9%89+%D8%A7%D9%84%D8%B1%D9%85%D8%B6%D8%A7%D9%86+%D9%84%D9%84%D8%AA%D8%AC%D8%A7%D8%B1%D8%A9%E2%80%AD/data=!4m7!3m6!1s0x3e3797ae5ee37f0f:0xebd1ba9e94837ddd!8m2!3d25.380026!4d49.5887652!16s%2Fg%2F11cr_ns945!19sChIJD3_jXq6XNz4R3X2DlJ660es?authuser=0&hl=tr&rclk=1",
    "website_url": "",
    "rating_text": "4,4",
    "stars": null,
    "number_of_reviews": null,
    "price_level": "",
    "open_hours": "",
    "extraction_timestamp": "2025-06-08T03:09:40.464Z",
    "source_name": "google",
    "source_query": "Irrigation Equipment",
    "source_country": "SA",
    "country": "Saudi Arabia",
    "state": "Eastern Province",
    "city": "Al Qārah"
  }
]
