[
  {
    "source_id": "ChIJD2x3gAdFJT4ROixh3sqj9Ww",
    "name": "Alburuj Agricultural Est. البروج الزراعية",
    "category": "Alburuj Agricultural Est. البروج الزراعية",
    "formatted_address": "4,8(13)",
    "phone_number": "+966551179220",
    "source_url": "https://www.google.com/maps/place/Alburuj+Agricultural+Est.+%D8%A7%D9%84%D8%A8%D8%B1%D9%88%D8%AC+%D8%A7%D9%84%D8%B2%D8%B1%D8%A7%D8%B9%D9%8A%D8%A9%E2%80%AD/data=!4m7!3m6!1s0x3e25450780776c0f:0x6cf5a3cade612c3a!8m2!3d24.1791234!4d47.2818855!16s%2Fg%2F11rvl3vcxl!19sChIJD2x3gAdFJT4ROixh3sqj9Ww?authuser=0&hl=tr&rclk=1",
    "website_url": "",
    "rating_text": "4,8",
    "stars": null,
    "number_of_reviews": null,
    "price_level": "",
    "open_hours": "",
    "extraction_timestamp": "2025-06-08T03:12:35.252Z",
    "source_name": "google",
    "source_query": "Irrigation Equipment",
    "source_country": "SA",
    "country": "Saudi Arabia",
    "state": "Eastern Province",
    "city": "Al Ubaylah"
  },
  {
    "source_id": "ChIJ848909zvST4RB5fRC91hN80",
    "name": "MEAC AL-KHOBAR",
    "category": "MEAC AL-KHOBAR",
    "formatted_address": "4,9(8)",
    "phone_number": "+966561027930",
    "source_url": "https://www.google.com/maps/place/MEAC+AL-KHOBAR/data=!4m7!3m6!1s0x3e49efdcd33d8ff3:0xcd3761dd0bd19707!8m2!3d26.3914925!4d50.1782674!16s%2Fg%2F11j00lf0vv!19sChIJ848909zvST4RB5fRC91hN80?authuser=0&hl=tr&rclk=1",
    "website_url": "",
    "rating_text": "4,9",
    "stars": null,
    "number_of_reviews": null,
    "price_level": "",
    "open_hours": "",
    "extraction_timestamp": "2025-06-08T03:12:35.253Z",
    "source_name": "google",
    "source_query": "Irrigation Equipment",
    "source_country": "SA",
    "country": "Saudi Arabia",
    "state": "Eastern Province",
    "city": "Al Ubaylah"
  },
  {
    "source_id": "ChIJhUw0Hrj3Lz4RzhCpNRuELWY",
    "name": "Akel Factory",
    "category": "Akel Factory",
    "formatted_address": "5,0(4)",
    "phone_number": "",
    "source_url": "https://www.google.com/maps/place/Akel+Factory/data=!4m7!3m6!1s0x3e2ff7b81e344c85:0x662d841b35a910ce!8m2!3d24.3600361!4d47.2630823!16s%2Fg%2F11fxzkx5m9!19sChIJhUw0Hrj3Lz4RzhCpNRuELWY?authuser=0&hl=tr&rclk=1",
    "website_url": "http://www.akel.com.sa/",
    "rating_text": "5,0",
    "stars": null,
    "number_of_reviews": null,
    "price_level": "",
    "open_hours": "",
    "extraction_timestamp": "2025-06-08T03:12:35.254Z",
    "source_name": "google",
    "source_query": "Irrigation Equipment",
    "source_country": "SA",
    "country": "Saudi Arabia",
    "state": "Eastern Province",
    "city": "Al Ubaylah"
  },
  {
    "source_id": "ChIJ_ewzIj2jLz4RG1ZkOVBSGXQ",
    "name": "SAUDI DRIP IRRIGATION SYSTEMS COMPANY",
    "category": "SAUDI DRIP IRRIGATION SYSTEMS COMPANY",
    "formatted_address": "4,5(2)",
    "phone_number": "+966112650445",
    "source_url": "https://www.google.com/maps/place/SAUDI+DRIP+IRRIGATION+SYSTEMS+COMPANY/data=!4m7!3m6!1s0x3e2fa33d2233ecfd:0x741952503964561b!8m2!3d24.5274617!4d46.9076911!16s%2Fg%2F11j4lpbk7m!19sChIJ_ewzIj2jLz4RG1ZkOVBSGXQ?authuser=0&hl=tr&rclk=1",
    "website_url": "",
    "rating_text": "4,5",
    "stars": null,
    "number_of_reviews": null,
    "price_level": "",
    "open_hours": "",
    "extraction_timestamp": "2025-06-08T03:12:35.256Z",
    "source_name": "google",
    "source_query": "Irrigation Equipment",
    "source_country": "SA",
    "country": "Saudi Arabia",
    "state": "Eastern Province",
    "city": "Al Ubaylah"
  },
  {
    "source_id": "ChIJZdQdVgehLz4R5Z8Xpn-mk3M",
    "name": "Al Saden Company Ltd",
    "category": "Al Saden Company Ltd",
    "formatted_address": "4,3(24)",
    "phone_number": "",
    "source_url": "https://www.google.com/maps/place/Al+Saden+Company+Ltd/data=!4m7!3m6!1s0x3e2fa107561dd465:0x7393a67fa6179fe5!8m2!3d24.5466747!4d46.8696441!16s%2Fg%2F11gb404_qn!19sChIJZdQdVgehLz4R5Z8Xpn-mk3M?authuser=0&hl=tr&rclk=1",
    "website_url": "",
    "rating_text": "4,3",
    "stars": null,
    "number_of_reviews": null,
    "price_level": "",
    "open_hours": "",
    "extraction_timestamp": "2025-06-08T03:12:35.256Z",
    "source_name": "google",
    "source_query": "Irrigation Equipment",
    "source_country": "SA",
    "country": "Saudi Arabia",
    "state": "Eastern Province",
    "city": "Al Ubaylah"
  },
  {
    "source_id": "ChIJf4YfzoWhLz4RzvlIbuhw7Ao",
    "name": "Alkhorayef Industries",
    "category": "Alkhorayef Industries",
    "formatted_address": "4,7(41)",
    "phone_number": "+966554421529",
    "source_url": "https://www.google.com/maps/place/Alkhorayef+Industries/data=!4m7!3m6!1s0x3e2fa185ce1f867f:0xaec70e86e48f9ce!8m2!3d24.5487759!4d46.8976593!16s%2Fg%2F1hm5vsyl7!19sChIJf4YfzoWhLz4RzvlIbuhw7Ao?authuser=0&hl=tr&rclk=1",
    "website_url": "http://www.western-irrigation.com/",
    "rating_text": "4,7",
    "stars": null,
    "number_of_reviews": null,
    "price_level": "",
    "open_hours": "",
    "extraction_timestamp": "2025-06-08T03:12:35.258Z",
    "source_name": "google",
    "source_query": "Irrigation Equipment",
    "source_country": "SA",
    "country": "Saudi Arabia",
    "state": "Eastern Province",
    "city": "Al Ubaylah"
  },
  {
    "source_id": "ChIJvYf7v078ST4R_r35JksPSTc",
    "name": "مؤسسة الحديقة والمزرعة الدمام",
    "category": "مؤسسة الحديقة والمزرعة الدمام",
    "formatted_address": "4,3(32)",
    "phone_number": "+966138172212",
    "source_url": "https://www.google.com/maps/place/%D9%85%D8%A4%D8%B3%D8%B3%D8%A9+%D8%A7%D9%84%D8%AD%D8%AF%D9%8A%D9%82%D8%A9+%D9%88%D8%A7%D9%84%D9%85%D8%B2%D8%B1%D8%B9%D8%A9+%D8%A7%D9%84%D8%AF%D9%85%D8%A7%D9%85%E2%80%AD/data=!4m7!3m6!1s0x3e49fc4ebffb87bd:0x37490f4b26f9bdfe!8m2!3d26.4366926!4d50.0655234!16s%2Fg%2F11b7fv8h61!19sChIJvYf7v078ST4R_r35JksPSTc?authuser=0&hl=tr&rclk=1",
    "website_url": "http://www.gardenfarm.com.sa/",
    "rating_text": "4,3",
    "stars": null,
    "number_of_reviews": null,
    "price_level": "",
    "open_hours": "",
    "extraction_timestamp": "2025-06-08T03:12:35.260Z",
    "source_name": "google",
    "source_query": "Irrigation Equipment",
    "source_country": "SA",
    "country": "Saudi Arabia",
    "state": "Eastern Province",
    "city": "Al Ubaylah"
  },
  {
    "source_id": "ChIJrWQct90HLz4RE18CO64Mdjo",
    "name": "IRRIGATION WORLD AGRICULTURE CO. (IWACO) شركة عالم الري الزراعية",
    "category": "IRRIGATION WORLD AGRICULTURE CO. (IWACO) شركة عالم الري الزراعية",
    "formatted_address": "4,4(8)",
    "phone_number": "+966503296463",
    "source_url": "https://www.google.com/maps/place/IRRIGATION+WORLD+AGRICULTURE+CO.+%28IWACO%29+%D8%B4%D8%B1%D9%83%D8%A9+%D8%B9%D8%A7%D9%84%D9%85+%D8%A7%D9%84%D8%B1%D9%8A+%D8%A7%D9%84%D8%B2%D8%B1%D8%A7%D8%B9%D9%8A%D8%A9%E2%80%AD/data=!4m7!3m6!1s0x3e2f07ddb71c64ad:0x3a760cae3b025f13!8m2!3d24.6606155!4d46.7401872!16s%2Fg%2F11tdbbthcg!19sChIJrWQct90HLz4RE18CO64Mdjo?authuser=0&hl=tr&rclk=1",
    "website_url": "",
    "rating_text": "4,4",
    "stars": null,
    "number_of_reviews": null,
    "price_level": "",
    "open_hours": "",
    "extraction_timestamp": "2025-06-08T03:12:35.261Z",
    "source_name": "google",
    "source_query": "Irrigation Equipment",
    "source_country": "SA",
    "country": "Saudi Arabia",
    "state": "Eastern Province",
    "city": "Al Ubaylah"
  },
  {
    "source_id": "ChIJiUa1650FLz4R0JTUcs1PfKk",
    "name": "شركة عالم الري الزراعية IRRIGATION WORLD AGRICULTURE SALAM BRANCH",
    "category": "شركة عالم الري الزراعية IRRIGATION WORLD AGRICULTURE SALAM BRANCH",
    "formatted_address": "3,8(21)",
    "phone_number": "+966552460940",
    "source_url": "https://www.google.com/maps/place/%D8%B4%D8%B1%D9%83%D8%A9+%D8%B9%D8%A7%D9%84%D9%85+%D8%A7%D9%84%D8%B1%D9%8A+%D8%A7%D9%84%D8%B2%D8%B1%D8%A7%D8%B9%D9%8A%D8%A9+IRRIGATION+WORLD+AGRICULTURE+SALAM+BRANCH%E2%80%AD/data=!4m7!3m6!1s0x3e2f059debb54689:0xa97c4fcd72d494d0!8m2!3d24.6177773!4d46.7102308!16s%2Fg%2F11g8pctrx7!19sChIJiUa1650FLz4R0JTUcs1PfKk?authuser=0&hl=tr&rclk=1",
    "website_url": "",
    "rating_text": "3,8",
    "stars": null,
    "number_of_reviews": null,
    "price_level": "",
    "open_hours": "",
    "extraction_timestamp": "2025-06-08T03:12:35.262Z",
    "source_name": "google",
    "source_query": "Irrigation Equipment",
    "source_country": "SA",
    "country": "Saudi Arabia",
    "state": "Eastern Province",
    "city": "Al Ubaylah"
  },
  {
    "source_id": "ChIJqTdF-kb8ST4RFt5vpSnQ5yc",
    "name": "مؤسسة الأنهار الزراعية للمضخات,AGRICULTURAL RIVERS FOR PUMPS",
    "category": "مؤسسة الأنهار الزراعية للمضخات,AGRICULTURAL RIVERS FOR PUMPS",
    "formatted_address": "مؤسسة الأنهار الزراعية للمضخات,AGRICULTURAL RIVERS FOR PUMPS",
    "phone_number": "+966558364553",
    "source_url": "https://www.google.com/maps/place/%D9%85%D8%A4%D8%B3%D8%B3%D8%A9+%D8%A7%D9%84%D8%A3%D9%86%D9%87%D8%A7%D8%B1+%D8%A7%D9%84%D8%B2%D8%B1%D8%A7%D8%B9%D9%8A%D8%A9+%D9%84%D9%84%D9%85%D8%B6%D8%AE%D8%A7%D8%AA,AGRICULTURAL+RIVERS+FOR+PUMPS%E2%80%AD/data=!4m7!3m6!1s0x3e49fc46fa4537a9:0x27e7d029a56fde16!8m2!3d26.4414581!4d50.0727931!16s%2Fg%2F11f306cj0y!19sChIJqTdF-kb8ST4RFt5vpSnQ5yc?authuser=0&hl=tr&rclk=1",
    "website_url": "",
    "rating_text": "4,2",
    "stars": null,
    "number_of_reviews": null,
    "price_level": "",
    "open_hours": "",
    "extraction_timestamp": "2025-06-08T03:12:35.264Z",
    "source_name": "google",
    "source_query": "Irrigation Equipment",
    "source_country": "SA",
    "country": "Saudi Arabia",
    "state": "Eastern Province",
    "city": "Al Ubaylah"
  },
  {
    "source_id": "ChIJM1WKScj8ST4RzQx0i0GJL1k",
    "name": "Alwasail Industrial Co. - Dammam Branch",
    "category": "Alwasail Industrial Co. - Dammam Branch",
    "formatted_address": "3,6(59)",
    "phone_number": "+966506404317",
    "source_url": "https://www.google.com/maps/place/Alwasail+Industrial+Co.+-+Dammam+Branch/data=!4m7!3m6!1s0x3e49fcc8498a5533:0x592f89418b740ccd!8m2!3d26.3945113!4d50.0785528!16s%2Fg%2F11dxb1q20b!19sChIJM1WKScj8ST4RzQx0i0GJL1k?authuser=0&hl=tr&rclk=1",
    "website_url": "https://www.alwasail.com/",
    "rating_text": "3,6",
    "stars": null,
    "number_of_reviews": null,
    "price_level": "",
    "open_hours": "",
    "extraction_timestamp": "2025-06-08T03:12:35.265Z",
    "source_name": "google",
    "source_query": "Irrigation Equipment",
    "source_country": "SA",
    "country": "Saudi Arabia",
    "state": "Eastern Province",
    "city": "Al Ubaylah"
  }
]
