[
  {
    "source_id": "ChIJ848909zvST4RB5fRC91hN80",
    "name": "MEAC AL-KHOBAR",
    "category": "MEAC AL-KHOBAR",
    "formatted_address": "4,9(8)",
    "phone_number": "+966561027930",
    "source_url": "https://www.google.com/maps/place/MEAC+AL-KHOBAR/data=!4m7!3m6!1s0x3e49efdcd33d8ff3:0xcd3761dd0bd19707!8m2!3d26.3914925!4d50.1782674!16s%2Fg%2F11j00lf0vv!19sChIJ848909zvST4RB5fRC91hN80?authuser=0&hl=tr&rclk=1",
    "website_url": "",
    "rating_text": "4,9",
    "stars": null,
    "number_of_reviews": null,
    "price_level": "",
    "open_hours": "",
    "extraction_timestamp": "2025-06-08T03:05:56.300Z",
    "source_name": "google",
    "source_query": "Irrigation Equipment",
    "source_country": "SA",
    "country": "Saudi Arabia",
    "state": "Eastern Province",
    "city": "Aţ Ţaraf"
  },
  {
    "source_id": "ChIJqTdF-kb8ST4RFt5vpSnQ5yc",
    "name": "مؤسسة الأنهار الزراعية للمضخات,AGRICULTURAL RIVERS FOR PUMPS",
    "category": "مؤسسة الأنهار الزراعية للمضخات,AGRICULTURAL RIVERS FOR PUMPS",
    "formatted_address": "مؤسسة الأنهار الزراعية للمضخات,AGRICULTURAL RIVERS FOR PUMPS",
    "phone_number": "+966558364553",
    "source_url": "https://www.google.com/maps/place/%D9%85%D8%A4%D8%B3%D8%B3%D8%A9+%D8%A7%D9%84%D8%A3%D9%86%D9%87%D8%A7%D8%B1+%D8%A7%D9%84%D8%B2%D8%B1%D8%A7%D8%B9%D9%8A%D8%A9+%D9%84%D9%84%D9%85%D8%B6%D8%AE%D8%A7%D8%AA,AGRICULTURAL+RIVERS+FOR+PUMPS%E2%80%AD/data=!4m7!3m6!1s0x3e49fc46fa4537a9:0x27e7d029a56fde16!8m2!3d26.4414581!4d50.0727931!16s%2Fg%2F11f306cj0y!19sChIJqTdF-kb8ST4RFt5vpSnQ5yc?authuser=0&hl=tr&rclk=1",
    "website_url": "",
    "rating_text": "4,2",
    "stars": null,
    "number_of_reviews": null,
    "price_level": "",
    "open_hours": "",
    "extraction_timestamp": "2025-06-08T03:05:56.302Z",
    "source_name": "google",
    "source_query": "Irrigation Equipment",
    "source_country": "SA",
    "country": "Saudi Arabia",
    "state": "Eastern Province",
    "city": "Aţ Ţaraf"
  },
  {
    "source_id": "ChIJ_ewzIj2jLz4RG1ZkOVBSGXQ",
    "name": "SAUDI DRIP IRRIGATION SYSTEMS COMPANY",
    "category": "SAUDI DRIP IRRIGATION SYSTEMS COMPANY",
    "formatted_address": "4,5(2)",
    "phone_number": "+966112650445",
    "source_url": "https://www.google.com/maps/place/SAUDI+DRIP+IRRIGATION+SYSTEMS+COMPANY/data=!4m7!3m6!1s0x3e2fa33d2233ecfd:0x741952503964561b!8m2!3d24.5274617!4d46.9076911!16s%2Fg%2F11j4lpbk7m!19sChIJ_ewzIj2jLz4RG1ZkOVBSGXQ?authuser=0&hl=tr&rclk=1",
    "website_url": "",
    "rating_text": "4,5",
    "stars": null,
    "number_of_reviews": null,
    "price_level": "",
    "open_hours": "",
    "extraction_timestamp": "2025-06-08T03:05:56.304Z",
    "source_name": "google",
    "source_query": "Irrigation Equipment",
    "source_country": "SA",
    "country": "Saudi Arabia",
    "state": "Eastern Province",
    "city": "Aţ Ţaraf"
  },
  {
    "source_id": "ChIJhUw0Hrj3Lz4RzhCpNRuELWY",
    "name": "Akel Factory",
    "category": "Akel Factory",
    "formatted_address": "5,0(4)",
    "phone_number": "",
    "source_url": "https://www.google.com/maps/place/Akel+Factory/data=!4m7!3m6!1s0x3e2ff7b81e344c85:0x662d841b35a910ce!8m2!3d24.3600361!4d47.2630823!16s%2Fg%2F11fxzkx5m9!19sChIJhUw0Hrj3Lz4RzhCpNRuELWY?authuser=0&hl=tr&rclk=1",
    "website_url": "http://www.akel.com.sa/",
    "rating_text": "5,0",
    "stars": null,
    "number_of_reviews": null,
    "price_level": "",
    "open_hours": "",
    "extraction_timestamp": "2025-06-08T03:05:56.306Z",
    "source_name": "google",
    "source_query": "Irrigation Equipment",
    "source_country": "SA",
    "country": "Saudi Arabia",
    "state": "Eastern Province",
    "city": "Aţ Ţaraf"
  },
  {
    "source_id": "ChIJf4YfzoWhLz4RzvlIbuhw7Ao",
    "name": "Alkhorayef Industries",
    "category": "Alkhorayef Industries",
    "formatted_address": "4,7(41)",
    "phone_number": "+966554421529",
    "source_url": "https://www.google.com/maps/place/Alkhorayef+Industries/data=!4m7!3m6!1s0x3e2fa185ce1f867f:0xaec70e86e48f9ce!8m2!3d24.5487759!4d46.8976593!16s%2Fg%2F1hm5vsyl7!19sChIJf4YfzoWhLz4RzvlIbuhw7Ao?authuser=0&hl=tr&rclk=1",
    "website_url": "http://www.western-irrigation.com/",
    "rating_text": "4,7",
    "stars": null,
    "number_of_reviews": null,
    "price_level": "",
    "open_hours": "",
    "extraction_timestamp": "2025-06-08T03:05:56.309Z",
    "source_name": "google",
    "source_query": "Irrigation Equipment",
    "source_country": "SA",
    "country": "Saudi Arabia",
    "state": "Eastern Province",
    "city": "Aţ Ţaraf"
  },
  {
    "source_id": "ChIJZdQdVgehLz4R5Z8Xpn-mk3M",
    "name": "Al Saden Company Ltd",
    "category": "Al Saden Company Ltd",
    "formatted_address": "4,3(24)",
    "phone_number": "",
    "source_url": "https://www.google.com/maps/place/Al+Saden+Company+Ltd/data=!4m7!3m6!1s0x3e2fa107561dd465:0x7393a67fa6179fe5!8m2!3d24.5466747!4d46.8696441!16s%2Fg%2F11gb404_qn!19sChIJZdQdVgehLz4R5Z8Xpn-mk3M?authuser=0&hl=tr&rclk=1",
    "website_url": "",
    "rating_text": "4,3",
    "stars": null,
    "number_of_reviews": null,
    "price_level": "",
    "open_hours": "",
    "extraction_timestamp": "2025-06-08T03:05:56.309Z",
    "source_name": "google",
    "source_query": "Irrigation Equipment",
    "source_country": "SA",
    "country": "Saudi Arabia",
    "state": "Eastern Province",
    "city": "Aţ Ţaraf"
  },
  {
    "source_id": "ChIJD6C0KYyhLz4RH-kmnmst48s",
    "name": "Saudi Mais Co. for Irrigation Systems",
    "category": "Saudi Mais Co. for Irrigation Systems",
    "formatted_address": "4,0(22)",
    "phone_number": "+966112652300",
    "source_url": "https://www.google.com/maps/place/Saudi+Mais+Co.+for+Irrigation+Systems/data=!4m7!3m6!1s0x3e2fa18c29b4a00f:0xcbe32d6b9e26e91f!8m2!3d24.5413895!4d46.8959501!16s%2Fg%2F11cr_r7bxm!19sChIJD6C0KYyhLz4RH-kmnmst48s?authuser=0&hl=tr&rclk=1",
    "website_url": "http://www.maisirrig.com.sa/",
    "rating_text": "4,0",
    "stars": null,
    "number_of_reviews": null,
    "price_level": "",
    "open_hours": "",
    "extraction_timestamp": "2025-06-08T03:05:56.310Z",
    "source_name": "google",
    "source_query": "Irrigation Equipment",
    "source_country": "SA",
    "country": "Saudi Arabia",
    "state": "Eastern Province",
    "city": "Aţ Ţaraf"
  },
  {
    "source_id": "ChIJTdN7F68JLz4RdYB-nGLPQv0",
    "name": "Water Systems Co, Ltd",
    "category": "Water Systems Co, Ltd",
    "formatted_address": "Water Systems Co, Ltd",
    "phone_number": "+966595563000",
    "source_url": "https://www.google.com/maps/place/Water+Systems+Co,+Ltd/data=!4m7!3m6!1s0x3e2f09af177bd34d:0xfd42cf629c7e8075!8m2!3d24.6199719!4d46.7731727!16s%2Fg%2F11sff11_kk!19sChIJTdN7F68JLz4RdYB-nGLPQv0?authuser=0&hl=tr&rclk=1",
    "website_url": "http://wais.com.sa/",
    "rating_text": "5,0",
    "stars": null,
    "number_of_reviews": null,
    "price_level": "",
    "open_hours": "",
    "extraction_timestamp": "2025-06-08T03:05:56.315Z",
    "source_name": "google",
    "source_query": "Irrigation Equipment",
    "source_country": "SA",
    "country": "Saudi Arabia",
    "state": "Eastern Province",
    "city": "Aţ Ţaraf"
  },
  {
    "source_id": "ChIJrWQct90HLz4RE18CO64Mdjo",
    "name": "IRRIGATION WORLD AGRICULTURE CO. (IWACO) شركة عالم الري الزراعية",
    "category": "IRRIGATION WORLD AGRICULTURE CO. (IWACO) شركة عالم الري الزراعية",
    "formatted_address": "4,4(8)",
    "phone_number": "+966503296463",
    "source_url": "https://www.google.com/maps/place/IRRIGATION+WORLD+AGRICULTURE+CO.+%28IWACO%29+%D8%B4%D8%B1%D9%83%D8%A9+%D8%B9%D8%A7%D9%84%D9%85+%D8%A7%D9%84%D8%B1%D9%8A+%D8%A7%D9%84%D8%B2%D8%B1%D8%A7%D8%B9%D9%8A%D8%A9%E2%80%AD/data=!4m7!3m6!1s0x3e2f07ddb71c64ad:0x3a760cae3b025f13!8m2!3d24.6606155!4d46.7401872!16s%2Fg%2F11tdbbthcg!19sChIJrWQct90HLz4RE18CO64Mdjo?authuser=0&hl=tr&rclk=1",
    "website_url": "",
    "rating_text": "4,4",
    "stars": null,
    "number_of_reviews": null,
    "price_level": "",
    "open_hours": "",
    "extraction_timestamp": "2025-06-08T03:05:56.315Z",
    "source_name": "google",
    "source_query": "Irrigation Equipment",
    "source_country": "SA",
    "country": "Saudi Arabia",
    "state": "Eastern Province",
    "city": "Aţ Ţaraf"
  },
  {
    "source_id": "ChIJpfABD5flLj4R5y9XKuFHLfQ",
    "name": "Gulf Coast Irrigation",
    "category": "Gulf Coast Irrigation",
    "formatted_address": "5,0(3)",
    "phone_number": "+966112383222",
    "source_url": "https://www.google.com/maps/place/Gulf+Coast+Irrigation/data=!4m7!3m6!1s0x3e2ee5970f01f0a5:0xf42d47e12a572fe7!8m2!3d24.8245095!4d46.6470272!16s%2Fg%2F11wpnply2r!19sChIJpfABD5flLj4R5y9XKuFHLfQ?authuser=0&hl=tr&rclk=1",
    "website_url": "https://www.gulfcoast.sa/",
    "rating_text": "5,0",
    "stars": null,
    "number_of_reviews": null,
    "price_level": "",
    "open_hours": "",
    "extraction_timestamp": "2025-06-08T03:05:56.316Z",
    "source_name": "google",
    "source_query": "Irrigation Equipment",
    "source_country": "SA",
    "country": "Saudi Arabia",
    "state": "Eastern Province",
    "city": "Aţ Ţaraf"
  },
  {
    "source_id": "ChIJs9YcdCoPLz4RpgGST3BDX1c",
    "name": "Delta Irrigation Systems - Delta Turf Care Company",
    "category": "Delta Irrigation Systems - Delta Turf Care Company",
    "formatted_address": "5,0(1)",
    "phone_number": "+966552045600",
    "source_url": "https://www.google.com/maps/place/Delta+Irrigation+Systems+-+Delta+Turf+Care+Company/data=!4m7!3m6!1s0x3e2f0f2a741cd6b3:0x575f43704f9201a6!8m2!3d24.578773!4d46.7445141!16s%2Fg%2F11csrd9f_6!19sChIJs9YcdCoPLz4RpgGST3BDX1c?authuser=0&hl=tr&rclk=1",
    "website_url": "https://www.deltaturfcare.com/",
    "rating_text": "5,0",
    "stars": null,
    "number_of_reviews": null,
    "price_level": "",
    "open_hours": "",
    "extraction_timestamp": "2025-06-08T03:05:56.316Z",
    "source_name": "google",
    "source_query": "Irrigation Equipment",
    "source_country": "SA",
    "country": "Saudi Arabia",
    "state": "Eastern Province",
    "city": "Aţ Ţaraf"
  },
  {
    "source_id": "ChIJiUa1650FLz4R0JTUcs1PfKk",
    "name": "شركة عالم الري الزراعية IRRIGATION WORLD AGRICULTURE SALAM BRANCH",
    "category": "شركة عالم الري الزراعية IRRIGATION WORLD AGRICULTURE SALAM BRANCH",
    "formatted_address": "3,8(21)",
    "phone_number": "+966552460940",
    "source_url": "https://www.google.com/maps/place/%D8%B4%D8%B1%D9%83%D8%A9+%D8%B9%D8%A7%D9%84%D9%85+%D8%A7%D9%84%D8%B1%D9%8A+%D8%A7%D9%84%D8%B2%D8%B1%D8%A7%D8%B9%D9%8A%D8%A9+IRRIGATION+WORLD+AGRICULTURE+SALAM+BRANCH%E2%80%AD/data=!4m7!3m6!1s0x3e2f059debb54689:0xa97c4fcd72d494d0!8m2!3d24.6177773!4d46.7102308!16s%2Fg%2F11g8pctrx7!19sChIJiUa1650FLz4R0JTUcs1PfKk?authuser=0&hl=tr&rclk=1",
    "website_url": "",
    "rating_text": "3,8",
    "stars": null,
    "number_of_reviews": null,
    "price_level": "",
    "open_hours": "",
    "extraction_timestamp": "2025-06-08T03:05:56.316Z",
    "source_name": "google",
    "source_query": "Irrigation Equipment",
    "source_country": "SA",
    "country": "Saudi Arabia",
    "state": "Eastern Province",
    "city": "Aţ Ţaraf"
  },
  {
    "source_id": "ChIJDbNe3pvQwxURkZFDTyzbS7I",
    "name": "Garden&Farm Est.",
    "category": "Garden&Farm Est.",
    "formatted_address": "4,3(71)",
    "phone_number": "+966122578210",
    "source_url": "https://www.google.com/maps/place/Garden%26Farm+Est./data=!4m7!3m6!1s0x15c3d09bde5eb30d:0xb24bdb2c4f439191!8m2!3d21.598445!4d39.1606804!16s%2Fg%2F11b75hq5y_!19sChIJDbNe3pvQwxURkZFDTyzbS7I?authuser=0&hl=tr&rclk=1",
    "website_url": "http://www.gardenfarm.com.sa/",
    "rating_text": "4,3",
    "stars": null,
    "number_of_reviews": null,
    "price_level": "",
    "open_hours": "",
    "extraction_timestamp": "2025-06-08T03:05:56.317Z",
    "source_name": "google",
    "source_query": "Irrigation Equipment",
    "source_country": "SA",
    "country": "Saudi Arabia",
    "state": "Eastern Province",
    "city": "Aţ Ţaraf"
  },
  {
    "source_id": "ChIJde9TRn_RwxURQiLO10zr6fw",
    "name": "Adham khalid مورد ري",
    "category": "Adham khalid مورد ري",
    "formatted_address": "Sulama Ekipmanları Tedarikçisi · حي, 3 من شارع قنديلKapalı ⋅ Açılış saati: 08:30 · +966 50 781 9156",
    "phone_number": "+966507819156",
    "source_url": "https://www.google.com/maps/place/Adham+khalid+%D9%85%D9%88%D8%B1%D8%AF+%D8%B1%D9%8A%E2%80%AD/data=!4m7!3m6!1s0x15c3d17f4653ef75:0xfce9eb4cd7ce2242!8m2!3d21.552617!4d39.1813793!16s%2Fg%2F11y308gq_9!19sChIJde9TRn_RwxURQiLO10zr6fw?authuser=0&hl=tr&rclk=1",
    "website_url": "https://wa.me/0507819156",
    "rating_text": "",
    "stars": null,
    "number_of_reviews": null,
    "price_level": "",
    "open_hours": "",
    "extraction_timestamp": "2025-06-08T03:05:56.317Z",
    "source_name": "google",
    "source_query": "Irrigation Equipment",
    "source_country": "SA",
    "country": "Saudi Arabia",
    "state": "Eastern Province",
    "city": "Aţ Ţaraf"
  },
  {
    "source_id": "ChIJtfgYQ7_lLj4RpbRoz4e764A",
    "name": "Tharawat irrigation",
    "category": "Tharawat irrigation",
    "formatted_address": "4,3(105)",
    "phone_number": "+966553398483",
    "source_url": "https://www.google.com/maps/place/Tharawat+irrigation/data=!4m7!3m6!1s0x3e2ee5bf4318f8b5:0x80ebbb87cf68b4a5!8m2!3d24.8123659!4d46.5991359!16s%2Fg%2F11sj7skn34!19sChIJtfgYQ7_lLj4RpbRoz4e764A?authuser=0&hl=tr&rclk=1",
    "website_url": "http://tharawatsa.com/",
    "rating_text": "4,3",
    "stars": null,
    "number_of_reviews": null,
    "price_level": "",
    "open_hours": "",
    "extraction_timestamp": "2025-06-08T03:05:56.318Z",
    "source_name": "google",
    "source_query": "Irrigation Equipment",
    "source_country": "SA",
    "country": "Saudi Arabia",
    "state": "Eastern Province",
    "city": "Aţ Ţaraf"
  },
  {
    "source_id": "ChIJh_e878VNqBURgK3nCv76-cA",
    "name": "موسسة مهمات الري للتجاره Irrigation Tasks",
    "category": "موسسة مهمات الري للتجاره Irrigation Tasks",
    "formatted_address": "2,5(2)",
    "phone_number": "+966503694853",
    "source_url": "https://www.google.com/maps/place/%D9%85%D9%88%D8%B3%D8%B3%D8%A9+%D9%85%D9%87%D9%85%D8%A7%D8%AA+%D8%A7%D9%84%D8%B1%D9%8A+%D9%84%D9%84%D8%AA%D8%AC%D8%A7%D8%B1%D9%87+Irrigation+Tasks%E2%80%AD/data=!4m7!3m6!1s0x15a84dc5efbcf787:0xc0f9fafe0ae7ad80!8m2!3d28.408254!4d36.693211!16s%2Fg%2F11fl957p9g!19sChIJh_e878VNqBURgK3nCv76-cA?authuser=0&hl=tr&rclk=1",
    "website_url": "",
    "rating_text": "2,5",
    "stars": null,
    "number_of_reviews": null,
    "price_level": "",
    "open_hours": "",
    "extraction_timestamp": "2025-06-08T03:05:56.318Z",
    "source_name": "google",
    "source_query": "Irrigation Equipment",
    "source_country": "SA",
    "country": "Saudi Arabia",
    "state": "Eastern Province",
    "city": "Aţ Ţaraf"
  },
  {
    "source_id": "ChIJgyjJIszRwxURZ_JRY0_kl-c",
    "name": "شركة عالم الري الزراعية Irrigation World Agri. Co.",
    "category": "شركة عالم الري الزراعية Irrigation World Agri. Co.",
    "formatted_address": "3,0(4)",
    "phone_number": "+966503296463",
    "source_url": "https://www.google.com/maps/place/%D8%B4%D8%B1%D9%83%D8%A9+%D8%B9%D8%A7%D9%84%D9%85+%D8%A7%D9%84%D8%B1%D9%8A+%D8%A7%D9%84%D8%B2%D8%B1%D8%A7%D8%B9%D9%8A%D8%A9+Irrigation+World+Agri.+Co.%E2%80%AD/data=!4m7!3m6!1s0x15c3d1cc22c92883:0xe797e44f6351f267!8m2!3d21.5504274!4d39.1787418!16s%2Fg%2F11t2v3hgf8!19sChIJgyjJIszRwxURZ_JRY0_kl-c?authuser=0&hl=tr&rclk=1",
    "website_url": "",
    "rating_text": "3,0",
    "stars": null,
    "number_of_reviews": null,
    "price_level": "",
    "open_hours": "",
    "extraction_timestamp": "2025-06-08T03:05:56.318Z",
    "source_name": "google",
    "source_query": "Irrigation Equipment",
    "source_country": "SA",
    "country": "Saudi Arabia",
    "state": "Eastern Province",
    "city": "Aţ Ţaraf"
  },
  {
    "source_id": "ChIJPSDZw83iLj4ROnJctff5vw8",
    "name": "Agricultural machine of the submersibles",
    "category": "Agricultural machine of the submersibles",
    "formatted_address": "3,7(40)",
    "phone_number": "+966920000127",
    "source_url": "https://www.google.com/maps/place/Agricultural+machine+of+the+submersibles/data=!4m7!3m6!1s0x3e2ee2cdc3d9203d:0xfbff9f7b55c723a!8m2!3d24.7685621!4d46.6665551!16s%2Fg%2F11bw677vbw!19sChIJPSDZw83iLj4ROnJctff5vw8?authuser=0&hl=tr&rclk=1",
    "website_url": "",
    "rating_text": "3,7",
    "stars": null,
    "number_of_reviews": null,
    "price_level": "",
    "open_hours": "",
    "extraction_timestamp": "2025-06-08T03:05:56.319Z",
    "source_name": "google",
    "source_query": "Irrigation Equipment",
    "source_country": "SA",
    "country": "Saudi Arabia",
    "state": "Eastern Province",
    "city": "Aţ Ţaraf"
  },
  {
    "source_id": "ChIJI3ToWwC3wxURtcb5Q4HFvvs",
    "name": "Middle East Agriculture company",
    "category": "Middle East Agriculture company",
    "formatted_address": "5,0(2)",
    "phone_number": "+966126634432",
    "source_url": "https://www.google.com/maps/place/Middle+East+Agriculture+company/data=!4m7!3m6!1s0x15c3b7005be87423:0xfbbec58143f9c6b5!8m2!3d21.334099!4d39.206834!16s%2Fg%2F11wjb5rw9q!19sChIJI3ToWwC3wxURtcb5Q4HFvvs?authuser=0&hl=tr&rclk=1",
    "website_url": "http://www.meac.com.sa/",
    "rating_text": "5,0",
    "stars": null,
    "number_of_reviews": null,
    "price_level": "",
    "open_hours": "",
    "extraction_timestamp": "2025-06-08T03:05:56.319Z",
    "source_name": "google",
    "source_query": "Irrigation Equipment",
    "source_country": "SA",
    "country": "Saudi Arabia",
    "state": "Eastern Province",
    "city": "Aţ Ţaraf"
  },
  {
    "source_id": "ChIJH6eNq-SlHBURJRjBF0dqlyY",
    "name": "Mais Irrigation Co",
    "category": "Mais Irrigation Co",
    "formatted_address": "4,9(10)",
    "phone_number": "+96265726309",
    "source_url": "https://www.google.com/maps/place/Mais+Irrigation+Co/data=!4m7!3m6!1s0x151ca5e4ab8da71f:0x26976a4717c11825!8m2!3d31.8691629!4d35.8217235!16s%2Fg%2F11cnxyxhz8!19sChIJH6eNq-SlHBURJRjBF0dqlyY?authuser=0&hl=tr&rclk=1",
    "website_url": "",
    "rating_text": "4,9",
    "stars": null,
    "number_of_reviews": null,
    "price_level": "",
    "open_hours": "",
    "extraction_timestamp": "2025-06-08T03:05:56.319Z",
    "source_name": "google",
    "source_query": "Irrigation Equipment",
    "source_country": "SA",
    "country": "Saudi Arabia",
    "state": "Eastern Province",
    "city": "Aţ Ţaraf"
  }
]
