[
  {
    "source_id": "ChIJL7-ty-f9ST4RLYa2Aw82-qs",
    "name": "IRRIGATION WORLD AGRICULTURE CO. (IWACO) شركة عالم الري الزراعية",
    "category": "IRRIGATION WORLD AGRICULTURE CO. (IWACO) شركة عالم الري الزراعية",
    "formatted_address": "5,0(4)",
    "phone_number": "+966503296463",
    "source_url": "https://www.google.com/maps/place/IRRIGATION+WORLD+AGRICULTURE+CO.+%28IWACO%29+%D8%B4%D8%B1%D9%83%D8%A9+%D8%B9%D8%A7%D9%84%D9%85+%D8%A7%D9%84%D8%B1%D9%8A+%D8%A7%D9%84%D8%B2%D8%B1%D8%A7%D8%B9%D9%8A%D8%A9%E2%80%AD/data=!4m7!3m6!1s0x3e49fde7cbadbf2f:0xabfa360f03b6862d!8m2!3d26.4380074!4d50.0649875!16s%2Fg%2F11x6fcfbpn!19sChIJL7-ty-f9ST4RLYa2Aw82-qs?authuser=0&hl=tr&rclk=1",
    "website_url": "",
    "rating_text": "5,0",
    "stars": null,
    "number_of_reviews": null,
    "price_level": "",
    "open_hours": "",
    "extraction_timestamp": "2025-06-08T03:09:50.591Z",
    "source_name": "google",
    "source_query": "Irrigation Equipment",
    "source_country": "SA",
    "country": "Saudi Arabia",
    "state": "Eastern Province",
    "city": "Dhahran"
  },
  {
    "source_id": "ChIJ848909zvST4RB5fRC91hN80",
    "name": "MEAC AL-KHOBAR",
    "category": "MEAC AL-KHOBAR",
    "formatted_address": "4,9(8)",
    "phone_number": "+966561027930",
    "source_url": "https://www.google.com/maps/place/MEAC+AL-KHOBAR/data=!4m7!3m6!1s0x3e49efdcd33d8ff3:0xcd3761dd0bd19707!8m2!3d26.3914925!4d50.1782674!16s%2Fg%2F11j00lf0vv!19sChIJ848909zvST4RB5fRC91hN80?authuser=0&hl=tr&rclk=1",
    "website_url": "",
    "rating_text": "4,9",
    "stars": null,
    "number_of_reviews": null,
    "price_level": "",
    "open_hours": "",
    "extraction_timestamp": "2025-06-08T03:09:50.592Z",
    "source_name": "google",
    "source_query": "Irrigation Equipment",
    "source_country": "SA",
    "country": "Saudi Arabia",
    "state": "Eastern Province",
    "city": "Dhahran"
  },
  {
    "source_id": "ChIJOWVPwhjpST4Ruo4gki-60ds",
    "name": "osip pumps",
    "category": "osip pumps",
    "formatted_address": "5,0(92)",
    "phone_number": "+966530669910",
    "source_url": "https://www.google.com/maps/place/osip+pumps/data=!4m7!3m6!1s0x3e49e918c24f6539:0xdbd1ba2f92208eba!8m2!3d26.2864616!4d50.2147464!16s%2Fg%2F11pvzvj_kc!19sChIJOWVPwhjpST4Ruo4gki-60ds?authuser=0&hl=tr&rclk=1",
    "website_url": "",
    "rating_text": "5,0",
    "stars": null,
    "number_of_reviews": null,
    "price_level": "",
    "open_hours": "",
    "extraction_timestamp": "2025-06-08T03:09:50.593Z",
    "source_name": "google",
    "source_query": "Irrigation Equipment",
    "source_country": "SA",
    "country": "Saudi Arabia",
    "state": "Eastern Province",
    "city": "Dhahran"
  },
  {
    "source_id": "ChIJo6Pwm4j7ST4R6iM63FF4C00",
    "name": "Green Wheel Trading شركة الساقية الخضراء",
    "category": "Green Wheel Trading شركة الساقية الخضراء",
    "formatted_address": "4,0(4)",
    "phone_number": "+966531411223",
    "source_url": "https://www.google.com/maps/place/Green+Wheel+Trading+%D8%B4%D8%B1%D9%83%D8%A9+%D8%A7%D9%84%D8%B3%D8%A7%D9%82%D9%8A%D8%A9+%D8%A7%D9%84%D8%AE%D8%B6%D8%B1%D8%A7%D8%A1%E2%80%AD/data=!4m7!3m6!1s0x3e49fb889bf0a3a3:0x4d0b7851dc3a23ea!8m2!3d26.4209836!4d50.121971!16s%2Fg%2F11p09rtbgp!19sChIJo6Pwm4j7ST4R6iM63FF4C00?authuser=0&hl=tr&rclk=1",
    "website_url": "",
    "rating_text": "4,0",
    "stars": null,
    "number_of_reviews": null,
    "price_level": "",
    "open_hours": "",
    "extraction_timestamp": "2025-06-08T03:09:50.594Z",
    "source_name": "google",
    "source_query": "Irrigation Equipment",
    "source_country": "SA",
    "country": "Saudi Arabia",
    "state": "Eastern Province",
    "city": "Dhahran"
  },
  {
    "source_id": "ChIJf7-buA_pST4RR836fng3GqA",
    "name": "شركة عالم الانابيب التجارية Pipe World Trading Company",
    "category": "شركة عالم الانابيب التجارية Pipe World Trading Company",
    "formatted_address": "4,7(26)",
    "phone_number": "+966138222808",
    "source_url": "https://www.google.com/maps/place/%D8%B4%D8%B1%D9%83%D8%A9+%D8%B9%D8%A7%D9%84%D9%85+%D8%A7%D9%84%D8%A7%D9%86%D8%A7%D8%A8%D9%8A%D8%A8+%D8%A7%D9%84%D8%AA%D8%AC%D8%A7%D8%B1%D9%8A%D8%A9+Pipe+World+Trading+Company%E2%80%AD/data=!4m7!3m6!1s0x3e49e90fb89bbf7f:0xa01a37787efacd47!8m2!3d26.2856334!4d50.2157449!16s%2Fg%2F11rcl22b8_!19sChIJf7-buA_pST4RR836fng3GqA?authuser=0&hl=tr&rclk=1",
    "website_url": "",
    "rating_text": "4,7",
    "stars": null,
    "number_of_reviews": null,
    "price_level": "",
    "open_hours": "",
    "extraction_timestamp": "2025-06-08T03:09:50.595Z",
    "source_name": "google",
    "source_query": "Irrigation Equipment",
    "source_country": "SA",
    "country": "Saudi Arabia",
    "state": "Eastern Province",
    "city": "Dhahran"
  },
  {
    "source_id": "ChIJZw55cBnoST4RefddBhOO7ZI",
    "name": "مؤسسة أحمد الزهراني التجارية",
    "category": "مؤسسة أحمد الزهراني التجارية",
    "formatted_address": "4,2(336)",
    "phone_number": "+966532876254",
    "source_url": "https://www.google.com/maps/place/%D9%85%D8%A4%D8%B3%D8%B3%D8%A9+%D8%A3%D8%AD%D9%85%D8%AF+%D8%A7%D9%84%D8%B2%D9%87%D8%B1%D8%A7%D9%86%D9%8A+%D8%A7%D9%84%D8%AA%D8%AC%D8%A7%D8%B1%D9%8A%D8%A9%E2%80%AD/data=!4m7!3m6!1s0x3e49e81970790e67:0x92ed8e13065df779!8m2!3d26.2763292!4d50.1989549!16s%2Fg%2F11bwc0n61y!19sChIJZw55cBnoST4RefddBhOO7ZI?authuser=0&hl=tr&rclk=1",
    "website_url": "",
    "rating_text": "4,2",
    "stars": null,
    "number_of_reviews": null,
    "price_level": "",
    "open_hours": "",
    "extraction_timestamp": "2025-06-08T03:09:50.596Z",
    "source_name": "google",
    "source_query": "Irrigation Equipment",
    "source_country": "SA",
    "country": "Saudi Arabia",
    "state": "Eastern Province",
    "city": "Dhahran"
  },
  {
    "source_id": "ChIJpwuBqVQeNj4RiDK0L762daw",
    "name": "Veolia Water Technologies Saudi Ltd",
    "category": "Veolia Water Technologies Saudi Ltd",
    "formatted_address": "4,8(28)",
    "phone_number": "+966138121034",
    "source_url": "https://www.google.com/maps/place/Veolia+Water+Technologies+Saudi+Ltd/data=!4m7!3m6!1s0x3e361e54a9810ba7:0xac75b6be2fb43288!8m2!3d26.2373345!4d49.9826658!16s%2Fg%2F11ckr5zpw7!19sChIJpwuBqVQeNj4RiDK0L762daw?authuser=0&hl=tr&rclk=1",
    "website_url": "",
    "rating_text": "4,8",
    "stars": null,
    "number_of_reviews": null,
    "price_level": "",
    "open_hours": "",
    "extraction_timestamp": "2025-06-08T03:09:50.597Z",
    "source_name": "google",
    "source_query": "Irrigation Equipment",
    "source_country": "SA",
    "country": "Saudi Arabia",
    "state": "Eastern Province",
    "city": "Dhahran"
  },
  {
    "source_id": "ChIJqTdF-kb8ST4RFt5vpSnQ5yc",
    "name": "مؤسسة الأنهار الزراعية للمضخات,AGRICULTURAL RIVERS FOR PUMPS",
    "category": "مؤسسة الأنهار الزراعية للمضخات,AGRICULTURAL RIVERS FOR PUMPS",
    "formatted_address": "مؤسسة الأنهار الزراعية للمضخات,AGRICULTURAL RIVERS FOR PUMPS",
    "phone_number": "+966558364553",
    "source_url": "https://www.google.com/maps/place/%D9%85%D8%A4%D8%B3%D8%B3%D8%A9+%D8%A7%D9%84%D8%A3%D9%86%D9%87%D8%A7%D8%B1+%D8%A7%D9%84%D8%B2%D8%B1%D8%A7%D8%B9%D9%8A%D8%A9+%D9%84%D9%84%D9%85%D8%B6%D8%AE%D8%A7%D8%AA,AGRICULTURAL+RIVERS+FOR+PUMPS%E2%80%AD/data=!4m7!3m6!1s0x3e49fc46fa4537a9:0x27e7d029a56fde16!8m2!3d26.4414581!4d50.0727931!16s%2Fg%2F11f306cj0y!19sChIJqTdF-kb8ST4RFt5vpSnQ5yc?authuser=0&hl=tr&rclk=1",
    "website_url": "",
    "rating_text": "4,2",
    "stars": null,
    "number_of_reviews": null,
    "price_level": "",
    "open_hours": "",
    "extraction_timestamp": "2025-06-08T03:09:50.598Z",
    "source_name": "google",
    "source_query": "Irrigation Equipment",
    "source_country": "SA",
    "country": "Saudi Arabia",
    "state": "Eastern Province",
    "city": "Dhahran"
  },
  {
    "source_id": "ChIJv3zv6DnoST4RHcVhTW4hsF8",
    "name": "SADA HQ (سعادة)",
    "category": "SADA HQ (سعادة)",
    "formatted_address": "4,8(49)",
    "phone_number": "+966561779588",
    "source_url": "https://www.google.com/maps/place/SADA+HQ+%28%D8%B3%D8%B9%D8%A7%D8%AF%D8%A9%29%E2%80%AD/data=!4m7!3m6!1s0x3e49e839e8ef7cbf:0x5fb0216e4d61c51d!8m2!3d26.2882125!4d50.20584!16s%2Fg%2F1vhlwnf_!19sChIJv3zv6DnoST4RHcVhTW4hsF8?authuser=0&hl=tr&rclk=1",
    "website_url": "",
    "rating_text": "4,8",
    "stars": null,
    "number_of_reviews": null,
    "price_level": "",
    "open_hours": "",
    "extraction_timestamp": "2025-06-08T03:09:50.599Z",
    "source_name": "google",
    "source_query": "Irrigation Equipment",
    "source_country": "SA",
    "country": "Saudi Arabia",
    "state": "Eastern Province",
    "city": "Dhahran"
  },
  {
    "source_id": "ChIJnZC4DpzbST4R6eF1I519jMY",
    "name": "Khobar Interface Company",
    "category": "Khobar Interface Company",
    "formatted_address": "4,0(494)",
    "phone_number": "+966535055665",
    "source_url": "https://www.google.com/maps/place/Khobar+Interface+Company/data=!4m7!3m6!1s0x3e49db9c0eb8909d:0xc68c7d9d2375e1e9!8m2!3d26.155594!4d50.138078!16s%2Fg%2F11c1njb9xt!19sChIJnZC4DpzbST4R6eF1I519jMY?authuser=0&hl=tr&rclk=1",
    "website_url": "",
    "rating_text": "4,0",
    "stars": null,
    "number_of_reviews": null,
    "price_level": "",
    "open_hours": "",
    "extraction_timestamp": "2025-06-08T03:09:50.600Z",
    "source_name": "google",
    "source_query": "Irrigation Equipment",
    "source_country": "SA",
    "country": "Saudi Arabia",
    "state": "Eastern Province",
    "city": "Dhahran"
  },
  {
    "source_id": "ChIJd6QKoEHpST4RcD2-2NvE5aY",
    "name": "Mohammed Khalid Tufail Din Imam Trading Est. ( MKT TRADING EST. ADVANCE SAFETY)",
    "category": "Mohammed Khalid Tufail Din Imam Trading Est. ( MKT TRADING EST. ADVANCE SAFETY)",
    "formatted_address": "4,5(2)",
    "phone_number": "+966569476524",
    "source_url": "https://www.google.com/maps/place/Mohammed+Khalid+Tufail+Din+Imam+Trading+Est.+%28+MKT+TRADING+EST.+ADVANCE+SAFETY%29/data=!4m7!3m6!1s0x3e49e941a00aa477:0xa6e5c4dbd8be3d70!8m2!3d26.2789147!4d50.1979702!16s%2Fg%2F11vkhzmgvp!19sChIJd6QKoEHpST4RcD2-2NvE5aY?authuser=0&hl=tr&rclk=1",
    "website_url": "",
    "rating_text": "4,5",
    "stars": null,
    "number_of_reviews": null,
    "price_level": "",
    "open_hours": "",
    "extraction_timestamp": "2025-06-08T03:09:50.601Z",
    "source_name": "google",
    "source_query": "Irrigation Equipment",
    "source_country": "SA",
    "country": "Saudi Arabia",
    "state": "Eastern Province",
    "city": "Dhahran"
  },
  {
    "source_id": "ChIJvYf7v078ST4R_r35JksPSTc",
    "name": "مؤسسة الحديقة والمزرعة الدمام",
    "category": "مؤسسة الحديقة والمزرعة الدمام",
    "formatted_address": "4,3(32)",
    "phone_number": "+966138172212",
    "source_url": "https://www.google.com/maps/place/%D9%85%D8%A4%D8%B3%D8%B3%D8%A9+%D8%A7%D9%84%D8%AD%D8%AF%D9%8A%D9%82%D8%A9+%D9%88%D8%A7%D9%84%D9%85%D8%B2%D8%B1%D8%B9%D8%A9+%D8%A7%D9%84%D8%AF%D9%85%D8%A7%D9%85%E2%80%AD/data=!4m7!3m6!1s0x3e49fc4ebffb87bd:0x37490f4b26f9bdfe!8m2!3d26.4366926!4d50.0655234!16s%2Fg%2F11b7fv8h61!19sChIJvYf7v078ST4R_r35JksPSTc?authuser=0&hl=tr&rclk=1",
    "website_url": "",
    "rating_text": "4,3",
    "stars": null,
    "number_of_reviews": null,
    "price_level": "",
    "open_hours": "",
    "extraction_timestamp": "2025-06-08T03:09:50.602Z",
    "source_name": "google",
    "source_query": "Irrigation Equipment",
    "source_country": "SA",
    "country": "Saudi Arabia",
    "state": "Eastern Province",
    "city": "Dhahran"
  },
  {
    "source_id": "ChIJ69UDBJrbST4RxOeGHcCWjts",
    "name": "Sumou al Omer Trading Company - Al Sheraa",
    "category": "Sumou al Omer Trading Company - Al Sheraa",
    "formatted_address": "4,4(22)",
    "phone_number": "+966565990646",
    "source_url": "https://www.google.com/maps/place/Sumou+al+Omer+Trading+Company+-+Al+Sheraa/data=!4m7!3m6!1s0x3e49db9a0403d5eb:0xdb8e96c01d86e7c4!8m2!3d26.173588!4d50.1554362!16s%2Fg%2F11hrxrsq0c!19sChIJ69UDBJrbST4RxOeGHcCWjts?authuser=0&hl=tr&rclk=1",
    "website_url": "",
    "rating_text": "4,4",
    "stars": null,
    "number_of_reviews": null,
    "price_level": "",
    "open_hours": "",
    "extraction_timestamp": "2025-06-08T03:09:50.603Z",
    "source_name": "google",
    "source_query": "Irrigation Equipment",
    "source_country": "SA",
    "country": "Saudi Arabia",
    "state": "Eastern Province",
    "city": "Dhahran"
  },
  {
    "source_id": "ChIJbUP36RboST4RXDIQcOoxfMk",
    "name": "Saudi Powerline Trading Co Ltd - Oil & Gas Supplier",
    "category": "Saudi Powerline Trading Co Ltd - Oil & Gas Supplier",
    "formatted_address": "3,3(4)",
    "phone_number": "+966138978444",
    "source_url": "https://www.google.com/maps/place/Saudi+Powerline+Trading+Co+Ltd+-+Oil+%26+Gas+Supplier/data=!4m7!3m6!1s0x3e49e816e9f7436d:0xc97c31ea7010325c!8m2!3d26.2835064!4d50.2009522!16s%2Fg%2F1jgm0s198!19sChIJbUP36RboST4RXDIQcOoxfMk?authuser=0&hl=tr&rclk=1",
    "website_url": "",
    "rating_text": "3,3",
    "stars": null,
    "number_of_reviews": null,
    "price_level": "",
    "open_hours": "",
    "extraction_timestamp": "2025-06-08T03:09:50.603Z",
    "source_name": "google",
    "source_query": "Irrigation Equipment",
    "source_country": "SA",
    "country": "Saudi Arabia",
    "state": "Eastern Province",
    "city": "Dhahran"
  },
  {
    "source_id": "ChIJYWrzeyfoST4RbV3RbJUXHAQ",
    "name": "فرع شركة عائض مبارك القحطاني التجارية",
    "category": "فرع شركة عائض مبارك القحطاني التجارية",
    "formatted_address": "3,0(4)",
    "phone_number": "+966568734266",
    "source_url": "https://www.google.com/maps/place/%D9%81%D8%B1%D8%B9+%D8%B4%D8%B1%D9%83%D8%A9+%D8%B9%D8%A7%D8%A6%D8%B6+%D9%85%D8%A8%D8%A7%D8%B1%D9%83+%D8%A7%D9%84%D9%82%D8%AD%D8%B7%D8%A7%D9%86%D9%8A+%D8%A7%D9%84%D8%AA%D8%AC%D8%A7%D8%B1%D9%8A%D8%A9%E2%80%AD/data=!4m7!3m6!1s0x3e49e8277bf36a61:0x41c17956cd15d6d!8m2!3d26.2737167!4d50.2111706!16s%2Fg%2F11f_21br04!19sChIJYWrzeyfoST4RbV3RbJUXHAQ?authuser=0&hl=tr&rclk=1",
    "website_url": "",
    "rating_text": "3,0",
    "stars": null,
    "number_of_reviews": null,
    "price_level": "",
    "open_hours": "",
    "extraction_timestamp": "2025-06-08T03:09:50.604Z",
    "source_name": "google",
    "source_query": "Irrigation Equipment",
    "source_country": "SA",
    "country": "Saudi Arabia",
    "state": "Eastern Province",
    "city": "Dhahran"
  },
  {
    "source_id": "ChIJsfemLWTjST4RR5mwIxB_KTA",
    "name": "تطوان التجارية",
    "category": "تطوان التجارية",
    "formatted_address": "5,0(4)",
    "phone_number": "+966138133335",
    "source_url": "https://www.google.com/maps/place/%D8%AA%D8%B7%D9%88%D8%A7%D9%86+%D8%A7%D9%84%D8%AA%D8%AC%D8%A7%D8%B1%D9%8A%D8%A9%E2%80%AD/data=!4m7!3m6!1s0x3e49e3642da6f7b1:0x30297f1023b09947!8m2!3d26.3671516!4d50.0331014!16s%2Fg%2F11mw7h5b54!19sChIJsfemLWTjST4RR5mwIxB_KTA?authuser=0&hl=tr&rclk=1",
    "website_url": "",
    "rating_text": "5,0",
    "stars": null,
    "number_of_reviews": null,
    "price_level": "",
    "open_hours": "",
    "extraction_timestamp": "2025-06-08T03:09:50.605Z",
    "source_name": "google",
    "source_query": "Irrigation Equipment",
    "source_country": "SA",
    "country": "Saudi Arabia",
    "state": "Eastern Province",
    "city": "Dhahran"
  },
  {
    "source_id": "ChIJM1WKScj8ST4RzQx0i0GJL1k",
    "name": "Alwasail Industrial Co. - Dammam Branch",
    "category": "Alwasail Industrial Co. - Dammam Branch",
    "formatted_address": "3,6(59)",
    "phone_number": "+966506404317",
    "source_url": "https://www.google.com/maps/place/Alwasail+Industrial+Co.+-+Dammam+Branch/data=!4m7!3m6!1s0x3e49fcc8498a5533:0x592f89418b740ccd!8m2!3d26.3945113!4d50.0785528!16s%2Fg%2F11dxb1q20b!19sChIJM1WKScj8ST4RzQx0i0GJL1k?authuser=0&hl=tr&rclk=1",
    "website_url": "",
    "rating_text": "3,6",
    "stars": null,
    "number_of_reviews": null,
    "price_level": "",
    "open_hours": "",
    "extraction_timestamp": "2025-06-08T03:09:50.606Z",
    "source_name": "google",
    "source_query": "Irrigation Equipment",
    "source_country": "SA",
    "country": "Saudi Arabia",
    "state": "Eastern Province",
    "city": "Dhahran"
  },
  {
    "source_id": "ChIJA3lfXCPoST4REUTNiV7EOKQ",
    "name": "Earthcore Trading Est",
    "category": "Earthcore Trading Est",
    "formatted_address": "2,0(1)",
    "phone_number": "+966138947223",
    "source_url": "https://www.google.com/maps/place/Earthcore+Trading+Est/data=!4m7!3m6!1s0x3e49e8235c5f7903:0xa438c45e89cd4411!8m2!3d26.2811519!4d50.2085484!16s%2Fg%2F11bbwyxg16!19sChIJA3lfXCPoST4REUTNiV7EOKQ?authuser=0&hl=tr&rclk=1",
    "website_url": "",
    "rating_text": "2,0",
    "stars": null,
    "number_of_reviews": null,
    "price_level": "",
    "open_hours": "",
    "extraction_timestamp": "2025-06-08T03:09:50.607Z",
    "source_name": "google",
    "source_query": "Irrigation Equipment",
    "source_country": "SA",
    "country": "Saudi Arabia",
    "state": "Eastern Province",
    "city": "Dhahran"
  },
  {
    "source_id": "ChIJSwpuaoDnST4Rhu9qyJn9tT8",
    "name": "Dohat Al Raed for Trading Est.",
    "category": "Dohat Al Raed for Trading Est.",
    "formatted_address": "2,7(7)",
    "phone_number": "+966507134696",
    "source_url": "https://www.google.com/maps/place/Dohat+Al+Raed+for+Trading+Est./data=!4m7!3m6!1s0x3e49e7806a6e0a4b:0x3fb5fd99c86aef86!8m2!3d26.3280513!4d50.1676843!16s%2Fg%2F11h7f6g5mp!19sChIJSwpuaoDnST4Rhu9qyJn9tT8?authuser=0&hl=tr&rclk=1",
    "website_url": "",
    "rating_text": "2,7",
    "stars": null,
    "number_of_reviews": null,
    "price_level": "",
    "open_hours": "",
    "extraction_timestamp": "2025-06-08T03:09:50.608Z",
    "source_name": "google",
    "source_query": "Irrigation Equipment",
    "source_country": "SA",
    "country": "Saudi Arabia",
    "state": "Eastern Province",
    "city": "Dhahran"
  },
  {
    "source_id": "ChIJ7aAGHzroST4RRipRjW2FyJc",
    "name": "Saudi Arabian water for agriculture",
    "category": "Saudi Arabian water for agriculture",
    "formatted_address": "5,0(1)",
    "phone_number": "+966553899979",
    "source_url": "https://www.google.com/maps/place/Saudi+Arabian+water+for+agriculture/data=!4m7!3m6!1s0x3e49e83a1f06a0ed:0x97c8856d8d512a46!8m2!3d26.288586!4d50.2129879!16s%2Fg%2F11dxst66sm!19sChIJ7aAGHzroST4RRipRjW2FyJc?authuser=0&hl=tr&rclk=1",
    "website_url": "",
    "rating_text": "5,0",
    "stars": null,
    "number_of_reviews": null,
    "price_level": "",
    "open_hours": "",
    "extraction_timestamp": "2025-06-08T03:09:50.609Z",
    "source_name": "google",
    "source_query": "Irrigation Equipment",
    "source_country": "SA",
    "country": "Saudi Arabia",
    "state": "Eastern Province",
    "city": "Dhahran"
  },
  {
    "source_id": "ChIJJ76fJczmST4R6qyBlpOJv_4",
    "name": "Dhahran Hills Recreation Center",
    "category": "Dhahran Hills Recreation Center",
    "formatted_address": "4,4(323)",
    "phone_number": "",
    "source_url": "https://www.google.com/maps/place/Dhahran+Hills+Recreation+Center/data=!4m7!3m6!1s0x3e49e6cc259fbe27:0xfebf89939681acea!8m2!3d26.2907854!4d50.1062276!16s%2Fg%2F1tcxsqhj!19sChIJJ76fJczmST4R6qyBlpOJv_4?authuser=0&hl=tr&rclk=1",
    "website_url": "",
    "rating_text": "4,4",
    "stars": null,
    "number_of_reviews": null,
    "price_level": "",
    "open_hours": "",
    "extraction_timestamp": "2025-06-08T03:09:50.610Z",
    "source_name": "google",
    "source_query": "Irrigation Equipment",
    "source_country": "SA",
    "country": "Saudi Arabia",
    "state": "Eastern Province",
    "city": "Dhahran"
  },
  {
    "source_id": "ChIJj4WOJibpST4RmEGo13MNMeM",
    "name": "AL KHOBAR LAND TRD. EST.",
    "category": "AL KHOBAR LAND TRD. EST.",
    "formatted_address": "5,0(1)",
    "phone_number": "+966530988114",
    "source_url": "https://www.google.com/maps/place/AL+KHOBAR+LAND+TRD.+EST./data=!4m7!3m6!1s0x3e49e926268e858f:0xe3310d73d7a84198!8m2!3d26.2845434!4d50.2160893!16s%2Fg%2F11tk6v9l_1!19sChIJj4WOJibpST4RmEGo13MNMeM?authuser=0&hl=tr&rclk=1",
    "website_url": "",
    "rating_text": "5,0",
    "stars": null,
    "number_of_reviews": null,
    "price_level": "",
    "open_hours": "",
    "extraction_timestamp": "2025-06-08T03:09:50.611Z",
    "source_name": "google",
    "source_query": "Irrigation Equipment",
    "source_country": "SA",
    "country": "Saudi Arabia",
    "state": "Eastern Province",
    "city": "Dhahran"
  },
  {
    "source_id": "ChIJeXJyGgAfNj4RZScYlSrfjGg",
    "name": "مؤسسة أركان العافية لمواد البناء والسباكة",
    "category": "مؤسسة أركان العافية لمواد البناء والسباكة",
    "formatted_address": "3,0(2)",
    "phone_number": "+966552022839",
    "source_url": "https://www.google.com/maps/place/%D9%85%D8%A4%D8%B3%D8%B3%D8%A9+%D8%A3%D8%B1%D9%83%D8%A7%D9%86+%D8%A7%D9%84%D8%B9%D8%A7%D9%81%D9%8A%D8%A9+%D9%84%D9%85%D9%88%D8%A7%D8%AF+%D8%A7%D9%84%D8%A8%D9%86%D8%A7%D8%A1+%D9%88%D8%A7%D9%84%D8%B3%D8%A8%D8%A7%D9%83%D8%A9%E2%80%AD/data=!4m7!3m6!1s0x3e361f001a727279:0x688cdf2a95182765!8m2!3d26.2385238!4d49.9717182!16s%2Fg%2F11w9xpttgz!19sChIJeXJyGgAfNj4RZScYlSrfjGg?authuser=0&hl=tr&rclk=1",
    "website_url": "",
    "rating_text": "3,0",
    "stars": null,
    "number_of_reviews": null,
    "price_level": "",
    "open_hours": "",
    "extraction_timestamp": "2025-06-08T03:09:50.612Z",
    "source_name": "google",
    "source_query": "Irrigation Equipment",
    "source_country": "SA",
    "country": "Saudi Arabia",
    "state": "Eastern Province",
    "city": "Dhahran"
  },
  {
    "source_id": "ChIJq_iVUkn8ST4Rba8qOTeJGhA",
    "name": "الياسين الزراعية فرع الدمام",
    "category": "الياسين الزراعية فرع الدمام",
    "formatted_address": "4,2(215)",
    "phone_number": "+966504924574",
    "source_url": "https://www.google.com/maps/place/%D8%A7%D9%84%D9%8A%D8%A7%D8%B3%D9%8A%D9%86+%D8%A7%D9%84%D8%B2%D8%B1%D8%A7%D8%B9%D9%8A%D8%A9+%D9%81%D8%B1%D8%B9+%D8%A7%D9%84%D8%AF%D9%85%D8%A7%D9%85%E2%80%AD/data=!4m7!3m6!1s0x3e49fc495295f8ab:0x101a8937392aaf6d!8m2!3d26.436869!4d50.065154!16s%2Fg%2F11dzdjw12g!19sChIJq_iVUkn8ST4Rba8qOTeJGhA?authuser=0&hl=tr&rclk=1",
    "website_url": "",
    "rating_text": "4,2",
    "stars": null,
    "number_of_reviews": null,
    "price_level": "",
    "open_hours": "",
    "extraction_timestamp": "2025-06-08T03:09:50.615Z",
    "source_name": "google",
    "source_query": "Irrigation Equipment",
    "source_country": "SA",
    "country": "Saudi Arabia",
    "state": "Eastern Province",
    "city": "Dhahran"
  },
  {
    "source_id": "ChIJNdOMAwDjST4RJA7GDG2OT_M",
    "name": "مؤسسة أعمال الشعلة للتجارة",
    "category": "مؤسسة أعمال الشعلة للتجارة",
    "formatted_address": "2,4(19)",
    "phone_number": "+966565773997",
    "source_url": "https://www.google.com/maps/place/%D9%85%D8%A4%D8%B3%D8%B3%D8%A9+%D8%A3%D8%B9%D9%85%D8%A7%D9%84+%D8%A7%D9%84%D8%B4%D8%B9%D9%84%D8%A9+%D9%84%D9%84%D8%AA%D8%AC%D8%A7%D8%B1%D8%A9%E2%80%AD/data=!4m7!3m6!1s0x3e49e300038cd335:0xf34f8e6d0cc60e24!8m2!3d26.3422138!4d50.0401084!16s%2Fg%2F11wj3nq4k1!19sChIJNdOMAwDjST4RJA7GDG2OT_M?authuser=0&hl=tr&rclk=1",
    "website_url": "",
    "rating_text": "2,4",
    "stars": null,
    "number_of_reviews": null,
    "price_level": "",
    "open_hours": "",
    "extraction_timestamp": "2025-06-08T03:09:50.617Z",
    "source_name": "google",
    "source_query": "Irrigation Equipment",
    "source_country": "SA",
    "country": "Saudi Arabia",
    "state": "Eastern Province",
    "city": "Dhahran"
  },
  {
    "source_id": "ChIJx1qodU7jST4RNanwpVbgErQ",
    "name": "المورد الحديث لمواد البناء وللسباكة والكهرباء",
    "category": "المورد الحديث لمواد البناء وللسباكة والكهرباء",
    "formatted_address": "4,1(13)",
    "phone_number": "+966501368377",
    "source_url": "https://www.google.com/maps/place/%D8%A7%D9%84%D9%85%D9%88%D8%B1%D8%AF+%D8%A7%D9%84%D8%AD%D8%AF%D9%8A%D8%AB+%D9%84%D9%85%D9%88%D8%A7%D8%AF+%D8%A7%D9%84%D8%A8%D9%86%D8%A7%D8%A1+%D9%88%D9%84%D9%84%D8%B3%D8%A8%D8%A7%D9%83%D8%A9+%D9%88%D8%A7%D9%84%D9%83%D9%87%D8%B1%D8%A8%D8%A7%D8%A1%E2%80%AD/data=!4m7!3m6!1s0x3e49e34e75a85ac7:0xb412e056a5f0a935!8m2!3d26.3475537!4d50.0772431!16s%2Fg%2F11ssg7h9vp!19sChIJx1qodU7jST4RNanwpVbgErQ?authuser=0&hl=tr&rclk=1",
    "website_url": "",
    "rating_text": "4,1",
    "stars": null,
    "number_of_reviews": null,
    "price_level": "",
    "open_hours": "",
    "extraction_timestamp": "2025-06-08T03:09:50.617Z",
    "source_name": "google",
    "source_query": "Irrigation Equipment",
    "source_country": "SA",
    "country": "Saudi Arabia",
    "state": "Eastern Province",
    "city": "Dhahran"
  },
  {
    "source_id": "ChIJJ_bVX9zpST4RjuDHEzilC3Y",
    "name": "AQUA TECHNOLOGY CO LTD",
    "category": "AQUA TECHNOLOGY CO LTD",
    "formatted_address": "3,7(26)",
    "phone_number": "+966503862804",
    "source_url": "https://www.google.com/maps/place/AQUA+TECHNOLOGY+CO+LTD/data=!4m7!3m6!1s0x3e49e9dc5fd5f627:0x760ba53813c7e08e!8m2!3d26.2813583!4d50.2149618!16s%2Fg%2F11hyt6gwz4!19sChIJJ_bVX9zpST4RjuDHEzilC3Y?authuser=0&hl=tr&rclk=1",
    "website_url": "",
    "rating_text": "3,7",
    "stars": null,
    "number_of_reviews": null,
    "price_level": "",
    "open_hours": "",
    "extraction_timestamp": "2025-06-08T03:09:50.618Z",
    "source_name": "google",
    "source_query": "Irrigation Equipment",
    "source_country": "SA",
    "country": "Saudi Arabia",
    "state": "Eastern Province",
    "city": "Dhahran"
  },
  {
    "source_id": "ChIJWbaiHZodNj4RKecuvBQMdhA",
    "name": "(مؤسسة عمار للتجارة (سباكة و كهرباء",
    "category": "(مؤسسة عمار للتجارة (سباكة و كهرباء",
    "formatted_address": "2,8(8)",
    "phone_number": "+966507976907",
    "source_url": "https://www.google.com/maps/place/%28%D9%85%D8%A4%D8%B3%D8%B3%D8%A9+%D8%B9%D9%85%D8%A7%D8%B1+%D9%84%D9%84%D8%AA%D8%AC%D8%A7%D8%B1%D8%A9+%28%D8%B3%D8%A8%D8%A7%D9%83%D8%A9+%D9%88+%D9%83%D9%87%D8%B1%D8%A8%D8%A7%D8%A1%E2%80%AD/data=!4m7!3m6!1s0x3e361d9a1da2b659:0x10760c14bc2ee729!8m2!3d26.3331732!4d50.0092687!16s%2Fg%2F11t0vs0kb3!19sChIJWbaiHZodNj4RKecuvBQMdhA?authuser=0&hl=tr&rclk=1",
    "website_url": "",
    "rating_text": "2,8",
    "stars": null,
    "number_of_reviews": null,
    "price_level": "",
    "open_hours": "",
    "extraction_timestamp": "2025-06-08T03:09:50.619Z",
    "source_name": "google",
    "source_query": "Irrigation Equipment",
    "source_country": "SA",
    "country": "Saudi Arabia",
    "state": "Eastern Province",
    "city": "Dhahran"
  },
  {
    "source_id": "ChIJw8p53LPoST4RBDApaadxf8o",
    "name": "REDA Hazard Control Headquarter",
    "category": "REDA Hazard Control Headquarter",
    "formatted_address": "4,4(90)",
    "phone_number": "+966920001679",
    "source_url": "https://www.google.com/maps/place/REDA+Hazard+Control+Headquarter/data=!4m7!3m6!1s0x3e49e8b3dc79cac3:0xca7f71a769293004!8m2!3d26.3429949!4d50.1970064!16s%2Fg%2F11xbcc0bj!19sChIJw8p53LPoST4RBDApaadxf8o?authuser=0&hl=tr&rclk=1",
    "website_url": "",
    "rating_text": "4,4",
    "stars": null,
    "number_of_reviews": null,
    "price_level": "",
    "open_hours": "",
    "extraction_timestamp": "2025-06-08T03:09:50.638Z",
    "source_name": "google",
    "source_query": "Irrigation Equipment",
    "source_country": "SA",
    "country": "Saudi Arabia",
    "state": "Eastern Province",
    "city": "Dhahran"
  },
  {
    "source_id": "ChIJrdpRmonjST4R5dMCVvsH4qw",
    "name": "Electric and Plumbing materials",
    "category": "Electric and Plumbing materials",
    "formatted_address": "5,0(6)",
    "phone_number": "+966533174086",
    "source_url": "https://www.google.com/maps/place/Electric+and+Plumbing+materials/data=!4m7!3m6!1s0x3e49e3899a51daad:0xace207fb5602d3e5!8m2!3d26.3620966!4d50.0725709!16s%2Fg%2F11sp9kpng5!19sChIJrdpRmonjST4R5dMCVvsH4qw?authuser=0&hl=tr&rclk=1",
    "website_url": "",
    "rating_text": "5,0",
    "stars": null,
    "number_of_reviews": null,
    "price_level": "",
    "open_hours": "",
    "extraction_timestamp": "2025-06-08T03:09:50.639Z",
    "source_name": "google",
    "source_query": "Irrigation Equipment",
    "source_country": "SA",
    "country": "Saudi Arabia",
    "state": "Eastern Province",
    "city": "Dhahran"
  }
]
