[
  {
    "source_id": "ChIJOX_Ux09tOT4R_HlXzavf_z8",
    "name": "RICI Company Ltd. (Haradh Branch)",
    "category": "RICI Company Ltd. (Haradh Branch)",
    "formatted_address": "4,6(16)",
    "phone_number": "+966505824538",
    "source_url": "https://www.google.com/maps/place/RICI+Company+Ltd.+%28Haradh+Branch%29/data=!4m7!3m6!1s0x3e396d4fc7d47f39:0x3fffdfabcd5779fc!8m2!3d24.1182707!4d49.0202013!16s%2Fg%2F11jvnl5kcz!19sChIJOX_Ux09tOT4R_HlXzavf_z8?authuser=0&hl=tr&rclk=1",
    "website_url": "http://www.ricionline.com/",
    "rating_text": "4,6",
    "stars": null,
    "number_of_reviews": null,
    "price_level": "",
    "open_hours": "",
    "extraction_timestamp": "2025-06-08T03:09:30.468Z",
    "source_name": "google",
    "source_query": "Irrigation Equipment",
    "source_country": "SA",
    "country": "Saudi Arabia",
    "state": "Eastern Province",
    "city": "Haradh"
  },
  {
    "source_id": "ChIJ04OtHQBtOT4RbwLbi_5WcEI",
    "name": "Dp1 water purification systems",
    "category": "Dp1 water purification systems",
    "formatted_address": "Dp1 water purification systems",
    "phone_number": "",
    "source_url": "https://www.google.com/maps/place/Dp1+water+purification+systems/data=!4m7!3m6!1s0x3e396d001dad83d3:0x427056fe8bdb026f!8m2!3d24.08267!4d48.9707197!16s%2Fg%2F11vs9blx8r!19sChIJ04OtHQBtOT4RbwLbi_5WcEI?authuser=0&hl=tr&rclk=1",
    "website_url": "",
    "rating_text": "",
    "stars": null,
    "number_of_reviews": null,
    "price_level": "",
    "open_hours": "",
    "extraction_timestamp": "2025-06-08T03:09:30.468Z",
    "source_name": "google",
    "source_query": "Irrigation Equipment",
    "source_country": "SA",
    "country": "Saudi Arabia",
    "state": "Eastern Province",
    "city": "Haradh"
  },
  {
    "source_id": "ChIJzY_2bbYTOT4RI21AlsjgIcE",
    "name": "Aldrees",
    "category": "Aldrees",
    "formatted_address": "3,7(755)",
    "phone_number": "+966920002667",
    "source_url": "https://www.google.com/maps/place/Aldrees/data=!4m7!3m6!1s0x3e3913b66df68fcd:0xc121e0c896406d23!8m2!3d24.1359392!4d49.1003898!16s%2Fg%2F1pp2x9r76!19sChIJzY_2bbYTOT4RI21AlsjgIcE?authuser=0&hl=tr&rclk=1",
    "website_url": "http://www.aldrees.com/",
    "rating_text": "3,7",
    "stars": null,
    "number_of_reviews": null,
    "price_level": "",
    "open_hours": "",
    "extraction_timestamp": "2025-06-08T03:09:30.469Z",
    "source_name": "google",
    "source_query": "Irrigation Equipment",
    "source_country": "SA",
    "country": "Saudi Arabia",
    "state": "Eastern Province",
    "city": "Haradh"
  },
  {
    "source_id": "ChIJ_ewzIj2jLz4RG1ZkOVBSGXQ",
    "name": "SAUDI DRIP IRRIGATION SYSTEMS COMPANY",
    "category": "SAUDI DRIP IRRIGATION SYSTEMS COMPANY",
    "formatted_address": "4,5(2)",
    "phone_number": "+966112650445",
    "source_url": "https://www.google.com/maps/place/SAUDI+DRIP+IRRIGATION+SYSTEMS+COMPANY/data=!4m7!3m6!1s0x3e2fa33d2233ecfd:0x741952503964561b!8m2!3d24.5274617!4d46.9076911!16s%2Fg%2F11j4lpbk7m!19sChIJ_ewzIj2jLz4RG1ZkOVBSGXQ?authuser=0&hl=tr&rclk=1",
    "website_url": "",
    "rating_text": "4,5",
    "stars": null,
    "number_of_reviews": null,
    "price_level": "",
    "open_hours": "",
    "extraction_timestamp": "2025-06-08T03:09:30.469Z",
    "source_name": "google",
    "source_query": "Irrigation Equipment",
    "source_country": "SA",
    "country": "Saudi Arabia",
    "state": "Eastern Province",
    "city": "Haradh"
  },
  {
    "source_id": "ChIJ3cg1DVpsOT4RL3zTXgBFOgk",
    "name": "NADEC Super Market",
    "category": "NADEC Super Market",
    "formatted_address": "3,9(271)",
    "phone_number": "+966558430986",
    "source_url": "https://www.google.com/maps/place/NADEC+Super+Market/data=!4m7!3m6!1s0x3e396c5a0d35c8dd:0x93a45005ed37c2f!8m2!3d24.0968772!4d48.9946505!16s%2Fg%2F11c2y7rzn0!19sChIJ3cg1DVpsOT4RL3zTXgBFOgk?authuser=0&hl=tr&rclk=1",
    "website_url": "",
    "rating_text": "3,9",
    "stars": null,
    "number_of_reviews": null,
    "price_level": "",
    "open_hours": "",
    "extraction_timestamp": "2025-06-08T03:09:30.470Z",
    "source_name": "google",
    "source_query": "Irrigation Equipment",
    "source_country": "SA",
    "country": "Saudi Arabia",
    "state": "Eastern Province",
    "city": "Haradh"
  }
]
