[
  {
    "source_id": "ChIJf7-buA_pST4RR836fng3GqA",
    "name": "شركة عالم الانابيب التجارية Pipe World Trading Company",
    "category": "شركة عالم الانابيب التجارية Pipe World Trading Company",
    "formatted_address": "4,7(26)",
    "phone_number": "+966138222808",
    "source_url": "https://www.google.com/maps/place/%D8%B4%D8%B1%D9%83%D8%A9+%D8%B9%D8%A7%D9%84%D9%85+%D8%A7%D9%84%D8%A7%D9%86%D8%A7%D8%A8%D9%8A%D8%A8+%D8%A7%D9%84%D8%AA%D8%AC%D8%A7%D8%B1%D9%8A%D8%A9+Pipe+World+Trading+Company%E2%80%AD/data=!4m7!3m6!1s0x3e49e90fb89bbf7f:0xa01a37787efacd47!8m2!3d26.2856334!4d50.2157449!16s%2Fg%2F11rcl22b8_!19sChIJf7-buA_pST4RR836fng3GqA?authuser=0&hl=tr&rclk=1",
    "website_url": "",
    "rating_text": "4,7",
    "stars": null,
    "number_of_reviews": null,
    "price_level": "",
    "open_hours": "",
    "extraction_timestamp": "2025-06-08T03:07:50.527Z",
    "source_name": "google",
    "source_query": "Irrigation Equipment",
    "source_country": "SA",
    "country": "Saudi Arabia",
    "state": "Eastern Province",
    "city": "Khobar"
  },
  {
    "source_id": "ChIJ69UDBJrbST4RxOeGHcCWjts",
    "name": "Sumou al Omer Trading Company - Al Sheraa",
    "category": "Sumou al Omer Trading Company - Al Sheraa",
    "formatted_address": "4,4(22)",
    "phone_number": "+966565990646",
    "source_url": "https://www.google.com/maps/place/Sumou+al+Omer+Trading+Company+-+Al+Sheraa/data=!4m7!3m6!1s0x3e49db9a0403d5eb:0xdb8e96c01d86e7c4!8m2!3d26.173588!4d50.1554362!16s%2Fg%2F11hrxrsq0c!19sChIJ69UDBJrbST4RxOeGHcCWjts?authuser=0&hl=tr&rclk=1",
    "website_url": "",
    "rating_text": "4,4",
    "stars": null,
    "number_of_reviews": null,
    "price_level": "",
    "open_hours": "",
    "extraction_timestamp": "2025-06-08T03:07:50.528Z",
    "source_name": "google",
    "source_query": "Irrigation Equipment",
    "source_country": "SA",
    "country": "Saudi Arabia",
    "state": "Eastern Province",
    "city": "Khobar"
  },
  {
    "source_id": "ChIJOWVPwhjpST4Ruo4gki-60ds",
    "name": "osip pumps",
    "category": "osip pumps",
    "formatted_address": "5,0(92)",
    "phone_number": "+966530669910",
    "source_url": "https://www.google.com/maps/place/osip+pumps/data=!4m7!3m6!1s0x3e49e918c24f6539:0xdbd1ba2f92208eba!8m2!3d26.2864616!4d50.2147464!16s%2Fg%2F11pvzvj_kc!19sChIJOWVPwhjpST4Ruo4gki-60ds?authuser=0&hl=tr&rclk=1",
    "website_url": "",
    "rating_text": "5,0",
    "stars": null,
    "number_of_reviews": null,
    "price_level": "",
    "open_hours": "",
    "extraction_timestamp": "2025-06-08T03:07:50.528Z",
    "source_name": "google",
    "source_query": "Irrigation Equipment",
    "source_country": "SA",
    "country": "Saudi Arabia",
    "state": "Eastern Province",
    "city": "Khobar"
  },
  {
    "source_id": "ChIJ848909zvST4RB5fRC91hN80",
    "name": "MEAC AL-KHOBAR",
    "category": "MEAC AL-KHOBAR",
    "formatted_address": "4,9(8)",
    "phone_number": "+966561027930",
    "source_url": "https://www.google.com/maps/place/MEAC+AL-KHOBAR/data=!4m7!3m6!1s0x3e49efdcd33d8ff3:0xcd3761dd0bd19707!8m2!3d26.3914925!4d50.1782674!16s%2Fg%2F11j00lf0vv!19sChIJ848909zvST4RB5fRC91hN80?authuser=0&hl=tr&rclk=1",
    "website_url": "",
    "rating_text": "4,9",
    "stars": null,
    "number_of_reviews": null,
    "price_level": "",
    "open_hours": "",
    "extraction_timestamp": "2025-06-08T03:07:50.528Z",
    "source_name": "google",
    "source_query": "Irrigation Equipment",
    "source_country": "SA",
    "country": "Saudi Arabia",
    "state": "Eastern Province",
    "city": "Khobar"
  },
  {
    "source_id": "ChIJd6QKoEHpST4RcD2-2NvE5aY",
    "name": "Mohammed Khalid Tufail Din Imam Trading Est. ( MKT TRADING EST. ADVANCE SAFETY)",
    "category": "Mohammed Khalid Tufail Din Imam Trading Est. ( MKT TRADING EST. ADVANCE SAFETY)",
    "formatted_address": "4,5(2)",
    "phone_number": "+966569476524",
    "source_url": "https://www.google.com/maps/place/Mohammed+Khalid+Tufail+Din+Imam+Trading+Est.+%28+MKT+TRADING+EST.+ADVANCE+SAFETY%29/data=!4m7!3m6!1s0x3e49e941a00aa477:0xa6e5c4dbd8be3d70!8m2!3d26.2789147!4d50.1979702!16s%2Fg%2F11vkhzmgvp!19sChIJd6QKoEHpST4RcD2-2NvE5aY?authuser=0&hl=tr&rclk=1",
    "website_url": "",
    "rating_text": "4,5",
    "stars": null,
    "number_of_reviews": null,
    "price_level": "",
    "open_hours": "",
    "extraction_timestamp": "2025-06-08T03:07:50.529Z",
    "source_name": "google",
    "source_query": "Irrigation Equipment",
    "source_country": "SA",
    "country": "Saudi Arabia",
    "state": "Eastern Province",
    "city": "Khobar"
  },
  {
    "source_id": "ChIJZw55cBnoST4RefddBhOO7ZI",
    "name": "مؤسسة أحمد الزهراني التجارية",
    "category": "مؤسسة أحمد الزهراني التجارية",
    "formatted_address": "4,2(336)",
    "phone_number": "+966532876254",
    "source_url": "https://www.google.com/maps/place/%D9%85%D8%A4%D8%B3%D8%B3%D8%A9+%D8%A3%D8%AD%D9%85%D8%AF+%D8%A7%D9%84%D8%B2%D9%87%D8%B1%D8%A7%D9%86%D9%8A+%D8%A7%D9%84%D8%AA%D8%AC%D8%A7%D8%B1%D9%8A%D8%A9%E2%80%AD/data=!4m7!3m6!1s0x3e49e81970790e67:0x92ed8e13065df779!8m2!3d26.2763292!4d50.1989549!16s%2Fg%2F11bwc0n61y!19sChIJZw55cBnoST4RefddBhOO7ZI?authuser=0&hl=tr&rclk=1",
    "website_url": "",
    "rating_text": "4,2",
    "stars": null,
    "number_of_reviews": null,
    "price_level": "",
    "open_hours": "",
    "extraction_timestamp": "2025-06-08T03:07:50.529Z",
    "source_name": "google",
    "source_query": "Irrigation Equipment",
    "source_country": "SA",
    "country": "Saudi Arabia",
    "state": "Eastern Province",
    "city": "Khobar"
  },
  {
    "source_id": "ChIJYWrzeyfoST4RbV3RbJUXHAQ",
    "name": "فرع شركة عائض مبارك القحطاني التجارية",
    "category": "فرع شركة عائض مبارك القحطاني التجارية",
    "formatted_address": "3,0(4)",
    "phone_number": "+966568734266",
    "source_url": "https://www.google.com/maps/place/%D9%81%D8%B1%D8%B9+%D8%B4%D8%B1%D9%83%D8%A9+%D8%B9%D8%A7%D8%A6%D8%B6+%D9%85%D8%A8%D8%A7%D8%B1%D9%83+%D8%A7%D9%84%D9%82%D8%AD%D8%B7%D8%A7%D9%86%D9%8A+%D8%A7%D9%84%D8%AA%D8%AC%D8%A7%D8%B1%D9%8A%D8%A9%E2%80%AD/data=!4m7!3m6!1s0x3e49e8277bf36a61:0x41c17956cd15d6d!8m2!3d26.2737167!4d50.2111706!16s%2Fg%2F11f_21br04!19sChIJYWrzeyfoST4RbV3RbJUXHAQ?authuser=0&hl=tr&rclk=1",
    "website_url": "",
    "rating_text": "3,0",
    "stars": null,
    "number_of_reviews": null,
    "price_level": "",
    "open_hours": "",
    "extraction_timestamp": "2025-06-08T03:07:50.530Z",
    "source_name": "google",
    "source_query": "Irrigation Equipment",
    "source_country": "SA",
    "country": "Saudi Arabia",
    "state": "Eastern Province",
    "city": "Khobar"
  },
  {
    "source_id": "ChIJj4WOJibpST4RmEGo13MNMeM",
    "name": "AL KHOBAR LAND TRD. EST.",
    "category": "AL KHOBAR LAND TRD. EST.",
    "formatted_address": "5,0(1)",
    "phone_number": "+966530988114",
    "source_url": "https://www.google.com/maps/place/AL+KHOBAR+LAND+TRD.+EST./data=!4m7!3m6!1s0x3e49e926268e858f:0xe3310d73d7a84198!8m2!3d26.2845434!4d50.2160893!16s%2Fg%2F11tk6v9l_1!19sChIJj4WOJibpST4RmEGo13MNMeM?authuser=0&hl=tr&rclk=1",
    "website_url": "",
    "rating_text": "5,0",
    "stars": null,
    "number_of_reviews": null,
    "price_level": "",
    "open_hours": "",
    "extraction_timestamp": "2025-06-08T03:07:50.530Z",
    "source_name": "google",
    "source_query": "Irrigation Equipment",
    "source_country": "SA",
    "country": "Saudi Arabia",
    "state": "Eastern Province",
    "city": "Khobar"
  },
  {
    "source_id": "ChIJbUP36RboST4RXDIQcOoxfMk",
    "name": "Saudi Powerline Trading Co Ltd - Oil & Gas Supplier",
    "category": "Saudi Powerline Trading Co Ltd - Oil & Gas Supplier",
    "formatted_address": "3,3(4)",
    "phone_number": "+966138978444",
    "source_url": "https://www.google.com/maps/place/Saudi+Powerline+Trading+Co+Ltd+-+Oil+%26+Gas+Supplier/data=!4m7!3m6!1s0x3e49e816e9f7436d:0xc97c31ea7010325c!8m2!3d26.2835064!4d50.2009522!16s%2Fg%2F1jgm0s198!19sChIJbUP36RboST4RXDIQcOoxfMk?authuser=0&hl=tr&rclk=1",
    "website_url": "",
    "rating_text": "3,3",
    "stars": null,
    "number_of_reviews": null,
    "price_level": "",
    "open_hours": "",
    "extraction_timestamp": "2025-06-08T03:07:50.530Z",
    "source_name": "google",
    "source_query": "Irrigation Equipment",
    "source_country": "SA",
    "country": "Saudi Arabia",
    "state": "Eastern Province",
    "city": "Khobar"
  },
  {
    "source_id": "ChIJ7aAGHzroST4RRipRjW2FyJc",
    "name": "Saudi Arabian water for agriculture",
    "category": "Saudi Arabian water for agriculture",
    "formatted_address": "5,0(1)",
    "phone_number": "+966553899979",
    "source_url": "https://www.google.com/maps/place/Saudi+Arabian+water+for+agriculture/data=!4m7!3m6!1s0x3e49e83a1f06a0ed:0x97c8856d8d512a46!8m2!3d26.288586!4d50.2129879!16s%2Fg%2F11dxst66sm!19sChIJ7aAGHzroST4RRipRjW2FyJc?authuser=0&hl=tr&rclk=1",
    "website_url": "",
    "rating_text": "5,0",
    "stars": null,
    "number_of_reviews": null,
    "price_level": "",
    "open_hours": "",
    "extraction_timestamp": "2025-06-08T03:07:50.531Z",
    "source_name": "google",
    "source_query": "Irrigation Equipment",
    "source_country": "SA",
    "country": "Saudi Arabia",
    "state": "Eastern Province",
    "city": "Khobar"
  },
  {
    "source_id": "ChIJv3zv6DnoST4RHcVhTW4hsF8",
    "name": "SADA HQ (سعادة)",
    "category": "SADA HQ (سعادة)",
    "formatted_address": "4,8(49)",
    "phone_number": "+966561779588",
    "source_url": "https://www.google.com/maps/place/SADA+HQ+%28%D8%B3%D8%B9%D8%A7%D8%AF%D8%A9%29%E2%80%AD/data=!4m7!3m6!1s0x3e49e839e8ef7cbf:0x5fb0216e4d61c51d!8m2!3d26.2882125!4d50.20584!16s%2Fg%2F1vhlwnf_!19sChIJv3zv6DnoST4RHcVhTW4hsF8?authuser=0&hl=tr&rclk=1",
    "website_url": "",
    "rating_text": "4,8",
    "stars": null,
    "number_of_reviews": null,
    "price_level": "",
    "open_hours": "",
    "extraction_timestamp": "2025-06-08T03:07:50.531Z",
    "source_name": "google",
    "source_query": "Irrigation Equipment",
    "source_country": "SA",
    "country": "Saudi Arabia",
    "state": "Eastern Province",
    "city": "Khobar"
  },
  {
    "source_id": "ChIJqTdF-kb8ST4RFt5vpSnQ5yc",
    "name": "مؤسسة الأنهار الزراعية للمضخات,AGRICULTURAL RIVERS FOR PUMPS",
    "category": "مؤسسة الأنهار الزراعية للمضخات,AGRICULTURAL RIVERS FOR PUMPS",
    "formatted_address": "مؤسسة الأنهار الزراعية للمضخات,AGRICULTURAL RIVERS FOR PUMPS",
    "phone_number": "+966558364553",
    "source_url": "https://www.google.com/maps/place/%D9%85%D8%A4%D8%B3%D8%B3%D8%A9+%D8%A7%D9%84%D8%A3%D9%86%D9%87%D8%A7%D8%B1+%D8%A7%D9%84%D8%B2%D8%B1%D8%A7%D8%B9%D9%8A%D8%A9+%D9%84%D9%84%D9%85%D8%B6%D8%AE%D8%A7%D8%AA,AGRICULTURAL+RIVERS+FOR+PUMPS%E2%80%AD/data=!4m7!3m6!1s0x3e49fc46fa4537a9:0x27e7d029a56fde16!8m2!3d26.4414581!4d50.0727931!16s%2Fg%2F11f306cj0y!19sChIJqTdF-kb8ST4RFt5vpSnQ5yc?authuser=0&hl=tr&rclk=1",
    "website_url": "",
    "rating_text": "4,2",
    "stars": null,
    "number_of_reviews": null,
    "price_level": "",
    "open_hours": "",
    "extraction_timestamp": "2025-06-08T03:07:50.532Z",
    "source_name": "google",
    "source_query": "Irrigation Equipment",
    "source_country": "SA",
    "country": "Saudi Arabia",
    "state": "Eastern Province",
    "city": "Khobar"
  },
  {
    "source_id": "ChIJvYf7v078ST4R_r35JksPSTc",
    "name": "مؤسسة الحديقة والمزرعة الدمام",
    "category": "مؤسسة الحديقة والمزرعة الدمام",
    "formatted_address": "4,3(32)",
    "phone_number": "+966138172212",
    "source_url": "https://www.google.com/maps/place/%D9%85%D8%A4%D8%B3%D8%B3%D8%A9+%D8%A7%D9%84%D8%AD%D8%AF%D9%8A%D9%82%D8%A9+%D9%88%D8%A7%D9%84%D9%85%D8%B2%D8%B1%D8%B9%D8%A9+%D8%A7%D9%84%D8%AF%D9%85%D8%A7%D9%85%E2%80%AD/data=!4m7!3m6!1s0x3e49fc4ebffb87bd:0x37490f4b26f9bdfe!8m2!3d26.4366926!4d50.0655234!16s%2Fg%2F11b7fv8h61!19sChIJvYf7v078ST4R_r35JksPSTc?authuser=0&hl=tr&rclk=1",
    "website_url": "",
    "rating_text": "4,3",
    "stars": null,
    "number_of_reviews": null,
    "price_level": "",
    "open_hours": "",
    "extraction_timestamp": "2025-06-08T03:07:50.532Z",
    "source_name": "google",
    "source_query": "Irrigation Equipment",
    "source_country": "SA",
    "country": "Saudi Arabia",
    "state": "Eastern Province",
    "city": "Khobar"
  },
  {
    "source_id": "ChIJxU13Ci_oST4RXmhGQ-nDiKQ",
    "name": "Bin Hamad Co.",
    "category": "Bin Hamad Co.",
    "formatted_address": "4,8(6)",
    "phone_number": "+966138642967",
    "source_url": "https://www.google.com/maps/place/Bin+Hamad+Co./data=!4m7!3m6!1s0x3e49e82f0a774dc5:0xa488c3e94346685e!8m2!3d26.283243!4d50.215812!16s%2Fg%2F1yj4gys4h!19sChIJxU13Ci_oST4RXmhGQ-nDiKQ?authuser=0&hl=tr&rclk=1",
    "website_url": "",
    "rating_text": "4,8",
    "stars": null,
    "number_of_reviews": null,
    "price_level": "",
    "open_hours": "",
    "extraction_timestamp": "2025-06-08T03:07:50.533Z",
    "source_name": "google",
    "source_query": "Irrigation Equipment",
    "source_country": "SA",
    "country": "Saudi Arabia",
    "state": "Eastern Province",
    "city": "Khobar"
  },
  {
    "source_id": "ChIJAcJ1VwLpST4Ru-OSbDB3XTo",
    "name": "Ground Flow Trading est.",
    "category": "Ground Flow Trading est.",
    "formatted_address": "Su Tesisatı Malzemeleri Satıcısı · King Abdulaziz St, Prince saad binKapalı ⋅ Açılış saati: 07:30 · +966 13 855 5234",
    "phone_number": "+966138555234",
    "source_url": "https://www.google.com/maps/place/Ground+Flow+Trading+est./data=!4m7!3m6!1s0x3e49e9025775c201:0x3a5d77306c92e3bb!8m2!3d26.2836493!4d50.2164026!16s%2Fg%2F11ln0g8jdc!19sChIJAcJ1VwLpST4Ru-OSbDB3XTo?authuser=0&hl=tr&rclk=1",
    "website_url": "",
    "rating_text": "",
    "stars": null,
    "number_of_reviews": null,
    "price_level": "",
    "open_hours": "",
    "extraction_timestamp": "2025-06-08T03:07:50.533Z",
    "source_name": "google",
    "source_query": "Irrigation Equipment",
    "source_country": "SA",
    "country": "Saudi Arabia",
    "state": "Eastern Province",
    "city": "Khobar"
  },
  {
    "source_id": "ChIJA3lfXCPoST4REUTNiV7EOKQ",
    "name": "Earthcore Trading Est",
    "category": "Earthcore Trading Est",
    "formatted_address": "2,0(1)",
    "phone_number": "+966138947223",
    "source_url": "https://www.google.com/maps/place/Earthcore+Trading+Est/data=!4m7!3m6!1s0x3e49e8235c5f7903:0xa438c45e89cd4411!8m2!3d26.2811519!4d50.2085484!16s%2Fg%2F11bbwyxg16!19sChIJA3lfXCPoST4REUTNiV7EOKQ?authuser=0&hl=tr&rclk=1",
    "website_url": "",
    "rating_text": "2,0",
    "stars": null,
    "number_of_reviews": null,
    "price_level": "",
    "open_hours": "",
    "extraction_timestamp": "2025-06-08T03:07:50.533Z",
    "source_name": "google",
    "source_query": "Irrigation Equipment",
    "source_country": "SA",
    "country": "Saudi Arabia",
    "state": "Eastern Province",
    "city": "Khobar"
  },
  {
    "source_id": "ChIJJ_bVX9zpST4RjuDHEzilC3Y",
    "name": "AQUA TECHNOLOGY CO LTD",
    "category": "AQUA TECHNOLOGY CO LTD",
    "formatted_address": "3,7(26)",
    "phone_number": "+966503862804",
    "source_url": "https://www.google.com/maps/place/AQUA+TECHNOLOGY+CO+LTD/data=!4m7!3m6!1s0x3e49e9dc5fd5f627:0x760ba53813c7e08e!8m2!3d26.2813583!4d50.2149618!16s%2Fg%2F11hyt6gwz4!19sChIJJ_bVX9zpST4RjuDHEzilC3Y?authuser=0&hl=tr&rclk=1",
    "website_url": "",
    "rating_text": "3,7",
    "stars": null,
    "number_of_reviews": null,
    "price_level": "",
    "open_hours": "",
    "extraction_timestamp": "2025-06-08T03:07:50.534Z",
    "source_name": "google",
    "source_query": "Irrigation Equipment",
    "source_country": "SA",
    "country": "Saudi Arabia",
    "state": "Eastern Province",
    "city": "Khobar"
  },
  {
    "source_id": "ChIJFa3G44TpST4RIygCybXb9jc",
    "name": "HOME WORLD SANITARY WARE CO.",
    "category": "HOME WORLD SANITARY WARE CO.",
    "formatted_address": "4,6(14)",
    "phone_number": "+966558804149",
    "source_url": "https://www.google.com/maps/place/HOME+WORLD+SANITARY+WARE+CO./data=!4m7!3m6!1s0x3e49e984e3c6ad15:0x37f6dbb5c9022823!8m2!3d26.2854485!4d50.2117266!16s%2Fg%2F11s2nrtvcn!19sChIJFa3G44TpST4RIygCybXb9jc?authuser=0&hl=tr&rclk=1",
    "website_url": "",
    "rating_text": "4,6",
    "stars": null,
    "number_of_reviews": null,
    "price_level": "",
    "open_hours": "",
    "extraction_timestamp": "2025-06-08T03:07:50.534Z",
    "source_name": "google",
    "source_query": "Irrigation Equipment",
    "source_country": "SA",
    "country": "Saudi Arabia",
    "state": "Eastern Province",
    "city": "Khobar"
  },
  {
    "source_id": "ChIJJ_yacZ7cST4RVCMBasCVsUw",
    "name": "الصرعاوي لمواد البناء",
    "category": "الصرعاوي لمواد البناء",
    "formatted_address": "3,9(7)",
    "phone_number": "+966504611429",
    "source_url": "https://www.google.com/maps/place/%D8%A7%D9%84%D8%B5%D8%B1%D8%B9%D8%A7%D9%88%D9%8A+%D9%84%D9%85%D9%88%D8%A7%D8%AF+%D8%A7%D9%84%D8%A8%D9%86%D8%A7%D8%A1%E2%80%AD/data=!4m7!3m6!1s0x3e49dc9e719afc27:0x4cb195c06a012354!8m2!3d26.1785469!4d50.1581091!16s%2Fg%2F11gcddcjck!19sChIJJ_yacZ7cST4RVCMBasCVsUw?authuser=0&hl=tr&rclk=1",
    "website_url": "",
    "rating_text": "3,9",
    "stars": null,
    "number_of_reviews": null,
    "price_level": "",
    "open_hours": "",
    "extraction_timestamp": "2025-06-08T03:07:50.534Z",
    "source_name": "google",
    "source_query": "Irrigation Equipment",
    "source_country": "SA",
    "country": "Saudi Arabia",
    "state": "Eastern Province",
    "city": "Khobar"
  },
  {
    "source_id": "ChIJqzfdaCfpST4RJIGwrthUisY",
    "name": "مؤسسة العيسى للتجارة",
    "category": "مؤسسة العيسى للتجارة",
    "formatted_address": "4,6(11)",
    "phone_number": "+966567261613",
    "source_url": "https://www.google.com/maps/place/%D9%85%D8%A4%D8%B3%D8%B3%D8%A9+%D8%A7%D9%84%D8%B9%D9%8A%D8%B3%D9%89+%D9%84%D9%84%D8%AA%D8%AC%D8%A7%D8%B1%D8%A9%E2%80%AD/data=!4m7!3m6!1s0x3e49e92768dd37ab:0xc68a54d8aeb08124!8m2!3d26.2767841!4d50.1992911!16s%2Fg%2F11jmtgp61m!19sChIJqzfdaCfpST4RJIGwrthUisY?authuser=0&hl=tr&rclk=1",
    "website_url": "",
    "rating_text": "4,6",
    "stars": null,
    "number_of_reviews": null,
    "price_level": "",
    "open_hours": "",
    "extraction_timestamp": "2025-06-08T03:07:50.534Z",
    "source_name": "google",
    "source_query": "Irrigation Equipment",
    "source_country": "SA",
    "country": "Saudi Arabia",
    "state": "Eastern Province",
    "city": "Khobar"
  },
  {
    "source_id": "ChIJ6TfCMjXkST4RI1GAj1sRkfQ",
    "name": "مؤسسة العمل السهل التجارية",
    "category": "مؤسسة العمل السهل التجارية",
    "formatted_address": "4,2(5)",
    "phone_number": "+966507938105",
    "source_url": "https://www.google.com/maps/place/%D9%85%D8%A4%D8%B3%D8%B3%D8%A9+%D8%A7%D9%84%D8%B9%D9%85%D9%84+%D8%A7%D9%84%D8%B3%D9%87%D9%84+%D8%A7%D9%84%D8%AA%D8%AC%D8%A7%D8%B1%D9%8A%D8%A9%E2%80%AD/data=!4m7!3m6!1s0x3e49e43532c237e9:0xf491115b8f805123!8m2!3d26.3472626!4d50.1420156!16s%2Fg%2F11f33hqx9l!19sChIJ6TfCMjXkST4RI1GAj1sRkfQ?authuser=0&hl=tr&rclk=1",
    "website_url": "",
    "rating_text": "4,2",
    "stars": null,
    "number_of_reviews": null,
    "price_level": "",
    "open_hours": "",
    "extraction_timestamp": "2025-06-08T03:07:50.535Z",
    "source_name": "google",
    "source_query": "Irrigation Equipment",
    "source_country": "SA",
    "country": "Saudi Arabia",
    "state": "Eastern Province",
    "city": "Khobar"
  },
  {
    "source_id": "ChIJKwlgnGvoST4Rz7orL3gr-nY",
    "name": "Hayward pumps",
    "category": "Hayward pumps",
    "formatted_address": "4,3(30)",
    "phone_number": "+966555087145",
    "source_url": "https://www.google.com/maps/place/Hayward+pumps/data=!4m7!3m6!1s0x3e49e86b9c60092b:0x76fa2b782f2bbacf!8m2!3d26.2919373!4d50.1995024!16s%2Fg%2F11f2wby60l!19sChIJKwlgnGvoST4Rz7orL3gr-nY?authuser=0&hl=tr&rclk=1",
    "website_url": "",
    "rating_text": "4,3",
    "stars": null,
    "number_of_reviews": null,
    "price_level": "",
    "open_hours": "",
    "extraction_timestamp": "2025-06-08T03:07:50.535Z",
    "source_name": "google",
    "source_query": "Irrigation Equipment",
    "source_country": "SA",
    "country": "Saudi Arabia",
    "state": "Eastern Province",
    "city": "Khobar"
  },
  {
    "source_id": "ChIJtVdzG4fpST4Rs6zZ0v_tp_k",
    "name": "شركة جواهر للسباكة والكهرباء ومواد بناء",
    "category": "شركة جواهر للسباكة والكهرباء ومواد بناء",
    "formatted_address": "",
    "phone_number": "+966508566680",
    "source_url": "https://www.google.com/maps/place/%D8%B4%D8%B1%D9%83%D8%A9+%D8%AC%D9%88%D8%A7%D9%87%D8%B1+%D9%84%D9%84%D8%B3%D8%A8%D8%A7%D9%83%D8%A9+%D9%88%D8%A7%D9%84%D9%83%D9%87%D8%B1%D8%A8%D8%A7%D8%A1+%D9%88%D9%85%D9%88%D8%A7%D8%AF+%D8%A8%D9%86%D8%A7%D8%A1%E2%80%AD/data=!4m7!3m6!1s0x3e49e9871b7357b5:0xf9a7edffd2d9acb3!8m2!3d26.2951507!4d50.1938571!16s%2Fg%2F11y98zycvr!19sChIJtVdzG4fpST4Rs6zZ0v_tp_k?authuser=0&hl=tr&rclk=1",
    "website_url": "",
    "rating_text": "",
    "stars": null,
    "number_of_reviews": null,
    "price_level": "",
    "open_hours": "",
    "extraction_timestamp": "2025-06-08T03:07:50.535Z",
    "source_name": "google",
    "source_query": "Irrigation Equipment",
    "source_country": "SA",
    "country": "Saudi Arabia",
    "state": "Eastern Province",
    "city": "Khobar"
  },
  {
    "source_id": "ChIJEWEoGizDST4RO77JkFiY-Wc",
    "name": "Veolia Water Solutions Warehouse",
    "category": "Veolia Water Solutions Warehouse",
    "formatted_address": "4,2(13)",
    "phone_number": "+966138829354",
    "source_url": "https://www.google.com/maps/place/Veolia+Water+Solutions+Warehouse/data=!4m7!3m6!1s0x3e49c32c1a286111:0x67f9985890c9be3b!8m2!3d26.2205298!4d50.1881808!16s%2Fg%2F11cmsc9qzv!19sChIJEWEoGizDST4RO77JkFiY-Wc?authuser=0&hl=tr&rclk=1",
    "website_url": "",
    "rating_text": "4,2",
    "stars": null,
    "number_of_reviews": null,
    "price_level": "",
    "open_hours": "",
    "extraction_timestamp": "2025-06-08T03:07:50.536Z",
    "source_name": "google",
    "source_query": "Irrigation Equipment",
    "source_country": "SA",
    "country": "Saudi Arabia",
    "state": "Eastern Province",
    "city": "Khobar"
  },
  {
    "source_id": "ChIJnQG0GTvDST4RptCiFYz8EG4",
    "name": "Mansour Ibrahim Bin Mansour Al-Haqqas Trad.Est",
    "category": "Mansour Ibrahim Bin Mansour Al-Haqqas Trad.Est",
    "formatted_address": "",
    "phone_number": "+966502871705",
    "source_url": "https://www.google.com/maps/place/Mansour+Ibrahim+Bin+Mansour+Al-Haqqas+Trad.Est/data=!4m7!3m6!1s0x3e49c33b19b4019d:0x6e10fc8c15a2d0a6!8m2!3d26.2074402!4d50.2082221!16s%2Fg%2F11x8qs7dys!19sChIJnQG0GTvDST4RptCiFYz8EG4?authuser=0&hl=tr&rclk=1",
    "website_url": "",
    "rating_text": "",
    "stars": null,
    "number_of_reviews": null,
    "price_level": "",
    "open_hours": "",
    "extraction_timestamp": "2025-06-08T03:07:50.536Z",
    "source_name": "google",
    "source_query": "Irrigation Equipment",
    "source_country": "SA",
    "country": "Saudi Arabia",
    "state": "Eastern Province",
    "city": "Khobar"
  },
  {
    "source_id": "ChIJFap1tifoST4RlWcAE0AnGII",
    "name": "مؤسسة ناجي محسن العيسى التجارية",
    "category": "مؤسسة ناجي محسن العيسى التجارية",
    "formatted_address": "5,0(2)",
    "phone_number": "+966138896867",
    "source_url": "https://www.google.com/maps/place/%D9%85%D8%A4%D8%B3%D8%B3%D8%A9+%D9%86%D8%A7%D8%AC%D9%8A+%D9%85%D8%AD%D8%B3%D9%86+%D8%A7%D9%84%D8%B9%D9%8A%D8%B3%D9%89+%D8%A7%D9%84%D8%AA%D8%AC%D8%A7%D8%B1%D9%8A%D8%A9%E2%80%AD/data=!4m7!3m6!1s0x3e49e827b675aa15:0x8218274013006795!8m2!3d26.2761513!4d50.2127271!16s%2Fg%2F11g022vfnw!19sChIJFap1tifoST4RlWcAE0AnGII?authuser=0&hl=tr&rclk=1",
    "website_url": "",
    "rating_text": "5,0",
    "stars": null,
    "number_of_reviews": null,
    "price_level": "",
    "open_hours": "",
    "extraction_timestamp": "2025-06-08T03:07:50.536Z",
    "source_name": "google",
    "source_query": "Irrigation Equipment",
    "source_country": "SA",
    "country": "Saudi Arabia",
    "state": "Eastern Province",
    "city": "Khobar"
  },
  {
    "source_id": "ChIJI8LZ6CXpST4REb6V3nRUtEI",
    "name": "Hasan A Sawad",
    "category": "Hasan A Sawad",
    "formatted_address": "5,0(1)",
    "phone_number": "",
    "source_url": "https://www.google.com/maps/place/Hasan+A+Sawad/data=!4m7!3m6!1s0x3e49e925e8d9c223:0x42b45474de95be11!8m2!3d26.2739426!4d50.2110676!16s%2Fg%2F11hzcy193v!19sChIJI8LZ6CXpST4REb6V3nRUtEI?authuser=0&hl=tr&rclk=1",
    "website_url": "",
    "rating_text": "5,0",
    "stars": null,
    "number_of_reviews": null,
    "price_level": "",
    "open_hours": "",
    "extraction_timestamp": "2025-06-08T03:07:50.536Z",
    "source_name": "google",
    "source_query": "Irrigation Equipment",
    "source_country": "SA",
    "country": "Saudi Arabia",
    "state": "Eastern Province",
    "city": "Khobar"
  },
  {
    "source_id": "ChIJ226e6hDoST4RVClV5rsogKc",
    "name": "Tnc residence khobar",
    "category": "Tnc residence khobar",
    "formatted_address": "3,6(14)",
    "phone_number": "+966541344541",
    "source_url": "https://www.google.com/maps/place/Tnc+residence+khobar/data=!4m7!3m6!1s0x3e49e810ea9e6edb:0xa78028bbe6552954!8m2!3d26.280014!4d50.1974012!16s%2Fg%2F11gdkqwdv_!19sChIJ226e6hDoST4RVClV5rsogKc?authuser=0&hl=tr&rclk=1",
    "website_url": "",
    "rating_text": "3,6",
    "stars": null,
    "number_of_reviews": null,
    "price_level": "",
    "open_hours": "",
    "extraction_timestamp": "2025-06-08T03:07:50.537Z",
    "source_name": "google",
    "source_query": "Irrigation Equipment",
    "source_country": "SA",
    "country": "Saudi Arabia",
    "state": "Eastern Province",
    "city": "Khobar"
  }
]
