[
  {
    "source_id": "ChIJD2x3gAdFJT4ROixh3sqj9Ww",
    "name": "Alburuj Agricultural Est. البروج الزراعية",
    "category": "Alburuj Agricultural Est. البروج الزراعية",
    "formatted_address": "4,8(13)",
    "phone_number": "+966551179220",
    "source_url": "https://www.google.com/maps/place/Alburuj+Agricultural+Est.+%D8%A7%D9%84%D8%A8%D8%B1%D9%88%D8%AC+%D8%A7%D9%84%D8%B2%D8%B1%D8%A7%D8%B9%D9%8A%D8%A9%E2%80%AD/data=!4m7!3m6!1s0x3e25450780776c0f:0x6cf5a3cade612c3a!8m2!3d24.1791234!4d47.2818855!16s%2Fg%2F11rvl3vcxl!19sChIJD2x3gAdFJT4ROixh3sqj9Ww?authuser=0&hl=tr&rclk=1",
    "website_url": "",
    "rating_text": "4,8",
    "stars": null,
    "number_of_reviews": null,
    "price_level": "",
    "open_hours": "",
    "extraction_timestamp": "2025-06-08T03:06:21.512Z",
    "source_name": "google",
    "source_query": "Irrigation Equipment",
    "source_country": "SA",
    "country": "Saudi Arabia",
    "state": "Eastern Province",
    "city": "Mulayjah"
  },
  {
    "source_id": "ChIJ848909zvST4RB5fRC91hN80",
    "name": "MEAC AL-KHOBAR",
    "category": "MEAC AL-KHOBAR",
    "formatted_address": "4,9(8)",
    "phone_number": "+966561027930",
    "source_url": "https://www.google.com/maps/place/MEAC+AL-KHOBAR/data=!4m7!3m6!1s0x3e49efdcd33d8ff3:0xcd3761dd0bd19707!8m2!3d26.3914925!4d50.1782674!16s%2Fg%2F11j00lf0vv!19sChIJ848909zvST4RB5fRC91hN80?authuser=0&hl=tr&rclk=1",
    "website_url": "",
    "rating_text": "4,9",
    "stars": null,
    "number_of_reviews": null,
    "price_level": "",
    "open_hours": "",
    "extraction_timestamp": "2025-06-08T03:06:21.513Z",
    "source_name": "google",
    "source_query": "Irrigation Equipment",
    "source_country": "SA",
    "country": "Saudi Arabia",
    "state": "Eastern Province",
    "city": "Mulayjah"
  },
  {
    "source_id": "ChIJhUw0Hrj3Lz4RzhCpNRuELWY",
    "name": "Akel Factory",
    "category": "Akel Factory",
    "formatted_address": "5,0(4)",
    "phone_number": "",
    "source_url": "https://www.google.com/maps/place/Akel+Factory/data=!4m7!3m6!1s0x3e2ff7b81e344c85:0x662d841b35a910ce!8m2!3d24.3600361!4d47.2630823!16s%2Fg%2F11fxzkx5m9!19sChIJhUw0Hrj3Lz4RzhCpNRuELWY?authuser=0&hl=tr&rclk=1",
    "website_url": "http://www.akel.com.sa/",
    "rating_text": "5,0",
    "stars": null,
    "number_of_reviews": null,
    "price_level": "",
    "open_hours": "",
    "extraction_timestamp": "2025-06-08T03:06:21.513Z",
    "source_name": "google",
    "source_query": "Irrigation Equipment",
    "source_country": "SA",
    "country": "Saudi Arabia",
    "state": "Eastern Province",
    "city": "Mulayjah"
  },
  {
    "source_id": "ChIJ_ewzIj2jLz4RG1ZkOVBSGXQ",
    "name": "SAUDI DRIP IRRIGATION SYSTEMS COMPANY",
    "category": "SAUDI DRIP IRRIGATION SYSTEMS COMPANY",
    "formatted_address": "4,5(2)",
    "phone_number": "+966112650445",
    "source_url": "https://www.google.com/maps/place/SAUDI+DRIP+IRRIGATION+SYSTEMS+COMPANY/data=!4m7!3m6!1s0x3e2fa33d2233ecfd:0x741952503964561b!8m2!3d24.5274617!4d46.9076911!16s%2Fg%2F11j4lpbk7m!19sChIJ_ewzIj2jLz4RG1ZkOVBSGXQ?authuser=0&hl=tr&rclk=1",
    "website_url": "",
    "rating_text": "4,5",
    "stars": null,
    "number_of_reviews": null,
    "price_level": "",
    "open_hours": "",
    "extraction_timestamp": "2025-06-08T03:06:21.515Z",
    "source_name": "google",
    "source_query": "Irrigation Equipment",
    "source_country": "SA",
    "country": "Saudi Arabia",
    "state": "Eastern Province",
    "city": "Mulayjah"
  },
  {
    "source_id": "ChIJD6C0KYyhLz4RH-kmnmst48s",
    "name": "Saudi Mais Co. for Irrigation Systems",
    "category": "Saudi Mais Co. for Irrigation Systems",
    "formatted_address": "4,0(22)",
    "phone_number": "+966112652300",
    "source_url": "https://www.google.com/maps/place/Saudi+Mais+Co.+for+Irrigation+Systems/data=!4m7!3m6!1s0x3e2fa18c29b4a00f:0xcbe32d6b9e26e91f!8m2!3d24.5413895!4d46.8959501!16s%2Fg%2F11cr_r7bxm!19sChIJD6C0KYyhLz4RH-kmnmst48s?authuser=0&hl=tr&rclk=1",
    "website_url": "http://www.maisirrig.com.sa/",
    "rating_text": "4,0",
    "stars": null,
    "number_of_reviews": null,
    "price_level": "",
    "open_hours": "",
    "extraction_timestamp": "2025-06-08T03:06:21.516Z",
    "source_name": "google",
    "source_query": "Irrigation Equipment",
    "source_country": "SA",
    "country": "Saudi Arabia",
    "state": "Eastern Province",
    "city": "Mulayjah"
  },
  {
    "source_id": "ChIJ7-t3pRYT1T8RjI51s-TEvb0",
    "name": "شركة سديم سدير التجارة (فرع الأرطاوبة)",
    "category": "شركة سديم سدير التجارة (فرع الأرطاوبة)",
    "formatted_address": "4,5(2)",
    "phone_number": "+966555121086",
    "source_url": "https://www.google.com/maps/place/%D8%B4%D8%B1%D9%83%D8%A9+%D8%B3%D8%AF%D9%8A%D9%85+%D8%B3%D8%AF%D9%8A%D8%B1+%D8%A7%D9%84%D8%AA%D8%AC%D8%A7%D8%B1%D8%A9+%28%D9%81%D8%B1%D8%B9+%D8%A7%D9%84%D8%A3%D8%B1%D8%B7%D8%A7%D9%88%D8%A8%D8%A9%29%E2%80%AD/data=!4m7!3m6!1s0x3fd51316a577ebef:0xbdbdc4e4b3758e8c!8m2!3d26.5108238!4d45.3458571!16s%2Fg%2F11wfqc94jt!19sChIJ7-t3pRYT1T8RjI51s-TEvb0?authuser=0&hl=tr&rclk=1",
    "website_url": "",
    "rating_text": "4,5",
    "stars": null,
    "number_of_reviews": null,
    "price_level": "",
    "open_hours": "",
    "extraction_timestamp": "2025-06-08T03:06:21.517Z",
    "source_name": "google",
    "source_query": "Irrigation Equipment",
    "source_country": "SA",
    "country": "Saudi Arabia",
    "state": "Eastern Province",
    "city": "Mulayjah"
  },
  {
    "source_id": "ChIJf4YfzoWhLz4RzvlIbuhw7Ao",
    "name": "Alkhorayef Industries",
    "category": "Alkhorayef Industries",
    "formatted_address": "4,7(41)",
    "phone_number": "+966554421529",
    "source_url": "https://www.google.com/maps/place/Alkhorayef+Industries/data=!4m7!3m6!1s0x3e2fa185ce1f867f:0xaec70e86e48f9ce!8m2!3d24.5487759!4d46.8976593!16s%2Fg%2F1hm5vsyl7!19sChIJf4YfzoWhLz4RzvlIbuhw7Ao?authuser=0&hl=tr&rclk=1",
    "website_url": "http://www.western-irrigation.com/",
    "rating_text": "4,7",
    "stars": null,
    "number_of_reviews": null,
    "price_level": "",
    "open_hours": "",
    "extraction_timestamp": "2025-06-08T03:06:21.519Z",
    "source_name": "google",
    "source_query": "Irrigation Equipment",
    "source_country": "SA",
    "country": "Saudi Arabia",
    "state": "Eastern Province",
    "city": "Mulayjah"
  },
  {
    "source_id": "ChIJrWQct90HLz4RE18CO64Mdjo",
    "name": "IRRIGATION WORLD AGRICULTURE CO. (IWACO) شركة عالم الري الزراعية",
    "category": "IRRIGATION WORLD AGRICULTURE CO. (IWACO) شركة عالم الري الزراعية",
    "formatted_address": "4,4(8)",
    "phone_number": "+966503296463",
    "source_url": "https://www.google.com/maps/place/IRRIGATION+WORLD+AGRICULTURE+CO.+%28IWACO%29+%D8%B4%D8%B1%D9%83%D8%A9+%D8%B9%D8%A7%D9%84%D9%85+%D8%A7%D9%84%D8%B1%D9%8A+%D8%A7%D9%84%D8%B2%D8%B1%D8%A7%D8%B9%D9%8A%D8%A9%E2%80%AD/data=!4m7!3m6!1s0x3e2f07ddb71c64ad:0x3a760cae3b025f13!8m2!3d24.6606155!4d46.7401872!16s%2Fg%2F11tdbbthcg!19sChIJrWQct90HLz4RE18CO64Mdjo?authuser=0&hl=tr&rclk=1",
    "website_url": "",
    "rating_text": "4,4",
    "stars": null,
    "number_of_reviews": null,
    "price_level": "",
    "open_hours": "",
    "extraction_timestamp": "2025-06-08T03:06:21.520Z",
    "source_name": "google",
    "source_query": "Irrigation Equipment",
    "source_country": "SA",
    "country": "Saudi Arabia",
    "state": "Eastern Province",
    "city": "Mulayjah"
  },
  {
    "source_id": "ChIJiUa1650FLz4R0JTUcs1PfKk",
    "name": "شركة عالم الري الزراعية IRRIGATION WORLD AGRICULTURE SALAM BRANCH",
    "category": "شركة عالم الري الزراعية IRRIGATION WORLD AGRICULTURE SALAM BRANCH",
    "formatted_address": "3,8(21)",
    "phone_number": "+966552460940",
    "source_url": "https://www.google.com/maps/place/%D8%B4%D8%B1%D9%83%D8%A9+%D8%B9%D8%A7%D9%84%D9%85+%D8%A7%D9%84%D8%B1%D9%8A+%D8%A7%D9%84%D8%B2%D8%B1%D8%A7%D8%B9%D9%8A%D8%A9+IRRIGATION+WORLD+AGRICULTURE+SALAM+BRANCH%E2%80%AD/data=!4m7!3m6!1s0x3e2f059debb54689:0xa97c4fcd72d494d0!8m2!3d24.6177773!4d46.7102308!16s%2Fg%2F11g8pctrx7!19sChIJiUa1650FLz4R0JTUcs1PfKk?authuser=0&hl=tr&rclk=1",
    "website_url": "",
    "rating_text": "3,8",
    "stars": null,
    "number_of_reviews": null,
    "price_level": "",
    "open_hours": "",
    "extraction_timestamp": "2025-06-08T03:06:21.521Z",
    "source_name": "google",
    "source_query": "Irrigation Equipment",
    "source_country": "SA",
    "country": "Saudi Arabia",
    "state": "Eastern Province",
    "city": "Mulayjah"
  },
  {
    "source_id": "ChIJc7F0dLa1zD8RD88STG3f4dE",
    "name": "منتزه وشلال مليجه",
    "category": "منتزه وشلال مليجه",
    "formatted_address": "4,4(177)",
    "phone_number": "+966532086264",
    "source_url": "https://www.google.com/maps/place/%D9%85%D9%86%D8%AA%D8%B2%D9%87+%D9%88%D8%B4%D9%84%D8%A7%D9%84+%D9%85%D9%84%D9%8A%D8%AC%D9%87%E2%80%AD/data=!4m7!3m6!1s0x3fccb5b67474b173:0xd1e1df6d4c12cf0f!8m2!3d27.2580209!4d48.4298221!16s%2Fg%2F11h8czty4h!19sChIJc7F0dLa1zD8RD88STG3f4dE?authuser=0&hl=tr&rclk=1",
    "website_url": "",
    "rating_text": "4,4",
    "stars": null,
    "number_of_reviews": null,
    "price_level": "",
    "open_hours": "",
    "extraction_timestamp": "2025-06-08T03:06:21.522Z",
    "source_name": "google",
    "source_query": "Irrigation Equipment",
    "source_country": "SA",
    "country": "Saudi Arabia",
    "state": "Eastern Province",
    "city": "Mulayjah"
  },
  {
    "source_id": "ChIJqTdF-kb8ST4RFt5vpSnQ5yc",
    "name": "مؤسسة الأنهار الزراعية للمضخات,AGRICULTURAL RIVERS FOR PUMPS",
    "category": "مؤسسة الأنهار الزراعية للمضخات,AGRICULTURAL RIVERS FOR PUMPS",
    "formatted_address": "مؤسسة الأنهار الزراعية للمضخات,AGRICULTURAL RIVERS FOR PUMPS",
    "phone_number": "+966558364553",
    "source_url": "https://www.google.com/maps/place/%D9%85%D8%A4%D8%B3%D8%B3%D8%A9+%D8%A7%D9%84%D8%A3%D9%86%D9%87%D8%A7%D8%B1+%D8%A7%D9%84%D8%B2%D8%B1%D8%A7%D8%B9%D9%8A%D8%A9+%D9%84%D9%84%D9%85%D8%B6%D8%AE%D8%A7%D8%AA,AGRICULTURAL+RIVERS+FOR+PUMPS%E2%80%AD/data=!4m7!3m6!1s0x3e49fc46fa4537a9:0x27e7d029a56fde16!8m2!3d26.4414581!4d50.0727931!16s%2Fg%2F11f306cj0y!19sChIJqTdF-kb8ST4RFt5vpSnQ5yc?authuser=0&hl=tr&rclk=1",
    "website_url": "",
    "rating_text": "4,2",
    "stars": null,
    "number_of_reviews": null,
    "price_level": "",
    "open_hours": "",
    "extraction_timestamp": "2025-06-08T03:06:21.524Z",
    "source_name": "google",
    "source_query": "Irrigation Equipment",
    "source_country": "SA",
    "country": "Saudi Arabia",
    "state": "Eastern Province",
    "city": "Mulayjah"
  }
]
