[
  {
    "source_id": "ChIJrXQT8aq-zD8RNnTXzO0JfLk",
    "name": "مؤسسة الطريس التجارية للسباكة والكهرباء",
    "category": "مؤسسة الطريس التجارية للسباكة والكهرباء",
    "formatted_address": "4,7(22)",
    "phone_number": "+966532694847",
    "source_url": "https://www.google.com/maps/place/%D9%85%D8%A4%D8%B3%D8%B3%D8%A9+%D8%A7%D9%84%D8%B7%D8%B1%D9%8A%D8%B3+%D8%A7%D9%84%D8%AA%D8%AC%D8%A7%D8%B1%D9%8A%D8%A9+%D9%84%D9%84%D8%B3%D8%A8%D8%A7%D9%83%D8%A9+%D9%88%D8%A7%D9%84%D9%83%D9%87%D8%B1%D8%A8%D8%A7%D8%A1%E2%80%AD/data=!4m7!3m6!1s0x3fccbeaaf11374ad:0xb97c09edccd77436!8m2!3d27.4697729!4d48.4770794!16s%2Fg%2F11f106bgh9!19sChIJrXQT8aq-zD8RNnTXzO0JfLk?authuser=0&hl=tr&rclk=1",
    "website_url": "",
    "rating_text": "4,7",
    "stars": null,
    "number_of_reviews": null,
    "price_level": "",
    "open_hours": "",
    "extraction_timestamp": "2025-06-08T03:06:47.604Z",
    "source_name": "google",
    "source_query": "Irrigation Equipment",
    "source_country": "SA",
    "country": "Saudi Arabia",
    "state": "Eastern Province",
    "city": "Nariyah"
  },
  {
    "source_id": "ChIJ3el1v6q-zD8R_RIahQqYmak",
    "name": "AL DOSSARY FOR BUILDING MATERIALS",
    "category": "AL DOSSARY FOR BUILDING MATERIALS",
    "formatted_address": "4,3(57)",
    "phone_number": "+966591603861",
    "source_url": "https://www.google.com/maps/place/AL+DOSSARY+FOR+BUILDING+MATERIALS/data=!4m7!3m6!1s0x3fccbeaabf75e9dd:0xa999980a851a12fd!8m2!3d27.4689603!4d48.4774969!16s%2Fg%2F11c1rcd9d3!19sChIJ3el1v6q-zD8R_RIahQqYmak?authuser=0&hl=tr&rclk=1",
    "website_url": "",
    "rating_text": "4,3",
    "stars": null,
    "number_of_reviews": null,
    "price_level": "",
    "open_hours": "",
    "extraction_timestamp": "2025-06-08T03:06:47.604Z",
    "source_name": "google",
    "source_query": "Irrigation Equipment",
    "source_country": "SA",
    "country": "Saudi Arabia",
    "state": "Eastern Province",
    "city": "Nariyah"
  },
  {
    "source_id": "ChIJj06KeQC_zD8RgLyCdCN25es",
    "name": "شركة النكهة الفاخرة للتجارة",
    "category": "شركة النكهة الفاخرة للتجارة",
    "formatted_address": "3,0(7)",
    "phone_number": "+966553455613",
    "source_url": "https://www.google.com/maps/place/%D8%B4%D8%B1%D9%83%D8%A9+%D8%A7%D9%84%D9%86%D9%83%D9%87%D8%A9+%D8%A7%D9%84%D9%81%D8%A7%D8%AE%D8%B1%D8%A9+%D9%84%D9%84%D8%AA%D8%AC%D8%A7%D8%B1%D8%A9%E2%80%AD/data=!4m7!3m6!1s0x3fccbf00798a4e8f:0xebe576237482bc80!8m2!3d27.4688484!4d48.469717!16s%2Fg%2F11y58c2qj1!19sChIJj06KeQC_zD8RgLyCdCN25es?authuser=0&hl=tr&rclk=1",
    "website_url": "",
    "rating_text": "3,0",
    "stars": null,
    "number_of_reviews": null,
    "price_level": "",
    "open_hours": "",
    "extraction_timestamp": "2025-06-08T03:06:47.605Z",
    "source_name": "google",
    "source_query": "Irrigation Equipment",
    "source_country": "SA",
    "country": "Saudi Arabia",
    "state": "Eastern Province",
    "city": "Nariyah"
  },
  {
    "source_id": "ChIJZSHFgXS8zD8RX1xrc79Aoqo",
    "name": "Mguenas Badia supplies trips",
    "category": "Mguenas Badia supplies trips",
    "formatted_address": "3,8(136)",
    "phone_number": "+966133730550",
    "source_url": "https://www.google.com/maps/place/Mguenas+Badia+supplies+trips/data=!4m7!3m6!1s0x3fccbc7481c52165:0xaaa240bf736b5c5f!8m2!3d27.4810824!4d48.5008769!16s%2Fg%2F11c54dxj6p!19sChIJZSHFgXS8zD8RX1xrc79Aoqo?authuser=0&hl=tr&rclk=1",
    "website_url": "",
    "rating_text": "3,8",
    "stars": null,
    "number_of_reviews": null,
    "price_level": "",
    "open_hours": "",
    "extraction_timestamp": "2025-06-08T03:06:47.605Z",
    "source_name": "google",
    "source_query": "Irrigation Equipment",
    "source_country": "SA",
    "country": "Saudi Arabia",
    "state": "Eastern Province",
    "city": "Nariyah"
  },
  {
    "source_id": "ChIJcUtAnJm9zD8R7s4RcAwjQ18",
    "name": "الخزان العالي بمحافظة النعيرية",
    "category": "الخزان العالي بمحافظة النعيرية",
    "formatted_address": "4,9(10)",
    "phone_number": "",
    "source_url": "https://www.google.com/maps/place/%D8%A7%D9%84%D8%AE%D8%B2%D8%A7%D9%86+%D8%A7%D9%84%D8%B9%D8%A7%D9%84%D9%8A+%D8%A8%D9%85%D8%AD%D8%A7%D9%81%D8%B8%D8%A9+%D8%A7%D9%84%D9%86%D8%B9%D9%8A%D8%B1%D9%8A%D8%A9%E2%80%AD/data=!4m7!3m6!1s0x3fccbd999c404b71:0x5f43230c7011ceee!8m2!3d27.481652!4d48.498027!16s%2Fg%2F11h7ksv52m!19sChIJcUtAnJm9zD8R7s4RcAwjQ18?authuser=0&hl=tr&rclk=1",
    "website_url": "",
    "rating_text": "4,9",
    "stars": null,
    "number_of_reviews": null,
    "price_level": "",
    "open_hours": "",
    "extraction_timestamp": "2025-06-08T03:06:47.605Z",
    "source_name": "google",
    "source_query": "Irrigation Equipment",
    "source_country": "SA",
    "country": "Saudi Arabia",
    "state": "Eastern Province",
    "city": "Nariyah"
  },
  {
    "source_id": "ChIJK8oYux-9zD8RsS0XswNCzPk",
    "name": "شركةالصيهد للمواد الغذائية (فرع العزيزية)",
    "category": "شركةالصيهد للمواد الغذائية (فرع العزيزية)",
    "formatted_address": "3,7(25)",
    "phone_number": "+966555950242",
    "source_url": "https://www.google.com/maps/place/%D8%B4%D8%B1%D9%83%D8%A9%D8%A7%D9%84%D8%B5%D9%8A%D9%87%D8%AF+%D9%84%D9%84%D9%85%D9%88%D8%A7%D8%AF+%D8%A7%D9%84%D8%BA%D8%B0%D8%A7%D8%A6%D9%8A%D8%A9+%28%D9%81%D8%B1%D8%B9+%D8%A7%D9%84%D8%B9%D8%B2%D9%8A%D8%B2%D9%8A%D8%A9%29%E2%80%AD/data=!4m7!3m6!1s0x3fccbd1fbb18ca2b:0xf9cc4203b3172db1!8m2!3d27.474235!4d48.4915119!16s%2Fg%2F11rd4v7r2g!19sChIJK8oYux-9zD8RsS0XswNCzPk?authuser=0&hl=tr&rclk=1",
    "website_url": "",
    "rating_text": "3,7",
    "stars": null,
    "number_of_reviews": null,
    "price_level": "",
    "open_hours": "",
    "extraction_timestamp": "2025-06-08T03:06:47.605Z",
    "source_name": "google",
    "source_query": "Irrigation Equipment",
    "source_country": "SA",
    "country": "Saudi Arabia",
    "state": "Eastern Province",
    "city": "Nariyah"
  },
  {
    "source_id": "ChIJJyUCeQC_zD8Rp4Jb2Om-fqQ",
    "name": "World Est Plumbing Electricity Est.",
    "category": "World Est Plumbing Electricity Est.",
    "formatted_address": "",
    "phone_number": "+966570887048",
    "source_url": "https://www.google.com/maps/place/World+Est+Plumbing+Electricity+Est./data=!4m7!3m6!1s0x3fccbf0079022527:0xa47ebee9d85b82a7!8m2!3d27.470644!4d48.4723194!16s%2Fg%2F11vqmd0zgj!19sChIJJyUCeQC_zD8Rp4Jb2Om-fqQ?authuser=0&hl=tr&rclk=1",
    "website_url": "",
    "rating_text": "",
    "stars": null,
    "number_of_reviews": null,
    "price_level": "",
    "open_hours": "",
    "extraction_timestamp": "2025-06-08T03:06:47.606Z",
    "source_name": "google",
    "source_query": "Irrigation Equipment",
    "source_country": "SA",
    "country": "Saudi Arabia",
    "state": "Eastern Province",
    "city": "Nariyah"
  },
  {
    "source_id": "ChIJOcZDUf27zD8RKrlm2-aXhZ8",
    "name": "افاق نوره لبيع المياه",
    "category": "افاق نوره لبيع المياه",
    "formatted_address": "3,9(22)",
    "phone_number": "+966556201244",
    "source_url": "https://www.google.com/maps/place/%D8%A7%D9%81%D8%A7%D9%82+%D9%86%D9%88%D8%B1%D9%87+%D9%84%D8%A8%D9%8A%D8%B9+%D8%A7%D9%84%D9%85%D9%8A%D8%A7%D9%87%E2%80%AD/data=!4m7!3m6!1s0x3fccbbfd5143c639:0x9f8597e6db66b92a!8m2!3d27.4642721!4d48.498921!16s%2Fg%2F11t2t_y4yq!19sChIJOcZDUf27zD8RKrlm2-aXhZ8?authuser=0&hl=tr&rclk=1",
    "website_url": "",
    "rating_text": "3,9",
    "stars": null,
    "number_of_reviews": null,
    "price_level": "",
    "open_hours": "",
    "extraction_timestamp": "2025-06-08T03:06:47.606Z",
    "source_name": "google",
    "source_query": "Irrigation Equipment",
    "source_country": "SA",
    "country": "Saudi Arabia",
    "state": "Eastern Province",
    "city": "Nariyah"
  },
  {
    "source_id": "ChIJFWNcGPu7zD8RvFWFTu-NyzU",
    "name": "Market tents -Noa'ryya",
    "category": "Market tents -Noa'ryya",
    "formatted_address": "3,9(139)",
    "phone_number": "+966558813687",
    "source_url": "https://www.google.com/maps/place/Market+tents+-Noa%27ryya/data=!4m7!3m6!1s0x3fccbbfb185c6315:0x35cb8def4e8555bc!8m2!3d27.4634116!4d48.4857416!16s%2Fg%2F11cn3255gn!19sChIJFWNcGPu7zD8RvFWFTu-NyzU?authuser=0&hl=tr&rclk=1",
    "website_url": "",
    "rating_text": "3,9",
    "stars": null,
    "number_of_reviews": null,
    "price_level": "",
    "open_hours": "",
    "extraction_timestamp": "2025-06-08T03:06:47.606Z",
    "source_name": "google",
    "source_query": "Irrigation Equipment",
    "source_country": "SA",
    "country": "Saudi Arabia",
    "state": "Eastern Province",
    "city": "Nariyah"
  }
]
