[
  {
    "source_id": "ChIJ848909zvST4RB5fRC91hN80",
    "name": "MEAC AL-KHOBAR",
    "category": "MEAC AL-KHOBAR",
    "formatted_address": "4,9(8)",
    "phone_number": "+966561027930",
    "source_url": "https://www.google.com/maps/place/MEAC+AL-KHOBAR/data=!4m7!3m6!1s0x3e49efdcd33d8ff3:0xcd3761dd0bd19707!8m2!3d26.3914925!4d50.1782674!16s%2Fg%2F11j00lf0vv!19sChIJ848909zvST4RB5fRC91hN80?authuser=0&hl=tr&rclk=1",
    "website_url": "",
    "rating_text": "4,9",
    "stars": null,
    "number_of_reviews": null,
    "price_level": "",
    "open_hours": "",
    "extraction_timestamp": "2025-06-08T03:07:40.354Z",
    "source_name": "google",
    "source_query": "Irrigation Equipment",
    "source_country": "SA",
    "country": "Saudi Arabia",
    "state": "Eastern Province",
    "city": "Sayhāt"
  },
  {
    "source_id": "ChIJqTdF-kb8ST4RFt5vpSnQ5yc",
    "name": "مؤسسة الأنهار الزراعية للمضخات,AGRICULTURAL RIVERS FOR PUMPS",
    "category": "مؤسسة الأنهار الزراعية للمضخات,AGRICULTURAL RIVERS FOR PUMPS",
    "formatted_address": "مؤسسة الأنهار الزراعية للمضخات,AGRICULTURAL RIVERS FOR PUMPS",
    "phone_number": "+966558364553",
    "source_url": "https://www.google.com/maps/place/%D9%85%D8%A4%D8%B3%D8%B3%D8%A9+%D8%A7%D9%84%D8%A3%D9%86%D9%87%D8%A7%D8%B1+%D8%A7%D9%84%D8%B2%D8%B1%D8%A7%D8%B9%D9%8A%D8%A9+%D9%84%D9%84%D9%85%D8%B6%D8%AE%D8%A7%D8%AA,AGRICULTURAL+RIVERS+FOR+PUMPS%E2%80%AD/data=!4m7!3m6!1s0x3e49fc46fa4537a9:0x27e7d029a56fde16!8m2!3d26.4414581!4d50.0727931!16s%2Fg%2F11f306cj0y!19sChIJqTdF-kb8ST4RFt5vpSnQ5yc?authuser=0&hl=tr&rclk=1",
    "website_url": "",
    "rating_text": "4,2",
    "stars": null,
    "number_of_reviews": null,
    "price_level": "",
    "open_hours": "",
    "extraction_timestamp": "2025-06-08T03:07:40.356Z",
    "source_name": "google",
    "source_query": "Irrigation Equipment",
    "source_country": "SA",
    "country": "Saudi Arabia",
    "state": "Eastern Province",
    "city": "Sayhāt"
  },
  {
    "source_id": "ChIJ_ewzIj2jLz4RG1ZkOVBSGXQ",
    "name": "SAUDI DRIP IRRIGATION SYSTEMS COMPANY",
    "category": "SAUDI DRIP IRRIGATION SYSTEMS COMPANY",
    "formatted_address": "4,5(2)",
    "phone_number": "+966112650445",
    "source_url": "https://www.google.com/maps/place/SAUDI+DRIP+IRRIGATION+SYSTEMS+COMPANY/data=!4m7!3m6!1s0x3e2fa33d2233ecfd:0x741952503964561b!8m2!3d24.5274617!4d46.9076911!16s%2Fg%2F11j4lpbk7m!19sChIJ_ewzIj2jLz4RG1ZkOVBSGXQ?authuser=0&hl=tr&rclk=1",
    "website_url": "",
    "rating_text": "4,5",
    "stars": null,
    "number_of_reviews": null,
    "price_level": "",
    "open_hours": "",
    "extraction_timestamp": "2025-06-08T03:07:40.357Z",
    "source_name": "google",
    "source_query": "Irrigation Equipment",
    "source_country": "SA",
    "country": "Saudi Arabia",
    "state": "Eastern Province",
    "city": "Sayhāt"
  },
  {
    "source_id": "ChIJKe0RIJb_ST4RDcbN2BQ7N8k",
    "name": "فرع شركة قوة النيزك كهرباءوسباكه ومضخات مياه",
    "category": "فرع شركة قوة النيزك كهرباءوسباكه ومضخات مياه",
    "formatted_address": "4,4(26)",
    "phone_number": "+966568234199",
    "source_url": "https://www.google.com/maps/place/%D9%81%D8%B1%D8%B9+%D8%B4%D8%B1%D9%83%D8%A9+%D9%82%D9%88%D8%A9+%D8%A7%D9%84%D9%86%D9%8A%D8%B2%D9%83+%D9%83%D9%87%D8%B1%D8%A8%D8%A7%D8%A1%D9%88%D8%B3%D8%A8%D8%A7%D9%83%D9%87+%D9%88%D9%85%D8%B6%D8%AE%D8%A7%D8%AA+%D9%85%D9%8A%D8%A7%D9%87%E2%80%AD/data=!4m7!3m6!1s0x3e49ff962011ed29:0xc9373b14d8cdc60d!8m2!3d26.4923903!4d50.0322816!16s%2Fg%2F11h1093mf7!19sChIJKe0RIJb_ST4RDcbN2BQ7N8k?authuser=0&hl=tr&rclk=1",
    "website_url": "",
    "rating_text": "4,4",
    "stars": null,
    "number_of_reviews": null,
    "price_level": "",
    "open_hours": "",
    "extraction_timestamp": "2025-06-08T03:07:40.358Z",
    "source_name": "google",
    "source_query": "Irrigation Equipment",
    "source_country": "SA",
    "country": "Saudi Arabia",
    "state": "Eastern Province",
    "city": "Sayhāt"
  },
  {
    "source_id": "ChIJ76yZidsBNj4RucfSYTZk-o8",
    "name": "مؤسسة حدائق فيفا الزراعية",
    "category": "مؤسسة حدائق فيفا الزراعية",
    "formatted_address": "4,5(10)",
    "phone_number": "+966543337599",
    "source_url": "https://www.google.com/maps/place/%D9%85%D8%A4%D8%B3%D8%B3%D8%A9+%D8%AD%D8%AF%D8%A7%D8%A6%D9%82+%D9%81%D9%8A%D9%81%D8%A7+%D8%A7%D9%84%D8%B2%D8%B1%D8%A7%D8%B9%D9%8A%D8%A9%E2%80%AD/data=!4m7!3m6!1s0x3e3601db8999acef:0x8ffa643661d2c7b9!8m2!3d26.4822258!4d50.0052042!16s%2Fg%2F11kbx23q2m!19sChIJ76yZidsBNj4RucfSYTZk-o8?authuser=0&hl=tr&rclk=1",
    "website_url": "",
    "rating_text": "4,5",
    "stars": null,
    "number_of_reviews": null,
    "price_level": "",
    "open_hours": "",
    "extraction_timestamp": "2025-06-08T03:07:40.360Z",
    "source_name": "google",
    "source_query": "Irrigation Equipment",
    "source_country": "SA",
    "country": "Saudi Arabia",
    "state": "Eastern Province",
    "city": "Sayhāt"
  },
  {
    "source_id": "ChIJQa2Jz0H-ST4R_jxNs_kezmc",
    "name": "مؤسسة بيوتات نواره (سباكه، اناره، كهرباء، مواد بناء، ادوات)",
    "category": "مؤسسة بيوتات نواره (سباكه، اناره، كهرباء، مواد بناء، ادوات)",
    "formatted_address": "4,7(410)",
    "phone_number": "+966138386661",
    "source_url": "https://www.google.com/maps/place/%D9%85%D8%A4%D8%B3%D8%B3%D8%A9+%D8%A8%D9%8A%D9%88%D8%AA%D8%A7%D8%AA+%D9%86%D9%88%D8%A7%D8%B1%D9%87+%28%D8%B3%D8%A8%D8%A7%D9%83%D9%87%D8%8C+%D8%A7%D9%86%D8%A7%D8%B1%D9%87%D8%8C+%D9%83%D9%87%D8%B1%D8%A8%D8%A7%D8%A1%D8%8C+%D9%85%D9%88%D8%A7%D8%AF+%D8%A8%D9%86%D8%A7%D8%A1%D8%8C+%D8%A7%D8%AF%D9%88%D8%A7%D8%AA%29%E2%80%AD/data=!4m7!3m6!1s0x3e49fe41cf89ad41:0x67ce1ef9b34d3cfe!8m2!3d26.4778065!4d50.0464085!16s%2Fg%2F11f5bp_n3p!19sChIJQa2Jz0H-ST4R_jxNs_kezmc?authuser=0&hl=tr&rclk=1",
    "website_url": "",
    "rating_text": "4,7",
    "stars": null,
    "number_of_reviews": null,
    "price_level": "",
    "open_hours": "",
    "extraction_timestamp": "2025-06-08T03:07:40.361Z",
    "source_name": "google",
    "source_query": "Irrigation Equipment",
    "source_country": "SA",
    "country": "Saudi Arabia",
    "state": "Eastern Province",
    "city": "Sayhāt"
  },
  {
    "source_id": "ChIJZdQdVgehLz4R5Z8Xpn-mk3M",
    "name": "Al Saden Company Ltd",
    "category": "Al Saden Company Ltd",
    "formatted_address": "4,3(24)",
    "phone_number": "",
    "source_url": "https://www.google.com/maps/place/Al+Saden+Company+Ltd/data=!4m7!3m6!1s0x3e2fa107561dd465:0x7393a67fa6179fe5!8m2!3d24.5466747!4d46.8696441!16s%2Fg%2F11gb404_qn!19sChIJZdQdVgehLz4R5Z8Xpn-mk3M?authuser=0&hl=tr&rclk=1",
    "website_url": "",
    "rating_text": "4,3",
    "stars": null,
    "number_of_reviews": null,
    "price_level": "",
    "open_hours": "",
    "extraction_timestamp": "2025-06-08T03:07:40.362Z",
    "source_name": "google",
    "source_query": "Irrigation Equipment",
    "source_country": "SA",
    "country": "Saudi Arabia",
    "state": "Eastern Province",
    "city": "Sayhāt"
  },
  {
    "source_id": "ChIJTdN7F68JLz4RdYB-nGLPQv0",
    "name": "Water Systems Co, Ltd",
    "category": "Water Systems Co, Ltd",
    "formatted_address": "Water Systems Co, Ltd",
    "phone_number": "+966595563000",
    "source_url": "https://www.google.com/maps/place/Water+Systems+Co,+Ltd/data=!4m7!3m6!1s0x3e2f09af177bd34d:0xfd42cf629c7e8075!8m2!3d24.6199719!4d46.7731727!16s%2Fg%2F11sff11_kk!19sChIJTdN7F68JLz4RdYB-nGLPQv0?authuser=0&hl=tr&rclk=1",
    "website_url": "",
    "rating_text": "5,0",
    "stars": null,
    "number_of_reviews": null,
    "price_level": "",
    "open_hours": "",
    "extraction_timestamp": "2025-06-08T03:07:40.363Z",
    "source_name": "google",
    "source_query": "Irrigation Equipment",
    "source_country": "SA",
    "country": "Saudi Arabia",
    "state": "Eastern Province",
    "city": "Sayhāt"
  },
  {
    "source_id": "ChIJf4YfzoWhLz4RzvlIbuhw7Ao",
    "name": "Alkhorayef Industries",
    "category": "Alkhorayef Industries",
    "formatted_address": "4,7(41)",
    "phone_number": "+966554421529",
    "source_url": "https://www.google.com/maps/place/Alkhorayef+Industries/data=!4m7!3m6!1s0x3e2fa185ce1f867f:0xaec70e86e48f9ce!8m2!3d24.5487759!4d46.8976593!16s%2Fg%2F1hm5vsyl7!19sChIJf4YfzoWhLz4RzvlIbuhw7Ao?authuser=0&hl=tr&rclk=1",
    "website_url": "",
    "rating_text": "4,7",
    "stars": null,
    "number_of_reviews": null,
    "price_level": "",
    "open_hours": "",
    "extraction_timestamp": "2025-06-08T03:07:40.364Z",
    "source_name": "google",
    "source_query": "Irrigation Equipment",
    "source_country": "SA",
    "country": "Saudi Arabia",
    "state": "Eastern Province",
    "city": "Sayhāt"
  },
  {
    "source_id": "ChIJt7XVkx_-ST4RQDqr-c5oGro",
    "name": "BaytAlebaa - بيت الإباء",
    "category": "BaytAlebaa - بيت الإباء",
    "formatted_address": "3,8(1.296)",
    "phone_number": "+966920029007",
    "source_url": "https://www.google.com/maps/place/BaytAlebaa+-+%D8%A8%D9%8A%D8%AA+%D8%A7%D9%84%D8%A5%D8%A8%D8%A7%D8%A1%E2%80%AD/data=!4m7!3m6!1s0x3e49fe1f93d5b5b7:0xba1a68cef9ab3a40!8m2!3d26.463515!4d50.024126!16s%2Fg%2F11bz0jkxkk!19sChIJt7XVkx_-ST4RQDqr-c5oGro?authuser=0&hl=tr&rclk=1",
    "website_url": "",
    "rating_text": "3,8",
    "stars": null,
    "number_of_reviews": null,
    "price_level": "",
    "open_hours": "",
    "extraction_timestamp": "2025-06-08T03:07:40.366Z",
    "source_name": "google",
    "source_query": "Irrigation Equipment",
    "source_country": "SA",
    "country": "Saudi Arabia",
    "state": "Eastern Province",
    "city": "Sayhāt"
  },
  {
    "source_id": "ChIJyV-SSAD_ST4RRdwn1arvuCQ",
    "name": "مؤسسة سقيا للمياه",
    "category": "مؤسسة سقيا للمياه",
    "formatted_address": "4,9(18)",
    "phone_number": "+966544462993",
    "source_url": "https://www.google.com/maps/place/%D9%85%D8%A4%D8%B3%D8%B3%D8%A9+%D8%B3%D9%82%D9%8A%D8%A7+%D9%84%D9%84%D9%85%D9%8A%D8%A7%D9%87%E2%80%AD/data=!4m7!3m6!1s0x3e49ff0048925fc9:0x24b8efaad527dc45!8m2!3d26.4883551!4d50.033423!16s%2Fg%2F11vwk5wktx!19sChIJyV-SSAD_ST4RRdwn1arvuCQ?authuser=0&hl=tr&rclk=1",
    "website_url": "",
    "rating_text": "4,9",
    "stars": null,
    "number_of_reviews": null,
    "price_level": "",
    "open_hours": "",
    "extraction_timestamp": "2025-06-08T03:07:40.368Z",
    "source_name": "google",
    "source_query": "Irrigation Equipment",
    "source_country": "SA",
    "country": "Saudi Arabia",
    "state": "Eastern Province",
    "city": "Sayhāt"
  }
]
