[
  {
    "source_id": "ChIJ848909zvST4RB5fRC91hN80",
    "name": "MEAC AL-KHOBAR",
    "category": "MEAC AL-KHOBAR",
    "formatted_address": "4,9(8)",
    "phone_number": "+966561027930",
    "source_url": "https://www.google.com/maps/place/MEAC+AL-KHOBAR/data=!4m7!3m6!1s0x3e49efdcd33d8ff3:0xcd3761dd0bd19707!8m2!3d26.3914925!4d50.1782674!16s%2Fg%2F11j00lf0vv!19sChIJ848909zvST4RB5fRC91hN80?authuser=0&hl=tr&rclk=1",
    "website_url": "",
    "rating_text": "4,9",
    "stars": null,
    "number_of_reviews": null,
    "price_level": "",
    "open_hours": "",
    "extraction_timestamp": "2025-06-08T03:10:24.441Z",
    "source_name": "google",
    "source_query": "Irrigation Equipment",
    "source_country": "SA",
    "country": "Saudi Arabia",
    "state": "Eastern Province",
    "city": "Udhailiyah"
  },
  {
    "source_id": "ChIJNdJGc215Nz4R8TudPrhQ0gU",
    "name": "Udhailiyah Commissary LULU (bldg. 803)",
    "category": "Udhailiyah Commissary LULU (bldg. 803)",
    "formatted_address": "4,0(519)",
    "phone_number": "",
    "source_url": "https://www.google.com/maps/place/Udhailiyah+Commissary+LULU+%28bldg.+803%29/data=!4m7!3m6!1s0x3e37796d7346d235:0x5d250b83e9d3bf1!8m2!3d25.1363068!4d49.3022766!16s%2Fg%2F12hkfh6s4!19sChIJNdJGc215Nz4R8TudPrhQ0gU?authuser=0&hl=tr&rclk=1",
    "website_url": "http://www.saudiaramco.com/",
    "rating_text": "4,0",
    "stars": null,
    "number_of_reviews": null,
    "price_level": "",
    "open_hours": "",
    "extraction_timestamp": "2025-06-08T03:10:24.443Z",
    "source_name": "google",
    "source_query": "Irrigation Equipment",
    "source_country": "SA",
    "country": "Saudi Arabia",
    "state": "Eastern Province",
    "city": "Udhailiyah"
  },
  {
    "source_id": "ChIJ_ewzIj2jLz4RG1ZkOVBSGXQ",
    "name": "SAUDI DRIP IRRIGATION SYSTEMS COMPANY",
    "category": "SAUDI DRIP IRRIGATION SYSTEMS COMPANY",
    "formatted_address": "4,5(2)",
    "phone_number": "+966112650445",
    "source_url": "https://www.google.com/maps/place/SAUDI+DRIP+IRRIGATION+SYSTEMS+COMPANY/data=!4m7!3m6!1s0x3e2fa33d2233ecfd:0x741952503964561b!8m2!3d24.5274617!4d46.9076911!16s%2Fg%2F11j4lpbk7m!19sChIJ_ewzIj2jLz4RG1ZkOVBSGXQ?authuser=0&hl=tr&rclk=1",
    "website_url": "",
    "rating_text": "4,5",
    "stars": null,
    "number_of_reviews": null,
    "price_level": "",
    "open_hours": "",
    "extraction_timestamp": "2025-06-08T03:10:24.445Z",
    "source_name": "google",
    "source_query": "Irrigation Equipment",
    "source_country": "SA",
    "country": "Saudi Arabia",
    "state": "Eastern Province",
    "city": "Udhailiyah"
  },
  {
    "source_id": "ChIJhUw0Hrj3Lz4RzhCpNRuELWY",
    "name": "Akel Factory",
    "category": "Akel Factory",
    "formatted_address": "5,0(4)",
    "phone_number": "",
    "source_url": "https://www.google.com/maps/place/Akel+Factory/data=!4m7!3m6!1s0x3e2ff7b81e344c85:0x662d841b35a910ce!8m2!3d24.3600361!4d47.2630823!16s%2Fg%2F11fxzkx5m9!19sChIJhUw0Hrj3Lz4RzhCpNRuELWY?authuser=0&hl=tr&rclk=1",
    "website_url": "http://www.akel.com.sa/",
    "rating_text": "5,0",
    "stars": null,
    "number_of_reviews": null,
    "price_level": "",
    "open_hours": "",
    "extraction_timestamp": "2025-06-08T03:10:24.446Z",
    "source_name": "google",
    "source_query": "Irrigation Equipment",
    "source_country": "SA",
    "country": "Saudi Arabia",
    "state": "Eastern Province",
    "city": "Udhailiyah"
  },
  {
    "source_id": "ChIJEUAgRvK9Nz4RTN9GVv6NGrA",
    "name": "Saudi Irrigation Organization",
    "category": "Saudi Irrigation Organization",
    "formatted_address": "4,0(6)",
    "phone_number": "+966135300093",
    "source_url": "https://www.google.com/maps/place/Saudi+Irrigation+Organization/data=!4m7!3m6!1s0x3e37bdf246204011:0xb01a8dfe5646df4c!8m2!3d25.4532603!4d49.5674841!16s%2Fg%2F11g10n00hh!19sChIJEUAgRvK9Nz4RTN9GVv6NGrA?authuser=0&hl=tr&rclk=1",
    "website_url": "https://www.sio.gov.sa/",
    "rating_text": "4,0",
    "stars": null,
    "number_of_reviews": null,
    "price_level": "",
    "open_hours": "",
    "extraction_timestamp": "2025-06-08T03:10:24.448Z",
    "source_name": "google",
    "source_query": "Irrigation Equipment",
    "source_country": "SA",
    "country": "Saudi Arabia",
    "state": "Eastern Province",
    "city": "Udhailiyah"
  },
  {
    "source_id": "ChIJf7-buA_pST4RR836fng3GqA",
    "name": "شركة عالم الانابيب التجارية Pipe World Trading Company",
    "category": "شركة عالم الانابيب التجارية Pipe World Trading Company",
    "formatted_address": "4,7(26)",
    "phone_number": "+966138222808",
    "source_url": "https://www.google.com/maps/place/%D8%B4%D8%B1%D9%83%D8%A9+%D8%B9%D8%A7%D9%84%D9%85+%D8%A7%D9%84%D8%A7%D9%86%D8%A7%D8%A8%D9%8A%D8%A8+%D8%A7%D9%84%D8%AA%D8%AC%D8%A7%D8%B1%D9%8A%D8%A9+Pipe+World+Trading+Company%E2%80%AD/data=!4m7!3m6!1s0x3e49e90fb89bbf7f:0xa01a37787efacd47!8m2!3d26.2856334!4d50.2157449!16s%2Fg%2F11rcl22b8_!19sChIJf7-buA_pST4RR836fng3GqA?authuser=0&hl=tr&rclk=1",
    "website_url": "",
    "rating_text": "4,7",
    "stars": null,
    "number_of_reviews": null,
    "price_level": "",
    "open_hours": "",
    "extraction_timestamp": "2025-06-08T03:10:24.450Z",
    "source_name": "google",
    "source_query": "Irrigation Equipment",
    "source_country": "SA",
    "country": "Saudi Arabia",
    "state": "Eastern Province",
    "city": "Udhailiyah"
  },
  {
    "source_id": "ChIJbUP36RboST4RXDIQcOoxfMk",
    "name": "Saudi Powerline Trading Co Ltd - Oil & Gas Supplier",
    "category": "Saudi Powerline Trading Co Ltd - Oil & Gas Supplier",
    "formatted_address": "3,3(4)",
    "phone_number": "+966138978444",
    "source_url": "https://www.google.com/maps/place/Saudi+Powerline+Trading+Co+Ltd+-+Oil+%26+Gas+Supplier/data=!4m7!3m6!1s0x3e49e816e9f7436d:0xc97c31ea7010325c!8m2!3d26.2835064!4d50.2009522!16s%2Fg%2F1jgm0s198!19sChIJbUP36RboST4RXDIQcOoxfMk?authuser=0&hl=tr&rclk=1",
    "website_url": "http://www.powerline-sa.com/",
    "rating_text": "3,3",
    "stars": null,
    "number_of_reviews": null,
    "price_level": "",
    "open_hours": "",
    "extraction_timestamp": "2025-06-08T03:10:24.451Z",
    "source_name": "google",
    "source_query": "Irrigation Equipment",
    "source_country": "SA",
    "country": "Saudi Arabia",
    "state": "Eastern Province",
    "city": "Udhailiyah"
  }
]
