[
  {
    "source_id": "ChIJjbDl9KfwNT4Rib3gNJtemQs",
    "name": "مؤسسة نخيل البوادي الزراعية",
    "category": "مؤسسة نخيل البوادي الزراعية",
    "formatted_address": "4,5(33)",
    "phone_number": "+966545553045",
    "source_url": "https://www.google.com/maps/place/%D9%85%D8%A4%D8%B3%D8%B3%D8%A9+%D9%86%D8%AE%D9%8A%D9%84+%D8%A7%D9%84%D8%A8%D9%88%D8%A7%D8%AF%D9%8A+%D8%A7%D9%84%D8%B2%D8%B1%D8%A7%D8%B9%D9%8A%D8%A9%E2%80%AD/data=!4m7!3m6!1s0x3e35f0a7f4e5b08d:0xb995e9b34e0bd89!8m2!3d26.650287!4d49.9250698!16s%2Fg%2F11hb2_91p5!19sChIJjbDl9KfwNT4Rib3gNJtemQs?authuser=0&hl=tr&rclk=1",
    "website_url": "",
    "rating_text": "4,5",
    "stars": null,
    "number_of_reviews": null,
    "price_level": "",
    "open_hours": "",
    "extraction_timestamp": "2025-06-08T03:06:05.138Z",
    "source_name": "google",
    "source_query": "Irrigation Equipment",
    "source_country": "SA",
    "country": "Saudi Arabia",
    "state": "Eastern Province",
    "city": "Umm as Sāhik"
  },
  {
    "source_id": "ChIJ848909zvST4RB5fRC91hN80",
    "name": "MEAC AL-KHOBAR",
    "category": "MEAC AL-KHOBAR",
    "formatted_address": "4,9(8)",
    "phone_number": "+966561027930",
    "source_url": "https://www.google.com/maps/place/MEAC+AL-KHOBAR/data=!4m7!3m6!1s0x3e49efdcd33d8ff3:0xcd3761dd0bd19707!8m2!3d26.3914925!4d50.1782674!16s%2Fg%2F11j00lf0vv!19sChIJ848909zvST4RB5fRC91hN80?authuser=0&hl=tr&rclk=1",
    "website_url": "",
    "rating_text": "4,9",
    "stars": null,
    "number_of_reviews": null,
    "price_level": "",
    "open_hours": "",
    "extraction_timestamp": "2025-06-08T03:06:05.139Z",
    "source_name": "google",
    "source_query": "Irrigation Equipment",
    "source_country": "SA",
    "country": "Saudi Arabia",
    "state": "Eastern Province",
    "city": "Umm as Sāhik"
  },
  {
    "source_id": "ChIJvYf7v078ST4R_r35JksPSTc",
    "name": "مؤسسة الحديقة والمزرعة الدمام",
    "category": "مؤسسة الحديقة والمزرعة الدمام",
    "formatted_address": "4,3(32)",
    "phone_number": "+966138172212",
    "source_url": "https://www.google.com/maps/place/%D9%85%D8%A4%D8%B3%D8%B3%D8%A9+%D8%A7%D9%84%D8%AD%D8%AF%D9%8A%D9%82%D8%A9+%D9%88%D8%A7%D9%84%D9%85%D8%B2%D8%B1%D8%B9%D8%A9+%D8%A7%D9%84%D8%AF%D9%85%D8%A7%D9%85%E2%80%AD/data=!4m7!3m6!1s0x3e49fc4ebffb87bd:0x37490f4b26f9bdfe!8m2!3d26.4366926!4d50.0655234!16s%2Fg%2F11b7fv8h61!19sChIJvYf7v078ST4R_r35JksPSTc?authuser=0&hl=tr&rclk=1",
    "website_url": "",
    "rating_text": "4,3",
    "stars": null,
    "number_of_reviews": null,
    "price_level": "",
    "open_hours": "",
    "extraction_timestamp": "2025-06-08T03:06:05.141Z",
    "source_name": "google",
    "source_query": "Irrigation Equipment",
    "source_country": "SA",
    "country": "Saudi Arabia",
    "state": "Eastern Province",
    "city": "Umm as Sāhik"
  },
  {
    "source_id": "ChIJqTdF-kb8ST4RFt5vpSnQ5yc",
    "name": "مؤسسة الأنهار الزراعية للمضخات,AGRICULTURAL RIVERS FOR PUMPS",
    "category": "مؤسسة الأنهار الزراعية للمضخات,AGRICULTURAL RIVERS FOR PUMPS",
    "formatted_address": "مؤسسة الأنهار الزراعية للمضخات,AGRICULTURAL RIVERS FOR PUMPS",
    "phone_number": "+966558364553",
    "source_url": "https://www.google.com/maps/place/%D9%85%D8%A4%D8%B3%D8%B3%D8%A9+%D8%A7%D9%84%D8%A3%D9%86%D9%87%D8%A7%D8%B1+%D8%A7%D9%84%D8%B2%D8%B1%D8%A7%D8%B9%D9%8A%D8%A9+%D9%84%D9%84%D9%85%D8%B6%D8%AE%D8%A7%D8%AA,AGRICULTURAL+RIVERS+FOR+PUMPS%E2%80%AD/data=!4m7!3m6!1s0x3e49fc46fa4537a9:0x27e7d029a56fde16!8m2!3d26.4414581!4d50.0727931!16s%2Fg%2F11f306cj0y!19sChIJqTdF-kb8ST4RFt5vpSnQ5yc?authuser=0&hl=tr&rclk=1",
    "website_url": "",
    "rating_text": "4,2",
    "stars": null,
    "number_of_reviews": null,
    "price_level": "",
    "open_hours": "",
    "extraction_timestamp": "2025-06-08T03:06:05.143Z",
    "source_name": "google",
    "source_query": "Irrigation Equipment",
    "source_country": "SA",
    "country": "Saudi Arabia",
    "state": "Eastern Province",
    "city": "Umm as Sāhik"
  }
]
