[
  {
    "source_id": "ChIJjbDl9KfwNT4Rib3gNJtemQs",
    "name": "مؤسسة نخيل البوادي الزراعية",
    "category": "مؤسسة نخيل البوادي الزراعية",
    "formatted_address": "4,5(33)",
    "phone_number": "+966545553045",
    "source_url": "https://www.google.com/maps/place/%D9%85%D8%A4%D8%B3%D8%B3%D8%A9+%D9%86%D8%AE%D9%8A%D9%84+%D8%A7%D9%84%D8%A8%D9%88%D8%A7%D8%AF%D9%8A+%D8%A7%D9%84%D8%B2%D8%B1%D8%A7%D8%B9%D9%8A%D8%A9%E2%80%AD/data=!4m7!3m6!1s0x3e35f0a7f4e5b08d:0xb995e9b34e0bd89!8m2!3d26.650287!4d49.9250698!16s%2Fg%2F11hb2_91p5!19sChIJjbDl9KfwNT4Rib3gNJtemQs?authuser=0&hl=tr&rclk=1",
    "website_url": "https://instagram.com/albawadipalms",
    "rating_text": "4,5",
    "stars": null,
    "number_of_reviews": null,
    "price_level": "",
    "open_hours": "",
    "extraction_timestamp": "2025-06-08T03:11:00.661Z",
    "source_name": "google",
    "source_query": "Irrigation Equipment",
    "source_country": "SA",
    "country": "Saudi Arabia",
    "state": "Eastern Province",
    "city": "Şafwá"
  },
  {
    "source_id": "ChIJ848909zvST4RB5fRC91hN80",
    "name": "MEAC AL-KHOBAR",
    "category": "MEAC AL-KHOBAR",
    "formatted_address": "4,9(8)",
    "phone_number": "+966561027930",
    "source_url": "https://www.google.com/maps/place/MEAC+AL-KHOBAR/data=!4m7!3m6!1s0x3e49efdcd33d8ff3:0xcd3761dd0bd19707!8m2!3d26.3914925!4d50.1782674!16s%2Fg%2F11j00lf0vv!19sChIJ848909zvST4RB5fRC91hN80?authuser=0&hl=tr&rclk=1",
    "website_url": "",
    "rating_text": "4,9",
    "stars": null,
    "number_of_reviews": null,
    "price_level": "",
    "open_hours": "",
    "extraction_timestamp": "2025-06-08T03:11:00.662Z",
    "source_name": "google",
    "source_query": "Irrigation Equipment",
    "source_country": "SA",
    "country": "Saudi Arabia",
    "state": "Eastern Province",
    "city": "Şafwá"
  },
  {
    "source_id": "ChIJqTdF-kb8ST4RFt5vpSnQ5yc",
    "name": "مؤسسة الأنهار الزراعية للمضخات,AGRICULTURAL RIVERS FOR PUMPS",
    "category": "مؤسسة الأنهار الزراعية للمضخات,AGRICULTURAL RIVERS FOR PUMPS",
    "formatted_address": "مؤسسة الأنهار الزراعية للمضخات,AGRICULTURAL RIVERS FOR PUMPS",
    "phone_number": "+966558364553",
    "source_url": "https://www.google.com/maps/place/%D9%85%D8%A4%D8%B3%D8%B3%D8%A9+%D8%A7%D9%84%D8%A3%D9%86%D9%87%D8%A7%D8%B1+%D8%A7%D9%84%D8%B2%D8%B1%D8%A7%D8%B9%D9%8A%D8%A9+%D9%84%D9%84%D9%85%D8%B6%D8%AE%D8%A7%D8%AA,AGRICULTURAL+RIVERS+FOR+PUMPS%E2%80%AD/data=!4m7!3m6!1s0x3e49fc46fa4537a9:0x27e7d029a56fde16!8m2!3d26.4414581!4d50.0727931!16s%2Fg%2F11f306cj0y!19sChIJqTdF-kb8ST4RFt5vpSnQ5yc?authuser=0&hl=tr&rclk=1",
    "website_url": "",
    "rating_text": "4,2",
    "stars": null,
    "number_of_reviews": null,
    "price_level": "",
    "open_hours": "",
    "extraction_timestamp": "2025-06-08T03:11:00.663Z",
    "source_name": "google",
    "source_query": "Irrigation Equipment",
    "source_country": "SA",
    "country": "Saudi Arabia",
    "state": "Eastern Province",
    "city": "Şafwá"
  },
  {
    "source_id": "ChIJMWN_O8P5NT4ReB8FcHMTfb0",
    "name": "Almusa",
    "category": "Almusa",
    "formatted_address": "4,6(47)",
    "phone_number": "+966136642953",
    "source_url": "https://www.google.com/maps/place/Almusa/data=!4m7!3m6!1s0x3e35f9c33b7f6331:0xbd7d137370051f78!8m2!3d26.6514118!4d49.960531!16s%2Fg%2F11g6xqb__w!19sChIJMWN_O8P5NT4ReB8FcHMTfb0?authuser=0&hl=tr&rclk=1",
    "website_url": "",
    "rating_text": "4,6",
    "stars": null,
    "number_of_reviews": null,
    "price_level": "",
    "open_hours": "",
    "extraction_timestamp": "2025-06-08T03:11:00.664Z",
    "source_name": "google",
    "source_query": "Irrigation Equipment",
    "source_country": "SA",
    "country": "Saudi Arabia",
    "state": "Eastern Province",
    "city": "Şafwá"
  },
  {
    "source_id": "ChIJnccd1tz5NT4RZR25kFFBaLA",
    "name": "مؤسسة الصفواني للتجارة والمقاولات",
    "category": "مؤسسة الصفواني للتجارة والمقاولات",
    "formatted_address": "4,0(12)",
    "phone_number": "+966557507266",
    "source_url": "https://www.google.com/maps/place/%D9%85%D8%A4%D8%B3%D8%B3%D8%A9+%D8%A7%D9%84%D8%B5%D9%81%D9%88%D8%A7%D9%86%D9%8A+%D9%84%D9%84%D8%AA%D8%AC%D8%A7%D8%B1%D8%A9+%D9%88%D8%A7%D9%84%D9%85%D9%82%D8%A7%D9%88%D9%84%D8%A7%D8%AA%E2%80%AD/data=!4m7!3m6!1s0x3e35f9dcd61dc79d:0xb068415190b91d65!8m2!3d26.6524231!4d49.9597706!16s%2Fg%2F1hf0185pn!19sChIJnccd1tz5NT4RZR25kFFBaLA?authuser=0&hl=tr&rclk=1",
    "website_url": "",
    "rating_text": "4,0",
    "stars": null,
    "number_of_reviews": null,
    "price_level": "",
    "open_hours": "",
    "extraction_timestamp": "2025-06-08T03:11:00.666Z",
    "source_name": "google",
    "source_query": "Irrigation Equipment",
    "source_country": "SA",
    "country": "Saudi Arabia",
    "state": "Eastern Province",
    "city": "Şafwá"
  },
  {
    "source_id": "ChIJ3fS0Zzb_NT4RQCPtV4Hm_PY",
    "name": "مؤسسة عالم سباكة وكهرباء الريف",
    "category": "مؤسسة عالم سباكة وكهرباء الريف",
    "formatted_address": "4,9(14)",
    "phone_number": "+966138512423",
    "source_url": "https://www.google.com/maps/place/%D9%85%D8%A4%D8%B3%D8%B3%D8%A9+%D8%B9%D8%A7%D9%84%D9%85+%D8%B3%D8%A8%D8%A7%D9%83%D8%A9+%D9%88%D9%83%D9%87%D8%B1%D8%A8%D8%A7%D8%A1+%D8%A7%D9%84%D8%B1%D9%8A%D9%81%E2%80%AD/data=!4m7!3m6!1s0x3e35ff3667b4f4dd:0xf6fce68157ed2340!8m2!3d26.5969592!4d49.9809912!16s%2Fg%2F11hchthfmg!19sChIJ3fS0Zzb_NT4RQCPtV4Hm_PY?authuser=0&hl=tr&rclk=1",
    "website_url": "https://instagram.com/alreef.est",
    "rating_text": "4,9",
    "stars": null,
    "number_of_reviews": null,
    "price_level": "",
    "open_hours": "",
    "extraction_timestamp": "2025-06-08T03:11:00.667Z",
    "source_name": "google",
    "source_query": "Irrigation Equipment",
    "source_country": "SA",
    "country": "Saudi Arabia",
    "state": "Eastern Province",
    "city": "Şafwá"
  },
  {
    "source_id": "ChIJhUw0Hrj3Lz4RzhCpNRuELWY",
    "name": "Akel Factory",
    "category": "Akel Factory",
    "formatted_address": "5,0(4)",
    "phone_number": "",
    "source_url": "https://www.google.com/maps/place/Akel+Factory/data=!4m7!3m6!1s0x3e2ff7b81e344c85:0x662d841b35a910ce!8m2!3d24.3600361!4d47.2630823!16s%2Fg%2F11fxzkx5m9!19sChIJhUw0Hrj3Lz4RzhCpNRuELWY?authuser=0&hl=tr&rclk=1",
    "website_url": "http://www.akel.com.sa/",
    "rating_text": "5,0",
    "stars": null,
    "number_of_reviews": null,
    "price_level": "",
    "open_hours": "",
    "extraction_timestamp": "2025-06-08T03:11:00.667Z",
    "source_name": "google",
    "source_query": "Irrigation Equipment",
    "source_country": "SA",
    "country": "Saudi Arabia",
    "state": "Eastern Province",
    "city": "Şafwá"
  },
  {
    "source_id": "ChIJf4YfzoWhLz4RzvlIbuhw7Ao",
    "name": "Alkhorayef Industries",
    "category": "Alkhorayef Industries",
    "formatted_address": "4,7(41)",
    "phone_number": "+966554421529",
    "source_url": "https://www.google.com/maps/place/Alkhorayef+Industries/data=!4m7!3m6!1s0x3e2fa185ce1f867f:0xaec70e86e48f9ce!8m2!3d24.5487759!4d46.8976593!16s%2Fg%2F1hm5vsyl7!19sChIJf4YfzoWhLz4RzvlIbuhw7Ao?authuser=0&hl=tr&rclk=1",
    "website_url": "http://www.western-irrigation.com/",
    "rating_text": "4,7",
    "stars": null,
    "number_of_reviews": null,
    "price_level": "",
    "open_hours": "",
    "extraction_timestamp": "2025-06-08T03:11:00.669Z",
    "source_name": "google",
    "source_query": "Irrigation Equipment",
    "source_country": "SA",
    "country": "Saudi Arabia",
    "state": "Eastern Province",
    "city": "Şafwá"
  },
  {
    "source_id": "ChIJjTXpUVr_NT4RL4hxN4U02NI",
    "name": "مؤسسة المسورة الوطنية التجارية",
    "category": "مؤسسة المسورة الوطنية التجارية",
    "formatted_address": "4,9(24)",
    "phone_number": "+966569942210",
    "source_url": "https://www.google.com/maps/place/%D9%85%D8%A4%D8%B3%D8%B3%D8%A9+%D8%A7%D9%84%D9%85%D8%B3%D9%88%D8%B1%D8%A9+%D8%A7%D9%84%D9%88%D8%B7%D9%86%D9%8A%D8%A9+%D8%A7%D9%84%D8%AA%D8%AC%D8%A7%D8%B1%D9%8A%D8%A9%E2%80%AD/data=!4m7!3m6!1s0x3e35ff5a51e9358d:0xd2d834853771882f!8m2!3d26.5868662!4d50.0101409!16s%2Fg%2F11fkdj4bxx!19sChIJjTXpUVr_NT4RL4hxN4U02NI?authuser=0&hl=tr&rclk=1",
    "website_url": "https://www.instagram.com/almosoarah?igsh=MWdiOGFiN2F1dzhiYg==",
    "rating_text": "4,9",
    "stars": null,
    "number_of_reviews": null,
    "price_level": "",
    "open_hours": "",
    "extraction_timestamp": "2025-06-08T03:11:00.670Z",
    "source_name": "google",
    "source_query": "Irrigation Equipment",
    "source_country": "SA",
    "country": "Saudi Arabia",
    "state": "Eastern Province",
    "city": "Şafwá"
  },
  {
    "source_id": "ChIJ_ewzIj2jLz4RG1ZkOVBSGXQ",
    "name": "SAUDI DRIP IRRIGATION SYSTEMS COMPANY",
    "category": "SAUDI DRIP IRRIGATION SYSTEMS COMPANY",
    "formatted_address": "4,5(2)",
    "phone_number": "+966112650445",
    "source_url": "https://www.google.com/maps/place/SAUDI+DRIP+IRRIGATION+SYSTEMS+COMPANY/data=!4m7!3m6!1s0x3e2fa33d2233ecfd:0x741952503964561b!8m2!3d24.5274617!4d46.9076911!16s%2Fg%2F11j4lpbk7m!19sChIJ_ewzIj2jLz4RG1ZkOVBSGXQ?authuser=0&hl=tr&rclk=1",
    "website_url": "",
    "rating_text": "4,5",
    "stars": null,
    "number_of_reviews": null,
    "price_level": "",
    "open_hours": "",
    "extraction_timestamp": "2025-06-08T03:11:00.671Z",
    "source_name": "google",
    "source_query": "Irrigation Equipment",
    "source_country": "SA",
    "country": "Saudi Arabia",
    "state": "Eastern Province",
    "city": "Şafwá"
  },
  {
    "source_id": "ChIJExhF0yv_NT4RRgoiLSBhzDQ",
    "name": "حسين لباد لجميع المواد الصحية",
    "category": "حسين لباد لجميع المواد الصحية",
    "formatted_address": "4,1(12)",
    "phone_number": "",
    "source_url": "https://www.google.com/maps/place/%D8%AD%D8%B3%D9%8A%D9%86+%D9%84%D8%A8%D8%A7%D8%AF+%D9%84%D8%AC%D9%85%D9%8A%D8%B9+%D8%A7%D9%84%D9%85%D9%88%D8%A7%D8%AF+%D8%A7%D9%84%D8%B5%D8%AD%D9%8A%D8%A9%E2%80%AD/data=!4m7!3m6!1s0x3e35ff2bd3451813:0x34cc61202d220a46!8m2!3d26.5855438!4d49.9803329!16s%2Fg%2F11gdlxcq91!19sChIJExhF0yv_NT4RRgoiLSBhzDQ?authuser=0&hl=tr&rclk=1",
    "website_url": "",
    "rating_text": "4,1",
    "stars": null,
    "number_of_reviews": null,
    "price_level": "",
    "open_hours": "",
    "extraction_timestamp": "2025-06-08T03:11:00.672Z",
    "source_name": "google",
    "source_query": "Irrigation Equipment",
    "source_country": "SA",
    "country": "Saudi Arabia",
    "state": "Eastern Province",
    "city": "Şafwá"
  },
  {
    "source_id": "ChIJZdQdVgehLz4R5Z8Xpn-mk3M",
    "name": "Al Saden Company Ltd",
    "category": "Al Saden Company Ltd",
    "formatted_address": "4,3(24)",
    "phone_number": "",
    "source_url": "https://www.google.com/maps/place/Al+Saden+Company+Ltd/data=!4m7!3m6!1s0x3e2fa107561dd465:0x7393a67fa6179fe5!8m2!3d24.5466747!4d46.8696441!16s%2Fg%2F11gb404_qn!19sChIJZdQdVgehLz4R5Z8Xpn-mk3M?authuser=0&hl=tr&rclk=1",
    "website_url": "",
    "rating_text": "4,3",
    "stars": null,
    "number_of_reviews": null,
    "price_level": "",
    "open_hours": "",
    "extraction_timestamp": "2025-06-08T03:11:00.672Z",
    "source_name": "google",
    "source_query": "Irrigation Equipment",
    "source_country": "SA",
    "country": "Saudi Arabia",
    "state": "Eastern Province",
    "city": "Şafwá"
  },
  {
    "source_id": "ChIJrWQct90HLz4RE18CO64Mdjo",
    "name": "IRRIGATION WORLD AGRICULTURE CO. (IWACO) شركة عالم الري الزراعية",
    "category": "IRRIGATION WORLD AGRICULTURE CO. (IWACO) شركة عالم الري الزراعية",
    "formatted_address": "4,4(8)",
    "phone_number": "+966503296463",
    "source_url": "https://www.google.com/maps/place/IRRIGATION+WORLD+AGRICULTURE+CO.+%28IWACO%29+%D8%B4%D8%B1%D9%83%D8%A9+%D8%B9%D8%A7%D9%84%D9%85+%D8%A7%D9%84%D8%B1%D9%8A+%D8%A7%D9%84%D8%B2%D8%B1%D8%A7%D8%B9%D9%8A%D8%A9%E2%80%AD/data=!4m7!3m6!1s0x3e2f07ddb71c64ad:0x3a760cae3b025f13!8m2!3d24.6606155!4d46.7401872!16s%2Fg%2F11tdbbthcg!19sChIJrWQct90HLz4RE18CO64Mdjo?authuser=0&hl=tr&rclk=1",
    "website_url": "",
    "rating_text": "4,4",
    "stars": null,
    "number_of_reviews": null,
    "price_level": "",
    "open_hours": "",
    "extraction_timestamp": "2025-06-08T03:11:00.673Z",
    "source_name": "google",
    "source_query": "Irrigation Equipment",
    "source_country": "SA",
    "country": "Saudi Arabia",
    "state": "Eastern Province",
    "city": "Şafwá"
  },
  {
    "source_id": "ChIJbUP36RboST4RXDIQcOoxfMk",
    "name": "Saudi Powerline Trading Co Ltd - Oil & Gas Supplier",
    "category": "Saudi Powerline Trading Co Ltd - Oil & Gas Supplier",
    "formatted_address": "3,3(4)",
    "phone_number": "+966138978444",
    "source_url": "https://www.google.com/maps/place/Saudi+Powerline+Trading+Co+Ltd+-+Oil+%26+Gas+Supplier/data=!4m7!3m6!1s0x3e49e816e9f7436d:0xc97c31ea7010325c!8m2!3d26.2835064!4d50.2009522!16s%2Fg%2F1jgm0s198!19sChIJbUP36RboST4RXDIQcOoxfMk?authuser=0&hl=tr&rclk=1",
    "website_url": "http://www.powerline-sa.com/",
    "rating_text": "3,3",
    "stars": null,
    "number_of_reviews": null,
    "price_level": "",
    "open_hours": "",
    "extraction_timestamp": "2025-06-08T03:11:00.674Z",
    "source_name": "google",
    "source_query": "Irrigation Equipment",
    "source_country": "SA",
    "country": "Saudi Arabia",
    "state": "Eastern Province",
    "city": "Şafwá"
  },
  {
    "source_id": "ChIJK03yG2D-NT4R-aihomr6k8w",
    "name": "Cold Oasis For General Co. Ltd. - COG Al-Rushaid",
    "category": "Cold Oasis For General Co. Ltd. - COG Al-Rushaid",
    "formatted_address": "4,1(43)",
    "phone_number": "+966920003841",
    "source_url": "https://www.google.com/maps/place/Cold+Oasis+For+General+Co.+Ltd.+-+COG+Al-Rushaid/data=!4m7!3m6!1s0x3e35fe601bf24d2b:0xcc93fa6aa2a1a8f9!8m2!3d26.5423397!4d49.9564109!16s%2Fg%2F11b6lj26kr!19sChIJK03yG2D-NT4R-aihomr6k8w?authuser=0&hl=tr&rclk=1",
    "website_url": "",
    "rating_text": "4,1",
    "stars": null,
    "number_of_reviews": null,
    "price_level": "",
    "open_hours": "",
    "extraction_timestamp": "2025-06-08T03:11:00.675Z",
    "source_name": "google",
    "source_query": "Irrigation Equipment",
    "source_country": "SA",
    "country": "Saudi Arabia",
    "state": "Eastern Province",
    "city": "Şafwá"
  },
  {
    "source_id": "ChIJD6C0KYyhLz4RH-kmnmst48s",
    "name": "Saudi Mais Co. for Irrigation Systems",
    "category": "Saudi Mais Co. for Irrigation Systems",
    "formatted_address": "4,0(22)",
    "phone_number": "+966112652300",
    "source_url": "https://www.google.com/maps/place/Saudi+Mais+Co.+for+Irrigation+Systems/data=!4m7!3m6!1s0x3e2fa18c29b4a00f:0xcbe32d6b9e26e91f!8m2!3d24.5413895!4d46.8959501!16s%2Fg%2F11cr_r7bxm!19sChIJD6C0KYyhLz4RH-kmnmst48s?authuser=0&hl=tr&rclk=1",
    "website_url": "http://www.maisirrig.com.sa/",
    "rating_text": "4,0",
    "stars": null,
    "number_of_reviews": null,
    "price_level": "",
    "open_hours": "",
    "extraction_timestamp": "2025-06-08T03:11:00.676Z",
    "source_name": "google",
    "source_query": "Irrigation Equipment",
    "source_country": "SA",
    "country": "Saudi Arabia",
    "state": "Eastern Province",
    "city": "Şafwá"
  },
  {
    "source_id": "ChIJTdN7F68JLz4RdYB-nGLPQv0",
    "name": "Water Systems Co, Ltd",
    "category": "Water Systems Co, Ltd",
    "formatted_address": "Water Systems Co, Ltd",
    "phone_number": "+966595563000",
    "source_url": "https://www.google.com/maps/place/Water+Systems+Co,+Ltd/data=!4m7!3m6!1s0x3e2f09af177bd34d:0xfd42cf629c7e8075!8m2!3d24.6199719!4d46.7731727!16s%2Fg%2F11sff11_kk!19sChIJTdN7F68JLz4RdYB-nGLPQv0?authuser=0&hl=tr&rclk=1",
    "website_url": "http://wais.com.sa/",
    "rating_text": "5,0",
    "stars": null,
    "number_of_reviews": null,
    "price_level": "",
    "open_hours": "",
    "extraction_timestamp": "2025-06-08T03:11:00.677Z",
    "source_name": "google",
    "source_query": "Irrigation Equipment",
    "source_country": "SA",
    "country": "Saudi Arabia",
    "state": "Eastern Province",
    "city": "Şafwá"
  },
  {
    "source_id": "ChIJOXmHc17_NT4RFVej1UxGe1o",
    "name": "مؤسسة الغزوي للسباكة والكهرباء",
    "category": "مؤسسة الغزوي للسباكة والكهرباء",
    "formatted_address": "4,4(65)",
    "phone_number": "+966562763019",
    "source_url": "https://www.google.com/maps/place/%D9%85%D8%A4%D8%B3%D8%B3%D8%A9+%D8%A7%D9%84%D8%BA%D8%B2%D9%88%D9%8A+%D9%84%D9%84%D8%B3%D8%A8%D8%A7%D9%83%D8%A9+%D9%88%D8%A7%D9%84%D9%83%D9%87%D8%B1%D8%A8%D8%A7%D8%A1%E2%80%AD/data=!4m7!3m6!1s0x3e35ff5e73877939:0x5a7b464cd5a35715!8m2!3d26.5832076!4d50.0138889!16s%2Fg%2F11c6rhd21l!19sChIJOXmHc17_NT4RFVej1UxGe1o?authuser=0&hl=tr&rclk=1",
    "website_url": "",
    "rating_text": "4,4",
    "stars": null,
    "number_of_reviews": null,
    "price_level": "",
    "open_hours": "",
    "extraction_timestamp": "2025-06-08T03:11:00.678Z",
    "source_name": "google",
    "source_query": "Irrigation Equipment",
    "source_country": "SA",
    "country": "Saudi Arabia",
    "state": "Eastern Province",
    "city": "Şafwá"
  },
  {
    "source_id": "ChIJpfABD5flLj4R5y9XKuFHLfQ",
    "name": "Gulf Coast Irrigation",
    "category": "Gulf Coast Irrigation",
    "formatted_address": "5,0(3)",
    "phone_number": "+966112383222",
    "source_url": "https://www.google.com/maps/place/Gulf+Coast+Irrigation/data=!4m7!3m6!1s0x3e2ee5970f01f0a5:0xf42d47e12a572fe7!8m2!3d24.8245095!4d46.6470272!16s%2Fg%2F11wpnply2r!19sChIJpfABD5flLj4R5y9XKuFHLfQ?authuser=0&hl=tr&rclk=1",
    "website_url": "https://www.gulfcoast.sa/",
    "rating_text": "5,0",
    "stars": null,
    "number_of_reviews": null,
    "price_level": "",
    "open_hours": "",
    "extraction_timestamp": "2025-06-08T03:11:00.678Z",
    "source_name": "google",
    "source_query": "Irrigation Equipment",
    "source_country": "SA",
    "country": "Saudi Arabia",
    "state": "Eastern Province",
    "city": "Şafwá"
  },
  {
    "source_id": "ChIJ4YFs7AH5NT4R7c7mVnkBPgM",
    "name": "محل النبراس للسباكة والكهرباء",
    "category": "محل النبراس للسباكة والكهرباء",
    "formatted_address": "4,5(2)",
    "phone_number": "+966548868599",
    "source_url": "https://www.google.com/maps/place/%D9%85%D8%AD%D9%84+%D8%A7%D9%84%D9%86%D8%A8%D8%B1%D8%A7%D8%B3+%D9%84%D9%84%D8%B3%D8%A8%D8%A7%D9%83%D8%A9+%D9%88%D8%A7%D9%84%D9%83%D9%87%D8%B1%D8%A8%D8%A7%D8%A1%E2%80%AD/data=!4m7!3m6!1s0x3e35f901ec6c81e1:0x33e017956e6ceed!8m2!3d26.6016408!4d49.9801011!16s%2Fg%2F11fmc6p6wc!19sChIJ4YFs7AH5NT4R7c7mVnkBPgM?authuser=0&hl=tr&rclk=1",
    "website_url": "",
    "rating_text": "4,5",
    "stars": null,
    "number_of_reviews": null,
    "price_level": "",
    "open_hours": "",
    "extraction_timestamp": "2025-06-08T03:11:00.679Z",
    "source_name": "google",
    "source_query": "Irrigation Equipment",
    "source_country": "SA",
    "country": "Saudi Arabia",
    "state": "Eastern Province",
    "city": "Şafwá"
  }
]
