[
  {
    "source_id": "ChIJ-WIJDKM0q0ARpuapJwuD3OI",
    "name": "Полихрон ЕООД",
    "category": "Полихрон ЕООД",
    "formatted_address": "4,5(216)",
    "phone_number": "+35996300660",
    "source_url": "https://www.google.com/maps/place/%D0%9F%D0%BE%D0%BB%D0%B8%D1%85%D1%80%D0%BE%D0%BD+%D0%95%D0%9E%D0%9E%D0%94/data=!4m7!3m6!1s0x40ab34a30c0962f9:0xe2dc830b27a9e6a6!8m2!3d43.4118521!4d23.2389808!16s%2Fg%2F11c38dzs5q!19sChIJ-WIJDKM0q0ARpuapJwuD3OI?authuser=0&hl=tr&rclk=1",
    "website_url": "http://polihron.bg/",
    "rating_text": "4,5",
    "stars": null,
    "number_of_reviews": null,
    "price_level": "",
    "open_hours": "",
    "extraction_timestamp": "2025-06-07T13:39:02.287Z",
    "source_name": "google",
    "source_query": "Irrigation Equipment",
    "source_country": "BG",
    "country": "Bulgaria",
    "state": "Montana Province",
    "city": "Montana"
  },
  {
    "source_id": "ChIJQRUHz4k1q0ARVpCyR2jAGZA",
    "name": "Строймаркет Monix",
    "category": "Строймаркет Monix",
    "formatted_address": "4,2(28)",
    "phone_number": "+359876363644",
    "source_url": "https://www.google.com/maps/place/%D0%A1%D1%82%D1%80%D0%BE%D0%B9%D0%BC%D0%B0%D1%80%D0%BA%D0%B5%D1%82+Monix/data=!4m7!3m6!1s0x40ab3589cf071541:0x9019c06847b29056!8m2!3d43.4203541!4d23.2268428!16s%2Fg%2F11t_kvn5lp!19sChIJQRUHz4k1q0ARVpCyR2jAGZA?authuser=0&hl=tr&rclk=1",
    "website_url": "https://stroymarket-monix.com/",
    "rating_text": "4,2",
    "stars": null,
    "number_of_reviews": null,
    "price_level": "",
    "open_hours": "",
    "extraction_timestamp": "2025-06-07T13:39:02.289Z",
    "source_name": "google",
    "source_query": "Irrigation Equipment",
    "source_country": "BG",
    "country": "Bulgaria",
    "state": "Montana Province",
    "city": "Montana"
  },
  {
    "source_id": "ChIJ3f4Nd2Izq0ARAcebBVgSZIM",
    "name": "МАР МАГ ИТИ ЕООД",
    "category": "МАР МАГ ИТИ ЕООД",
    "formatted_address": "4,4(108)",
    "phone_number": "+359888361362",
    "source_url": "https://www.google.com/maps/place/%D0%9C%D0%90%D0%A0+%D0%9C%D0%90%D0%93+%D0%98%D0%A2%D0%98+%D0%95%D0%9E%D0%9E%D0%94/data=!4m7!3m6!1s0x40ab3362770dfedd:0x83641258059bc701!8m2!3d43.403394!4d23.2464826!16s%2Fg%2F11cndbspq2!19sChIJ3f4Nd2Izq0ARAcebBVgSZIM?authuser=0&hl=tr&rclk=1",
    "website_url": "http://www.marmag.bg/",
    "rating_text": "4,4",
    "stars": null,
    "number_of_reviews": null,
    "price_level": "",
    "open_hours": "",
    "extraction_timestamp": "2025-06-07T13:39:02.290Z",
    "source_name": "google",
    "source_query": "Irrigation Equipment",
    "source_country": "BG",
    "country": "Bulgaria",
    "state": "Montana Province",
    "city": "Montana"
  },
  {
    "source_id": "ChIJCTN80p80q0ARG0vPs57mgHk",
    "name": "TeMax Montana",
    "category": "TeMax Montana",
    "formatted_address": "4,1(996)",
    "phone_number": "+35996300058",
    "source_url": "https://www.google.com/maps/place/TeMax+Montana/data=!4m7!3m6!1s0x40ab349fd27c3309:0x7980e69eb3cf4b1b!8m2!3d43.4049858!4d23.241104!16s%2Fg%2F11f4m59y2h!19sChIJCTN80p80q0ARG0vPs57mgHk?authuser=0&hl=tr&rclk=1",
    "website_url": "http://temax.bg/",
    "rating_text": "4,1",
    "stars": null,
    "number_of_reviews": null,
    "price_level": "",
    "open_hours": "",
    "extraction_timestamp": "2025-06-07T13:39:02.291Z",
    "source_name": "google",
    "source_query": "Irrigation Equipment",
    "source_country": "BG",
    "country": "Bulgaria",
    "state": "Montana Province",
    "city": "Montana"
  },
  {
    "source_id": "ChIJN8Nz0K00q0ARaaM_5LJ7SCU",
    "name": "BALKAN HYDRO",
    "category": "BALKAN HYDRO",
    "formatted_address": "5,0(1)",
    "phone_number": "+359878470190",
    "source_url": "https://www.google.com/maps/place/BALKAN+HYDRO/data=!4m7!3m6!1s0x40ab34add073c337:0x25487bb2e43fa369!8m2!3d43.4156257!4d23.224856!16s%2Fg%2F11c54gjlp0!19sChIJN8Nz0K00q0ARaaM_5LJ7SCU?authuser=0&hl=tr&rclk=1",
    "website_url": "",
    "rating_text": "5,0",
    "stars": null,
    "number_of_reviews": null,
    "price_level": "",
    "open_hours": "",
    "extraction_timestamp": "2025-06-07T13:39:02.293Z",
    "source_name": "google",
    "source_query": "Irrigation Equipment",
    "source_country": "BG",
    "country": "Bulgaria",
    "state": "Montana Province",
    "city": "Montana"
  }
]
