[
  {
    "source_id": "ChIJ-WIJDKM0q0ARpuapJwuD3OI",
    "name": "Полихрон ЕООД",
    "category": "Полихрон ЕООД",
    "formatted_address": "4,5(216)",
    "phone_number": "+35996300660",
    "source_url": "https://www.google.com/maps/place/%D0%9F%D0%BE%D0%BB%D0%B8%D1%85%D1%80%D0%BE%D0%BD+%D0%95%D0%9E%D0%9E%D0%94/data=!4m7!3m6!1s0x40ab34a30c0962f9:0xe2dc830b27a9e6a6!8m2!3d43.4118521!4d23.2389808!16s%2Fg%2F11c38dzs5q!19sChIJ-WIJDKM0q0ARpuapJwuD3OI?authuser=0&hl=tr&rclk=1",
    "website_url": "",
    "rating_text": "4,5",
    "stars": null,
    "number_of_reviews": null,
    "price_level": "",
    "open_hours": "",
    "extraction_timestamp": "2025-06-07T13:39:06.453Z",
    "source_name": "google",
    "source_query": "Irrigation Equipment",
    "source_country": "BG",
    "country": "Bulgaria",
    "state": "Montana Province",
    "city": "Obshtina Valchedram"
  },
  {
    "source_id": "ChIJVbugZmc1q0ARSq9MmU6BDts",
    "name": "INGCO Bulgaria",
    "category": "INGCO Bulgaria",
    "formatted_address": "4,8(28)",
    "phone_number": "+359887399477",
    "source_url": "https://www.google.com/maps/place/INGCO+Bulgaria/data=!4m7!3m6!1s0x40ab356766a0bb55:0xdb0e814e994caf4a!8m2!3d43.413485!4d23.2277359!16s%2Fg%2F11j024g4c0!19sChIJVbugZmc1q0ARSq9MmU6BDts?authuser=0&hl=tr&rclk=1",
    "website_url": "",
    "rating_text": "4,8",
    "stars": null,
    "number_of_reviews": null,
    "price_level": "",
    "open_hours": "",
    "extraction_timestamp": "2025-06-07T13:39:06.453Z",
    "source_name": "google",
    "source_query": "Irrigation Equipment",
    "source_country": "BG",
    "country": "Bulgaria",
    "state": "Montana Province",
    "city": "Obshtina Valchedram"
  },
  {
    "source_id": "ChIJc_W_DqQ0q0ARFykReo0aORM",
    "name": "АСМ ЕООД",
    "category": "АСМ ЕООД",
    "formatted_address": "4,4(84)",
    "phone_number": "+35996391515",
    "source_url": "https://www.google.com/maps/place/%D0%90%D0%A1%D0%9C+%D0%95%D0%9E%D0%9E%D0%94/data=!4m7!3m6!1s0x40ab34a40ebff573:0x13391a8d7a112917!8m2!3d43.4104186!4d23.2354777!16s%2Fg%2F11c31sk6v6!19sChIJc_W_DqQ0q0ARFykReo0aORM?authuser=0&hl=tr&rclk=1",
    "website_url": "",
    "rating_text": "4,4",
    "stars": null,
    "number_of_reviews": null,
    "price_level": "",
    "open_hours": "",
    "extraction_timestamp": "2025-06-07T13:39:06.454Z",
    "source_name": "google",
    "source_query": "Irrigation Equipment",
    "source_country": "BG",
    "country": "Bulgaria",
    "state": "Montana Province",
    "city": "Obshtina Valchedram"
  },
  {
    "source_id": "ChIJtWTqsFgzq0ARb9XfxPNSIDE",
    "name": "Gerak EOOD",
    "category": "Gerak EOOD",
    "formatted_address": "4,3(48)",
    "phone_number": "+35996307545",
    "source_url": "https://www.google.com/maps/place/Gerak+EOOD/data=!4m7!3m6!1s0x40ab3358b0ea64b5:0x312052f3c4dfd56f!8m2!3d43.4122165!4d23.2322721!16s%2Fg%2F113fbvsvs!19sChIJtWTqsFgzq0ARb9XfxPNSIDE?authuser=0&hl=tr&rclk=1",
    "website_url": "",
    "rating_text": "4,3",
    "stars": null,
    "number_of_reviews": null,
    "price_level": "",
    "open_hours": "",
    "extraction_timestamp": "2025-06-07T13:39:06.455Z",
    "source_name": "google",
    "source_query": "Irrigation Equipment",
    "source_country": "BG",
    "country": "Bulgaria",
    "state": "Montana Province",
    "city": "Obshtina Valchedram"
  },
  {
    "source_id": "ChIJxTmqiFgzq0ARbeJzNtjWAvM",
    "name": "Plama Trading Ltd. - Hardware",
    "category": "Plama Trading Ltd. - Hardware",
    "formatted_address": "4,0(21)",
    "phone_number": "+359888887674",
    "source_url": "https://www.google.com/maps/place/Plama+Trading+Ltd.+-+Hardware/data=!4m7!3m6!1s0x40ab335888aa39c5:0xf302d6d83673e26d!8m2!3d43.4043399!4d23.2266636!16s%2Fg%2F11c70j9k09!19sChIJxTmqiFgzq0ARbeJzNtjWAvM?authuser=0&hl=tr&rclk=1",
    "website_url": "",
    "rating_text": "4,0",
    "stars": null,
    "number_of_reviews": null,
    "price_level": "",
    "open_hours": "",
    "extraction_timestamp": "2025-06-07T13:39:06.456Z",
    "source_name": "google",
    "source_query": "Irrigation Equipment",
    "source_country": "BG",
    "country": "Bulgaria",
    "state": "Montana Province",
    "city": "Obshtina Valchedram"
  },
  {
    "source_id": "ChIJyzu8eKU0q0AR2qCLWlh0Z98",
    "name": "TOPLIVO - Warehouse Montana",
    "category": "TOPLIVO - Warehouse Montana",
    "formatted_address": "4,2(61)",
    "phone_number": "+359884704979",
    "source_url": "https://www.google.com/maps/place/TOPLIVO+-+Warehouse+Montana/data=!4m7!3m6!1s0x40ab34a578bc3bcb:0xdf6774585a8ba0da!8m2!3d43.4132357!4d23.2316827!16s%2Fg%2F11g8w7w_cv!19sChIJyzu8eKU0q0AR2qCLWlh0Z98?authuser=0&hl=tr&rclk=1",
    "website_url": "",
    "rating_text": "4,2",
    "stars": null,
    "number_of_reviews": null,
    "price_level": "",
    "open_hours": "",
    "extraction_timestamp": "2025-06-07T13:39:06.456Z",
    "source_name": "google",
    "source_query": "Irrigation Equipment",
    "source_country": "BG",
    "country": "Bulgaria",
    "state": "Montana Province",
    "city": "Obshtina Valchedram"
  },
  {
    "source_id": "ChIJKTKEMPUpq0ARsLUikjOQ9Rk",
    "name": "Козе ферма Каряна",
    "category": "Козе ферма Каряна",
    "formatted_address": "4,8(33)",
    "phone_number": "+359898777911",
    "source_url": "https://www.google.com/maps/place/%D0%9A%D0%BE%D0%B7%D0%B5+%D1%84%D0%B5%D1%80%D0%BC%D0%B0+%D0%9A%D0%B0%D1%80%D1%8F%D0%BD%D0%B0/data=!4m7!3m6!1s0x40ab29f530843229:0x19f590339222b5b0!8m2!3d43.2228648!4d23.1862097!16s%2Fg%2F11p0043zfs!19sChIJKTKEMPUpq0ARsLUikjOQ9Rk?authuser=0&hl=tr&rclk=1",
    "website_url": "",
    "rating_text": "4,8",
    "stars": null,
    "number_of_reviews": null,
    "price_level": "",
    "open_hours": "",
    "extraction_timestamp": "2025-06-07T13:39:06.457Z",
    "source_name": "google",
    "source_query": "Irrigation Equipment",
    "source_country": "BG",
    "country": "Bulgaria",
    "state": "Montana Province",
    "city": "Obshtina Valchedram"
  },
  {
    "source_id": "ChIJkZ-7sKM0q0ARyy-yrPWamIo",
    "name": "ITT Bulgaria Ltd.",
    "category": "ITT Bulgaria Ltd.",
    "formatted_address": "4,4(29)",
    "phone_number": "+359887085441",
    "source_url": "https://www.google.com/maps/place/ITT+Bulgaria+Ltd./data=!4m7!3m6!1s0x40ab34a3b0bb9f91:0x8a989af5acb22fcb!8m2!3d43.4112024!4d23.238982!16s%2Fg%2F11cntm0m_0!19sChIJkZ-7sKM0q0ARyy-yrPWamIo?authuser=0&hl=tr&rclk=1",
    "website_url": "",
    "rating_text": "4,4",
    "stars": null,
    "number_of_reviews": null,
    "price_level": "",
    "open_hours": "",
    "extraction_timestamp": "2025-06-07T13:39:06.458Z",
    "source_name": "google",
    "source_query": "Irrigation Equipment",
    "source_country": "BG",
    "country": "Bulgaria",
    "state": "Montana Province",
    "city": "Obshtina Valchedram"
  },
  {
    "source_id": "ChIJsYU6OH0Or0ARC3eRUz7FIsc",
    "name": "Напоителни Системи",
    "category": "Напоителни Системи",
    "formatted_address": "",
    "phone_number": "+359895843284",
    "source_url": "https://www.google.com/maps/place/%D0%9D%D0%B0%D0%BF%D0%BE%D0%B8%D1%82%D0%B5%D0%BB%D0%BD%D0%B8+%D0%A1%D0%B8%D1%81%D1%82%D0%B5%D0%BC%D0%B8/data=!4m7!3m6!1s0x40af0e7d383a85b1:0xc722c53e5391770b!8m2!3d43.5248284!4d26.5185956!16s%2Fg%2F11hyt13jl9!19sChIJsYU6OH0Or0ARC3eRUz7FIsc?authuser=0&hl=tr&rclk=1",
    "website_url": "",
    "rating_text": "",
    "stars": null,
    "number_of_reviews": null,
    "price_level": "",
    "open_hours": "",
    "extraction_timestamp": "2025-06-07T13:39:06.459Z",
    "source_name": "google",
    "source_query": "Irrigation Equipment",
    "source_country": "BG",
    "country": "Bulgaria",
    "state": "Montana Province",
    "city": "Obshtina Valchedram"
  },
  {
    "source_id": "ChIJW_0-ylPLVEcRQYl2Tk9T318",
    "name": "Ionimont",
    "category": "Ionimont",
    "formatted_address": "4,4(140)",
    "phone_number": "+35996307095",
    "source_url": "https://www.google.com/maps/place/Ionimont/data=!4m7!3m6!1s0x4754cb53ca3efd5b:0x5fdf534f4e768941!8m2!3d43.4170995!4d23.2141449!16s%2Fg%2F11bwp1gmr1!19sChIJW_0-ylPLVEcRQYl2Tk9T318?authuser=0&hl=tr&rclk=1",
    "website_url": "",
    "rating_text": "4,4",
    "stars": null,
    "number_of_reviews": null,
    "price_level": "",
    "open_hours": "",
    "extraction_timestamp": "2025-06-07T13:39:06.459Z",
    "source_name": "google",
    "source_query": "Irrigation Equipment",
    "source_country": "BG",
    "country": "Bulgaria",
    "state": "Montana Province",
    "city": "Obshtina Valchedram"
  },
  {
    "source_id": "ChIJ3fwkmcSFqkARs7jacivGgw4",
    "name": "AGRITOP",
    "category": "AGRITOP",
    "formatted_address": "4,6(11)",
    "phone_number": "+35929712620",
    "source_url": "https://www.google.com/maps/place/AGRITOP/data=!4m7!3m6!1s0x40aa85c49924fcdd:0xe83c62b72dab8b3!8m2!3d42.6569479!4d23.3983963!16s%2Fg%2F11bwkfyffg!19sChIJ3fwkmcSFqkARs7jacivGgw4?authuser=0&hl=tr&rclk=1",
    "website_url": "",
    "rating_text": "4,6",
    "stars": null,
    "number_of_reviews": null,
    "price_level": "",
    "open_hours": "",
    "extraction_timestamp": "2025-06-07T13:39:06.460Z",
    "source_name": "google",
    "source_query": "Irrigation Equipment",
    "source_country": "BG",
    "country": "Bulgaria",
    "state": "Montana Province",
    "city": "Obshtina Valchedram"
  },
  {
    "source_id": "ChIJIVLui680q0ARHUTKZbC5qIs",
    "name": "Металстрой-2005 ООД",
    "category": "Металстрой-2005 ООД",
    "formatted_address": "4,4(81)",
    "phone_number": "+35996306950",
    "source_url": "https://www.google.com/maps/place/%D0%9C%D0%B5%D1%82%D0%B0%D0%BB%D1%81%D1%82%D1%80%D0%BE%D0%B9-2005+%D0%9E%D0%9E%D0%94/data=!4m7!3m6!1s0x40ab34af8bee5221:0x8ba8b9b065ca441d!8m2!3d43.4129084!4d23.231125!16s%2Fg%2F1z44rccrs!19sChIJIVLui680q0ARHUTKZbC5qIs?authuser=0&hl=tr&rclk=1",
    "website_url": "",
    "rating_text": "4,4",
    "stars": null,
    "number_of_reviews": null,
    "price_level": "",
    "open_hours": "",
    "extraction_timestamp": "2025-06-07T13:39:06.461Z",
    "source_name": "google",
    "source_query": "Irrigation Equipment",
    "source_country": "BG",
    "country": "Bulgaria",
    "state": "Montana Province",
    "city": "Obshtina Valchedram"
  },
  {
    "source_id": "ChIJq2N3RVgzq0ARzFtVXpDYgkA",
    "name": "Computers EOOD - \"Montiv“",
    "category": "Computers EOOD - \"Montiv“",
    "formatted_address": "4,8(688)",
    "phone_number": "+359888943304",
    "source_url": "https://www.google.com/maps/place/Computers+EOOD+-+%22Montiv%E2%80%9C/data=!4m7!3m6!1s0x40ab3358457763ab:0x4082d8905e555bcc!8m2!3d43.4057067!4d23.2267811!16s%2Fg%2F1tfgh9wv!19sChIJq2N3RVgzq0ARzFtVXpDYgkA?authuser=0&hl=tr&rclk=1",
    "website_url": "",
    "rating_text": "4,8",
    "stars": null,
    "number_of_reviews": null,
    "price_level": "",
    "open_hours": "",
    "extraction_timestamp": "2025-06-07T13:39:06.461Z",
    "source_name": "google",
    "source_query": "Irrigation Equipment",
    "source_country": "BG",
    "country": "Bulgaria",
    "state": "Montana Province",
    "city": "Obshtina Valchedram"
  },
  {
    "source_id": "ChIJcSdxQi4zqUARUAw16wYR8WM",
    "name": "Parapir Service",
    "category": "Parapir Service",
    "formatted_address": "4,9(26)",
    "phone_number": "+359884200900",
    "source_url": "https://www.google.com/maps/place/Parapir+Service/data=!4m7!3m6!1s0x40a9332e42712771:0x63f11106eb350c50!8m2!3d43.1960888!4d25.5596019!16s%2Fg%2F11glghnvft!19sChIJcSdxQi4zqUARUAw16wYR8WM?authuser=0&hl=tr&rclk=1",
    "website_url": "",
    "rating_text": "4,9",
    "stars": null,
    "number_of_reviews": null,
    "price_level": "",
    "open_hours": "",
    "extraction_timestamp": "2025-06-07T13:39:06.463Z",
    "source_name": "google",
    "source_query": "Irrigation Equipment",
    "source_country": "BG",
    "country": "Bulgaria",
    "state": "Montana Province",
    "city": "Obshtina Valchedram"
  },
  {
    "source_id": "ChIJf8gApA7RrBQRekeVZ78DiiQ",
    "name": "ИРРИДЕА",
    "category": "ИРРИДЕА",
    "formatted_address": "Çim Yağmurlama Sistemi Yüklenicisi · до хотел Чиирите, Околовръстен пъдKapalı ⋅ Açılış zamanı: Pzt 08:00 · +359 88 812 2324",
    "phone_number": "+359888122324",
    "source_url": "https://www.google.com/maps/place/%D0%98%D0%A0%D0%A0%D0%98%D0%94%D0%95%D0%90/data=!4m7!3m6!1s0x14acd10ea400c87f:0x248a03bf6795477a!8m2!3d42.114511!4d24.7326861!16s%2Fg%2F11fjvwmt83!19sChIJf8gApA7RrBQRekeVZ78DiiQ?authuser=0&hl=tr&rclk=1",
    "website_url": "",
    "rating_text": "",
    "stars": null,
    "number_of_reviews": null,
    "price_level": "",
    "open_hours": "",
    "extraction_timestamp": "2025-06-07T13:39:06.465Z",
    "source_name": "google",
    "source_query": "Irrigation Equipment",
    "source_country": "BG",
    "country": "Bulgaria",
    "state": "Montana Province",
    "city": "Obshtina Valchedram"
  }
]
