[
  {
    "source_id": "ChIJ94n8nPknq0AR-F7qYAJ0fzU",
    "name": "MAXBAU 01 LTD",
    "category": "MAXBAU 01 LTD",
    "formatted_address": "4,8(18)",
    "phone_number": "+359876790868",
    "source_url": "https://www.google.com/maps/place/MAXBAU+01+LTD/data=!4m7!3m6!1s0x40ab27f99cfc89f7:0x357f740260ea5ef8!8m2!3d43.2058093!4d23.2891441!16s%2Fg%2F11n_jcqxsx!19sChIJ94n8nPknq0AR-F7qYAJ0fzU?authuser=0&hl=tr&rclk=1",
    "website_url": "",
    "rating_text": "4,8",
    "stars": null,
    "number_of_reviews": null,
    "price_level": "",
    "open_hours": "",
    "extraction_timestamp": "2025-06-07T13:39:08.287Z",
    "source_name": "google",
    "source_query": "Irrigation Equipment",
    "source_country": "BG",
    "country": "Bulgaria",
    "state": "Montana Province",
    "city": "Obshtina Varshets"
  },
  {
    "source_id": "ChIJn24eTuYYq0ARVNV2aGxbi9A",
    "name": "Irrigation Systems",
    "category": "Irrigation Systems",
    "formatted_address": "2,0(3)",
    "phone_number": "+35992653044",
    "source_url": "https://www.google.com/maps/place/Irrigation+Systems/data=!4m7!3m6!1s0x40ab18e64e1e6e9f:0xd08b5b6c6876d554!8m2!3d43.208899!4d23.5464445!16s%2Fg%2F11gz6900p!19sChIJn24eTuYYq0ARVNV2aGxbi9A?authuser=0&hl=tr&rclk=1",
    "website_url": "",
    "rating_text": "2,0",
    "stars": null,
    "number_of_reviews": null,
    "price_level": "",
    "open_hours": "",
    "extraction_timestamp": "2025-06-07T13:39:08.290Z",
    "source_name": "google",
    "source_query": "Irrigation Equipment",
    "source_country": "BG",
    "country": "Bulgaria",
    "state": "Montana Province",
    "city": "Obshtina Varshets"
  },
  {
    "source_id": "ChIJvV8j0lkzq0ARzNtNq8Rrg78",
    "name": "Water Montana",
    "category": "Water Montana",
    "formatted_address": "3,0(64)",
    "phone_number": "+35996383255",
    "source_url": "https://www.google.com/maps/place/Water+Montana/data=!4m7!3m6!1s0x40ab3359d2235fbd:0xbf836bc4ab4ddbcc!8m2!3d43.4052359!4d23.2249879!16s%2Fg%2F11cm3qlq2m!19sChIJvV8j0lkzq0ARzNtNq8Rrg78?authuser=0&hl=tr&rclk=1",
    "website_url": "",
    "rating_text": "3,0",
    "stars": null,
    "number_of_reviews": null,
    "price_level": "",
    "open_hours": "",
    "extraction_timestamp": "2025-06-07T13:39:08.293Z",
    "source_name": "google",
    "source_query": "Irrigation Equipment",
    "source_country": "BG",
    "country": "Bulgaria",
    "state": "Montana Province",
    "city": "Obshtina Varshets"
  },
  {
    "source_id": "ChIJ-WIJDKM0q0ARpuapJwuD3OI",
    "name": "Полихрон ЕООД",
    "category": "Полихрон ЕООД",
    "formatted_address": "4,5(216)",
    "phone_number": "+35996300660",
    "source_url": "https://www.google.com/maps/place/%D0%9F%D0%BE%D0%BB%D0%B8%D1%85%D1%80%D0%BE%D0%BD+%D0%95%D0%9E%D0%9E%D0%94/data=!4m7!3m6!1s0x40ab34a30c0962f9:0xe2dc830b27a9e6a6!8m2!3d43.4118521!4d23.2389808!16s%2Fg%2F11c38dzs5q!19sChIJ-WIJDKM0q0ARpuapJwuD3OI?authuser=0&hl=tr&rclk=1",
    "website_url": "",
    "rating_text": "4,5",
    "stars": null,
    "number_of_reviews": null,
    "price_level": "",
    "open_hours": "",
    "extraction_timestamp": "2025-06-07T13:39:08.295Z",
    "source_name": "google",
    "source_query": "Irrigation Equipment",
    "source_country": "BG",
    "country": "Bulgaria",
    "state": "Montana Province",
    "city": "Obshtina Varshets"
  },
  {
    "source_id": "ChIJN8Nz0K00q0ARaaM_5LJ7SCU",
    "name": "BALKAN HYDRO",
    "category": "BALKAN HYDRO",
    "formatted_address": "5,0(1)",
    "phone_number": "+359878470190",
    "source_url": "https://www.google.com/maps/place/BALKAN+HYDRO/data=!4m7!3m6!1s0x40ab34add073c337:0x25487bb2e43fa369!8m2!3d43.4156257!4d23.224856!16s%2Fg%2F11c54gjlp0!19sChIJN8Nz0K00q0ARaaM_5LJ7SCU?authuser=0&hl=tr&rclk=1",
    "website_url": "",
    "rating_text": "5,0",
    "stars": null,
    "number_of_reviews": null,
    "price_level": "",
    "open_hours": "",
    "extraction_timestamp": "2025-06-07T13:39:08.297Z",
    "source_name": "google",
    "source_query": "Irrigation Equipment",
    "source_country": "BG",
    "country": "Bulgaria",
    "state": "Montana Province",
    "city": "Obshtina Varshets"
  },
  {
    "source_id": "ChIJSzvOEq00q0ARS-vKS_3WElE",
    "name": "Husqvarna Montana",
    "category": "Husqvarna Montana",
    "formatted_address": "4,5(22)",
    "phone_number": "+35996307310",
    "source_url": "https://www.google.com/maps/place/Husqvarna+Montana/data=!4m7!3m6!1s0x40ab34ad12ce3b4b:0x5112d6fd4bcaeb4b!8m2!3d43.4168575!4d23.2220052!16s%2Fg%2F11b776c355!19sChIJSzvOEq00q0ARS-vKS_3WElE?authuser=0&hl=tr&rclk=1",
    "website_url": "",
    "rating_text": "4,5",
    "stars": null,
    "number_of_reviews": null,
    "price_level": "",
    "open_hours": "",
    "extraction_timestamp": "2025-06-07T13:39:08.301Z",
    "source_name": "google",
    "source_query": "Irrigation Equipment",
    "source_country": "BG",
    "country": "Bulgaria",
    "state": "Montana Province",
    "city": "Obshtina Varshets"
  },
  {
    "source_id": "ChIJ-_jBsLgnq0ARgvK28ieHEv4",
    "name": "Sunny Garden Spa Hotel",
    "category": "Sunny Garden Spa Hotel",
    "formatted_address": "4,6(1.198)",
    "phone_number": "+35995272480",
    "source_url": "https://www.google.com/maps/place/Sunny+Garden+Spa+Hotel/data=!4m10!3m9!1s0x40ab27b8b0c1f8fb:0xfe128727f2b6f282!5m2!4m1!1i2!8m2!3d43.1919763!4d23.2858364!16s%2Fg%2F1tlczp4b!19sChIJ-_jBsLgnq0ARgvK28ieHEv4?authuser=0&hl=tr&rclk=1",
    "website_url": "",
    "rating_text": "4,6",
    "stars": null,
    "number_of_reviews": null,
    "price_level": "",
    "open_hours": "",
    "extraction_timestamp": "2025-06-07T13:39:08.305Z",
    "source_name": "google",
    "source_query": "Irrigation Equipment",
    "source_country": "BG",
    "country": "Bulgaria",
    "state": "Montana Province",
    "city": "Obshtina Varshets"
  },
  {
    "source_id": "ChIJU2IKXJsnq0AR7MZXDWBQwak",
    "name": "Водопад \"Райски кът\"",
    "category": "Водопад \"Райски кът\"",
    "formatted_address": "4,9(346)",
    "phone_number": "",
    "source_url": "https://www.google.com/maps/place/%D0%92%D0%BE%D0%B4%D0%BE%D0%BF%D0%B0%D0%B4+%22%D0%A0%D0%B0%D0%B9%D1%81%D0%BA%D0%B8+%D0%BA%D1%8A%D1%82%22/data=!4m7!3m6!1s0x40ab279b5c0a6253:0xa9c150600d57c6ec!8m2!3d43.1768259!4d23.2924446!16s%2Fg%2F11ckqs1h40!19sChIJU2IKXJsnq0AR7MZXDWBQwak?authuser=0&hl=tr&rclk=1",
    "website_url": "",
    "rating_text": "4,9",
    "stars": null,
    "number_of_reviews": null,
    "price_level": "",
    "open_hours": "",
    "extraction_timestamp": "2025-06-07T13:39:08.307Z",
    "source_name": "google",
    "source_query": "Irrigation Equipment",
    "source_country": "BG",
    "country": "Bulgaria",
    "state": "Montana Province",
    "city": "Obshtina Varshets"
  },
  {
    "source_id": "ChIJVbugZmc1q0ARSq9MmU6BDts",
    "name": "INGCO Bulgaria",
    "category": "INGCO Bulgaria",
    "formatted_address": "4,8(28)",
    "phone_number": "+359887399477",
    "source_url": "https://www.google.com/maps/place/INGCO+Bulgaria/data=!4m7!3m6!1s0x40ab356766a0bb55:0xdb0e814e994caf4a!8m2!3d43.413485!4d23.2277359!16s%2Fg%2F11j024g4c0!19sChIJVbugZmc1q0ARSq9MmU6BDts?authuser=0&hl=tr&rclk=1",
    "website_url": "",
    "rating_text": "4,8",
    "stars": null,
    "number_of_reviews": null,
    "price_level": "",
    "open_hours": "",
    "extraction_timestamp": "2025-06-07T13:39:08.310Z",
    "source_name": "google",
    "source_query": "Irrigation Equipment",
    "source_country": "BG",
    "country": "Bulgaria",
    "state": "Montana Province",
    "city": "Obshtina Varshets"
  },
  {
    "source_id": "ChIJKTKEMPUpq0ARsLUikjOQ9Rk",
    "name": "Козе ферма Каряна",
    "category": "Козе ферма Каряна",
    "formatted_address": "4,8(33)",
    "phone_number": "+359898777911",
    "source_url": "https://www.google.com/maps/place/%D0%9A%D0%BE%D0%B7%D0%B5+%D1%84%D0%B5%D1%80%D0%BC%D0%B0+%D0%9A%D0%B0%D1%80%D1%8F%D0%BD%D0%B0/data=!4m7!3m6!1s0x40ab29f530843229:0x19f590339222b5b0!8m2!3d43.2228648!4d23.1862097!16s%2Fg%2F11p0043zfs!19sChIJKTKEMPUpq0ARsLUikjOQ9Rk?authuser=0&hl=tr&rclk=1",
    "website_url": "",
    "rating_text": "4,8",
    "stars": null,
    "number_of_reviews": null,
    "price_level": "",
    "open_hours": "",
    "extraction_timestamp": "2025-06-07T13:39:08.313Z",
    "source_name": "google",
    "source_query": "Irrigation Equipment",
    "source_country": "BG",
    "country": "Bulgaria",
    "state": "Montana Province",
    "city": "Obshtina Varshets"
  },
  {
    "source_id": "ChIJkZ-7sKM0q0ARyy-yrPWamIo",
    "name": "ITT Bulgaria Ltd.",
    "category": "ITT Bulgaria Ltd.",
    "formatted_address": "4,4(29)",
    "phone_number": "+359887085441",
    "source_url": "https://www.google.com/maps/place/ITT+Bulgaria+Ltd./data=!4m7!3m6!1s0x40ab34a3b0bb9f91:0x8a989af5acb22fcb!8m2!3d43.4112024!4d23.238982!16s%2Fg%2F11cntm0m_0!19sChIJkZ-7sKM0q0ARyy-yrPWamIo?authuser=0&hl=tr&rclk=1",
    "website_url": "",
    "rating_text": "4,4",
    "stars": null,
    "number_of_reviews": null,
    "price_level": "",
    "open_hours": "",
    "extraction_timestamp": "2025-06-07T13:39:08.317Z",
    "source_name": "google",
    "source_query": "Irrigation Equipment",
    "source_country": "BG",
    "country": "Bulgaria",
    "state": "Montana Province",
    "city": "Obshtina Varshets"
  },
  {
    "source_id": "ChIJyzu8eKU0q0AR2qCLWlh0Z98",
    "name": "TOPLIVO - Warehouse Montana",
    "category": "TOPLIVO - Warehouse Montana",
    "formatted_address": "4,2(61)",
    "phone_number": "+359884704979",
    "source_url": "https://www.google.com/maps/place/TOPLIVO+-+Warehouse+Montana/data=!4m7!3m6!1s0x40ab34a578bc3bcb:0xdf6774585a8ba0da!8m2!3d43.4132357!4d23.2316827!16s%2Fg%2F11g8w7w_cv!19sChIJyzu8eKU0q0AR2qCLWlh0Z98?authuser=0&hl=tr&rclk=1",
    "website_url": "",
    "rating_text": "4,2",
    "stars": null,
    "number_of_reviews": null,
    "price_level": "",
    "open_hours": "",
    "extraction_timestamp": "2025-06-07T13:39:08.319Z",
    "source_name": "google",
    "source_query": "Irrigation Equipment",
    "source_country": "BG",
    "country": "Bulgaria",
    "state": "Montana Province",
    "city": "Obshtina Varshets"
  },
  {
    "source_id": "ChIJA44rhVgzq0ARW01lvFDI984",
    "name": "MTeh Ltd.",
    "category": "MTeh Ltd.",
    "formatted_address": "4,0(14)",
    "phone_number": "+359888615855",
    "source_url": "https://www.google.com/maps/place/MTeh+Ltd./data=!4m7!3m6!1s0x40ab3358852b8e03:0xcef7c850bc654d5b!8m2!3d43.4068687!4d23.2291732!16s%2Fg%2F11g71dy5hz!19sChIJA44rhVgzq0ARW01lvFDI984?authuser=0&hl=tr&rclk=1",
    "website_url": "",
    "rating_text": "4,0",
    "stars": null,
    "number_of_reviews": null,
    "price_level": "",
    "open_hours": "",
    "extraction_timestamp": "2025-06-07T13:39:08.321Z",
    "source_name": "google",
    "source_query": "Irrigation Equipment",
    "source_country": "BG",
    "country": "Bulgaria",
    "state": "Montana Province",
    "city": "Obshtina Varshets"
  },
  {
    "source_id": "ChIJqW-miF8nq0ARiUGZ5QojbHA",
    "name": "Радослав Ананиев ЕТ",
    "category": "Радослав Ананиев ЕТ",
    "formatted_address": "4,5(31)",
    "phone_number": "",
    "source_url": "https://www.google.com/maps/place/%D0%A0%D0%B0%D0%B4%D0%BE%D1%81%D0%BB%D0%B0%D0%B2+%D0%90%D0%BD%D0%B0%D0%BD%D0%B8%D0%B5%D0%B2+%D0%95%D0%A2/data=!4m7!3m6!1s0x40ab275f88a66fa9:0x706c230ae5994189!8m2!3d43.1957184!4d23.2837569!16s%2Fg%2F11gy9q2c6t!19sChIJqW-miF8nq0ARiUGZ5QojbHA?authuser=0&hl=tr&rclk=1",
    "website_url": "",
    "rating_text": "4,5",
    "stars": null,
    "number_of_reviews": null,
    "price_level": "",
    "open_hours": "",
    "extraction_timestamp": "2025-06-07T13:39:08.322Z",
    "source_name": "google",
    "source_query": "Irrigation Equipment",
    "source_country": "BG",
    "country": "Bulgaria",
    "state": "Montana Province",
    "city": "Obshtina Varshets"
  },
  {
    "source_id": "ChIJ3f4Nd2Izq0ARAcebBVgSZIM",
    "name": "МАР МАГ ИТИ ЕООД",
    "category": "МАР МАГ ИТИ ЕООД",
    "formatted_address": "4,4(108)",
    "phone_number": "+359888361362",
    "source_url": "https://www.google.com/maps/place/%D0%9C%D0%90%D0%A0+%D0%9C%D0%90%D0%93+%D0%98%D0%A2%D0%98+%D0%95%D0%9E%D0%9E%D0%94/data=!4m7!3m6!1s0x40ab3362770dfedd:0x83641258059bc701!8m2!3d43.403394!4d23.2464826!16s%2Fg%2F11cndbspq2!19sChIJ3f4Nd2Izq0ARAcebBVgSZIM?authuser=0&hl=tr&rclk=1",
    "website_url": "",
    "rating_text": "4,4",
    "stars": null,
    "number_of_reviews": null,
    "price_level": "",
    "open_hours": "",
    "extraction_timestamp": "2025-06-07T13:39:08.324Z",
    "source_name": "google",
    "source_query": "Irrigation Equipment",
    "source_country": "BG",
    "country": "Bulgaria",
    "state": "Montana Province",
    "city": "Obshtina Varshets"
  },
  {
    "source_id": "ChIJtWTqsFgzq0ARb9XfxPNSIDE",
    "name": "Gerak EOOD",
    "category": "Gerak EOOD",
    "formatted_address": "4,3(48)",
    "phone_number": "+35996307545",
    "source_url": "https://www.google.com/maps/place/Gerak+EOOD/data=!4m7!3m6!1s0x40ab3358b0ea64b5:0x312052f3c4dfd56f!8m2!3d43.4122165!4d23.2322721!16s%2Fg%2F113fbvsvs!19sChIJtWTqsFgzq0ARb9XfxPNSIDE?authuser=0&hl=tr&rclk=1",
    "website_url": "",
    "rating_text": "4,3",
    "stars": null,
    "number_of_reviews": null,
    "price_level": "",
    "open_hours": "",
    "extraction_timestamp": "2025-06-07T13:39:08.327Z",
    "source_name": "google",
    "source_query": "Irrigation Equipment",
    "source_country": "BG",
    "country": "Bulgaria",
    "state": "Montana Province",
    "city": "Obshtina Varshets"
  },
  {
    "source_id": "ChIJW_0-ylPLVEcRQYl2Tk9T318",
    "name": "Ionimont",
    "category": "Ionimont",
    "formatted_address": "4,4(140)",
    "phone_number": "+35996307095",
    "source_url": "https://www.google.com/maps/place/Ionimont/data=!4m7!3m6!1s0x4754cb53ca3efd5b:0x5fdf534f4e768941!8m2!3d43.4170995!4d23.2141449!16s%2Fg%2F11bwp1gmr1!19sChIJW_0-ylPLVEcRQYl2Tk9T318?authuser=0&hl=tr&rclk=1",
    "website_url": "",
    "rating_text": "4,4",
    "stars": null,
    "number_of_reviews": null,
    "price_level": "",
    "open_hours": "",
    "extraction_timestamp": "2025-06-07T13:39:08.328Z",
    "source_name": "google",
    "source_query": "Irrigation Equipment",
    "source_country": "BG",
    "country": "Bulgaria",
    "state": "Montana Province",
    "city": "Obshtina Varshets"
  },
  {
    "source_id": "ChIJS3zrbrQ0q0ARRzLrm0zyhWM",
    "name": "Technopolis Montana",
    "category": "Technopolis Montana",
    "formatted_address": "4,4(1.113)",
    "phone_number": "+35996390666",
    "source_url": "https://www.google.com/maps/place/Technopolis+Montana/data=!4m7!3m6!1s0x40ab34b46eeb7c4b:0x6385f24c9beb3247!8m2!3d43.4219989!4d23.2286186!16s%2Fg%2F1260j_x52!19sChIJS3zrbrQ0q0ARRzLrm0zyhWM?authuser=0&hl=tr&rclk=1",
    "website_url": "",
    "rating_text": "4,4",
    "stars": null,
    "number_of_reviews": null,
    "price_level": "",
    "open_hours": "",
    "extraction_timestamp": "2025-06-07T13:39:08.335Z",
    "source_name": "google",
    "source_query": "Irrigation Equipment",
    "source_country": "BG",
    "country": "Bulgaria",
    "state": "Montana Province",
    "city": "Obshtina Varshets"
  },
  {
    "source_id": "ChIJNxv9Glwnq0ARNJHz8BqcLYM",
    "name": "Varshets",
    "category": "Varshets",
    "formatted_address": "4,3(30)",
    "phone_number": "",
    "source_url": "https://www.google.com/maps/place/Varshets/data=!4m7!3m6!1s0x40ab275c1afd1b37:0x832d9c1af0f39134!8m2!3d43.1938764!4d23.2865813!16s%2Fg%2F11vbq2xhql!19sChIJNxv9Glwnq0ARNJHz8BqcLYM?authuser=0&hl=tr&rclk=1",
    "website_url": "",
    "rating_text": "4,3",
    "stars": null,
    "number_of_reviews": null,
    "price_level": "",
    "open_hours": "",
    "extraction_timestamp": "2025-06-07T13:39:08.337Z",
    "source_name": "google",
    "source_query": "Irrigation Equipment",
    "source_country": "BG",
    "country": "Bulgaria",
    "state": "Montana Province",
    "city": "Obshtina Varshets"
  },
  {
    "source_id": "ChIJn6KBuFoZq0ARnppIwt9eoQ4",
    "name": "Нелбо АД гр. Враца",
    "category": "Нелбо АД гр. Враца",
    "formatted_address": "4,8(25)",
    "phone_number": "+359882925832",
    "source_url": "https://www.google.com/maps/place/%D0%9D%D0%B5%D0%BB%D0%B1%D0%BE+%D0%90%D0%94+%D0%B3%D1%80.+%D0%92%D1%80%D0%B0%D1%86%D0%B0/data=!4m7!3m6!1s0x40ab195ab881a29f:0xea15edfc2489a9e!8m2!3d43.2035763!4d23.5550292!16s%2Fg%2F11pylk4bwc!19sChIJn6KBuFoZq0ARnppIwt9eoQ4?authuser=0&hl=tr&rclk=1",
    "website_url": "",
    "rating_text": "4,8",
    "stars": null,
    "number_of_reviews": null,
    "price_level": "",
    "open_hours": "",
    "extraction_timestamp": "2025-06-07T13:39:08.338Z",
    "source_name": "google",
    "source_query": "Irrigation Equipment",
    "source_country": "BG",
    "country": "Bulgaria",
    "state": "Montana Province",
    "city": "Obshtina Varshets"
  }
]
