[
  {
    "source_id": "ChIJSzvOEq00q0ARS-vKS_3WElE",
    "name": "Husqvarna Montana",
    "category": "Husqvarna Montana",
    "formatted_address": "4,5(22)",
    "phone_number": "+35996307310",
    "source_url": "https://www.google.com/maps/place/Husqvarna+Montana/data=!4m7!3m6!1s0x40ab34ad12ce3b4b:0x5112d6fd4bcaeb4b!8m2!3d43.4168575!4d23.2220052!16s%2Fg%2F11b776c355!19sChIJSzvOEq00q0ARS-vKS_3WElE?authuser=0&hl=tr&rclk=1",
    "website_url": "",
    "rating_text": "4,5",
    "stars": null,
    "number_of_reviews": null,
    "price_level": "",
    "open_hours": "",
    "extraction_timestamp": "2025-06-07T13:39:02.197Z",
    "source_name": "google",
    "source_query": "Irrigation Equipment",
    "source_country": "BG",
    "country": "Bulgaria",
    "state": "Montana Province",
    "city": "Obshtina Montana"
  },
  {
    "source_id": "ChIJ-WIJDKM0q0ARpuapJwuD3OI",
    "name": "Полихрон ЕООД",
    "category": "Полихрон ЕООД",
    "formatted_address": "4,5(216)",
    "phone_number": "+35996300660",
    "source_url": "https://www.google.com/maps/place/%D0%9F%D0%BE%D0%BB%D0%B8%D1%85%D1%80%D0%BE%D0%BD+%D0%95%D0%9E%D0%9E%D0%94/data=!4m7!3m6!1s0x40ab34a30c0962f9:0xe2dc830b27a9e6a6!8m2!3d43.4118521!4d23.2389808!16s%2Fg%2F11c38dzs5q!19sChIJ-WIJDKM0q0ARpuapJwuD3OI?authuser=0&hl=tr&rclk=1",
    "website_url": "",
    "rating_text": "4,5",
    "stars": null,
    "number_of_reviews": null,
    "price_level": "",
    "open_hours": "",
    "extraction_timestamp": "2025-06-07T13:39:02.200Z",
    "source_name": "google",
    "source_query": "Irrigation Equipment",
    "source_country": "BG",
    "country": "Bulgaria",
    "state": "Montana Province",
    "city": "Obshtina Montana"
  },
  {
    "source_id": "ChIJyzu8eKU0q0AR2qCLWlh0Z98",
    "name": "TOPLIVO - Warehouse Montana",
    "category": "TOPLIVO - Warehouse Montana",
    "formatted_address": "4,2(61)",
    "phone_number": "+359884704979",
    "source_url": "https://www.google.com/maps/place/TOPLIVO+-+Warehouse+Montana/data=!4m7!3m6!1s0x40ab34a578bc3bcb:0xdf6774585a8ba0da!8m2!3d43.4132357!4d23.2316827!16s%2Fg%2F11g8w7w_cv!19sChIJyzu8eKU0q0AR2qCLWlh0Z98?authuser=0&hl=tr&rclk=1",
    "website_url": "",
    "rating_text": "4,2",
    "stars": null,
    "number_of_reviews": null,
    "price_level": "",
    "open_hours": "",
    "extraction_timestamp": "2025-06-07T13:39:02.202Z",
    "source_name": "google",
    "source_query": "Irrigation Equipment",
    "source_country": "BG",
    "country": "Bulgaria",
    "state": "Montana Province",
    "city": "Obshtina Montana"
  },
  {
    "source_id": "ChIJS3zrbrQ0q0ARRzLrm0zyhWM",
    "name": "Technopolis Montana",
    "category": "Technopolis Montana",
    "formatted_address": "4,4(1.113)",
    "phone_number": "+35996390666",
    "source_url": "https://www.google.com/maps/place/Technopolis+Montana/data=!4m7!3m6!1s0x40ab34b46eeb7c4b:0x6385f24c9beb3247!8m2!3d43.4219989!4d23.2286186!16s%2Fg%2F1260j_x52!19sChIJS3zrbrQ0q0ARRzLrm0zyhWM?authuser=0&hl=tr&rclk=1",
    "website_url": "",
    "rating_text": "4,4",
    "stars": null,
    "number_of_reviews": null,
    "price_level": "",
    "open_hours": "",
    "extraction_timestamp": "2025-06-07T13:39:02.206Z",
    "source_name": "google",
    "source_query": "Irrigation Equipment",
    "source_country": "BG",
    "country": "Bulgaria",
    "state": "Montana Province",
    "city": "Obshtina Montana"
  },
  {
    "source_id": "ChIJ3f4Nd2Izq0ARAcebBVgSZIM",
    "name": "МАР МАГ ИТИ ЕООД",
    "category": "МАР МАГ ИТИ ЕООД",
    "formatted_address": "4,4(108)",
    "phone_number": "+359888361362",
    "source_url": "https://www.google.com/maps/place/%D0%9C%D0%90%D0%A0+%D0%9C%D0%90%D0%93+%D0%98%D0%A2%D0%98+%D0%95%D0%9E%D0%9E%D0%94/data=!4m7!3m6!1s0x40ab3362770dfedd:0x83641258059bc701!8m2!3d43.403394!4d23.2464826!16s%2Fg%2F11cndbspq2!19sChIJ3f4Nd2Izq0ARAcebBVgSZIM?authuser=0&hl=tr&rclk=1",
    "website_url": "",
    "rating_text": "4,4",
    "stars": null,
    "number_of_reviews": null,
    "price_level": "",
    "open_hours": "",
    "extraction_timestamp": "2025-06-07T13:39:02.208Z",
    "source_name": "google",
    "source_query": "Irrigation Equipment",
    "source_country": "BG",
    "country": "Bulgaria",
    "state": "Montana Province",
    "city": "Obshtina Montana"
  },
  {
    "source_id": "ChIJVbugZmc1q0ARSq9MmU6BDts",
    "name": "INGCO Bulgaria",
    "category": "INGCO Bulgaria",
    "formatted_address": "4,8(28)",
    "phone_number": "+359887399477",
    "source_url": "https://www.google.com/maps/place/INGCO+Bulgaria/data=!4m7!3m6!1s0x40ab356766a0bb55:0xdb0e814e994caf4a!8m2!3d43.413485!4d23.2277359!16s%2Fg%2F11j024g4c0!19sChIJVbugZmc1q0ARSq9MmU6BDts?authuser=0&hl=tr&rclk=1",
    "website_url": "",
    "rating_text": "4,8",
    "stars": null,
    "number_of_reviews": null,
    "price_level": "",
    "open_hours": "",
    "extraction_timestamp": "2025-06-07T13:39:02.209Z",
    "source_name": "google",
    "source_query": "Irrigation Equipment",
    "source_country": "BG",
    "country": "Bulgaria",
    "state": "Montana Province",
    "city": "Obshtina Montana"
  },
  {
    "source_id": "ChIJCTN80p80q0ARG0vPs57mgHk",
    "name": "TeMax Montana",
    "category": "TeMax Montana",
    "formatted_address": "4,1(996)",
    "phone_number": "+35996300058",
    "source_url": "https://www.google.com/maps/place/TeMax+Montana/data=!4m7!3m6!1s0x40ab349fd27c3309:0x7980e69eb3cf4b1b!8m2!3d43.4049858!4d23.241104!16s%2Fg%2F11f4m59y2h!19sChIJCTN80p80q0ARG0vPs57mgHk?authuser=0&hl=tr&rclk=1",
    "website_url": "",
    "rating_text": "4,1",
    "stars": null,
    "number_of_reviews": null,
    "price_level": "",
    "open_hours": "",
    "extraction_timestamp": "2025-06-07T13:39:02.211Z",
    "source_name": "google",
    "source_query": "Irrigation Equipment",
    "source_country": "BG",
    "country": "Bulgaria",
    "state": "Montana Province",
    "city": "Obshtina Montana"
  },
  {
    "source_id": "ChIJW_0-ylPLVEcRQYl2Tk9T318",
    "name": "Ionimont",
    "category": "Ionimont",
    "formatted_address": "4,4(140)",
    "phone_number": "+35996307095",
    "source_url": "https://www.google.com/maps/place/Ionimont/data=!4m7!3m6!1s0x4754cb53ca3efd5b:0x5fdf534f4e768941!8m2!3d43.4170995!4d23.2141449!16s%2Fg%2F11bwp1gmr1!19sChIJW_0-ylPLVEcRQYl2Tk9T318?authuser=0&hl=tr&rclk=1",
    "website_url": "",
    "rating_text": "4,4",
    "stars": null,
    "number_of_reviews": null,
    "price_level": "",
    "open_hours": "",
    "extraction_timestamp": "2025-06-07T13:39:02.212Z",
    "source_name": "google",
    "source_query": "Irrigation Equipment",
    "source_country": "BG",
    "country": "Bulgaria",
    "state": "Montana Province",
    "city": "Obshtina Montana"
  },
  {
    "source_id": "ChIJc_W_DqQ0q0ARFykReo0aORM",
    "name": "АСМ ЕООД",
    "category": "АСМ ЕООД",
    "formatted_address": "4,4(84)",
    "phone_number": "+35996391515",
    "source_url": "https://www.google.com/maps/place/%D0%90%D0%A1%D0%9C+%D0%95%D0%9E%D0%9E%D0%94/data=!4m7!3m6!1s0x40ab34a40ebff573:0x13391a8d7a112917!8m2!3d43.4104186!4d23.2354777!16s%2Fg%2F11c31sk6v6!19sChIJc_W_DqQ0q0ARFykReo0aORM?authuser=0&hl=tr&rclk=1",
    "website_url": "",
    "rating_text": "4,4",
    "stars": null,
    "number_of_reviews": null,
    "price_level": "",
    "open_hours": "",
    "extraction_timestamp": "2025-06-07T13:39:02.213Z",
    "source_name": "google",
    "source_query": "Irrigation Equipment",
    "source_country": "BG",
    "country": "Bulgaria",
    "state": "Montana Province",
    "city": "Obshtina Montana"
  },
  {
    "source_id": "ChIJtWTqsFgzq0ARb9XfxPNSIDE",
    "name": "Gerak EOOD",
    "category": "Gerak EOOD",
    "formatted_address": "4,3(48)",
    "phone_number": "+35996307545",
    "source_url": "https://www.google.com/maps/place/Gerak+EOOD/data=!4m7!3m6!1s0x40ab3358b0ea64b5:0x312052f3c4dfd56f!8m2!3d43.4122165!4d23.2322721!16s%2Fg%2F113fbvsvs!19sChIJtWTqsFgzq0ARb9XfxPNSIDE?authuser=0&hl=tr&rclk=1",
    "website_url": "",
    "rating_text": "4,3",
    "stars": null,
    "number_of_reviews": null,
    "price_level": "",
    "open_hours": "",
    "extraction_timestamp": "2025-06-07T13:39:02.215Z",
    "source_name": "google",
    "source_query": "Irrigation Equipment",
    "source_country": "BG",
    "country": "Bulgaria",
    "state": "Montana Province",
    "city": "Obshtina Montana"
  },
  {
    "source_id": "ChIJN8Nz0K00q0ARaaM_5LJ7SCU",
    "name": "BALKAN HYDRO",
    "category": "BALKAN HYDRO",
    "formatted_address": "5,0(1)",
    "phone_number": "+359878470190",
    "source_url": "https://www.google.com/maps/place/BALKAN+HYDRO/data=!4m7!3m6!1s0x40ab34add073c337:0x25487bb2e43fa369!8m2!3d43.4156257!4d23.224856!16s%2Fg%2F11c54gjlp0!19sChIJN8Nz0K00q0ARaaM_5LJ7SCU?authuser=0&hl=tr&rclk=1",
    "website_url": "",
    "rating_text": "5,0",
    "stars": null,
    "number_of_reviews": null,
    "price_level": "",
    "open_hours": "",
    "extraction_timestamp": "2025-06-07T13:39:02.217Z",
    "source_name": "google",
    "source_query": "Irrigation Equipment",
    "source_country": "BG",
    "country": "Bulgaria",
    "state": "Montana Province",
    "city": "Obshtina Montana"
  }
]
