[
  {
    "source_id": "ChIJx-GLLKyrVEcR1CGAU30EYVw",
    "name": "Железария , Строителни материали",
    "category": "Железария , Строителни материали",
    "formatted_address": "Железария , Строителни материали",
    "phone_number": "+359896812156",
    "source_url": "https://www.google.com/maps/place/%D0%96%D0%B5%D0%BB%D0%B5%D0%B7%D0%B0%D1%80%D0%B8%D1%8F+,+%D0%A1%D1%82%D1%80%D0%BE%D0%B8%D1%82%D0%B5%D0%BB%D0%BD%D0%B8+%D0%BC%D0%B0%D1%82%D0%B5%D1%80%D0%B8%D0%B0%D0%BB%D0%B8/data=!4m7!3m6!1s0x4754abac2c8be1c7:0x5c61047d538021d4!8m2!3d43.6943038!4d23.4451122!16s%2Fg%2F11fjxxfgjz!19sChIJx-GLLKyrVEcR1CGAU30EYVw?authuser=0&hl=tr&rclk=1",
    "website_url": "",
    "rating_text": "4,6",
    "stars": null,
    "number_of_reviews": null,
    "price_level": "",
    "open_hours": "",
    "extraction_timestamp": "2025-06-07T13:39:38.977Z",
    "source_name": "google",
    "source_query": "Irrigation Equipment",
    "source_country": "BG",
    "country": "Bulgaria",
    "state": "Montana Province",
    "city": "Obshtina Yakimovo"
  },
  {
    "source_id": "ChIJ-WIJDKM0q0ARpuapJwuD3OI",
    "name": "Полихрон ЕООД",
    "category": "Полихрон ЕООД",
    "formatted_address": "4,5(216)",
    "phone_number": "+35996300660",
    "source_url": "https://www.google.com/maps/place/%D0%9F%D0%BE%D0%BB%D0%B8%D1%85%D1%80%D0%BE%D0%BD+%D0%95%D0%9E%D0%9E%D0%94/data=!4m7!3m6!1s0x40ab34a30c0962f9:0xe2dc830b27a9e6a6!8m2!3d43.4118521!4d23.2389808!16s%2Fg%2F11c38dzs5q!19sChIJ-WIJDKM0q0ARpuapJwuD3OI?authuser=0&hl=tr&rclk=1",
    "website_url": "http://polihron.bg/",
    "rating_text": "4,5",
    "stars": null,
    "number_of_reviews": null,
    "price_level": "",
    "open_hours": "",
    "extraction_timestamp": "2025-06-07T13:39:38.978Z",
    "source_name": "google",
    "source_query": "Irrigation Equipment",
    "source_country": "BG",
    "country": "Bulgaria",
    "state": "Montana Province",
    "city": "Obshtina Yakimovo"
  },
  {
    "source_id": "ChIJVbugZmc1q0ARSq9MmU6BDts",
    "name": "INGCO Bulgaria",
    "category": "INGCO Bulgaria",
    "formatted_address": "4,8(28)",
    "phone_number": "+359887399477",
    "source_url": "https://www.google.com/maps/place/INGCO+Bulgaria/data=!4m7!3m6!1s0x40ab356766a0bb55:0xdb0e814e994caf4a!8m2!3d43.413485!4d23.2277359!16s%2Fg%2F11j024g4c0!19sChIJVbugZmc1q0ARSq9MmU6BDts?authuser=0&hl=tr&rclk=1",
    "website_url": "http://www.ingco.bg/",
    "rating_text": "4,8",
    "stars": null,
    "number_of_reviews": null,
    "price_level": "",
    "open_hours": "",
    "extraction_timestamp": "2025-06-07T13:39:38.978Z",
    "source_name": "google",
    "source_query": "Irrigation Equipment",
    "source_country": "BG",
    "country": "Bulgaria",
    "state": "Montana Province",
    "city": "Obshtina Yakimovo"
  },
  {
    "source_id": "ChIJHd8apBhLq0AReFZKCeAdCNQ",
    "name": "Агро КГ",
    "category": "Агро КГ",
    "formatted_address": "4,6(16)",
    "phone_number": "+359885357239",
    "source_url": "https://www.google.com/maps/place/%D0%90%D0%B3%D1%80%D0%BE+%D0%9A%D0%93/data=!4m7!3m6!1s0x40ab4b18a41adf1d:0xd4081de0094a5678!8m2!3d43.4703201!4d23.3349974!16s%2Fg%2F11h6xdvd5n!19sChIJHd8apBhLq0AReFZKCeAdCNQ?authuser=0&hl=tr&rclk=1",
    "website_url": "http://agrokg.bg/",
    "rating_text": "4,6",
    "stars": null,
    "number_of_reviews": null,
    "price_level": "",
    "open_hours": "",
    "extraction_timestamp": "2025-06-07T13:39:38.979Z",
    "source_name": "google",
    "source_query": "Irrigation Equipment",
    "source_country": "BG",
    "country": "Bulgaria",
    "state": "Montana Province",
    "city": "Obshtina Yakimovo"
  },
  {
    "source_id": "ChIJW_0-ylPLVEcRQYl2Tk9T318",
    "name": "Ionimont",
    "category": "Ionimont",
    "formatted_address": "4,4(140)",
    "phone_number": "+35996307095",
    "source_url": "https://www.google.com/maps/place/Ionimont/data=!4m7!3m6!1s0x4754cb53ca3efd5b:0x5fdf534f4e768941!8m2!3d43.4170995!4d23.2141449!16s%2Fg%2F11bwp1gmr1!19sChIJW_0-ylPLVEcRQYl2Tk9T318?authuser=0&hl=tr&rclk=1",
    "website_url": "",
    "rating_text": "4,4",
    "stars": null,
    "number_of_reviews": null,
    "price_level": "",
    "open_hours": "",
    "extraction_timestamp": "2025-06-07T13:39:38.979Z",
    "source_name": "google",
    "source_query": "Irrigation Equipment",
    "source_country": "BG",
    "country": "Bulgaria",
    "state": "Montana Province",
    "city": "Obshtina Yakimovo"
  },
  {
    "source_id": "ChIJJfBibcetVEcRP79Hg-_Rvv0",
    "name": "Магазин Якимово",
    "category": "Магазин Якимово",
    "formatted_address": "4,5(29)",
    "phone_number": "",
    "source_url": "https://www.google.com/maps/place/%D0%9C%D0%B0%D0%B3%D0%B0%D0%B7%D0%B8%D0%BD+%D0%AF%D0%BA%D0%B8%D0%BC%D0%BE%D0%B2%D0%BE/data=!4m7!3m6!1s0x4754adc76d62f025:0xfdbed1ef8347bf3f!8m2!3d43.6351781!4d23.3470289!16s%2Fg%2F11rb49jcb1!19sChIJJfBibcetVEcRP79Hg-_Rvv0?authuser=0&hl=tr&rclk=1",
    "website_url": "",
    "rating_text": "4,5",
    "stars": null,
    "number_of_reviews": null,
    "price_level": "",
    "open_hours": "",
    "extraction_timestamp": "2025-06-07T13:39:38.980Z",
    "source_name": "google",
    "source_query": "Irrigation Equipment",
    "source_country": "BG",
    "country": "Bulgaria",
    "state": "Montana Province",
    "city": "Obshtina Yakimovo"
  },
  {
    "source_id": "ChIJceqv6MuEqkAR45AXk38sGOE",
    "name": "Irrigation Systems",
    "category": "Irrigation Systems",
    "formatted_address": "4,4(10)",
    "phone_number": "+35928085001",
    "source_url": "https://www.google.com/maps/place/Irrigation+Systems/data=!4m7!3m6!1s0x40aa84cbe8afea71:0xe1182c7f931790e3!8m2!3d42.6700035!4d23.2681798!16s%2Fg%2F1thtbmsl!19sChIJceqv6MuEqkAR45AXk38sGOE?authuser=0&hl=tr&rclk=1",
    "website_url": "https://nps.bg/",
    "rating_text": "4,4",
    "stars": null,
    "number_of_reviews": null,
    "price_level": "",
    "open_hours": "",
    "extraction_timestamp": "2025-06-07T13:39:38.980Z",
    "source_name": "google",
    "source_query": "Irrigation Equipment",
    "source_country": "BG",
    "country": "Bulgaria",
    "state": "Montana Province",
    "city": "Obshtina Yakimovo"
  },
  {
    "source_id": "ChIJyzu8eKU0q0AR2qCLWlh0Z98",
    "name": "TOPLIVO - Warehouse Montana",
    "category": "TOPLIVO - Warehouse Montana",
    "formatted_address": "4,2(61)",
    "phone_number": "+359884704979",
    "source_url": "https://www.google.com/maps/place/TOPLIVO+-+Warehouse+Montana/data=!4m7!3m6!1s0x40ab34a578bc3bcb:0xdf6774585a8ba0da!8m2!3d43.4132357!4d23.2316827!16s%2Fg%2F11g8w7w_cv!19sChIJyzu8eKU0q0AR2qCLWlh0Z98?authuser=0&hl=tr&rclk=1",
    "website_url": "http://toplivo.bg/",
    "rating_text": "4,2",
    "stars": null,
    "number_of_reviews": null,
    "price_level": "",
    "open_hours": "",
    "extraction_timestamp": "2025-06-07T13:39:38.981Z",
    "source_name": "google",
    "source_query": "Irrigation Equipment",
    "source_country": "BG",
    "country": "Bulgaria",
    "state": "Montana Province",
    "city": "Obshtina Yakimovo"
  },
  {
    "source_id": "ChIJsenBUM6tVEcR5imiPp5O6N4",
    "name": "При Ирена",
    "category": "При Ирена",
    "formatted_address": "5,0(12)",
    "phone_number": "+359896294801",
    "source_url": "https://www.google.com/maps/place/%D0%9F%D1%80%D0%B8+%D0%98%D1%80%D0%B5%D0%BD%D0%B0/data=!4m7!3m6!1s0x4754adce50c1e9b1:0xdee84e9e3ea229e6!8m2!3d43.6348374!4d23.35218!16s%2Fg%2F11t2sj_5bw!19sChIJsenBUM6tVEcR5imiPp5O6N4?authuser=0&hl=tr&rclk=1",
    "website_url": "",
    "rating_text": "5,0",
    "stars": null,
    "number_of_reviews": null,
    "price_level": "",
    "open_hours": "",
    "extraction_timestamp": "2025-06-07T13:39:38.981Z",
    "source_name": "google",
    "source_query": "Irrigation Equipment",
    "source_country": "BG",
    "country": "Bulgaria",
    "state": "Montana Province",
    "city": "Obshtina Yakimovo"
  },
  {
    "source_id": "ChIJtWTqsFgzq0ARb9XfxPNSIDE",
    "name": "Gerak EOOD",
    "category": "Gerak EOOD",
    "formatted_address": "4,3(48)",
    "phone_number": "+35996307545",
    "source_url": "https://www.google.com/maps/place/Gerak+EOOD/data=!4m7!3m6!1s0x40ab3358b0ea64b5:0x312052f3c4dfd56f!8m2!3d43.4122165!4d23.2322721!16s%2Fg%2F113fbvsvs!19sChIJtWTqsFgzq0ARb9XfxPNSIDE?authuser=0&hl=tr&rclk=1",
    "website_url": "http://gerak.bg/",
    "rating_text": "4,3",
    "stars": null,
    "number_of_reviews": null,
    "price_level": "",
    "open_hours": "",
    "extraction_timestamp": "2025-06-07T13:39:38.982Z",
    "source_name": "google",
    "source_query": "Irrigation Equipment",
    "source_country": "BG",
    "country": "Bulgaria",
    "state": "Montana Province",
    "city": "Obshtina Yakimovo"
  },
  {
    "source_id": "ChIJkZ-7sKM0q0ARyy-yrPWamIo",
    "name": "ITT Bulgaria Ltd.",
    "category": "ITT Bulgaria Ltd.",
    "formatted_address": "4,4(29)",
    "phone_number": "+359887085441",
    "source_url": "https://www.google.com/maps/place/ITT+Bulgaria+Ltd./data=!4m7!3m6!1s0x40ab34a3b0bb9f91:0x8a989af5acb22fcb!8m2!3d43.4112024!4d23.238982!16s%2Fg%2F11cntm0m_0!19sChIJkZ-7sKM0q0ARyy-yrPWamIo?authuser=0&hl=tr&rclk=1",
    "website_url": "http://itt.bg/bg/",
    "rating_text": "4,4",
    "stars": null,
    "number_of_reviews": null,
    "price_level": "",
    "open_hours": "",
    "extraction_timestamp": "2025-06-07T13:39:38.983Z",
    "source_name": "google",
    "source_query": "Irrigation Equipment",
    "source_country": "BG",
    "country": "Bulgaria",
    "state": "Montana Province",
    "city": "Obshtina Yakimovo"
  },
  {
    "source_id": "ChIJxTmqiFgzq0ARbeJzNtjWAvM",
    "name": "Plama Trading Ltd. - Hardware",
    "category": "Plama Trading Ltd. - Hardware",
    "formatted_address": "4,0(21)",
    "phone_number": "+359888887674",
    "source_url": "https://www.google.com/maps/place/Plama+Trading+Ltd.+-+Hardware/data=!4m7!3m6!1s0x40ab335888aa39c5:0xf302d6d83673e26d!8m2!3d43.4043399!4d23.2266636!16s%2Fg%2F11c70j9k09!19sChIJxTmqiFgzq0ARbeJzNtjWAvM?authuser=0&hl=tr&rclk=1",
    "website_url": "",
    "rating_text": "4,0",
    "stars": null,
    "number_of_reviews": null,
    "price_level": "",
    "open_hours": "",
    "extraction_timestamp": "2025-06-07T13:39:38.983Z",
    "source_name": "google",
    "source_query": "Irrigation Equipment",
    "source_country": "BG",
    "country": "Bulgaria",
    "state": "Montana Province",
    "city": "Obshtina Yakimovo"
  },
  {
    "source_id": "ChIJKTKEMPUpq0ARsLUikjOQ9Rk",
    "name": "Козе ферма Каряна",
    "category": "Козе ферма Каряна",
    "formatted_address": "4,8(33)",
    "phone_number": "+359898777911",
    "source_url": "https://www.google.com/maps/place/%D0%9A%D0%BE%D0%B7%D0%B5+%D1%84%D0%B5%D1%80%D0%BC%D0%B0+%D0%9A%D0%B0%D1%80%D1%8F%D0%BD%D0%B0/data=!4m7!3m6!1s0x40ab29f530843229:0x19f590339222b5b0!8m2!3d43.2228648!4d23.1862097!16s%2Fg%2F11p0043zfs!19sChIJKTKEMPUpq0ARsLUikjOQ9Rk?authuser=0&hl=tr&rclk=1",
    "website_url": "http://facebook.com/%D0%92%D1%81%D0%B8%D1%87%D0%BA%D0%BE-%D0%BE%D1%82-%D0%9A%D0%BE%D0%B7%D0%B5-%D0%BC%D0%BB%D1%8F%D0%BA%D0%BE-%D0%9A%D0%BE%D0%B7%D0%B5%D1%84%D0%B5%D1%80%D0%BC%D0%B0-%D0%9A%D0%B0%D1%80%D1%8F%D0%BD%D0%B0-125489031347578/",
    "rating_text": "4,8",
    "stars": null,
    "number_of_reviews": null,
    "price_level": "",
    "open_hours": "",
    "extraction_timestamp": "2025-06-07T13:39:38.984Z",
    "source_name": "google",
    "source_query": "Irrigation Equipment",
    "source_country": "BG",
    "country": "Bulgaria",
    "state": "Montana Province",
    "city": "Obshtina Yakimovo"
  },
  {
    "source_id": "ChIJIerRQAZXU0cRwrUBqK9UuM8",
    "name": "Моят магазин",
    "category": "Моят магазин",
    "formatted_address": "4,3(89)",
    "phone_number": "",
    "source_url": "https://www.google.com/maps/place/%D0%9C%D0%BE%D1%8F%D1%82+%D0%BC%D0%B0%D0%B3%D0%B0%D0%B7%D0%B8%D0%BD/data=!4m7!3m6!1s0x4753570640d1ea21:0xcfb854afa801b5c2!8m2!3d43.8006058!4d23.3638624!16s%2Fg%2F11dfqy_m9w!19sChIJIerRQAZXU0cRwrUBqK9UuM8?authuser=0&hl=tr&rclk=1",
    "website_url": "",
    "rating_text": "4,3",
    "stars": null,
    "number_of_reviews": null,
    "price_level": "",
    "open_hours": "",
    "extraction_timestamp": "2025-06-07T13:39:38.984Z",
    "source_name": "google",
    "source_query": "Irrigation Equipment",
    "source_country": "BG",
    "country": "Bulgaria",
    "state": "Montana Province",
    "city": "Obshtina Yakimovo"
  },
  {
    "source_id": "ChIJPyD78edXU0cR3wIxigcnTZI",
    "name": "ЖЕЛЕЗАРИЯ",
    "category": "ЖЕЛЕЗАРИЯ",
    "formatted_address": "1,0(1)",
    "phone_number": "+359878869598",
    "source_url": "https://www.google.com/maps/place/%D0%96%D0%95%D0%9B%D0%95%D0%97%D0%90%D0%A0%D0%98%D0%AF/data=!4m7!3m6!1s0x475357e7f1fb203f:0x924d27078a3102df!8m2!3d43.8015549!4d23.3548457!16s%2Fg%2F11vzxr2vj0!19sChIJPyD78edXU0cR3wIxigcnTZI?authuser=0&hl=tr&rclk=1",
    "website_url": "https://climaseverozapad.bg/",
    "rating_text": "1,0",
    "stars": null,
    "number_of_reviews": null,
    "price_level": "",
    "open_hours": "",
    "extraction_timestamp": "2025-06-07T13:39:38.984Z",
    "source_name": "google",
    "source_query": "Irrigation Equipment",
    "source_country": "BG",
    "country": "Bulgaria",
    "state": "Montana Province",
    "city": "Obshtina Yakimovo"
  }
]
