[
  {
    "source_id": "ChIJ-WIJDKM0q0ARpuapJwuD3OI",
    "name": "Полихрон ЕООД",
    "category": "Полихрон ЕООД",
    "formatted_address": "4,5(216)",
    "phone_number": "+35996300660",
    "source_url": "https://www.google.com/maps/place/%D0%9F%D0%BE%D0%BB%D0%B8%D1%85%D1%80%D0%BE%D0%BD+%D0%95%D0%9E%D0%9E%D0%94/data=!4m7!3m6!1s0x40ab34a30c0962f9:0xe2dc830b27a9e6a6!8m2!3d43.4118521!4d23.2389808!16s%2Fg%2F11c38dzs5q!19sChIJ-WIJDKM0q0ARpuapJwuD3OI?authuser=0&hl=tr&rclk=1",
    "website_url": "http://polihron.bg/",
    "rating_text": "4,5",
    "stars": null,
    "number_of_reviews": null,
    "price_level": "",
    "open_hours": "",
    "extraction_timestamp": "2025-06-07T13:39:35.118Z",
    "source_name": "google",
    "source_query": "Irrigation Equipment",
    "source_country": "BG",
    "country": "Bulgaria",
    "state": "Montana Province",
    "city": "Obshtina Chiprovtsi"
  },
  {
    "source_id": "ChIJceqv6MuEqkAR45AXk38sGOE",
    "name": "Irrigation Systems",
    "category": "Irrigation Systems",
    "formatted_address": "4,4(10)",
    "phone_number": "+35928085001",
    "source_url": "https://www.google.com/maps/place/Irrigation+Systems/data=!4m7!3m6!1s0x40aa84cbe8afea71:0xe1182c7f931790e3!8m2!3d42.6700035!4d23.2681798!16s%2Fg%2F1thtbmsl!19sChIJceqv6MuEqkAR45AXk38sGOE?authuser=0&hl=tr&rclk=1",
    "website_url": "https://nps.bg/",
    "rating_text": "4,4",
    "stars": null,
    "number_of_reviews": null,
    "price_level": "",
    "open_hours": "",
    "extraction_timestamp": "2025-06-07T13:39:35.120Z",
    "source_name": "google",
    "source_query": "Irrigation Equipment",
    "source_country": "BG",
    "country": "Bulgaria",
    "state": "Montana Province",
    "city": "Obshtina Chiprovtsi"
  },
  {
    "source_id": "ChIJVbugZmc1q0ARSq9MmU6BDts",
    "name": "INGCO Bulgaria",
    "category": "INGCO Bulgaria",
    "formatted_address": "4,8(28)",
    "phone_number": "+359887399477",
    "source_url": "https://www.google.com/maps/place/INGCO+Bulgaria/data=!4m7!3m6!1s0x40ab356766a0bb55:0xdb0e814e994caf4a!8m2!3d43.413485!4d23.2277359!16s%2Fg%2F11j024g4c0!19sChIJVbugZmc1q0ARSq9MmU6BDts?authuser=0&hl=tr&rclk=1",
    "website_url": "http://www.ingco.bg/",
    "rating_text": "4,8",
    "stars": null,
    "number_of_reviews": null,
    "price_level": "",
    "open_hours": "",
    "extraction_timestamp": "2025-06-07T13:39:35.122Z",
    "source_name": "google",
    "source_query": "Irrigation Equipment",
    "source_country": "BG",
    "country": "Bulgaria",
    "state": "Montana Province",
    "city": "Obshtina Chiprovtsi"
  },
  {
    "source_id": "ChIJyzu8eKU0q0AR2qCLWlh0Z98",
    "name": "TOPLIVO - Warehouse Montana",
    "category": "TOPLIVO - Warehouse Montana",
    "formatted_address": "4,2(61)",
    "phone_number": "+359884704979",
    "source_url": "https://www.google.com/maps/place/TOPLIVO+-+Warehouse+Montana/data=!4m7!3m6!1s0x40ab34a578bc3bcb:0xdf6774585a8ba0da!8m2!3d43.4132357!4d23.2316827!16s%2Fg%2F11g8w7w_cv!19sChIJyzu8eKU0q0AR2qCLWlh0Z98?authuser=0&hl=tr&rclk=1",
    "website_url": "http://toplivo.bg/",
    "rating_text": "4,2",
    "stars": null,
    "number_of_reviews": null,
    "price_level": "",
    "open_hours": "",
    "extraction_timestamp": "2025-06-07T13:39:35.140Z",
    "source_name": "google",
    "source_query": "Irrigation Equipment",
    "source_country": "BG",
    "country": "Bulgaria",
    "state": "Montana Province",
    "city": "Obshtina Chiprovtsi"
  },
  {
    "source_id": "ChIJKTKEMPUpq0ARsLUikjOQ9Rk",
    "name": "Козе ферма Каряна",
    "category": "Козе ферма Каряна",
    "formatted_address": "4,8(33)",
    "phone_number": "+359898777911",
    "source_url": "https://www.google.com/maps/place/%D0%9A%D0%BE%D0%B7%D0%B5+%D1%84%D0%B5%D1%80%D0%BC%D0%B0+%D0%9A%D0%B0%D1%80%D1%8F%D0%BD%D0%B0/data=!4m7!3m6!1s0x40ab29f530843229:0x19f590339222b5b0!8m2!3d43.2228648!4d23.1862097!16s%2Fg%2F11p0043zfs!19sChIJKTKEMPUpq0ARsLUikjOQ9Rk?authuser=0&hl=tr&rclk=1",
    "website_url": "http://facebook.com/%D0%92%D1%81%D0%B8%D1%87%D0%BA%D0%BE-%D0%BE%D1%82-%D0%9A%D0%BE%D0%B7%D0%B5-%D0%BC%D0%BB%D1%8F%D0%BA%D0%BE-%D0%9A%D0%BE%D0%B7%D0%B5%D1%84%D0%B5%D1%80%D0%BC%D0%B0-%D0%9A%D0%B0%D1%80%D1%8F%D0%BD%D0%B0-125489031347578/",
    "rating_text": "4,8",
    "stars": null,
    "number_of_reviews": null,
    "price_level": "",
    "open_hours": "",
    "extraction_timestamp": "2025-06-07T13:39:35.141Z",
    "source_name": "google",
    "source_query": "Irrigation Equipment",
    "source_country": "BG",
    "country": "Bulgaria",
    "state": "Montana Province",
    "city": "Obshtina Chiprovtsi"
  },
  {
    "source_id": "ChIJaXxaHi6HqkARuV68ciRbxyA",
    "name": "Напояване",
    "category": "Напояване",
    "formatted_address": "",
    "phone_number": "+35929790881",
    "source_url": "https://www.google.com/maps/place/%D0%9D%D0%B0%D0%BF%D0%BE%D1%8F%D0%B2%D0%B0%D0%BD%D0%B5/data=!4m7!3m6!1s0x40aa872e1e5a7c69:0x20c75b2472bc5eb9!8m2!3d42.6240477!4d23.4024511!16s%2Fg%2F11j0jkgxy0!19sChIJaXxaHi6HqkARuV68ciRbxyA?authuser=0&hl=tr&rclk=1",
    "website_url": "http://xn--80aafn0bdeh9l.com/%D0%BA%D0%BE%D0%BD%D1%82%D0%B0%D0%BA%D1%82%D0%B8/",
    "rating_text": "",
    "stars": null,
    "number_of_reviews": null,
    "price_level": "",
    "open_hours": "",
    "extraction_timestamp": "2025-06-07T13:39:35.144Z",
    "source_name": "google",
    "source_query": "Irrigation Equipment",
    "source_country": "BG",
    "country": "Bulgaria",
    "state": "Montana Province",
    "city": "Obshtina Chiprovtsi"
  }
]
