[
  {
    "source_id": "ChIJew8NjnNZU0cR6rEo4UUIbQc",
    "name": "ЕТ\" ТАНЯ ИВАНОВА\"",
    "category": "ЕТ\" ТАНЯ ИВАНОВА\"",
    "formatted_address": "4,3(85)",
    "phone_number": "+359886552618",
    "source_url": "https://www.google.com/maps/place/%D0%95%D0%A2%22+%D0%A2%D0%90%D0%9D%D0%AF+%D0%98%D0%92%D0%90%D0%9D%D0%9E%D0%92%D0%90%22/data=!4m7!3m6!1s0x475359738e0d0f7b:0x76d0845e128b1ea!8m2!3d43.8214653!4d23.2352444!16s%2Fg%2F11fkptfnfd!19sChIJew8NjnNZU0cR6rEo4UUIbQc?authuser=0&hl=tr&rclk=1",
    "website_url": "",
    "rating_text": "4,3",
    "stars": null,
    "number_of_reviews": null,
    "price_level": "",
    "open_hours": "",
    "extraction_timestamp": "2025-06-07T13:39:42.888Z",
    "source_name": "google",
    "source_query": "Irrigation Equipment",
    "source_country": "BG",
    "country": "Bulgaria",
    "state": "Montana Province",
    "city": "Obshtina Lom"
  },
  {
    "source_id": "ChIJlYz6bcNZU0cRcygHc0MR56c",
    "name": "\"Orbita\" Hardware Store",
    "category": "\"Orbita\" Hardware Store",
    "formatted_address": "4,4(94)",
    "phone_number": "+359899103488",
    "source_url": "https://www.google.com/maps/place/%22Orbita%22+Hardware+Store/data=!4m7!3m6!1s0x475359c36dfa8c95:0xa7e7114373072873!8m2!3d43.8170411!4d23.2388866!16s%2Fg%2F11gj4gx3s7!19sChIJlYz6bcNZU0cRcygHc0MR56c?authuser=0&hl=tr&rclk=1",
    "website_url": "",
    "rating_text": "4,4",
    "stars": null,
    "number_of_reviews": null,
    "price_level": "",
    "open_hours": "",
    "extraction_timestamp": "2025-06-07T13:39:42.888Z",
    "source_name": "google",
    "source_query": "Irrigation Equipment",
    "source_country": "BG",
    "country": "Bulgaria",
    "state": "Montana Province",
    "city": "Obshtina Lom"
  },
  {
    "source_id": "ChIJx9SH88JYU0cR_bJs8kEu5JA",
    "name": "\"Аглая и Бан\" ЕООД гр. Лом",
    "category": "\"Аглая и Бан\" ЕООД гр. Лом",
    "formatted_address": "4,0(131)",
    "phone_number": "",
    "source_url": "https://www.google.com/maps/place/%22%D0%90%D0%B3%D0%BB%D0%B0%D1%8F+%D0%B8+%D0%91%D0%B0%D0%BD%22+%D0%95%D0%9E%D0%9E%D0%94+%D0%B3%D1%80.+%D0%9B%D0%BE%D0%BC/data=!4m7!3m6!1s0x475358c2f387d4c7:0x90e42e41f26cb2fd!8m2!3d43.8125099!4d23.2389224!16s%2Fg%2F11dfqy2lb5!19sChIJx9SH88JYU0cR_bJs8kEu5JA?authuser=0&hl=tr&rclk=1",
    "website_url": "",
    "rating_text": "4,0",
    "stars": null,
    "number_of_reviews": null,
    "price_level": "",
    "open_hours": "",
    "extraction_timestamp": "2025-06-07T13:39:42.888Z",
    "source_name": "google",
    "source_query": "Irrigation Equipment",
    "source_country": "BG",
    "country": "Bulgaria",
    "state": "Montana Province",
    "city": "Obshtina Lom"
  },
  {
    "source_id": "ChIJ-WIJDKM0q0ARpuapJwuD3OI",
    "name": "Полихрон ЕООД",
    "category": "Полихрон ЕООД",
    "formatted_address": "4,5(216)",
    "phone_number": "+35996300660",
    "source_url": "https://www.google.com/maps/place/%D0%9F%D0%BE%D0%BB%D0%B8%D1%85%D1%80%D0%BE%D0%BD+%D0%95%D0%9E%D0%9E%D0%94/data=!4m7!3m6!1s0x40ab34a30c0962f9:0xe2dc830b27a9e6a6!8m2!3d43.4118521!4d23.2389808!16s%2Fg%2F11c38dzs5q!19sChIJ-WIJDKM0q0ARpuapJwuD3OI?authuser=0&hl=tr&rclk=1",
    "website_url": "",
    "rating_text": "4,5",
    "stars": null,
    "number_of_reviews": null,
    "price_level": "",
    "open_hours": "",
    "extraction_timestamp": "2025-06-07T13:39:42.888Z",
    "source_name": "google",
    "source_query": "Irrigation Equipment",
    "source_country": "BG",
    "country": "Bulgaria",
    "state": "Montana Province",
    "city": "Obshtina Lom"
  },
  {
    "source_id": "ChIJhRJ7F_tZU0cRSK2Ul8Hm1_c",
    "name": "Строймаркет Орбита",
    "category": "Строймаркет Орбита",
    "formatted_address": "4,7(6)",
    "phone_number": "+359899103688",
    "source_url": "https://www.google.com/maps/place/%D0%A1%D1%82%D1%80%D0%BE%D0%B9%D0%BC%D0%B0%D1%80%D0%BA%D0%B5%D1%82+%D0%9E%D1%80%D0%B1%D0%B8%D1%82%D0%B0/data=!4m7!3m6!1s0x475359fb177b1285:0xf7d7e6c19794ad48!8m2!3d43.8220325!4d23.2410603!16s%2Fg%2F11s7fs4_b_!19sChIJhRJ7F_tZU0cRSK2Ul8Hm1_c?authuser=0&hl=tr&rclk=1",
    "website_url": "",
    "rating_text": "4,7",
    "stars": null,
    "number_of_reviews": null,
    "price_level": "",
    "open_hours": "",
    "extraction_timestamp": "2025-06-07T13:39:42.889Z",
    "source_name": "google",
    "source_query": "Irrigation Equipment",
    "source_country": "BG",
    "country": "Bulgaria",
    "state": "Montana Province",
    "city": "Obshtina Lom"
  },
  {
    "source_id": "ChIJVbugZmc1q0ARSq9MmU6BDts",
    "name": "INGCO Bulgaria",
    "category": "INGCO Bulgaria",
    "formatted_address": "4,8(28)",
    "phone_number": "+359887399477",
    "source_url": "https://www.google.com/maps/place/INGCO+Bulgaria/data=!4m7!3m6!1s0x40ab356766a0bb55:0xdb0e814e994caf4a!8m2!3d43.413485!4d23.2277359!16s%2Fg%2F11j024g4c0!19sChIJVbugZmc1q0ARSq9MmU6BDts?authuser=0&hl=tr&rclk=1",
    "website_url": "",
    "rating_text": "4,8",
    "stars": null,
    "number_of_reviews": null,
    "price_level": "",
    "open_hours": "",
    "extraction_timestamp": "2025-06-07T13:39:42.889Z",
    "source_name": "google",
    "source_query": "Irrigation Equipment",
    "source_country": "BG",
    "country": "Bulgaria",
    "state": "Montana Province",
    "city": "Obshtina Lom"
  },
  {
    "source_id": "ChIJN1vn16ZZU0cRJIQcc_AnXvM",
    "name": "Червения магазин на ТПК Георгица",
    "category": "Червения магазин на ТПК Георгица",
    "formatted_address": "4,4(49)",
    "phone_number": "",
    "source_url": "https://www.google.com/maps/place/%D0%A7%D0%B5%D1%80%D0%B2%D0%B5%D0%BD%D0%B8%D1%8F+%D0%BC%D0%B0%D0%B3%D0%B0%D0%B7%D0%B8%D0%BD+%D0%BD%D0%B0+%D0%A2%D0%9F%D0%9A+%D0%93%D0%B5%D0%BE%D1%80%D0%B3%D0%B8%D1%86%D0%B0/data=!4m7!3m6!1s0x475359a6d7e75b37:0xf35e27f0731c8424!8m2!3d43.8194084!4d23.2394504!16s%2Fg%2F11smnz53gk!19sChIJN1vn16ZZU0cRJIQcc_AnXvM?authuser=0&hl=tr&rclk=1",
    "website_url": "",
    "rating_text": "4,4",
    "stars": null,
    "number_of_reviews": null,
    "price_level": "",
    "open_hours": "",
    "extraction_timestamp": "2025-06-07T13:39:42.889Z",
    "source_name": "google",
    "source_query": "Irrigation Equipment",
    "source_country": "BG",
    "country": "Bulgaria",
    "state": "Montana Province",
    "city": "Obshtina Lom"
  },
  {
    "source_id": "ChIJa96b3cJYU0cRQ9O6_TnHdTM",
    "name": "My Shop",
    "category": "My Shop",
    "formatted_address": "4,1(58)",
    "phone_number": "",
    "source_url": "https://www.google.com/maps/place/My+Shop/data=!4m7!3m6!1s0x475358c2dd9bde6b:0x3375c739fdbad343!8m2!3d43.8144054!4d23.238881!16s%2Fg%2F11dy1ky_4q!19sChIJa96b3cJYU0cRQ9O6_TnHdTM?authuser=0&hl=tr&rclk=1",
    "website_url": "",
    "rating_text": "4,1",
    "stars": null,
    "number_of_reviews": null,
    "price_level": "",
    "open_hours": "",
    "extraction_timestamp": "2025-06-07T13:39:42.889Z",
    "source_name": "google",
    "source_query": "Irrigation Equipment",
    "source_country": "BG",
    "country": "Bulgaria",
    "state": "Montana Province",
    "city": "Obshtina Lom"
  },
  {
    "source_id": "ChIJs0kzGHxZU0cR-bUwIMf5dPo",
    "name": "Dilema",
    "category": "Dilema",
    "formatted_address": "5,0(6)",
    "phone_number": "",
    "source_url": "https://www.google.com/maps/place/Dilema/data=!4m7!3m6!1s0x4753597c183349b3:0xfa74f9c72030b5f9!8m2!3d43.8297917!4d23.2343794!16s%2Fg%2F11q97d32q_!19sChIJs0kzGHxZU0cR-bUwIMf5dPo?authuser=0&hl=tr&rclk=1",
    "website_url": "",
    "rating_text": "5,0",
    "stars": null,
    "number_of_reviews": null,
    "price_level": "",
    "open_hours": "",
    "extraction_timestamp": "2025-06-07T13:39:42.889Z",
    "source_name": "google",
    "source_query": "Irrigation Equipment",
    "source_country": "BG",
    "country": "Bulgaria",
    "state": "Montana Province",
    "city": "Obshtina Lom"
  },
  {
    "source_id": "ChIJceqv6MuEqkAR45AXk38sGOE",
    "name": "Irrigation Systems",
    "category": "Irrigation Systems",
    "formatted_address": "4,4(10)",
    "phone_number": "+35928085001",
    "source_url": "https://www.google.com/maps/place/Irrigation+Systems/data=!4m7!3m6!1s0x40aa84cbe8afea71:0xe1182c7f931790e3!8m2!3d42.6700035!4d23.2681798!16s%2Fg%2F1thtbmsl!19sChIJceqv6MuEqkAR45AXk38sGOE?authuser=0&hl=tr&rclk=1",
    "website_url": "",
    "rating_text": "4,4",
    "stars": null,
    "number_of_reviews": null,
    "price_level": "",
    "open_hours": "",
    "extraction_timestamp": "2025-06-07T13:39:42.890Z",
    "source_name": "google",
    "source_query": "Irrigation Equipment",
    "source_country": "BG",
    "country": "Bulgaria",
    "state": "Montana Province",
    "city": "Obshtina Lom"
  },
  {
    "source_id": "ChIJeT_9MwBZU0cRl256zPJFFC8",
    "name": "Жизел Лом",
    "category": "Жизел Лом",
    "formatted_address": "5,0(1)",
    "phone_number": "",
    "source_url": "https://www.google.com/maps/place/%D0%96%D0%B8%D0%B7%D0%B5%D0%BB+%D0%9B%D0%BE%D0%BC/data=!4m7!3m6!1s0x4753590033fd3f79:0x2f1445f2cc7a6e97!8m2!3d43.8182723!4d23.2413112!16s%2Fg%2F11ycfqv81f!19sChIJeT_9MwBZU0cRl256zPJFFC8?authuser=0&hl=tr&rclk=1",
    "website_url": "",
    "rating_text": "5,0",
    "stars": null,
    "number_of_reviews": null,
    "price_level": "",
    "open_hours": "",
    "extraction_timestamp": "2025-06-07T13:39:42.890Z",
    "source_name": "google",
    "source_query": "Irrigation Equipment",
    "source_country": "BG",
    "country": "Bulgaria",
    "state": "Montana Province",
    "city": "Obshtina Lom"
  },
  {
    "source_id": "ChIJY1nNHDdZU0cRy2FkmQE0PLw",
    "name": "Brezata",
    "category": "Brezata",
    "formatted_address": "5,0(2)",
    "phone_number": "",
    "source_url": "https://www.google.com/maps/place/Brezata/data=!4m7!3m6!1s0x475359371ccd5963:0xbc3c3401996461cb!8m2!3d43.8105361!4d23.2360653!16s%2Fg%2F11fd51j7r8!19sChIJY1nNHDdZU0cRy2FkmQE0PLw?authuser=0&hl=tr&rclk=1",
    "website_url": "",
    "rating_text": "5,0",
    "stars": null,
    "number_of_reviews": null,
    "price_level": "",
    "open_hours": "",
    "extraction_timestamp": "2025-06-07T13:39:42.890Z",
    "source_name": "google",
    "source_query": "Irrigation Equipment",
    "source_country": "BG",
    "country": "Bulgaria",
    "state": "Montana Province",
    "city": "Obshtina Lom"
  },
  {
    "source_id": "ChIJifPBoXGGqkARA5U1ZnLt0t4",
    "name": "Ямато ЕООД Поливни системи",
    "category": "Ямато ЕООД Поливни системи",
    "formatted_address": "5,0(4)",
    "phone_number": "+359899535964",
    "source_url": "https://www.google.com/maps/place/%D0%AF%D0%BC%D0%B0%D1%82%D0%BE+%D0%95%D0%9E%D0%9E%D0%94+%D0%9F%D0%BE%D0%BB%D0%B8%D0%B2%D0%BD%D0%B8+%D1%81%D0%B8%D1%81%D1%82%D0%B5%D0%BC%D0%B8/data=!4m7!3m6!1s0x40aa8671a1c1f389:0xded2ed7266359503!8m2!3d42.6714845!4d23.3871234!16s%2Fg%2F11f1s58kx5!19sChIJifPBoXGGqkARA5U1ZnLt0t4?authuser=0&hl=tr&rclk=1",
    "website_url": "",
    "rating_text": "5,0",
    "stars": null,
    "number_of_reviews": null,
    "price_level": "",
    "open_hours": "",
    "extraction_timestamp": "2025-06-07T13:39:42.890Z",
    "source_name": "google",
    "source_query": "Irrigation Equipment",
    "source_country": "BG",
    "country": "Bulgaria",
    "state": "Montana Province",
    "city": "Obshtina Lom"
  },
  {
    "source_id": "ChIJxTmqiFgzq0ARbeJzNtjWAvM",
    "name": "Plama Trading Ltd. - Hardware",
    "category": "Plama Trading Ltd. - Hardware",
    "formatted_address": "4,0(21)",
    "phone_number": "+359888887674",
    "source_url": "https://www.google.com/maps/place/Plama+Trading+Ltd.+-+Hardware/data=!4m7!3m6!1s0x40ab335888aa39c5:0xf302d6d83673e26d!8m2!3d43.4043399!4d23.2266636!16s%2Fg%2F11c70j9k09!19sChIJxTmqiFgzq0ARbeJzNtjWAvM?authuser=0&hl=tr&rclk=1",
    "website_url": "",
    "rating_text": "4,0",
    "stars": null,
    "number_of_reviews": null,
    "price_level": "",
    "open_hours": "",
    "extraction_timestamp": "2025-06-07T13:39:42.890Z",
    "source_name": "google",
    "source_query": "Irrigation Equipment",
    "source_country": "BG",
    "country": "Bulgaria",
    "state": "Montana Province",
    "city": "Obshtina Lom"
  },
  {
    "source_id": "ChIJg4gG19hYU0cRdb_tYbuXLFE",
    "name": "Сладкарска къща \"Алф\"",
    "category": "Сладкарска къща \"Алф\"",
    "formatted_address": "4,4(157)",
    "phone_number": "+359896085818",
    "source_url": "https://www.google.com/maps/place/%D0%A1%D0%BB%D0%B0%D0%B4%D0%BA%D0%B0%D1%80%D1%81%D0%BA%D0%B0+%D0%BA%D1%8A%D1%89%D0%B0+%22%D0%90%D0%BB%D1%84%22/data=!4m7!3m6!1s0x475358d8d7068883:0x512c97bb61edbf75!8m2!3d43.8219266!4d23.2408311!16s%2Fg%2F11fy4ns8gt!19sChIJg4gG19hYU0cRdb_tYbuXLFE?authuser=0&hl=tr&rclk=1",
    "website_url": "",
    "rating_text": "4,4",
    "stars": null,
    "number_of_reviews": null,
    "price_level": "",
    "open_hours": "",
    "extraction_timestamp": "2025-06-07T13:39:42.891Z",
    "source_name": "google",
    "source_query": "Irrigation Equipment",
    "source_country": "BG",
    "country": "Bulgaria",
    "state": "Montana Province",
    "city": "Obshtina Lom"
  },
  {
    "source_id": "ChIJW_0-ylPLVEcRQYl2Tk9T318",
    "name": "Ionimont",
    "category": "Ionimont",
    "formatted_address": "4,4(140)",
    "phone_number": "+35996307095",
    "source_url": "https://www.google.com/maps/place/Ionimont/data=!4m7!3m6!1s0x4754cb53ca3efd5b:0x5fdf534f4e768941!8m2!3d43.4170995!4d23.2141449!16s%2Fg%2F11bwp1gmr1!19sChIJW_0-ylPLVEcRQYl2Tk9T318?authuser=0&hl=tr&rclk=1",
    "website_url": "",
    "rating_text": "4,4",
    "stars": null,
    "number_of_reviews": null,
    "price_level": "",
    "open_hours": "",
    "extraction_timestamp": "2025-06-07T13:39:42.891Z",
    "source_name": "google",
    "source_query": "Irrigation Equipment",
    "source_country": "BG",
    "country": "Bulgaria",
    "state": "Montana Province",
    "city": "Obshtina Lom"
  },
  {
    "source_id": "ChIJyzu8eKU0q0AR2qCLWlh0Z98",
    "name": "TOPLIVO - Warehouse Montana",
    "category": "TOPLIVO - Warehouse Montana",
    "formatted_address": "4,2(61)",
    "phone_number": "+359884704979",
    "source_url": "https://www.google.com/maps/place/TOPLIVO+-+Warehouse+Montana/data=!4m7!3m6!1s0x40ab34a578bc3bcb:0xdf6774585a8ba0da!8m2!3d43.4132357!4d23.2316827!16s%2Fg%2F11g8w7w_cv!19sChIJyzu8eKU0q0AR2qCLWlh0Z98?authuser=0&hl=tr&rclk=1",
    "website_url": "",
    "rating_text": "4,2",
    "stars": null,
    "number_of_reviews": null,
    "price_level": "",
    "open_hours": "",
    "extraction_timestamp": "2025-06-07T13:39:42.891Z",
    "source_name": "google",
    "source_query": "Irrigation Equipment",
    "source_country": "BG",
    "country": "Bulgaria",
    "state": "Montana Province",
    "city": "Obshtina Lom"
  },
  {
    "source_id": "ChIJR6ROegJZU0cRHWzQrUJv6r8",
    "name": "Магазин Дочо",
    "category": "Магазин Дочо",
    "formatted_address": "5,0(1)",
    "phone_number": "",
    "source_url": "https://www.google.com/maps/place/%D0%9C%D0%B0%D0%B3%D0%B0%D0%B7%D0%B8%D0%BD+%D0%94%D0%BE%D1%87%D0%BE/data=!4m7!3m6!1s0x475359027a4ea447:0xbfea6f42add06c1d!8m2!3d43.8067554!4d23.2586247!16s%2Fg%2F11rvfyhgp7!19sChIJR6ROegJZU0cRHWzQrUJv6r8?authuser=0&hl=tr&rclk=1",
    "website_url": "",
    "rating_text": "5,0",
    "stars": null,
    "number_of_reviews": null,
    "price_level": "",
    "open_hours": "",
    "extraction_timestamp": "2025-06-07T13:39:42.892Z",
    "source_name": "google",
    "source_query": "Irrigation Equipment",
    "source_country": "BG",
    "country": "Bulgaria",
    "state": "Montana Province",
    "city": "Obshtina Lom"
  },
  {
    "source_id": "ChIJ94n8nPknq0AR-F7qYAJ0fzU",
    "name": "MAXBAU 01 LTD",
    "category": "MAXBAU 01 LTD",
    "formatted_address": "4,8(18)",
    "phone_number": "+359876790868",
    "source_url": "https://www.google.com/maps/place/MAXBAU+01+LTD/data=!4m7!3m6!1s0x40ab27f99cfc89f7:0x357f740260ea5ef8!8m2!3d43.2058093!4d23.2891441!16s%2Fg%2F11n_jcqxsx!19sChIJ94n8nPknq0AR-F7qYAJ0fzU?authuser=0&hl=tr&rclk=1",
    "website_url": "",
    "rating_text": "4,8",
    "stars": null,
    "number_of_reviews": null,
    "price_level": "",
    "open_hours": "",
    "extraction_timestamp": "2025-06-07T13:39:42.892Z",
    "source_name": "google",
    "source_query": "Irrigation Equipment",
    "source_country": "BG",
    "country": "Bulgaria",
    "state": "Montana Province",
    "city": "Obshtina Lom"
  },
  {
    "source_id": "ChIJQWfMDLotVEcRNzNNmiW_am4",
    "name": "AGROMEHATRONIKA HYDRO DOO",
    "category": "AGROMEHATRONIKA HYDRO DOO",
    "formatted_address": "4,5(33)",
    "phone_number": "+38118882963",
    "source_url": "https://www.google.com/maps/place/AGROMEHATRONIKA+HYDRO+DOO/data=!4m7!3m6!1s0x47542dba0ccc6741:0x6e6abf259a4d3337!8m2!3d43.5479293!4d21.693304!16s%2Fg%2F11gfhb04ww!19sChIJQWfMDLotVEcRNzNNmiW_am4?authuser=0&hl=tr&rclk=1",
    "website_url": "",
    "rating_text": "4,5",
    "stars": null,
    "number_of_reviews": null,
    "price_level": "",
    "open_hours": "",
    "extraction_timestamp": "2025-06-07T13:39:42.892Z",
    "source_name": "google",
    "source_query": "Irrigation Equipment",
    "source_country": "BG",
    "country": "Bulgaria",
    "state": "Montana Province",
    "city": "Obshtina Lom"
  },
  {
    "source_id": "ChIJ_TgoPu8nq0ARiZRNphAXrTY",
    "name": "Супермаркет Богат-беден",
    "category": "Супермаркет Богат-беден",
    "formatted_address": "4,1(134)",
    "phone_number": "",
    "source_url": "https://www.google.com/maps/place/%D0%A1%D1%83%D0%BF%D0%B5%D1%80%D0%BC%D0%B0%D1%80%D0%BA%D0%B5%D1%82+%D0%91%D0%BE%D0%B3%D0%B0%D1%82-%D0%B1%D0%B5%D0%B4%D0%B5%D0%BD/data=!4m7!3m6!1s0x40ab27ef3e2838fd:0x36ad1710a64d9489!8m2!3d43.1976515!4d23.2896142!16s%2Fg%2F11t6fzyfq3!19sChIJ_TgoPu8nq0ARiZRNphAXrTY?authuser=0&hl=tr&rclk=1",
    "website_url": "",
    "rating_text": "4,1",
    "stars": null,
    "number_of_reviews": null,
    "price_level": "",
    "open_hours": "",
    "extraction_timestamp": "2025-06-07T13:39:42.892Z",
    "source_name": "google",
    "source_query": "Irrigation Equipment",
    "source_country": "BG",
    "country": "Bulgaria",
    "state": "Montana Province",
    "city": "Obshtina Lom"
  },
  {
    "source_id": "ChIJQRUHz4k1q0ARVpCyR2jAGZA",
    "name": "Строймаркет Monix",
    "category": "Строймаркет Monix",
    "formatted_address": "4,2(28)",
    "phone_number": "+359876363644",
    "source_url": "https://www.google.com/maps/place/%D0%A1%D1%82%D1%80%D0%BE%D0%B9%D0%BC%D0%B0%D1%80%D0%BA%D0%B5%D1%82+Monix/data=!4m7!3m6!1s0x40ab3589cf071541:0x9019c06847b29056!8m2!3d43.4203541!4d23.2268428!16s%2Fg%2F11t_kvn5lp!19sChIJQRUHz4k1q0ARVpCyR2jAGZA?authuser=0&hl=tr&rclk=1",
    "website_url": "",
    "rating_text": "4,2",
    "stars": null,
    "number_of_reviews": null,
    "price_level": "",
    "open_hours": "",
    "extraction_timestamp": "2025-06-07T13:39:42.893Z",
    "source_name": "google",
    "source_query": "Irrigation Equipment",
    "source_country": "BG",
    "country": "Bulgaria",
    "state": "Montana Province",
    "city": "Obshtina Lom"
  },
  {
    "source_id": "ChIJHcqIrrpnU0cRUQkDrCzUSj4",
    "name": "Pescar-Amator",
    "category": "Pescar-Amator",
    "formatted_address": "4,6(13)",
    "phone_number": "+40730069121",
    "source_url": "https://www.google.com/maps/place/Pescar-Amator/data=!4m7!3m6!1s0x475367baae88ca1d:0x3e4ad42cac030951!8m2!3d43.9164386!4d23.07698!16s%2Fg%2F11fwvrssxq!19sChIJHcqIrrpnU0cRUQkDrCzUSj4?authuser=0&hl=tr&rclk=1",
    "website_url": "",
    "rating_text": "4,6",
    "stars": null,
    "number_of_reviews": null,
    "price_level": "",
    "open_hours": "",
    "extraction_timestamp": "2025-06-07T13:39:42.893Z",
    "source_name": "google",
    "source_query": "Irrigation Equipment",
    "source_country": "BG",
    "country": "Bulgaria",
    "state": "Montana Province",
    "city": "Obshtina Lom"
  },
  {
    "source_id": "ChIJc2QrQpORqkARBWYG5Puxcr8",
    "name": "NAC-3 Services with Aerial, Bobcat, Mini Excavators, Dumpers and more.",
    "category": "NAC-3 Services with Aerial, Bobcat, Mini Excavators, Dumpers and more.",
    "formatted_address": "NAC-3 Services with Aerial, Bobcat, Mini Excavators, Dumpers and more.",
    "phone_number": "+359895577667",
    "source_url": "https://www.google.com/maps/place/NAC-3+Services+with+Aerial,+Bobcat,+Mini+Excavators,+Dumpers+and+more./data=!4m7!3m6!1s0x40aa9193422b6473:0xbf72b1fbe4066605!8m2!3d42.7719272!4d23.3198097!16s%2Fg%2F11f3ssn42p!19sChIJc2QrQpORqkARBWYG5Puxcr8?authuser=0&hl=tr&rclk=1",
    "website_url": "",
    "rating_text": "4,9",
    "stars": null,
    "number_of_reviews": null,
    "price_level": "",
    "open_hours": "",
    "extraction_timestamp": "2025-06-07T13:39:42.893Z",
    "source_name": "google",
    "source_query": "Irrigation Equipment",
    "source_country": "BG",
    "country": "Bulgaria",
    "state": "Montana Province",
    "city": "Obshtina Lom"
  },
  {
    "source_id": "ChIJH9KtQ_jHqhQRjm3Z1cHP9lM",
    "name": "Декоративен разсадник и градински център - Терралес ЕООД",
    "category": "Декоративен разсадник и градински център - Терралес ЕООД",
    "formatted_address": "4,2(33)",
    "phone_number": "+359898505908",
    "source_url": "https://www.google.com/maps/place/%D0%94%D0%B5%D0%BA%D0%BE%D1%80%D0%B0%D1%82%D0%B8%D0%B2%D0%B5%D0%BD+%D1%80%D0%B0%D0%B7%D1%81%D0%B0%D0%B4%D0%BD%D0%B8%D0%BA+%D0%B8+%D0%B3%D1%80%D0%B0%D0%B4%D0%B8%D0%BD%D1%81%D0%BA%D0%B8+%D1%86%D0%B5%D0%BD%D1%82%D1%8A%D1%80+-+%D0%A2%D0%B5%D1%80%D1%80%D0%B0%D0%BB%D0%B5%D1%81+%D0%95%D0%9E%D0%9E%D0%94/data=!4m7!3m6!1s0x14aac7f843add21f:0x53f6cfc1d5d96d8e!8m2!3d42.472452!4d23.002895!16s%2Fg%2F11c3s93stq!19sChIJH9KtQ_jHqhQRjm3Z1cHP9lM?authuser=0&hl=tr&rclk=1",
    "website_url": "",
    "rating_text": "4,2",
    "stars": null,
    "number_of_reviews": null,
    "price_level": "",
    "open_hours": "",
    "extraction_timestamp": "2025-06-07T13:39:42.894Z",
    "source_name": "google",
    "source_query": "Irrigation Equipment",
    "source_country": "BG",
    "country": "Bulgaria",
    "state": "Montana Province",
    "city": "Obshtina Lom"
  },
  {
    "source_id": "ChIJrU8V8j0nq0ARdpyi-ZQqTz8",
    "name": "Provance Craft Cakes & Restaurant",
    "category": "Provance Craft Cakes & Restaurant",
    "formatted_address": "4,8(93) · BGN 10–20",
    "phone_number": "+359876917186",
    "source_url": "https://www.google.com/maps/place/Provance+Craft+Cakes+%26+Restaurant/data=!4m7!3m6!1s0x40ab273df2154fad:0x3f4f2a94f9a29c76!8m2!3d43.1865839!4d23.2816752!16s%2Fg%2F11k2z9vwry!19sChIJrU8V8j0nq0ARdpyi-ZQqTz8?authuser=0&hl=tr&rclk=1",
    "website_url": "",
    "rating_text": "4,8",
    "stars": null,
    "number_of_reviews": null,
    "price_level": "",
    "open_hours": "",
    "extraction_timestamp": "2025-06-07T13:39:42.894Z",
    "source_name": "google",
    "source_query": "Irrigation Equipment",
    "source_country": "BG",
    "country": "Bulgaria",
    "state": "Montana Province",
    "city": "Obshtina Lom"
  },
  {
    "source_id": "ChIJ1xUYryudqkARaiUuMyTi9BE",
    "name": "Авариен Ремонт Строй ЕООД",
    "category": "Авариен Ремонт Строй ЕООД",
    "formatted_address": "5,0(2)",
    "phone_number": "+359889068554",
    "source_url": "https://www.google.com/maps/place/%D0%90%D0%B2%D0%B0%D1%80%D0%B8%D0%B5%D0%BD+%D0%A0%D0%B5%D0%BC%D0%BE%D0%BD%D1%82+%D0%A1%D1%82%D1%80%D0%BE%D0%B9+%D0%95%D0%9E%D0%9E%D0%94/data=!4m7!3m6!1s0x40aa9d2baf1815d7:0x11f4e224332e256a!8m2!3d42.6291759!4d23.2015194!16s%2Fg%2F11pc5w57bj!19sChIJ1xUYryudqkARaiUuMyTi9BE?authuser=0&hl=tr&rclk=1",
    "website_url": "",
    "rating_text": "5,0",
    "stars": null,
    "number_of_reviews": null,
    "price_level": "",
    "open_hours": "",
    "extraction_timestamp": "2025-06-07T13:39:42.894Z",
    "source_name": "google",
    "source_query": "Irrigation Equipment",
    "source_country": "BG",
    "country": "Bulgaria",
    "state": "Montana Province",
    "city": "Obshtina Lom"
  },
  {
    "source_id": "ChIJ-91ZJFQ5q0ARHBjpRxnlaZs",
    "name": "Склад-Магазин строителни материали \"ПЕТРОВИ ИНТЕРНЕШЪНЪЛ\"",
    "category": "Склад-Магазин строителни материали \"ПЕТРОВИ ИНТЕРНЕШЪНЪЛ\"",
    "formatted_address": "5,0(1)",
    "phone_number": "+359886609252",
    "source_url": "https://www.google.com/maps/place/%D0%A1%D0%BA%D0%BB%D0%B0%D0%B4-%D0%9C%D0%B0%D0%B3%D0%B0%D0%B7%D0%B8%D0%BD+%D1%81%D1%82%D1%80%D0%BE%D0%B8%D1%82%D0%B5%D0%BB%D0%BD%D0%B8+%D0%BC%D0%B0%D1%82%D0%B5%D1%80%D0%B8%D0%B0%D0%BB%D0%B8+%22%D0%9F%D0%95%D0%A2%D0%A0%D0%9E%D0%92%D0%98+%D0%98%D0%9D%D0%A2%D0%95%D0%A0%D0%9D%D0%95%D0%A8%D0%AA%D0%9D%D0%AA%D0%9B%22/data=!4m7!3m6!1s0x40ab39542459ddfb:0x9b69e51947e9181c!8m2!3d43.3680638!4d23.4748536!16s%2Fg%2F11vbp4p8fm!19sChIJ-91ZJFQ5q0ARHBjpRxnlaZs?authuser=0&hl=tr&rclk=1",
    "website_url": "",
    "rating_text": "5,0",
    "stars": null,
    "number_of_reviews": null,
    "price_level": "",
    "open_hours": "",
    "extraction_timestamp": "2025-06-07T13:39:42.895Z",
    "source_name": "google",
    "source_query": "Irrigation Equipment",
    "source_country": "BG",
    "country": "Bulgaria",
    "state": "Montana Province",
    "city": "Obshtina Lom"
  },
  {
    "source_id": "ChIJxabQBIArq0AR0ycgYp2wtMc",
    "name": "Senzo Pastelería",
    "category": "Senzo Pastelería",
    "formatted_address": "4,9(66)",
    "phone_number": "+359877674224",
    "source_url": "https://www.google.com/maps/place/Senzo+Pasteler%C3%ADa/data=!4m7!3m6!1s0x40ab2b8004d0a6c5:0xc7b4b09d622027d3!8m2!3d43.236705!4d23.1266787!16s%2Fg%2F11lvpnctkr!19sChIJxabQBIArq0AR0ycgYp2wtMc?authuser=0&hl=tr&rclk=1",
    "website_url": "",
    "rating_text": "4,9",
    "stars": null,
    "number_of_reviews": null,
    "price_level": "",
    "open_hours": "",
    "extraction_timestamp": "2025-06-07T13:39:42.895Z",
    "source_name": "google",
    "source_query": "Irrigation Equipment",
    "source_country": "BG",
    "country": "Bulgaria",
    "state": "Montana Province",
    "city": "Obshtina Lom"
  }
]
