[
  {
    "source_id": "ChIJx-GLLKyrVEcR1CGAU30EYVw",
    "name": "Железария , Строителни материали",
    "category": "Железария , Строителни материали",
    "formatted_address": "Железария , Строителни материали",
    "phone_number": "+359896812156",
    "source_url": "https://www.google.com/maps/place/%D0%96%D0%B5%D0%BB%D0%B5%D0%B7%D0%B0%D1%80%D0%B8%D1%8F+,+%D0%A1%D1%82%D1%80%D0%BE%D0%B8%D1%82%D0%B5%D0%BB%D0%BD%D0%B8+%D0%BC%D0%B0%D1%82%D0%B5%D1%80%D0%B8%D0%B0%D0%BB%D0%B8/data=!4m7!3m6!1s0x4754abac2c8be1c7:0x5c61047d538021d4!8m2!3d43.6943038!4d23.4451122!16s%2Fg%2F11fjxxfgjz!19sChIJx-GLLKyrVEcR1CGAU30EYVw?authuser=0&hl=tr&rclk=1",
    "website_url": "",
    "rating_text": "4,6",
    "stars": null,
    "number_of_reviews": null,
    "price_level": "",
    "open_hours": "",
    "extraction_timestamp": "2025-06-07T13:39:37.285Z",
    "source_name": "google",
    "source_query": "Irrigation Equipment",
    "source_country": "BG",
    "country": "Bulgaria",
    "state": "Montana Province",
    "city": "Valchedram"
  },
  {
    "source_id": "ChIJc_W_DqQ0q0ARFykReo0aORM",
    "name": "АСМ ЕООД",
    "category": "АСМ ЕООД",
    "formatted_address": "4,4(84)",
    "phone_number": "+35996391515",
    "source_url": "https://www.google.com/maps/place/%D0%90%D0%A1%D0%9C+%D0%95%D0%9E%D0%9E%D0%94/data=!4m7!3m6!1s0x40ab34a40ebff573:0x13391a8d7a112917!8m2!3d43.4104186!4d23.2354777!16s%2Fg%2F11c31sk6v6!19sChIJc_W_DqQ0q0ARFykReo0aORM?authuser=0&hl=tr&rclk=1",
    "website_url": "https://www.acm-montana.com/",
    "rating_text": "4,4",
    "stars": null,
    "number_of_reviews": null,
    "price_level": "",
    "open_hours": "",
    "extraction_timestamp": "2025-06-07T13:39:37.286Z",
    "source_name": "google",
    "source_query": "Irrigation Equipment",
    "source_country": "BG",
    "country": "Bulgaria",
    "state": "Montana Province",
    "city": "Valchedram"
  },
  {
    "source_id": "ChIJ9eAcVMyrVEcRXeMMIXhm47M",
    "name": "Valchedram",
    "category": "Valchedram",
    "formatted_address": "4,2(25)",
    "phone_number": "",
    "source_url": "https://www.google.com/maps/place/Valchedram/data=!4m7!3m6!1s0x4754abcc541ce0f5:0xb3e36678210ce35d!8m2!3d43.6968704!4d23.4454596!16s%2Fg%2F11t03npb9f!19sChIJ9eAcVMyrVEcRXeMMIXhm47M?authuser=0&hl=tr&rclk=1",
    "website_url": "",
    "rating_text": "4,2",
    "stars": null,
    "number_of_reviews": null,
    "price_level": "",
    "open_hours": "",
    "extraction_timestamp": "2025-06-07T13:39:37.287Z",
    "source_name": "google",
    "source_query": "Irrigation Equipment",
    "source_country": "BG",
    "country": "Bulgaria",
    "state": "Montana Province",
    "city": "Valchedram"
  },
  {
    "source_id": "ChIJRZJ47i-rVEcROUA4dYnkk9c",
    "name": "My gourmet shop",
    "category": "My gourmet shop",
    "formatted_address": "4,2(79)",
    "phone_number": "+35997443474",
    "source_url": "https://www.google.com/maps/place/My+gourmet+shop/data=!4m7!3m6!1s0x4754ab2fee789245:0xd793e48975384039!8m2!3d43.6944195!4d23.4458775!16s%2Fg%2F11g8bbs8c4!19sChIJRZJ47i-rVEcROUA4dYnkk9c?authuser=0&hl=tr&rclk=1",
    "website_url": "https://www.facebook.com/GastronomValchedram/",
    "rating_text": "4,2",
    "stars": null,
    "number_of_reviews": null,
    "price_level": "",
    "open_hours": "",
    "extraction_timestamp": "2025-06-07T13:39:37.289Z",
    "source_name": "google",
    "source_query": "Irrigation Equipment",
    "source_country": "BG",
    "country": "Bulgaria",
    "state": "Montana Province",
    "city": "Valchedram"
  }
]
