[
  {
    "source_id": "ChIJI6T6Jyj7GQ0RErNH50ff5EM",
    "name": "Alemplás, Lda - Produção e Comércio de Produtos Plásticos e Agrícolas",
    "category": "Alemplás, Lda - Produção e Comércio de Produtos Plásticos e Agrícolas",
    "formatted_address": "Alemplás, Lda - Produção e Comércio de Produtos Plásticos e Agrícolas",
    "phone_number": "+351266700393",
    "source_url": "https://www.google.com/maps/place/Alempl%C3%A1s,+Lda+-+Produ%C3%A7%C3%A3o+e+Com%C3%A9rcio+de+Produtos+Pl%C3%A1sticos+e+Agr%C3%ADcolas/data=!4m7!3m6!1s0xd19fb2827faa423:0x43e4df47e747b312!8m2!3d38.5443888!4d-7.915671!16s%2Fg%2F11f3b917hh!19sChIJI6T6Jyj7GQ0RErNH50ff5EM?authuser=0&hl=tr&rclk=1",
    "website_url": "http://www.alemplas.pt/",
    "rating_text": "4,7",
    "stars": null,
    "number_of_reviews": null,
    "price_level": "",
    "open_hours": "",
    "extraction_timestamp": "2025-06-07T18:04:26.552Z",
    "source_name": "google",
    "source_query": "Irrigation Equipment",
    "source_country": "PT",
    "country": "Portugal",
    "state": "Évora",
    "city": "Arraiolos"
  },
  {
    "source_id": "ChIJS6dX_JjCGQ0Ru4ATavReNyM",
    "name": "FarmExtintores",
    "category": "FarmExtintores",
    "formatted_address": "4,0(2)",
    "phone_number": "+351966168555",
    "source_url": "https://www.google.com/maps/place/FarmExtintores/data=!4m7!3m6!1s0xd19c298fc57a74b:0x23375ef46a1380bb!8m2!3d38.7223924!4d-7.9836035!16s%2Fg%2F11f3zm2x92!19sChIJS6dX_JjCGQ0Ru4ATavReNyM?authuser=0&hl=tr&rclk=1",
    "website_url": "https://www.farmextintores.com/",
    "rating_text": "4,0",
    "stars": null,
    "number_of_reviews": null,
    "price_level": "",
    "open_hours": "",
    "extraction_timestamp": "2025-06-07T18:04:26.554Z",
    "source_name": "google",
    "source_query": "Irrigation Equipment",
    "source_country": "PT",
    "country": "Portugal",
    "state": "Évora",
    "city": "Arraiolos"
  },
  {
    "source_id": "ChIJ3yp3kdDkGQ0R7AEdlP5QHWc",
    "name": "Agrosustentável",
    "category": "Agrosustentável",
    "formatted_address": "5,0(20)",
    "phone_number": "+351918990481",
    "source_url": "https://www.google.com/maps/place/Agrosustent%C3%A1vel/data=!4m7!3m6!1s0xd19e4d091772adf:0x671d50fe941d01ec!8m2!3d38.5478219!4d-7.9021199!16s%2Fg%2F11gcdxrtj1!19sChIJ3yp3kdDkGQ0R7AEdlP5QHWc?authuser=0&hl=tr&rclk=1",
    "website_url": "http://www.agrosustentavel.com/",
    "rating_text": "5,0",
    "stars": null,
    "number_of_reviews": null,
    "price_level": "",
    "open_hours": "",
    "extraction_timestamp": "2025-06-07T18:04:26.556Z",
    "source_name": "google",
    "source_query": "Irrigation Equipment",
    "source_country": "PT",
    "country": "Portugal",
    "state": "Évora",
    "city": "Arraiolos"
  },
  {
    "source_id": "ChIJI-IgjfPlGQ0RoF-XqFQ12ms",
    "name": "Nutrima - Agri Feeds",
    "category": "Nutrima - Agri Feeds",
    "formatted_address": "4,5(390)",
    "phone_number": "+351266104474",
    "source_url": "https://www.google.com/maps/place/Nutrima+-+Agri+Feeds/data=!4m7!3m6!1s0xd19e5f38d20e223:0x6bda3554a8975fa0!8m2!3d38.5587323!4d-7.8913583!16s%2Fg%2F11g_r2zg9g!19sChIJI-IgjfPlGQ0RoF-XqFQ12ms?authuser=0&hl=tr&rclk=1",
    "website_url": "http://nutrima.pt/",
    "rating_text": "4,5",
    "stars": null,
    "number_of_reviews": null,
    "price_level": "",
    "open_hours": "",
    "extraction_timestamp": "2025-06-07T18:04:26.557Z",
    "source_name": "google",
    "source_query": "Irrigation Equipment",
    "source_country": "PT",
    "country": "Portugal",
    "state": "Évora",
    "city": "Arraiolos"
  },
  {
    "source_id": "ChIJiQ5QCCr7GQ0RCWc_orHyamY",
    "name": "STIHL EVORA",
    "category": "STIHL EVORA",
    "formatted_address": "4,5(13)",
    "phone_number": "+351965535392",
    "source_url": "https://www.google.com/maps/place/STIHL+EVORA/data=!4m7!3m6!1s0xd19fb2a08500e89:0x666af2b1a23f6709!8m2!3d38.5439574!4d-7.9089069!16s%2Fg%2F11f3_1hkh0!19sChIJiQ5QCCr7GQ0RCWc_orHyamY?authuser=0&hl=tr&rclk=1",
    "website_url": "https://www.stihl.pt/",
    "rating_text": "4,5",
    "stars": null,
    "number_of_reviews": null,
    "price_level": "",
    "open_hours": "",
    "extraction_timestamp": "2025-06-07T18:04:26.559Z",
    "source_name": "google",
    "source_query": "Irrigation Equipment",
    "source_country": "PT",
    "country": "Portugal",
    "state": "Évora",
    "city": "Arraiolos"
  },
  {
    "source_id": "ChIJuSBNqN_kGQ0RSPtuBpCoAT4",
    "name": "Sulregas, Lda.",
    "category": "Sulregas, Lda.",
    "formatted_address": "Sulregas, Lda.",
    "phone_number": "+351266749600",
    "source_url": "https://www.google.com/maps/place/Sulregas,+Lda./data=!4m7!3m6!1s0xd19e4dfa84d20b9:0x3e01a890066efb48!8m2!3d38.5492297!4d-7.9152266!16s%2Fg%2F11bbrpnhy4!19sChIJuSBNqN_kGQ0RSPtuBpCoAT4?authuser=0&hl=tr&rclk=1",
    "website_url": "https://sulregas.com.pt/",
    "rating_text": "4,5",
    "stars": null,
    "number_of_reviews": null,
    "price_level": "",
    "open_hours": "",
    "extraction_timestamp": "2025-06-07T18:04:26.560Z",
    "source_name": "google",
    "source_query": "Irrigation Equipment",
    "source_country": "PT",
    "country": "Portugal",
    "state": "Évora",
    "city": "Arraiolos"
  },
  {
    "source_id": "ChIJhb7l2y77GQ0RHDF4h7-nCD4",
    "name": "Hidroportugal - Montagem Com. Equipamentos Para Piscinas E Regas, Lda",
    "category": "Hidroportugal - Montagem Com. Equipamentos Para Piscinas E Regas, Lda",
    "formatted_address": "Hidroportugal - Montagem Com. Equipamentos Para Piscinas E Regas, Lda",
    "phone_number": "+351266745850",
    "source_url": "https://www.google.com/maps/place/Hidroportugal+-+Montagem+Com.+Equipamentos+Para+Piscinas+E+Regas,+Lda/data=!4m7!3m6!1s0xd19fb2edbe5be85:0x3e08a7bf8778311c!8m2!3d38.5457563!4d-7.9108625!16s%2Fg%2F1q628pzwt!19sChIJhb7l2y77GQ0RHDF4h7-nCD4?authuser=0&hl=tr&rclk=1",
    "website_url": "",
    "rating_text": "4,4",
    "stars": null,
    "number_of_reviews": null,
    "price_level": "",
    "open_hours": "",
    "extraction_timestamp": "2025-06-07T18:04:26.589Z",
    "source_name": "google",
    "source_query": "Irrigation Equipment",
    "source_country": "PT",
    "country": "Portugal",
    "state": "Évora",
    "city": "Arraiolos"
  },
  {
    "source_id": "ChIJMe0kvJrCGQ0R0TkfG61PiUU",
    "name": "Intermarché Arraiolos",
    "category": "Intermarché Arraiolos",
    "formatted_address": "3,9(542)",
    "phone_number": "+351266490060",
    "source_url": "https://www.google.com/maps/place/Intermarch%C3%A9+Arraiolos/data=!4m7!3m6!1s0xd19c29abc24ed31:0x45894fad1b1f39d1!8m2!3d38.72438!4d-7.990169!16s%2Fg%2F11bbrnw0k2!19sChIJMe0kvJrCGQ0R0TkfG61PiUU?authuser=0&hl=tr&rclk=1",
    "website_url": "https://www.intermarche.pt/",
    "rating_text": "3,9",
    "stars": null,
    "number_of_reviews": null,
    "price_level": "",
    "open_hours": "",
    "extraction_timestamp": "2025-06-07T18:04:26.591Z",
    "source_name": "google",
    "source_query": "Irrigation Equipment",
    "source_country": "PT",
    "country": "Portugal",
    "state": "Évora",
    "city": "Arraiolos"
  },
  {
    "source_id": "ChIJC5w7QdzkGQ0RL9ydCDy2_a0",
    "name": "HIDROSOPH, LDA",
    "category": "HIDROSOPH, LDA",
    "formatted_address": "HIDROSOPH, LDA",
    "phone_number": "+351266741253",
    "source_url": "https://www.google.com/maps/place/HIDROSOPH,+LDA/data=!4m7!3m6!1s0xd19e4dc413b9c0b:0xadfdb63c089ddc2f!8m2!3d38.5575571!4d-7.9187218!16s%2Fg%2F1td6c4dy!19sChIJC5w7QdzkGQ0RL9ydCDy2_a0?authuser=0&hl=tr&rclk=1",
    "website_url": "http://www.hidrosoph.com/",
    "rating_text": "4,0",
    "stars": null,
    "number_of_reviews": null,
    "price_level": "",
    "open_hours": "",
    "extraction_timestamp": "2025-06-07T18:04:26.592Z",
    "source_name": "google",
    "source_query": "Irrigation Equipment",
    "source_country": "PT",
    "country": "Portugal",
    "state": "Évora",
    "city": "Arraiolos"
  },
  {
    "source_id": "ChIJ57iJsMHkGQ0R-CqpbSW_uyI",
    "name": "Irrievora-Sistemas De Rega, Lda.",
    "category": "Irrievora-Sistemas De Rega, Lda.",
    "formatted_address": "Irrievora-Sistemas De Rega, Lda.",
    "phone_number": "+351266758401",
    "source_url": "https://www.google.com/maps/place/Irrievora-Sistemas+De+Rega,+Lda./data=!4m7!3m6!1s0xd19e4c1b089b8e7:0x22bbbf256da92af8!8m2!3d38.5736416!4d-7.8975256!16s%2Fg%2F1tk8dcv4!19sChIJ57iJsMHkGQ0R-CqpbSW_uyI?authuser=0&hl=tr&rclk=1",
    "website_url": "",
    "rating_text": "4,1",
    "stars": null,
    "number_of_reviews": null,
    "price_level": "",
    "open_hours": "",
    "extraction_timestamp": "2025-06-07T18:04:26.593Z",
    "source_name": "google",
    "source_query": "Irrigation Equipment",
    "source_country": "PT",
    "country": "Portugal",
    "state": "Évora",
    "city": "Arraiolos"
  },
  {
    "source_id": "ChIJpSDeUNLkGQ0RJUNr-qbwjgY",
    "name": "Bolas Máquinas E Ferramentas De Qualidade, S.A.",
    "category": "Bolas Máquinas E Ferramentas De Qualidade, S.A.",
    "formatted_address": "Bolas Máquinas E Ferramentas De Qualidade, S.A.",
    "phone_number": "+351266749300",
    "source_url": "https://www.google.com/maps/place/Bolas+M%C3%A1quinas+E+Ferramentas+De+Qualidade,+S.A./data=!4m7!3m6!1s0xd19e4d250de20a5:0x68ef0a6fa6b4325!8m2!3d38.5562454!4d-7.9085265!16s%2Fg%2F1q62fylhs!19sChIJpSDeUNLkGQ0RJUNr-qbwjgY?authuser=0&hl=tr&rclk=1",
    "website_url": "http://www.bolas.pt/",
    "rating_text": "4,7",
    "stars": null,
    "number_of_reviews": null,
    "price_level": "",
    "open_hours": "",
    "extraction_timestamp": "2025-06-07T18:04:26.594Z",
    "source_name": "google",
    "source_query": "Irrigation Equipment",
    "source_country": "PT",
    "country": "Portugal",
    "state": "Évora",
    "city": "Arraiolos"
  },
  {
    "source_id": "ChIJyWnmCmv7GQ0RpsJmy9Ccdg4",
    "name": "MANUEL FIALHO LDA",
    "category": "MANUEL FIALHO LDA",
    "formatted_address": "4,4(21)",
    "phone_number": "+351266759300",
    "source_url": "https://www.google.com/maps/place/MANUEL+FIALHO+LDA/data=!4m7!3m6!1s0xd19fb6b0ae669c9:0xe769cd0cb66c2a6!8m2!3d38.5434753!4d-7.9107878!16s%2Fg%2F11j8mxl2vl!19sChIJyWnmCmv7GQ0RpsJmy9Ccdg4?authuser=0&hl=tr&rclk=1",
    "website_url": "http://manuelfialho.pt/",
    "rating_text": "4,4",
    "stars": null,
    "number_of_reviews": null,
    "price_level": "",
    "open_hours": "",
    "extraction_timestamp": "2025-06-07T18:04:26.596Z",
    "source_name": "google",
    "source_query": "Irrigation Equipment",
    "source_country": "PT",
    "country": "Portugal",
    "state": "Évora",
    "city": "Arraiolos"
  },
  {
    "source_id": "ChIJkzMp2y46Fw0RvnbaEWtAV_Y",
    "name": "Injecção Eborense-Reparação De Bombas Injectoras, Lda.",
    "category": "Injecção Eborense-Reparação De Bombas Injectoras, Lda.",
    "formatted_address": "Injecção Eborense-Reparação De Bombas Injectoras, Lda.",
    "phone_number": "+351266731313",
    "source_url": "https://www.google.com/maps/place/Injec%C3%A7%C3%A3o+Eborense-Repara%C3%A7%C3%A3o+De+Bombas+Injectoras,+Lda./data=!4m7!3m6!1s0xd173a2edb293393:0xf657406b11da76be!8m2!3d38.5645507!4d-7.9257214!16s%2Fg%2F11bbrp35lw!19sChIJkzMp2y46Fw0RvnbaEWtAV_Y?authuser=0&hl=tr&rclk=1",
    "website_url": "",
    "rating_text": "4,6",
    "stars": null,
    "number_of_reviews": null,
    "price_level": "",
    "open_hours": "",
    "extraction_timestamp": "2025-06-07T18:04:26.597Z",
    "source_name": "google",
    "source_query": "Irrigation Equipment",
    "source_country": "PT",
    "country": "Portugal",
    "state": "Évora",
    "city": "Arraiolos"
  },
  {
    "source_id": "ChIJ_2mE5yj7GQ0Rx1wmsn2zrIw",
    "name": "Agro Reparadora José Manuel Fialho Comércio Máquinas , Unipessoal, Lda",
    "category": "Agro Reparadora José Manuel Fialho Comércio Máquinas , Unipessoal, Lda",
    "formatted_address": "Agro Reparadora José Manuel Fialho Comércio Máquinas , Unipessoal, Lda",
    "phone_number": "+351266761710",
    "source_url": "https://www.google.com/maps/place/Agro+Reparadora+Jos%C3%A9+Manuel+Fialho+Com%C3%A9rcio+M%C3%A1quinas+,+Unipessoal,+Lda/data=!4m7!3m6!1s0xd19fb28e78469ff:0x8cacb37db2265cc7!8m2!3d38.5454605!4d-7.9106218!16s%2Fg%2F11bbrrbt4r!19sChIJ_2mE5yj7GQ0Rx1wmsn2zrIw?authuser=0&hl=tr&rclk=1",
    "website_url": "",
    "rating_text": "5,0",
    "stars": null,
    "number_of_reviews": null,
    "price_level": "",
    "open_hours": "",
    "extraction_timestamp": "2025-06-07T18:04:26.598Z",
    "source_name": "google",
    "source_query": "Irrigation Equipment",
    "source_country": "PT",
    "country": "Portugal",
    "state": "Évora",
    "city": "Arraiolos"
  },
  {
    "source_id": "ChIJo_WMoNXkGQ0RbottvmpxfaY",
    "name": "Lampreia & Filhos,Lda.",
    "category": "Lampreia & Filhos,Lda.",
    "formatted_address": "Lampreia & Filhos,Lda.",
    "phone_number": "+351266744669",
    "source_url": "https://www.google.com/maps/place/Lampreia+%26+Filhos,Lda./data=!4m7!3m6!1s0xd19e4d5a08cf5a3:0xa67d716abe6d8b6e!8m2!3d38.5441875!4d-7.9089998!16s%2Fg%2F11jwsssktk!19sChIJo_WMoNXkGQ0RbottvmpxfaY?authuser=0&hl=tr&rclk=1",
    "website_url": "",
    "rating_text": "4,4",
    "stars": null,
    "number_of_reviews": null,
    "price_level": "",
    "open_hours": "",
    "extraction_timestamp": "2025-06-07T18:04:26.599Z",
    "source_name": "google",
    "source_query": "Irrigation Equipment",
    "source_country": "PT",
    "country": "Portugal",
    "state": "Évora",
    "city": "Arraiolos"
  },
  {
    "source_id": "ChIJ4y40rpd0Gg0RMB-TzW_WsnM",
    "name": "Magos Irrigation Systems",
    "category": "Magos Irrigation Systems",
    "formatted_address": "5,0(7)",
    "phone_number": "+351284328195",
    "source_url": "https://www.google.com/maps/place/Magos+Irrigation+Systems/data=!4m7!3m6!1s0xd1a7497ae342ee3:0x73b2d66fcd931f30!8m2!3d38.0253609!4d-7.8597778!16s%2Fg%2F11bzq3bn8p!19sChIJ4y40rpd0Gg0RMB-TzW_WsnM?authuser=0&hl=tr&rclk=1",
    "website_url": "http://www.magos.pt/",
    "rating_text": "5,0",
    "stars": null,
    "number_of_reviews": null,
    "price_level": "",
    "open_hours": "",
    "extraction_timestamp": "2025-06-07T18:04:26.600Z",
    "source_name": "google",
    "source_query": "Irrigation Equipment",
    "source_country": "PT",
    "country": "Portugal",
    "state": "Évora",
    "city": "Arraiolos"
  },
  {
    "source_id": "ChIJzRprM4TsGA0Rs8LUIaEKMgE",
    "name": "Irricampo Watering Systems Ltd.",
    "category": "Irricampo Watering Systems Ltd.",
    "formatted_address": "4,5(33)",
    "phone_number": "+351243359450",
    "source_url": "https://www.google.com/maps/place/Irricampo+Watering+Systems+Ltd./data=!4m7!3m6!1s0xd18ec84336b1acd:0x1320aa121d4c2b3!8m2!3d39.2583999!4d-8.7195949!16s%2Fg%2F1w2y_pzr!19sChIJzRprM4TsGA0Rs8LUIaEKMgE?authuser=0&hl=tr&rclk=1",
    "website_url": "http://www.irricampo.pt/",
    "rating_text": "4,5",
    "stars": null,
    "number_of_reviews": null,
    "price_level": "",
    "open_hours": "",
    "extraction_timestamp": "2025-06-07T18:04:26.601Z",
    "source_name": "google",
    "source_query": "Irrigation Equipment",
    "source_country": "PT",
    "country": "Portugal",
    "state": "Évora",
    "city": "Arraiolos"
  },
  {
    "source_id": "ChIJt0ScM5jCGQ0RqYBFd_1RgCk",
    "name": "Supermercado O Moinho-Comercio De Produtos Alimentares, Lda.",
    "category": "Supermercado O Moinho-Comercio De Produtos Alimentares, Lda.",
    "formatted_address": "Supermercado O Moinho-Comercio De Produtos Alimentares, Lda.",
    "phone_number": "+351266499688",
    "source_url": "https://www.google.com/maps/place/Supermercado+O+Moinho-Comercio+De+Produtos+Alimentares,+Lda./data=!4m7!3m6!1s0xd19c298339c44b7:0x298051fd774580a9!8m2!3d38.7245489!4d-7.983625!16s%2Fg%2F11bbrlj74y!19sChIJt0ScM5jCGQ0RqYBFd_1RgCk?authuser=0&hl=tr&rclk=1",
    "website_url": "",
    "rating_text": "4,8",
    "stars": null,
    "number_of_reviews": null,
    "price_level": "",
    "open_hours": "",
    "extraction_timestamp": "2025-06-07T18:04:26.602Z",
    "source_name": "google",
    "source_query": "Irrigation Equipment",
    "source_country": "PT",
    "country": "Portugal",
    "state": "Évora",
    "city": "Arraiolos"
  },
  {
    "source_id": "ChIJg3INPjbDGQ0RWVBzFNJQMvc",
    "name": "Minipreço",
    "category": "Minipreço",
    "formatted_address": "3,7(87)",
    "phone_number": "+351808200795",
    "source_url": "https://www.google.com/maps/place/Minipre%C3%A7o/data=!4m7!3m6!1s0xd19c3363e0d7283:0xf73250d214735059!8m2!3d38.723365!4d-7.984825!16s%2Fg%2F11rxblnqy9!19sChIJg3INPjbDGQ0RWVBzFNJQMvc?authuser=0&hl=tr&rclk=1",
    "website_url": "https://www.minipreco.pt/",
    "rating_text": "3,7",
    "stars": null,
    "number_of_reviews": null,
    "price_level": "",
    "open_hours": "",
    "extraction_timestamp": "2025-06-07T18:04:26.604Z",
    "source_name": "google",
    "source_query": "Irrigation Equipment",
    "source_country": "PT",
    "country": "Portugal",
    "state": "Évora",
    "city": "Arraiolos"
  },
  {
    "source_id": "ChIJjRyu3arDGQ0Ra4nGQCrm8MM",
    "name": "Manjerona & C.ª",
    "category": "Manjerona & C.ª",
    "formatted_address": "4,9(8)",
    "phone_number": "+351963981090",
    "source_url": "https://www.google.com/maps/place/Manjerona+%26+C.%C2%AA/data=!4m7!3m6!1s0xd19c3aaddae1c8d:0xc3f0e62a40c6896b!8m2!3d38.7250877!4d-7.9847597!16s%2Fg%2F11h9pc95z3!19sChIJjRyu3arDGQ0Ra4nGQCrm8MM?authuser=0&hl=tr&rclk=1",
    "website_url": "",
    "rating_text": "4,9",
    "stars": null,
    "number_of_reviews": null,
    "price_level": "",
    "open_hours": "",
    "extraction_timestamp": "2025-06-07T18:04:26.605Z",
    "source_name": "google",
    "source_query": "Irrigation Equipment",
    "source_country": "PT",
    "country": "Portugal",
    "state": "Évora",
    "city": "Arraiolos"
  },
  {
    "source_id": "ChIJzVk8d1ccFw0Rl7CNPBnQtO4",
    "name": "RegasCampo - Sistemas de Rega Lda.",
    "category": "RegasCampo - Sistemas de Rega Lda.",
    "formatted_address": "4,1(41)",
    "phone_number": "+351268622326",
    "source_url": "https://www.google.com/maps/place/RegasCampo+-+Sistemas+de+Rega+Lda./data=!4m7!3m6!1s0xd171c57773c59cd:0xeeb4d0193c8db097!8m2!3d38.8912417!4d-7.1457903!16s%2Fg%2F11c6sn13x4!19sChIJzVk8d1ccFw0Rl7CNPBnQtO4?authuser=0&hl=tr&rclk=1",
    "website_url": "",
    "rating_text": "4,1",
    "stars": null,
    "number_of_reviews": null,
    "price_level": "",
    "open_hours": "",
    "extraction_timestamp": "2025-06-07T18:04:26.606Z",
    "source_name": "google",
    "source_query": "Irrigation Equipment",
    "source_country": "PT",
    "country": "Portugal",
    "state": "Évora",
    "city": "Arraiolos"
  },
  {
    "source_id": "ChIJieuV_410Gg0RCPUJNW20PxA",
    "name": "Irripax - Comércio de Máquinas Agricolas e Industriais, Lda",
    "category": "Irripax - Comércio de Máquinas Agricolas e Industriais, Lda",
    "formatted_address": "Irripax - Comércio de Máquinas Agricolas e Industriais, Lda",
    "phone_number": "+351284327440",
    "source_url": "https://www.google.com/maps/place/Irripax+-+Com%C3%A9rcio+de+M%C3%A1quinas+Agricolas+e+Industriais,+Lda/data=!4m7!3m6!1s0xd1a748dff95eb89:0x103fb46d3509f508!8m2!3d38.0224261!4d-7.8557339!16s%2Fg%2F1q62l0qth!19sChIJieuV_410Gg0RCPUJNW20PxA?authuser=0&hl=tr&rclk=1",
    "website_url": "https://www.irripax.pt/",
    "rating_text": "4,3",
    "stars": null,
    "number_of_reviews": null,
    "price_level": "",
    "open_hours": "",
    "extraction_timestamp": "2025-06-07T18:04:26.607Z",
    "source_name": "google",
    "source_query": "Irrigation Equipment",
    "source_country": "PT",
    "country": "Portugal",
    "state": "Évora",
    "city": "Arraiolos"
  },
  {
    "source_id": "ChIJe1irIciFGQ0RVrh3nMy7Wgw",
    "name": "Corta Mato - Limpeza de Terrenos",
    "category": "Corta Mato - Limpeza de Terrenos",
    "formatted_address": "4,9(11)",
    "phone_number": "+351928050157",
    "source_url": "https://www.google.com/maps/place/Corta+Mato+-+Limpeza+de+Terrenos/data=!4m7!3m6!1s0xd1985c821ab587b:0xc5abbcc9c77b856!8m2!3d38.4873402!4d-8.3643505!16s%2Fg%2F11h6n29v02!19sChIJe1irIciFGQ0RVrh3nMy7Wgw?authuser=0&hl=tr&rclk=1",
    "website_url": "http://www.cortamato.net/",
    "rating_text": "4,9",
    "stars": null,
    "number_of_reviews": null,
    "price_level": "",
    "open_hours": "",
    "extraction_timestamp": "2025-06-07T18:04:26.609Z",
    "source_name": "google",
    "source_query": "Irrigation Equipment",
    "source_country": "PT",
    "country": "Portugal",
    "state": "Évora",
    "city": "Arraiolos"
  },
  {
    "source_id": "ChIJKS2qoctNFw0Rd-uUA9X_3dY",
    "name": "Gonçalagro, Sociedade Agro Comercial, Lda - Filial 1 - Reguengos de Monsaraz",
    "category": "Gonçalagro, Sociedade Agro Comercial, Lda - Filial 1 - Reguengos de Monsaraz",
    "formatted_address": "Gonçalagro, Sociedade Agro Comercial, Lda - Filial 1 - Reguengos de Monsaraz",
    "phone_number": "+351275751555",
    "source_url": "https://www.google.com/maps/place/Gon%C3%A7alagro,+Sociedade+Agro+Comercial,+Lda+-+Filial+1+-+Reguengos+de+Monsaraz/data=!4m7!3m6!1s0xd174dcba1aa2d29:0xd6ddffd50394eb77!8m2!3d38.422145!4d-7.5437137!16s%2Fg%2F11h0th718j!19sChIJKS2qoctNFw0Rd-uUA9X_3dY?authuser=0&hl=tr&rclk=1",
    "website_url": "http://www.goncalagro.pt/",
    "rating_text": "4,1",
    "stars": null,
    "number_of_reviews": null,
    "price_level": "",
    "open_hours": "",
    "extraction_timestamp": "2025-06-07T18:04:26.611Z",
    "source_name": "google",
    "source_query": "Irrigation Equipment",
    "source_country": "PT",
    "country": "Portugal",
    "state": "Évora",
    "city": "Arraiolos"
  },
  {
    "source_id": "ChIJK-sdzC37GQ0Rg5rynT9Obws",
    "name": "Tiendanimal",
    "category": "Tiendanimal",
    "formatted_address": "4,6(80)",
    "phone_number": "+351266247392",
    "source_url": "https://www.google.com/maps/place/Tiendanimal/data=!4m7!3m6!1s0xd19fb2dcc1deb2b:0xb6f4e3f9df29a83!8m2!3d38.5497313!4d-7.9054148!16s%2Fg%2F11f_kmrwxk!19sChIJK-sdzC37GQ0Rg5rynT9Obws?authuser=0&hl=tr&rclk=1",
    "website_url": "",
    "rating_text": "4,6",
    "stars": null,
    "number_of_reviews": null,
    "price_level": "",
    "open_hours": "",
    "extraction_timestamp": "2025-06-07T18:04:26.612Z",
    "source_name": "google",
    "source_query": "Irrigation Equipment",
    "source_country": "PT",
    "country": "Portugal",
    "state": "Évora",
    "city": "Arraiolos"
  },
  {
    "source_id": "ChIJ7TMJxgflGQ0RPdl083qpCZM",
    "name": "Leroy Merlin Évora",
    "category": "Leroy Merlin Évora",
    "formatted_address": "4,0(1.864)",
    "phone_number": "+351211944944",
    "source_url": "https://www.google.com/maps/place/Leroy+Merlin+%C3%89vora/data=!4m7!3m6!1s0xd19e507c60933ed:0x9309a97af374d93d!8m2!3d38.5598022!4d-7.8946578!16s%2Fg%2F11r7rd3828!19sChIJ7TMJxgflGQ0RPdl083qpCZM?authuser=0&hl=tr&rclk=1",
    "website_url": "https://www.leroymerlin.pt/lojas/leroy-merlin-evora.html",
    "rating_text": "4,0",
    "stars": null,
    "number_of_reviews": null,
    "price_level": "",
    "open_hours": "",
    "extraction_timestamp": "2025-06-07T18:04:26.615Z",
    "source_name": "google",
    "source_query": "Irrigation Equipment",
    "source_country": "PT",
    "country": "Portugal",
    "state": "Évora",
    "city": "Arraiolos"
  },
  {
    "source_id": "ChIJRY5b-SnlGQ0RBqS9a3Hj2rc",
    "name": "Maquidiana - Máquinas e Equipamentos Agrícolas, Lda.",
    "category": "Maquidiana - Máquinas e Equipamentos Agrícolas, Lda.",
    "formatted_address": "Maquidiana - Máquinas e Equipamentos Agrícolas, Lda.",
    "phone_number": "+351266706537",
    "source_url": "https://www.google.com/maps/place/Maquidiana+-+M%C3%A1quinas+e+Equipamentos+Agr%C3%ADcolas,+Lda./data=!4m7!3m6!1s0xd19e529f95b8e45:0xb7dae3716bbda406!8m2!3d38.5583965!4d-7.9161119!16s%2Fg%2F11bbrl0368!19sChIJRY5b-SnlGQ0RBqS9a3Hj2rc?authuser=0&hl=tr&rclk=1",
    "website_url": "https://www.abolsamia.pt/microsite/maquidiana-lda-16993",
    "rating_text": "4,0",
    "stars": null,
    "number_of_reviews": null,
    "price_level": "",
    "open_hours": "",
    "extraction_timestamp": "2025-06-07T18:04:26.616Z",
    "source_name": "google",
    "source_query": "Irrigation Equipment",
    "source_country": "PT",
    "country": "Portugal",
    "state": "Évora",
    "city": "Arraiolos"
  },
  {
    "source_id": "ChIJa8urO1_wGA0R6B9nyngJEYE",
    "name": "Agriloja de Almeirim",
    "category": "Agriloja de Almeirim",
    "formatted_address": "4,5(777)",
    "phone_number": "+351243593410",
    "source_url": "https://www.google.com/maps/place/Agriloja+de+Almeirim/data=!4m7!3m6!1s0xd18f05f3babcb6b:0x81110978ca671fe8!8m2!3d39.1925811!4d-8.6194611!16s%2Fg%2F1hm3djpgr!19sChIJa8urO1_wGA0R6B9nyngJEYE?authuser=0&hl=tr&rclk=1",
    "website_url": "http://www.agriloja.pt/",
    "rating_text": "4,5",
    "stars": null,
    "number_of_reviews": null,
    "price_level": "",
    "open_hours": "",
    "extraction_timestamp": "2025-06-07T18:04:26.617Z",
    "source_name": "google",
    "source_query": "Irrigation Equipment",
    "source_country": "PT",
    "country": "Portugal",
    "state": "Évora",
    "city": "Arraiolos"
  },
  {
    "source_id": "ChIJsXB5zzrlGA0RyQv6JfgNUms",
    "name": "Domiregas",
    "category": "Domiregas",
    "formatted_address": "4,0(17)",
    "phone_number": "+351243580172",
    "source_url": "https://www.google.com/maps/place/Domiregas/data=!4m7!3m6!1s0xd18e53acf7970b1:0x6b520df825fa0bc9!8m2!3d39.1445787!4d-8.6844157!16s%2Fg%2F11fjy4m5xq!19sChIJsXB5zzrlGA0RyQv6JfgNUms?authuser=0&hl=tr&rclk=1",
    "website_url": "",
    "rating_text": "4,0",
    "stars": null,
    "number_of_reviews": null,
    "price_level": "",
    "open_hours": "",
    "extraction_timestamp": "2025-06-07T18:04:26.619Z",
    "source_name": "google",
    "source_query": "Irrigation Equipment",
    "source_country": "PT",
    "country": "Portugal",
    "state": "Évora",
    "city": "Arraiolos"
  },
  {
    "source_id": "ChIJA9ceBRUnGQ0RXcGn-jrciXE",
    "name": "Benatlregas",
    "category": "Benatlregas",
    "formatted_address": "4,8(13)",
    "phone_number": "+351263653007",
    "source_url": "https://www.google.com/maps/place/Benatlregas/data=!4m7!3m6!1s0xd192715051ed703:0x7189dc3afaa7c15d!8m2!3d38.968819!4d-8.9047549!16s%2Fg%2F11fm9dbctv!19sChIJA9ceBRUnGQ0RXcGn-jrciXE?authuser=0&hl=tr&rclk=1",
    "website_url": "http://www.benatlregas.com/",
    "rating_text": "4,8",
    "stars": null,
    "number_of_reviews": null,
    "price_level": "",
    "open_hours": "",
    "extraction_timestamp": "2025-06-07T18:04:26.620Z",
    "source_name": "google",
    "source_query": "Irrigation Equipment",
    "source_country": "PT",
    "country": "Portugal",
    "state": "Évora",
    "city": "Arraiolos"
  },
  {
    "source_id": "ChIJ-yJexUflGQ0RiV50UuoQkTo",
    "name": "Novicampo - Loja",
    "category": "Novicampo - Loja",
    "formatted_address": "4,8(5)",
    "phone_number": "+351266746305",
    "source_url": "https://www.google.com/maps/place/Novicampo+-+Loja/data=!4m7!3m6!1s0xd19e547c55e22fb:0x3a9110ea52745e89!8m2!3d38.5650577!4d-7.9015116!16s%2Fg%2F11s61hsyz6!19sChIJ-yJexUflGQ0RiV50UuoQkTo?authuser=0&hl=tr&rclk=1",
    "website_url": "",
    "rating_text": "4,8",
    "stars": null,
    "number_of_reviews": null,
    "price_level": "",
    "open_hours": "",
    "extraction_timestamp": "2025-06-07T18:04:26.621Z",
    "source_name": "google",
    "source_query": "Irrigation Equipment",
    "source_country": "PT",
    "country": "Portugal",
    "state": "Évora",
    "city": "Arraiolos"
  },
  {
    "source_id": "ChIJH3e7zCHlGQ0R3aHIjzwVHCw",
    "name": "Nutriévora-Comércio Rações Produtos Agrícolas Lda",
    "category": "Nutriévora-Comércio Rações Produtos Agrícolas Lda",
    "formatted_address": "4,3(3)",
    "phone_number": "+351266746137",
    "source_url": "https://www.google.com/maps/place/Nutri%C3%A9vora-Com%C3%A9rcio+Ra%C3%A7%C3%B5es+Produtos+Agr%C3%ADcolas+Lda/data=!4m7!3m6!1s0xd19e521ccbb771f:0x2c1c153c8fc8a1dd!8m2!3d38.5588635!4d-7.8903718!16s%2Fg%2F1vxvk3gd!19sChIJH3e7zCHlGQ0R3aHIjzwVHCw?authuser=0&hl=tr&rclk=1",
    "website_url": "http://www.nutrievora.pt/",
    "rating_text": "4,3",
    "stars": null,
    "number_of_reviews": null,
    "price_level": "",
    "open_hours": "",
    "extraction_timestamp": "2025-06-07T18:04:26.623Z",
    "source_name": "google",
    "source_query": "Irrigation Equipment",
    "source_country": "PT",
    "country": "Portugal",
    "state": "Évora",
    "city": "Arraiolos"
  },
  {
    "source_id": "ChIJQRMxE24yGQ0R6jsOcv7-Wzw",
    "name": "Aquamatic, Sistemas de Rega S.A.",
    "category": "Aquamatic, Sistemas de Rega S.A.",
    "formatted_address": "Aquamatic, Sistemas de Rega S.A.",
    "phone_number": "+351219498000",
    "source_url": "https://www.google.com/maps/place/Aquamatic,+Sistemas+de+Rega+S.A./data=!4m7!3m6!1s0xd19326e13311341:0x3c5bfefe720e3bea!8m2!3d38.7855945!4d-9.1301774!16s%2Fg%2F1tmz85qj!19sChIJQRMxE24yGQ0R6jsOcv7-Wzw?authuser=0&hl=tr&rclk=1",
    "website_url": "http://www.aquamatic.pt/",
    "rating_text": "4,6",
    "stars": null,
    "number_of_reviews": null,
    "price_level": "",
    "open_hours": "",
    "extraction_timestamp": "2025-06-07T18:04:26.639Z",
    "source_name": "google",
    "source_query": "Irrigation Equipment",
    "source_country": "PT",
    "country": "Portugal",
    "state": "Évora",
    "city": "Arraiolos"
  },
  {
    "source_id": "ChIJzcQliWO9Fw0RPIBesB870Tk",
    "name": "Agriloja de Portalegre",
    "category": "Agriloja de Portalegre",
    "formatted_address": "4,2(191)",
    "phone_number": "+351245106755",
    "source_url": "https://www.google.com/maps/place/Agriloja+de+Portalegre/data=!4m7!3m6!1s0xd17bd638925c4cd:0x39d13b1fb05e803c!8m2!3d39.2768124!4d-7.4327366!16s%2Fg%2F1hm3djclw!19sChIJzcQliWO9Fw0RPIBesB870Tk?authuser=0&hl=tr&rclk=1",
    "website_url": "http://www.agriloja.pt/",
    "rating_text": "4,2",
    "stars": null,
    "number_of_reviews": null,
    "price_level": "",
    "open_hours": "",
    "extraction_timestamp": "2025-06-07T18:04:26.641Z",
    "source_name": "google",
    "source_query": "Irrigation Equipment",
    "source_country": "PT",
    "country": "Portugal",
    "state": "Évora",
    "city": "Arraiolos"
  }
]
