[
  {
    "source_id": "ChIJQZM2x9xgFw0RWvidKiUoXBE",
    "name": "Vicente A. Santos & Filhos L.da",
    "category": "Vicente A. Santos & Filhos L.da",
    "formatted_address": "4,5(25)",
    "phone_number": "+351268322648",
    "source_url": "https://www.google.com/maps/place/Vicente+A.+Santos+%26+Filhos+L.da/data=!4m7!3m6!1s0xd1760dcc7369341:0x115c28252a9df85a!8m2!3d38.843565!4d-7.57959!16s%2Fg%2F1v3kpb5w!19sChIJQZM2x9xgFw0RWvidKiUoXBE?authuser=0&hl=tr&rclk=1",
    "website_url": "",
    "rating_text": "4,5",
    "stars": null,
    "number_of_reviews": null,
    "price_level": "",
    "open_hours": "",
    "extraction_timestamp": "2025-06-07T18:04:35.201Z",
    "source_name": "google",
    "source_query": "Irrigation Equipment",
    "source_country": "PT",
    "country": "Portugal",
    "state": "Évora",
    "city": "Estremoz"
  },
  {
    "source_id": "ChIJB4jmWj5vFw0R8bOpf7VqqjU",
    "name": "Ditagrol-Produtos P/ Agricultura Lda.",
    "category": "Ditagrol-Produtos P/ Agricultura Lda.",
    "formatted_address": "4,5(38)",
    "phone_number": "+351268322813",
    "source_url": "https://www.google.com/maps/place/Ditagrol-Produtos+P%2F+Agricultura+Lda./data=!4m7!3m6!1s0xd176f3e5ae68807:0x35aa6ab57fa9b3f1!8m2!3d38.8463075!4d-7.5812006!16s%2Fg%2F1tkkw40m!19sChIJB4jmWj5vFw0R8bOpf7VqqjU?authuser=0&hl=tr&rclk=1",
    "website_url": "",
    "rating_text": "4,5",
    "stars": null,
    "number_of_reviews": null,
    "price_level": "",
    "open_hours": "",
    "extraction_timestamp": "2025-06-07T18:04:35.202Z",
    "source_name": "google",
    "source_query": "Irrigation Equipment",
    "source_country": "PT",
    "country": "Portugal",
    "state": "Évora",
    "city": "Estremoz"
  },
  {
    "source_id": "ChIJId9vgDxvFw0RWXkPOBiMGZ8",
    "name": "Arlimoz - Comércio de Equipamentos Industriais, Lda.",
    "category": "Arlimoz - Comércio de Equipamentos Industriais, Lda.",
    "formatted_address": "Arlimoz - Comércio de Equipamentos Industriais, Lda.",
    "phone_number": "+351268322103",
    "source_url": "https://www.google.com/maps/place/Arlimoz+-+Com%C3%A9rcio+de+Equipamentos+Industriais,+Lda./data=!4m7!3m6!1s0xd176f3c806fdf21:0x9f198c18380f7959!8m2!3d38.842739!4d-7.5779353!16s%2Fg%2F113k2rm7b!19sChIJId9vgDxvFw0RWXkPOBiMGZ8?authuser=0&hl=tr&rclk=1",
    "website_url": "",
    "rating_text": "4,4",
    "stars": null,
    "number_of_reviews": null,
    "price_level": "",
    "open_hours": "",
    "extraction_timestamp": "2025-06-07T18:04:35.203Z",
    "source_name": "google",
    "source_query": "Irrigation Equipment",
    "source_country": "PT",
    "country": "Portugal",
    "state": "Évora",
    "city": "Estremoz"
  },
  {
    "source_id": "ChIJHbsqZhVvFw0Re8jgaNth5_U",
    "name": "Climalentejo",
    "category": "Climalentejo",
    "formatted_address": "4,2(50)",
    "phone_number": "+351268084124",
    "source_url": "https://www.google.com/maps/place/Climalentejo/data=!4m7!3m6!1s0xd176f15662abb1d:0xf5e761db68e0c87b!8m2!3d38.8464738!4d-7.5767113!16s%2Fg%2F1tfv_dsn!19sChIJHbsqZhVvFw0Re8jgaNth5_U?authuser=0&hl=tr&rclk=1",
    "website_url": "",
    "rating_text": "4,2",
    "stars": null,
    "number_of_reviews": null,
    "price_level": "",
    "open_hours": "",
    "extraction_timestamp": "2025-06-07T18:04:35.204Z",
    "source_name": "google",
    "source_query": "Irrigation Equipment",
    "source_country": "PT",
    "country": "Portugal",
    "state": "Évora",
    "city": "Estremoz"
  },
  {
    "source_id": "ChIJZ1fDukAVFw0R4LYVygXUgCw",
    "name": "Tempaqua",
    "category": "Tempaqua",
    "formatted_address": "5,0(2)",
    "phone_number": "",
    "source_url": "https://www.google.com/maps/place/Tempaqua/data=!4m7!3m6!1s0xd171540bac35767:0x2c80d405ca15b6e0!8m2!3d38.8486606!4d-7.5815551!16s%2Fg%2F11lst19dpk!19sChIJZ1fDukAVFw0R4LYVygXUgCw?authuser=0&hl=tr&rclk=1",
    "website_url": "",
    "rating_text": "5,0",
    "stars": null,
    "number_of_reviews": null,
    "price_level": "",
    "open_hours": "",
    "extraction_timestamp": "2025-06-07T18:04:35.205Z",
    "source_name": "google",
    "source_query": "Irrigation Equipment",
    "source_country": "PT",
    "country": "Portugal",
    "state": "Évora",
    "city": "Estremoz"
  },
  {
    "source_id": "ChIJl5ipnjtvFw0R8Oo3K4zqzaE",
    "name": "Pirra-máquinas,ferramentas Lda",
    "category": "Pirra-máquinas,ferramentas Lda",
    "formatted_address": "Pirra-máquinas,ferramentas Lda",
    "phone_number": "+351268332217",
    "source_url": "https://www.google.com/maps/place/Pirra-m%C3%A1quinas,ferramentas+Lda/data=!4m7!3m6!1s0xd176f3b9ea99897:0xa1cdea8c2b37eaf0!8m2!3d38.8411036!4d-7.5837527!16s%2Fg%2F1ttdzq3k!19sChIJl5ipnjtvFw0R8Oo3K4zqzaE?authuser=0&hl=tr&rclk=1",
    "website_url": "",
    "rating_text": "4,4",
    "stars": null,
    "number_of_reviews": null,
    "price_level": "",
    "open_hours": "",
    "extraction_timestamp": "2025-06-07T18:04:35.206Z",
    "source_name": "google",
    "source_query": "Irrigation Equipment",
    "source_country": "PT",
    "country": "Portugal",
    "state": "Évora",
    "city": "Estremoz"
  },
  {
    "source_id": "ChIJx72sMu0VGg0RH2KzFon0GXE",
    "name": "Imper Regas (Filial)",
    "category": "Imper Regas (Filial)",
    "formatted_address": "4,8(24)",
    "phone_number": "+351284739304",
    "source_url": "https://www.google.com/maps/place/Imper+Regas+%28Filial%29/data=!4m7!3m6!1s0xd1a15ed32acbdc7:0x7119f48916b3621f!8m2!3d38.0647407!4d-8.1200952!16s%2Fg%2F11f76_49s1!19sChIJx72sMu0VGg0RH2KzFon0GXE?authuser=0&hl=tr&rclk=1",
    "website_url": "",
    "rating_text": "4,8",
    "stars": null,
    "number_of_reviews": null,
    "price_level": "",
    "open_hours": "",
    "extraction_timestamp": "2025-06-07T18:04:35.207Z",
    "source_name": "google",
    "source_query": "Irrigation Equipment",
    "source_country": "PT",
    "country": "Portugal",
    "state": "Évora",
    "city": "Estremoz"
  },
  {
    "source_id": "ChIJ-aPWCDhvFw0RDo4GKwJ3NTA",
    "name": "João Alberto Mateus",
    "category": "João Alberto Mateus",
    "formatted_address": "4,7(27)",
    "phone_number": "+351268333836",
    "source_url": "https://www.google.com/maps/place/Jo%C3%A3o+Alberto+Mateus/data=!4m7!3m6!1s0xd176f3808d6a3f9:0x303577022b068e0e!8m2!3d38.8402481!4d-7.5847001!16s%2Fg%2F1tf4g8v0!19sChIJ-aPWCDhvFw0RDo4GKwJ3NTA?authuser=0&hl=tr&rclk=1",
    "website_url": "",
    "rating_text": "4,7",
    "stars": null,
    "number_of_reviews": null,
    "price_level": "",
    "open_hours": "",
    "extraction_timestamp": "2025-06-07T18:04:35.207Z",
    "source_name": "google",
    "source_query": "Irrigation Equipment",
    "source_country": "PT",
    "country": "Portugal",
    "state": "Évora",
    "city": "Estremoz"
  },
  {
    "source_id": "ChIJUS2PwDpvFw0RM7nAs0YGpWg",
    "name": "Bricomarché Estremoz",
    "category": "Bricomarché Estremoz",
    "formatted_address": "4,4(87)",
    "phone_number": "+351268249961",
    "source_url": "https://www.google.com/maps/place/Bricomarch%C3%A9+Estremoz/data=!4m7!3m6!1s0xd176f3ac08f2d51:0x68a50646b3c0b933!8m2!3d38.84687!4d-7.579643!16s%2Fg%2F11vbt7qg5j!19sChIJUS2PwDpvFw0RM7nAs0YGpWg?authuser=0&hl=tr&rclk=1",
    "website_url": "",
    "rating_text": "4,4",
    "stars": null,
    "number_of_reviews": null,
    "price_level": "",
    "open_hours": "",
    "extraction_timestamp": "2025-06-07T18:04:35.241Z",
    "source_name": "google",
    "source_query": "Irrigation Equipment",
    "source_country": "PT",
    "country": "Portugal",
    "state": "Évora",
    "city": "Estremoz"
  },
  {
    "source_id": "ChIJI-IgjfPlGQ0RoF-XqFQ12ms",
    "name": "Nutrima - Agri Feeds",
    "category": "Nutrima - Agri Feeds",
    "formatted_address": "4,5(390)",
    "phone_number": "+351266104474",
    "source_url": "https://www.google.com/maps/place/Nutrima+-+Agri+Feeds/data=!4m7!3m6!1s0xd19e5f38d20e223:0x6bda3554a8975fa0!8m2!3d38.5587323!4d-7.8913583!16s%2Fg%2F11g_r2zg9g!19sChIJI-IgjfPlGQ0RoF-XqFQ12ms?authuser=0&hl=tr&rclk=1",
    "website_url": "",
    "rating_text": "4,5",
    "stars": null,
    "number_of_reviews": null,
    "price_level": "",
    "open_hours": "",
    "extraction_timestamp": "2025-06-07T18:04:35.243Z",
    "source_name": "google",
    "source_query": "Irrigation Equipment",
    "source_country": "PT",
    "country": "Portugal",
    "state": "Évora",
    "city": "Estremoz"
  },
  {
    "source_id": "ChIJiQ5QCCr7GQ0RCWc_orHyamY",
    "name": "STIHL EVORA",
    "category": "STIHL EVORA",
    "formatted_address": "4,5(13)",
    "phone_number": "+351965535392",
    "source_url": "https://www.google.com/maps/place/STIHL+EVORA/data=!4m7!3m6!1s0xd19fb2a08500e89:0x666af2b1a23f6709!8m2!3d38.5439574!4d-7.9089069!16s%2Fg%2F11f3_1hkh0!19sChIJiQ5QCCr7GQ0RCWc_orHyamY?authuser=0&hl=tr&rclk=1",
    "website_url": "",
    "rating_text": "4,5",
    "stars": null,
    "number_of_reviews": null,
    "price_level": "",
    "open_hours": "",
    "extraction_timestamp": "2025-06-07T18:04:35.244Z",
    "source_name": "google",
    "source_query": "Irrigation Equipment",
    "source_country": "PT",
    "country": "Portugal",
    "state": "Évora",
    "city": "Estremoz"
  },
  {
    "source_id": "ChIJ4y40rpd0Gg0RMB-TzW_WsnM",
    "name": "Magos Irrigation Systems",
    "category": "Magos Irrigation Systems",
    "formatted_address": "5,0(7)",
    "phone_number": "+351284328195",
    "source_url": "https://www.google.com/maps/place/Magos+Irrigation+Systems/data=!4m7!3m6!1s0xd1a7497ae342ee3:0x73b2d66fcd931f30!8m2!3d38.0253609!4d-7.8597778!16s%2Fg%2F11bzq3bn8p!19sChIJ4y40rpd0Gg0RMB-TzW_WsnM?authuser=0&hl=tr&rclk=1",
    "website_url": "",
    "rating_text": "5,0",
    "stars": null,
    "number_of_reviews": null,
    "price_level": "",
    "open_hours": "",
    "extraction_timestamp": "2025-06-07T18:04:35.245Z",
    "source_name": "google",
    "source_query": "Irrigation Equipment",
    "source_country": "PT",
    "country": "Portugal",
    "state": "Évora",
    "city": "Estremoz"
  },
  {
    "source_id": "ChIJI6T6Jyj7GQ0RErNH50ff5EM",
    "name": "Alemplás, Lda - Produção e Comércio de Produtos Plásticos e Agrícolas",
    "category": "Alemplás, Lda - Produção e Comércio de Produtos Plásticos e Agrícolas",
    "formatted_address": "Alemplás, Lda - Produção e Comércio de Produtos Plásticos e Agrícolas",
    "phone_number": "+351266700393",
    "source_url": "https://www.google.com/maps/place/Alempl%C3%A1s,+Lda+-+Produ%C3%A7%C3%A3o+e+Com%C3%A9rcio+de+Produtos+Pl%C3%A1sticos+e+Agr%C3%ADcolas/data=!4m7!3m6!1s0xd19fb2827faa423:0x43e4df47e747b312!8m2!3d38.5443888!4d-7.915671!16s%2Fg%2F11f3b917hh!19sChIJI6T6Jyj7GQ0RErNH50ff5EM?authuser=0&hl=tr&rclk=1",
    "website_url": "",
    "rating_text": "4,7",
    "stars": null,
    "number_of_reviews": null,
    "price_level": "",
    "open_hours": "",
    "extraction_timestamp": "2025-06-07T18:04:35.246Z",
    "source_name": "google",
    "source_query": "Irrigation Equipment",
    "source_country": "PT",
    "country": "Portugal",
    "state": "Évora",
    "city": "Estremoz"
  },
  {
    "source_id": "ChIJzVk8d1ccFw0Rl7CNPBnQtO4",
    "name": "RegasCampo - Sistemas de Rega Lda.",
    "category": "RegasCampo - Sistemas de Rega Lda.",
    "formatted_address": "4,1(41)",
    "phone_number": "+351268622326",
    "source_url": "https://www.google.com/maps/place/RegasCampo+-+Sistemas+de+Rega+Lda./data=!4m7!3m6!1s0xd171c57773c59cd:0xeeb4d0193c8db097!8m2!3d38.8912417!4d-7.1457903!16s%2Fg%2F11c6sn13x4!19sChIJzVk8d1ccFw0Rl7CNPBnQtO4?authuser=0&hl=tr&rclk=1",
    "website_url": "",
    "rating_text": "4,1",
    "stars": null,
    "number_of_reviews": null,
    "price_level": "",
    "open_hours": "",
    "extraction_timestamp": "2025-06-07T18:04:35.246Z",
    "source_name": "google",
    "source_query": "Irrigation Equipment",
    "source_country": "PT",
    "country": "Portugal",
    "state": "Évora",
    "city": "Estremoz"
  },
  {
    "source_id": "ChIJ3yp3kdDkGQ0R7AEdlP5QHWc",
    "name": "Agrosustentável",
    "category": "Agrosustentável",
    "formatted_address": "5,0(20)",
    "phone_number": "+351918990481",
    "source_url": "https://www.google.com/maps/place/Agrosustent%C3%A1vel/data=!4m7!3m6!1s0xd19e4d091772adf:0x671d50fe941d01ec!8m2!3d38.5478219!4d-7.9021199!16s%2Fg%2F11gcdxrtj1!19sChIJ3yp3kdDkGQ0R7AEdlP5QHWc?authuser=0&hl=tr&rclk=1",
    "website_url": "",
    "rating_text": "5,0",
    "stars": null,
    "number_of_reviews": null,
    "price_level": "",
    "open_hours": "",
    "extraction_timestamp": "2025-06-07T18:04:35.248Z",
    "source_name": "google",
    "source_query": "Irrigation Equipment",
    "source_country": "PT",
    "country": "Portugal",
    "state": "Évora",
    "city": "Estremoz"
  },
  {
    "source_id": "ChIJX8Eoqj5vFw0RieFK6bNgRzE",
    "name": "Mira Madeira Electrodomesticos Climatização e Energia, Lda",
    "category": "Mira Madeira Electrodomesticos Climatização e Energia, Lda",
    "formatted_address": "Mira Madeira Electrodomesticos Climatização e Energia, Lda",
    "phone_number": "+351268322470",
    "source_url": "https://www.google.com/maps/place/Mira+Madeira+Electrodomesticos+Climatiza%C3%A7%C3%A3o+e+Energia,+Lda/data=!4m7!3m6!1s0xd176f3eaa28c15f:0x314760b3e94ae189!8m2!3d38.8415268!4d-7.5842006!16s%2Fg%2F1td5sjtt!19sChIJX8Eoqj5vFw0RieFK6bNgRzE?authuser=0&hl=tr&rclk=1",
    "website_url": "",
    "rating_text": "3,1",
    "stars": null,
    "number_of_reviews": null,
    "price_level": "",
    "open_hours": "",
    "extraction_timestamp": "2025-06-07T18:04:35.249Z",
    "source_name": "google",
    "source_query": "Irrigation Equipment",
    "source_country": "PT",
    "country": "Portugal",
    "state": "Évora",
    "city": "Estremoz"
  },
  {
    "source_id": "ChIJg0yVnGpvFw0Rce9XWOqD4O4",
    "name": "Sádio-comércio De Materiais De Construção Unipessoal Lda",
    "category": "Sádio-comércio De Materiais De Construção Unipessoal Lda",
    "formatted_address": "",
    "phone_number": "+351268332022",
    "source_url": "https://www.google.com/maps/place/S%C3%A1dio-com%C3%A9rcio+De+Materiais+De+Constru%C3%A7%C3%A3o+Unipessoal+Lda/data=!4m7!3m6!1s0xd176f6a9c954c83:0xeee083ea5857ef71!8m2!3d38.8426755!4d-7.5532672!16s%2Fg%2F1thl6pxr!19sChIJg0yVnGpvFw0Rce9XWOqD4O4?authuser=0&hl=tr&rclk=1",
    "website_url": "",
    "rating_text": "",
    "stars": null,
    "number_of_reviews": null,
    "price_level": "",
    "open_hours": "",
    "extraction_timestamp": "2025-06-07T18:04:35.250Z",
    "source_name": "google",
    "source_query": "Irrigation Equipment",
    "source_country": "PT",
    "country": "Portugal",
    "state": "Évora",
    "city": "Estremoz"
  }
]
