[
  {
    "source_id": "ChIJUYkH10qVGQ0RGw16gvwA4qc",
    "name": "MOREnergia",
    "category": "MOREnergia",
    "formatted_address": "",
    "phone_number": "+351963051994",
    "source_url": "https://www.google.com/maps/place/MOREnergia/data=!4m7!3m6!1s0xd19954ad7078951:0xa7e200fc827a0d1b!8m2!3d38.6433719!4d-8.2099615!16s%2Fg%2F11fks66n19!19sChIJUYkH10qVGQ0RGw16gvwA4qc?authuser=0&hl=tr&rclk=1",
    "website_url": "",
    "rating_text": "",
    "stars": null,
    "number_of_reviews": null,
    "price_level": "",
    "open_hours": "",
    "extraction_timestamp": "2025-06-07T18:04:54.040Z",
    "source_name": "google",
    "source_query": "Irrigation Equipment",
    "source_country": "PT",
    "country": "Portugal",
    "state": "Évora",
    "city": "Montemor-o-Novo"
  },
  {
    "source_id": "ChIJhb7l2y77GQ0RHDF4h7-nCD4",
    "name": "Hidroportugal - Montagem Com. Equipamentos Para Piscinas E Regas, Lda",
    "category": "Hidroportugal - Montagem Com. Equipamentos Para Piscinas E Regas, Lda",
    "formatted_address": "Hidroportugal - Montagem Com. Equipamentos Para Piscinas E Regas, Lda",
    "phone_number": "+351266745850",
    "source_url": "https://www.google.com/maps/place/Hidroportugal+-+Montagem+Com.+Equipamentos+Para+Piscinas+E+Regas,+Lda/data=!4m7!3m6!1s0xd19fb2edbe5be85:0x3e08a7bf8778311c!8m2!3d38.5457563!4d-7.9108625!16s%2Fg%2F1q628pzwt!19sChIJhb7l2y77GQ0RHDF4h7-nCD4?authuser=0&hl=tr&rclk=1",
    "website_url": "",
    "rating_text": "4,4",
    "stars": null,
    "number_of_reviews": null,
    "price_level": "",
    "open_hours": "",
    "extraction_timestamp": "2025-06-07T18:04:54.040Z",
    "source_name": "google",
    "source_query": "Irrigation Equipment",
    "source_country": "PT",
    "country": "Portugal",
    "state": "Évora",
    "city": "Montemor-o-Novo"
  },
  {
    "source_id": "ChIJHYJpdCaUGQ0R06dNn0Fox0c",
    "name": "Agrifialho - Comércio de Rações para Animais, Artigos para Pecuária e Agricultura e Jardim",
    "category": "Agrifialho - Comércio de Rações para Animais, Artigos para Pecuária e Agricultura e Jardim",
    "formatted_address": "Agrifialho - Comércio de Rações para Animais, Artigos para Pecuária e Agricultura e Jardim",
    "phone_number": "+351266877577",
    "source_url": "https://www.google.com/maps/place/Agrifialho+-+Com%C3%A9rcio+de+Ra%C3%A7%C3%B5es+para+Animais,+Artigos+para+Pecu%C3%A1ria+e+Agricultura+e+Jardim/data=!4m7!3m6!1s0xd1994267469821d:0x47c768419f4da7d3!8m2!3d38.647423!4d-8.2229136!16s%2Fg%2F1tqcmh14!19sChIJHYJpdCaUGQ0R06dNn0Fox0c?authuser=0&hl=tr&rclk=1",
    "website_url": "",
    "rating_text": "4,4",
    "stars": null,
    "number_of_reviews": null,
    "price_level": "",
    "open_hours": "",
    "extraction_timestamp": "2025-06-07T18:04:54.041Z",
    "source_name": "google",
    "source_query": "Irrigation Equipment",
    "source_country": "PT",
    "country": "Portugal",
    "state": "Évora",
    "city": "Montemor-o-Novo"
  },
  {
    "source_id": "ChIJ4y40rpd0Gg0RMB-TzW_WsnM",
    "name": "Magos Irrigation Systems",
    "category": "Magos Irrigation Systems",
    "formatted_address": "5,0(7)",
    "phone_number": "+351284328195",
    "source_url": "https://www.google.com/maps/place/Magos+Irrigation+Systems/data=!4m7!3m6!1s0xd1a7497ae342ee3:0x73b2d66fcd931f30!8m2!3d38.0253609!4d-7.8597778!16s%2Fg%2F11bzq3bn8p!19sChIJ4y40rpd0Gg0RMB-TzW_WsnM?authuser=0&hl=tr&rclk=1",
    "website_url": "http://www.magos.pt/",
    "rating_text": "5,0",
    "stars": null,
    "number_of_reviews": null,
    "price_level": "",
    "open_hours": "",
    "extraction_timestamp": "2025-06-07T18:04:54.041Z",
    "source_name": "google",
    "source_query": "Irrigation Equipment",
    "source_country": "PT",
    "country": "Portugal",
    "state": "Évora",
    "city": "Montemor-o-Novo"
  },
  {
    "source_id": "ChIJI6T6Jyj7GQ0RErNH50ff5EM",
    "name": "Alemplás, Lda - Produção e Comércio de Produtos Plásticos e Agrícolas",
    "category": "Alemplás, Lda - Produção e Comércio de Produtos Plásticos e Agrícolas",
    "formatted_address": "Alemplás, Lda - Produção e Comércio de Produtos Plásticos e Agrícolas",
    "phone_number": "+351266700393",
    "source_url": "https://www.google.com/maps/place/Alempl%C3%A1s,+Lda+-+Produ%C3%A7%C3%A3o+e+Com%C3%A9rcio+de+Produtos+Pl%C3%A1sticos+e+Agr%C3%ADcolas/data=!4m7!3m6!1s0xd19fb2827faa423:0x43e4df47e747b312!8m2!3d38.5443888!4d-7.915671!16s%2Fg%2F11f3b917hh!19sChIJI6T6Jyj7GQ0RErNH50ff5EM?authuser=0&hl=tr&rclk=1",
    "website_url": "http://www.alemplas.pt/",
    "rating_text": "4,7",
    "stars": null,
    "number_of_reviews": null,
    "price_level": "",
    "open_hours": "",
    "extraction_timestamp": "2025-06-07T18:04:54.041Z",
    "source_name": "google",
    "source_query": "Irrigation Equipment",
    "source_country": "PT",
    "country": "Portugal",
    "state": "Évora",
    "city": "Montemor-o-Novo"
  },
  {
    "source_id": "ChIJa4wIc8_jGA0R5WrdnXIi1y0",
    "name": "Magos Irrigation Systems",
    "category": "Magos Irrigation Systems",
    "formatted_address": "4,6(78)",
    "phone_number": "+351263500090",
    "source_url": "https://www.google.com/maps/place/Magos+Irrigation+Systems/data=!4m7!3m6!1s0xd18e3cf73088c6b:0x2dd722729ddd6ae5!8m2!3d39.0257515!4d-8.7872243!16s%2Fg%2F1tjbtf9n!19sChIJa4wIc8_jGA0R5WrdnXIi1y0?authuser=0&hl=tr&rclk=1",
    "website_url": "http://www.magos.pt/",
    "rating_text": "4,6",
    "stars": null,
    "number_of_reviews": null,
    "price_level": "",
    "open_hours": "",
    "extraction_timestamp": "2025-06-07T18:04:54.049Z",
    "source_name": "google",
    "source_query": "Irrigation Equipment",
    "source_country": "PT",
    "country": "Portugal",
    "state": "Évora",
    "city": "Montemor-o-Novo"
  },
  {
    "source_id": "ChIJiQ5QCCr7GQ0RCWc_orHyamY",
    "name": "STIHL EVORA",
    "category": "STIHL EVORA",
    "formatted_address": "4,5(13)",
    "phone_number": "+351965535392",
    "source_url": "https://www.google.com/maps/place/STIHL+EVORA/data=!4m7!3m6!1s0xd19fb2a08500e89:0x666af2b1a23f6709!8m2!3d38.5439574!4d-7.9089069!16s%2Fg%2F11f3_1hkh0!19sChIJiQ5QCCr7GQ0RCWc_orHyamY?authuser=0&hl=tr&rclk=1",
    "website_url": "https://www.stihl.pt/",
    "rating_text": "4,5",
    "stars": null,
    "number_of_reviews": null,
    "price_level": "",
    "open_hours": "",
    "extraction_timestamp": "2025-06-07T18:04:54.050Z",
    "source_name": "google",
    "source_query": "Irrigation Equipment",
    "source_country": "PT",
    "country": "Portugal",
    "state": "Évora",
    "city": "Montemor-o-Novo"
  },
  {
    "source_id": "ChIJC5w7QdzkGQ0RL9ydCDy2_a0",
    "name": "HIDROSOPH, LDA",
    "category": "HIDROSOPH, LDA",
    "formatted_address": "HIDROSOPH, LDA",
    "phone_number": "+351266741253",
    "source_url": "https://www.google.com/maps/place/HIDROSOPH,+LDA/data=!4m7!3m6!1s0xd19e4dc413b9c0b:0xadfdb63c089ddc2f!8m2!3d38.5575571!4d-7.9187218!16s%2Fg%2F1td6c4dy!19sChIJC5w7QdzkGQ0RL9ydCDy2_a0?authuser=0&hl=tr&rclk=1",
    "website_url": "http://www.hidrosoph.com/",
    "rating_text": "4,0",
    "stars": null,
    "number_of_reviews": null,
    "price_level": "",
    "open_hours": "",
    "extraction_timestamp": "2025-06-07T18:04:54.050Z",
    "source_name": "google",
    "source_query": "Irrigation Equipment",
    "source_country": "PT",
    "country": "Portugal",
    "state": "Évora",
    "city": "Montemor-o-Novo"
  },
  {
    "source_id": "ChIJ57iJsMHkGQ0R-CqpbSW_uyI",
    "name": "Irrievora-Sistemas De Rega, Lda.",
    "category": "Irrievora-Sistemas De Rega, Lda.",
    "formatted_address": "Irrievora-Sistemas De Rega, Lda.",
    "phone_number": "+351266758401",
    "source_url": "https://www.google.com/maps/place/Irrievora-Sistemas+De+Rega,+Lda./data=!4m7!3m6!1s0xd19e4c1b089b8e7:0x22bbbf256da92af8!8m2!3d38.5736416!4d-7.8975256!16s%2Fg%2F1tk8dcv4!19sChIJ57iJsMHkGQ0R-CqpbSW_uyI?authuser=0&hl=tr&rclk=1",
    "website_url": "",
    "rating_text": "4,1",
    "stars": null,
    "number_of_reviews": null,
    "price_level": "",
    "open_hours": "",
    "extraction_timestamp": "2025-06-07T18:04:54.051Z",
    "source_name": "google",
    "source_query": "Irrigation Equipment",
    "source_country": "PT",
    "country": "Portugal",
    "state": "Évora",
    "city": "Montemor-o-Novo"
  },
  {
    "source_id": "ChIJacsEwC-UGQ0RdQQ7nDRXlbs",
    "name": "Rodoviaria do Alentejo",
    "category": "Rodoviaria do Alentejo",
    "formatted_address": "3,9(590)",
    "phone_number": "+351266892110",
    "source_url": "https://www.google.com/maps/place/Rodoviaria+do+Alentejo/data=!4m7!3m6!1s0xd19942fc004cb69:0xbb9557349c3b0475!8m2!3d38.648498!4d-8.2117711!16s%2Fg%2F11dxh_pxys!19sChIJacsEwC-UGQ0RdQQ7nDRXlbs?authuser=0&hl=tr&rclk=1",
    "website_url": "https://www.rodalentejo.pt/",
    "rating_text": "3,9",
    "stars": null,
    "number_of_reviews": null,
    "price_level": "",
    "open_hours": "",
    "extraction_timestamp": "2025-06-07T18:04:54.051Z",
    "source_name": "google",
    "source_query": "Irrigation Equipment",
    "source_country": "PT",
    "country": "Portugal",
    "state": "Évora",
    "city": "Montemor-o-Novo"
  },
  {
    "source_id": "ChIJzRprM4TsGA0Rs8LUIaEKMgE",
    "name": "Irricampo Watering Systems Ltd.",
    "category": "Irricampo Watering Systems Ltd.",
    "formatted_address": "4,5(33)",
    "phone_number": "+351243359450",
    "source_url": "https://www.google.com/maps/place/Irricampo+Watering+Systems+Ltd./data=!4m7!3m6!1s0xd18ec84336b1acd:0x1320aa121d4c2b3!8m2!3d39.2583999!4d-8.7195949!16s%2Fg%2F1w2y_pzr!19sChIJzRprM4TsGA0Rs8LUIaEKMgE?authuser=0&hl=tr&rclk=1",
    "website_url": "http://www.irricampo.pt/",
    "rating_text": "4,5",
    "stars": null,
    "number_of_reviews": null,
    "price_level": "",
    "open_hours": "",
    "extraction_timestamp": "2025-06-07T18:04:54.052Z",
    "source_name": "google",
    "source_query": "Irrigation Equipment",
    "source_country": "PT",
    "country": "Portugal",
    "state": "Évora",
    "city": "Montemor-o-Novo"
  },
  {
    "source_id": "ChIJI-IgjfPlGQ0RoF-XqFQ12ms",
    "name": "Nutrima - Agri Feeds",
    "category": "Nutrima - Agri Feeds",
    "formatted_address": "4,5(390)",
    "phone_number": "+351266104474",
    "source_url": "https://www.google.com/maps/place/Nutrima+-+Agri+Feeds/data=!4m7!3m6!1s0xd19e5f38d20e223:0x6bda3554a8975fa0!8m2!3d38.5587323!4d-7.8913583!16s%2Fg%2F11g_r2zg9g!19sChIJI-IgjfPlGQ0RoF-XqFQ12ms?authuser=0&hl=tr&rclk=1",
    "website_url": "http://nutrima.pt/",
    "rating_text": "4,5",
    "stars": null,
    "number_of_reviews": null,
    "price_level": "",
    "open_hours": "",
    "extraction_timestamp": "2025-06-07T18:04:54.054Z",
    "source_name": "google",
    "source_query": "Irrigation Equipment",
    "source_country": "PT",
    "country": "Portugal",
    "state": "Évora",
    "city": "Montemor-o-Novo"
  },
  {
    "source_id": "ChIJ_wS6kYKWGQ0RboJ3RBztsAA",
    "name": "Samuel Janeiro Equipamentos para Piscinas",
    "category": "Samuel Janeiro Equipamentos para Piscinas",
    "formatted_address": "3,0(2)",
    "phone_number": "+351266887050",
    "source_url": "https://www.google.com/maps/place/Samuel+Janeiro+Equipamentos+para+Piscinas/data=!4m7!3m6!1s0xd19968291ba04ff:0xb0ed1c4477826e!8m2!3d38.647492!4d-8.2230015!16s%2Fg%2F1thcp141!19sChIJ_wS6kYKWGQ0RboJ3RBztsAA?authuser=0&hl=tr&rclk=1",
    "website_url": "http://www.samuel-janeiro.pt/",
    "rating_text": "3,0",
    "stars": null,
    "number_of_reviews": null,
    "price_level": "",
    "open_hours": "",
    "extraction_timestamp": "2025-06-07T18:04:54.055Z",
    "source_name": "google",
    "source_query": "Irrigation Equipment",
    "source_country": "PT",
    "country": "Portugal",
    "state": "Évora",
    "city": "Montemor-o-Novo"
  },
  {
    "source_id": "ChIJI3sMkpOVGQ0RlSSifWzSxcw",
    "name": "João Artur Cornacho & Filhos, Lda",
    "category": "João Artur Cornacho & Filhos, Lda",
    "formatted_address": "João Artur Cornacho & Filhos, Lda",
    "phone_number": "+351266892792",
    "source_url": "https://www.google.com/maps/place/Jo%C3%A3o+Artur+Cornacho+%26+Filhos,+Lda/data=!4m7!3m6!1s0xd199593920c7b23:0xccc5d26c7da22495!8m2!3d38.6465938!4d-8.1986237!16s%2Fg%2F11j5v3shxn!19sChIJI3sMkpOVGQ0RlSSifWzSxcw?authuser=0&hl=tr&rclk=1",
    "website_url": "http://www.jacflda.pt/",
    "rating_text": "4,8",
    "stars": null,
    "number_of_reviews": null,
    "price_level": "",
    "open_hours": "",
    "extraction_timestamp": "2025-06-07T18:04:54.056Z",
    "source_name": "google",
    "source_query": "Irrigation Equipment",
    "source_country": "PT",
    "country": "Portugal",
    "state": "Évora",
    "city": "Montemor-o-Novo"
  },
  {
    "source_id": "ChIJdX-7SC-UGQ0R4py24U2p6O0",
    "name": "Luis Adriano Rodrigues Lda",
    "category": "Luis Adriano Rodrigues Lda",
    "formatted_address": "4,5(92)",
    "phone_number": "+351918710319",
    "source_url": "https://www.google.com/maps/place/Luis+Adriano+Rodrigues+Lda/data=!4m7!3m6!1s0xd19942f48bb7f75:0xede8a94de1b69ce2!8m2!3d38.6478381!4d-8.2152639!16s%2Fg%2F11fyzwdq_f!19sChIJdX-7SC-UGQ0R4py24U2p6O0?authuser=0&hl=tr&rclk=1",
    "website_url": "",
    "rating_text": "4,5",
    "stars": null,
    "number_of_reviews": null,
    "price_level": "",
    "open_hours": "",
    "extraction_timestamp": "2025-06-07T18:04:54.057Z",
    "source_name": "google",
    "source_query": "Irrigation Equipment",
    "source_country": "PT",
    "country": "Portugal",
    "state": "Évora",
    "city": "Montemor-o-Novo"
  },
  {
    "source_id": "ChIJ2eb3iC-UGQ0RccAh2J1kLHE",
    "name": "Bugaparts - Comércio de Peças Acessórios Auto Novos Usados, Unip. Lda",
    "category": "Bugaparts - Comércio de Peças Acessórios Auto Novos Usados, Unip. Lda",
    "formatted_address": "Bugaparts - Comércio de Peças Acessórios Auto Novos Usados, Unip. Lda",
    "phone_number": "+351961475826",
    "source_url": "https://www.google.com/maps/place/Bugaparts+-+Com%C3%A9rcio+de+Pe%C3%A7as+Acess%C3%B3rios+Auto+Novos+Usados,+Unip.+Lda/data=!4m7!3m6!1s0xd19942f88f7e6d9:0x712c649dd821c071!8m2!3d38.652578!4d-8.1841981!16s%2Fg%2F11bbrpdvdc!19sChIJ2eb3iC-UGQ0RccAh2J1kLHE?authuser=0&hl=tr&rclk=1",
    "website_url": "http://bugaparts.com/",
    "rating_text": "4,2",
    "stars": null,
    "number_of_reviews": null,
    "price_level": "",
    "open_hours": "",
    "extraction_timestamp": "2025-06-07T18:04:54.058Z",
    "source_name": "google",
    "source_query": "Irrigation Equipment",
    "source_country": "PT",
    "country": "Portugal",
    "state": "Évora",
    "city": "Montemor-o-Novo"
  },
  {
    "source_id": "ChIJZX6YR_KWGQ0RkpQwL96eFA4",
    "name": "L'and Vineyards",
    "category": "L'and Vineyards",
    "formatted_address": "4,2(499)",
    "phone_number": "+351266242400",
    "source_url": "https://www.google.com/maps/place/L%27and+Vineyards/data=!4m10!3m9!1s0xd1996f247987e65:0xe149ede2f309492!5m2!4m1!1i2!8m2!3d38.6442201!4d-8.2463386!16s%2Fg%2F1hc22fqf6!19sChIJZX6YR_KWGQ0RkpQwL96eFA4?authuser=0&hl=tr&rclk=1",
    "website_url": "https://www.l-and.com/",
    "rating_text": "4,2",
    "stars": null,
    "number_of_reviews": null,
    "price_level": "",
    "open_hours": "",
    "extraction_timestamp": "2025-06-07T18:04:54.059Z",
    "source_name": "google",
    "source_query": "Irrigation Equipment",
    "source_country": "PT",
    "country": "Portugal",
    "state": "Évora",
    "city": "Montemor-o-Novo"
  },
  {
    "source_id": "ChIJlboQPTqUGQ0RffpxAIfBU3I",
    "name": "Intermarché Montemor-o-Novo",
    "category": "Intermarché Montemor-o-Novo",
    "formatted_address": "4,0(905)",
    "phone_number": "+351266899200",
    "source_url": "https://www.google.com/maps/place/Intermarch%C3%A9+Montemor-o-Novo/data=!4m7!3m6!1s0xd19943a3d10ba95:0x7253c1870071fa7d!8m2!3d38.646043!4d-8.205826!16s%2Fg%2F11cnc91stg!19sChIJlboQPTqUGQ0RffpxAIfBU3I?authuser=0&hl=tr&rclk=1",
    "website_url": "https://www.intermarche.pt/",
    "rating_text": "4,0",
    "stars": null,
    "number_of_reviews": null,
    "price_level": "",
    "open_hours": "",
    "extraction_timestamp": "2025-06-07T18:04:54.060Z",
    "source_name": "google",
    "source_query": "Irrigation Equipment",
    "source_country": "PT",
    "country": "Portugal",
    "state": "Évora",
    "city": "Montemor-o-Novo"
  },
  {
    "source_id": "ChIJ-5L1AKeWGQ0RxLliypFlLKc",
    "name": "Burriscas Campismo Rural",
    "category": "Burriscas Campismo Rural",
    "formatted_address": "4,3(370)",
    "phone_number": "+351969280645",
    "source_url": "https://www.google.com/maps/place/Burriscas+Campismo+Rural/data=!4m10!3m9!1s0xd1996a700f592fb:0xa72c6591ca62b9c4!5m2!4m1!1i2!8m2!3d38.6281359!4d-8.2238731!16s%2Fg%2F11c1x72t17!19sChIJ-5L1AKeWGQ0RxLliypFlLKc?authuser=0&hl=tr&rclk=1",
    "website_url": "http://www.burriscas.com/",
    "rating_text": "4,3",
    "stars": null,
    "number_of_reviews": null,
    "price_level": "",
    "open_hours": "",
    "extraction_timestamp": "2025-06-07T18:04:54.060Z",
    "source_name": "google",
    "source_query": "Irrigation Equipment",
    "source_country": "PT",
    "country": "Portugal",
    "state": "Évora",
    "city": "Montemor-o-Novo"
  },
  {
    "source_id": "ChIJozBdLKNsGg0R_FPcCUmzW9M",
    "name": "Hidrobeja - Irrigação e Infrastruturas Agrícolas, Lda",
    "category": "Hidrobeja - Irrigação e Infrastruturas Agrícolas, Lda",
    "formatted_address": "Hidrobeja - Irrigação e Infrastruturas Agrícolas, Lda",
    "phone_number": "+351284322922",
    "source_url": "https://www.google.com/maps/place/Hidrobeja+-+Irriga%C3%A7%C3%A3o+e+Infrastruturas+Agr%C3%ADcolas,+Lda/data=!4m7!3m6!1s0xd1a6ca32c5d30a3:0xd35bb34909dc53fc!8m2!3d38.0319463!4d-7.8592575!16s%2Fg%2F1tfjmd6q!19sChIJozBdLKNsGg0R_FPcCUmzW9M?authuser=0&hl=tr&rclk=1",
    "website_url": "",
    "rating_text": "4,6",
    "stars": null,
    "number_of_reviews": null,
    "price_level": "",
    "open_hours": "",
    "extraction_timestamp": "2025-06-07T18:04:54.061Z",
    "source_name": "google",
    "source_query": "Irrigation Equipment",
    "source_country": "PT",
    "country": "Portugal",
    "state": "Évora",
    "city": "Montemor-o-Novo"
  },
  {
    "source_id": "ChIJg6xx7y37GQ0RgZMa5Pt1PbE",
    "name": "Sport Zone Évora",
    "category": "Sport Zone Évora",
    "formatted_address": "4,0(765)",
    "phone_number": "+351930589782",
    "source_url": "https://www.google.com/maps/place/Sport+Zone+%C3%89vora/data=!4m7!3m6!1s0xd19fb2def71ac83:0xb13d75fbe41a9381!8m2!3d38.5496043!4d-7.9072796!16s%2Fg%2F11bwpdl5gl!19sChIJg6xx7y37GQ0RgZMa5Pt1PbE?authuser=0&hl=tr&rclk=1",
    "website_url": "https://www.sprintersports.com/pt/?utm_source=seo_local&utm_medium=organic&utm_campaign=sportzone_evora",
    "rating_text": "4,0",
    "stars": null,
    "number_of_reviews": null,
    "price_level": "",
    "open_hours": "",
    "extraction_timestamp": "2025-06-07T18:04:54.062Z",
    "source_name": "google",
    "source_query": "Irrigation Equipment",
    "source_country": "PT",
    "country": "Portugal",
    "state": "Évora",
    "city": "Montemor-o-Novo"
  },
  {
    "source_id": "ChIJQRMxE24yGQ0R6jsOcv7-Wzw",
    "name": "Aquamatic, Sistemas de Rega S.A.",
    "category": "Aquamatic, Sistemas de Rega S.A.",
    "formatted_address": "Aquamatic, Sistemas de Rega S.A.",
    "phone_number": "+351219498000",
    "source_url": "https://www.google.com/maps/place/Aquamatic,+Sistemas+de+Rega+S.A./data=!4m7!3m6!1s0xd19326e13311341:0x3c5bfefe720e3bea!8m2!3d38.7855945!4d-9.1301774!16s%2Fg%2F1tmz85qj!19sChIJQRMxE24yGQ0R6jsOcv7-Wzw?authuser=0&hl=tr&rclk=1",
    "website_url": "http://www.aquamatic.pt/",
    "rating_text": "4,6",
    "stars": null,
    "number_of_reviews": null,
    "price_level": "",
    "open_hours": "",
    "extraction_timestamp": "2025-06-07T18:04:54.063Z",
    "source_name": "google",
    "source_query": "Irrigation Equipment",
    "source_country": "PT",
    "country": "Portugal",
    "state": "Évora",
    "city": "Montemor-o-Novo"
  },
  {
    "source_id": "ChIJa8urO1_wGA0R6B9nyngJEYE",
    "name": "Agriloja de Almeirim",
    "category": "Agriloja de Almeirim",
    "formatted_address": "4,5(777)",
    "phone_number": "+351243593410",
    "source_url": "https://www.google.com/maps/place/Agriloja+de+Almeirim/data=!4m7!3m6!1s0xd18f05f3babcb6b:0x81110978ca671fe8!8m2!3d39.1925811!4d-8.6194611!16s%2Fg%2F1hm3djpgr!19sChIJa8urO1_wGA0R6B9nyngJEYE?authuser=0&hl=tr&rclk=1",
    "website_url": "http://www.agriloja.pt/",
    "rating_text": "4,5",
    "stars": null,
    "number_of_reviews": null,
    "price_level": "",
    "open_hours": "",
    "extraction_timestamp": "2025-06-07T18:04:54.064Z",
    "source_name": "google",
    "source_query": "Irrigation Equipment",
    "source_country": "PT",
    "country": "Portugal",
    "state": "Évora",
    "city": "Montemor-o-Novo"
  },
  {
    "source_id": "ChIJuXlMknjlGQ0RchE7knNsAt8",
    "name": "Lima&Limão Animais e Nutrição",
    "category": "Lima&Limão Animais e Nutrição",
    "formatted_address": "5,0(13)",
    "phone_number": "+351913967491",
    "source_url": "https://www.google.com/maps/place/Lima%26Lim%C3%A3o+Animais+e+Nutri%C3%A7%C3%A3o/data=!4m7!3m6!1s0xd19e578924c79b9:0xdf026c73923b1172!8m2!3d38.5767901!4d-7.9223156!16s%2Fg%2F11px3gts4h!19sChIJuXlMknjlGQ0RchE7knNsAt8?authuser=0&hl=tr&rclk=1",
    "website_url": "",
    "rating_text": "5,0",
    "stars": null,
    "number_of_reviews": null,
    "price_level": "",
    "open_hours": "",
    "extraction_timestamp": "2025-06-07T18:04:54.065Z",
    "source_name": "google",
    "source_query": "Irrigation Equipment",
    "source_country": "PT",
    "country": "Portugal",
    "state": "Évora",
    "city": "Montemor-o-Novo"
  },
  {
    "source_id": "ChIJJQw4QXTHGw0RSBXfgFHRRt8",
    "name": "Agriloja de Santiago do Cacém",
    "category": "Agriloja de Santiago do Cacém",
    "formatted_address": "3,9(378)",
    "phone_number": "+351269106164",
    "source_url": "https://www.google.com/maps/place/Agriloja+de+Santiago+do+Cac%C3%A9m/data=!4m7!3m6!1s0xd1bc77441380c25:0xdf46d15180df1548!8m2!3d38.011444!4d-8.7080531!16s%2Fg%2F1hm6ndz9t!19sChIJJQw4QXTHGw0RSBXfgFHRRt8?authuser=0&hl=tr&rclk=1",
    "website_url": "http://www.agriloja.pt/",
    "rating_text": "3,9",
    "stars": null,
    "number_of_reviews": null,
    "price_level": "",
    "open_hours": "",
    "extraction_timestamp": "2025-06-07T18:04:54.066Z",
    "source_name": "google",
    "source_query": "Irrigation Equipment",
    "source_country": "PT",
    "country": "Portugal",
    "state": "Évora",
    "city": "Montemor-o-Novo"
  },
  {
    "source_id": "ChIJieuV_410Gg0RCPUJNW20PxA",
    "name": "Irripax - Comércio de Máquinas Agricolas e Industriais, Lda",
    "category": "Irripax - Comércio de Máquinas Agricolas e Industriais, Lda",
    "formatted_address": "Irripax - Comércio de Máquinas Agricolas e Industriais, Lda",
    "phone_number": "+351284327440",
    "source_url": "https://www.google.com/maps/place/Irripax+-+Com%C3%A9rcio+de+M%C3%A1quinas+Agricolas+e+Industriais,+Lda/data=!4m7!3m6!1s0xd1a748dff95eb89:0x103fb46d3509f508!8m2!3d38.0224261!4d-7.8557339!16s%2Fg%2F1q62l0qth!19sChIJieuV_410Gg0RCPUJNW20PxA?authuser=0&hl=tr&rclk=1",
    "website_url": "https://www.irripax.pt/",
    "rating_text": "4,3",
    "stars": null,
    "number_of_reviews": null,
    "price_level": "",
    "open_hours": "",
    "extraction_timestamp": "2025-06-07T18:04:54.067Z",
    "source_name": "google",
    "source_query": "Irrigation Equipment",
    "source_country": "PT",
    "country": "Portugal",
    "state": "Évora",
    "city": "Montemor-o-Novo"
  },
  {
    "source_id": "ChIJbcXowwtDGQ0RcNfuma5fss4",
    "name": "Agriloja de Setúbal",
    "category": "Agriloja de Setúbal",
    "formatted_address": "4,2(269)",
    "phone_number": "+351265101630",
    "source_url": "https://www.google.com/maps/place/Agriloja+de+Set%C3%BAbal/data=!4m7!3m6!1s0xd19430bc3e8c56d:0xceb25fae99eed770!8m2!3d38.5383146!4d-8.8572357!16s%2Fg%2F11sms3wm5q!19sChIJbcXowwtDGQ0RcNfuma5fss4?authuser=0&hl=tr&rclk=1",
    "website_url": "http://www.agriloja.pt/",
    "rating_text": "4,2",
    "stars": null,
    "number_of_reviews": null,
    "price_level": "",
    "open_hours": "",
    "extraction_timestamp": "2025-06-07T18:04:54.068Z",
    "source_name": "google",
    "source_query": "Irrigation Equipment",
    "source_country": "PT",
    "country": "Portugal",
    "state": "Évora",
    "city": "Montemor-o-Novo"
  },
  {
    "source_id": "ChIJgeH10M1DGQ0RAUvPmqx4rqE",
    "name": "Arbovita, Agricultura & Lazer",
    "category": "Arbovita, Agricultura & Lazer",
    "formatted_address": "Arbovita, Agricultura & Lazer",
    "phone_number": "+351912522916",
    "source_url": "https://www.google.com/maps/place/Arbovita,+Agricultura+%26+Lazer/data=!4m7!3m6!1s0xd1943cdd0f5e181:0xa1ae78ac9acf4b01!8m2!3d38.5540627!4d-8.8852505!16s%2Fg%2F11cm0p1g1t!19sChIJgeH10M1DGQ0RAUvPmqx4rqE?authuser=0&hl=tr&rclk=1",
    "website_url": "http://www.arbovita.pt/",
    "rating_text": "4,5",
    "stars": null,
    "number_of_reviews": null,
    "price_level": "",
    "open_hours": "",
    "extraction_timestamp": "2025-06-07T18:04:54.069Z",
    "source_name": "google",
    "source_query": "Irrigation Equipment",
    "source_country": "PT",
    "country": "Portugal",
    "state": "Évora",
    "city": "Montemor-o-Novo"
  },
  {
    "source_id": "ChIJK-sdzC37GQ0Rg5rynT9Obws",
    "name": "Tiendanimal",
    "category": "Tiendanimal",
    "formatted_address": "4,6(80)",
    "phone_number": "+351266247392",
    "source_url": "https://www.google.com/maps/place/Tiendanimal/data=!4m7!3m6!1s0xd19fb2dcc1deb2b:0xb6f4e3f9df29a83!8m2!3d38.5497313!4d-7.9054148!16s%2Fg%2F11f_kmrwxk!19sChIJK-sdzC37GQ0Rg5rynT9Obws?authuser=0&hl=tr&rclk=1",
    "website_url": "",
    "rating_text": "4,6",
    "stars": null,
    "number_of_reviews": null,
    "price_level": "",
    "open_hours": "",
    "extraction_timestamp": "2025-06-07T18:04:54.070Z",
    "source_name": "google",
    "source_query": "Irrigation Equipment",
    "source_country": "PT",
    "country": "Portugal",
    "state": "Évora",
    "city": "Montemor-o-Novo"
  },
  {
    "source_id": "ChIJUzEPfu7lGQ0RpuDBDQl69EM",
    "name": "Action Évora",
    "category": "Action Évora",
    "formatted_address": "5,0(4)",
    "phone_number": "",
    "source_url": "https://www.google.com/maps/place/Action+%C3%89vora/data=!4m7!3m6!1s0xd19e5ee7e0f3153:0x43f47a090dc1e0a6!8m2!3d38.5589302!4d-7.9182176!16s%2Fg%2F11x7rwn7vd!19sChIJUzEPfu7lGQ0RpuDBDQl69EM?authuser=0&hl=tr&rclk=1",
    "website_url": "https://www.action.com/pt-pt/lojas/aveiro-zona-industrial-da-taboeira/",
    "rating_text": "5,0",
    "stars": null,
    "number_of_reviews": null,
    "price_level": "",
    "open_hours": "",
    "extraction_timestamp": "2025-06-07T18:04:54.070Z",
    "source_name": "google",
    "source_query": "Irrigation Equipment",
    "source_country": "PT",
    "country": "Portugal",
    "state": "Évora",
    "city": "Montemor-o-Novo"
  },
  {
    "source_id": "ChIJ5XOaminlGQ0RS2Jp23HE9ck",
    "name": "Teclasul - Comércio e Equipamentos Lda - Filial Évora -",
    "category": "Teclasul - Comércio e Equipamentos Lda - Filial Évora -",
    "formatted_address": "2,7(6)",
    "phone_number": "+351266704934",
    "source_url": "https://www.google.com/maps/place/Teclasul+-+Com%C3%A9rcio+e+Equipamentos+Lda+-+Filial+%C3%89vora+-/data=!4m7!3m6!1s0xd19e5299a9a73e5:0xc9f5c471db69624b!8m2!3d38.5587678!4d-7.9178845!16s%2Fg%2F11cmfhp3dm!19sChIJ5XOaminlGQ0RS2Jp23HE9ck?authuser=0&hl=tr&rclk=1",
    "website_url": "http://www.teclasul.pt/",
    "rating_text": "2,7",
    "stars": null,
    "number_of_reviews": null,
    "price_level": "",
    "open_hours": "",
    "extraction_timestamp": "2025-06-07T18:04:54.071Z",
    "source_name": "google",
    "source_query": "Irrigation Equipment",
    "source_country": "PT",
    "country": "Portugal",
    "state": "Évora",
    "city": "Montemor-o-Novo"
  },
  {
    "source_id": "ChIJoxdOPBnlGQ0Ry0Palq3YzOQ",
    "name": "Lux Steam Évora",
    "category": "Lux Steam Évora",
    "formatted_address": "4,5(183)",
    "phone_number": "+351266183935",
    "source_url": "https://www.google.com/maps/place/Lux+Steam+%C3%89vora/data=!4m7!3m6!1s0xd19e5193c4e17a3:0xe4ccd8ad96da43cb!8m2!3d38.5652806!4d-7.933253!16s%2Fg%2F11clsj3d8b!19sChIJoxdOPBnlGQ0Ry0Palq3YzOQ?authuser=0&hl=tr&rclk=1",
    "website_url": "http://www.luxvapor.pt/",
    "rating_text": "4,5",
    "stars": null,
    "number_of_reviews": null,
    "price_level": "",
    "open_hours": "",
    "extraction_timestamp": "2025-06-07T18:04:54.072Z",
    "source_name": "google",
    "source_query": "Irrigation Equipment",
    "source_country": "PT",
    "country": "Portugal",
    "state": "Évora",
    "city": "Montemor-o-Novo"
  }
]
