[
  {
    "source_id": "ChIJeZtCCS_7GQ0R5WZbwyYTd2E",
    "name": "Agriloja de Évora",
    "category": "Agriloja de Évora",
    "formatted_address": "4,2(1.354)",
    "phone_number": "+351266788600",
    "source_url": "https://www.google.com/maps/place/Agriloja+de+%C3%89vora/data=!4m7!3m6!1s0xd19fb2f09429b79:0x61771326c35b66e5!8m2!3d38.5452833!4d-7.9091176!16s%2Fg%2F1hm2zyhlv!19sChIJeZtCCS_7GQ0R5WZbwyYTd2E?authuser=0&hl=tr&rclk=1",
    "website_url": "http://www.agriloja.pt/",
    "rating_text": "4,2",
    "stars": null,
    "number_of_reviews": null,
    "price_level": "",
    "open_hours": "",
    "extraction_timestamp": "2025-06-07T18:03:38.365Z",
    "source_name": "google",
    "source_query": "Irrigation Equipment",
    "source_country": "PT",
    "country": "Portugal",
    "state": "Évora",
    "city": "Mora"
  },
  {
    "source_id": "ChIJ12_IUnG2GQ0RWwqYsQEAyqs",
    "name": "Cooperativa Agrícola De Mora Crl",
    "category": "Cooperativa Agrícola De Mora Crl",
    "formatted_address": "4,1(69)",
    "phone_number": "+351266403112",
    "source_url": "https://www.google.com/maps/place/Cooperativa+Agr%C3%ADcola+De+Mora+Crl/data=!4m7!3m6!1s0xd19b67152c86fd7:0xabca0001b1980a5b!8m2!3d38.9467654!4d-8.1594227!16s%2Fg%2F1tdcc1xb!19sChIJ12_IUnG2GQ0RWwqYsQEAyqs?authuser=0&hl=tr&rclk=1",
    "website_url": "",
    "rating_text": "4,1",
    "stars": null,
    "number_of_reviews": null,
    "price_level": "",
    "open_hours": "",
    "extraction_timestamp": "2025-06-07T18:03:38.366Z",
    "source_name": "google",
    "source_query": "Irrigation Equipment",
    "source_country": "PT",
    "country": "Portugal",
    "state": "Évora",
    "city": "Mora"
  },
  {
    "source_id": "ChIJLQYcgCv7GQ0R6TQqX4uC7ik",
    "name": "Nicolau & Rosa",
    "category": "Nicolau & Rosa",
    "formatted_address": "4,4(193)",
    "phone_number": "+351266708574",
    "source_url": "https://www.google.com/maps/place/Nicolau+%26+Rosa/data=!4m7!3m6!1s0xd19fb2b801c062d:0x29ee828b5f2a34e9!8m2!3d38.5506707!4d-7.9103218!16s%2Fg%2F1ptzx5ghm!19sChIJLQYcgCv7GQ0R6TQqX4uC7ik?authuser=0&hl=tr&rclk=1",
    "website_url": "https://www.nicolaurosa.com/",
    "rating_text": "4,4",
    "stars": null,
    "number_of_reviews": null,
    "price_level": "",
    "open_hours": "",
    "extraction_timestamp": "2025-06-07T18:03:38.368Z",
    "source_name": "google",
    "source_query": "Irrigation Equipment",
    "source_country": "PT",
    "country": "Portugal",
    "state": "Évora",
    "city": "Mora"
  },
  {
    "source_id": "ChIJC4tL99m3GQ0RxYGdDTd9C44",
    "name": "Venda Maltesa",
    "category": "Venda Maltesa",
    "formatted_address": "5,0(20)",
    "phone_number": "+351914154836",
    "source_url": "https://www.google.com/maps/place/Venda+Maltesa/data=!4m7!3m6!1s0xd19b7d9f74b8b0b:0x8e0b7d370d9d81c5!8m2!3d38.9441031!4d-8.1656431!16s%2Fg%2F11vd3kmm3f!19sChIJC4tL99m3GQ0RxYGdDTd9C44?authuser=0&hl=tr&rclk=1",
    "website_url": "",
    "rating_text": "5,0",
    "stars": null,
    "number_of_reviews": null,
    "price_level": "",
    "open_hours": "",
    "extraction_timestamp": "2025-06-07T18:03:38.370Z",
    "source_name": "google",
    "source_query": "Irrigation Equipment",
    "source_country": "PT",
    "country": "Portugal",
    "state": "Évora",
    "city": "Mora"
  },
  {
    "source_id": "ChIJhb7l2y77GQ0RHDF4h7-nCD4",
    "name": "Hidroportugal - Montagem Com. Equipamentos Para Piscinas E Regas, Lda",
    "category": "Hidroportugal - Montagem Com. Equipamentos Para Piscinas E Regas, Lda",
    "formatted_address": "Hidroportugal - Montagem Com. Equipamentos Para Piscinas E Regas, Lda",
    "phone_number": "+351266745850",
    "source_url": "https://www.google.com/maps/place/Hidroportugal+-+Montagem+Com.+Equipamentos+Para+Piscinas+E+Regas,+Lda/data=!4m7!3m6!1s0xd19fb2edbe5be85:0x3e08a7bf8778311c!8m2!3d38.5457563!4d-7.9108625!16s%2Fg%2F1q628pzwt!19sChIJhb7l2y77GQ0RHDF4h7-nCD4?authuser=0&hl=tr&rclk=1",
    "website_url": "",
    "rating_text": "4,4",
    "stars": null,
    "number_of_reviews": null,
    "price_level": "",
    "open_hours": "",
    "extraction_timestamp": "2025-06-07T18:03:38.371Z",
    "source_name": "google",
    "source_query": "Irrigation Equipment",
    "source_country": "PT",
    "country": "Portugal",
    "state": "Évora",
    "city": "Mora"
  },
  {
    "source_id": "ChIJI-IgjfPlGQ0RoF-XqFQ12ms",
    "name": "Nutrima - Agri Feeds",
    "category": "Nutrima - Agri Feeds",
    "formatted_address": "4,5(390)",
    "phone_number": "+351266104474",
    "source_url": "https://www.google.com/maps/place/Nutrima+-+Agri+Feeds/data=!4m7!3m6!1s0xd19e5f38d20e223:0x6bda3554a8975fa0!8m2!3d38.5587323!4d-7.8913583!16s%2Fg%2F11g_r2zg9g!19sChIJI-IgjfPlGQ0RoF-XqFQ12ms?authuser=0&hl=tr&rclk=1",
    "website_url": "http://nutrima.pt/",
    "rating_text": "4,5",
    "stars": null,
    "number_of_reviews": null,
    "price_level": "",
    "open_hours": "",
    "extraction_timestamp": "2025-06-07T18:03:38.373Z",
    "source_name": "google",
    "source_query": "Irrigation Equipment",
    "source_country": "PT",
    "country": "Portugal",
    "state": "Évora",
    "city": "Mora"
  },
  {
    "source_id": "ChIJiQ5QCCr7GQ0RCWc_orHyamY",
    "name": "STIHL EVORA",
    "category": "STIHL EVORA",
    "formatted_address": "4,5(13)",
    "phone_number": "+351965535392",
    "source_url": "https://www.google.com/maps/place/STIHL+EVORA/data=!4m7!3m6!1s0xd19fb2a08500e89:0x666af2b1a23f6709!8m2!3d38.5439574!4d-7.9089069!16s%2Fg%2F11f3_1hkh0!19sChIJiQ5QCCr7GQ0RCWc_orHyamY?authuser=0&hl=tr&rclk=1",
    "website_url": "https://www.stihl.pt/",
    "rating_text": "4,5",
    "stars": null,
    "number_of_reviews": null,
    "price_level": "",
    "open_hours": "",
    "extraction_timestamp": "2025-06-07T18:03:38.375Z",
    "source_name": "google",
    "source_query": "Irrigation Equipment",
    "source_country": "PT",
    "country": "Portugal",
    "state": "Évora",
    "city": "Mora"
  },
  {
    "source_id": "ChIJa4wIc8_jGA0R5WrdnXIi1y0",
    "name": "Magos Irrigation Systems",
    "category": "Magos Irrigation Systems",
    "formatted_address": "4,6(78)",
    "phone_number": "+351263500090",
    "source_url": "https://www.google.com/maps/place/Magos+Irrigation+Systems/data=!4m7!3m6!1s0xd18e3cf73088c6b:0x2dd722729ddd6ae5!8m2!3d39.0257515!4d-8.7872243!16s%2Fg%2F1tjbtf9n!19sChIJa4wIc8_jGA0R5WrdnXIi1y0?authuser=0&hl=tr&rclk=1",
    "website_url": "http://www.magos.pt/",
    "rating_text": "4,6",
    "stars": null,
    "number_of_reviews": null,
    "price_level": "",
    "open_hours": "",
    "extraction_timestamp": "2025-06-07T18:03:38.377Z",
    "source_name": "google",
    "source_query": "Irrigation Equipment",
    "source_country": "PT",
    "country": "Portugal",
    "state": "Évora",
    "city": "Mora"
  },
  {
    "source_id": "ChIJuSBNqN_kGQ0RSPtuBpCoAT4",
    "name": "Sulregas, Lda.",
    "category": "Sulregas, Lda.",
    "formatted_address": "Sulregas, Lda.",
    "phone_number": "+351266749600",
    "source_url": "https://www.google.com/maps/place/Sulregas,+Lda./data=!4m7!3m6!1s0xd19e4dfa84d20b9:0x3e01a890066efb48!8m2!3d38.5492297!4d-7.9152266!16s%2Fg%2F11bbrpnhy4!19sChIJuSBNqN_kGQ0RSPtuBpCoAT4?authuser=0&hl=tr&rclk=1",
    "website_url": "https://sulregas.com.pt/",
    "rating_text": "4,5",
    "stars": null,
    "number_of_reviews": null,
    "price_level": "",
    "open_hours": "",
    "extraction_timestamp": "2025-06-07T18:03:38.378Z",
    "source_name": "google",
    "source_query": "Irrigation Equipment",
    "source_country": "PT",
    "country": "Portugal",
    "state": "Évora",
    "city": "Mora"
  },
  {
    "source_id": "ChIJ57iJsMHkGQ0R-CqpbSW_uyI",
    "name": "Irrievora-Sistemas De Rega, Lda.",
    "category": "Irrievora-Sistemas De Rega, Lda.",
    "formatted_address": "Irrievora-Sistemas De Rega, Lda.",
    "phone_number": "+351266758401",
    "source_url": "https://www.google.com/maps/place/Irrievora-Sistemas+De+Rega,+Lda./data=!4m7!3m6!1s0xd19e4c1b089b8e7:0x22bbbf256da92af8!8m2!3d38.5736416!4d-7.8975256!16s%2Fg%2F1tk8dcv4!19sChIJ57iJsMHkGQ0R-CqpbSW_uyI?authuser=0&hl=tr&rclk=1",
    "website_url": "",
    "rating_text": "4,1",
    "stars": null,
    "number_of_reviews": null,
    "price_level": "",
    "open_hours": "",
    "extraction_timestamp": "2025-06-07T18:03:38.379Z",
    "source_name": "google",
    "source_query": "Irrigation Equipment",
    "source_country": "PT",
    "country": "Portugal",
    "state": "Évora",
    "city": "Mora"
  },
  {
    "source_id": "ChIJ4y40rpd0Gg0RMB-TzW_WsnM",
    "name": "Magos Irrigation Systems",
    "category": "Magos Irrigation Systems",
    "formatted_address": "5,0(7)",
    "phone_number": "+351284328195",
    "source_url": "https://www.google.com/maps/place/Magos+Irrigation+Systems/data=!4m7!3m6!1s0xd1a7497ae342ee3:0x73b2d66fcd931f30!8m2!3d38.0253609!4d-7.8597778!16s%2Fg%2F11bzq3bn8p!19sChIJ4y40rpd0Gg0RMB-TzW_WsnM?authuser=0&hl=tr&rclk=1",
    "website_url": "http://www.magos.pt/",
    "rating_text": "5,0",
    "stars": null,
    "number_of_reviews": null,
    "price_level": "",
    "open_hours": "",
    "extraction_timestamp": "2025-06-07T18:03:38.381Z",
    "source_name": "google",
    "source_query": "Irrigation Equipment",
    "source_country": "PT",
    "country": "Portugal",
    "state": "Évora",
    "city": "Mora"
  },
  {
    "source_id": "ChIJC5w7QdzkGQ0RL9ydCDy2_a0",
    "name": "HIDROSOPH, LDA",
    "category": "HIDROSOPH, LDA",
    "formatted_address": "HIDROSOPH, LDA",
    "phone_number": "+351266741253",
    "source_url": "https://www.google.com/maps/place/HIDROSOPH,+LDA/data=!4m7!3m6!1s0xd19e4dc413b9c0b:0xadfdb63c089ddc2f!8m2!3d38.5575571!4d-7.9187218!16s%2Fg%2F1td6c4dy!19sChIJC5w7QdzkGQ0RL9ydCDy2_a0?authuser=0&hl=tr&rclk=1",
    "website_url": "http://www.hidrosoph.com/",
    "rating_text": "4,0",
    "stars": null,
    "number_of_reviews": null,
    "price_level": "",
    "open_hours": "",
    "extraction_timestamp": "2025-06-07T18:03:38.383Z",
    "source_name": "google",
    "source_query": "Irrigation Equipment",
    "source_country": "PT",
    "country": "Portugal",
    "state": "Évora",
    "city": "Mora"
  },
  {
    "source_id": "ChIJyWnmCmv7GQ0RpsJmy9Ccdg4",
    "name": "MANUEL FIALHO LDA",
    "category": "MANUEL FIALHO LDA",
    "formatted_address": "4,4(21)",
    "phone_number": "+351266759300",
    "source_url": "https://www.google.com/maps/place/MANUEL+FIALHO+LDA/data=!4m7!3m6!1s0xd19fb6b0ae669c9:0xe769cd0cb66c2a6!8m2!3d38.5434753!4d-7.9107878!16s%2Fg%2F11j8mxl2vl!19sChIJyWnmCmv7GQ0RpsJmy9Ccdg4?authuser=0&hl=tr&rclk=1",
    "website_url": "http://manuelfialho.pt/",
    "rating_text": "4,4",
    "stars": null,
    "number_of_reviews": null,
    "price_level": "",
    "open_hours": "",
    "extraction_timestamp": "2025-06-07T18:03:38.398Z",
    "source_name": "google",
    "source_query": "Irrigation Equipment",
    "source_country": "PT",
    "country": "Portugal",
    "state": "Évora",
    "city": "Mora"
  },
  {
    "source_id": "ChIJ8QZV5G-2GQ0RIsI90Gewuvw",
    "name": "Mercearia Alentejana - Mini Preço - Supermarket",
    "category": "Mercearia Alentejana - Mini Preço - Supermarket",
    "formatted_address": "4,0(486)",
    "phone_number": "+351266409170",
    "source_url": "https://www.google.com/maps/place/Mercearia+Alentejana+-+Mini+Pre%C3%A7o+-+Supermarket/data=!4m7!3m6!1s0xd19b66fe45506f1:0xfcbab067d03dc222!8m2!3d38.9461479!4d-8.1595325!16s%2Fg%2F1tdxrqx6!19sChIJ8QZV5G-2GQ0RIsI90Gewuvw?authuser=0&hl=tr&rclk=1",
    "website_url": "http://www.merceariaalentejana.pt/",
    "rating_text": "4,0",
    "stars": null,
    "number_of_reviews": null,
    "price_level": "",
    "open_hours": "",
    "extraction_timestamp": "2025-06-07T18:03:38.400Z",
    "source_name": "google",
    "source_query": "Irrigation Equipment",
    "source_country": "PT",
    "country": "Portugal",
    "state": "Évora",
    "city": "Mora"
  },
  {
    "source_id": "ChIJ_2mE5yj7GQ0Rx1wmsn2zrIw",
    "name": "Agro Reparadora José Manuel Fialho Comércio Máquinas , Unipessoal, Lda",
    "category": "Agro Reparadora José Manuel Fialho Comércio Máquinas , Unipessoal, Lda",
    "formatted_address": "Agro Reparadora José Manuel Fialho Comércio Máquinas , Unipessoal, Lda",
    "phone_number": "+351266761710",
    "source_url": "https://www.google.com/maps/place/Agro+Reparadora+Jos%C3%A9+Manuel+Fialho+Com%C3%A9rcio+M%C3%A1quinas+,+Unipessoal,+Lda/data=!4m7!3m6!1s0xd19fb28e78469ff:0x8cacb37db2265cc7!8m2!3d38.5454605!4d-7.9106218!16s%2Fg%2F11bbrrbt4r!19sChIJ_2mE5yj7GQ0Rx1wmsn2zrIw?authuser=0&hl=tr&rclk=1",
    "website_url": "",
    "rating_text": "5,0",
    "stars": null,
    "number_of_reviews": null,
    "price_level": "",
    "open_hours": "",
    "extraction_timestamp": "2025-06-07T18:03:38.401Z",
    "source_name": "google",
    "source_query": "Irrigation Equipment",
    "source_country": "PT",
    "country": "Portugal",
    "state": "Évora",
    "city": "Mora"
  },
  {
    "source_id": "ChIJsYJQnNXkGQ0RTk6Q8-gzODE",
    "name": "Sanitop - Évora",
    "category": "Sanitop - Évora",
    "formatted_address": "4,3(39)",
    "phone_number": "+351258105484",
    "source_url": "https://www.google.com/maps/place/Sanitop+-+%C3%89vora/data=!4m7!3m6!1s0xd19e4d59c5082b1:0x313833e8f3904e4e!8m2!3d38.5587778!4d-7.9111738!16s%2Fg%2F11f_dy82hg!19sChIJsYJQnNXkGQ0RTk6Q8-gzODE?authuser=0&hl=tr&rclk=1",
    "website_url": "https://www.sanitop.pt/",
    "rating_text": "4,3",
    "stars": null,
    "number_of_reviews": null,
    "price_level": "",
    "open_hours": "",
    "extraction_timestamp": "2025-06-07T18:03:38.402Z",
    "source_name": "google",
    "source_query": "Irrigation Equipment",
    "source_country": "PT",
    "country": "Portugal",
    "state": "Évora",
    "city": "Mora"
  },
  {
    "source_id": "ChIJYRCh2yr7GQ0RB-TujZQkqsI",
    "name": "Bricomarché Évora",
    "category": "Bricomarché Évora",
    "formatted_address": "4,0(1.005)",
    "phone_number": "+351266788030",
    "source_url": "https://www.google.com/maps/place/Bricomarch%C3%A9+%C3%89vora/data=!4m7!3m6!1s0xd19fb2adba11061:0xc2aa24948deee407!8m2!3d38.552294!4d-7.913438!16s%2Fg%2F11ckr72fqt!19sChIJYRCh2yr7GQ0RB-TujZQkqsI?authuser=0&hl=tr&rclk=1",
    "website_url": "http://www.bricomarche.pt/",
    "rating_text": "4,0",
    "stars": null,
    "number_of_reviews": null,
    "price_level": "",
    "open_hours": "",
    "extraction_timestamp": "2025-06-07T18:03:38.404Z",
    "source_name": "google",
    "source_query": "Irrigation Equipment",
    "source_country": "PT",
    "country": "Portugal",
    "state": "Évora",
    "city": "Mora"
  },
  {
    "source_id": "ChIJ7TMJxgflGQ0RPdl083qpCZM",
    "name": "Leroy Merlin Évora",
    "category": "Leroy Merlin Évora",
    "formatted_address": "4,0(1.864)",
    "phone_number": "+351211944944",
    "source_url": "https://www.google.com/maps/place/Leroy+Merlin+%C3%89vora/data=!4m7!3m6!1s0xd19e507c60933ed:0x9309a97af374d93d!8m2!3d38.5598022!4d-7.8946578!16s%2Fg%2F11r7rd3828!19sChIJ7TMJxgflGQ0RPdl083qpCZM?authuser=0&hl=tr&rclk=1",
    "website_url": "https://www.leroymerlin.pt/lojas/leroy-merlin-evora.html",
    "rating_text": "4,0",
    "stars": null,
    "number_of_reviews": null,
    "price_level": "",
    "open_hours": "",
    "extraction_timestamp": "2025-06-07T18:03:38.406Z",
    "source_name": "google",
    "source_query": "Irrigation Equipment",
    "source_country": "PT",
    "country": "Portugal",
    "state": "Évora",
    "city": "Mora"
  },
  {
    "source_id": "ChIJVXKSwC77GQ0RyAJo8N-_P0o",
    "name": "Peçalentejo, Lda.",
    "category": "Peçalentejo, Lda.",
    "formatted_address": "Peçalentejo, Lda.",
    "phone_number": "+351266771013",
    "source_url": "https://www.google.com/maps/place/Pe%C3%A7alentejo,+Lda./data=!4m7!3m6!1s0xd19fb2ec0927255:0x4a3fbfdff06802c8!8m2!3d38.5466628!4d-7.9091505!16s%2Fg%2F11bx2gj97q!19sChIJVXKSwC77GQ0RyAJo8N-_P0o?authuser=0&hl=tr&rclk=1",
    "website_url": "",
    "rating_text": "4,5",
    "stars": null,
    "number_of_reviews": null,
    "price_level": "",
    "open_hours": "",
    "extraction_timestamp": "2025-06-07T18:03:38.407Z",
    "source_name": "google",
    "source_query": "Irrigation Equipment",
    "source_country": "PT",
    "country": "Portugal",
    "state": "Évora",
    "city": "Mora"
  },
  {
    "source_id": "ChIJ_34api37GQ0Rb-OZxCwv80g",
    "name": "BigMat Pinto & Filhos - Évora",
    "category": "BigMat Pinto & Filhos - Évora",
    "formatted_address": "4,3(345)",
    "phone_number": "+351266737240",
    "source_url": "https://www.google.com/maps/place/BigMat+Pinto+%26+Filhos+-+%C3%89vora/data=!4m7!3m6!1s0xd19fb2da61a7eff:0x48f32f2cc499e36f!8m2!3d38.5571857!4d-7.9146396!16s%2Fg%2F1tgq7y7c!19sChIJ_34api37GQ0Rb-OZxCwv80g?authuser=0&hl=tr&rclk=1",
    "website_url": "",
    "rating_text": "4,3",
    "stars": null,
    "number_of_reviews": null,
    "price_level": "",
    "open_hours": "",
    "extraction_timestamp": "2025-06-07T18:03:38.408Z",
    "source_name": "google",
    "source_query": "Irrigation Equipment",
    "source_country": "PT",
    "country": "Portugal",
    "state": "Évora",
    "city": "Mora"
  },
  {
    "source_id": "ChIJuXlMknjlGQ0RchE7knNsAt8",
    "name": "Lima&Limão Animais e Nutrição",
    "category": "Lima&Limão Animais e Nutrição",
    "formatted_address": "5,0(13)",
    "phone_number": "+351913967491",
    "source_url": "https://www.google.com/maps/place/Lima%26Lim%C3%A3o+Animais+e+Nutri%C3%A7%C3%A3o/data=!4m7!3m6!1s0xd19e578924c79b9:0xdf026c73923b1172!8m2!3d38.5767901!4d-7.9223156!16s%2Fg%2F11px3gts4h!19sChIJuXlMknjlGQ0RchE7knNsAt8?authuser=0&hl=tr&rclk=1",
    "website_url": "",
    "rating_text": "5,0",
    "stars": null,
    "number_of_reviews": null,
    "price_level": "",
    "open_hours": "",
    "extraction_timestamp": "2025-06-07T18:03:38.410Z",
    "source_name": "google",
    "source_query": "Irrigation Equipment",
    "source_country": "PT",
    "country": "Portugal",
    "state": "Évora",
    "city": "Mora"
  },
  {
    "source_id": "ChIJKS2qoctNFw0Rd-uUA9X_3dY",
    "name": "Gonçalagro, Sociedade Agro Comercial, Lda - Filial 1 - Reguengos de Monsaraz",
    "category": "Gonçalagro, Sociedade Agro Comercial, Lda - Filial 1 - Reguengos de Monsaraz",
    "formatted_address": "Gonçalagro, Sociedade Agro Comercial, Lda - Filial 1 - Reguengos de Monsaraz",
    "phone_number": "+351275751555",
    "source_url": "https://www.google.com/maps/place/Gon%C3%A7alagro,+Sociedade+Agro+Comercial,+Lda+-+Filial+1+-+Reguengos+de+Monsaraz/data=!4m7!3m6!1s0xd174dcba1aa2d29:0xd6ddffd50394eb77!8m2!3d38.422145!4d-7.5437137!16s%2Fg%2F11h0th718j!19sChIJKS2qoctNFw0Rd-uUA9X_3dY?authuser=0&hl=tr&rclk=1",
    "website_url": "http://www.goncalagro.pt/",
    "rating_text": "4,1",
    "stars": null,
    "number_of_reviews": null,
    "price_level": "",
    "open_hours": "",
    "extraction_timestamp": "2025-06-07T18:03:38.411Z",
    "source_name": "google",
    "source_query": "Irrigation Equipment",
    "source_country": "PT",
    "country": "Portugal",
    "state": "Évora",
    "city": "Mora"
  },
  {
    "source_id": "ChIJS2vBX83kGQ0RPwV2x0zcLOQ",
    "name": "Decathlon",
    "category": "Decathlon",
    "formatted_address": "4,1(2.405)",
    "phone_number": "+351266247195",
    "source_url": "https://www.google.com/maps/place/Decathlon/data=!4m7!3m6!1s0xd19e4cd5fc16b4b:0xe42cdc4cc776053f!8m2!3d38.5548957!4d-7.9043946!16s%2Fg%2F11c488g6_t!19sChIJS2vBX83kGQ0RPwV2x0zcLOQ?authuser=0&hl=tr&rclk=1",
    "website_url": "https://www.decathlon.pt/store-view/loja-de-desporto-evora-0070118701187",
    "rating_text": "4,1",
    "stars": null,
    "number_of_reviews": null,
    "price_level": "",
    "open_hours": "",
    "extraction_timestamp": "2025-06-07T18:03:38.413Z",
    "source_name": "google",
    "source_query": "Irrigation Equipment",
    "source_country": "PT",
    "country": "Portugal",
    "state": "Évora",
    "city": "Mora"
  },
  {
    "source_id": "ChIJRY5b-SnlGQ0RBqS9a3Hj2rc",
    "name": "Maquidiana - Máquinas e Equipamentos Agrícolas, Lda.",
    "category": "Maquidiana - Máquinas e Equipamentos Agrícolas, Lda.",
    "formatted_address": "Maquidiana - Máquinas e Equipamentos Agrícolas, Lda.",
    "phone_number": "+351266706537",
    "source_url": "https://www.google.com/maps/place/Maquidiana+-+M%C3%A1quinas+e+Equipamentos+Agr%C3%ADcolas,+Lda./data=!4m7!3m6!1s0xd19e529f95b8e45:0xb7dae3716bbda406!8m2!3d38.5583965!4d-7.9161119!16s%2Fg%2F11bbrl0368!19sChIJRY5b-SnlGQ0RBqS9a3Hj2rc?authuser=0&hl=tr&rclk=1",
    "website_url": "https://www.abolsamia.pt/microsite/maquidiana-lda-16993",
    "rating_text": "4,0",
    "stars": null,
    "number_of_reviews": null,
    "price_level": "",
    "open_hours": "",
    "extraction_timestamp": "2025-06-07T18:03:38.413Z",
    "source_name": "google",
    "source_query": "Irrigation Equipment",
    "source_country": "PT",
    "country": "Portugal",
    "state": "Évora",
    "city": "Mora"
  },
  {
    "source_id": "ChIJO2DtQm-lGw0REmy9lVsxwf0",
    "name": "IBERPOWER - Tractores e Máquinas, LDA",
    "category": "IBERPOWER - Tractores e Máquinas, LDA",
    "formatted_address": "IBERPOWER - Tractores e Máquinas, LDA",
    "phone_number": "+351269906158",
    "source_url": "https://www.google.com/maps/place/IBERPOWER+-+Tractores+e+M%C3%A1quinas,+LDA/data=!4m7!3m6!1s0xd1ba56f42ed603b:0xfdc1315b95bd6c12!8m2!3d37.7957084!4d-8.6856779!16s%2Fg%2F1th7zm79!19sChIJO2DtQm-lGw0REmy9lVsxwf0?authuser=0&hl=tr&rclk=1",
    "website_url": "https://www.iberpower.com/",
    "rating_text": "5,0",
    "stars": null,
    "number_of_reviews": null,
    "price_level": "",
    "open_hours": "",
    "extraction_timestamp": "2025-06-07T18:03:38.414Z",
    "source_name": "google",
    "source_query": "Irrigation Equipment",
    "source_country": "PT",
    "country": "Portugal",
    "state": "Évora",
    "city": "Mora"
  },
  {
    "source_id": "ChIJH3e7zCHlGQ0R3aHIjzwVHCw",
    "name": "Nutriévora-Comércio Rações Produtos Agrícolas Lda",
    "category": "Nutriévora-Comércio Rações Produtos Agrícolas Lda",
    "formatted_address": "4,3(3)",
    "phone_number": "+351266746137",
    "source_url": "https://www.google.com/maps/place/Nutri%C3%A9vora-Com%C3%A9rcio+Ra%C3%A7%C3%B5es+Produtos+Agr%C3%ADcolas+Lda/data=!4m7!3m6!1s0xd19e521ccbb771f:0x2c1c153c8fc8a1dd!8m2!3d38.5588635!4d-7.8903718!16s%2Fg%2F1vxvk3gd!19sChIJH3e7zCHlGQ0R3aHIjzwVHCw?authuser=0&hl=tr&rclk=1",
    "website_url": "http://www.nutrievora.pt/",
    "rating_text": "4,3",
    "stars": null,
    "number_of_reviews": null,
    "price_level": "",
    "open_hours": "",
    "extraction_timestamp": "2025-06-07T18:03:38.415Z",
    "source_name": "google",
    "source_query": "Irrigation Equipment",
    "source_country": "PT",
    "country": "Portugal",
    "state": "Évora",
    "city": "Mora"
  },
  {
    "source_id": "ChIJK-sdzC37GQ0Rg5rynT9Obws",
    "name": "Tiendanimal",
    "category": "Tiendanimal",
    "formatted_address": "4,6(80)",
    "phone_number": "+351266247392",
    "source_url": "https://www.google.com/maps/place/Tiendanimal/data=!4m7!3m6!1s0xd19fb2dcc1deb2b:0xb6f4e3f9df29a83!8m2!3d38.5497313!4d-7.9054148!16s%2Fg%2F11f_kmrwxk!19sChIJK-sdzC37GQ0Rg5rynT9Obws?authuser=0&hl=tr&rclk=1",
    "website_url": "",
    "rating_text": "4,6",
    "stars": null,
    "number_of_reviews": null,
    "price_level": "",
    "open_hours": "",
    "extraction_timestamp": "2025-06-07T18:03:38.416Z",
    "source_name": "google",
    "source_query": "Irrigation Equipment",
    "source_country": "PT",
    "country": "Portugal",
    "state": "Évora",
    "city": "Mora"
  },
  {
    "source_id": "ChIJUUKUSyn7GQ0RA2-PfmDybW0",
    "name": "EborClima, Lda",
    "category": "EborClima, Lda",
    "formatted_address": "EborClima, Lda",
    "phone_number": "+351266751700",
    "source_url": "https://www.google.com/maps/place/EborClima,+Lda/data=!4m7!3m6!1s0xd19fb294b944251:0x6d6df2607e8f6f03!8m2!3d38.546989!4d-7.9104762!16s%2Fg%2F11d_9hhcs_!19sChIJUUKUSyn7GQ0RA2-PfmDybW0?authuser=0&hl=tr&rclk=1",
    "website_url": "http://www.eborclima.pt/",
    "rating_text": "4,9",
    "stars": null,
    "number_of_reviews": null,
    "price_level": "",
    "open_hours": "",
    "extraction_timestamp": "2025-06-07T18:03:38.417Z",
    "source_name": "google",
    "source_query": "Irrigation Equipment",
    "source_country": "PT",
    "country": "Portugal",
    "state": "Évora",
    "city": "Mora"
  },
  {
    "source_id": "ChIJbR3eoXvlGQ0RJMHn5o8dO1o",
    "name": "Leroy Merlin Construção - Évora",
    "category": "Leroy Merlin Construção - Évora",
    "formatted_address": "3,1(12)",
    "phone_number": "+351211944944",
    "source_url": "https://www.google.com/maps/place/Leroy+Merlin+Constru%C3%A7%C3%A3o+-+%C3%89vora/data=!4m7!3m6!1s0xd19e57ba1de1d6d:0x5a3b1d8fe6e7c124!8m2!3d38.559716!4d-7.8947521!16s%2Fg%2F11tsp388r3!19sChIJbR3eoXvlGQ0RJMHn5o8dO1o?authuser=0&hl=tr&rclk=1",
    "website_url": "https://www.leroymerlin.pt/lojas/leroy-merlin-evora.html",
    "rating_text": "3,1",
    "stars": null,
    "number_of_reviews": null,
    "price_level": "",
    "open_hours": "",
    "extraction_timestamp": "2025-06-07T18:03:38.418Z",
    "source_name": "google",
    "source_query": "Irrigation Equipment",
    "source_country": "PT",
    "country": "Portugal",
    "state": "Évora",
    "city": "Mora"
  },
  {
    "source_id": "ChIJy6fwPNXkGQ0RXF8MnjxL9yQ",
    "name": "Tanqueluz Evora",
    "category": "Tanqueluz Evora",
    "formatted_address": "4,2(63)",
    "phone_number": "+351266707452",
    "source_url": "https://www.google.com/maps/place/Tanqueluz+Evora/data=!4m7!3m6!1s0xd19e4d53cf0a7cb:0x24f74b3c9e0c5f5c!8m2!3d38.5542836!4d-7.9136764!16s%2Fg%2F11d_8l2nm0!19sChIJy6fwPNXkGQ0RXF8MnjxL9yQ?authuser=0&hl=tr&rclk=1",
    "website_url": "http://www.tanqueluz.pt/",
    "rating_text": "4,2",
    "stars": null,
    "number_of_reviews": null,
    "price_level": "",
    "open_hours": "",
    "extraction_timestamp": "2025-06-07T18:03:38.419Z",
    "source_name": "google",
    "source_query": "Irrigation Equipment",
    "source_country": "PT",
    "country": "Portugal",
    "state": "Évora",
    "city": "Mora"
  },
  {
    "source_id": "ChIJ71acBuDlGQ0RixfkQ6qzB6Y",
    "name": "MU Serviços - Canalizações e Reparações Domésticas",
    "category": "MU Serviços - Canalizações e Reparações Domésticas",
    "formatted_address": "5,0(1)",
    "phone_number": "+351924270881",
    "source_url": "https://www.google.com/maps/place/MU+Servi%C3%A7os+-+Canaliza%C3%A7%C3%B5es+e+Repara%C3%A7%C3%B5es+Dom%C3%A9sticas/data=!4m7!3m6!1s0xd19e5e0069c56ef:0xa607b3aa43e4178b!8m2!3d38.5698202!4d-7.9110091!16s%2Fg%2F11pc9yvmkk!19sChIJ71acBuDlGQ0RixfkQ6qzB6Y?authuser=0&hl=tr&rclk=1",
    "website_url": "",
    "rating_text": "5,0",
    "stars": null,
    "number_of_reviews": null,
    "price_level": "",
    "open_hours": "",
    "extraction_timestamp": "2025-06-07T18:03:38.420Z",
    "source_name": "google",
    "source_query": "Irrigation Equipment",
    "source_country": "PT",
    "country": "Portugal",
    "state": "Évora",
    "city": "Mora"
  },
  {
    "source_id": "ChIJLZpzEyv7GQ0RcHwp5DeISZk",
    "name": "Staples® • Évora",
    "category": "Staples® • Évora",
    "formatted_address": "3,9(830) · ₺₺",
    "phone_number": "+351266769700",
    "source_url": "https://www.google.com/maps/place/Staples%C2%AE+%E2%80%A2+%C3%89vora/data=!4m7!3m6!1s0xd19fb2b13739a2d:0x99498837e4297c70!8m2!3d38.5514021!4d-7.9117351!16s%2Fg%2F11b6_nc8xx!19sChIJLZpzEyv7GQ0RcHwp5DeISZk?authuser=0&hl=tr&rclk=1",
    "website_url": "https://www.staples.pt/",
    "rating_text": "3,9",
    "stars": null,
    "number_of_reviews": null,
    "price_level": "",
    "open_hours": "",
    "extraction_timestamp": "2025-06-07T18:03:38.421Z",
    "source_name": "google",
    "source_query": "Irrigation Equipment",
    "source_country": "PT",
    "country": "Portugal",
    "state": "Évora",
    "city": "Mora"
  },
  {
    "source_id": "ChIJ42IGOxrlGQ0RL_4HVzOCg-Q",
    "name": "Ricardo Joaquim Murteira De Carvalho Freixial",
    "category": "Ricardo Joaquim Murteira De Carvalho Freixial",
    "formatted_address": "3,7(6)",
    "phone_number": "+351966004347",
    "source_url": "https://www.google.com/maps/place/Ricardo+Joaquim+Murteira+De+Carvalho+Freixial/data=!4m7!3m6!1s0xd19e51a3b0662e3:0xe48382335707fe2f!8m2!3d38.579178!4d-7.924762!16s%2Fg%2F1hc0w6jb_!19sChIJ42IGOxrlGQ0RL_4HVzOCg-Q?authuser=0&hl=tr&rclk=1",
    "website_url": "",
    "rating_text": "3,7",
    "stars": null,
    "number_of_reviews": null,
    "price_level": "",
    "open_hours": "",
    "extraction_timestamp": "2025-06-07T18:03:38.422Z",
    "source_name": "google",
    "source_query": "Irrigation Equipment",
    "source_country": "PT",
    "country": "Portugal",
    "state": "Évora",
    "city": "Mora"
  }
]
