[
  {
    "source_id": "ChIJ4y40rpd0Gg0RMB-TzW_WsnM",
    "name": "Magos Irrigation Systems",
    "category": "Magos Irrigation Systems",
    "formatted_address": "5,0(7)",
    "phone_number": "+351284328195",
    "source_url": "https://www.google.com/maps/place/Magos+Irrigation+Systems/data=!4m7!3m6!1s0xd1a7497ae342ee3:0x73b2d66fcd931f30!8m2!3d38.0253609!4d-7.8597778!16s%2Fg%2F11bzq3bn8p!19sChIJ4y40rpd0Gg0RMB-TzW_WsnM?authuser=0&hl=tr&rclk=1",
    "website_url": "",
    "rating_text": "5,0",
    "stars": null,
    "number_of_reviews": null,
    "price_level": "",
    "open_hours": "",
    "extraction_timestamp": "2025-06-07T18:06:16.343Z",
    "source_name": "google",
    "source_query": "Irrigation Equipment",
    "source_country": "PT",
    "country": "Portugal",
    "state": "Évora",
    "city": "Mourão"
  },
  {
    "source_id": "ChIJI-IgjfPlGQ0RoF-XqFQ12ms",
    "name": "Nutrima - Agri Feeds",
    "category": "Nutrima - Agri Feeds",
    "formatted_address": "4,5(390)",
    "phone_number": "+351266104474",
    "source_url": "https://www.google.com/maps/place/Nutrima+-+Agri+Feeds/data=!4m7!3m6!1s0xd19e5f38d20e223:0x6bda3554a8975fa0!8m2!3d38.5587323!4d-7.8913583!16s%2Fg%2F11g_r2zg9g!19sChIJI-IgjfPlGQ0RoF-XqFQ12ms?authuser=0&hl=tr&rclk=1",
    "website_url": "",
    "rating_text": "4,5",
    "stars": null,
    "number_of_reviews": null,
    "price_level": "",
    "open_hours": "",
    "extraction_timestamp": "2025-06-07T18:06:16.345Z",
    "source_name": "google",
    "source_query": "Irrigation Equipment",
    "source_country": "PT",
    "country": "Portugal",
    "state": "Évora",
    "city": "Mourão"
  },
  {
    "source_id": "ChIJLQYcgCv7GQ0R6TQqX4uC7ik",
    "name": "Nicolau & Rosa",
    "category": "Nicolau & Rosa",
    "formatted_address": "4,4(193)",
    "phone_number": "+351266708574",
    "source_url": "https://www.google.com/maps/place/Nicolau+%26+Rosa/data=!4m7!3m6!1s0xd19fb2b801c062d:0x29ee828b5f2a34e9!8m2!3d38.5506707!4d-7.9103218!16s%2Fg%2F1ptzx5ghm!19sChIJLQYcgCv7GQ0R6TQqX4uC7ik?authuser=0&hl=tr&rclk=1",
    "website_url": "",
    "rating_text": "4,4",
    "stars": null,
    "number_of_reviews": null,
    "price_level": "",
    "open_hours": "",
    "extraction_timestamp": "2025-06-07T18:06:16.347Z",
    "source_name": "google",
    "source_query": "Irrigation Equipment",
    "source_country": "PT",
    "country": "Portugal",
    "state": "Évora",
    "city": "Mourão"
  },
  {
    "source_id": "ChIJhb7l2y77GQ0RHDF4h7-nCD4",
    "name": "Hidroportugal - Montagem Com. Equipamentos Para Piscinas E Regas, Lda",
    "category": "Hidroportugal - Montagem Com. Equipamentos Para Piscinas E Regas, Lda",
    "formatted_address": "Hidroportugal - Montagem Com. Equipamentos Para Piscinas E Regas, Lda",
    "phone_number": "+351266745850",
    "source_url": "https://www.google.com/maps/place/Hidroportugal+-+Montagem+Com.+Equipamentos+Para+Piscinas+E+Regas,+Lda/data=!4m7!3m6!1s0xd19fb2edbe5be85:0x3e08a7bf8778311c!8m2!3d38.5457563!4d-7.9108625!16s%2Fg%2F1q628pzwt!19sChIJhb7l2y77GQ0RHDF4h7-nCD4?authuser=0&hl=tr&rclk=1",
    "website_url": "",
    "rating_text": "4,4",
    "stars": null,
    "number_of_reviews": null,
    "price_level": "",
    "open_hours": "",
    "extraction_timestamp": "2025-06-07T18:06:16.349Z",
    "source_name": "google",
    "source_query": "Irrigation Equipment",
    "source_country": "PT",
    "country": "Portugal",
    "state": "Évora",
    "city": "Mourão"
  },
  {
    "source_id": "ChIJAZPNntLNEA0R7WjAtnpfiOc",
    "name": "Casa Pulguinha",
    "category": "Casa Pulguinha",
    "formatted_address": "4,9(13)",
    "phone_number": "+351963639598",
    "source_url": "https://www.google.com/maps/place/Casa+Pulguinha/data=!4m7!3m6!1s0xd10cdd29ecd9301:0xe7885f7ab6c068ed!8m2!3d38.381428!4d-7.344598!16s%2Fg%2F11pl1gzmkt!19sChIJAZPNntLNEA0R7WjAtnpfiOc?authuser=0&hl=tr&rclk=1",
    "website_url": "",
    "rating_text": "4,9",
    "stars": null,
    "number_of_reviews": null,
    "price_level": "",
    "open_hours": "",
    "extraction_timestamp": "2025-06-07T18:06:16.350Z",
    "source_name": "google",
    "source_query": "Irrigation Equipment",
    "source_country": "PT",
    "country": "Portugal",
    "state": "Évora",
    "city": "Mourão"
  },
  {
    "source_id": "ChIJfX5oleLLEA0Ryp1SeiqSG5o",
    "name": "Mourão Watersports",
    "category": "Mourão Watersports",
    "formatted_address": "5,0(16)",
    "phone_number": "+351965672335",
    "source_url": "https://www.google.com/maps/place/Mour%C3%A3o+Watersports/data=!4m7!3m6!1s0xd10cbe295687e7d:0x9a1b922a7a529dca!8m2!3d38.367361!4d-7.3562329!16s%2Fg%2F11v9c04jbg!19sChIJfX5oleLLEA0Ryp1SeiqSG5o?authuser=0&hl=tr&rclk=1",
    "website_url": "",
    "rating_text": "5,0",
    "stars": null,
    "number_of_reviews": null,
    "price_level": "",
    "open_hours": "",
    "extraction_timestamp": "2025-06-07T18:06:16.351Z",
    "source_name": "google",
    "source_query": "Irrigation Equipment",
    "source_country": "PT",
    "country": "Portugal",
    "state": "Évora",
    "city": "Mourão"
  },
  {
    "source_id": "ChIJ57iJsMHkGQ0R-CqpbSW_uyI",
    "name": "Irrievora-Sistemas De Rega, Lda.",
    "category": "Irrievora-Sistemas De Rega, Lda.",
    "formatted_address": "Irrievora-Sistemas De Rega, Lda.",
    "phone_number": "+351266758401",
    "source_url": "https://www.google.com/maps/place/Irrievora-Sistemas+De+Rega,+Lda./data=!4m7!3m6!1s0xd19e4c1b089b8e7:0x22bbbf256da92af8!8m2!3d38.5736416!4d-7.8975256!16s%2Fg%2F1tk8dcv4!19sChIJ57iJsMHkGQ0R-CqpbSW_uyI?authuser=0&hl=tr&rclk=1",
    "website_url": "",
    "rating_text": "4,1",
    "stars": null,
    "number_of_reviews": null,
    "price_level": "",
    "open_hours": "",
    "extraction_timestamp": "2025-06-07T18:06:16.353Z",
    "source_name": "google",
    "source_query": "Irrigation Equipment",
    "source_country": "PT",
    "country": "Portugal",
    "state": "Évora",
    "city": "Mourão"
  },
  {
    "source_id": "ChIJC5w7QdzkGQ0RL9ydCDy2_a0",
    "name": "HIDROSOPH, LDA",
    "category": "HIDROSOPH, LDA",
    "formatted_address": "HIDROSOPH, LDA",
    "phone_number": "+351266741253",
    "source_url": "https://www.google.com/maps/place/HIDROSOPH,+LDA/data=!4m7!3m6!1s0xd19e4dc413b9c0b:0xadfdb63c089ddc2f!8m2!3d38.5575571!4d-7.9187218!16s%2Fg%2F1td6c4dy!19sChIJC5w7QdzkGQ0RL9ydCDy2_a0?authuser=0&hl=tr&rclk=1",
    "website_url": "",
    "rating_text": "4,0",
    "stars": null,
    "number_of_reviews": null,
    "price_level": "",
    "open_hours": "",
    "extraction_timestamp": "2025-06-07T18:06:16.354Z",
    "source_name": "google",
    "source_query": "Irrigation Equipment",
    "source_country": "PT",
    "country": "Portugal",
    "state": "Évora",
    "city": "Mourão"
  },
  {
    "source_id": "ChIJ9SQKagLNEA0RjIIdgNW1WpE",
    "name": "Amanhecer - Mini Mercado Nanu",
    "category": "Amanhecer - Mini Mercado Nanu",
    "formatted_address": "4,4(32)",
    "phone_number": "+351926183988",
    "source_url": "https://www.google.com/maps/place/Amanhecer+-+Mini+Mercado+Nanu/data=!4m7!3m6!1s0xd10cd026a0a24f5:0x915ab5d5801d828c!8m2!3d38.3860334!4d-7.3392612!16s%2Fg%2F11j2xf59dj!19sChIJ9SQKagLNEA0RjIIdgNW1WpE?authuser=0&hl=tr&rclk=1",
    "website_url": "",
    "rating_text": "4,4",
    "stars": null,
    "number_of_reviews": null,
    "price_level": "",
    "open_hours": "",
    "extraction_timestamp": "2025-06-07T18:06:16.355Z",
    "source_name": "google",
    "source_query": "Irrigation Equipment",
    "source_country": "PT",
    "country": "Portugal",
    "state": "Évora",
    "city": "Mourão"
  },
  {
    "source_id": "ChIJR45MaYfMEA0RpCUbeCLdVeA",
    "name": "Meu Super Mourão",
    "category": "Meu Super Mourão",
    "formatted_address": "3,9(148)",
    "phone_number": "+351214244325",
    "source_url": "https://www.google.com/maps/place/Meu+Super+Mour%C3%A3o/data=!4m7!3m6!1s0xd10cc87694c8e47:0xe055dd22781b25a4!8m2!3d38.3821185!4d-7.3446507!16s%2Fg%2F11bwgvpqyk!19sChIJR45MaYfMEA0RpCUbeCLdVeA?authuser=0&hl=tr&rclk=1",
    "website_url": "",
    "rating_text": "3,9",
    "stars": null,
    "number_of_reviews": null,
    "price_level": "",
    "open_hours": "",
    "extraction_timestamp": "2025-06-07T18:06:16.357Z",
    "source_name": "google",
    "source_query": "Irrigation Equipment",
    "source_country": "PT",
    "country": "Portugal",
    "state": "Évora",
    "city": "Mourão"
  },
  {
    "source_id": "ChIJ-atbjpjNEA0RqLxvWrdZqSo",
    "name": "Supermercado Tons do Campo",
    "category": "Supermercado Tons do Campo",
    "formatted_address": "4,5(75)",
    "phone_number": "+351266586452",
    "source_url": "https://www.google.com/maps/place/Supermercado+Tons+do+Campo/data=!4m7!3m6!1s0xd10cd988e5babf9:0x2aa959b75a6fbca8!8m2!3d38.3822495!4d-7.3408772!16s%2Fg%2F11f73pgfgm!19sChIJ-atbjpjNEA0RqLxvWrdZqSo?authuser=0&hl=tr&rclk=1",
    "website_url": "",
    "rating_text": "4,5",
    "stars": null,
    "number_of_reviews": null,
    "price_level": "",
    "open_hours": "",
    "extraction_timestamp": "2025-06-07T18:06:16.358Z",
    "source_name": "google",
    "source_query": "Irrigation Equipment",
    "source_country": "PT",
    "country": "Portugal",
    "state": "Évora",
    "city": "Mourão"
  }
]
