[
  {
    "source_id": "ChIJI-IgjfPlGQ0RoF-XqFQ12ms",
    "name": "Nutrima - Agri Feeds",
    "category": "Nutrima - Agri Feeds",
    "formatted_address": "4,5(390)",
    "phone_number": "+351266104474",
    "source_url": "https://www.google.com/maps/place/Nutrima+-+Agri+Feeds/data=!4m7!3m6!1s0xd19e5f38d20e223:0x6bda3554a8975fa0!8m2!3d38.5587323!4d-7.8913583!16s%2Fg%2F11g_r2zg9g!19sChIJI-IgjfPlGQ0RoF-XqFQ12ms?authuser=0&hl=tr&rclk=1",
    "website_url": "http://nutrima.pt/",
    "rating_text": "4,5",
    "stars": null,
    "number_of_reviews": null,
    "price_level": "",
    "open_hours": "",
    "extraction_timestamp": "2025-06-07T18:05:04.132Z",
    "source_name": "google",
    "source_query": "Irrigation Equipment",
    "source_country": "PT",
    "country": "Portugal",
    "state": "Évora",
    "city": "Redondo"
  },
  {
    "source_id": "ChIJLQYcgCv7GQ0R6TQqX4uC7ik",
    "name": "Nicolau & Rosa",
    "category": "Nicolau & Rosa",
    "formatted_address": "4,4(193)",
    "phone_number": "+351266708574",
    "source_url": "https://www.google.com/maps/place/Nicolau+%26+Rosa/data=!4m7!3m6!1s0xd19fb2b801c062d:0x29ee828b5f2a34e9!8m2!3d38.5506707!4d-7.9103218!16s%2Fg%2F1ptzx5ghm!19sChIJLQYcgCv7GQ0R6TQqX4uC7ik?authuser=0&hl=tr&rclk=1",
    "website_url": "https://www.nicolaurosa.com/",
    "rating_text": "4,4",
    "stars": null,
    "number_of_reviews": null,
    "price_level": "",
    "open_hours": "",
    "extraction_timestamp": "2025-06-07T18:05:04.133Z",
    "source_name": "google",
    "source_query": "Irrigation Equipment",
    "source_country": "PT",
    "country": "Portugal",
    "state": "Évora",
    "city": "Redondo"
  },
  {
    "source_id": "ChIJiQ5QCCr7GQ0RCWc_orHyamY",
    "name": "STIHL EVORA",
    "category": "STIHL EVORA",
    "formatted_address": "4,5(13)",
    "phone_number": "+351965535392",
    "source_url": "https://www.google.com/maps/place/STIHL+EVORA/data=!4m7!3m6!1s0xd19fb2a08500e89:0x666af2b1a23f6709!8m2!3d38.5439574!4d-7.9089069!16s%2Fg%2F11f3_1hkh0!19sChIJiQ5QCCr7GQ0RCWc_orHyamY?authuser=0&hl=tr&rclk=1",
    "website_url": "https://www.stihl.pt/",
    "rating_text": "4,5",
    "stars": null,
    "number_of_reviews": null,
    "price_level": "",
    "open_hours": "",
    "extraction_timestamp": "2025-06-07T18:05:04.133Z",
    "source_name": "google",
    "source_query": "Irrigation Equipment",
    "source_country": "PT",
    "country": "Portugal",
    "state": "Évora",
    "city": "Redondo"
  },
  {
    "source_id": "ChIJI6T6Jyj7GQ0RErNH50ff5EM",
    "name": "Alemplás, Lda - Produção e Comércio de Produtos Plásticos e Agrícolas",
    "category": "Alemplás, Lda - Produção e Comércio de Produtos Plásticos e Agrícolas",
    "formatted_address": "Alemplás, Lda - Produção e Comércio de Produtos Plásticos e Agrícolas",
    "phone_number": "+351266700393",
    "source_url": "https://www.google.com/maps/place/Alempl%C3%A1s,+Lda+-+Produ%C3%A7%C3%A3o+e+Com%C3%A9rcio+de+Produtos+Pl%C3%A1sticos+e+Agr%C3%ADcolas/data=!4m7!3m6!1s0xd19fb2827faa423:0x43e4df47e747b312!8m2!3d38.5443888!4d-7.915671!16s%2Fg%2F11f3b917hh!19sChIJI6T6Jyj7GQ0RErNH50ff5EM?authuser=0&hl=tr&rclk=1",
    "website_url": "http://www.alemplas.pt/",
    "rating_text": "4,7",
    "stars": null,
    "number_of_reviews": null,
    "price_level": "",
    "open_hours": "",
    "extraction_timestamp": "2025-06-07T18:05:04.133Z",
    "source_name": "google",
    "source_query": "Irrigation Equipment",
    "source_country": "PT",
    "country": "Portugal",
    "state": "Évora",
    "city": "Redondo"
  },
  {
    "source_id": "ChIJ4y40rpd0Gg0RMB-TzW_WsnM",
    "name": "Magos Irrigation Systems",
    "category": "Magos Irrigation Systems",
    "formatted_address": "5,0(7)",
    "phone_number": "+351284328195",
    "source_url": "https://www.google.com/maps/place/Magos+Irrigation+Systems/data=!4m7!3m6!1s0xd1a7497ae342ee3:0x73b2d66fcd931f30!8m2!3d38.0253609!4d-7.8597778!16s%2Fg%2F11bzq3bn8p!19sChIJ4y40rpd0Gg0RMB-TzW_WsnM?authuser=0&hl=tr&rclk=1",
    "website_url": "http://www.magos.pt/",
    "rating_text": "5,0",
    "stars": null,
    "number_of_reviews": null,
    "price_level": "",
    "open_hours": "",
    "extraction_timestamp": "2025-06-07T18:05:04.134Z",
    "source_name": "google",
    "source_query": "Irrigation Equipment",
    "source_country": "PT",
    "country": "Portugal",
    "state": "Évora",
    "city": "Redondo"
  },
  {
    "source_id": "ChIJuSBNqN_kGQ0RSPtuBpCoAT4",
    "name": "Sulregas, Lda.",
    "category": "Sulregas, Lda.",
    "formatted_address": "Sulregas, Lda.",
    "phone_number": "+351266749600",
    "source_url": "https://www.google.com/maps/place/Sulregas,+Lda./data=!4m7!3m6!1s0xd19e4dfa84d20b9:0x3e01a890066efb48!8m2!3d38.5492297!4d-7.9152266!16s%2Fg%2F11bbrpnhy4!19sChIJuSBNqN_kGQ0RSPtuBpCoAT4?authuser=0&hl=tr&rclk=1",
    "website_url": "https://sulregas.com.pt/",
    "rating_text": "4,5",
    "stars": null,
    "number_of_reviews": null,
    "price_level": "",
    "open_hours": "",
    "extraction_timestamp": "2025-06-07T18:05:04.135Z",
    "source_name": "google",
    "source_query": "Irrigation Equipment",
    "source_country": "PT",
    "country": "Portugal",
    "state": "Évora",
    "city": "Redondo"
  },
  {
    "source_id": "ChIJ3yp3kdDkGQ0R7AEdlP5QHWc",
    "name": "Agrosustentável",
    "category": "Agrosustentável",
    "formatted_address": "5,0(20)",
    "phone_number": "+351918990481",
    "source_url": "https://www.google.com/maps/place/Agrosustent%C3%A1vel/data=!4m7!3m6!1s0xd19e4d091772adf:0x671d50fe941d01ec!8m2!3d38.5478219!4d-7.9021199!16s%2Fg%2F11gcdxrtj1!19sChIJ3yp3kdDkGQ0R7AEdlP5QHWc?authuser=0&hl=tr&rclk=1",
    "website_url": "http://www.agrosustentavel.com/",
    "rating_text": "5,0",
    "stars": null,
    "number_of_reviews": null,
    "price_level": "",
    "open_hours": "",
    "extraction_timestamp": "2025-06-07T18:05:04.136Z",
    "source_name": "google",
    "source_query": "Irrigation Equipment",
    "source_country": "PT",
    "country": "Portugal",
    "state": "Évora",
    "city": "Redondo"
  },
  {
    "source_id": "ChIJkzMp2y46Fw0RvnbaEWtAV_Y",
    "name": "Injecção Eborense-Reparação De Bombas Injectoras, Lda.",
    "category": "Injecção Eborense-Reparação De Bombas Injectoras, Lda.",
    "formatted_address": "Injecção Eborense-Reparação De Bombas Injectoras, Lda.",
    "phone_number": "+351266731313",
    "source_url": "https://www.google.com/maps/place/Injec%C3%A7%C3%A3o+Eborense-Repara%C3%A7%C3%A3o+De+Bombas+Injectoras,+Lda./data=!4m7!3m6!1s0xd173a2edb293393:0xf657406b11da76be!8m2!3d38.5645507!4d-7.9257214!16s%2Fg%2F11bbrp35lw!19sChIJkzMp2y46Fw0RvnbaEWtAV_Y?authuser=0&hl=tr&rclk=1",
    "website_url": "",
    "rating_text": "4,6",
    "stars": null,
    "number_of_reviews": null,
    "price_level": "",
    "open_hours": "",
    "extraction_timestamp": "2025-06-07T18:05:04.153Z",
    "source_name": "google",
    "source_query": "Irrigation Equipment",
    "source_country": "PT",
    "country": "Portugal",
    "state": "Évora",
    "city": "Redondo"
  },
  {
    "source_id": "ChIJyWnmCmv7GQ0RpsJmy9Ccdg4",
    "name": "MANUEL FIALHO LDA",
    "category": "MANUEL FIALHO LDA",
    "formatted_address": "4,4(21)",
    "phone_number": "+351266759300",
    "source_url": "https://www.google.com/maps/place/MANUEL+FIALHO+LDA/data=!4m7!3m6!1s0xd19fb6b0ae669c9:0xe769cd0cb66c2a6!8m2!3d38.5434753!4d-7.9107878!16s%2Fg%2F11j8mxl2vl!19sChIJyWnmCmv7GQ0RpsJmy9Ccdg4?authuser=0&hl=tr&rclk=1",
    "website_url": "http://manuelfialho.pt/",
    "rating_text": "4,4",
    "stars": null,
    "number_of_reviews": null,
    "price_level": "",
    "open_hours": "",
    "extraction_timestamp": "2025-06-07T18:05:04.154Z",
    "source_name": "google",
    "source_query": "Irrigation Equipment",
    "source_country": "PT",
    "country": "Portugal",
    "state": "Évora",
    "city": "Redondo"
  },
  {
    "source_id": "ChIJC5w7QdzkGQ0RL9ydCDy2_a0",
    "name": "HIDROSOPH, LDA",
    "category": "HIDROSOPH, LDA",
    "formatted_address": "HIDROSOPH, LDA",
    "phone_number": "+351266741253",
    "source_url": "https://www.google.com/maps/place/HIDROSOPH,+LDA/data=!4m7!3m6!1s0xd19e4dc413b9c0b:0xadfdb63c089ddc2f!8m2!3d38.5575571!4d-7.9187218!16s%2Fg%2F1td6c4dy!19sChIJC5w7QdzkGQ0RL9ydCDy2_a0?authuser=0&hl=tr&rclk=1",
    "website_url": "http://www.hidrosoph.com/",
    "rating_text": "4,0",
    "stars": null,
    "number_of_reviews": null,
    "price_level": "",
    "open_hours": "",
    "extraction_timestamp": "2025-06-07T18:05:04.155Z",
    "source_name": "google",
    "source_query": "Irrigation Equipment",
    "source_country": "PT",
    "country": "Portugal",
    "state": "Évora",
    "city": "Redondo"
  },
  {
    "source_id": "ChIJhb7l2y77GQ0RHDF4h7-nCD4",
    "name": "Hidroportugal - Montagem Com. Equipamentos Para Piscinas E Regas, Lda",
    "category": "Hidroportugal - Montagem Com. Equipamentos Para Piscinas E Regas, Lda",
    "formatted_address": "Hidroportugal - Montagem Com. Equipamentos Para Piscinas E Regas, Lda",
    "phone_number": "+351266745850",
    "source_url": "https://www.google.com/maps/place/Hidroportugal+-+Montagem+Com.+Equipamentos+Para+Piscinas+E+Regas,+Lda/data=!4m7!3m6!1s0xd19fb2edbe5be85:0x3e08a7bf8778311c!8m2!3d38.5457563!4d-7.9108625!16s%2Fg%2F1q628pzwt!19sChIJhb7l2y77GQ0RHDF4h7-nCD4?authuser=0&hl=tr&rclk=1",
    "website_url": "",
    "rating_text": "4,4",
    "stars": null,
    "number_of_reviews": null,
    "price_level": "",
    "open_hours": "",
    "extraction_timestamp": "2025-06-07T18:05:04.156Z",
    "source_name": "google",
    "source_query": "Irrigation Equipment",
    "source_country": "PT",
    "country": "Portugal",
    "state": "Évora",
    "city": "Redondo"
  },
  {
    "source_id": "ChIJ57iJsMHkGQ0R-CqpbSW_uyI",
    "name": "Irrievora-Sistemas De Rega, Lda.",
    "category": "Irrievora-Sistemas De Rega, Lda.",
    "formatted_address": "Irrievora-Sistemas De Rega, Lda.",
    "phone_number": "+351266758401",
    "source_url": "https://www.google.com/maps/place/Irrievora-Sistemas+De+Rega,+Lda./data=!4m7!3m6!1s0xd19e4c1b089b8e7:0x22bbbf256da92af8!8m2!3d38.5736416!4d-7.8975256!16s%2Fg%2F1tk8dcv4!19sChIJ57iJsMHkGQ0R-CqpbSW_uyI?authuser=0&hl=tr&rclk=1",
    "website_url": "",
    "rating_text": "4,1",
    "stars": null,
    "number_of_reviews": null,
    "price_level": "",
    "open_hours": "",
    "extraction_timestamp": "2025-06-07T18:05:04.156Z",
    "source_name": "google",
    "source_query": "Irrigation Equipment",
    "source_country": "PT",
    "country": "Portugal",
    "state": "Évora",
    "city": "Redondo"
  },
  {
    "source_id": "ChIJ_2mE5yj7GQ0Rx1wmsn2zrIw",
    "name": "Agro Reparadora José Manuel Fialho Comércio Máquinas , Unipessoal, Lda",
    "category": "Agro Reparadora José Manuel Fialho Comércio Máquinas , Unipessoal, Lda",
    "formatted_address": "Agro Reparadora José Manuel Fialho Comércio Máquinas , Unipessoal, Lda",
    "phone_number": "+351266761710",
    "source_url": "https://www.google.com/maps/place/Agro+Reparadora+Jos%C3%A9+Manuel+Fialho+Com%C3%A9rcio+M%C3%A1quinas+,+Unipessoal,+Lda/data=!4m7!3m6!1s0xd19fb28e78469ff:0x8cacb37db2265cc7!8m2!3d38.5454605!4d-7.9106218!16s%2Fg%2F11bbrrbt4r!19sChIJ_2mE5yj7GQ0Rx1wmsn2zrIw?authuser=0&hl=tr&rclk=1",
    "website_url": "",
    "rating_text": "5,0",
    "stars": null,
    "number_of_reviews": null,
    "price_level": "",
    "open_hours": "",
    "extraction_timestamp": "2025-06-07T18:05:04.157Z",
    "source_name": "google",
    "source_query": "Irrigation Equipment",
    "source_country": "PT",
    "country": "Portugal",
    "state": "Évora",
    "city": "Redondo"
  },
  {
    "source_id": "ChIJRY5b-SnlGQ0RBqS9a3Hj2rc",
    "name": "Maquidiana - Máquinas e Equipamentos Agrícolas, Lda.",
    "category": "Maquidiana - Máquinas e Equipamentos Agrícolas, Lda.",
    "formatted_address": "Maquidiana - Máquinas e Equipamentos Agrícolas, Lda.",
    "phone_number": "+351266706537",
    "source_url": "https://www.google.com/maps/place/Maquidiana+-+M%C3%A1quinas+e+Equipamentos+Agr%C3%ADcolas,+Lda./data=!4m7!3m6!1s0xd19e529f95b8e45:0xb7dae3716bbda406!8m2!3d38.5583965!4d-7.9161119!16s%2Fg%2F11bbrl0368!19sChIJRY5b-SnlGQ0RBqS9a3Hj2rc?authuser=0&hl=tr&rclk=1",
    "website_url": "https://www.abolsamia.pt/microsite/maquidiana-lda-16993",
    "rating_text": "4,0",
    "stars": null,
    "number_of_reviews": null,
    "price_level": "",
    "open_hours": "",
    "extraction_timestamp": "2025-06-07T18:05:04.157Z",
    "source_name": "google",
    "source_query": "Irrigation Equipment",
    "source_country": "PT",
    "country": "Portugal",
    "state": "Évora",
    "city": "Redondo"
  },
  {
    "source_id": "ChIJozBdLKNsGg0R_FPcCUmzW9M",
    "name": "Hidrobeja - Irrigação e Infrastruturas Agrícolas, Lda",
    "category": "Hidrobeja - Irrigação e Infrastruturas Agrícolas, Lda",
    "formatted_address": "Hidrobeja - Irrigação e Infrastruturas Agrícolas, Lda",
    "phone_number": "+351284322922",
    "source_url": "https://www.google.com/maps/place/Hidrobeja+-+Irriga%C3%A7%C3%A3o+e+Infrastruturas+Agr%C3%ADcolas,+Lda/data=!4m7!3m6!1s0xd1a6ca32c5d30a3:0xd35bb34909dc53fc!8m2!3d38.0319463!4d-7.8592575!16s%2Fg%2F1tfjmd6q!19sChIJozBdLKNsGg0R_FPcCUmzW9M?authuser=0&hl=tr&rclk=1",
    "website_url": "",
    "rating_text": "4,6",
    "stars": null,
    "number_of_reviews": null,
    "price_level": "",
    "open_hours": "",
    "extraction_timestamp": "2025-06-07T18:05:04.158Z",
    "source_name": "google",
    "source_query": "Irrigation Equipment",
    "source_country": "PT",
    "country": "Portugal",
    "state": "Évora",
    "city": "Redondo"
  },
  {
    "source_id": "ChIJ6yf50uLlGQ0RnsHr5hIGulo",
    "name": "Topodafonte, Lda.",
    "category": "Topodafonte, Lda.",
    "formatted_address": "Topodafonte, Lda.",
    "phone_number": "+351266781450",
    "source_url": "https://www.google.com/maps/place/Topodafonte,+Lda./data=!4m7!3m6!1s0xd19e5e2d2f927eb:0x5aba0612e6ebc19e!8m2!3d38.5883679!4d-7.9143931!16s%2Fg%2F11l2grvfg2!19sChIJ6yf50uLlGQ0RnsHr5hIGulo?authuser=0&hl=tr&rclk=1",
    "website_url": "",
    "rating_text": "",
    "stars": null,
    "number_of_reviews": null,
    "price_level": "",
    "open_hours": "",
    "extraction_timestamp": "2025-06-07T18:05:04.159Z",
    "source_name": "google",
    "source_query": "Irrigation Equipment",
    "source_country": "PT",
    "country": "Portugal",
    "state": "Évora",
    "city": "Redondo"
  },
  {
    "source_id": "ChIJH3e7zCHlGQ0R3aHIjzwVHCw",
    "name": "Nutriévora-Comércio Rações Produtos Agrícolas Lda",
    "category": "Nutriévora-Comércio Rações Produtos Agrícolas Lda",
    "formatted_address": "4,3(3)",
    "phone_number": "+351266746137",
    "source_url": "https://www.google.com/maps/place/Nutri%C3%A9vora-Com%C3%A9rcio+Ra%C3%A7%C3%B5es+Produtos+Agr%C3%ADcolas+Lda/data=!4m7!3m6!1s0xd19e521ccbb771f:0x2c1c153c8fc8a1dd!8m2!3d38.5588635!4d-7.8903718!16s%2Fg%2F1vxvk3gd!19sChIJH3e7zCHlGQ0R3aHIjzwVHCw?authuser=0&hl=tr&rclk=1",
    "website_url": "http://www.nutrievora.pt/",
    "rating_text": "4,3",
    "stars": null,
    "number_of_reviews": null,
    "price_level": "",
    "open_hours": "",
    "extraction_timestamp": "2025-06-07T18:05:04.160Z",
    "source_name": "google",
    "source_query": "Irrigation Equipment",
    "source_country": "PT",
    "country": "Portugal",
    "state": "Évora",
    "city": "Redondo"
  },
  {
    "source_id": "ChIJQx3j2Vz7GQ0RezoTx-Tz5dc",
    "name": "Campo e Gotas",
    "category": "Campo e Gotas",
    "formatted_address": "5,0(1)",
    "phone_number": "+351961744706",
    "source_url": "https://www.google.com/maps/place/Campo+e+Gotas/data=!4m7!3m6!1s0xd19fb5cd9e31d43:0xd7e5f3e4c7133a7b!8m2!3d38.5476926!4d-7.9116821!16s%2Fg%2F11td0ygmlg!19sChIJQx3j2Vz7GQ0RezoTx-Tz5dc?authuser=0&hl=tr&rclk=1",
    "website_url": "http://www.campo-e-gotas.pt/",
    "rating_text": "5,0",
    "stars": null,
    "number_of_reviews": null,
    "price_level": "",
    "open_hours": "",
    "extraction_timestamp": "2025-06-07T18:05:04.161Z",
    "source_name": "google",
    "source_query": "Irrigation Equipment",
    "source_country": "PT",
    "country": "Portugal",
    "state": "Évora",
    "city": "Redondo"
  },
  {
    "source_id": "ChIJa4wIc8_jGA0R5WrdnXIi1y0",
    "name": "Magos Irrigation Systems",
    "category": "Magos Irrigation Systems",
    "formatted_address": "4,6(78)",
    "phone_number": "+351263500090",
    "source_url": "https://www.google.com/maps/place/Magos+Irrigation+Systems/data=!4m7!3m6!1s0xd18e3cf73088c6b:0x2dd722729ddd6ae5!8m2!3d39.0257515!4d-8.7872243!16s%2Fg%2F1tjbtf9n!19sChIJa4wIc8_jGA0R5WrdnXIi1y0?authuser=0&hl=tr&rclk=1",
    "website_url": "http://www.magos.pt/",
    "rating_text": "4,6",
    "stars": null,
    "number_of_reviews": null,
    "price_level": "",
    "open_hours": "",
    "extraction_timestamp": "2025-06-07T18:05:04.162Z",
    "source_name": "google",
    "source_query": "Irrigation Equipment",
    "source_country": "PT",
    "country": "Portugal",
    "state": "Évora",
    "city": "Redondo"
  },
  {
    "source_id": "ChIJieuV_410Gg0RCPUJNW20PxA",
    "name": "Irripax - Comércio de Máquinas Agricolas e Industriais, Lda",
    "category": "Irripax - Comércio de Máquinas Agricolas e Industriais, Lda",
    "formatted_address": "Irripax - Comércio de Máquinas Agricolas e Industriais, Lda",
    "phone_number": "+351284327440",
    "source_url": "https://www.google.com/maps/place/Irripax+-+Com%C3%A9rcio+de+M%C3%A1quinas+Agricolas+e+Industriais,+Lda/data=!4m7!3m6!1s0xd1a748dff95eb89:0x103fb46d3509f508!8m2!3d38.0224261!4d-7.8557339!16s%2Fg%2F1q62l0qth!19sChIJieuV_410Gg0RCPUJNW20PxA?authuser=0&hl=tr&rclk=1",
    "website_url": "https://www.irripax.pt/",
    "rating_text": "4,3",
    "stars": null,
    "number_of_reviews": null,
    "price_level": "",
    "open_hours": "",
    "extraction_timestamp": "2025-06-07T18:05:04.163Z",
    "source_name": "google",
    "source_query": "Irrigation Equipment",
    "source_country": "PT",
    "country": "Portugal",
    "state": "Évora",
    "city": "Redondo"
  },
  {
    "source_id": "ChIJKS2qoctNFw0Rd-uUA9X_3dY",
    "name": "Gonçalagro, Sociedade Agro Comercial, Lda - Filial 1 - Reguengos de Monsaraz",
    "category": "Gonçalagro, Sociedade Agro Comercial, Lda - Filial 1 - Reguengos de Monsaraz",
    "formatted_address": "Gonçalagro, Sociedade Agro Comercial, Lda - Filial 1 - Reguengos de Monsaraz",
    "phone_number": "+351275751555",
    "source_url": "https://www.google.com/maps/place/Gon%C3%A7alagro,+Sociedade+Agro+Comercial,+Lda+-+Filial+1+-+Reguengos+de+Monsaraz/data=!4m7!3m6!1s0xd174dcba1aa2d29:0xd6ddffd50394eb77!8m2!3d38.422145!4d-7.5437137!16s%2Fg%2F11h0th718j!19sChIJKS2qoctNFw0Rd-uUA9X_3dY?authuser=0&hl=tr&rclk=1",
    "website_url": "http://www.goncalagro.pt/",
    "rating_text": "4,1",
    "stars": null,
    "number_of_reviews": null,
    "price_level": "",
    "open_hours": "",
    "extraction_timestamp": "2025-06-07T18:05:04.164Z",
    "source_name": "google",
    "source_query": "Irrigation Equipment",
    "source_country": "PT",
    "country": "Portugal",
    "state": "Évora",
    "city": "Redondo"
  },
  {
    "source_id": "ChIJK-sdzC37GQ0Rg5rynT9Obws",
    "name": "Tiendanimal",
    "category": "Tiendanimal",
    "formatted_address": "4,6(80)",
    "phone_number": "+351266247392",
    "source_url": "https://www.google.com/maps/place/Tiendanimal/data=!4m7!3m6!1s0xd19fb2dcc1deb2b:0xb6f4e3f9df29a83!8m2!3d38.5497313!4d-7.9054148!16s%2Fg%2F11f_kmrwxk!19sChIJK-sdzC37GQ0Rg5rynT9Obws?authuser=0&hl=tr&rclk=1",
    "website_url": "",
    "rating_text": "4,6",
    "stars": null,
    "number_of_reviews": null,
    "price_level": "",
    "open_hours": "",
    "extraction_timestamp": "2025-06-07T18:05:04.165Z",
    "source_name": "google",
    "source_query": "Irrigation Equipment",
    "source_country": "PT",
    "country": "Portugal",
    "state": "Évora",
    "city": "Redondo"
  },
  {
    "source_id": "ChIJLZpzEyv7GQ0RcHwp5DeISZk",
    "name": "Staples® • Évora",
    "category": "Staples® • Évora",
    "formatted_address": "3,9(830) · ₺₺",
    "phone_number": "+351266769700",
    "source_url": "https://www.google.com/maps/place/Staples%C2%AE+%E2%80%A2+%C3%89vora/data=!4m7!3m6!1s0xd19fb2b13739a2d:0x99498837e4297c70!8m2!3d38.5514021!4d-7.9117351!16s%2Fg%2F11b6_nc8xx!19sChIJLZpzEyv7GQ0RcHwp5DeISZk?authuser=0&hl=tr&rclk=1",
    "website_url": "https://www.staples.pt/",
    "rating_text": "3,9",
    "stars": null,
    "number_of_reviews": null,
    "price_level": "",
    "open_hours": "",
    "extraction_timestamp": "2025-06-07T18:05:04.166Z",
    "source_name": "google",
    "source_query": "Irrigation Equipment",
    "source_country": "PT",
    "country": "Portugal",
    "state": "Évora",
    "city": "Redondo"
  },
  {
    "source_id": "ChIJ5wbJ-S37GQ0RV8J5aVal9RY",
    "name": "Auchan",
    "category": "Auchan",
    "formatted_address": "4,2(2.820)",
    "phone_number": "+351210403270",
    "source_url": "https://www.google.com/maps/place/Auchan/data=!4m7!3m6!1s0xd19fb2df9c906e7:0x16f5a5566979c257!8m2!3d38.5493731!4d-7.9049688!16s%2Fg%2F11f2sk6m5v!19sChIJ5wbJ-S37GQ0RV8J5aVal9RY?authuser=0&hl=tr&rclk=1",
    "website_url": "https://www.auchan.pt/pt/homepage?utm_campaign=gmb&utm_content=auchan-evora-zdv5&utm_medium=organic&utm_source=google",
    "rating_text": "4,2",
    "stars": null,
    "number_of_reviews": null,
    "price_level": "",
    "open_hours": "",
    "extraction_timestamp": "2025-06-07T18:05:04.168Z",
    "source_name": "google",
    "source_query": "Irrigation Equipment",
    "source_country": "PT",
    "country": "Portugal",
    "state": "Évora",
    "city": "Redondo"
  },
  {
    "source_id": "ChIJt0qgn9bkGQ0RoDmodUdx2cY",
    "name": "Sanitop - Évora",
    "category": "Sanitop - Évora",
    "formatted_address": "4,2(21)",
    "phone_number": "+351258105484",
    "source_url": "https://www.google.com/maps/place/Sanitop+-+%C3%89vora/data=!4m7!3m6!1s0xd19e4d69fa04ab7:0xc6d9714775a839a0!8m2!3d38.5585625!4d-7.9112241!16s%2Fg%2F11bbrk7hbr!19sChIJt0qgn9bkGQ0RoDmodUdx2cY?authuser=0&hl=tr&rclk=1",
    "website_url": "http://www.sanitop.pt/",
    "rating_text": "4,2",
    "stars": null,
    "number_of_reviews": null,
    "price_level": "",
    "open_hours": "",
    "extraction_timestamp": "2025-06-07T18:05:04.169Z",
    "source_name": "google",
    "source_query": "Irrigation Equipment",
    "source_country": "PT",
    "country": "Portugal",
    "state": "Évora",
    "city": "Redondo"
  },
  {
    "source_id": "ChIJ-yJexUflGQ0RiV50UuoQkTo",
    "name": "Novicampo - Loja",
    "category": "Novicampo - Loja",
    "formatted_address": "4,8(5)",
    "phone_number": "+351266746305",
    "source_url": "https://www.google.com/maps/place/Novicampo+-+Loja/data=!4m7!3m6!1s0xd19e547c55e22fb:0x3a9110ea52745e89!8m2!3d38.5650577!4d-7.9015116!16s%2Fg%2F11s61hsyz6!19sChIJ-yJexUflGQ0RiV50UuoQkTo?authuser=0&hl=tr&rclk=1",
    "website_url": "",
    "rating_text": "4,8",
    "stars": null,
    "number_of_reviews": null,
    "price_level": "",
    "open_hours": "",
    "extraction_timestamp": "2025-06-07T18:05:04.170Z",
    "source_name": "google",
    "source_query": "Irrigation Equipment",
    "source_country": "PT",
    "country": "Portugal",
    "state": "Évora",
    "city": "Redondo"
  },
  {
    "source_id": "ChIJDTr0biv7GQ0RpmfvZmtkejw",
    "name": "Loja Tiba Évora",
    "category": "Loja Tiba Évora",
    "formatted_address": "4,5(86)",
    "phone_number": "+351266769574",
    "source_url": "https://www.google.com/maps/place/Loja+Tiba+%C3%89vora/data=!4m7!3m6!1s0xd19fb2b6ef43a0d:0x3c7a646b66ef67a6!8m2!3d38.550108!4d-7.911446!16s%2Fg%2F11c3k30kss!19sChIJDTr0biv7GQ0RpmfvZmtkejw?authuser=0&hl=tr&rclk=1",
    "website_url": "http://www.tiba.pt/?utm_medium=organic&utm_source=google-my-business&utm_campaign=loja-evora",
    "rating_text": "4,5",
    "stars": null,
    "number_of_reviews": null,
    "price_level": "",
    "open_hours": "",
    "extraction_timestamp": "2025-06-07T18:05:04.171Z",
    "source_name": "google",
    "source_query": "Irrigation Equipment",
    "source_country": "PT",
    "country": "Portugal",
    "state": "Évora",
    "city": "Redondo"
  },
  {
    "source_id": "ChIJzcQliWO9Fw0RPIBesB870Tk",
    "name": "Agriloja de Portalegre",
    "category": "Agriloja de Portalegre",
    "formatted_address": "4,2(191)",
    "phone_number": "+351245106755",
    "source_url": "https://www.google.com/maps/place/Agriloja+de+Portalegre/data=!4m7!3m6!1s0xd17bd638925c4cd:0x39d13b1fb05e803c!8m2!3d39.2768124!4d-7.4327366!16s%2Fg%2F1hm3djclw!19sChIJzcQliWO9Fw0RPIBesB870Tk?authuser=0&hl=tr&rclk=1",
    "website_url": "http://www.agriloja.pt/",
    "rating_text": "4,2",
    "stars": null,
    "number_of_reviews": null,
    "price_level": "",
    "open_hours": "",
    "extraction_timestamp": "2025-06-07T18:05:04.172Z",
    "source_name": "google",
    "source_query": "Irrigation Equipment",
    "source_country": "PT",
    "country": "Portugal",
    "state": "Évora",
    "city": "Redondo"
  },
  {
    "source_id": "ChIJUzEPfu7lGQ0RpuDBDQl69EM",
    "name": "Action Évora",
    "category": "Action Évora",
    "formatted_address": "5,0(4)",
    "phone_number": "",
    "source_url": "https://www.google.com/maps/place/Action+%C3%89vora/data=!4m7!3m6!1s0xd19e5ee7e0f3153:0x43f47a090dc1e0a6!8m2!3d38.5589302!4d-7.9182176!16s%2Fg%2F11x7rwn7vd!19sChIJUzEPfu7lGQ0RpuDBDQl69EM?authuser=0&hl=tr&rclk=1",
    "website_url": "https://www.action.com/pt-pt/lojas/aveiro-zona-industrial-da-taboeira/",
    "rating_text": "5,0",
    "stars": null,
    "number_of_reviews": null,
    "price_level": "",
    "open_hours": "",
    "extraction_timestamp": "2025-06-07T18:05:04.172Z",
    "source_name": "google",
    "source_query": "Irrigation Equipment",
    "source_country": "PT",
    "country": "Portugal",
    "state": "Évora",
    "city": "Redondo"
  }
]
