[
  {
    "source_id": "ChIJJ8n2avocGg0R16wNKKgUq-Q",
    "name": "Rural Campo - STIHL Viana do Alentejo (Grupo MACHRENT)",
    "category": "Rural Campo - STIHL Viana do Alentejo (Grupo MACHRENT)",
    "formatted_address": "4,7(9)",
    "phone_number": "+351266009951",
    "source_url": "https://www.google.com/maps/place/Rural+Campo+-+STIHL+Viana+do+Alentejo+%28Grupo+MACHRENT%29/data=!4m7!3m6!1s0xd1a1cfa6af6c927:0xe4ab14a8280dacd7!8m2!3d38.3291552!4d-7.9960556!16s%2Fg%2F11jwstn6tf!19sChIJJ8n2avocGg0R16wNKKgUq-Q?authuser=0&hl=tr&rclk=1",
    "website_url": "",
    "rating_text": "4,7",
    "stars": null,
    "number_of_reviews": null,
    "price_level": "",
    "open_hours": "",
    "extraction_timestamp": "2025-06-07T18:06:25.428Z",
    "source_name": "google",
    "source_query": "Irrigation Equipment",
    "source_country": "PT",
    "country": "Portugal",
    "state": "Évora",
    "city": "Viana do Alentejo"
  },
  {
    "source_id": "ChIJhb7l2y77GQ0RHDF4h7-nCD4",
    "name": "Hidroportugal - Montagem Com. Equipamentos Para Piscinas E Regas, Lda",
    "category": "Hidroportugal - Montagem Com. Equipamentos Para Piscinas E Regas, Lda",
    "formatted_address": "Hidroportugal - Montagem Com. Equipamentos Para Piscinas E Regas, Lda",
    "phone_number": "+351266745850",
    "source_url": "https://www.google.com/maps/place/Hidroportugal+-+Montagem+Com.+Equipamentos+Para+Piscinas+E+Regas,+Lda/data=!4m7!3m6!1s0xd19fb2edbe5be85:0x3e08a7bf8778311c!8m2!3d38.5457563!4d-7.9108625!16s%2Fg%2F1q628pzwt!19sChIJhb7l2y77GQ0RHDF4h7-nCD4?authuser=0&hl=tr&rclk=1",
    "website_url": "",
    "rating_text": "4,4",
    "stars": null,
    "number_of_reviews": null,
    "price_level": "",
    "open_hours": "",
    "extraction_timestamp": "2025-06-07T18:06:25.430Z",
    "source_name": "google",
    "source_query": "Irrigation Equipment",
    "source_country": "PT",
    "country": "Portugal",
    "state": "Évora",
    "city": "Viana do Alentejo"
  },
  {
    "source_id": "ChIJiT64sPscGg0RAv1gV1aVXXE",
    "name": "Intermarché Viana do Alentejo",
    "category": "Intermarché Viana do Alentejo",
    "formatted_address": "3,9(505)",
    "phone_number": "+351266953580",
    "source_url": "https://www.google.com/maps/place/Intermarch%C3%A9+Viana+do+Alentejo/data=!4m7!3m6!1s0xd1a1cfbb0b83e89:0x715d95565760fd02!8m2!3d38.331157!4d-7.995614!16s%2Fg%2F11c0qx1hy0!19sChIJiT64sPscGg0RAv1gV1aVXXE?authuser=0&hl=tr&rclk=1",
    "website_url": "",
    "rating_text": "3,9",
    "stars": null,
    "number_of_reviews": null,
    "price_level": "",
    "open_hours": "",
    "extraction_timestamp": "2025-06-07T18:06:25.432Z",
    "source_name": "google",
    "source_query": "Irrigation Equipment",
    "source_country": "PT",
    "country": "Portugal",
    "state": "Évora",
    "city": "Viana do Alentejo"
  },
  {
    "source_id": "ChIJ4y40rpd0Gg0RMB-TzW_WsnM",
    "name": "Magos Irrigation Systems",
    "category": "Magos Irrigation Systems",
    "formatted_address": "5,0(7)",
    "phone_number": "+351284328195",
    "source_url": "https://www.google.com/maps/place/Magos+Irrigation+Systems/data=!4m7!3m6!1s0xd1a7497ae342ee3:0x73b2d66fcd931f30!8m2!3d38.0253609!4d-7.8597778!16s%2Fg%2F11bzq3bn8p!19sChIJ4y40rpd0Gg0RMB-TzW_WsnM?authuser=0&hl=tr&rclk=1",
    "website_url": "",
    "rating_text": "5,0",
    "stars": null,
    "number_of_reviews": null,
    "price_level": "",
    "open_hours": "",
    "extraction_timestamp": "2025-06-07T18:06:25.433Z",
    "source_name": "google",
    "source_query": "Irrigation Equipment",
    "source_country": "PT",
    "country": "Portugal",
    "state": "Évora",
    "city": "Viana do Alentejo"
  },
  {
    "source_id": "ChIJiQ5QCCr7GQ0RCWc_orHyamY",
    "name": "STIHL EVORA",
    "category": "STIHL EVORA",
    "formatted_address": "4,5(13)",
    "phone_number": "+351965535392",
    "source_url": "https://www.google.com/maps/place/STIHL+EVORA/data=!4m7!3m6!1s0xd19fb2a08500e89:0x666af2b1a23f6709!8m2!3d38.5439574!4d-7.9089069!16s%2Fg%2F11f3_1hkh0!19sChIJiQ5QCCr7GQ0RCWc_orHyamY?authuser=0&hl=tr&rclk=1",
    "website_url": "",
    "rating_text": "4,5",
    "stars": null,
    "number_of_reviews": null,
    "price_level": "",
    "open_hours": "",
    "extraction_timestamp": "2025-06-07T18:06:25.435Z",
    "source_name": "google",
    "source_query": "Irrigation Equipment",
    "source_country": "PT",
    "country": "Portugal",
    "state": "Évora",
    "city": "Viana do Alentejo"
  },
  {
    "source_id": "ChIJI6T6Jyj7GQ0RErNH50ff5EM",
    "name": "Alemplás, Lda - Produção e Comércio de Produtos Plásticos e Agrícolas",
    "category": "Alemplás, Lda - Produção e Comércio de Produtos Plásticos e Agrícolas",
    "formatted_address": "Alemplás, Lda - Produção e Comércio de Produtos Plásticos e Agrícolas",
    "phone_number": "+351266700393",
    "source_url": "https://www.google.com/maps/place/Alempl%C3%A1s,+Lda+-+Produ%C3%A7%C3%A3o+e+Com%C3%A9rcio+de+Produtos+Pl%C3%A1sticos+e+Agr%C3%ADcolas/data=!4m7!3m6!1s0xd19fb2827faa423:0x43e4df47e747b312!8m2!3d38.5443888!4d-7.915671!16s%2Fg%2F11f3b917hh!19sChIJI6T6Jyj7GQ0RErNH50ff5EM?authuser=0&hl=tr&rclk=1",
    "website_url": "",
    "rating_text": "4,7",
    "stars": null,
    "number_of_reviews": null,
    "price_level": "",
    "open_hours": "",
    "extraction_timestamp": "2025-06-07T18:06:25.437Z",
    "source_name": "google",
    "source_query": "Irrigation Equipment",
    "source_country": "PT",
    "country": "Portugal",
    "state": "Évora",
    "city": "Viana do Alentejo"
  },
  {
    "source_id": "ChIJO_RgHDk5-K0RY5VOC2pvzNw",
    "name": "Pjremodelaçoes",
    "category": "Pjremodelaçoes",
    "formatted_address": "",
    "phone_number": "+351966753974",
    "source_url": "https://www.google.com/maps/place/Pjremodela%C3%A7oes/data=!4m7!3m6!1s0xadf839391c60f43b:0xdccc6f6a0b4e9563!8m2!3d38.4913214!4d-8.0972373!16s%2Fg%2F11q4z2hfxd!19sChIJO_RgHDk5-K0RY5VOC2pvzNw?authuser=0&hl=tr&rclk=1",
    "website_url": "",
    "rating_text": "",
    "stars": null,
    "number_of_reviews": null,
    "price_level": "",
    "open_hours": "",
    "extraction_timestamp": "2025-06-07T18:06:25.438Z",
    "source_name": "google",
    "source_query": "Irrigation Equipment",
    "source_country": "PT",
    "country": "Portugal",
    "state": "Évora",
    "city": "Viana do Alentejo"
  },
  {
    "source_id": "ChIJI-IgjfPlGQ0RoF-XqFQ12ms",
    "name": "Nutrima - Agri Feeds",
    "category": "Nutrima - Agri Feeds",
    "formatted_address": "4,5(390)",
    "phone_number": "+351266104474",
    "source_url": "https://www.google.com/maps/place/Nutrima+-+Agri+Feeds/data=!4m7!3m6!1s0xd19e5f38d20e223:0x6bda3554a8975fa0!8m2!3d38.5587323!4d-7.8913583!16s%2Fg%2F11g_r2zg9g!19sChIJI-IgjfPlGQ0RoF-XqFQ12ms?authuser=0&hl=tr&rclk=1",
    "website_url": "",
    "rating_text": "4,5",
    "stars": null,
    "number_of_reviews": null,
    "price_level": "",
    "open_hours": "",
    "extraction_timestamp": "2025-06-07T18:06:25.440Z",
    "source_name": "google",
    "source_query": "Irrigation Equipment",
    "source_country": "PT",
    "country": "Portugal",
    "state": "Évora",
    "city": "Viana do Alentejo"
  },
  {
    "source_id": "ChIJa4wIc8_jGA0R5WrdnXIi1y0",
    "name": "Magos Irrigation Systems",
    "category": "Magos Irrigation Systems",
    "formatted_address": "4,6(78)",
    "phone_number": "+351263500090",
    "source_url": "https://www.google.com/maps/place/Magos+Irrigation+Systems/data=!4m7!3m6!1s0xd18e3cf73088c6b:0x2dd722729ddd6ae5!8m2!3d39.0257515!4d-8.7872243!16s%2Fg%2F1tjbtf9n!19sChIJa4wIc8_jGA0R5WrdnXIi1y0?authuser=0&hl=tr&rclk=1",
    "website_url": "",
    "rating_text": "4,6",
    "stars": null,
    "number_of_reviews": null,
    "price_level": "",
    "open_hours": "",
    "extraction_timestamp": "2025-06-07T18:06:25.441Z",
    "source_name": "google",
    "source_query": "Irrigation Equipment",
    "source_country": "PT",
    "country": "Portugal",
    "state": "Évora",
    "city": "Viana do Alentejo"
  },
  {
    "source_id": "ChIJ57iJsMHkGQ0R-CqpbSW_uyI",
    "name": "Irrievora-Sistemas De Rega, Lda.",
    "category": "Irrievora-Sistemas De Rega, Lda.",
    "formatted_address": "Irrievora-Sistemas De Rega, Lda.",
    "phone_number": "+351266758401",
    "source_url": "https://www.google.com/maps/place/Irrievora-Sistemas+De+Rega,+Lda./data=!4m7!3m6!1s0xd19e4c1b089b8e7:0x22bbbf256da92af8!8m2!3d38.5736416!4d-7.8975256!16s%2Fg%2F1tk8dcv4!19sChIJ57iJsMHkGQ0R-CqpbSW_uyI?authuser=0&hl=tr&rclk=1",
    "website_url": "",
    "rating_text": "4,1",
    "stars": null,
    "number_of_reviews": null,
    "price_level": "",
    "open_hours": "",
    "extraction_timestamp": "2025-06-07T18:06:25.442Z",
    "source_name": "google",
    "source_query": "Irrigation Equipment",
    "source_country": "PT",
    "country": "Portugal",
    "state": "Évora",
    "city": "Viana do Alentejo"
  },
  {
    "source_id": "ChIJozBdLKNsGg0R_FPcCUmzW9M",
    "name": "Hidrobeja - Irrigação e Infrastruturas Agrícolas, Lda",
    "category": "Hidrobeja - Irrigação e Infrastruturas Agrícolas, Lda",
    "formatted_address": "Hidrobeja - Irrigação e Infrastruturas Agrícolas, Lda",
    "phone_number": "+351284322922",
    "source_url": "https://www.google.com/maps/place/Hidrobeja+-+Irriga%C3%A7%C3%A3o+e+Infrastruturas+Agr%C3%ADcolas,+Lda/data=!4m7!3m6!1s0xd1a6ca32c5d30a3:0xd35bb34909dc53fc!8m2!3d38.0319463!4d-7.8592575!16s%2Fg%2F1tfjmd6q!19sChIJozBdLKNsGg0R_FPcCUmzW9M?authuser=0&hl=tr&rclk=1",
    "website_url": "",
    "rating_text": "4,6",
    "stars": null,
    "number_of_reviews": null,
    "price_level": "",
    "open_hours": "",
    "extraction_timestamp": "2025-06-07T18:06:25.444Z",
    "source_name": "google",
    "source_query": "Irrigation Equipment",
    "source_country": "PT",
    "country": "Portugal",
    "state": "Évora",
    "city": "Viana do Alentejo"
  },
  {
    "source_id": "ChIJg4kWY_8cGg0RgMMnbmVOvIY",
    "name": "Frescos & Cia. - Horacio Antonio Fialho Duarte Branco",
    "category": "Frescos & Cia. - Horacio Antonio Fialho Duarte Branco",
    "formatted_address": "4,6(21)",
    "phone_number": "+351266939902",
    "source_url": "https://www.google.com/maps/place/Frescos+%26+Cia.+-+Horacio+Antonio+Fialho+Duarte+Branco/data=!4m7!3m6!1s0xd1a1cff63168983:0x86bc4e656e27c380!8m2!3d38.3345335!4d-8.0025988!16s%2Fg%2F11bbrj__t1!19sChIJg4kWY_8cGg0RgMMnbmVOvIY?authuser=0&hl=tr&rclk=1",
    "website_url": "",
    "rating_text": "4,6",
    "stars": null,
    "number_of_reviews": null,
    "price_level": "",
    "open_hours": "",
    "extraction_timestamp": "2025-06-07T18:06:25.445Z",
    "source_name": "google",
    "source_query": "Irrigation Equipment",
    "source_country": "PT",
    "country": "Portugal",
    "state": "Évora",
    "city": "Viana do Alentejo"
  },
  {
    "source_id": "ChIJpSDeUNLkGQ0RJUNr-qbwjgY",
    "name": "Bolas Máquinas E Ferramentas De Qualidade, S.A.",
    "category": "Bolas Máquinas E Ferramentas De Qualidade, S.A.",
    "formatted_address": "Bolas Máquinas E Ferramentas De Qualidade, S.A.",
    "phone_number": "+351266749300",
    "source_url": "https://www.google.com/maps/place/Bolas+M%C3%A1quinas+E+Ferramentas+De+Qualidade,+S.A./data=!4m7!3m6!1s0xd19e4d250de20a5:0x68ef0a6fa6b4325!8m2!3d38.5562454!4d-7.9085265!16s%2Fg%2F1q62fylhs!19sChIJpSDeUNLkGQ0RJUNr-qbwjgY?authuser=0&hl=tr&rclk=1",
    "website_url": "",
    "rating_text": "4,7",
    "stars": null,
    "number_of_reviews": null,
    "price_level": "",
    "open_hours": "",
    "extraction_timestamp": "2025-06-07T18:06:25.446Z",
    "source_name": "google",
    "source_query": "Irrigation Equipment",
    "source_country": "PT",
    "country": "Portugal",
    "state": "Évora",
    "city": "Viana do Alentejo"
  },
  {
    "source_id": "ChIJkzMp2y46Fw0RvnbaEWtAV_Y",
    "name": "Injecção Eborense-Reparação De Bombas Injectoras, Lda.",
    "category": "Injecção Eborense-Reparação De Bombas Injectoras, Lda.",
    "formatted_address": "Injecção Eborense-Reparação De Bombas Injectoras, Lda.",
    "phone_number": "+351266731313",
    "source_url": "https://www.google.com/maps/place/Injec%C3%A7%C3%A3o+Eborense-Repara%C3%A7%C3%A3o+De+Bombas+Injectoras,+Lda./data=!4m7!3m6!1s0xd173a2edb293393:0xf657406b11da76be!8m2!3d38.5645507!4d-7.9257214!16s%2Fg%2F11bbrp35lw!19sChIJkzMp2y46Fw0RvnbaEWtAV_Y?authuser=0&hl=tr&rclk=1",
    "website_url": "",
    "rating_text": "4,6",
    "stars": null,
    "number_of_reviews": null,
    "price_level": "",
    "open_hours": "",
    "extraction_timestamp": "2025-06-07T18:06:25.447Z",
    "source_name": "google",
    "source_query": "Irrigation Equipment",
    "source_country": "PT",
    "country": "Portugal",
    "state": "Évora",
    "city": "Viana do Alentejo"
  },
  {
    "source_id": "ChIJhQ8Qn7YdGg0RmzLr6MaUbWY",
    "name": "Prodivenda",
    "category": "Prodivenda",
    "formatted_address": "4,0(1)",
    "phone_number": "",
    "source_url": "https://www.google.com/maps/place/Prodivenda/data=!4m7!3m6!1s0xd1a1db69f100f85:0x666d94c6e8eb329b!8m2!3d38.3306742!4d-7.9934794!16s%2Fg%2F11s_zm668w!19sChIJhQ8Qn7YdGg0RmzLr6MaUbWY?authuser=0&hl=tr&rclk=1",
    "website_url": "",
    "rating_text": "4,0",
    "stars": null,
    "number_of_reviews": null,
    "price_level": "",
    "open_hours": "",
    "extraction_timestamp": "2025-06-07T18:06:25.447Z",
    "source_name": "google",
    "source_query": "Irrigation Equipment",
    "source_country": "PT",
    "country": "Portugal",
    "state": "Évora",
    "city": "Viana do Alentejo"
  },
  {
    "source_id": "ChIJ1WrwvvscGg0Rkb7paRh6yZk",
    "name": "MeuSuper",
    "category": "MeuSuper",
    "formatted_address": "3,8(120)",
    "phone_number": "+351214244325",
    "source_url": "https://www.google.com/maps/place/MeuSuper/data=!4m7!3m6!1s0xd1a1cfbbef06ad5:0x99c97a1869e9be91!8m2!3d38.3316917!4d-7.9960681!16s%2Fg%2F11c1q7494c!19sChIJ1WrwvvscGg0Rkb7paRh6yZk?authuser=0&hl=tr&rclk=1",
    "website_url": "",
    "rating_text": "3,8",
    "stars": null,
    "number_of_reviews": null,
    "price_level": "",
    "open_hours": "",
    "extraction_timestamp": "2025-06-07T18:06:25.449Z",
    "source_name": "google",
    "source_query": "Irrigation Equipment",
    "source_country": "PT",
    "country": "Portugal",
    "state": "Évora",
    "city": "Viana do Alentejo"
  },
  {
    "source_id": "ChIJz4TS2KwdGg0R06-Wti3czQ4",
    "name": "Swimming pool Viana do Alentejo",
    "category": "Swimming pool Viana do Alentejo",
    "formatted_address": "4,3(264)",
    "phone_number": "+351266930010",
    "source_url": "https://www.google.com/maps/place/Swimming+pool+Viana+do+Alentejo/data=!4m7!3m6!1s0xd1a1dacd8d284cf:0xecddc2db696afd3!8m2!3d38.3382343!4d-8.0106737!16s%2Fg%2F11g725fv21!19sChIJz4TS2KwdGg0R06-Wti3czQ4?authuser=0&hl=tr&rclk=1",
    "website_url": "",
    "rating_text": "4,3",
    "stars": null,
    "number_of_reviews": null,
    "price_level": "",
    "open_hours": "",
    "extraction_timestamp": "2025-06-07T18:06:25.449Z",
    "source_name": "google",
    "source_query": "Irrigation Equipment",
    "source_country": "PT",
    "country": "Portugal",
    "state": "Évora",
    "city": "Viana do Alentejo"
  }
]
