[
  {
    "source_id": "ChIJEe637SUVFw0RgiaubSIbXSU",
    "name": "Intermarché Vila Viçosa",
    "category": "Intermarché Vila Viçosa",
    "formatted_address": "3,9(502)",
    "phone_number": "+351268889530",
    "source_url": "https://www.google.com/maps/place/Intermarch%C3%A9+Vila+Vi%C3%A7osa/data=!4m7!3m6!1s0xd171525edb7ee11:0x255d1b226dae2682!8m2!3d38.787322!4d-7.426474!16s%2Fg%2F11c0qx1ht5!19sChIJEe637SUVFw0RgiaubSIbXSU?authuser=0&hl=tr&rclk=1",
    "website_url": "https://www.intermarche.pt/",
    "rating_text": "3,9",
    "stars": null,
    "number_of_reviews": null,
    "price_level": "",
    "open_hours": "",
    "extraction_timestamp": "2025-06-07T18:04:44.092Z",
    "source_name": "google",
    "source_query": "Irrigation Equipment",
    "source_country": "PT",
    "country": "Portugal",
    "state": "Évora",
    "city": "Vila Viçosa"
  },
  {
    "source_id": "ChIJI-IgjfPlGQ0RoF-XqFQ12ms",
    "name": "Nutrima - Agri Feeds",
    "category": "Nutrima - Agri Feeds",
    "formatted_address": "4,5(390)",
    "phone_number": "+351266104474",
    "source_url": "https://www.google.com/maps/place/Nutrima+-+Agri+Feeds/data=!4m7!3m6!1s0xd19e5f38d20e223:0x6bda3554a8975fa0!8m2!3d38.5587323!4d-7.8913583!16s%2Fg%2F11g_r2zg9g!19sChIJI-IgjfPlGQ0RoF-XqFQ12ms?authuser=0&hl=tr&rclk=1",
    "website_url": "http://nutrima.pt/",
    "rating_text": "4,5",
    "stars": null,
    "number_of_reviews": null,
    "price_level": "",
    "open_hours": "",
    "extraction_timestamp": "2025-06-07T18:04:44.093Z",
    "source_name": "google",
    "source_query": "Irrigation Equipment",
    "source_country": "PT",
    "country": "Portugal",
    "state": "Évora",
    "city": "Vila Viçosa"
  },
  {
    "source_id": "ChIJiQ5QCCr7GQ0RCWc_orHyamY",
    "name": "STIHL EVORA",
    "category": "STIHL EVORA",
    "formatted_address": "4,5(13)",
    "phone_number": "+351965535392",
    "source_url": "https://www.google.com/maps/place/STIHL+EVORA/data=!4m7!3m6!1s0xd19fb2a08500e89:0x666af2b1a23f6709!8m2!3d38.5439574!4d-7.9089069!16s%2Fg%2F11f3_1hkh0!19sChIJiQ5QCCr7GQ0RCWc_orHyamY?authuser=0&hl=tr&rclk=1",
    "website_url": "https://www.stihl.pt/",
    "rating_text": "4,5",
    "stars": null,
    "number_of_reviews": null,
    "price_level": "",
    "open_hours": "",
    "extraction_timestamp": "2025-06-07T18:04:44.094Z",
    "source_name": "google",
    "source_query": "Irrigation Equipment",
    "source_country": "PT",
    "country": "Portugal",
    "state": "Évora",
    "city": "Vila Viçosa"
  },
  {
    "source_id": "ChIJI6T6Jyj7GQ0RErNH50ff5EM",
    "name": "Alemplás, Lda - Produção e Comércio de Produtos Plásticos e Agrícolas",
    "category": "Alemplás, Lda - Produção e Comércio de Produtos Plásticos e Agrícolas",
    "formatted_address": "Alemplás, Lda - Produção e Comércio de Produtos Plásticos e Agrícolas",
    "phone_number": "+351266700393",
    "source_url": "https://www.google.com/maps/place/Alempl%C3%A1s,+Lda+-+Produ%C3%A7%C3%A3o+e+Com%C3%A9rcio+de+Produtos+Pl%C3%A1sticos+e+Agr%C3%ADcolas/data=!4m7!3m6!1s0xd19fb2827faa423:0x43e4df47e747b312!8m2!3d38.5443888!4d-7.915671!16s%2Fg%2F11f3b917hh!19sChIJI6T6Jyj7GQ0RErNH50ff5EM?authuser=0&hl=tr&rclk=1",
    "website_url": "http://www.alemplas.pt/",
    "rating_text": "4,7",
    "stars": null,
    "number_of_reviews": null,
    "price_level": "",
    "open_hours": "",
    "extraction_timestamp": "2025-06-07T18:04:44.095Z",
    "source_name": "google",
    "source_query": "Irrigation Equipment",
    "source_country": "PT",
    "country": "Portugal",
    "state": "Évora",
    "city": "Vila Viçosa"
  },
  {
    "source_id": "ChIJ4y40rpd0Gg0RMB-TzW_WsnM",
    "name": "Magos Irrigation Systems",
    "category": "Magos Irrigation Systems",
    "formatted_address": "5,0(7)",
    "phone_number": "+351284328195",
    "source_url": "https://www.google.com/maps/place/Magos+Irrigation+Systems/data=!4m7!3m6!1s0xd1a7497ae342ee3:0x73b2d66fcd931f30!8m2!3d38.0253609!4d-7.8597778!16s%2Fg%2F11bzq3bn8p!19sChIJ4y40rpd0Gg0RMB-TzW_WsnM?authuser=0&hl=tr&rclk=1",
    "website_url": "http://www.magos.pt/",
    "rating_text": "5,0",
    "stars": null,
    "number_of_reviews": null,
    "price_level": "",
    "open_hours": "",
    "extraction_timestamp": "2025-06-07T18:04:44.096Z",
    "source_name": "google",
    "source_query": "Irrigation Equipment",
    "source_country": "PT",
    "country": "Portugal",
    "state": "Évora",
    "city": "Vila Viçosa"
  },
  {
    "source_id": "ChIJL2hwexUVFw0R_cdcLxCWljU",
    "name": "M. Simões, Lda",
    "category": "M. Simões, Lda",
    "formatted_address": "M. Simões, Lda",
    "phone_number": "+351268889110",
    "source_url": "https://www.google.com/maps/place/M.+Sim%C3%B5es,+Lda/data=!4m7!3m6!1s0xd1715157b70682f:0x359696102f5cc7fd!8m2!3d38.7754329!4d-7.4161333!16s%2Fg%2F1q62m7dv8!19sChIJL2hwexUVFw0R_cdcLxCWljU?authuser=0&hl=tr&rclk=1",
    "website_url": "",
    "rating_text": "",
    "stars": null,
    "number_of_reviews": null,
    "price_level": "",
    "open_hours": "",
    "extraction_timestamp": "2025-06-07T18:04:44.097Z",
    "source_name": "google",
    "source_query": "Irrigation Equipment",
    "source_country": "PT",
    "country": "Portugal",
    "state": "Évora",
    "city": "Vila Viçosa"
  },
  {
    "source_id": "ChIJRY5b-SnlGQ0RBqS9a3Hj2rc",
    "name": "Maquidiana - Máquinas e Equipamentos Agrícolas, Lda.",
    "category": "Maquidiana - Máquinas e Equipamentos Agrícolas, Lda.",
    "formatted_address": "Maquidiana - Máquinas e Equipamentos Agrícolas, Lda.",
    "phone_number": "+351266706537",
    "source_url": "https://www.google.com/maps/place/Maquidiana+-+M%C3%A1quinas+e+Equipamentos+Agr%C3%ADcolas,+Lda./data=!4m7!3m6!1s0xd19e529f95b8e45:0xb7dae3716bbda406!8m2!3d38.5583965!4d-7.9161119!16s%2Fg%2F11bbrl0368!19sChIJRY5b-SnlGQ0RBqS9a3Hj2rc?authuser=0&hl=tr&rclk=1",
    "website_url": "https://www.abolsamia.pt/microsite/maquidiana-lda-16993",
    "rating_text": "4,0",
    "stars": null,
    "number_of_reviews": null,
    "price_level": "",
    "open_hours": "",
    "extraction_timestamp": "2025-06-07T18:04:44.098Z",
    "source_name": "google",
    "source_query": "Irrigation Equipment",
    "source_country": "PT",
    "country": "Portugal",
    "state": "Évora",
    "city": "Vila Viçosa"
  },
  {
    "source_id": "ChIJm0I4s2oVFw0RytVS-CCxNg0",
    "name": "Mini-mercado Euro-comercio",
    "category": "Mini-mercado Euro-comercio",
    "formatted_address": "3,9(22)",
    "phone_number": "+351268980461",
    "source_url": "https://www.google.com/maps/place/Mini-mercado+Euro-comercio/data=!4m7!3m6!1s0xd17156ab338429b:0xd36b120f852d5ca!8m2!3d38.7737666!4d-7.4160384!16s%2Fg%2F1hc2btzct!19sChIJm0I4s2oVFw0RytVS-CCxNg0?authuser=0&hl=tr&rclk=1",
    "website_url": "",
    "rating_text": "3,9",
    "stars": null,
    "number_of_reviews": null,
    "price_level": "",
    "open_hours": "",
    "extraction_timestamp": "2025-06-07T18:04:44.099Z",
    "source_name": "google",
    "source_query": "Irrigation Equipment",
    "source_country": "PT",
    "country": "Portugal",
    "state": "Évora",
    "city": "Vila Viçosa"
  },
  {
    "source_id": "ChIJ57iJsMHkGQ0R-CqpbSW_uyI",
    "name": "Irrievora-Sistemas De Rega, Lda.",
    "category": "Irrievora-Sistemas De Rega, Lda.",
    "formatted_address": "Irrievora-Sistemas De Rega, Lda.",
    "phone_number": "+351266758401",
    "source_url": "https://www.google.com/maps/place/Irrievora-Sistemas+De+Rega,+Lda./data=!4m7!3m6!1s0xd19e4c1b089b8e7:0x22bbbf256da92af8!8m2!3d38.5736416!4d-7.8975256!16s%2Fg%2F1tk8dcv4!19sChIJ57iJsMHkGQ0R-CqpbSW_uyI?authuser=0&hl=tr&rclk=1",
    "website_url": "",
    "rating_text": "4,1",
    "stars": null,
    "number_of_reviews": null,
    "price_level": "",
    "open_hours": "",
    "extraction_timestamp": "2025-06-07T18:04:44.100Z",
    "source_name": "google",
    "source_query": "Irrigation Equipment",
    "source_country": "PT",
    "country": "Portugal",
    "state": "Évora",
    "city": "Vila Viçosa"
  },
  {
    "source_id": "ChIJC5w7QdzkGQ0RL9ydCDy2_a0",
    "name": "HIDROSOPH, LDA",
    "category": "HIDROSOPH, LDA",
    "formatted_address": "HIDROSOPH, LDA",
    "phone_number": "+351266741253",
    "source_url": "https://www.google.com/maps/place/HIDROSOPH,+LDA/data=!4m7!3m6!1s0xd19e4dc413b9c0b:0xadfdb63c089ddc2f!8m2!3d38.5575571!4d-7.9187218!16s%2Fg%2F1td6c4dy!19sChIJC5w7QdzkGQ0RL9ydCDy2_a0?authuser=0&hl=tr&rclk=1",
    "website_url": "http://www.hidrosoph.com/",
    "rating_text": "4,0",
    "stars": null,
    "number_of_reviews": null,
    "price_level": "",
    "open_hours": "",
    "extraction_timestamp": "2025-06-07T18:04:44.101Z",
    "source_name": "google",
    "source_query": "Irrigation Equipment",
    "source_country": "PT",
    "country": "Portugal",
    "state": "Évora",
    "city": "Vila Viçosa"
  },
  {
    "source_id": "ChIJl4kSPLTkGQ0RBE610jAXzOk",
    "name": "Agrovisul, Agricultura, Enologia e Pecuária",
    "category": "Agrovisul, Agricultura, Enologia e Pecuária",
    "formatted_address": "Agrovisul, Agricultura, Enologia e Pecuária",
    "phone_number": "+351266746137",
    "source_url": "https://www.google.com/maps/place/Agrovisul,+Agricultura,+Enologia+e+Pecu%C3%A1ria/data=!4m7!3m6!1s0xd19e4b43c128997:0xe9cc1730d2b54e04!8m2!3d38.5589282!4d-7.8906064!16s%2Fg%2F1thqc3kh!19sChIJl4kSPLTkGQ0RBE610jAXzOk?authuser=0&hl=tr&rclk=1",
    "website_url": "http://www.agrovisul.pt/",
    "rating_text": "4,3",
    "stars": null,
    "number_of_reviews": null,
    "price_level": "",
    "open_hours": "",
    "extraction_timestamp": "2025-06-07T18:04:44.102Z",
    "source_name": "google",
    "source_query": "Irrigation Equipment",
    "source_country": "PT",
    "country": "Portugal",
    "state": "Évora",
    "city": "Vila Viçosa"
  },
  {
    "source_id": "ChIJyWnmCmv7GQ0RpsJmy9Ccdg4",
    "name": "MANUEL FIALHO LDA",
    "category": "MANUEL FIALHO LDA",
    "formatted_address": "4,4(21)",
    "phone_number": "+351266759300",
    "source_url": "https://www.google.com/maps/place/MANUEL+FIALHO+LDA/data=!4m7!3m6!1s0xd19fb6b0ae669c9:0xe769cd0cb66c2a6!8m2!3d38.5434753!4d-7.9107878!16s%2Fg%2F11j8mxl2vl!19sChIJyWnmCmv7GQ0RpsJmy9Ccdg4?authuser=0&hl=tr&rclk=1",
    "website_url": "http://manuelfialho.pt/",
    "rating_text": "4,4",
    "stars": null,
    "number_of_reviews": null,
    "price_level": "",
    "open_hours": "",
    "extraction_timestamp": "2025-06-07T18:04:44.102Z",
    "source_name": "google",
    "source_query": "Irrigation Equipment",
    "source_country": "PT",
    "country": "Portugal",
    "state": "Évora",
    "city": "Vila Viçosa"
  },
  {
    "source_id": "ChIJa1feX1UVFw0RmiG1EMI7J9U",
    "name": "Agrocalipolense",
    "category": "Agrocalipolense",
    "formatted_address": "4,5(4)",
    "phone_number": "+351968114353",
    "source_url": "https://www.google.com/maps/place/Agrocalipolense/data=!4m7!3m6!1s0xd1715555fde576b:0xd5273bc210b5219a!8m2!3d38.7732951!4d-7.4202965!16s%2Fg%2F11kgdt_2s_!19sChIJa1feX1UVFw0RmiG1EMI7J9U?authuser=0&hl=tr&rclk=1",
    "website_url": "",
    "rating_text": "4,5",
    "stars": null,
    "number_of_reviews": null,
    "price_level": "",
    "open_hours": "",
    "extraction_timestamp": "2025-06-07T18:04:44.103Z",
    "source_name": "google",
    "source_query": "Irrigation Equipment",
    "source_country": "PT",
    "country": "Portugal",
    "state": "Évora",
    "city": "Vila Viçosa"
  },
  {
    "source_id": "ChIJa4wIc8_jGA0R5WrdnXIi1y0",
    "name": "Magos Irrigation Systems",
    "category": "Magos Irrigation Systems",
    "formatted_address": "4,6(78)",
    "phone_number": "+351263500090",
    "source_url": "https://www.google.com/maps/place/Magos+Irrigation+Systems/data=!4m7!3m6!1s0xd18e3cf73088c6b:0x2dd722729ddd6ae5!8m2!3d39.0257515!4d-8.7872243!16s%2Fg%2F1tjbtf9n!19sChIJa4wIc8_jGA0R5WrdnXIi1y0?authuser=0&hl=tr&rclk=1",
    "website_url": "http://www.magos.pt/",
    "rating_text": "4,6",
    "stars": null,
    "number_of_reviews": null,
    "price_level": "",
    "open_hours": "",
    "extraction_timestamp": "2025-06-07T18:04:44.104Z",
    "source_name": "google",
    "source_query": "Irrigation Equipment",
    "source_country": "PT",
    "country": "Portugal",
    "state": "Évora",
    "city": "Vila Viçosa"
  },
  {
    "source_id": "ChIJhb7l2y77GQ0RHDF4h7-nCD4",
    "name": "Hidroportugal - Montagem Com. Equipamentos Para Piscinas E Regas, Lda",
    "category": "Hidroportugal - Montagem Com. Equipamentos Para Piscinas E Regas, Lda",
    "formatted_address": "Hidroportugal - Montagem Com. Equipamentos Para Piscinas E Regas, Lda",
    "phone_number": "+351266745850",
    "source_url": "https://www.google.com/maps/place/Hidroportugal+-+Montagem+Com.+Equipamentos+Para+Piscinas+E+Regas,+Lda/data=!4m7!3m6!1s0xd19fb2edbe5be85:0x3e08a7bf8778311c!8m2!3d38.5457563!4d-7.9108625!16s%2Fg%2F1q628pzwt!19sChIJhb7l2y77GQ0RHDF4h7-nCD4?authuser=0&hl=tr&rclk=1",
    "website_url": "",
    "rating_text": "4,4",
    "stars": null,
    "number_of_reviews": null,
    "price_level": "",
    "open_hours": "",
    "extraction_timestamp": "2025-06-07T18:04:44.105Z",
    "source_name": "google",
    "source_query": "Irrigation Equipment",
    "source_country": "PT",
    "country": "Portugal",
    "state": "Évora",
    "city": "Vila Viçosa"
  },
  {
    "source_id": "ChIJ_2mE5yj7GQ0Rx1wmsn2zrIw",
    "name": "Agro Reparadora José Manuel Fialho Comércio Máquinas , Unipessoal, Lda",
    "category": "Agro Reparadora José Manuel Fialho Comércio Máquinas , Unipessoal, Lda",
    "formatted_address": "Agro Reparadora José Manuel Fialho Comércio Máquinas , Unipessoal, Lda",
    "phone_number": "+351266761710",
    "source_url": "https://www.google.com/maps/place/Agro+Reparadora+Jos%C3%A9+Manuel+Fialho+Com%C3%A9rcio+M%C3%A1quinas+,+Unipessoal,+Lda/data=!4m7!3m6!1s0xd19fb28e78469ff:0x8cacb37db2265cc7!8m2!3d38.5454605!4d-7.9106218!16s%2Fg%2F11bbrrbt4r!19sChIJ_2mE5yj7GQ0Rx1wmsn2zrIw?authuser=0&hl=tr&rclk=1",
    "website_url": "",
    "rating_text": "5,0",
    "stars": null,
    "number_of_reviews": null,
    "price_level": "",
    "open_hours": "",
    "extraction_timestamp": "2025-06-07T18:04:44.106Z",
    "source_name": "google",
    "source_query": "Irrigation Equipment",
    "source_country": "PT",
    "country": "Portugal",
    "state": "Évora",
    "city": "Vila Viçosa"
  },
  {
    "source_id": "ChIJ-3EdipEVFw0RNlZV1X3LsMc",
    "name": "Meu Super Vila Viçosa",
    "category": "Meu Super Vila Viçosa",
    "formatted_address": "4,4(51)",
    "phone_number": "+351268980103",
    "source_url": "https://www.google.com/maps/place/Meu+Super+Vila+Vi%C3%A7osa/data=!4m7!3m6!1s0xd1715918a1d71fb:0xc7b0cb7dd5555636!8m2!3d38.7728371!4d-7.4170453!16s%2Fg%2F11g1fb68__!19sChIJ-3EdipEVFw0RNlZV1X3LsMc?authuser=0&hl=tr&rclk=1",
    "website_url": "",
    "rating_text": "4,4",
    "stars": null,
    "number_of_reviews": null,
    "price_level": "",
    "open_hours": "",
    "extraction_timestamp": "2025-06-07T18:04:44.107Z",
    "source_name": "google",
    "source_query": "Irrigation Equipment",
    "source_country": "PT",
    "country": "Portugal",
    "state": "Évora",
    "city": "Vila Viçosa"
  },
  {
    "source_id": "ChIJCVzA9SQVFw0R9ZztT4tpuVU",
    "name": "Lidl Vila Viçosa",
    "category": "Lidl Vila Viçosa",
    "formatted_address": "4,3(742)",
    "phone_number": "+351210207000",
    "source_url": "https://www.google.com/maps/place/Lidl+Vila+Vi%C3%A7osa/data=!4m7!3m6!1s0xd171524f5c05c09:0x55b9698b4fed9cf5!8m2!3d38.7860435!4d-7.4234838!16s%2Fg%2F11c43pf11g!19sChIJCVzA9SQVFw0R9ZztT4tpuVU?authuser=0&hl=tr&rclk=1",
    "website_url": "https://www.lidl.pt/",
    "rating_text": "4,3",
    "stars": null,
    "number_of_reviews": null,
    "price_level": "",
    "open_hours": "",
    "extraction_timestamp": "2025-06-07T18:04:44.108Z",
    "source_name": "google",
    "source_query": "Irrigation Equipment",
    "source_country": "PT",
    "country": "Portugal",
    "state": "Évora",
    "city": "Vila Viçosa"
  }
]
