[
  {
    "source_id": "ChIJeZtCCS_7GQ0R5WZbwyYTd2E",
    "name": "Agriloja de Évora",
    "category": "Agriloja de Évora",
    "formatted_address": "4,2(1.354)",
    "phone_number": "+351266788600",
    "source_url": "https://www.google.com/maps/place/Agriloja+de+%C3%89vora/data=!4m7!3m6!1s0xd19fb2f09429b79:0x61771326c35b66e5!8m2!3d38.5452833!4d-7.9091176!16s%2Fg%2F1hm2zyhlv!19sChIJeZtCCS_7GQ0R5WZbwyYTd2E?authuser=0&hl=tr&rclk=1",
    "website_url": "",
    "rating_text": "4,2",
    "stars": null,
    "number_of_reviews": null,
    "price_level": "",
    "open_hours": "",
    "extraction_timestamp": "2025-06-07T18:03:48.700Z",
    "source_name": "google",
    "source_query": "Irrigation Equipment",
    "source_country": "PT",
    "country": "Portugal",
    "state": "Évora",
    "city": "Évora"
  },
  {
    "source_id": "ChIJI6T6Jyj7GQ0RErNH50ff5EM",
    "name": "Alemplás, Lda - Produção e Comércio de Produtos Plásticos e Agrícolas",
    "category": "Alemplás, Lda - Produção e Comércio de Produtos Plásticos e Agrícolas",
    "formatted_address": "Alemplás, Lda - Produção e Comércio de Produtos Plásticos e Agrícolas",
    "phone_number": "+351266700393",
    "source_url": "https://www.google.com/maps/place/Alempl%C3%A1s,+Lda+-+Produ%C3%A7%C3%A3o+e+Com%C3%A9rcio+de+Produtos+Pl%C3%A1sticos+e+Agr%C3%ADcolas/data=!4m7!3m6!1s0xd19fb2827faa423:0x43e4df47e747b312!8m2!3d38.5443888!4d-7.915671!16s%2Fg%2F11f3b917hh!19sChIJI6T6Jyj7GQ0RErNH50ff5EM?authuser=0&hl=tr&rclk=1",
    "website_url": "",
    "rating_text": "4,7",
    "stars": null,
    "number_of_reviews": null,
    "price_level": "",
    "open_hours": "",
    "extraction_timestamp": "2025-06-07T18:03:48.702Z",
    "source_name": "google",
    "source_query": "Irrigation Equipment",
    "source_country": "PT",
    "country": "Portugal",
    "state": "Évora",
    "city": "Évora"
  },
  {
    "source_id": "ChIJI-IgjfPlGQ0RoF-XqFQ12ms",
    "name": "Nutrima - Agri Feeds",
    "category": "Nutrima - Agri Feeds",
    "formatted_address": "4,5(390)",
    "phone_number": "+351266104474",
    "source_url": "https://www.google.com/maps/place/Nutrima+-+Agri+Feeds/data=!4m7!3m6!1s0xd19e5f38d20e223:0x6bda3554a8975fa0!8m2!3d38.5587323!4d-7.8913583!16s%2Fg%2F11g_r2zg9g!19sChIJI-IgjfPlGQ0RoF-XqFQ12ms?authuser=0&hl=tr&rclk=1",
    "website_url": "",
    "rating_text": "4,5",
    "stars": null,
    "number_of_reviews": null,
    "price_level": "",
    "open_hours": "",
    "extraction_timestamp": "2025-06-07T18:03:48.703Z",
    "source_name": "google",
    "source_query": "Irrigation Equipment",
    "source_country": "PT",
    "country": "Portugal",
    "state": "Évora",
    "city": "Évora"
  },
  {
    "source_id": "ChIJ3yp3kdDkGQ0R7AEdlP5QHWc",
    "name": "Agrosustentável",
    "category": "Agrosustentável",
    "formatted_address": "5,0(20)",
    "phone_number": "+351918990481",
    "source_url": "https://www.google.com/maps/place/Agrosustent%C3%A1vel/data=!4m7!3m6!1s0xd19e4d091772adf:0x671d50fe941d01ec!8m2!3d38.5478219!4d-7.9021199!16s%2Fg%2F11gcdxrtj1!19sChIJ3yp3kdDkGQ0R7AEdlP5QHWc?authuser=0&hl=tr&rclk=1",
    "website_url": "",
    "rating_text": "5,0",
    "stars": null,
    "number_of_reviews": null,
    "price_level": "",
    "open_hours": "",
    "extraction_timestamp": "2025-06-07T18:03:48.703Z",
    "source_name": "google",
    "source_query": "Irrigation Equipment",
    "source_country": "PT",
    "country": "Portugal",
    "state": "Évora",
    "city": "Évora"
  },
  {
    "source_id": "ChIJiQ5QCCr7GQ0RCWc_orHyamY",
    "name": "STIHL EVORA",
    "category": "STIHL EVORA",
    "formatted_address": "4,5(13)",
    "phone_number": "+351965535392",
    "source_url": "https://www.google.com/maps/place/STIHL+EVORA/data=!4m7!3m6!1s0xd19fb2a08500e89:0x666af2b1a23f6709!8m2!3d38.5439574!4d-7.9089069!16s%2Fg%2F11f3_1hkh0!19sChIJiQ5QCCr7GQ0RCWc_orHyamY?authuser=0&hl=tr&rclk=1",
    "website_url": "",
    "rating_text": "4,5",
    "stars": null,
    "number_of_reviews": null,
    "price_level": "",
    "open_hours": "",
    "extraction_timestamp": "2025-06-07T18:03:48.704Z",
    "source_name": "google",
    "source_query": "Irrigation Equipment",
    "source_country": "PT",
    "country": "Portugal",
    "state": "Évora",
    "city": "Évora"
  },
  {
    "source_id": "ChIJLQYcgCv7GQ0R6TQqX4uC7ik",
    "name": "Nicolau & Rosa",
    "category": "Nicolau & Rosa",
    "formatted_address": "4,4(193)",
    "phone_number": "+351266708574",
    "source_url": "https://www.google.com/maps/place/Nicolau+%26+Rosa/data=!4m7!3m6!1s0xd19fb2b801c062d:0x29ee828b5f2a34e9!8m2!3d38.5506707!4d-7.9103218!16s%2Fg%2F1ptzx5ghm!19sChIJLQYcgCv7GQ0R6TQqX4uC7ik?authuser=0&hl=tr&rclk=1",
    "website_url": "",
    "rating_text": "4,4",
    "stars": null,
    "number_of_reviews": null,
    "price_level": "",
    "open_hours": "",
    "extraction_timestamp": "2025-06-07T18:03:48.705Z",
    "source_name": "google",
    "source_query": "Irrigation Equipment",
    "source_country": "PT",
    "country": "Portugal",
    "state": "Évora",
    "city": "Évora"
  },
  {
    "source_id": "ChIJl4kSPLTkGQ0RBE610jAXzOk",
    "name": "Agrovisul, Agricultura, Enologia e Pecuária",
    "category": "Agrovisul, Agricultura, Enologia e Pecuária",
    "formatted_address": "Agrovisul, Agricultura, Enologia e Pecuária",
    "phone_number": "+351266746137",
    "source_url": "https://www.google.com/maps/place/Agrovisul,+Agricultura,+Enologia+e+Pecu%C3%A1ria/data=!4m7!3m6!1s0xd19e4b43c128997:0xe9cc1730d2b54e04!8m2!3d38.5589282!4d-7.8906064!16s%2Fg%2F1thqc3kh!19sChIJl4kSPLTkGQ0RBE610jAXzOk?authuser=0&hl=tr&rclk=1",
    "website_url": "",
    "rating_text": "4,3",
    "stars": null,
    "number_of_reviews": null,
    "price_level": "",
    "open_hours": "",
    "extraction_timestamp": "2025-06-07T18:03:48.706Z",
    "source_name": "google",
    "source_query": "Irrigation Equipment",
    "source_country": "PT",
    "country": "Portugal",
    "state": "Évora",
    "city": "Évora"
  },
  {
    "source_id": "ChIJS2vBX83kGQ0RPwV2x0zcLOQ",
    "name": "Decathlon",
    "category": "Decathlon",
    "formatted_address": "4,1(2.405)",
    "phone_number": "+351266247195",
    "source_url": "https://www.google.com/maps/place/Decathlon/data=!4m7!3m6!1s0xd19e4cd5fc16b4b:0xe42cdc4cc776053f!8m2!3d38.5548957!4d-7.9043946!16s%2Fg%2F11c488g6_t!19sChIJS2vBX83kGQ0RPwV2x0zcLOQ?authuser=0&hl=tr&rclk=1",
    "website_url": "",
    "rating_text": "4,1",
    "stars": null,
    "number_of_reviews": null,
    "price_level": "",
    "open_hours": "",
    "extraction_timestamp": "2025-06-07T18:03:48.707Z",
    "source_name": "google",
    "source_query": "Irrigation Equipment",
    "source_country": "PT",
    "country": "Portugal",
    "state": "Évora",
    "city": "Évora"
  },
  {
    "source_id": "ChIJuSBNqN_kGQ0RSPtuBpCoAT4",
    "name": "Sulregas, Lda.",
    "category": "Sulregas, Lda.",
    "formatted_address": "Sulregas, Lda.",
    "phone_number": "+351266749600",
    "source_url": "https://www.google.com/maps/place/Sulregas,+Lda./data=!4m7!3m6!1s0xd19e4dfa84d20b9:0x3e01a890066efb48!8m2!3d38.5492297!4d-7.9152266!16s%2Fg%2F11bbrpnhy4!19sChIJuSBNqN_kGQ0RSPtuBpCoAT4?authuser=0&hl=tr&rclk=1",
    "website_url": "",
    "rating_text": "4,5",
    "stars": null,
    "number_of_reviews": null,
    "price_level": "",
    "open_hours": "",
    "extraction_timestamp": "2025-06-07T18:03:48.708Z",
    "source_name": "google",
    "source_query": "Irrigation Equipment",
    "source_country": "PT",
    "country": "Portugal",
    "state": "Évora",
    "city": "Évora"
  },
  {
    "source_id": "ChIJhb7l2y77GQ0RHDF4h7-nCD4",
    "name": "Hidroportugal - Montagem Com. Equipamentos Para Piscinas E Regas, Lda",
    "category": "Hidroportugal - Montagem Com. Equipamentos Para Piscinas E Regas, Lda",
    "formatted_address": "Hidroportugal - Montagem Com. Equipamentos Para Piscinas E Regas, Lda",
    "phone_number": "+351266745850",
    "source_url": "https://www.google.com/maps/place/Hidroportugal+-+Montagem+Com.+Equipamentos+Para+Piscinas+E+Regas,+Lda/data=!4m7!3m6!1s0xd19fb2edbe5be85:0x3e08a7bf8778311c!8m2!3d38.5457563!4d-7.9108625!16s%2Fg%2F1q628pzwt!19sChIJhb7l2y77GQ0RHDF4h7-nCD4?authuser=0&hl=tr&rclk=1",
    "website_url": "",
    "rating_text": "4,4",
    "stars": null,
    "number_of_reviews": null,
    "price_level": "",
    "open_hours": "",
    "extraction_timestamp": "2025-06-07T18:03:48.709Z",
    "source_name": "google",
    "source_query": "Irrigation Equipment",
    "source_country": "PT",
    "country": "Portugal",
    "state": "Évora",
    "city": "Évora"
  },
  {
    "source_id": "ChIJC5w7QdzkGQ0RL9ydCDy2_a0",
    "name": "HIDROSOPH, LDA",
    "category": "HIDROSOPH, LDA",
    "formatted_address": "HIDROSOPH, LDA",
    "phone_number": "+351266741253",
    "source_url": "https://www.google.com/maps/place/HIDROSOPH,+LDA/data=!4m7!3m6!1s0xd19e4dc413b9c0b:0xadfdb63c089ddc2f!8m2!3d38.5575571!4d-7.9187218!16s%2Fg%2F1td6c4dy!19sChIJC5w7QdzkGQ0RL9ydCDy2_a0?authuser=0&hl=tr&rclk=1",
    "website_url": "",
    "rating_text": "4,0",
    "stars": null,
    "number_of_reviews": null,
    "price_level": "",
    "open_hours": "",
    "extraction_timestamp": "2025-06-07T18:03:48.710Z",
    "source_name": "google",
    "source_query": "Irrigation Equipment",
    "source_country": "PT",
    "country": "Portugal",
    "state": "Évora",
    "city": "Évora"
  },
  {
    "source_id": "ChIJkzMp2y46Fw0RvnbaEWtAV_Y",
    "name": "Injecção Eborense-Reparação De Bombas Injectoras, Lda.",
    "category": "Injecção Eborense-Reparação De Bombas Injectoras, Lda.",
    "formatted_address": "Injecção Eborense-Reparação De Bombas Injectoras, Lda.",
    "phone_number": "+351266731313",
    "source_url": "https://www.google.com/maps/place/Injec%C3%A7%C3%A3o+Eborense-Repara%C3%A7%C3%A3o+De+Bombas+Injectoras,+Lda./data=!4m7!3m6!1s0xd173a2edb293393:0xf657406b11da76be!8m2!3d38.5645507!4d-7.9257214!16s%2Fg%2F11bbrp35lw!19sChIJkzMp2y46Fw0RvnbaEWtAV_Y?authuser=0&hl=tr&rclk=1",
    "website_url": "",
    "rating_text": "4,6",
    "stars": null,
    "number_of_reviews": null,
    "price_level": "",
    "open_hours": "",
    "extraction_timestamp": "2025-06-07T18:03:48.711Z",
    "source_name": "google",
    "source_query": "Irrigation Equipment",
    "source_country": "PT",
    "country": "Portugal",
    "state": "Évora",
    "city": "Évora"
  },
  {
    "source_id": "ChIJVXKSwC77GQ0RyAJo8N-_P0o",
    "name": "Peçalentejo, Lda.",
    "category": "Peçalentejo, Lda.",
    "formatted_address": "Peçalentejo, Lda.",
    "phone_number": "+351266771013",
    "source_url": "https://www.google.com/maps/place/Pe%C3%A7alentejo,+Lda./data=!4m7!3m6!1s0xd19fb2ec0927255:0x4a3fbfdff06802c8!8m2!3d38.5466628!4d-7.9091505!16s%2Fg%2F11bx2gj97q!19sChIJVXKSwC77GQ0RyAJo8N-_P0o?authuser=0&hl=tr&rclk=1",
    "website_url": "",
    "rating_text": "4,5",
    "stars": null,
    "number_of_reviews": null,
    "price_level": "",
    "open_hours": "",
    "extraction_timestamp": "2025-06-07T18:03:48.711Z",
    "source_name": "google",
    "source_query": "Irrigation Equipment",
    "source_country": "PT",
    "country": "Portugal",
    "state": "Évora",
    "city": "Évora"
  },
  {
    "source_id": "ChIJYRCh2yr7GQ0RB-TujZQkqsI",
    "name": "Bricomarché Évora",
    "category": "Bricomarché Évora",
    "formatted_address": "4,0(1.005)",
    "phone_number": "+351266788030",
    "source_url": "https://www.google.com/maps/place/Bricomarch%C3%A9+%C3%89vora/data=!4m7!3m6!1s0xd19fb2adba11061:0xc2aa24948deee407!8m2!3d38.552294!4d-7.913438!16s%2Fg%2F11ckr72fqt!19sChIJYRCh2yr7GQ0RB-TujZQkqsI?authuser=0&hl=tr&rclk=1",
    "website_url": "",
    "rating_text": "4,0",
    "stars": null,
    "number_of_reviews": null,
    "price_level": "",
    "open_hours": "",
    "extraction_timestamp": "2025-06-07T18:03:48.713Z",
    "source_name": "google",
    "source_query": "Irrigation Equipment",
    "source_country": "PT",
    "country": "Portugal",
    "state": "Évora",
    "city": "Évora"
  },
  {
    "source_id": "ChIJo_WMoNXkGQ0RbottvmpxfaY",
    "name": "Lampreia & Filhos,Lda.",
    "category": "Lampreia & Filhos,Lda.",
    "formatted_address": "Lampreia & Filhos,Lda.",
    "phone_number": "+351266744669",
    "source_url": "https://www.google.com/maps/place/Lampreia+%26+Filhos,Lda./data=!4m7!3m6!1s0xd19e4d5a08cf5a3:0xa67d716abe6d8b6e!8m2!3d38.5441875!4d-7.9089998!16s%2Fg%2F11jwsssktk!19sChIJo_WMoNXkGQ0RbottvmpxfaY?authuser=0&hl=tr&rclk=1",
    "website_url": "",
    "rating_text": "4,4",
    "stars": null,
    "number_of_reviews": null,
    "price_level": "",
    "open_hours": "",
    "extraction_timestamp": "2025-06-07T18:03:48.714Z",
    "source_name": "google",
    "source_query": "Irrigation Equipment",
    "source_country": "PT",
    "country": "Portugal",
    "state": "Évora",
    "city": "Évora"
  },
  {
    "source_id": "ChIJpSDeUNLkGQ0RJUNr-qbwjgY",
    "name": "Bolas Máquinas E Ferramentas De Qualidade, S.A.",
    "category": "Bolas Máquinas E Ferramentas De Qualidade, S.A.",
    "formatted_address": "Bolas Máquinas E Ferramentas De Qualidade, S.A.",
    "phone_number": "+351266749300",
    "source_url": "https://www.google.com/maps/place/Bolas+M%C3%A1quinas+E+Ferramentas+De+Qualidade,+S.A./data=!4m7!3m6!1s0xd19e4d250de20a5:0x68ef0a6fa6b4325!8m2!3d38.5562454!4d-7.9085265!16s%2Fg%2F1q62fylhs!19sChIJpSDeUNLkGQ0RJUNr-qbwjgY?authuser=0&hl=tr&rclk=1",
    "website_url": "",
    "rating_text": "4,7",
    "stars": null,
    "number_of_reviews": null,
    "price_level": "",
    "open_hours": "",
    "extraction_timestamp": "2025-06-07T18:03:48.715Z",
    "source_name": "google",
    "source_query": "Irrigation Equipment",
    "source_country": "PT",
    "country": "Portugal",
    "state": "Évora",
    "city": "Évora"
  },
  {
    "source_id": "ChIJ57iJsMHkGQ0R-CqpbSW_uyI",
    "name": "Irrievora-Sistemas De Rega, Lda.",
    "category": "Irrievora-Sistemas De Rega, Lda.",
    "formatted_address": "Irrievora-Sistemas De Rega, Lda.",
    "phone_number": "+351266758401",
    "source_url": "https://www.google.com/maps/place/Irrievora-Sistemas+De+Rega,+Lda./data=!4m7!3m6!1s0xd19e4c1b089b8e7:0x22bbbf256da92af8!8m2!3d38.5736416!4d-7.8975256!16s%2Fg%2F1tk8dcv4!19sChIJ57iJsMHkGQ0R-CqpbSW_uyI?authuser=0&hl=tr&rclk=1",
    "website_url": "",
    "rating_text": "4,1",
    "stars": null,
    "number_of_reviews": null,
    "price_level": "",
    "open_hours": "",
    "extraction_timestamp": "2025-06-07T18:03:48.716Z",
    "source_name": "google",
    "source_query": "Irrigation Equipment",
    "source_country": "PT",
    "country": "Portugal",
    "state": "Évora",
    "city": "Évora"
  },
  {
    "source_id": "ChIJsYJQnNXkGQ0RTk6Q8-gzODE",
    "name": "Sanitop - Évora",
    "category": "Sanitop - Évora",
    "formatted_address": "4,3(39)",
    "phone_number": "+351258105484",
    "source_url": "https://www.google.com/maps/place/Sanitop+-+%C3%89vora/data=!4m7!3m6!1s0xd19e4d59c5082b1:0x313833e8f3904e4e!8m2!3d38.5587778!4d-7.9111738!16s%2Fg%2F11f_dy82hg!19sChIJsYJQnNXkGQ0RTk6Q8-gzODE?authuser=0&hl=tr&rclk=1",
    "website_url": "",
    "rating_text": "4,3",
    "stars": null,
    "number_of_reviews": null,
    "price_level": "",
    "open_hours": "",
    "extraction_timestamp": "2025-06-07T18:03:48.717Z",
    "source_name": "google",
    "source_query": "Irrigation Equipment",
    "source_country": "PT",
    "country": "Portugal",
    "state": "Évora",
    "city": "Évora"
  },
  {
    "source_id": "ChIJyWnmCmv7GQ0RpsJmy9Ccdg4",
    "name": "MANUEL FIALHO LDA",
    "category": "MANUEL FIALHO LDA",
    "formatted_address": "4,4(21)",
    "phone_number": "+351266759300",
    "source_url": "https://www.google.com/maps/place/MANUEL+FIALHO+LDA/data=!4m7!3m6!1s0xd19fb6b0ae669c9:0xe769cd0cb66c2a6!8m2!3d38.5434753!4d-7.9107878!16s%2Fg%2F11j8mxl2vl!19sChIJyWnmCmv7GQ0RpsJmy9Ccdg4?authuser=0&hl=tr&rclk=1",
    "website_url": "",
    "rating_text": "4,4",
    "stars": null,
    "number_of_reviews": null,
    "price_level": "",
    "open_hours": "",
    "extraction_timestamp": "2025-06-07T18:03:48.717Z",
    "source_name": "google",
    "source_query": "Irrigation Equipment",
    "source_country": "PT",
    "country": "Portugal",
    "state": "Évora",
    "city": "Évora"
  },
  {
    "source_id": "ChIJ7TMJxgflGQ0RPdl083qpCZM",
    "name": "Leroy Merlin Évora",
    "category": "Leroy Merlin Évora",
    "formatted_address": "4,0(1.864)",
    "phone_number": "+351211944944",
    "source_url": "https://www.google.com/maps/place/Leroy+Merlin+%C3%89vora/data=!4m7!3m6!1s0xd19e507c60933ed:0x9309a97af374d93d!8m2!3d38.5598022!4d-7.8946578!16s%2Fg%2F11r7rd3828!19sChIJ7TMJxgflGQ0RPdl083qpCZM?authuser=0&hl=tr&rclk=1",
    "website_url": "",
    "rating_text": "4,0",
    "stars": null,
    "number_of_reviews": null,
    "price_level": "",
    "open_hours": "",
    "extraction_timestamp": "2025-06-07T18:03:48.719Z",
    "source_name": "google",
    "source_query": "Irrigation Equipment",
    "source_country": "PT",
    "country": "Portugal",
    "state": "Évora",
    "city": "Évora"
  },
  {
    "source_id": "ChIJQx3j2Vz7GQ0RezoTx-Tz5dc",
    "name": "Campo e Gotas",
    "category": "Campo e Gotas",
    "formatted_address": "5,0(1)",
    "phone_number": "+351961744706",
    "source_url": "https://www.google.com/maps/place/Campo+e+Gotas/data=!4m7!3m6!1s0xd19fb5cd9e31d43:0xd7e5f3e4c7133a7b!8m2!3d38.5476926!4d-7.9116821!16s%2Fg%2F11td0ygmlg!19sChIJQx3j2Vz7GQ0RezoTx-Tz5dc?authuser=0&hl=tr&rclk=1",
    "website_url": "",
    "rating_text": "5,0",
    "stars": null,
    "number_of_reviews": null,
    "price_level": "",
    "open_hours": "",
    "extraction_timestamp": "2025-06-07T18:03:48.720Z",
    "source_name": "google",
    "source_query": "Irrigation Equipment",
    "source_country": "PT",
    "country": "Portugal",
    "state": "Évora",
    "city": "Évora"
  },
  {
    "source_id": "ChIJ_34api37GQ0Rb-OZxCwv80g",
    "name": "BigMat Pinto & Filhos - Évora",
    "category": "BigMat Pinto & Filhos - Évora",
    "formatted_address": "4,3(345)",
    "phone_number": "+351266737240",
    "source_url": "https://www.google.com/maps/place/BigMat+Pinto+%26+Filhos+-+%C3%89vora/data=!4m7!3m6!1s0xd19fb2da61a7eff:0x48f32f2cc499e36f!8m2!3d38.5571857!4d-7.9146396!16s%2Fg%2F1tgq7y7c!19sChIJ_34api37GQ0Rb-OZxCwv80g?authuser=0&hl=tr&rclk=1",
    "website_url": "",
    "rating_text": "4,3",
    "stars": null,
    "number_of_reviews": null,
    "price_level": "",
    "open_hours": "",
    "extraction_timestamp": "2025-06-07T18:03:48.720Z",
    "source_name": "google",
    "source_query": "Irrigation Equipment",
    "source_country": "PT",
    "country": "Portugal",
    "state": "Évora",
    "city": "Évora"
  },
  {
    "source_id": "ChIJRY5b-SnlGQ0RBqS9a3Hj2rc",
    "name": "Maquidiana - Máquinas e Equipamentos Agrícolas, Lda.",
    "category": "Maquidiana - Máquinas e Equipamentos Agrícolas, Lda.",
    "formatted_address": "Maquidiana - Máquinas e Equipamentos Agrícolas, Lda.",
    "phone_number": "+351266706537",
    "source_url": "https://www.google.com/maps/place/Maquidiana+-+M%C3%A1quinas+e+Equipamentos+Agr%C3%ADcolas,+Lda./data=!4m7!3m6!1s0xd19e529f95b8e45:0xb7dae3716bbda406!8m2!3d38.5583965!4d-7.9161119!16s%2Fg%2F11bbrl0368!19sChIJRY5b-SnlGQ0RBqS9a3Hj2rc?authuser=0&hl=tr&rclk=1",
    "website_url": "",
    "rating_text": "4,0",
    "stars": null,
    "number_of_reviews": null,
    "price_level": "",
    "open_hours": "",
    "extraction_timestamp": "2025-06-07T18:03:48.721Z",
    "source_name": "google",
    "source_query": "Irrigation Equipment",
    "source_country": "PT",
    "country": "Portugal",
    "state": "Évora",
    "city": "Évora"
  },
  {
    "source_id": "ChIJuXlMknjlGQ0RchE7knNsAt8",
    "name": "Lima&Limão Animais e Nutrição",
    "category": "Lima&Limão Animais e Nutrição",
    "formatted_address": "5,0(13)",
    "phone_number": "+351913967491",
    "source_url": "https://www.google.com/maps/place/Lima%26Lim%C3%A3o+Animais+e+Nutri%C3%A7%C3%A3o/data=!4m7!3m6!1s0xd19e578924c79b9:0xdf026c73923b1172!8m2!3d38.5767901!4d-7.9223156!16s%2Fg%2F11px3gts4h!19sChIJuXlMknjlGQ0RchE7knNsAt8?authuser=0&hl=tr&rclk=1",
    "website_url": "",
    "rating_text": "5,0",
    "stars": null,
    "number_of_reviews": null,
    "price_level": "",
    "open_hours": "",
    "extraction_timestamp": "2025-06-07T18:03:48.722Z",
    "source_name": "google",
    "source_query": "Irrigation Equipment",
    "source_country": "PT",
    "country": "Portugal",
    "state": "Évora",
    "city": "Évora"
  },
  {
    "source_id": "ChIJ_2mE5yj7GQ0Rx1wmsn2zrIw",
    "name": "Agro Reparadora José Manuel Fialho Comércio Máquinas , Unipessoal, Lda",
    "category": "Agro Reparadora José Manuel Fialho Comércio Máquinas , Unipessoal, Lda",
    "formatted_address": "Agro Reparadora José Manuel Fialho Comércio Máquinas , Unipessoal, Lda",
    "phone_number": "+351266761710",
    "source_url": "https://www.google.com/maps/place/Agro+Reparadora+Jos%C3%A9+Manuel+Fialho+Com%C3%A9rcio+M%C3%A1quinas+,+Unipessoal,+Lda/data=!4m7!3m6!1s0xd19fb28e78469ff:0x8cacb37db2265cc7!8m2!3d38.5454605!4d-7.9106218!16s%2Fg%2F11bbrrbt4r!19sChIJ_2mE5yj7GQ0Rx1wmsn2zrIw?authuser=0&hl=tr&rclk=1",
    "website_url": "",
    "rating_text": "5,0",
    "stars": null,
    "number_of_reviews": null,
    "price_level": "",
    "open_hours": "",
    "extraction_timestamp": "2025-06-07T18:03:48.723Z",
    "source_name": "google",
    "source_query": "Irrigation Equipment",
    "source_country": "PT",
    "country": "Portugal",
    "state": "Évora",
    "city": "Évora"
  },
  {
    "source_id": "ChIJH3e7zCHlGQ0R3aHIjzwVHCw",
    "name": "Nutriévora-Comércio Rações Produtos Agrícolas Lda",
    "category": "Nutriévora-Comércio Rações Produtos Agrícolas Lda",
    "formatted_address": "4,3(3)",
    "phone_number": "+351266746137",
    "source_url": "https://www.google.com/maps/place/Nutri%C3%A9vora-Com%C3%A9rcio+Ra%C3%A7%C3%B5es+Produtos+Agr%C3%ADcolas+Lda/data=!4m7!3m6!1s0xd19e521ccbb771f:0x2c1c153c8fc8a1dd!8m2!3d38.5588635!4d-7.8903718!16s%2Fg%2F1vxvk3gd!19sChIJH3e7zCHlGQ0R3aHIjzwVHCw?authuser=0&hl=tr&rclk=1",
    "website_url": "",
    "rating_text": "4,3",
    "stars": null,
    "number_of_reviews": null,
    "price_level": "",
    "open_hours": "",
    "extraction_timestamp": "2025-06-07T18:03:48.723Z",
    "source_name": "google",
    "source_query": "Irrigation Equipment",
    "source_country": "PT",
    "country": "Portugal",
    "state": "Évora",
    "city": "Évora"
  },
  {
    "source_id": "ChIJ-yJexUflGQ0RiV50UuoQkTo",
    "name": "Novicampo - Loja",
    "category": "Novicampo - Loja",
    "formatted_address": "4,8(5)",
    "phone_number": "+351266746305",
    "source_url": "https://www.google.com/maps/place/Novicampo+-+Loja/data=!4m7!3m6!1s0xd19e547c55e22fb:0x3a9110ea52745e89!8m2!3d38.5650577!4d-7.9015116!16s%2Fg%2F11s61hsyz6!19sChIJ-yJexUflGQ0RiV50UuoQkTo?authuser=0&hl=tr&rclk=1",
    "website_url": "",
    "rating_text": "4,8",
    "stars": null,
    "number_of_reviews": null,
    "price_level": "",
    "open_hours": "",
    "extraction_timestamp": "2025-06-07T18:03:48.724Z",
    "source_name": "google",
    "source_query": "Irrigation Equipment",
    "source_country": "PT",
    "country": "Portugal",
    "state": "Évora",
    "city": "Évora"
  },
  {
    "source_id": "ChIJ5wbJ-S37GQ0RV8J5aVal9RY",
    "name": "Auchan",
    "category": "Auchan",
    "formatted_address": "4,2(2.820)",
    "phone_number": "+351210403270",
    "source_url": "https://www.google.com/maps/place/Auchan/data=!4m7!3m6!1s0xd19fb2df9c906e7:0x16f5a5566979c257!8m2!3d38.5493731!4d-7.9049688!16s%2Fg%2F11f2sk6m5v!19sChIJ5wbJ-S37GQ0RV8J5aVal9RY?authuser=0&hl=tr&rclk=1",
    "website_url": "",
    "rating_text": "4,2",
    "stars": null,
    "number_of_reviews": null,
    "price_level": "",
    "open_hours": "",
    "extraction_timestamp": "2025-06-07T18:03:48.725Z",
    "source_name": "google",
    "source_query": "Irrigation Equipment",
    "source_country": "PT",
    "country": "Portugal",
    "state": "Évora",
    "city": "Évora"
  },
  {
    "source_id": "ChIJK-sdzC37GQ0Rg5rynT9Obws",
    "name": "Tiendanimal",
    "category": "Tiendanimal",
    "formatted_address": "4,6(80)",
    "phone_number": "+351266247392",
    "source_url": "https://www.google.com/maps/place/Tiendanimal/data=!4m7!3m6!1s0xd19fb2dcc1deb2b:0xb6f4e3f9df29a83!8m2!3d38.5497313!4d-7.9054148!16s%2Fg%2F11f_kmrwxk!19sChIJK-sdzC37GQ0Rg5rynT9Obws?authuser=0&hl=tr&rclk=1",
    "website_url": "",
    "rating_text": "4,6",
    "stars": null,
    "number_of_reviews": null,
    "price_level": "",
    "open_hours": "",
    "extraction_timestamp": "2025-06-07T18:03:48.726Z",
    "source_name": "google",
    "source_query": "Irrigation Equipment",
    "source_country": "PT",
    "country": "Portugal",
    "state": "Évora",
    "city": "Évora"
  },
  {
    "source_id": "ChIJg6xx7y37GQ0RgZMa5Pt1PbE",
    "name": "Sport Zone Évora",
    "category": "Sport Zone Évora",
    "formatted_address": "4,0(765)",
    "phone_number": "+351930589782",
    "source_url": "https://www.google.com/maps/place/Sport+Zone+%C3%89vora/data=!4m7!3m6!1s0xd19fb2def71ac83:0xb13d75fbe41a9381!8m2!3d38.5496043!4d-7.9072796!16s%2Fg%2F11bwpdl5gl!19sChIJg6xx7y37GQ0RgZMa5Pt1PbE?authuser=0&hl=tr&rclk=1",
    "website_url": "",
    "rating_text": "4,0",
    "stars": null,
    "number_of_reviews": null,
    "price_level": "",
    "open_hours": "",
    "extraction_timestamp": "2025-06-07T18:03:48.727Z",
    "source_name": "google",
    "source_query": "Irrigation Equipment",
    "source_country": "PT",
    "country": "Portugal",
    "state": "Évora",
    "city": "Évora"
  },
  {
    "source_id": "ChIJy6fwPNXkGQ0RXF8MnjxL9yQ",
    "name": "Tanqueluz Evora",
    "category": "Tanqueluz Evora",
    "formatted_address": "4,2(63)",
    "phone_number": "+351266707452",
    "source_url": "https://www.google.com/maps/place/Tanqueluz+Evora/data=!4m7!3m6!1s0xd19e4d53cf0a7cb:0x24f74b3c9e0c5f5c!8m2!3d38.5542836!4d-7.9136764!16s%2Fg%2F11d_8l2nm0!19sChIJy6fwPNXkGQ0RXF8MnjxL9yQ?authuser=0&hl=tr&rclk=1",
    "website_url": "",
    "rating_text": "4,2",
    "stars": null,
    "number_of_reviews": null,
    "price_level": "",
    "open_hours": "",
    "extraction_timestamp": "2025-06-07T18:03:48.728Z",
    "source_name": "google",
    "source_query": "Irrigation Equipment",
    "source_country": "PT",
    "country": "Portugal",
    "state": "Évora",
    "city": "Évora"
  }
]
