[
  {
    "source_id": "ChIJuUMr8O7dq0AR1ZSfc2wrs-8",
    "name": "Professional gardeners Ltd.",
    "category": "Professional gardeners Ltd.",
    "formatted_address": "4,7(56)",
    "phone_number": "+359887406992",
    "source_url": "https://www.google.com/maps/place/Professional+gardeners+Ltd./data=!4m7!3m6!1s0x40abddeef02b43b9:0xefb32b6c739f94d5!8m2!3d43.1601726!4d24.7221959!16s%2Fg%2F1tgpr36n!19sChIJuUMr8O7dq0AR1ZSfc2wrs-8?authuser=0&hl=tr&rclk=1",
    "website_url": "",
    "rating_text": "4,7",
    "stars": null,
    "number_of_reviews": null,
    "price_level": "",
    "open_hours": "",
    "extraction_timestamp": "2025-06-07T13:59:52.247Z",
    "source_name": "google",
    "source_query": "Irrigation Equipment",
    "source_country": "BG",
    "country": "Bulgaria",
    "state": "Lovech Province",
    "city": "Lovech"
  },
  {
    "source_id": "ChIJtcSgcfzdq0ARk1lYMT0M--o",
    "name": "Vodosnabdyavane I Kanalizatsiya",
    "category": "Vodosnabdyavane I Kanalizatsiya",
    "formatted_address": "3,3(84)",
    "phone_number": "+35968651112",
    "source_url": "https://www.google.com/maps/place/Vodosnabdyavane+I+Kanalizatsiya/data=!4m7!3m6!1s0x40abddfc71a0c4b5:0xeafb0c3d31585993!8m2!3d43.1457291!4d24.7176102!16s%2Fg%2F1trrbpnx!19sChIJtcSgcfzdq0ARk1lYMT0M--o?authuser=0&hl=tr&rclk=1",
    "website_url": "",
    "rating_text": "3,3",
    "stars": null,
    "number_of_reviews": null,
    "price_level": "",
    "open_hours": "",
    "extraction_timestamp": "2025-06-07T13:59:52.248Z",
    "source_name": "google",
    "source_query": "Irrigation Equipment",
    "source_country": "BG",
    "country": "Bulgaria",
    "state": "Lovech Province",
    "city": "Lovech"
  },
  {
    "source_id": "ChIJl9iAui3nq0AR7ji6epK858A",
    "name": "Пречиствателна станция за отпадни води Ловеч",
    "category": "Пречиствателна станция за отпадни води Ловеч",
    "formatted_address": "5,0(4)",
    "phone_number": "",
    "source_url": "https://www.google.com/maps/place/%D0%9F%D1%80%D0%B5%D1%87%D0%B8%D1%81%D1%82%D0%B2%D0%B0%D1%82%D0%B5%D0%BB%D0%BD%D0%B0+%D1%81%D1%82%D0%B0%D0%BD%D1%86%D0%B8%D1%8F+%D0%B7%D0%B0+%D0%BE%D1%82%D0%BF%D0%B0%D0%B4%D0%BD%D0%B8+%D0%B2%D0%BE%D0%B4%D0%B8+%D0%9B%D0%BE%D0%B2%D0%B5%D1%87/data=!4m7!3m6!1s0x40abe72dba80d897:0xc0e7bc927aba38ee!8m2!3d43.1758406!4d24.747868!16s%2Fg%2F11c1tyxck7!19sChIJl9iAui3nq0AR7ji6epK858A?authuser=0&hl=tr&rclk=1",
    "website_url": "",
    "rating_text": "5,0",
    "stars": null,
    "number_of_reviews": null,
    "price_level": "",
    "open_hours": "",
    "extraction_timestamp": "2025-06-07T13:59:52.248Z",
    "source_name": "google",
    "source_query": "Irrigation Equipment",
    "source_country": "BG",
    "country": "Bulgaria",
    "state": "Lovech Province",
    "city": "Lovech"
  },
  {
    "source_id": "ChIJg_CX1efdq0AR9TMVjmGHLtM",
    "name": "TOPLIVO - Warehouse Lovech",
    "category": "TOPLIVO - Warehouse Lovech",
    "formatted_address": "4,0(82)",
    "phone_number": "+359878802023",
    "source_url": "https://www.google.com/maps/place/TOPLIVO+-+Warehouse+Lovech/data=!4m7!3m6!1s0x40abdde7d597f083:0xd32e87618e1533f5!8m2!3d43.1388856!4d24.7039726!16s%2Fg%2F11g8xj1tqt!19sChIJg_CX1efdq0AR9TMVjmGHLtM?authuser=0&hl=tr&rclk=1",
    "website_url": "",
    "rating_text": "4,0",
    "stars": null,
    "number_of_reviews": null,
    "price_level": "",
    "open_hours": "",
    "extraction_timestamp": "2025-06-07T13:59:52.249Z",
    "source_name": "google",
    "source_query": "Irrigation Equipment",
    "source_country": "BG",
    "country": "Bulgaria",
    "state": "Lovech Province",
    "city": "Lovech"
  },
  {
    "source_id": "ChIJuQZtsOPdq0AR38sZXw1XI_k",
    "name": "BAHOV EOOD",
    "category": "BAHOV EOOD",
    "formatted_address": "4,4(125)",
    "phone_number": "+35968603388",
    "source_url": "https://www.google.com/maps/place/BAHOV+EOOD/data=!4m7!3m6!1s0x40abdde3b06d06b9:0xf923570d5f19cbdf!8m2!3d43.1362396!4d24.7069942!16s%2Fg%2F1tj94y1z!19sChIJuQZtsOPdq0AR38sZXw1XI_k?authuser=0&hl=tr&rclk=1",
    "website_url": "",
    "rating_text": "4,4",
    "stars": null,
    "number_of_reviews": null,
    "price_level": "",
    "open_hours": "",
    "extraction_timestamp": "2025-06-07T13:59:52.250Z",
    "source_name": "google",
    "source_query": "Irrigation Equipment",
    "source_country": "BG",
    "country": "Bulgaria",
    "state": "Lovech Province",
    "city": "Lovech"
  },
  {
    "source_id": "ChIJq096nPvdq0ARLyMcgfnKag0",
    "name": "KASIOPES - Lovech",
    "category": "KASIOPES - Lovech",
    "formatted_address": "5,0(1)",
    "phone_number": "+359885919457",
    "source_url": "https://www.google.com/maps/place/KASIOPES+-+Lovech/data=!4m7!3m6!1s0x40abddfb9c7a4fab:0xd6acaf9811c232f!8m2!3d43.1459606!4d24.7166685!16s%2Fg%2F11h03mjl9!19sChIJq096nPvdq0ARLyMcgfnKag0?authuser=0&hl=tr&rclk=1",
    "website_url": "",
    "rating_text": "5,0",
    "stars": null,
    "number_of_reviews": null,
    "price_level": "",
    "open_hours": "",
    "extraction_timestamp": "2025-06-07T13:59:52.250Z",
    "source_name": "google",
    "source_query": "Irrigation Equipment",
    "source_country": "BG",
    "country": "Bulgaria",
    "state": "Lovech Province",
    "city": "Lovech"
  },
  {
    "source_id": "ChIJ2T9_nufdq0ARfKMhvR6ePVs",
    "name": "Фемина Строителни Материали",
    "category": "Фемина Строителни Материали",
    "formatted_address": "4,5(14)",
    "phone_number": "+359888478652",
    "source_url": "https://www.google.com/maps/place/%D0%A4%D0%B5%D0%BC%D0%B8%D0%BD%D0%B0+%D0%A1%D1%82%D1%80%D0%BE%D0%B8%D1%82%D0%B5%D0%BB%D0%BD%D0%B8+%D0%9C%D0%B0%D1%82%D0%B5%D1%80%D0%B8%D0%B0%D0%BB%D0%B8/data=!4m7!3m6!1s0x40abdde79e7f3fd9:0x5b3d9e1ebd21a37c!8m2!3d43.1372351!4d24.7056748!16s%2Fg%2F11csb0qdqk!19sChIJ2T9_nufdq0ARfKMhvR6ePVs?authuser=0&hl=tr&rclk=1",
    "website_url": "",
    "rating_text": "4,5",
    "stars": null,
    "number_of_reviews": null,
    "price_level": "",
    "open_hours": "",
    "extraction_timestamp": "2025-06-07T13:59:52.251Z",
    "source_name": "google",
    "source_query": "Irrigation Equipment",
    "source_country": "BG",
    "country": "Bulgaria",
    "state": "Lovech Province",
    "city": "Lovech"
  },
  {
    "source_id": "ChIJOd8iXufdq0ARCMF0D7Q7ShM",
    "name": "Фемина Строителни материали",
    "category": "Фемина Строителни материали",
    "formatted_address": "4,7(24)",
    "phone_number": "+359884021053",
    "source_url": "https://www.google.com/maps/place/%D0%A4%D0%B5%D0%BC%D0%B8%D0%BD%D0%B0+%D0%A1%D1%82%D1%80%D0%BE%D0%B8%D1%82%D0%B5%D0%BB%D0%BD%D0%B8+%D0%BC%D0%B0%D1%82%D0%B5%D1%80%D0%B8%D0%B0%D0%BB%D0%B8/data=!4m7!3m6!1s0x40abdde75e22df39:0x134a3bb40f74c108!8m2!3d43.1361729!4d24.7070702!16s%2Fg%2F11cs5mqwnd!19sChIJOd8iXufdq0ARCMF0D7Q7ShM?authuser=0&hl=tr&rclk=1",
    "website_url": "",
    "rating_text": "4,7",
    "stars": null,
    "number_of_reviews": null,
    "price_level": "",
    "open_hours": "",
    "extraction_timestamp": "2025-06-07T13:59:52.251Z",
    "source_name": "google",
    "source_query": "Irrigation Equipment",
    "source_country": "BG",
    "country": "Bulgaria",
    "state": "Lovech Province",
    "city": "Lovech"
  },
  {
    "source_id": "ChIJCXpKjAreq0ARh_p22-2M-xA",
    "name": "SPORT DEPOT Ловеч",
    "category": "SPORT DEPOT Ловеч",
    "formatted_address": "4,2(169)",
    "phone_number": "+35970190009",
    "source_url": "https://www.google.com/maps/place/SPORT+DEPOT+%D0%9B%D0%BE%D0%B2%D0%B5%D1%87/data=!4m7!3m6!1s0x40abde0a8c4a7a09:0x10fb8ceddb76fa87!8m2!3d43.13563!4d24.71706!16s%2Fg%2F1tfrkvg0!19sChIJCXpKjAreq0ARh_p22-2M-xA?authuser=0&hl=tr&rclk=1",
    "website_url": "",
    "rating_text": "4,2",
    "stars": null,
    "number_of_reviews": null,
    "price_level": "",
    "open_hours": "",
    "extraction_timestamp": "2025-06-07T13:59:52.252Z",
    "source_name": "google",
    "source_query": "Irrigation Equipment",
    "source_country": "BG",
    "country": "Bulgaria",
    "state": "Lovech Province",
    "city": "Lovech"
  },
  {
    "source_id": "ChIJCQ7czfzdq0ARr9zLjwghROg",
    "name": "Obshtinski Pazari Lovech",
    "category": "Obshtinski Pazari Lovech",
    "formatted_address": "3,6(549)",
    "phone_number": "+35968603232",
    "source_url": "https://www.google.com/maps/place/Obshtinski+Pazari+Lovech/data=!4m7!3m6!1s0x40abddfccddc0e09:0xe84421088fcbdcaf!8m2!3d43.1448282!4d24.7185164!16s%2Fg%2F1tcxy9tq!19sChIJCQ7czfzdq0ARr9zLjwghROg?authuser=0&hl=tr&rclk=1",
    "website_url": "",
    "rating_text": "3,6",
    "stars": null,
    "number_of_reviews": null,
    "price_level": "",
    "open_hours": "",
    "extraction_timestamp": "2025-06-07T13:59:52.252Z",
    "source_name": "google",
    "source_query": "Irrigation Equipment",
    "source_country": "BG",
    "country": "Bulgaria",
    "state": "Lovech Province",
    "city": "Lovech"
  },
  {
    "source_id": "ChIJV5mCnczUUwgRG-I5ClV8_so",
    "name": "MSDgroup-Борба с вредители-ДДД",
    "category": "MSDgroup-Борба с вредители-ДДД",
    "formatted_address": "5,0(3)",
    "phone_number": "+359884807330",
    "source_url": "https://www.google.com/maps/place/MSDgroup-%D0%91%D0%BE%D1%80%D0%B1%D0%B0+%D1%81+%D0%B2%D1%80%D0%B5%D0%B4%D0%B8%D1%82%D0%B5%D0%BB%D0%B8-%D0%94%D0%94%D0%94/data=!4m7!3m6!1s0x853d4cc9d829957:0xcafe7c550a39e21b!8m2!3d43.1445748!4d24.7167732!16s%2Fg%2F11txmbxhdb!19sChIJV5mCnczUUwgRG-I5ClV8_so?authuser=0&hl=tr&rclk=1",
    "website_url": "",
    "rating_text": "5,0",
    "stars": null,
    "number_of_reviews": null,
    "price_level": "",
    "open_hours": "",
    "extraction_timestamp": "2025-06-07T13:59:52.253Z",
    "source_name": "google",
    "source_query": "Irrigation Equipment",
    "source_country": "BG",
    "country": "Bulgaria",
    "state": "Lovech Province",
    "city": "Lovech"
  },
  {
    "source_id": "ChIJryTLmOfdq0AR6CG7P8ymvx0",
    "name": "DIM 2 | дървен материал | над 100 кубика | склад | Гипсокартон",
    "category": "DIM 2 | дървен материал | над 100 кубика | склад | Гипсокартон",
    "formatted_address": "5,0(1)",
    "phone_number": "+359889850909",
    "source_url": "https://www.google.com/maps/place/DIM+2+%7C+%D0%B4%D1%8A%D1%80%D0%B2%D0%B5%D0%BD+%D0%BC%D0%B0%D1%82%D0%B5%D1%80%D0%B8%D0%B0%D0%BB+%7C+%D0%BD%D0%B0%D0%B4+100+%D0%BA%D1%83%D0%B1%D0%B8%D0%BA%D0%B0+%7C+%D1%81%D0%BA%D0%BB%D0%B0%D0%B4+%7C+%D0%93%D0%B8%D0%BF%D1%81%D0%BE%D0%BA%D0%B0%D1%80%D1%82%D0%BE%D0%BD/data=!4m7!3m6!1s0x40abdde798cb24af:0x1dbfa6cc3fbb21e8!8m2!3d43.1368845!4d24.706431!16s%2Fg%2F11gfpbrb1m!19sChIJryTLmOfdq0AR6CG7P8ymvx0?authuser=0&hl=tr&rclk=1",
    "website_url": "",
    "rating_text": "5,0",
    "stars": null,
    "number_of_reviews": null,
    "price_level": "",
    "open_hours": "",
    "extraction_timestamp": "2025-06-07T13:59:52.253Z",
    "source_name": "google",
    "source_query": "Irrigation Equipment",
    "source_country": "BG",
    "country": "Bulgaria",
    "state": "Lovech Province",
    "city": "Lovech"
  },
  {
    "source_id": "ChIJMW2JoOPdq0ARdBsTMF93kyk",
    "name": "Отопление и Солар ЕООД гр. Ловеч",
    "category": "Отопление и Солар ЕООД гр. Ловеч",
    "formatted_address": "3,0(2)",
    "phone_number": "+359898883085",
    "source_url": "https://www.google.com/maps/place/%D0%9E%D1%82%D0%BE%D0%BF%D0%BB%D0%B5%D0%BD%D0%B8%D0%B5+%D0%B8+%D0%A1%D0%BE%D0%BB%D0%B0%D1%80+%D0%95%D0%9E%D0%9E%D0%94+%D0%B3%D1%80.+%D0%9B%D0%BE%D0%B2%D0%B5%D1%87/data=!4m7!3m6!1s0x40abdde3a0896d31:0x2993775f30131b74!8m2!3d43.1438949!4d24.7145588!16s%2Fg%2F11hyt02tx7!19sChIJMW2JoOPdq0ARdBsTMF93kyk?authuser=0&hl=tr&rclk=1",
    "website_url": "",
    "rating_text": "3,0",
    "stars": null,
    "number_of_reviews": null,
    "price_level": "",
    "open_hours": "",
    "extraction_timestamp": "2025-06-07T13:59:52.254Z",
    "source_name": "google",
    "source_query": "Irrigation Equipment",
    "source_country": "BG",
    "country": "Bulgaria",
    "state": "Lovech Province",
    "city": "Lovech"
  },
  {
    "source_id": "ChIJIc_UnDHdq0ARehxTX2YG3wc",
    "name": "Elmiks",
    "category": "Elmiks",
    "formatted_address": "4,5(13)",
    "phone_number": "+359888969290",
    "source_url": "https://www.google.com/maps/place/Elmiks/data=!4m7!3m6!1s0x40abdd319cd4cf21:0x7df06665f531c7a!8m2!3d43.1465!4d24.7159355!16s%2Fg%2F11h27mmypm!19sChIJIc_UnDHdq0ARehxTX2YG3wc?authuser=0&hl=tr&rclk=1",
    "website_url": "",
    "rating_text": "4,5",
    "stars": null,
    "number_of_reviews": null,
    "price_level": "",
    "open_hours": "",
    "extraction_timestamp": "2025-06-07T13:59:52.254Z",
    "source_name": "google",
    "source_query": "Irrigation Equipment",
    "source_country": "BG",
    "country": "Bulgaria",
    "state": "Lovech Province",
    "city": "Lovech"
  },
  {
    "source_id": "ChIJB7RGA_vdq0ARlUhc5fqEmTQ",
    "name": "Елит Кар",
    "category": "Елит Кар",
    "formatted_address": "4,2(87)",
    "phone_number": "+35968601506",
    "source_url": "https://www.google.com/maps/place/%D0%95%D0%BB%D0%B8%D1%82+%D0%9A%D0%B0%D1%80/data=!4m7!3m6!1s0x40abddfb0346b407:0x349984fae55c4895!8m2!3d43.146224!4d24.7141255!16s%2Fg%2F11c3pwm0l_!19sChIJB7RGA_vdq0ARlUhc5fqEmTQ?authuser=0&hl=tr&rclk=1",
    "website_url": "",
    "rating_text": "4,2",
    "stars": null,
    "number_of_reviews": null,
    "price_level": "",
    "open_hours": "",
    "extraction_timestamp": "2025-06-07T13:59:52.255Z",
    "source_name": "google",
    "source_query": "Irrigation Equipment",
    "source_country": "BG",
    "country": "Bulgaria",
    "state": "Lovech Province",
    "city": "Lovech"
  },
  {
    "source_id": "ChIJ1dTzBxTdq0ARwae-oV342hA",
    "name": "Технополис Ловеч",
    "category": "Технополис Ловеч",
    "formatted_address": "4,6(19)",
    "phone_number": "+35968587111",
    "source_url": "https://www.google.com/maps/place/%D0%A2%D0%B5%D1%85%D0%BD%D0%BE%D0%BF%D0%BE%D0%BB%D0%B8%D1%81+%D0%9B%D0%BE%D0%B2%D0%B5%D1%87/data=!4m7!3m6!1s0x40abdd1407f3d4d5:0x10daf85da1bea7c1!8m2!3d43.1451878!4d24.7128201!16s%2Fg%2F11w3bnph4w!19sChIJ1dTzBxTdq0ARwae-oV342hA?authuser=0&hl=tr&rclk=1",
    "website_url": "",
    "rating_text": "4,6",
    "stars": null,
    "number_of_reviews": null,
    "price_level": "",
    "open_hours": "",
    "extraction_timestamp": "2025-06-07T13:59:52.255Z",
    "source_name": "google",
    "source_query": "Irrigation Equipment",
    "source_country": "BG",
    "country": "Bulgaria",
    "state": "Lovech Province",
    "city": "Lovech"
  },
  {
    "source_id": "ChIJHTtVrwndq0ARvDw5K_p60Ro",
    "name": "Литиум ООД",
    "category": "Литиум ООД",
    "formatted_address": "4,7(6)",
    "phone_number": "+35968520801",
    "source_url": "https://www.google.com/maps/place/%D0%9B%D0%B8%D1%82%D0%B8%D1%83%D0%BC+%D0%9E%D0%9E%D0%94/data=!4m7!3m6!1s0x40abdd09af553b1d:0x1ad17afa2b393cbc!8m2!3d43.1197875!4d24.7138125!16s%2Fg%2F11jncr0z4j!19sChIJHTtVrwndq0ARvDw5K_p60Ro?authuser=0&hl=tr&rclk=1",
    "website_url": "",
    "rating_text": "4,7",
    "stars": null,
    "number_of_reviews": null,
    "price_level": "",
    "open_hours": "",
    "extraction_timestamp": "2025-06-07T13:59:52.256Z",
    "source_name": "google",
    "source_query": "Irrigation Equipment",
    "source_country": "BG",
    "country": "Bulgaria",
    "state": "Lovech Province",
    "city": "Lovech"
  },
  {
    "source_id": "ChIJiWnCeaHfq0ARqLlZRmukFSo",
    "name": "H&S Petkoff Beershop",
    "category": "H&S Petkoff Beershop",
    "formatted_address": "4,6(103) · BGN 10–20",
    "phone_number": "+359883697979",
    "source_url": "https://www.google.com/maps/place/H%26S+Petkoff+Beershop/data=!4m7!3m6!1s0x40abdfa179c26989:0x2a15a46b4659b9a8!8m2!3d43.1337306!4d24.7167133!16s%2Fg%2F11fm_982sj!19sChIJiWnCeaHfq0ARqLlZRmukFSo?authuser=0&hl=tr&rclk=1",
    "website_url": "",
    "rating_text": "4,6",
    "stars": null,
    "number_of_reviews": null,
    "price_level": "",
    "open_hours": "",
    "extraction_timestamp": "2025-06-07T13:59:52.256Z",
    "source_name": "google",
    "source_query": "Irrigation Equipment",
    "source_country": "BG",
    "country": "Bulgaria",
    "state": "Lovech Province",
    "city": "Lovech"
  },
  {
    "source_id": "ChIJETdn7O7dq0ARjYlj-8e9gaU",
    "name": "Магазин \"Лесидрен\"",
    "category": "Магазин \"Лесидрен\"",
    "formatted_address": "4,4(106)",
    "phone_number": "+359885336661",
    "source_url": "https://www.google.com/maps/place/%D0%9C%D0%B0%D0%B3%D0%B0%D0%B7%D0%B8%D0%BD+%22%D0%9B%D0%B5%D1%81%D0%B8%D0%B4%D1%80%D0%B5%D0%BD%22/data=!4m7!3m6!1s0x40abddeeec673711:0xa581bdc7fb63898d!8m2!3d43.1438695!4d24.7150859!16s%2Fg%2F11gmcxhsp_!19sChIJETdn7O7dq0ARjYlj-8e9gaU?authuser=0&hl=tr&rclk=1",
    "website_url": "",
    "rating_text": "4,4",
    "stars": null,
    "number_of_reviews": null,
    "price_level": "",
    "open_hours": "",
    "extraction_timestamp": "2025-06-07T13:59:52.256Z",
    "source_name": "google",
    "source_query": "Irrigation Equipment",
    "source_country": "BG",
    "country": "Bulgaria",
    "state": "Lovech Province",
    "city": "Lovech"
  },
  {
    "source_id": "ChIJC59CLADdq0ARp04XFFIEcZ8",
    "name": "АЛТЕРО ЕООД",
    "category": "АЛТЕРО ЕООД",
    "formatted_address": "",
    "phone_number": "+359882345067",
    "source_url": "https://www.google.com/maps/place/%D0%90%D0%9B%D0%A2%D0%95%D0%A0%D0%9E+%D0%95%D0%9E%D0%9E%D0%94/data=!4m7!3m6!1s0x40abdd002c429f0b:0x9f71045214174ea7!8m2!3d43.1501391!4d24.7158047!16s%2Fg%2F11y48cnv63!19sChIJC59CLADdq0ARp04XFFIEcZ8?authuser=0&hl=tr&rclk=1",
    "website_url": "",
    "rating_text": "",
    "stars": null,
    "number_of_reviews": null,
    "price_level": "",
    "open_hours": "",
    "extraction_timestamp": "2025-06-07T13:59:52.257Z",
    "source_name": "google",
    "source_query": "Irrigation Equipment",
    "source_country": "BG",
    "country": "Bulgaria",
    "state": "Lovech Province",
    "city": "Lovech"
  },
  {
    "source_id": "ChIJNwuYuPzdq0AR6P-joo7U7Hg",
    "name": "Slavimes",
    "category": "Slavimes",
    "formatted_address": "4,0(134)",
    "phone_number": "+35968601080",
    "source_url": "https://www.google.com/maps/place/Slavimes/data=!4m7!3m6!1s0x40abddfcb8980b37:0x78ecd48ea2a3ffe8!8m2!3d43.1458037!4d24.7163333!16s%2Fg%2F1tdzv6hv!19sChIJNwuYuPzdq0AR6P-joo7U7Hg?authuser=0&hl=tr&rclk=1",
    "website_url": "",
    "rating_text": "4,0",
    "stars": null,
    "number_of_reviews": null,
    "price_level": "",
    "open_hours": "",
    "extraction_timestamp": "2025-06-07T13:59:52.257Z",
    "source_name": "google",
    "source_query": "Irrigation Equipment",
    "source_country": "BG",
    "country": "Bulgaria",
    "state": "Lovech Province",
    "city": "Lovech"
  },
  {
    "source_id": "ChIJY_Nr6wneq0ARk7QOe4KhATo",
    "name": "Momchil Petrov",
    "category": "Momchil Petrov",
    "formatted_address": "4,4(160)",
    "phone_number": "+35968601364",
    "source_url": "https://www.google.com/maps/place/Momchil+Petrov/data=!4m7!3m6!1s0x40abde09eb6bf363:0x3a01a1827b0eb493!8m2!3d43.140491!4d24.7025153!16s%2Fg%2F1tghbmz5!19sChIJY_Nr6wneq0ARk7QOe4KhATo?authuser=0&hl=tr&rclk=1",
    "website_url": "",
    "rating_text": "4,4",
    "stars": null,
    "number_of_reviews": null,
    "price_level": "",
    "open_hours": "",
    "extraction_timestamp": "2025-06-07T13:59:52.258Z",
    "source_name": "google",
    "source_query": "Irrigation Equipment",
    "source_country": "BG",
    "country": "Bulgaria",
    "state": "Lovech Province",
    "city": "Lovech"
  },
  {
    "source_id": "ChIJFwuagt7dq0AR8TqKmSFrxuE",
    "name": "BILLA",
    "category": "BILLA",
    "formatted_address": "3,9(1.404)",
    "phone_number": "+35968689710",
    "source_url": "https://www.google.com/maps/place/BILLA/data=!4m7!3m6!1s0x40abddde829a0b17:0xe1c66b21998a3af1!8m2!3d43.1346772!4d24.7096422!16s%2Fg%2F1th26x31!19sChIJFwuagt7dq0AR8TqKmSFrxuE?authuser=0&hl=tr&rclk=1",
    "website_url": "",
    "rating_text": "3,9",
    "stars": null,
    "number_of_reviews": null,
    "price_level": "",
    "open_hours": "",
    "extraction_timestamp": "2025-06-07T13:59:52.258Z",
    "source_name": "google",
    "source_query": "Irrigation Equipment",
    "source_country": "BG",
    "country": "Bulgaria",
    "state": "Lovech Province",
    "city": "Lovech"
  },
  {
    "source_id": "ChIJCcA1zPrdq0ARHnOArSi45dM",
    "name": "Lidl",
    "category": "Lidl",
    "formatted_address": "4,3(1.936)",
    "phone_number": "+35929066444",
    "source_url": "https://www.google.com/maps/place/Lidl/data=!4m7!3m6!1s0x40abddfacc35c009:0xd3e5b828ad80731e!8m2!3d43.1445614!4d24.7118112!16s%2Fg%2F11b7h_v046!19sChIJCcA1zPrdq0ARHnOArSi45dM?authuser=0&hl=tr&rclk=1",
    "website_url": "",
    "rating_text": "4,3",
    "stars": null,
    "number_of_reviews": null,
    "price_level": "",
    "open_hours": "",
    "extraction_timestamp": "2025-06-07T13:59:52.259Z",
    "source_name": "google",
    "source_query": "Irrigation Equipment",
    "source_country": "BG",
    "country": "Bulgaria",
    "state": "Lovech Province",
    "city": "Lovech"
  },
  {
    "source_id": "ChIJfRCBT1vnq0AR4l3YFYZiNW8",
    "name": "T MARKET",
    "category": "T MARKET",
    "formatted_address": "3,8(1.013)",
    "phone_number": "+35970070171",
    "source_url": "https://www.google.com/maps/place/T+MARKET/data=!4m7!3m6!1s0x40abe75b4f81107d:0x6f35628615d85de2!8m2!3d43.1504564!4d24.716543!16s%2Fg%2F11c1tb2zpn!19sChIJfRCBT1vnq0AR4l3YFYZiNW8?authuser=0&hl=tr&rclk=1",
    "website_url": "",
    "rating_text": "3,8",
    "stars": null,
    "number_of_reviews": null,
    "price_level": "",
    "open_hours": "",
    "extraction_timestamp": "2025-06-07T13:59:52.269Z",
    "source_name": "google",
    "source_query": "Irrigation Equipment",
    "source_country": "BG",
    "country": "Bulgaria",
    "state": "Lovech Province",
    "city": "Lovech"
  },
  {
    "source_id": "ChIJVxQuyZ_fq0ARAVd7dPZI-Uo",
    "name": "Хранителен магазин \"Вароша\"",
    "category": "Хранителен магазин \"Вароша\"",
    "formatted_address": "4,6(16)",
    "phone_number": "",
    "source_url": "https://www.google.com/maps/place/%D0%A5%D1%80%D0%B0%D0%BD%D0%B8%D1%82%D0%B5%D0%BB%D0%B5%D0%BD+%D0%BC%D0%B0%D0%B3%D0%B0%D0%B7%D0%B8%D0%BD+%22%D0%92%D0%B0%D1%80%D0%BE%D1%88%D0%B0%22/data=!4m7!3m6!1s0x40abdf9fc92e1457:0x4af948f6747b5701!8m2!3d43.1312884!4d24.7168217!16s%2Fg%2F11q3vrfb3x!19sChIJVxQuyZ_fq0ARAVd7dPZI-Uo?authuser=0&hl=tr&rclk=1",
    "website_url": "",
    "rating_text": "4,6",
    "stars": null,
    "number_of_reviews": null,
    "price_level": "",
    "open_hours": "",
    "extraction_timestamp": "2025-06-07T13:59:52.270Z",
    "source_name": "google",
    "source_query": "Irrigation Equipment",
    "source_country": "BG",
    "country": "Bulgaria",
    "state": "Lovech Province",
    "city": "Lovech"
  },
  {
    "source_id": "ChIJr6p673Teq0AR7NZ7Vwqn2mI",
    "name": "Iron Fe -26 Coffee & Friends",
    "category": "Iron Fe -26 Coffee & Friends",
    "formatted_address": "4,5(878) · BGN 10–20",
    "phone_number": "+359877131466",
    "source_url": "https://www.google.com/maps/place/Iron+Fe+-26+Coffee+%26+Friends/data=!4m7!3m6!1s0x40abde74ef7aaaaf:0x62daa70a577bd6ec!8m2!3d43.1320844!4d24.7170144!16s%2Fg%2F11g878ymrd!19sChIJr6p673Teq0AR7NZ7Vwqn2mI?authuser=0&hl=tr&rclk=1",
    "website_url": "",
    "rating_text": "4,5",
    "stars": null,
    "number_of_reviews": null,
    "price_level": "",
    "open_hours": "",
    "extraction_timestamp": "2025-06-07T13:59:52.270Z",
    "source_name": "google",
    "source_query": "Irrigation Equipment",
    "source_country": "BG",
    "country": "Bulgaria",
    "state": "Lovech Province",
    "city": "Lovech"
  }
]
