[
  {
    "source_id": "ChIJDWIRqV-jq0AR_IEx9uaf8aU",
    "name": "Йови ГРУП ООД",
    "category": "Йови ГРУП ООД",
    "formatted_address": "4,9(115)",
    "phone_number": "+359890909377",
    "source_url": "https://www.google.com/maps/place/%D0%99%D0%BE%D0%B2%D0%B8+%D0%93%D0%A0%D0%A3%D0%9F+%D0%9E%D0%9E%D0%94/data=!4m7!3m6!1s0x40aba35fa911620d:0xa5f19fe6f63181fc!8m2!3d43.2037813!4d24.1658579!16s%2Fg%2F11f3bqbbxk!19sChIJDWIRqV-jq0AR_IEx9uaf8aU?authuser=0&hl=tr&rclk=1",
    "website_url": "",
    "rating_text": "4,9",
    "stars": null,
    "number_of_reviews": null,
    "price_level": "",
    "open_hours": "",
    "extraction_timestamp": "2025-06-07T13:58:55.995Z",
    "source_name": "google",
    "source_query": "Irrigation Equipment",
    "source_country": "BG",
    "country": "Bulgaria",
    "state": "Lovech Province",
    "city": "Lukovit"
  },
  {
    "source_id": "ChIJS8VabqCkq0ARVPG1S98E3Ag",
    "name": "Магазин за строителни материали “МОНЕВ БГ” ООД",
    "category": "Магазин за строителни материали “МОНЕВ БГ” ООД",
    "formatted_address": "4,7(86)",
    "phone_number": "+35969752251",
    "source_url": "https://www.google.com/maps/place/%D0%9C%D0%B0%D0%B3%D0%B0%D0%B7%D0%B8%D0%BD+%D0%B7%D0%B0+%D1%81%D1%82%D1%80%D0%BE%D0%B8%D1%82%D0%B5%D0%BB%D0%BD%D0%B8+%D0%BC%D0%B0%D1%82%D0%B5%D1%80%D0%B8%D0%B0%D0%BB%D0%B8+%E2%80%9C%D0%9C%D0%9E%D0%9D%D0%95%D0%92+%D0%91%D0%93%E2%80%9D+%D0%9E%D0%9E%D0%94/data=!4m7!3m6!1s0x40aba4a06e5ac54b:0x8dc04df4bb5f154!8m2!3d43.2017368!4d24.1631539!16s%2Fg%2F11b7q64kp1!19sChIJS8VabqCkq0ARVPG1S98E3Ag?authuser=0&hl=tr&rclk=1",
    "website_url": "",
    "rating_text": "4,7",
    "stars": null,
    "number_of_reviews": null,
    "price_level": "",
    "open_hours": "",
    "extraction_timestamp": "2025-06-07T13:58:55.996Z",
    "source_name": "google",
    "source_query": "Irrigation Equipment",
    "source_country": "BG",
    "country": "Bulgaria",
    "state": "Lovech Province",
    "city": "Lukovit"
  },
  {
    "source_id": "ChIJGXdzsV-jq0ARu1NM2MgaJhA",
    "name": "Zdravets",
    "category": "Zdravets",
    "formatted_address": "4,6(308)",
    "phone_number": "",
    "source_url": "https://www.google.com/maps/place/Zdravets/data=!4m7!3m6!1s0x40aba35fb1737719:0x10261ac8d84c53bb!8m2!3d43.2039656!4d24.1651556!16s%2Fg%2F1pzpj5xm_!19sChIJGXdzsV-jq0ARu1NM2MgaJhA?authuser=0&hl=tr&rclk=1",
    "website_url": "",
    "rating_text": "4,6",
    "stars": null,
    "number_of_reviews": null,
    "price_level": "",
    "open_hours": "",
    "extraction_timestamp": "2025-06-07T13:58:55.996Z",
    "source_name": "google",
    "source_query": "Irrigation Equipment",
    "source_country": "BG",
    "country": "Bulgaria",
    "state": "Lovech Province",
    "city": "Lukovit"
  },
  {
    "source_id": "ChIJ95WKZ9ajq0AR0d6M3LylyWw",
    "name": "ВиК Ловеч, район Луковит",
    "category": "ВиК Ловеч, район Луковит",
    "formatted_address": "ВиК Ловеч, район Луковит",
    "phone_number": "+359889404154",
    "source_url": "https://www.google.com/maps/place/%D0%92%D0%B8%D0%9A+%D0%9B%D0%BE%D0%B2%D0%B5%D1%87,+%D1%80%D0%B0%D0%B9%D0%BE%D0%BD+%D0%9B%D1%83%D0%BA%D0%BE%D0%B2%D0%B8%D1%82/data=!4m7!3m6!1s0x40aba3d6678a95f7:0x6cc9a5bcdc8cded1!8m2!3d43.2089342!4d24.1681244!16s%2Fg%2F11f8wm0m1w!19sChIJ95WKZ9ajq0AR0d6M3LylyWw?authuser=0&hl=tr&rclk=1",
    "website_url": "",
    "rating_text": "4,0",
    "stars": null,
    "number_of_reviews": null,
    "price_level": "",
    "open_hours": "",
    "extraction_timestamp": "2025-06-07T13:58:56.005Z",
    "source_name": "google",
    "source_query": "Irrigation Equipment",
    "source_country": "BG",
    "country": "Bulgaria",
    "state": "Lovech Province",
    "city": "Lukovit"
  },
  {
    "source_id": "ChIJ4yhZg12jq0ARJWXPfs8jHi8",
    "name": "Targovski Kompleks Inter",
    "category": "Targovski Kompleks Inter",
    "formatted_address": "4,1(345)",
    "phone_number": "+35969753444",
    "source_url": "https://www.google.com/maps/place/Targovski+Kompleks+Inter/data=!4m7!3m6!1s0x40aba35d835928e3:0x2f1e23cf7ecf6525!8m2!3d43.2067912!4d24.1654788!16s%2Fg%2F1tlvn0jv!19sChIJ4yhZg12jq0ARJWXPfs8jHi8?authuser=0&hl=tr&rclk=1",
    "website_url": "",
    "rating_text": "4,1",
    "stars": null,
    "number_of_reviews": null,
    "price_level": "",
    "open_hours": "",
    "extraction_timestamp": "2025-06-07T13:58:56.005Z",
    "source_name": "google",
    "source_query": "Irrigation Equipment",
    "source_country": "BG",
    "country": "Bulgaria",
    "state": "Lovech Province",
    "city": "Lukovit"
  },
  {
    "source_id": "ChIJCcZh8f2jq0AR3jCnntllMNY",
    "name": "CoShare Area",
    "category": "CoShare Area",
    "formatted_address": "4,9(53) · BGN 1–10",
    "phone_number": "",
    "source_url": "https://www.google.com/maps/place/CoShare+Area/data=!4m7!3m6!1s0x40aba3fdf161c609:0xd63065d99ea730de!8m2!3d43.2026126!4d24.1681017!16s%2Fg%2F11vzgmbjv8!19sChIJCcZh8f2jq0AR3jCnntllMNY?authuser=0&hl=tr&rclk=1",
    "website_url": "",
    "rating_text": "4,9",
    "stars": null,
    "number_of_reviews": null,
    "price_level": "",
    "open_hours": "",
    "extraction_timestamp": "2025-06-07T13:58:56.006Z",
    "source_name": "google",
    "source_query": "Irrigation Equipment",
    "source_country": "BG",
    "country": "Bulgaria",
    "state": "Lovech Province",
    "city": "Lukovit"
  },
  {
    "source_id": "ChIJtUlyIOClq0ARCpvulP626OY",
    "name": "Zlaten Park",
    "category": "Zlaten Park",
    "formatted_address": "4,8(4.132)",
    "phone_number": "",
    "source_url": "https://www.google.com/maps/place/Zlaten+Park/data=!4m7!3m6!1s0x40aba5e0207249b5:0xe6e8b6fe94ee9b0a!8m2!3d43.1992125!4d24.1578727!16s%2Fg%2F11kxkyb32l!19sChIJtUlyIOClq0ARCpvulP626OY?authuser=0&hl=tr&rclk=1",
    "website_url": "",
    "rating_text": "4,8",
    "stars": null,
    "number_of_reviews": null,
    "price_level": "",
    "open_hours": "",
    "extraction_timestamp": "2025-06-07T13:58:56.006Z",
    "source_name": "google",
    "source_query": "Irrigation Equipment",
    "source_country": "BG",
    "country": "Bulgaria",
    "state": "Lovech Province",
    "city": "Lukovit"
  },
  {
    "source_id": "ChIJA174L2mjq0ARAOPUV0_WeQM",
    "name": "Lidl",
    "category": "Lidl",
    "formatted_address": "4,4(1.877)",
    "phone_number": "+35929066444",
    "source_url": "https://www.google.com/maps/place/Lidl/data=!4m7!3m6!1s0x40aba3692ff85e03:0x379d64f57d4e300!8m2!3d43.2142725!4d24.1655062!16s%2Fg%2F1ydpvd4dx!19sChIJA174L2mjq0ARAOPUV0_WeQM?authuser=0&hl=tr&rclk=1",
    "website_url": "",
    "rating_text": "4,4",
    "stars": null,
    "number_of_reviews": null,
    "price_level": "",
    "open_hours": "",
    "extraction_timestamp": "2025-06-07T13:58:56.007Z",
    "source_name": "google",
    "source_query": "Irrigation Equipment",
    "source_country": "BG",
    "country": "Bulgaria",
    "state": "Lovech Province",
    "city": "Lukovit"
  },
  {
    "source_id": "ChIJidXAVqekq0ARDliqK9H-feo",
    "name": "DonSoft - CCTV, Alarms, Radio",
    "category": "DonSoft - CCTV, Alarms, Radio",
    "formatted_address": "DonSoft - CCTV, Alarms, Radio",
    "phone_number": "+359888819223",
    "source_url": "https://www.google.com/maps/place/DonSoft+-+CCTV,+Alarms,+Radio/data=!4m7!3m6!1s0x40aba4a756c0d589:0xea7dfed12baa580e!8m2!3d43.2018403!4d24.1675568!16s%2Fg%2F11b7yc94ll!19sChIJidXAVqekq0ARDliqK9H-feo?authuser=0&hl=tr&rclk=1",
    "website_url": "",
    "rating_text": "4,8",
    "stars": null,
    "number_of_reviews": null,
    "price_level": "",
    "open_hours": "",
    "extraction_timestamp": "2025-06-07T13:58:56.008Z",
    "source_name": "google",
    "source_query": "Irrigation Equipment",
    "source_country": "BG",
    "country": "Bulgaria",
    "state": "Lovech Province",
    "city": "Lukovit"
  },
  {
    "source_id": "ChIJ6ZeqK2ejq0AR_ug7dn401EQ",
    "name": "T MARKET",
    "category": "T MARKET",
    "formatted_address": "3,8(561)",
    "phone_number": "+35970070171",
    "source_url": "https://www.google.com/maps/place/T+MARKET/data=!4m7!3m6!1s0x40aba3672baa97e9:0x44d4347e763be8fe!8m2!3d43.2075637!4d24.1623973!16s%2Fg%2F11b5k79c5y!19sChIJ6ZeqK2ejq0AR_ug7dn401EQ?authuser=0&hl=tr&rclk=1",
    "website_url": "",
    "rating_text": "3,8",
    "stars": null,
    "number_of_reviews": null,
    "price_level": "",
    "open_hours": "",
    "extraction_timestamp": "2025-06-07T13:58:56.008Z",
    "source_name": "google",
    "source_query": "Irrigation Equipment",
    "source_country": "BG",
    "country": "Bulgaria",
    "state": "Lovech Province",
    "city": "Lukovit"
  },
  {
    "source_id": "ChIJj4TvGZmjq0ARlhWrbQ31d3U",
    "name": "Дончев Строй 90 ЕООД",
    "category": "Дончев Строй 90 ЕООД",
    "formatted_address": "Yapı Malzemeleri Mağazası · ул, Св.Св.Кирил и Методий 54Kapalı ⋅ Açılış zamanı: Paz 08:30 · +359 87 629 2908",
    "phone_number": "+359876292908",
    "source_url": "https://www.google.com/maps/place/%D0%94%D0%BE%D0%BD%D1%87%D0%B5%D0%B2+%D0%A1%D1%82%D1%80%D0%BE%D0%B9+90+%D0%95%D0%9E%D0%9E%D0%94/data=!4m7!3m6!1s0x40aba39919ef848f:0x7577f50d6dab1596!8m2!3d43.2039549!4d24.1712809!16s%2Fg%2F11hq7hv3h1!19sChIJj4TvGZmjq0ARlhWrbQ31d3U?authuser=0&hl=tr&rclk=1",
    "website_url": "",
    "rating_text": "",
    "stars": null,
    "number_of_reviews": null,
    "price_level": "",
    "open_hours": "",
    "extraction_timestamp": "2025-06-07T13:58:56.009Z",
    "source_name": "google",
    "source_query": "Irrigation Equipment",
    "source_country": "BG",
    "country": "Bulgaria",
    "state": "Lovech Province",
    "city": "Lukovit"
  },
  {
    "source_id": "ChIJKf__Nz6jq0ARN-pb8NhVHdk",
    "name": "Моят магазин Червенобрежкото",
    "category": "Моят магазин Червенобрежкото",
    "formatted_address": "4,6(46)",
    "phone_number": "+359878966077",
    "source_url": "https://www.google.com/maps/place/%D0%9C%D0%BE%D1%8F%D1%82+%D0%BC%D0%B0%D0%B3%D0%B0%D0%B7%D0%B8%D0%BD+%D0%A7%D0%B5%D1%80%D0%B2%D0%B5%D0%BD%D0%BE%D0%B1%D1%80%D0%B5%D0%B6%D0%BA%D0%BE%D1%82%D0%BE/data=!4m7!3m6!1s0x40aba33e37ffff29:0xd91d55d8f05bea37!8m2!3d43.2128933!4d24.1562608!16s%2Fg%2F11sfrq_0yw!19sChIJKf__Nz6jq0ARN-pb8NhVHdk?authuser=0&hl=tr&rclk=1",
    "website_url": "",
    "rating_text": "4,6",
    "stars": null,
    "number_of_reviews": null,
    "price_level": "",
    "open_hours": "",
    "extraction_timestamp": "2025-06-07T13:58:56.009Z",
    "source_name": "google",
    "source_query": "Irrigation Equipment",
    "source_country": "BG",
    "country": "Bulgaria",
    "state": "Lovech Province",
    "city": "Lukovit"
  },
  {
    "source_id": "ChIJ8dJ4Plmjq0ARzHVyYoWbyN0",
    "name": "Моят Магазин",
    "category": "Моят Магазин",
    "formatted_address": "4,4(93)",
    "phone_number": "+359887817474",
    "source_url": "https://www.google.com/maps/place/%D0%9C%D0%BE%D1%8F%D1%82+%D0%9C%D0%B0%D0%B3%D0%B0%D0%B7%D0%B8%D0%BD/data=!4m7!3m6!1s0x40aba3593e78d2f1:0xddc89b85627275cc!8m2!3d43.2040704!4d24.1712824!16s%2Fg%2F11cs0zrd0f!19sChIJ8dJ4Plmjq0ARzHVyYoWbyN0?authuser=0&hl=tr&rclk=1",
    "website_url": "",
    "rating_text": "4,4",
    "stars": null,
    "number_of_reviews": null,
    "price_level": "",
    "open_hours": "",
    "extraction_timestamp": "2025-06-07T13:58:56.009Z",
    "source_name": "google",
    "source_query": "Irrigation Equipment",
    "source_country": "BG",
    "country": "Bulgaria",
    "state": "Lovech Province",
    "city": "Lukovit"
  },
  {
    "source_id": "ChIJf3qbsiijq0AR6YVrwK6erVk",
    "name": "Бакалия Грънчаров",
    "category": "Бакалия Грънчаров",
    "formatted_address": "4,3(8)",
    "phone_number": "",
    "source_url": "https://www.google.com/maps/place/%D0%91%D0%B0%D0%BA%D0%B0%D0%BB%D0%B8%D1%8F+%D0%93%D1%80%D1%8A%D0%BD%D1%87%D0%B0%D1%80%D0%BE%D0%B2/data=!4m7!3m6!1s0x40aba328b29b7a7f:0x59ad9eaec06b85e9!8m2!3d43.2035255!4d24.1644133!16s%2Fg%2F11j4fn0d_0!19sChIJf3qbsiijq0AR6YVrwK6erVk?authuser=0&hl=tr&rclk=1",
    "website_url": "",
    "rating_text": "4,3",
    "stars": null,
    "number_of_reviews": null,
    "price_level": "",
    "open_hours": "",
    "extraction_timestamp": "2025-06-07T13:58:56.010Z",
    "source_name": "google",
    "source_query": "Irrigation Equipment",
    "source_country": "BG",
    "country": "Bulgaria",
    "state": "Lovech Province",
    "city": "Lukovit"
  },
  {
    "source_id": "ChIJ_eLbzF-jq0ARC_gi7ktRPlA",
    "name": "Breakfast Restaurant",
    "category": "Breakfast Restaurant",
    "formatted_address": "4,4(219) · BGN 1–10",
    "phone_number": "",
    "source_url": "https://www.google.com/maps/place/Breakfast+Restaurant/data=!4m7!3m6!1s0x40aba35fccdbe2fd:0x503e514bee22f80b!8m2!3d43.2045003!4d24.1643993!16s%2Fg%2F11f11p1xzd!19sChIJ_eLbzF-jq0ARC_gi7ktRPlA?authuser=0&hl=tr&rclk=1",
    "website_url": "",
    "rating_text": "4,4",
    "stars": null,
    "number_of_reviews": null,
    "price_level": "",
    "open_hours": "",
    "extraction_timestamp": "2025-06-07T13:58:56.010Z",
    "source_name": "google",
    "source_query": "Irrigation Equipment",
    "source_country": "BG",
    "country": "Bulgaria",
    "state": "Lovech Province",
    "city": "Lukovit"
  },
  {
    "source_id": "ChIJq6rqNl6jq0AR9lygh9qBl7k",
    "name": "Пазар Луковит",
    "category": "Пазар Луковит",
    "formatted_address": "5,0(4)",
    "phone_number": "",
    "source_url": "https://www.google.com/maps/place/%D0%9F%D0%B0%D0%B7%D0%B0%D1%80+%D0%9B%D1%83%D0%BA%D0%BE%D0%B2%D0%B8%D1%82/data=!4m7!3m6!1s0x40aba35e36eaaaab:0xb99781da87a05cf6!8m2!3d43.20476!4d24.1648773!16s%2Fg%2F11txv2044q!19sChIJq6rqNl6jq0AR9lygh9qBl7k?authuser=0&hl=tr&rclk=1",
    "website_url": "",
    "rating_text": "5,0",
    "stars": null,
    "number_of_reviews": null,
    "price_level": "",
    "open_hours": "",
    "extraction_timestamp": "2025-06-07T13:58:56.010Z",
    "source_name": "google",
    "source_query": "Irrigation Equipment",
    "source_country": "BG",
    "country": "Bulgaria",
    "state": "Lovech Province",
    "city": "Lukovit"
  },
  {
    "source_id": "ChIJrzicmOWjq0ARZZ94oGSZfcM",
    "name": "Магазин Табако Дринкс ЕООД",
    "category": "Магазин Табако Дринкс ЕООД",
    "formatted_address": "5,0(1)",
    "phone_number": "",
    "source_url": "https://www.google.com/maps/place/%D0%9C%D0%B0%D0%B3%D0%B0%D0%B7%D0%B8%D0%BD+%D0%A2%D0%B0%D0%B1%D0%B0%D0%BA%D0%BE+%D0%94%D1%80%D0%B8%D0%BD%D0%BA%D1%81+%D0%95%D0%9E%D0%9E%D0%94/data=!4m7!3m6!1s0x40aba3e5989c38af:0xc37d9964a0789f65!8m2!3d43.206222!4d24.1637067!16s%2Fg%2F11kqgtcq93!19sChIJrzicmOWjq0ARZZ94oGSZfcM?authuser=0&hl=tr&rclk=1",
    "website_url": "",
    "rating_text": "5,0",
    "stars": null,
    "number_of_reviews": null,
    "price_level": "",
    "open_hours": "",
    "extraction_timestamp": "2025-06-07T13:58:56.011Z",
    "source_name": "google",
    "source_query": "Irrigation Equipment",
    "source_country": "BG",
    "country": "Bulgaria",
    "state": "Lovech Province",
    "city": "Lukovit"
  },
  {
    "source_id": "ChIJy8Ge8lqjq0ARB6KIPoOde_U",
    "name": "Pet Store",
    "category": "Pet Store",
    "formatted_address": "5,0(9)",
    "phone_number": "",
    "source_url": "https://www.google.com/maps/place/Pet+Store/data=!4m7!3m6!1s0x40aba35af29ec1cb:0xf57b9d833e88a207!8m2!3d43.204625!4d24.1652991!16s%2Fg%2F11v0k_c1_c!19sChIJy8Ge8lqjq0ARB6KIPoOde_U?authuser=0&hl=tr&rclk=1",
    "website_url": "",
    "rating_text": "5,0",
    "stars": null,
    "number_of_reviews": null,
    "price_level": "",
    "open_hours": "",
    "extraction_timestamp": "2025-06-07T13:58:56.011Z",
    "source_name": "google",
    "source_query": "Irrigation Equipment",
    "source_country": "BG",
    "country": "Bulgaria",
    "state": "Lovech Province",
    "city": "Lukovit"
  },
  {
    "source_id": "ChIJy43P_16jq0ARcq4OcAORBuw",
    "name": "Брезент Индъстри",
    "category": "Брезент Индъстри",
    "formatted_address": "",
    "phone_number": "+359895627800",
    "source_url": "https://www.google.com/maps/place/%D0%91%D1%80%D0%B5%D0%B7%D0%B5%D0%BD%D1%82+%D0%98%D0%BD%D0%B4%D1%8A%D1%81%D1%82%D1%80%D0%B8/data=!4m7!3m6!1s0x40aba35effcf8dcb:0xec069103700eae72!8m2!3d43.2037494!4d24.1668579!16s%2Fg%2F11fp8zfl52!19sChIJy43P_16jq0ARcq4OcAORBuw?authuser=0&hl=tr&rclk=1",
    "website_url": "",
    "rating_text": "",
    "stars": null,
    "number_of_reviews": null,
    "price_level": "",
    "open_hours": "",
    "extraction_timestamp": "2025-06-07T13:58:56.011Z",
    "source_name": "google",
    "source_query": "Irrigation Equipment",
    "source_country": "BG",
    "country": "Bulgaria",
    "state": "Lovech Province",
    "city": "Lukovit"
  },
  {
    "source_id": "ChIJceqv6MuEqkAR45AXk38sGOE",
    "name": "Irrigation Systems",
    "category": "Irrigation Systems",
    "formatted_address": "4,4(10)",
    "phone_number": "+35928085001",
    "source_url": "https://www.google.com/maps/place/Irrigation+Systems/data=!4m7!3m6!1s0x40aa84cbe8afea71:0xe1182c7f931790e3!8m2!3d42.6700035!4d23.2681798!16s%2Fg%2F1thtbmsl!19sChIJceqv6MuEqkAR45AXk38sGOE?authuser=0&hl=tr&rclk=1",
    "website_url": "",
    "rating_text": "4,4",
    "stars": null,
    "number_of_reviews": null,
    "price_level": "",
    "open_hours": "",
    "extraction_timestamp": "2025-06-07T13:58:56.011Z",
    "source_name": "google",
    "source_query": "Irrigation Equipment",
    "source_country": "BG",
    "country": "Bulgaria",
    "state": "Lovech Province",
    "city": "Lukovit"
  },
  {
    "source_id": "ChIJXcMbDX-PqkARzdyEwqjpY7c",
    "name": "Железария \"Стоичков и синове\" ООД",
    "category": "Железария \"Стоичков и синове\" ООД",
    "formatted_address": "4,6(69)",
    "phone_number": "+359896689787",
    "source_url": "https://www.google.com/maps/place/%D0%96%D0%B5%D0%BB%D0%B5%D0%B7%D0%B0%D1%80%D0%B8%D1%8F+%22%D0%A1%D1%82%D0%BE%D0%B8%D1%87%D0%BA%D0%BE%D0%B2+%D0%B8+%D1%81%D0%B8%D0%BD%D0%BE%D0%B2%D0%B5%22+%D0%9E%D0%9E%D0%94/data=!4m7!3m6!1s0x40aa8f7f0d1bc35d:0xb763e9a8c284dccd!8m2!3d42.7064752!4d23.3514925!16s%2Fg%2F1q5bk_lz1!19sChIJXcMbDX-PqkARzdyEwqjpY7c?authuser=0&hl=tr&rclk=1",
    "website_url": "",
    "rating_text": "4,6",
    "stars": null,
    "number_of_reviews": null,
    "price_level": "",
    "open_hours": "",
    "extraction_timestamp": "2025-06-07T13:58:56.012Z",
    "source_name": "google",
    "source_query": "Irrigation Equipment",
    "source_country": "BG",
    "country": "Bulgaria",
    "state": "Lovech Province",
    "city": "Lukovit"
  },
  {
    "source_id": "ChIJn6KBuFoZq0ARnppIwt9eoQ4",
    "name": "Нелбо АД гр. Враца",
    "category": "Нелбо АД гр. Враца",
    "formatted_address": "4,8(25)",
    "phone_number": "+359882925832",
    "source_url": "https://www.google.com/maps/place/%D0%9D%D0%B5%D0%BB%D0%B1%D0%BE+%D0%90%D0%94+%D0%B3%D1%80.+%D0%92%D1%80%D0%B0%D1%86%D0%B0/data=!4m7!3m6!1s0x40ab195ab881a29f:0xea15edfc2489a9e!8m2!3d43.2035763!4d23.5550292!16s%2Fg%2F11pylk4bwc!19sChIJn6KBuFoZq0ARnppIwt9eoQ4?authuser=0&hl=tr&rclk=1",
    "website_url": "",
    "rating_text": "4,8",
    "stars": null,
    "number_of_reviews": null,
    "price_level": "",
    "open_hours": "",
    "extraction_timestamp": "2025-06-07T13:58:56.012Z",
    "source_name": "google",
    "source_query": "Irrigation Equipment",
    "source_country": "BG",
    "country": "Bulgaria",
    "state": "Lovech Province",
    "city": "Lukovit"
  },
  {
    "source_id": "ChIJVVVVFXmFqkARwplfuK9mz3w",
    "name": "Sortovi Semena - Sofia plc.",
    "category": "Sortovi Semena - Sofia plc.",
    "formatted_address": "4,3(267)",
    "phone_number": "+35929831393",
    "source_url": "https://www.google.com/maps/place/Sortovi+Semena+-+Sofia+plc./data=!4m7!3m6!1s0x40aa857915555555:0x7ccf66afb85f99c2!8m2!3d42.7044829!4d23.3347441!16s%2Fg%2F1pv2hzgtr!19sChIJVVVVFXmFqkARwplfuK9mz3w?authuser=0&hl=tr&rclk=1",
    "website_url": "",
    "rating_text": "4,3",
    "stars": null,
    "number_of_reviews": null,
    "price_level": "",
    "open_hours": "",
    "extraction_timestamp": "2025-06-07T13:58:56.012Z",
    "source_name": "google",
    "source_query": "Irrigation Equipment",
    "source_country": "BG",
    "country": "Bulgaria",
    "state": "Lovech Province",
    "city": "Lukovit"
  },
  {
    "source_id": "ChIJrWboJ1BXqkARniMQDhi5TFc",
    "name": "Pipelife Bulgaria Ltd",
    "category": "Pipelife Bulgaria Ltd",
    "formatted_address": "4,4(65)",
    "phone_number": "+359893551765",
    "source_url": "https://www.google.com/maps/place/Pipelife+Bulgaria+Ltd/data=!4m7!3m6!1s0x40aa575027e866ad:0x574cb9180e10239e!8m2!3d42.9153611!4d23.8068306!16s%2Fg%2F1tk1lh61!19sChIJrWboJ1BXqkARniMQDhi5TFc?authuser=0&hl=tr&rclk=1",
    "website_url": "",
    "rating_text": "4,4",
    "stars": null,
    "number_of_reviews": null,
    "price_level": "",
    "open_hours": "",
    "extraction_timestamp": "2025-06-07T13:58:56.013Z",
    "source_name": "google",
    "source_query": "Irrigation Equipment",
    "source_country": "BG",
    "country": "Bulgaria",
    "state": "Lovech Province",
    "city": "Lukovit"
  },
  {
    "source_id": "ChIJdxzt5LSIqkAR7EtmsrSCSSY",
    "name": "Romstal Bulgaria Ltd.",
    "category": "Romstal Bulgaria Ltd.",
    "formatted_address": "4,3(117)",
    "phone_number": "+35928920954",
    "source_url": "https://www.google.com/maps/place/Romstal+Bulgaria+Ltd./data=!4m7!3m6!1s0x40aa88b4e4ed1c77:0x264982b4b2664bec!8m2!3d42.7080367!4d23.4182063!16s%2Fg%2F1td9p0jf!19sChIJdxzt5LSIqkAR7EtmsrSCSSY?authuser=0&hl=tr&rclk=1",
    "website_url": "",
    "rating_text": "4,3",
    "stars": null,
    "number_of_reviews": null,
    "price_level": "",
    "open_hours": "",
    "extraction_timestamp": "2025-06-07T13:58:56.013Z",
    "source_name": "google",
    "source_query": "Irrigation Equipment",
    "source_country": "BG",
    "country": "Bulgaria",
    "state": "Lovech Province",
    "city": "Lukovit"
  },
  {
    "source_id": "ChIJ3yNvfPAYq0AR2vQ9-uxEDbw",
    "name": "Ineks Trade",
    "category": "Ineks Trade",
    "formatted_address": "4,5(225)",
    "phone_number": "+359878111297",
    "source_url": "https://www.google.com/maps/place/Ineks+Trade/data=!4m7!3m6!1s0x40ab18f07c6f23df:0xbc0d44ecfa3df4da!8m2!3d43.1960156!4d23.5735487!16s%2Fg%2F1vn9mlcb!19sChIJ3yNvfPAYq0AR2vQ9-uxEDbw?authuser=0&hl=tr&rclk=1",
    "website_url": "",
    "rating_text": "4,5",
    "stars": null,
    "number_of_reviews": null,
    "price_level": "",
    "open_hours": "",
    "extraction_timestamp": "2025-06-07T13:58:56.013Z",
    "source_name": "google",
    "source_query": "Irrigation Equipment",
    "source_country": "BG",
    "country": "Bulgaria",
    "state": "Lovech Province",
    "city": "Lukovit"
  },
  {
    "source_id": "ChIJZWMiJVFXqkARQgDFOLoABHE",
    "name": "Irrigation systems",
    "category": "Irrigation systems",
    "formatted_address": "3,0(1)",
    "phone_number": "",
    "source_url": "https://www.google.com/maps/place/Irrigation+systems/data=!4m7!3m6!1s0x40aa575125226365:0x710400ba38c50042!8m2!3d42.9101731!4d23.8037135!16s%2Fg%2F11g9f5s4_z!19sChIJZWMiJVFXqkARQgDFOLoABHE?authuser=0&hl=tr&rclk=1",
    "website_url": "",
    "rating_text": "3,0",
    "stars": null,
    "number_of_reviews": null,
    "price_level": "",
    "open_hours": "",
    "extraction_timestamp": "2025-06-07T13:58:56.014Z",
    "source_name": "google",
    "source_query": "Irrigation Equipment",
    "source_country": "BG",
    "country": "Bulgaria",
    "state": "Lovech Province",
    "city": "Lukovit"
  },
  {
    "source_id": "ChIJe0OJB8n5qkAREI86Stv3e2I",
    "name": "Hardware Store",
    "category": "Hardware Store",
    "formatted_address": "4,8(19)",
    "phone_number": "+359888015981",
    "source_url": "https://www.google.com/maps/place/Hardware+Store/data=!4m7!3m6!1s0x40aaf9c90789437b:0x627bf7db4a3a8f10!8m2!3d42.951911!4d23.6803646!16s%2Fg%2F11fmbkn8tg!19sChIJe0OJB8n5qkAREI86Stv3e2I?authuser=0&hl=tr&rclk=1",
    "website_url": "",
    "rating_text": "4,8",
    "stars": null,
    "number_of_reviews": null,
    "price_level": "",
    "open_hours": "",
    "extraction_timestamp": "2025-06-07T13:58:56.014Z",
    "source_name": "google",
    "source_query": "Irrigation Equipment",
    "source_country": "BG",
    "country": "Bulgaria",
    "state": "Lovech Province",
    "city": "Lukovit"
  },
  {
    "source_id": "ChIJg_sbmoePqkARJl6LjS5lyJE",
    "name": "STOITCHKOV AND SONS",
    "category": "STOITCHKOV AND SONS",
    "formatted_address": "4,9(161)",
    "phone_number": "+35929366161",
    "source_url": "https://www.google.com/maps/place/STOITCHKOV+AND+SONS/data=!4m7!3m6!1s0x40aa8f879a1bfb83:0x91c8652e8d8b5e26!8m2!3d42.7074085!4d23.3393578!16s%2Fg%2F1hc5yq4wp!19sChIJg_sbmoePqkARJl6LjS5lyJE?authuser=0&hl=tr&rclk=1",
    "website_url": "",
    "rating_text": "4,9",
    "stars": null,
    "number_of_reviews": null,
    "price_level": "",
    "open_hours": "",
    "extraction_timestamp": "2025-06-07T13:58:56.014Z",
    "source_name": "google",
    "source_query": "Irrigation Equipment",
    "source_country": "BG",
    "country": "Bulgaria",
    "state": "Lovech Province",
    "city": "Lukovit"
  }
]
