[
  {
    "source_id": "ChIJVXSb4tl-qUAR-FZbtU56igk",
    "name": "Магазин Велчевски - всичко за дома и строителството",
    "category": "Магазин Велчевски - всичко за дома и строителството",
    "formatted_address": "4,7(70)",
    "phone_number": "+359888690362",
    "source_url": "https://www.google.com/maps/place/%D0%9C%D0%B0%D0%B3%D0%B0%D0%B7%D0%B8%D0%BD+%D0%92%D0%B5%D0%BB%D1%87%D0%B5%D0%B2%D1%81%D0%BA%D0%B8+-+%D0%B2%D1%81%D0%B8%D1%87%D0%BA%D0%BE+%D0%B7%D0%B0+%D0%B4%D0%BE%D0%BC%D0%B0+%D0%B8+%D1%81%D1%82%D1%80%D0%BE%D0%B8%D1%82%D0%B5%D0%BB%D1%81%D1%82%D0%B2%D0%BE%D1%82%D0%BE/data=!4m7!3m6!1s0x40a97ed9e29b7455:0x98a7a4eb55b56f8!8m2!3d42.8929318!4d24.7115612!16s%2Fg%2F11c1vkgvs1!19sChIJVXSb4tl-qUAR-FZbtU56igk?authuser=0&hl=tr&rclk=1",
    "website_url": "",
    "rating_text": "4,7",
    "stars": null,
    "number_of_reviews": null,
    "price_level": "",
    "open_hours": "",
    "extraction_timestamp": "2025-06-07T13:58:37.160Z",
    "source_name": "google",
    "source_query": "Irrigation Equipment",
    "source_country": "BG",
    "country": "Bulgaria",
    "state": "Lovech Province",
    "city": "Troyan"
  },
  {
    "source_id": "ChIJ8-q9vFd_qUAREeK5trEu5HE",
    "name": "Construction materials Viva Ltd.",
    "category": "Construction materials Viva Ltd.",
    "formatted_address": "4,6(331)",
    "phone_number": "+359878915745",
    "source_url": "https://www.google.com/maps/place/Construction+materials+Viva+Ltd./data=!4m7!3m6!1s0x40a97f57bcbdeaf3:0x71e42eb1b6b9e211!8m2!3d42.8594645!4d24.6830137!16s%2Fg%2F11cry0lkvq!19sChIJ8-q9vFd_qUAREeK5trEu5HE?authuser=0&hl=tr&rclk=1",
    "website_url": "",
    "rating_text": "4,6",
    "stars": null,
    "number_of_reviews": null,
    "price_level": "",
    "open_hours": "",
    "extraction_timestamp": "2025-06-07T13:58:37.160Z",
    "source_name": "google",
    "source_query": "Irrigation Equipment",
    "source_country": "BG",
    "country": "Bulgaria",
    "state": "Lovech Province",
    "city": "Troyan"
  },
  {
    "source_id": "ChIJ7Szw79h-qUAR7nCmuGMAcsw",
    "name": "Kopa Hidrosistem",
    "category": "Kopa Hidrosistem",
    "formatted_address": "4,5(62)",
    "phone_number": "+35967062185",
    "source_url": "https://www.google.com/maps/place/Kopa+Hidrosistem/data=!4m7!3m6!1s0x40a97ed8eff02ced:0xcc720063b8a670ee!8m2!3d42.9258835!4d24.7017301!16s%2Fg%2F1tw_lr5b!19sChIJ7Szw79h-qUAR7nCmuGMAcsw?authuser=0&hl=tr&rclk=1",
    "website_url": "",
    "rating_text": "4,5",
    "stars": null,
    "number_of_reviews": null,
    "price_level": "",
    "open_hours": "",
    "extraction_timestamp": "2025-06-07T13:58:37.161Z",
    "source_name": "google",
    "source_query": "Irrigation Equipment",
    "source_country": "BG",
    "country": "Bulgaria",
    "state": "Lovech Province",
    "city": "Troyan"
  },
  {
    "source_id": "ChIJZcuBijZ5qUARynh2V-YzYCo",
    "name": "Корект ООД",
    "category": "Корект ООД",
    "formatted_address": "4,7(44)",
    "phone_number": "+359886840734",
    "source_url": "https://www.google.com/maps/place/%D0%9A%D0%BE%D1%80%D0%B5%D0%BA%D1%82+%D0%9E%D0%9E%D0%94/data=!4m7!3m6!1s0x40a979368a81cb65:0x2a6033e6577678ca!8m2!3d42.8988438!4d24.7407436!16s%2Fg%2F11f54mwcyd!19sChIJZcuBijZ5qUARynh2V-YzYCo?authuser=0&hl=tr&rclk=1",
    "website_url": "",
    "rating_text": "4,7",
    "stars": null,
    "number_of_reviews": null,
    "price_level": "",
    "open_hours": "",
    "extraction_timestamp": "2025-06-07T13:58:37.161Z",
    "source_name": "google",
    "source_query": "Irrigation Equipment",
    "source_country": "BG",
    "country": "Bulgaria",
    "state": "Lovech Province",
    "city": "Troyan"
  },
  {
    "source_id": "ChIJhR8UwzV_qUARrIFKGNIomAA",
    "name": "TeMax Троян",
    "category": "TeMax Троян",
    "formatted_address": "4,4(129)",
    "phone_number": "+35967092093",
    "source_url": "https://www.google.com/maps/place/TeMax+%D0%A2%D1%80%D0%BE%D1%8F%D0%BD/data=!4m7!3m6!1s0x40a97f35c3141f85:0x9828d2184a81ac!8m2!3d42.8917644!4d24.7175466!16s%2Fg%2F11shg7f6wj!19sChIJhR8UwzV_qUARrIFKGNIomAA?authuser=0&hl=tr&rclk=1",
    "website_url": "",
    "rating_text": "4,4",
    "stars": null,
    "number_of_reviews": null,
    "price_level": "",
    "open_hours": "",
    "extraction_timestamp": "2025-06-07T13:58:37.162Z",
    "source_name": "google",
    "source_query": "Irrigation Equipment",
    "source_country": "BG",
    "country": "Bulgaria",
    "state": "Lovech Province",
    "city": "Troyan"
  },
  {
    "source_id": "ChIJxYSAMs14qUARTdog8askwA4",
    "name": "TOPLIVO - Warehouse Troyan",
    "category": "TOPLIVO - Warehouse Troyan",
    "formatted_address": "3,9(61)",
    "phone_number": "+359878802024",
    "source_url": "https://www.google.com/maps/place/TOPLIVO+-+Warehouse+Troyan/data=!4m7!3m6!1s0x40a978cd328084c5:0xec024abf120da4d!8m2!3d42.8776931!4d24.7119731!16s%2Fg%2F11g8xg2dps!19sChIJxYSAMs14qUARTdog8askwA4?authuser=0&hl=tr&rclk=1",
    "website_url": "",
    "rating_text": "3,9",
    "stars": null,
    "number_of_reviews": null,
    "price_level": "",
    "open_hours": "",
    "extraction_timestamp": "2025-06-07T13:58:37.162Z",
    "source_name": "google",
    "source_query": "Irrigation Equipment",
    "source_country": "BG",
    "country": "Bulgaria",
    "state": "Lovech Province",
    "city": "Troyan"
  },
  {
    "source_id": "ChIJjXPFVCl_qUARPDr3iYCib4w",
    "name": "Стефан Вълев ЕООД",
    "category": "Стефан Вълев ЕООД",
    "formatted_address": "4,6(128)",
    "phone_number": "+359884045666",
    "source_url": "https://www.google.com/maps/place/%D0%A1%D1%82%D0%B5%D1%84%D0%B0%D0%BD+%D0%92%D1%8A%D0%BB%D0%B5%D0%B2+%D0%95%D0%9E%D0%9E%D0%94/data=!4m7!3m6!1s0x40a97f2954c5738d:0x8c6fa28089f73a3c!8m2!3d42.8963797!4d24.7148725!16s%2Fg%2F1tz6_x6s!19sChIJjXPFVCl_qUARPDr3iYCib4w?authuser=0&hl=tr&rclk=1",
    "website_url": "",
    "rating_text": "4,6",
    "stars": null,
    "number_of_reviews": null,
    "price_level": "",
    "open_hours": "",
    "extraction_timestamp": "2025-06-07T13:58:37.163Z",
    "source_name": "google",
    "source_query": "Irrigation Equipment",
    "source_country": "BG",
    "country": "Bulgaria",
    "state": "Lovech Province",
    "city": "Troyan"
  },
  {
    "source_id": "ChIJH8FIOm9_qUARmQh5AjaQqBw",
    "name": "Магазин и сервиз за колела Bike Center Троян",
    "category": "Магазин и сервиз за колела Bike Center Троян",
    "formatted_address": "4,9(32)",
    "phone_number": "+359889395695",
    "source_url": "https://www.google.com/maps/place/%D0%9C%D0%B0%D0%B3%D0%B0%D0%B7%D0%B8%D0%BD+%D0%B8+%D1%81%D0%B5%D1%80%D0%B2%D0%B8%D0%B7+%D0%B7%D0%B0+%D0%BA%D0%BE%D0%BB%D0%B5%D0%BB%D0%B0+Bike+Center+%D0%A2%D1%80%D0%BE%D1%8F%D0%BD/data=!4m7!3m6!1s0x40a97f6f3a48c11f:0x1ca8903602790899!8m2!3d42.8896299!4d24.7097117!16s%2Fg%2F11j8xgtycf!19sChIJH8FIOm9_qUARmQh5AjaQqBw?authuser=0&hl=tr&rclk=1",
    "website_url": "",
    "rating_text": "4,9",
    "stars": null,
    "number_of_reviews": null,
    "price_level": "",
    "open_hours": "",
    "extraction_timestamp": "2025-06-07T13:58:37.163Z",
    "source_name": "google",
    "source_query": "Irrigation Equipment",
    "source_country": "BG",
    "country": "Bulgaria",
    "state": "Lovech Province",
    "city": "Troyan"
  },
  {
    "source_id": "ChIJMZkujH5_qUARJJCVfjxyojo",
    "name": "Магазин за велосипеди и сервиз Hemus Bikes Троян",
    "category": "Магазин за велосипеди и сервиз Hemus Bikes Троян",
    "formatted_address": "4,9(54)",
    "phone_number": "+359888337814",
    "source_url": "https://www.google.com/maps/place/%D0%9C%D0%B0%D0%B3%D0%B0%D0%B7%D0%B8%D0%BD+%D0%B7%D0%B0+%D0%B2%D0%B5%D0%BB%D0%BE%D1%81%D0%B8%D0%BF%D0%B5%D0%B4%D0%B8+%D0%B8+%D1%81%D0%B5%D1%80%D0%B2%D0%B8%D0%B7+Hemus+Bikes+%D0%A2%D1%80%D0%BE%D1%8F%D0%BD/data=!4m7!3m6!1s0x40a97f7e8c2e9931:0x3aa2723c7e959024!8m2!3d42.8847912!4d24.7123448!16s%2Fg%2F11ftbkrqr6!19sChIJMZkujH5_qUARJJCVfjxyojo?authuser=0&hl=tr&rclk=1",
    "website_url": "",
    "rating_text": "4,9",
    "stars": null,
    "number_of_reviews": null,
    "price_level": "",
    "open_hours": "",
    "extraction_timestamp": "2025-06-07T13:58:37.163Z",
    "source_name": "google",
    "source_query": "Irrigation Equipment",
    "source_country": "BG",
    "country": "Bulgaria",
    "state": "Lovech Province",
    "city": "Troyan"
  },
  {
    "source_id": "ChIJU74IDC1_qUARi51OZRKGM6c",
    "name": "Life Supermarket",
    "category": "Life Supermarket",
    "formatted_address": "4,3(1.942)",
    "phone_number": "+35967091001",
    "source_url": "https://www.google.com/maps/place/Life+Supermarket/data=!4m7!3m6!1s0x40a97f2d0c08be53:0xa7338612654e9d8b!8m2!3d42.8758621!4d24.7125473!16s%2Fg%2F11dz56czrf!19sChIJU74IDC1_qUARi51OZRKGM6c?authuser=0&hl=tr&rclk=1",
    "website_url": "",
    "rating_text": "4,3",
    "stars": null,
    "number_of_reviews": null,
    "price_level": "",
    "open_hours": "",
    "extraction_timestamp": "2025-06-07T13:58:37.164Z",
    "source_name": "google",
    "source_query": "Irrigation Equipment",
    "source_country": "BG",
    "country": "Bulgaria",
    "state": "Lovech Province",
    "city": "Troyan"
  },
  {
    "source_id": "ChIJhz8jJ9Z-qUAR4yvymM1xCzs",
    "name": "Little Market",
    "category": "Little Market",
    "formatted_address": "4,4(879)",
    "phone_number": "",
    "source_url": "https://www.google.com/maps/place/Little+Market/data=!4m7!3m6!1s0x40a97ed627233f87:0x3b0b71cd98f22be3!8m2!3d42.8888521!4d24.7127664!16s%2Fg%2F11dfq92p12!19sChIJhz8jJ9Z-qUAR4yvymM1xCzs?authuser=0&hl=tr&rclk=1",
    "website_url": "",
    "rating_text": "4,4",
    "stars": null,
    "number_of_reviews": null,
    "price_level": "",
    "open_hours": "",
    "extraction_timestamp": "2025-06-07T13:58:37.165Z",
    "source_name": "google",
    "source_query": "Irrigation Equipment",
    "source_country": "BG",
    "country": "Bulgaria",
    "state": "Lovech Province",
    "city": "Troyan"
  },
  {
    "source_id": "ChIJBfgmFsp4qUARQKN8He_YOrI",
    "name": "Market \"Lagat\"",
    "category": "Market \"Lagat\"",
    "formatted_address": "4,1(772)",
    "phone_number": "",
    "source_url": "https://www.google.com/maps/place/Market+%22Lagat%22/data=!4m7!3m6!1s0x40a978ca1626f805:0xb23ad8ef1d7ca340!8m2!3d42.8711283!4d24.7123175!16s%2Fg%2F11c5rt1f1l!19sChIJBfgmFsp4qUARQKN8He_YOrI?authuser=0&hl=tr&rclk=1",
    "website_url": "",
    "rating_text": "4,1",
    "stars": null,
    "number_of_reviews": null,
    "price_level": "",
    "open_hours": "",
    "extraction_timestamp": "2025-06-07T13:58:37.165Z",
    "source_name": "google",
    "source_query": "Irrigation Equipment",
    "source_country": "BG",
    "country": "Bulgaria",
    "state": "Lovech Province",
    "city": "Troyan"
  },
  {
    "source_id": "ChIJt7nFVCl_qUARp50eOYa0NeQ",
    "name": "T Market",
    "category": "T Market",
    "formatted_address": "3,7(966)",
    "phone_number": "+35970070171",
    "source_url": "https://www.google.com/maps/place/T+Market/data=!4m7!3m6!1s0x40a97f2954c5b9b7:0xe435b486391e9da7!8m2!3d42.8849997!4d24.7146639!16s%2Fg%2F12j14d1r_!19sChIJt7nFVCl_qUARp50eOYa0NeQ?authuser=0&hl=tr&rclk=1",
    "website_url": "",
    "rating_text": "3,7",
    "stars": null,
    "number_of_reviews": null,
    "price_level": "",
    "open_hours": "",
    "extraction_timestamp": "2025-06-07T13:58:37.166Z",
    "source_name": "google",
    "source_query": "Irrigation Equipment",
    "source_country": "BG",
    "country": "Bulgaria",
    "state": "Lovech Province",
    "city": "Troyan"
  },
  {
    "source_id": "ChIJLYBt_St_qUARJ-3m9RKMnvk",
    "name": "ФИРМЕН МАГАЗИН \"ВИНПРОМ - ТРОЯН\"",
    "category": "ФИРМЕН МАГАЗИН \"ВИНПРОМ - ТРОЯН\"",
    "formatted_address": "4,8(75)",
    "phone_number": "+359877370335",
    "source_url": "https://www.google.com/maps/place/%D0%A4%D0%98%D0%A0%D0%9C%D0%95%D0%9D+%D0%9C%D0%90%D0%93%D0%90%D0%97%D0%98%D0%9D+%22%D0%92%D0%98%D0%9D%D0%9F%D0%A0%D0%9E%D0%9C+-+%D0%A2%D0%A0%D0%9E%D0%AF%D0%9D%22/data=!4m7!3m6!1s0x40a97f2bfd6d802d:0xf99e8c12f5e6ed27!8m2!3d42.8866806!4d24.7123933!16s%2Fg%2F11bwqgbl1t!19sChIJLYBt_St_qUARJ-3m9RKMnvk?authuser=0&hl=tr&rclk=1",
    "website_url": "",
    "rating_text": "4,8",
    "stars": null,
    "number_of_reviews": null,
    "price_level": "",
    "open_hours": "",
    "extraction_timestamp": "2025-06-07T13:58:37.166Z",
    "source_name": "google",
    "source_query": "Irrigation Equipment",
    "source_country": "BG",
    "country": "Bulgaria",
    "state": "Lovech Province",
    "city": "Troyan"
  },
  {
    "source_id": "ChIJPTHT6it_qUARNYSVsVHuzZM",
    "name": "Obshtinski Pazari",
    "category": "Obshtinski Pazari",
    "formatted_address": "4,2(240)",
    "phone_number": "+359879816292",
    "source_url": "https://www.google.com/maps/place/Obshtinski+Pazari/data=!4m7!3m6!1s0x40a97f2bead3313d:0x93cdee51b1958435!8m2!3d42.8847062!4d24.7134805!16s%2Fg%2F1tgjjsq4!19sChIJPTHT6it_qUARNYSVsVHuzZM?authuser=0&hl=tr&rclk=1",
    "website_url": "",
    "rating_text": "4,2",
    "stars": null,
    "number_of_reviews": null,
    "price_level": "",
    "open_hours": "",
    "extraction_timestamp": "2025-06-07T13:58:37.167Z",
    "source_name": "google",
    "source_query": "Irrigation Equipment",
    "source_country": "BG",
    "country": "Bulgaria",
    "state": "Lovech Province",
    "city": "Troyan"
  },
  {
    "source_id": "ChIJbfRNywN5qUARqjcmoBUFgGc",
    "name": "ЕТ Елка Ковачева - железария",
    "category": "ЕТ Елка Ковачева - железария",
    "formatted_address": "5,0(3)",
    "phone_number": "",
    "source_url": "https://www.google.com/maps/place/%D0%95%D0%A2+%D0%95%D0%BB%D0%BA%D0%B0+%D0%9A%D0%BE%D0%B2%D0%B0%D1%87%D0%B5%D0%B2%D0%B0+-+%D0%B6%D0%B5%D0%BB%D0%B5%D0%B7%D0%B0%D1%80%D0%B8%D1%8F/data=!4m7!3m6!1s0x40a97903cb4df46d:0x67800515a02637aa!8m2!3d42.8715381!4d24.7128336!16s%2Fg%2F11mp56n5n9!19sChIJbfRNywN5qUARqjcmoBUFgGc?authuser=0&hl=tr&rclk=1",
    "website_url": "",
    "rating_text": "5,0",
    "stars": null,
    "number_of_reviews": null,
    "price_level": "",
    "open_hours": "",
    "extraction_timestamp": "2025-06-07T13:58:37.167Z",
    "source_name": "google",
    "source_query": "Irrigation Equipment",
    "source_country": "BG",
    "country": "Bulgaria",
    "state": "Lovech Province",
    "city": "Troyan"
  },
  {
    "source_id": "ChIJARFx24Z_qUARaFCjo4cBP5o",
    "name": "Магазин за хр.стоки\"Магап\" grocery store",
    "category": "Магазин за хр.стоки\"Магап\" grocery store",
    "formatted_address": "4,5(23)",
    "phone_number": "+359884005262",
    "source_url": "https://www.google.com/maps/place/%D0%9C%D0%B0%D0%B3%D0%B0%D0%B7%D0%B8%D0%BD+%D0%B7%D0%B0+%D1%85%D1%80.%D1%81%D1%82%D0%BE%D0%BA%D0%B8%22%D0%9C%D0%B0%D0%B3%D0%B0%D0%BF%22+grocery+store/data=!4m7!3m6!1s0x40a97f86db711101:0x9a3f0187a3a35068!8m2!3d42.892019!4d24.703!16s%2Fg%2F11rfs8wl1g!19sChIJARFx24Z_qUARaFCjo4cBP5o?authuser=0&hl=tr&rclk=1",
    "website_url": "",
    "rating_text": "4,5",
    "stars": null,
    "number_of_reviews": null,
    "price_level": "",
    "open_hours": "",
    "extraction_timestamp": "2025-06-07T13:58:37.167Z",
    "source_name": "google",
    "source_query": "Irrigation Equipment",
    "source_country": "BG",
    "country": "Bulgaria",
    "state": "Lovech Province",
    "city": "Troyan"
  },
  {
    "source_id": "ChIJ2_J4BJ5_qUARnRZ9l2Ew9QU",
    "name": "Техномаркет Троян",
    "category": "Техномаркет Троян",
    "formatted_address": "4,2(96)",
    "phone_number": "+359882589975",
    "source_url": "https://www.google.com/maps/place/%D0%A2%D0%B5%D1%85%D0%BD%D0%BE%D0%BC%D0%B0%D1%80%D0%BA%D0%B5%D1%82+%D0%A2%D1%80%D0%BE%D1%8F%D0%BD/data=!4m7!3m6!1s0x40a97f9e0478f2db:0x5f53061977d169d!8m2!3d42.8915634!4d24.7160625!16s%2Fg%2F11rd8rcplm!19sChIJ2_J4BJ5_qUARnRZ9l2Ew9QU?authuser=0&hl=tr&rclk=1",
    "website_url": "",
    "rating_text": "4,2",
    "stars": null,
    "number_of_reviews": null,
    "price_level": "",
    "open_hours": "",
    "extraction_timestamp": "2025-06-07T13:58:37.167Z",
    "source_name": "google",
    "source_query": "Irrigation Equipment",
    "source_country": "BG",
    "country": "Bulgaria",
    "state": "Lovech Province",
    "city": "Troyan"
  },
  {
    "source_id": "ChIJneo2pqV_qUAR2N6soxkBlb0",
    "name": "Хлебоизкусителница Троян",
    "category": "Хлебоизкусителница Троян",
    "formatted_address": "5,0(42)",
    "phone_number": "+359889647474",
    "source_url": "https://www.google.com/maps/place/%D0%A5%D0%BB%D0%B5%D0%B1%D0%BE%D0%B8%D0%B7%D0%BA%D1%83%D1%81%D0%B8%D1%82%D0%B5%D0%BB%D0%BD%D0%B8%D1%86%D0%B0+%D0%A2%D1%80%D0%BE%D1%8F%D0%BD/data=!4m7!3m6!1s0x40a97fa5a636ea9d:0xbd950119a3acded8!8m2!3d42.8628944!4d24.6942923!16s%2Fg%2F11rcgv_1sz!19sChIJneo2pqV_qUAR2N6soxkBlb0?authuser=0&hl=tr&rclk=1",
    "website_url": "",
    "rating_text": "5,0",
    "stars": null,
    "number_of_reviews": null,
    "price_level": "",
    "open_hours": "",
    "extraction_timestamp": "2025-06-07T13:58:37.168Z",
    "source_name": "google",
    "source_query": "Irrigation Equipment",
    "source_country": "BG",
    "country": "Bulgaria",
    "state": "Lovech Province",
    "city": "Troyan"
  },
  {
    "source_id": "ChIJ4VIMvCp_qUARVARBNnPdkZ0",
    "name": "магазин \"Лесидрен\"",
    "category": "магазин \"Лесидрен\"",
    "formatted_address": "4,2(36)",
    "phone_number": "+359885336228",
    "source_url": "https://www.google.com/maps/place/%D0%BC%D0%B0%D0%B3%D0%B0%D0%B7%D0%B8%D0%BD+%22%D0%9B%D0%B5%D1%81%D0%B8%D0%B4%D1%80%D0%B5%D0%BD%22/data=!4m7!3m6!1s0x40a97f2abc0c52e1:0x9d91dd7336410454!8m2!3d42.889257!4d24.7134721!16s%2Fg%2F11g4dtp96g!19sChIJ4VIMvCp_qUARVARBNnPdkZ0?authuser=0&hl=tr&rclk=1",
    "website_url": "",
    "rating_text": "4,2",
    "stars": null,
    "number_of_reviews": null,
    "price_level": "",
    "open_hours": "",
    "extraction_timestamp": "2025-06-07T13:58:37.168Z",
    "source_name": "google",
    "source_query": "Irrigation Equipment",
    "source_country": "BG",
    "country": "Bulgaria",
    "state": "Lovech Province",
    "city": "Troyan"
  },
  {
    "source_id": "ChIJjxZjtQV_qUARL_EyFAmooDA",
    "name": "Супермаркет Родопа Троян Център",
    "category": "Супермаркет Родопа Троян Център",
    "formatted_address": "4,2(15)",
    "phone_number": "+359879030046",
    "source_url": "https://www.google.com/maps/place/%D0%A1%D1%83%D0%BF%D0%B5%D1%80%D0%BC%D0%B0%D1%80%D0%BA%D0%B5%D1%82+%D0%A0%D0%BE%D0%B4%D0%BE%D0%BF%D0%B0+%D0%A2%D1%80%D0%BE%D1%8F%D0%BD+%D0%A6%D0%B5%D0%BD%D1%82%D1%8A%D1%80/data=!4m7!3m6!1s0x40a97f05b563168f:0x30a0a8091432f12f!8m2!3d42.8880135!4d24.7128839!16s%2Fg%2F11f7p9vnds!19sChIJjxZjtQV_qUARL_EyFAmooDA?authuser=0&hl=tr&rclk=1",
    "website_url": "",
    "rating_text": "4,2",
    "stars": null,
    "number_of_reviews": null,
    "price_level": "",
    "open_hours": "",
    "extraction_timestamp": "2025-06-07T13:58:37.169Z",
    "source_name": "google",
    "source_query": "Irrigation Equipment",
    "source_country": "BG",
    "country": "Bulgaria",
    "state": "Lovech Province",
    "city": "Troyan"
  },
  {
    "source_id": "ChIJv87bkHN_qUARlnwrH2z7xYg",
    "name": "Zoomania Megastore",
    "category": "Zoomania Megastore",
    "formatted_address": "4,3(20)",
    "phone_number": "+359884723491",
    "source_url": "https://www.google.com/maps/place/Zoomania+Megastore/data=!4m7!3m6!1s0x40a97f7390dbcebf:0x88c5fb6c1f2b7c96!8m2!3d42.891585!4d24.7170593!16s%2Fg%2F11v6532j7k!19sChIJv87bkHN_qUARlnwrH2z7xYg?authuser=0&hl=tr&rclk=1",
    "website_url": "",
    "rating_text": "4,3",
    "stars": null,
    "number_of_reviews": null,
    "price_level": "",
    "open_hours": "",
    "extraction_timestamp": "2025-06-07T13:58:37.169Z",
    "source_name": "google",
    "source_query": "Irrigation Equipment",
    "source_country": "BG",
    "country": "Bulgaria",
    "state": "Lovech Province",
    "city": "Troyan"
  },
  {
    "source_id": "ChIJ8dOsl4p5qUARor_fnaaCxGM",
    "name": "ПИТИЕПРОДАВНИЦА - \"ВИНПРОМ - ТРОЯН\", Орешак",
    "category": "ПИТИЕПРОДАВНИЦА - \"ВИНПРОМ - ТРОЯН\", Орешак",
    "formatted_address": "ПИТИЕПРОДАВНИЦА - \"ВИНПРОМ - ТРОЯН\", Орешак",
    "phone_number": "+359884194494",
    "source_url": "https://www.google.com/maps/place/%D0%9F%D0%98%D0%A2%D0%98%D0%95%D0%9F%D0%A0%D0%9E%D0%94%D0%90%D0%92%D0%9D%D0%98%D0%A6%D0%90+-+%22%D0%92%D0%98%D0%9D%D0%9F%D0%A0%D0%9E%D0%9C+-+%D0%A2%D0%A0%D0%9E%D0%AF%D0%9D%22,+%D0%9E%D1%80%D0%B5%D1%88%D0%B0%D0%BA/data=!4m7!3m6!1s0x40a9798a97acd3f1:0x63c482a69ddfbfa2!8m2!3d42.8627756!4d24.7814692!16s%2Fg%2F11s2r9pssn!19sChIJ8dOsl4p5qUARor_fnaaCxGM?authuser=0&hl=tr&rclk=1",
    "website_url": "",
    "rating_text": "5,0",
    "stars": null,
    "number_of_reviews": null,
    "price_level": "",
    "open_hours": "",
    "extraction_timestamp": "2025-06-07T13:58:37.169Z",
    "source_name": "google",
    "source_query": "Irrigation Equipment",
    "source_country": "BG",
    "country": "Bulgaria",
    "state": "Lovech Province",
    "city": "Troyan"
  },
  {
    "source_id": "ChIJO7aU1DR_qUAR2mgrsY-jAys",
    "name": "EXTRAMARKET",
    "category": "EXTRAMARKET",
    "formatted_address": "4,3(74)",
    "phone_number": "+359988952565",
    "source_url": "https://www.google.com/maps/place/EXTRAMARKET/data=!4m7!3m6!1s0x40a97f34d494b63b:0x2b03a38fb12b68da!8m2!3d42.8735607!4d24.7081906!16s%2Fg%2F11b6gqndxl!19sChIJO7aU1DR_qUAR2mgrsY-jAys?authuser=0&hl=tr&rclk=1",
    "website_url": "",
    "rating_text": "4,3",
    "stars": null,
    "number_of_reviews": null,
    "price_level": "",
    "open_hours": "",
    "extraction_timestamp": "2025-06-07T13:58:37.170Z",
    "source_name": "google",
    "source_query": "Irrigation Equipment",
    "source_country": "BG",
    "country": "Bulgaria",
    "state": "Lovech Province",
    "city": "Troyan"
  },
  {
    "source_id": "ChIJN5De3mx_qUAR9ZnfyFXo6Ao",
    "name": "Lidl",
    "category": "Lidl",
    "formatted_address": "4,4(915)",
    "phone_number": "+35929066444",
    "source_url": "https://www.google.com/maps/place/Lidl/data=!4m7!3m6!1s0x40a97f6cdede9037:0xae8e855c8df99f5!8m2!3d42.89178!4d24.71541!16s%2Fg%2F11r8mbk75c!19sChIJN5De3mx_qUAR9ZnfyFXo6Ao?authuser=0&hl=tr&rclk=1",
    "website_url": "",
    "rating_text": "4,4",
    "stars": null,
    "number_of_reviews": null,
    "price_level": "",
    "open_hours": "",
    "extraction_timestamp": "2025-06-07T13:58:37.170Z",
    "source_name": "google",
    "source_query": "Irrigation Equipment",
    "source_country": "BG",
    "country": "Bulgaria",
    "state": "Lovech Province",
    "city": "Troyan"
  },
  {
    "source_id": "ChIJa2cz2wV5qUARaXoGct38ui4",
    "name": "Супер маркет Слънце",
    "category": "Супер маркет Слънце",
    "formatted_address": "4,1(42)",
    "phone_number": "",
    "source_url": "https://www.google.com/maps/place/%D0%A1%D1%83%D0%BF%D0%B5%D1%80+%D0%BC%D0%B0%D1%80%D0%BA%D0%B5%D1%82+%D0%A1%D0%BB%D1%8A%D0%BD%D1%86%D0%B5/data=!4m7!3m6!1s0x40a97905db33676b:0x2ebafcdd72067a69!8m2!3d42.8946225!4d24.7495846!16s%2Fg%2F11t1dsf02c!19sChIJa2cz2wV5qUARaXoGct38ui4?authuser=0&hl=tr&rclk=1",
    "website_url": "",
    "rating_text": "4,1",
    "stars": null,
    "number_of_reviews": null,
    "price_level": "",
    "open_hours": "",
    "extraction_timestamp": "2025-06-07T13:58:37.170Z",
    "source_name": "google",
    "source_query": "Irrigation Equipment",
    "source_country": "BG",
    "country": "Bulgaria",
    "state": "Lovech Province",
    "city": "Troyan"
  },
  {
    "source_id": "ChIJD2H4SdZ-qUARFGbLeRP-Oo0",
    "name": "Зоомагазин Зоомаркет",
    "category": "Зоомагазин Зоомаркет",
    "formatted_address": "4,6(20)",
    "phone_number": "+359894734849",
    "source_url": "https://www.google.com/maps/place/%D0%97%D0%BE%D0%BE%D0%BC%D0%B0%D0%B3%D0%B0%D0%B7%D0%B8%D0%BD+%D0%97%D0%BE%D0%BE%D0%BC%D0%B0%D1%80%D0%BA%D0%B5%D1%82/data=!4m7!3m6!1s0x40a97ed649f8610f:0x8d3afe1379cb6614!8m2!3d42.889945!4d24.7127438!16s%2Fg%2F11g9vwcjk4!19sChIJD2H4SdZ-qUARFGbLeRP-Oo0?authuser=0&hl=tr&rclk=1",
    "website_url": "",
    "rating_text": "4,6",
    "stars": null,
    "number_of_reviews": null,
    "price_level": "",
    "open_hours": "",
    "extraction_timestamp": "2025-06-07T13:58:37.171Z",
    "source_name": "google",
    "source_query": "Irrigation Equipment",
    "source_country": "BG",
    "country": "Bulgaria",
    "state": "Lovech Province",
    "city": "Troyan"
  }
]
