[
  {
    "source_id": "ChIJiUF0pgcTLRURgp55jfTfLrI",
    "name": "BAŞARANLAR İNŞAAT MARKET",
    "category": "BAŞARANLAR İNŞAAT MARKET",
    "formatted_address": "4,9(19)",
    "phone_number": "+903445118493",
    "source_url": "https://www.google.com/maps/place/BA%C5%9EARANLAR+%C4%B0N%C5%9EAAT+MARKET/data=!4m7!3m6!1s0x152d1307a6744189:0xb22edff48d799e82!8m2!3d38.2497377!4d36.9130093!16s%2Fg%2F11gh2v_p6_!19sChIJiUF0pgcTLRURgp55jfTfLrI?authuser=0&hl=tr&rclk=1",
    "website_url": "http://www.basaranlarinsaatmarket.com/",
    "rating_text": "4,9",
    "stars": null,
    "number_of_reviews": null,
    "price_level": "",
    "open_hours": "",
    "extraction_timestamp": "2025-06-07T14:45:24.600Z",
    "source_name": "google",
    "source_query": "Irrigation Equipment",
    "source_country": "TR",
    "country": "Turkey",
    "state": "Kahramanmaraş",
    "city": "Afşin"
  },
  {
    "source_id": "ChIJA7-Kn1ETLRUR30t3llApUcg",
    "name": "Atlas yapı market Kahramanmaraş",
    "category": "Atlas yapı market Kahramanmaraş",
    "formatted_address": "5,0(2)",
    "phone_number": "+905334880429",
    "source_url": "https://www.google.com/maps/place/Atlas+yap%C4%B1+market+Kahramanmara%C5%9F/data=!4m7!3m6!1s0x152d13519f8abf03:0xc851295096774bdf!8m2!3d38.2292284!4d36.9489518!16s%2Fg%2F11r6_147q4!19sChIJA7-Kn1ETLRUR30t3llApUcg?authuser=0&hl=tr&rclk=1",
    "website_url": "",
    "rating_text": "5,0",
    "stars": null,
    "number_of_reviews": null,
    "price_level": "",
    "open_hours": "",
    "extraction_timestamp": "2025-06-07T14:45:24.601Z",
    "source_name": "google",
    "source_query": "Irrigation Equipment",
    "source_country": "TR",
    "country": "Turkey",
    "state": "Kahramanmaraş",
    "city": "Afşin"
  },
  {
    "source_id": "ChIJW0-o_8ITLRURF2Du2YF37MY",
    "name": "Ak-Su Arıtma",
    "category": "Ak-Su Arıtma",
    "formatted_address": "3,0(2)",
    "phone_number": "+905360353009",
    "source_url": "https://www.google.com/maps/place/Ak-Su+Ar%C4%B1tma/data=!4m7!3m6!1s0x152d13c2ffa84f5b:0xc6ec7781d9ee6017!8m2!3d38.2445154!4d36.9118246!16s%2Fg%2F11ky8zvwh_!19sChIJW0-o_8ITLRURF2Du2YF37MY?authuser=0&hl=tr&rclk=1",
    "website_url": "",
    "rating_text": "3,0",
    "stars": null,
    "number_of_reviews": null,
    "price_level": "",
    "open_hours": "",
    "extraction_timestamp": "2025-06-07T14:45:24.601Z",
    "source_name": "google",
    "source_query": "Irrigation Equipment",
    "source_country": "TR",
    "country": "Turkey",
    "state": "Kahramanmaraş",
    "city": "Afşin"
  },
  {
    "source_id": "ChIJWRy9eZ0_LRURUh-nG3baEZk",
    "name": "Afşin-Elbistan-Göksun Endüstriyel Zemin, Saha, Tabla Beton",
    "category": "Afşin-Elbistan-Göksun Endüstriyel Zemin, Saha, Tabla Beton",
    "formatted_address": "Afşin-Elbistan-Göksun Endüstriyel Zemin, Saha, Tabla Beton",
    "phone_number": "+905448731221",
    "source_url": "https://www.google.com/maps/place/Af%C5%9Fin-Elbistan-G%C3%B6ksun+End%C3%BCstriyel+Zemin,+Saha,+Tabla+Beton/data=!4m7!3m6!1s0x152d3f9d79bd1c59:0x9911da761ba71f52!8m2!3d38.2421011!4d36.9262969!16s%2Fg%2F11lm2nt32p!19sChIJWRy9eZ0_LRURUh-nG3baEZk?authuser=0&hl=tr&rclk=1",
    "website_url": "",
    "rating_text": "",
    "stars": null,
    "number_of_reviews": null,
    "price_level": "",
    "open_hours": "",
    "extraction_timestamp": "2025-06-07T14:45:24.602Z",
    "source_name": "google",
    "source_query": "Irrigation Equipment",
    "source_country": "TR",
    "country": "Turkey",
    "state": "Kahramanmaraş",
    "city": "Afşin"
  },
  {
    "source_id": "ChIJNQER8gif2kMR9K0aSsF9iys",
    "name": "mert tesisat afşin",
    "category": "mert tesisat afşin",
    "formatted_address": "3,0(2)",
    "phone_number": "+905434307449",
    "source_url": "https://www.google.com/maps/place/mert+tesisat+af%C5%9Fin/data=!4m7!3m6!1s0x43da9f08f2110135:0x2b8b7dc14a1aadf4!8m2!3d38.247243!4d36.915289!16s%2Fg%2F11l1cbyjr9!19sChIJNQER8gif2kMR9K0aSsF9iys?authuser=0&hl=tr&rclk=1",
    "website_url": "",
    "rating_text": "3,0",
    "stars": null,
    "number_of_reviews": null,
    "price_level": "",
    "open_hours": "",
    "extraction_timestamp": "2025-06-07T14:45:24.603Z",
    "source_name": "google",
    "source_query": "Irrigation Equipment",
    "source_country": "TR",
    "country": "Turkey",
    "state": "Kahramanmaraş",
    "city": "Afşin"
  }
]
