[
  {
    "source_id": "ChIJD8RhP7ibLhURjj95UXZa1ic",
    "name": "Andırın Dogadan / Drone zirai ilaçlama drone",
    "category": "Andırın Dogadan / Drone zirai ilaçlama drone",
    "formatted_address": "5,0(14)",
    "phone_number": "+905355073577",
    "source_url": "https://www.google.com/maps/place/And%C4%B1r%C4%B1n+Dogadan+%2F+Drone+zirai+ila%C3%A7lama+drone/data=!4m7!3m6!1s0x152e9bb83f61c40f:0x27d65a7651793f8e!8m2!3d37.572958!4d36.360329!16s%2Fg%2F11sm8x31nz!19sChIJD8RhP7ibLhURjj95UXZa1ic?authuser=0&hl=tr&rclk=1",
    "website_url": "",
    "rating_text": "5,0",
    "stars": null,
    "number_of_reviews": null,
    "price_level": "",
    "open_hours": "",
    "extraction_timestamp": "2025-06-07T14:45:33.148Z",
    "source_name": "google",
    "source_query": "Irrigation Equipment",
    "source_country": "TR",
    "country": "Turkey",
    "state": "Kahramanmaraş",
    "city": "Andırın"
  },
  {
    "source_id": "ChIJz-423FvXLRURae78LNBCVUI",
    "name": "Garden Drip Damlama Sulama Sistemleri",
    "category": "Garden Drip Damlama Sulama Sistemleri",
    "formatted_address": "",
    "phone_number": "+905395057912",
    "source_url": "https://www.google.com/maps/place/Garden+Drip+Damlama+Sulama+Sistemleri/data=!4m7!3m6!1s0x152dd75bdc36eecf:0x425542d02cfcee69!8m2!3d37.6004466!4d36.7549441!16s%2Fg%2F11lyy_g86g!19sChIJz-423FvXLRURae78LNBCVUI?authuser=0&hl=tr&rclk=1",
    "website_url": "https://gardendrip.com/",
    "rating_text": "",
    "stars": null,
    "number_of_reviews": null,
    "price_level": "",
    "open_hours": "",
    "extraction_timestamp": "2025-06-07T14:45:33.150Z",
    "source_name": "google",
    "source_query": "Irrigation Equipment",
    "source_country": "TR",
    "country": "Turkey",
    "state": "Kahramanmaraş",
    "city": "Andırın"
  },
  {
    "source_id": "ChIJy2gaGc3bLRURUxWyzfko5nc",
    "name": "AYDIN TARIM&PEYZAJ",
    "category": "AYDIN TARIM&PEYZAJ",
    "formatted_address": "5,0(10)",
    "phone_number": "+905458957458",
    "source_url": "https://www.google.com/maps/place/AYDIN+TARIM%26PEYZAJ/data=!4m7!3m6!1s0x152ddbcd191a68cb:0x77e628f9cdb21553!8m2!3d37.5889317!4d36.8561749!16s%2Fg%2F11x18hk_dj!19sChIJy2gaGc3bLRURUxWyzfko5nc?authuser=0&hl=tr&rclk=1",
    "website_url": "https://www.instagram.com/aydin_tarim_peyzaj/",
    "rating_text": "5,0",
    "stars": null,
    "number_of_reviews": null,
    "price_level": "",
    "open_hours": "",
    "extraction_timestamp": "2025-06-07T14:45:33.151Z",
    "source_name": "google",
    "source_query": "Irrigation Equipment",
    "source_country": "TR",
    "country": "Turkey",
    "state": "Kahramanmaraş",
    "city": "Andırın"
  },
  {
    "source_id": "ChIJtTn73hqbLhURnArPW_cv4Sc",
    "name": "Daloğlu Market",
    "category": "Daloğlu Market",
    "formatted_address": "",
    "phone_number": "+905346030571",
    "source_url": "https://www.google.com/maps/place/Dalo%C4%9Flu+Market/data=!4m7!3m6!1s0x152e9b1adefb39b5:0x27e12ff75bcf0a9c!8m2!3d37.572379!4d36.352071!16s%2Fg%2F11pdrwhghh!19sChIJtTn73hqbLhURnArPW_cv4Sc?authuser=0&hl=tr&rclk=1",
    "website_url": "",
    "rating_text": "",
    "stars": null,
    "number_of_reviews": null,
    "price_level": "",
    "open_hours": "",
    "extraction_timestamp": "2025-06-07T14:45:33.152Z",
    "source_name": "google",
    "source_query": "Irrigation Equipment",
    "source_country": "TR",
    "country": "Turkey",
    "state": "Kahramanmaraş",
    "city": "Andırın"
  },
  {
    "source_id": "ChIJOzeDCISZLhURx5FSZDcWUFU",
    "name": "Şok Market",
    "category": "Şok Market",
    "formatted_address": "3,4(16)",
    "phone_number": "",
    "source_url": "https://www.google.com/maps/place/%C5%9Eok+Market/data=!4m7!3m6!1s0x152e99840883373b:0x55501637645291c7!8m2!3d37.5768401!4d36.3511236!16s%2Fg%2F11hzph34fg!19sChIJOzeDCISZLhURx5FSZDcWUFU?authuser=0&hl=tr&rclk=1",
    "website_url": "https://kurumsal.sokmarket.com.tr/?utm_source=GMB&utm_medium=315&utm_campaign=magazayonlendirme",
    "rating_text": "3,4",
    "stars": null,
    "number_of_reviews": null,
    "price_level": "",
    "open_hours": "",
    "extraction_timestamp": "2025-06-07T14:45:33.152Z",
    "source_name": "google",
    "source_query": "Irrigation Equipment",
    "source_country": "TR",
    "country": "Turkey",
    "state": "Kahramanmaraş",
    "city": "Andırın"
  },
  {
    "source_id": "ChIJVVVVVd6bLhUReha5wvL8VE8",
    "name": "Andırın Belediyesi",
    "category": "Andırın Belediyesi",
    "formatted_address": "3,7(59)",
    "phone_number": "+903445612012",
    "source_url": "https://www.google.com/maps/place/And%C4%B1r%C4%B1n+Belediyesi/data=!4m7!3m6!1s0x152e9bde55555555:0x4f54fcf2c2b9167a!8m2!3d37.5759232!4d36.3489865!16s%2Fg%2F113hqz82w!19sChIJVVVVVd6bLhUReha5wvL8VE8?authuser=0&hl=tr&rclk=1",
    "website_url": "http://www.andirin.bel.tr/",
    "rating_text": "3,7",
    "stars": null,
    "number_of_reviews": null,
    "price_level": "",
    "open_hours": "",
    "extraction_timestamp": "2025-06-07T14:45:33.152Z",
    "source_name": "google",
    "source_query": "Irrigation Equipment",
    "source_country": "TR",
    "country": "Turkey",
    "state": "Kahramanmaraş",
    "city": "Andırın"
  },
  {
    "source_id": "ChIJCS3c1eabLhURONJId76z45o",
    "name": "A101",
    "category": "A101",
    "formatted_address": "3,8(51)",
    "phone_number": "+908508082101",
    "source_url": "https://www.google.com/maps/place/A101/data=!4m7!3m6!1s0x152e9be6d5dc2d09:0x9ae3b3be7748d238!8m2!3d37.5761!4d36.3495!16s%2Fg%2F11sq1kszw3!19sChIJCS3c1eabLhURONJId76z45o?authuser=0&hl=tr&rclk=1",
    "website_url": "",
    "rating_text": "3,8",
    "stars": null,
    "number_of_reviews": null,
    "price_level": "",
    "open_hours": "",
    "extraction_timestamp": "2025-06-07T14:45:33.153Z",
    "source_name": "google",
    "source_query": "Irrigation Equipment",
    "source_country": "TR",
    "country": "Turkey",
    "state": "Kahramanmaraş",
    "city": "Andırın"
  }
]
