[
  {
    "source_id": "ChIJG1L2kMJmLRURKxwh3yJM3Xs",
    "name": "AGRODAL TARIM KİMYA LTD. ŞTİ.",
    "category": "AGRODAL TARIM KİMYA LTD. ŞTİ.",
    "formatted_address": "4,8(34)",
    "phone_number": "+903444133525",
    "source_url": "https://www.google.com/maps/place/AGRODAL+TARIM+K%C4%B0MYA+LTD.+%C5%9ET%C4%B0./data=!4m7!3m6!1s0x152d66c290f6521b:0x7bdd4c22df211c2b!8m2!3d38.2018997!4d37.183483!16s%2Fg%2F11cnsb87rt!19sChIJG1L2kMJmLRURKxwh3yJM3Xs?authuser=0&hl=tr&rclk=1",
    "website_url": "",
    "rating_text": "4,8",
    "stars": null,
    "number_of_reviews": null,
    "price_level": "",
    "open_hours": "",
    "extraction_timestamp": "2025-06-07T14:46:01.422Z",
    "source_name": "google",
    "source_query": "Irrigation Equipment",
    "source_country": "TR",
    "country": "Turkey",
    "state": "Kahramanmaraş",
    "city": "Elbistan"
  },
  {
    "source_id": "ChIJ22Lrx2thLRURMawEf0UG9gw",
    "name": "BEYZA ISI SİSTEMLERİ Doğalgaz sıhhi tesisat",
    "category": "BEYZA ISI SİSTEMLERİ Doğalgaz sıhhi tesisat",
    "formatted_address": "5,0(6)",
    "phone_number": "+905362035528",
    "source_url": "https://www.google.com/maps/place/BEYZA+ISI+S%C4%B0STEMLER%C4%B0+Do%C4%9Falgaz+s%C4%B1hhi+tesisat/data=!4m7!3m6!1s0x152d616bc7eb62db:0xcf606457f04ac31!8m2!3d38.1948468!4d37.2233574!16s%2Fg%2F11vz016z6s!19sChIJ22Lrx2thLRURMawEf0UG9gw?authuser=0&hl=tr&rclk=1",
    "website_url": "",
    "rating_text": "5,0",
    "stars": null,
    "number_of_reviews": null,
    "price_level": "",
    "open_hours": "",
    "extraction_timestamp": "2025-06-07T14:46:01.427Z",
    "source_name": "google",
    "source_query": "Irrigation Equipment",
    "source_country": "TR",
    "country": "Turkey",
    "state": "Kahramanmaraş",
    "city": "Elbistan"
  },
  {
    "source_id": "ChIJ2QKYFnNnLRUR5R5k9Ghtr90",
    "name": "Elbistan su tesisatçısı cihazla kaçak su tespit tıkanıklık açma",
    "category": "Elbistan su tesisatçısı cihazla kaçak su tespit tıkanıklık açma",
    "formatted_address": "4,0(8)",
    "phone_number": "+905365718902",
    "source_url": "https://www.google.com/maps/place/Elbistan+su+tesisat%C3%A7%C4%B1s%C4%B1+cihazla+ka%C3%A7ak+su+tespit+t%C4%B1kan%C4%B1kl%C4%B1k+a%C3%A7ma/data=!4m7!3m6!1s0x152d6773169802d9:0xddaf6d68f4641ee5!8m2!3d38.2025976!4d37.1888919!16s%2Fg%2F11shlgblm4!19sChIJ2QKYFnNnLRUR5R5k9Ghtr90?authuser=0&hl=tr&rclk=1",
    "website_url": "",
    "rating_text": "4,0",
    "stars": null,
    "number_of_reviews": null,
    "price_level": "",
    "open_hours": "",
    "extraction_timestamp": "2025-06-07T14:46:01.428Z",
    "source_name": "google",
    "source_query": "Irrigation Equipment",
    "source_country": "TR",
    "country": "Turkey",
    "state": "Kahramanmaraş",
    "city": "Elbistan"
  },
  {
    "source_id": "ChIJb_j2m-5mLRURcAWBFcAhCxw",
    "name": "Eldas Mühendislik Elbistan, Elbistan Su arıtma cihazı",
    "category": "Eldas Mühendislik Elbistan, Elbistan Su arıtma cihazı",
    "formatted_address": "Eldas Mühendislik Elbistan, Elbistan Su arıtma cihazı",
    "phone_number": "+905536574646",
    "source_url": "https://www.google.com/maps/place/Eldas+M%C3%BChendislik+Elbistan,+Elbistan+Su+ar%C4%B1tma+cihaz%C4%B1/data=!4m7!3m6!1s0x152d66ee9bf6f86f:0x1c0b21c015810570!8m2!3d38.2003671!4d37.1997463!16s%2Fg%2F11hcflhghz!19sChIJb_j2m-5mLRURcAWBFcAhCxw?authuser=0&hl=tr&rclk=1",
    "website_url": "",
    "rating_text": "4,2",
    "stars": null,
    "number_of_reviews": null,
    "price_level": "",
    "open_hours": "",
    "extraction_timestamp": "2025-06-07T14:46:01.428Z",
    "source_name": "google",
    "source_query": "Irrigation Equipment",
    "source_country": "TR",
    "country": "Turkey",
    "state": "Kahramanmaraş",
    "city": "Elbistan"
  },
  {
    "source_id": "ChIJecRRaMJmLRURT5gfkOXsaW0",
    "name": "Çınar Mağazası",
    "category": "Çınar Mağazası",
    "formatted_address": "5,0(70)",
    "phone_number": "+905053534463",
    "source_url": "https://www.google.com/maps/place/%C3%87%C4%B1nar+Ma%C4%9Fazas%C4%B1/data=!4m7!3m6!1s0x152d66c26851c479:0x6d69ece5901f984f!8m2!3d38.2027808!4d37.1892648!16s%2Fg%2F11fy_dbycj!19sChIJecRRaMJmLRURT5gfkOXsaW0?authuser=0&hl=tr&rclk=1",
    "website_url": "",
    "rating_text": "5,0",
    "stars": null,
    "number_of_reviews": null,
    "price_level": "",
    "open_hours": "",
    "extraction_timestamp": "2025-06-07T14:46:01.429Z",
    "source_name": "google",
    "source_query": "Irrigation Equipment",
    "source_country": "TR",
    "country": "Turkey",
    "state": "Kahramanmaraş",
    "city": "Elbistan"
  },
  {
    "source_id": "ChIJLcdFgrNnLRURipQHFLa_Ffk",
    "name": "DEMİR ISI",
    "category": "DEMİR ISI",
    "formatted_address": "5,0(20)",
    "phone_number": "+905541241846",
    "source_url": "https://www.google.com/maps/place/DEM%C4%B0R+ISI/data=!4m7!3m6!1s0x152d67b38245c72d:0xf915bfb61407948a!8m2!3d38.2004744!4d37.1849052!16s%2Fg%2F11fr2yv2j7!19sChIJLcdFgrNnLRURipQHFLa_Ffk?authuser=0&hl=tr&rclk=1",
    "website_url": "",
    "rating_text": "5,0",
    "stars": null,
    "number_of_reviews": null,
    "price_level": "",
    "open_hours": "",
    "extraction_timestamp": "2025-06-07T14:46:01.429Z",
    "source_name": "google",
    "source_query": "Irrigation Equipment",
    "source_country": "TR",
    "country": "Turkey",
    "state": "Kahramanmaraş",
    "city": "Elbistan"
  },
  {
    "source_id": "ChIJg5sbzStnLRURA8yxdOBtCUA",
    "name": "Depdep Ticaret Su",
    "category": "Depdep Ticaret Su",
    "formatted_address": "5,0(2)",
    "phone_number": "",
    "source_url": "https://www.google.com/maps/place/Depdep+Ticaret+Su/data=!4m7!3m6!1s0x152d672bcd1b9b83:0x40096de074b1cc03!8m2!3d38.1871617!4d37.1988495!16s%2Fg%2F11j4n8djvq!19sChIJg5sbzStnLRURA8yxdOBtCUA?authuser=0&hl=tr&rclk=1",
    "website_url": "",
    "rating_text": "5,0",
    "stars": null,
    "number_of_reviews": null,
    "price_level": "",
    "open_hours": "",
    "extraction_timestamp": "2025-06-07T14:46:01.430Z",
    "source_name": "google",
    "source_query": "Irrigation Equipment",
    "source_country": "TR",
    "country": "Turkey",
    "state": "Kahramanmaraş",
    "city": "Elbistan"
  },
  {
    "source_id": "ChIJacrLtulmLRURJWB6hF8qhBE",
    "name": "Aslan Isı Ticaret",
    "category": "Aslan Isı Ticaret",
    "formatted_address": "1,0(1)",
    "phone_number": "",
    "source_url": "https://www.google.com/maps/place/Aslan+Is%C4%B1+Ticaret/data=!4m7!3m6!1s0x152d66e9b6cbca69:0x11842a5f847a6025!8m2!3d38.2028163!4d37.1887012!16s%2Fg%2F11c1s0m2d0!19sChIJacrLtulmLRURJWB6hF8qhBE?authuser=0&hl=tr&rclk=1",
    "website_url": "",
    "rating_text": "1,0",
    "stars": null,
    "number_of_reviews": null,
    "price_level": "",
    "open_hours": "",
    "extraction_timestamp": "2025-06-07T14:46:01.430Z",
    "source_name": "google",
    "source_query": "Irrigation Equipment",
    "source_country": "TR",
    "country": "Turkey",
    "state": "Kahramanmaraş",
    "city": "Elbistan"
  },
  {
    "source_id": "ChIJZYe1W3VnLRUR0vuwXcsLn8c",
    "name": "BİLGİN ISI SU ARITMA SİSTEMLERİ BAKIM VE SATIŞ NOKTASI",
    "category": "BİLGİN ISI SU ARITMA SİSTEMLERİ BAKIM VE SATIŞ NOKTASI",
    "formatted_address": "5,0(6)",
    "phone_number": "+905424109931",
    "source_url": "https://www.google.com/maps/place/B%C4%B0LG%C4%B0N+ISI+SU+ARITMA+S%C4%B0STEMLER%C4%B0+BAKIM+VE+SATI%C5%9E+NOKTASI/data=!4m7!3m6!1s0x152d67755bb58765:0xc79f0bcb5db0fbd2!8m2!3d38.2029396!4d37.1944668!16s%2Fg%2F11h045sr8n!19sChIJZYe1W3VnLRUR0vuwXcsLn8c?authuser=0&hl=tr&rclk=1",
    "website_url": "",
    "rating_text": "5,0",
    "stars": null,
    "number_of_reviews": null,
    "price_level": "",
    "open_hours": "",
    "extraction_timestamp": "2025-06-07T14:46:01.430Z",
    "source_name": "google",
    "source_query": "Irrigation Equipment",
    "source_country": "TR",
    "country": "Turkey",
    "state": "Kahramanmaraş",
    "city": "Elbistan"
  },
  {
    "source_id": "ChIJyVtsU9tmLRUR_RP6SA-ZgVA",
    "name": "El-Su Yapi Market",
    "category": "El-Su Yapi Market",
    "formatted_address": "5,0(2)",
    "phone_number": "+903444131049",
    "source_url": "https://www.google.com/maps/place/El-Su+Yapi+Market/data=!4m7!3m6!1s0x152d66db536c5bc9:0x5081990f48fa13fd!8m2!3d38.2040056!4d37.1995432!16s%2Fg%2F11c57n2st1!19sChIJyVtsU9tmLRUR_RP6SA-ZgVA?authuser=0&hl=tr&rclk=1",
    "website_url": "",
    "rating_text": "5,0",
    "stars": null,
    "number_of_reviews": null,
    "price_level": "",
    "open_hours": "",
    "extraction_timestamp": "2025-06-07T14:46:01.431Z",
    "source_name": "google",
    "source_query": "Irrigation Equipment",
    "source_country": "TR",
    "country": "Turkey",
    "state": "Kahramanmaraş",
    "city": "Elbistan"
  },
  {
    "source_id": "ChIJQcr90ZVmLRURtf4uYtywtwA",
    "name": "Elbistan Su Deposu",
    "category": "Elbistan Su Deposu",
    "formatted_address": "5,0(1)",
    "phone_number": "",
    "source_url": "https://www.google.com/maps/place/Elbistan+Su+Deposu/data=!4m7!3m6!1s0x152d6695d1fdca41:0xb7b0dc622efeb5!8m2!3d38.192603!4d37.187844!16s%2Fg%2F11b7q8lrwc!19sChIJQcr90ZVmLRURtf4uYtywtwA?authuser=0&hl=tr&rclk=1",
    "website_url": "",
    "rating_text": "5,0",
    "stars": null,
    "number_of_reviews": null,
    "price_level": "",
    "open_hours": "",
    "extraction_timestamp": "2025-06-07T14:46:01.431Z",
    "source_name": "google",
    "source_query": "Irrigation Equipment",
    "source_country": "TR",
    "country": "Turkey",
    "state": "Kahramanmaraş",
    "city": "Elbistan"
  },
  {
    "source_id": "ChIJI8DGqrtnLRURtHBNi2VOv7k",
    "name": "İhlas Pazarlama Elbistan",
    "category": "İhlas Pazarlama Elbistan",
    "formatted_address": "1,0(2)",
    "phone_number": "+903445036688",
    "source_url": "https://www.google.com/maps/place/%C4%B0hlas+Pazarlama+Elbistan/data=!4m7!3m6!1s0x152d67bbaac6c023:0xb9bf4e658b4d70b4!8m2!3d38.2000395!4d37.194145!16s%2Fg%2F11tnm04dyd!19sChIJI8DGqrtnLRURtHBNi2VOv7k?authuser=0&hl=tr&rclk=1",
    "website_url": "",
    "rating_text": "1,0",
    "stars": null,
    "number_of_reviews": null,
    "price_level": "",
    "open_hours": "",
    "extraction_timestamp": "2025-06-07T14:46:01.431Z",
    "source_name": "google",
    "source_query": "Irrigation Equipment",
    "source_country": "TR",
    "country": "Turkey",
    "state": "Kahramanmaraş",
    "city": "Elbistan"
  },
  {
    "source_id": "ChIJ-66XM6tnLRUR5oQCv2Mige4",
    "name": "BUDAKOĞLU YAPI MARKET",
    "category": "BUDAKOĞLU YAPI MARKET",
    "formatted_address": "2,7(16)",
    "phone_number": "+905012347446",
    "source_url": "https://www.google.com/maps/place/BUDAKO%C4%9ELU+YAPI+MARKET/data=!4m7!3m6!1s0x152d67ab3397aefb:0xee812263bf0284e6!8m2!3d38.207867!4d37.1727304!16s%2Fg%2F11rtlbcbv9!19sChIJ-66XM6tnLRUR5oQCv2Mige4?authuser=0&hl=tr&rclk=1",
    "website_url": "",
    "rating_text": "2,7",
    "stars": null,
    "number_of_reviews": null,
    "price_level": "",
    "open_hours": "",
    "extraction_timestamp": "2025-06-07T14:46:01.432Z",
    "source_name": "google",
    "source_query": "Irrigation Equipment",
    "source_country": "TR",
    "country": "Turkey",
    "state": "Kahramanmaraş",
    "city": "Elbistan"
  },
  {
    "source_id": "ChIJM0NWaMJmLRURXraMQTaBpjU",
    "name": "İhlas Mağazası",
    "category": "İhlas Mağazası",
    "formatted_address": "5,0(2)",
    "phone_number": "",
    "source_url": "https://www.google.com/maps/place/%C4%B0hlas+Ma%C4%9Fazas%C4%B1/data=!4m7!3m6!1s0x152d66c268564333:0x35a68136418cb65e!8m2!3d38.2028131!4d37.1892182!16s%2Fg%2F11b7q4mrr1!19sChIJM0NWaMJmLRURXraMQTaBpjU?authuser=0&hl=tr&rclk=1",
    "website_url": "",
    "rating_text": "5,0",
    "stars": null,
    "number_of_reviews": null,
    "price_level": "",
    "open_hours": "",
    "extraction_timestamp": "2025-06-07T14:46:01.433Z",
    "source_name": "google",
    "source_query": "Irrigation Equipment",
    "source_country": "TR",
    "country": "Turkey",
    "state": "Kahramanmaraş",
    "city": "Elbistan"
  },
  {
    "source_id": "ChIJrQ1dlqpnLRURP67IHrJklNs",
    "name": "Hanifi yazıcı",
    "category": "Hanifi yazıcı",
    "formatted_address": "5,0(1)",
    "phone_number": "",
    "source_url": "https://www.google.com/maps/place/Hanifi+yaz%C4%B1c%C4%B1/data=!4m7!3m6!1s0x152d67aa965d0dad:0xdb9464b21ec8ae3f!8m2!3d38.2018566!4d37.1920533!16s%2Fg%2F11g1y18ky1!19sChIJrQ1dlqpnLRURP67IHrJklNs?authuser=0&hl=tr&rclk=1",
    "website_url": "",
    "rating_text": "5,0",
    "stars": null,
    "number_of_reviews": null,
    "price_level": "",
    "open_hours": "",
    "extraction_timestamp": "2025-06-07T14:46:01.433Z",
    "source_name": "google",
    "source_query": "Irrigation Equipment",
    "source_country": "TR",
    "country": "Turkey",
    "state": "Kahramanmaraş",
    "city": "Elbistan"
  },
  {
    "source_id": "ChIJ8-YaYcJmLRURzOlIO8xdfsI",
    "name": "KEÇEBİR DTM BOSCH BAYİİ",
    "category": "KEÇEBİR DTM BOSCH BAYİİ",
    "formatted_address": "4,1(16)",
    "phone_number": "+903444130642",
    "source_url": "https://www.google.com/maps/place/KE%C3%87EB%C4%B0R+DTM+BOSCH+BAY%C4%B0%C4%B0/data=!4m7!3m6!1s0x152d66c2611ae6f3:0xc27e5dcc3b48e9cc!8m2!3d38.2015861!4d37.1915943!16s%2Fg%2F11h0z31l9!19sChIJ8-YaYcJmLRURzOlIO8xdfsI?authuser=0&hl=tr&rclk=1",
    "website_url": "",
    "rating_text": "4,1",
    "stars": null,
    "number_of_reviews": null,
    "price_level": "",
    "open_hours": "",
    "extraction_timestamp": "2025-06-07T14:46:01.434Z",
    "source_name": "google",
    "source_query": "Irrigation Equipment",
    "source_country": "TR",
    "country": "Turkey",
    "state": "Kahramanmaraş",
    "city": "Elbistan"
  },
  {
    "source_id": "ChIJwfw22sNmLRURKt1tXnG4nWE",
    "name": "SEZER TİCARET",
    "category": "SEZER TİCARET",
    "formatted_address": "4,4(37)",
    "phone_number": "+903444131430",
    "source_url": "https://www.google.com/maps/place/SEZER+T%C4%B0CARET/data=!4m7!3m6!1s0x152d66c3da36fcc1:0x619db8715e6ddd2a!8m2!3d38.1995931!4d37.1935841!16s%2Fg%2F11b7q8_82s!19sChIJwfw22sNmLRURKt1tXnG4nWE?authuser=0&hl=tr&rclk=1",
    "website_url": "",
    "rating_text": "4,4",
    "stars": null,
    "number_of_reviews": null,
    "price_level": "",
    "open_hours": "",
    "extraction_timestamp": "2025-06-07T14:46:01.434Z",
    "source_name": "google",
    "source_query": "Irrigation Equipment",
    "source_country": "TR",
    "country": "Turkey",
    "state": "Kahramanmaraş",
    "city": "Elbistan"
  },
  {
    "source_id": "ChIJMSoCPeVmLRURL4V6hhFyws0",
    "name": "Elbistan Kuş & Balık Evi",
    "category": "Elbistan Kuş & Balık Evi",
    "formatted_address": "4,5(45)",
    "phone_number": "",
    "source_url": "https://www.google.com/maps/place/Elbistan+Ku%C5%9F+%26+Bal%C4%B1k+Evi/data=!4m7!3m6!1s0x152d66e53d022a31:0xcdc27211867a852f!8m2!3d38.199094!4d37.1918489!16s%2Fg%2F11g6mwhy64!19sChIJMSoCPeVmLRURL4V6hhFyws0?authuser=0&hl=tr&rclk=1",
    "website_url": "",
    "rating_text": "4,5",
    "stars": null,
    "number_of_reviews": null,
    "price_level": "",
    "open_hours": "",
    "extraction_timestamp": "2025-06-07T14:46:01.435Z",
    "source_name": "google",
    "source_query": "Irrigation Equipment",
    "source_country": "TR",
    "country": "Turkey",
    "state": "Kahramanmaraş",
    "city": "Elbistan"
  },
  {
    "source_id": "ChIJP1tzZ7ZnLRURaU60bjK5pBQ",
    "name": "Sefa Gross",
    "category": "Sefa Gross",
    "formatted_address": "3,6(50)",
    "phone_number": "",
    "source_url": "https://www.google.com/maps/place/Sefa+Gross/data=!4m7!3m6!1s0x152d67b667735b3f:0x14a4b9326eb44e69!8m2!3d38.1749841!4d37.2059479!16s%2Fg%2F11r3wh4wdh!19sChIJP1tzZ7ZnLRURaU60bjK5pBQ?authuser=0&hl=tr&rclk=1",
    "website_url": "",
    "rating_text": "3,6",
    "stars": null,
    "number_of_reviews": null,
    "price_level": "",
    "open_hours": "",
    "extraction_timestamp": "2025-06-07T14:46:01.435Z",
    "source_name": "google",
    "source_query": "Irrigation Equipment",
    "source_country": "TR",
    "country": "Turkey",
    "state": "Kahramanmaraş",
    "city": "Elbistan"
  },
  {
    "source_id": "ChIJzQL7lutmLRURhffQjQ8t_NE",
    "name": "Elbistan Uğur Elektrik Sondaj Mak.İnş.Tar.Ürün.San. Ve .Tic.Ltd.Şti.",
    "category": "Elbistan Uğur Elektrik Sondaj Mak.İnş.Tar.Ürün.San. Ve .Tic.Ltd.Şti.",
    "formatted_address": "4,8(23)",
    "phone_number": "+903444136935",
    "source_url": "https://www.google.com/maps/place/Elbistan+U%C4%9Fur+Elektrik+Sondaj+Mak.%C4%B0n%C5%9F.Tar.%C3%9Cr%C3%BCn.San.+Ve+.Tic.Ltd.%C5%9Eti./data=!4m7!3m6!1s0x152d66eb96fb02cd:0xd1fc2d0f8dd0f785!8m2!3d38.2030706!4d37.1248364!16s%2Fg%2F11c3k2v5nj!19sChIJzQL7lutmLRURhffQjQ8t_NE?authuser=0&hl=tr&rclk=1",
    "website_url": "",
    "rating_text": "4,8",
    "stars": null,
    "number_of_reviews": null,
    "price_level": "",
    "open_hours": "",
    "extraction_timestamp": "2025-06-07T14:46:01.435Z",
    "source_name": "google",
    "source_query": "Irrigation Equipment",
    "source_country": "TR",
    "country": "Turkey",
    "state": "Kahramanmaraş",
    "city": "Elbistan"
  },
  {
    "source_id": "ChIJs5y1y8NmLRUR7si8rFSFyic",
    "name": "Öz Yıldırımlar",
    "category": "Öz Yıldırımlar",
    "formatted_address": "5,0(2)",
    "phone_number": "+903444120065",
    "source_url": "https://www.google.com/maps/place/%C3%96z+Y%C4%B1ld%C4%B1r%C4%B1mlar/data=!4m7!3m6!1s0x152d66c3cbb59cb3:0x27ca8554acbcc8ee!8m2!3d38.2002486!4d37.1931798!16s%2Fg%2F1ptxn77x1!19sChIJs5y1y8NmLRUR7si8rFSFyic?authuser=0&hl=tr&rclk=1",
    "website_url": "",
    "rating_text": "5,0",
    "stars": null,
    "number_of_reviews": null,
    "price_level": "",
    "open_hours": "",
    "extraction_timestamp": "2025-06-07T14:46:01.436Z",
    "source_name": "google",
    "source_query": "Irrigation Equipment",
    "source_country": "TR",
    "country": "Turkey",
    "state": "Kahramanmaraş",
    "city": "Elbistan"
  },
  {
    "source_id": "ChIJR41OD31nLRURAuKmXeaus9E",
    "name": "Admin internet kafe",
    "category": "Admin internet kafe",
    "formatted_address": "4,6(39)",
    "phone_number": "+905444684644",
    "source_url": "https://www.google.com/maps/place/Admin+internet+kafe/data=!4m7!3m6!1s0x152d677d0f4e8d47:0xd1b3aee65da6e202!8m2!3d38.2015445!4d37.1943932!16s%2Fg%2F11j9czv9mz!19sChIJR41OD31nLRURAuKmXeaus9E?authuser=0&hl=tr&rclk=1",
    "website_url": "",
    "rating_text": "4,6",
    "stars": null,
    "number_of_reviews": null,
    "price_level": "",
    "open_hours": "",
    "extraction_timestamp": "2025-06-07T14:46:01.436Z",
    "source_name": "google",
    "source_query": "Irrigation Equipment",
    "source_country": "TR",
    "country": "Turkey",
    "state": "Kahramanmaraş",
    "city": "Elbistan"
  },
  {
    "source_id": "ChIJpVVH_ltnLRURPnapvpUEEsM",
    "name": "Migros M",
    "category": "Migros M",
    "formatted_address": "4,1(17)",
    "phone_number": "",
    "source_url": "https://www.google.com/maps/place/Migros+M/data=!4m7!3m6!1s0x152d675bfe4755a5:0xc3120495bea9763e!8m2!3d38.1987586!4d37.1862397!16s%2Fg%2F11v9slsgdj!19sChIJpVVH_ltnLRURPnapvpUEEsM?authuser=0&hl=tr&rclk=1",
    "website_url": "",
    "rating_text": "4,1",
    "stars": null,
    "number_of_reviews": null,
    "price_level": "",
    "open_hours": "",
    "extraction_timestamp": "2025-06-07T14:46:01.436Z",
    "source_name": "google",
    "source_query": "Irrigation Equipment",
    "source_country": "TR",
    "country": "Turkey",
    "state": "Kahramanmaraş",
    "city": "Elbistan"
  },
  {
    "source_id": "ChIJ_6zwZMJmLRURmufa7FM8_M4",
    "name": "Bosch-kral Kardeşler",
    "category": "Bosch-kral Kardeşler",
    "formatted_address": "5,0(4)",
    "phone_number": "",
    "source_url": "https://www.google.com/maps/place/Bosch-kral+Karde%C5%9Fler/data=!4m7!3m6!1s0x152d66c264f0acff:0xcefc3c53ecdae79a!8m2!3d38.2020084!4d37.1910314!16s%2Fg%2F11b7p_mvm4!19sChIJ_6zwZMJmLRURmufa7FM8_M4?authuser=0&hl=tr&rclk=1",
    "website_url": "",
    "rating_text": "5,0",
    "stars": null,
    "number_of_reviews": null,
    "price_level": "",
    "open_hours": "",
    "extraction_timestamp": "2025-06-07T14:46:01.437Z",
    "source_name": "google",
    "source_query": "Irrigation Equipment",
    "source_country": "TR",
    "country": "Turkey",
    "state": "Kahramanmaraş",
    "city": "Elbistan"
  },
  {
    "source_id": "ChIJkyuKP75nLRURfO1TV31SwCc",
    "name": "Kılıçlar ısı",
    "category": "Kılıçlar ısı",
    "formatted_address": "",
    "phone_number": "+905442285821",
    "source_url": "https://www.google.com/maps/place/K%C4%B1l%C4%B1%C3%A7lar+%C4%B1s%C4%B1/data=!4m7!3m6!1s0x152d67be3f8a2b93:0x27c0527d5753ed7c!8m2!3d38.1999009!4d37.186958!16s%2Fg%2F11vt75sfm4!19sChIJkyuKP75nLRURfO1TV31SwCc?authuser=0&hl=tr&rclk=1",
    "website_url": "",
    "rating_text": "",
    "stars": null,
    "number_of_reviews": null,
    "price_level": "",
    "open_hours": "",
    "extraction_timestamp": "2025-06-07T14:46:01.437Z",
    "source_name": "google",
    "source_query": "Irrigation Equipment",
    "source_country": "TR",
    "country": "Turkey",
    "state": "Kahramanmaraş",
    "city": "Elbistan"
  },
  {
    "source_id": "ChIJeykU_9tmLRURt3tleczfg9c",
    "name": "Otogar Market",
    "category": "Otogar Market",
    "formatted_address": "3,5(20)",
    "phone_number": "",
    "source_url": "https://www.google.com/maps/place/Otogar+Market/data=!4m7!3m6!1s0x152d66dbff14297b:0xd783dfcc79657bb7!8m2!3d38.2072357!4d37.1956214!16s%2Fg%2F11c0xr0cv2!19sChIJeykU_9tmLRURt3tleczfg9c?authuser=0&hl=tr&rclk=1",
    "website_url": "",
    "rating_text": "3,5",
    "stars": null,
    "number_of_reviews": null,
    "price_level": "",
    "open_hours": "",
    "extraction_timestamp": "2025-06-07T14:46:01.437Z",
    "source_name": "google",
    "source_query": "Irrigation Equipment",
    "source_country": "TR",
    "country": "Turkey",
    "state": "Kahramanmaraş",
    "city": "Elbistan"
  },
  {
    "source_id": "ChIJpbHZx-hmLRURyMewa4zp2aQ",
    "name": "Açık Pazar Alanı",
    "category": "Açık Pazar Alanı",
    "formatted_address": "3,8(685)",
    "phone_number": "+905432568626",
    "source_url": "https://www.google.com/maps/place/A%C3%A7%C4%B1k+Pazar+Alan%C4%B1/data=!4m7!3m6!1s0x152d66e8c7d9b1a5:0xa4d9e98c6bb0c7c8!8m2!3d38.2049948!4d37.1853373!16s%2Fg%2F1th96zs9!19sChIJpbHZx-hmLRURyMewa4zp2aQ?authuser=0&hl=tr&rclk=1",
    "website_url": "",
    "rating_text": "3,8",
    "stars": null,
    "number_of_reviews": null,
    "price_level": "",
    "open_hours": "",
    "extraction_timestamp": "2025-06-07T14:46:01.438Z",
    "source_name": "google",
    "source_query": "Irrigation Equipment",
    "source_country": "TR",
    "country": "Turkey",
    "state": "Kahramanmaraş",
    "city": "Elbistan"
  },
  {
    "source_id": "ChIJ-f___7TFYkARMdSP8Iypd3Q",
    "name": "CarrefourSA",
    "category": "CarrefourSA",
    "formatted_address": "3,7(78)",
    "phone_number": "+904441000",
    "source_url": "https://www.google.com/maps/place/CarrefourSA/data=!4m7!3m6!1s0x4062c5b4fffffff9:0x7477a98cf08fd431!8m2!3d38.1981555!4d37.2080131!16s%2Fg%2F11hbprjl8h!19sChIJ-f___7TFYkARMdSP8Iypd3Q?authuser=0&hl=tr&rclk=1",
    "website_url": "",
    "rating_text": "3,7",
    "stars": null,
    "number_of_reviews": null,
    "price_level": "",
    "open_hours": "",
    "extraction_timestamp": "2025-06-07T14:46:01.438Z",
    "source_name": "google",
    "source_query": "Irrigation Equipment",
    "source_country": "TR",
    "country": "Turkey",
    "state": "Kahramanmaraş",
    "city": "Elbistan"
  },
  {
    "source_id": "ChIJ-zh9CsJmLRURPfBU1anovlo",
    "name": "Profilo Güneşli Bayi Elbistan Pak Kimya",
    "category": "Profilo Güneşli Bayi Elbistan Pak Kimya",
    "formatted_address": "3,0(5)",
    "phone_number": "+903444151166",
    "source_url": "https://www.google.com/maps/place/Profilo+G%C3%BCne%C5%9Fli+Bayi+Elbistan+Pak+Kimya/data=!4m7!3m6!1s0x152d66c20a7d38fb:0x5abee8a9d554f03d!8m2!3d38.2012238!4d37.1901403!16s%2Fg%2F11h1p7m24!19sChIJ-zh9CsJmLRURPfBU1anovlo?authuser=0&hl=tr&rclk=1",
    "website_url": "",
    "rating_text": "3,0",
    "stars": null,
    "number_of_reviews": null,
    "price_level": "",
    "open_hours": "",
    "extraction_timestamp": "2025-06-07T14:46:01.439Z",
    "source_name": "google",
    "source_query": "Irrigation Equipment",
    "source_country": "TR",
    "country": "Turkey",
    "state": "Kahramanmaraş",
    "city": "Elbistan"
  }
]
