[
  {
    "source_id": "ChIJ_XBK-adPLBURfQ5ODvo0Ggo",
    "name": "Bosch Yetkili Satıcısı",
    "category": "Bosch Yetkili Satıcısı",
    "formatted_address": "5,0(4)",
    "phone_number": "+903447145075",
    "source_url": "https://www.google.com/maps/place/Bosch+Yetkili+Sat%C4%B1c%C4%B1s%C4%B1/data=!4m7!3m6!1s0x152c4fa7f94a70fd:0xa1a34fa0e4e0e7d!8m2!3d38.022126!4d36.501585!16s%2Fg%2F11m_jxvmbf!19sChIJ_XBK-adPLBURfQ5ODvo0Ggo?authuser=0&hl=tr&rclk=1",
    "website_url": "",
    "rating_text": "5,0",
    "stars": null,
    "number_of_reviews": null,
    "price_level": "",
    "open_hours": "",
    "extraction_timestamp": "2025-06-07T14:45:50.769Z",
    "source_name": "google",
    "source_query": "Irrigation Equipment",
    "source_country": "TR",
    "country": "Turkey",
    "state": "Kahramanmaraş",
    "city": "Göksun"
  },
  {
    "source_id": "ChIJMzTXcmpnLRURSTYi61zIOvw",
    "name": "TOPÇUOĞLU YAPI MARKET",
    "category": "TOPÇUOĞLU YAPI MARKET",
    "formatted_address": "4,0(4)",
    "phone_number": "+903447143020",
    "source_url": "https://www.google.com/maps/place/TOP%C3%87UO%C4%9ELU+YAPI+MARKET/data=!4m7!3m6!1s0x152d676a72d73433:0xfc3ac85ceb223649!8m2!3d38.0193776!4d36.4952622!16s%2Fg%2F11h0ms77yw!19sChIJMzTXcmpnLRURSTYi61zIOvw?authuser=0&hl=tr&rclk=1",
    "website_url": "",
    "rating_text": "4,0",
    "stars": null,
    "number_of_reviews": null,
    "price_level": "",
    "open_hours": "",
    "extraction_timestamp": "2025-06-07T14:45:50.769Z",
    "source_name": "google",
    "source_query": "Irrigation Equipment",
    "source_country": "TR",
    "country": "Turkey",
    "state": "Kahramanmaraş",
    "city": "Göksun"
  },
  {
    "source_id": "ChIJt3WgGIRPLBURaxNTEu8P0LY",
    "name": "Göksun Çobanoğlu İnşaat Elektrik Sondaj Tel Çit Sistemleri Ltd.Şti.",
    "category": "Göksun Çobanoğlu İnşaat Elektrik Sondaj Tel Çit Sistemleri Ltd.Şti.",
    "formatted_address": "5,0(1)",
    "phone_number": "",
    "source_url": "https://www.google.com/maps/place/G%C3%B6ksun+%C3%87obano%C4%9Flu+%C4%B0n%C5%9Faat+Elektrik+Sondaj+Tel+%C3%87it+Sistemleri+Ltd.%C5%9Eti./data=!4m7!3m6!1s0x152c4f8418a075b7:0xb6d00fef1253136b!8m2!3d38.0225439!4d36.5023111!16s%2Fg%2F11lgwmm78g!19sChIJt3WgGIRPLBURaxNTEu8P0LY?authuser=0&hl=tr&rclk=1",
    "website_url": "",
    "rating_text": "5,0",
    "stars": null,
    "number_of_reviews": null,
    "price_level": "",
    "open_hours": "",
    "extraction_timestamp": "2025-06-07T14:45:50.770Z",
    "source_name": "google",
    "source_query": "Irrigation Equipment",
    "source_country": "TR",
    "country": "Turkey",
    "state": "Kahramanmaraş",
    "city": "Göksun"
  },
  {
    "source_id": "ChIJZU7pnRlPLBUREQbgd8J-8Gc",
    "name": "Sistem Bilgisayar & İnternet Cafe",
    "category": "Sistem Bilgisayar & İnternet Cafe",
    "formatted_address": "3,7(32)",
    "phone_number": "+905415093801",
    "source_url": "https://www.google.com/maps/place/Sistem+Bilgisayar+%26+%C4%B0nternet+Cafe/data=!4m7!3m6!1s0x152c4f199de94e65:0x67f07ec277e00611!8m2!3d38.0196918!4d36.495422!16s%2Fg%2F11jqfpy872!19sChIJZU7pnRlPLBUREQbgd8J-8Gc?authuser=0&hl=tr&rclk=1",
    "website_url": "",
    "rating_text": "3,7",
    "stars": null,
    "number_of_reviews": null,
    "price_level": "",
    "open_hours": "",
    "extraction_timestamp": "2025-06-07T14:45:50.771Z",
    "source_name": "google",
    "source_query": "Irrigation Equipment",
    "source_country": "TR",
    "country": "Turkey",
    "state": "Kahramanmaraş",
    "city": "Göksun"
  },
  {
    "source_id": "ChIJw-f3vr5PLBUR9_vz_Myu7rU",
    "name": "Coşkun gross",
    "category": "Coşkun gross",
    "formatted_address": "4,6(15)",
    "phone_number": "+905056517272",
    "source_url": "https://www.google.com/maps/place/Co%C5%9Fkun+gross/data=!4m7!3m6!1s0x152c4fbebef7e7c3:0xb5eeaeccfcf3fbf7!8m2!3d38.0217546!4d36.4983245!16s%2Fg%2F11h4vlshsl!19sChIJw-f3vr5PLBUR9_vz_Myu7rU?authuser=0&hl=tr&rclk=1",
    "website_url": "",
    "rating_text": "4,6",
    "stars": null,
    "number_of_reviews": null,
    "price_level": "",
    "open_hours": "",
    "extraction_timestamp": "2025-06-07T14:45:50.773Z",
    "source_name": "google",
    "source_query": "Irrigation Equipment",
    "source_country": "TR",
    "country": "Turkey",
    "state": "Kahramanmaraş",
    "city": "Göksun"
  },
  {
    "source_id": "ChIJq7QvbOdPLBUR_JaVeNMNQeg",
    "name": "Göksun Eren Pet Shop",
    "category": "Göksun Eren Pet Shop",
    "formatted_address": "4,9(14)",
    "phone_number": "+905464058926",
    "source_url": "https://www.google.com/maps/place/G%C3%B6ksun+Eren+Pet+Shop/data=!4m7!3m6!1s0x152c4fe76c2fb4ab:0xe8410dd3789596fc!8m2!3d38.0208339!4d36.4983751!16s%2Fg%2F11vb60ll0r!19sChIJq7QvbOdPLBUR_JaVeNMNQeg?authuser=0&hl=tr&rclk=1",
    "website_url": "",
    "rating_text": "4,9",
    "stars": null,
    "number_of_reviews": null,
    "price_level": "",
    "open_hours": "",
    "extraction_timestamp": "2025-06-07T14:45:50.773Z",
    "source_name": "google",
    "source_query": "Irrigation Equipment",
    "source_country": "TR",
    "country": "Turkey",
    "state": "Kahramanmaraş",
    "city": "Göksun"
  },
  {
    "source_id": "ChIJVbXk8IRPLBURXqmNzDHSbV4",
    "name": "Göksun Kapalı Semt Pazarı",
    "category": "Göksun Kapalı Semt Pazarı",
    "formatted_address": "4,2(37)",
    "phone_number": "",
    "source_url": "https://www.google.com/maps/place/G%C3%B6ksun+Kapal%C4%B1+Semt+Pazar%C4%B1/data=!4m7!3m6!1s0x152c4f84f0e4b555:0x5e6dd231cc8da95e!8m2!3d38.0215618!4d36.4875872!16s%2Fg%2F11s30krgr6!19sChIJVbXk8IRPLBURXqmNzDHSbV4?authuser=0&hl=tr&rclk=1",
    "website_url": "",
    "rating_text": "4,2",
    "stars": null,
    "number_of_reviews": null,
    "price_level": "",
    "open_hours": "",
    "extraction_timestamp": "2025-06-07T14:45:50.774Z",
    "source_name": "google",
    "source_query": "Irrigation Equipment",
    "source_country": "TR",
    "country": "Turkey",
    "state": "Kahramanmaraş",
    "city": "Göksun"
  },
  {
    "source_id": "ChIJb-plYPFOLBURol5OdSfPZds",
    "name": "Şok Market",
    "category": "Şok Market",
    "formatted_address": "4,0(163)",
    "phone_number": "+908508080000",
    "source_url": "https://www.google.com/maps/place/%C5%9Eok+Market/data=!4m7!3m6!1s0x152c4ef16065ea6f:0xdb65cf27754e5ea2!8m2!3d38.020682!4d36.495812!16s%2Fg%2F11b7q6dj28!19sChIJb-plYPFOLBURol5OdSfPZds?authuser=0&hl=tr&rclk=1",
    "website_url": "",
    "rating_text": "4,0",
    "stars": null,
    "number_of_reviews": null,
    "price_level": "",
    "open_hours": "",
    "extraction_timestamp": "2025-06-07T14:45:50.775Z",
    "source_name": "google",
    "source_query": "Irrigation Equipment",
    "source_country": "TR",
    "country": "Turkey",
    "state": "Kahramanmaraş",
    "city": "Göksun"
  },
  {
    "source_id": "ChIJlWCe1YpOLBURlMfdHAEglbw",
    "name": "Profilo",
    "category": "Profilo",
    "formatted_address": "5,0(1)",
    "phone_number": "",
    "source_url": "https://www.google.com/maps/place/Profilo/data=!4m7!3m6!1s0x152c4e8ad59e6095:0xbc9520011cddc794!8m2!3d38.022327!4d36.500618!16s%2Fg%2F11b7q0wqdp!19sChIJlWCe1YpOLBURlMfdHAEglbw?authuser=0&hl=tr&rclk=1",
    "website_url": "",
    "rating_text": "5,0",
    "stars": null,
    "number_of_reviews": null,
    "price_level": "",
    "open_hours": "",
    "extraction_timestamp": "2025-06-07T14:45:50.775Z",
    "source_name": "google",
    "source_query": "Irrigation Equipment",
    "source_country": "TR",
    "country": "Turkey",
    "state": "Kahramanmaraş",
    "city": "Göksun"
  },
  {
    "source_id": "ChIJK_fFmTtPLBURbKoL-WtBuMo",
    "name": "Şok Market",
    "category": "Şok Market",
    "formatted_address": "3,3(10)",
    "phone_number": "+908508080000",
    "source_url": "https://www.google.com/maps/place/%C5%9Eok+Market/data=!4m7!3m6!1s0x152c4f3b99c5f72b:0xcab8416bf90baa6c!8m2!3d38.0186821!4d36.4931719!16s%2Fg%2F11rxyds67h!19sChIJK_fFmTtPLBURbKoL-WtBuMo?authuser=0&hl=tr&rclk=1",
    "website_url": "",
    "rating_text": "3,3",
    "stars": null,
    "number_of_reviews": null,
    "price_level": "",
    "open_hours": "",
    "extraction_timestamp": "2025-06-07T14:45:50.776Z",
    "source_name": "google",
    "source_query": "Irrigation Equipment",
    "source_country": "TR",
    "country": "Turkey",
    "state": "Kahramanmaraş",
    "city": "Göksun"
  },
  {
    "source_id": "ChIJX4KXxIpOLBURntodXneIxJY",
    "name": "A101",
    "category": "A101",
    "formatted_address": "3,8(58)",
    "phone_number": "+908508082101",
    "source_url": "https://www.google.com/maps/place/A101/data=!4m7!3m6!1s0x152c4e8ac497825f:0x96c488775e1dda9e!8m2!3d38.0242143!4d36.5013798!16s%2Fg%2F11pzfl8jbw!19sChIJX4KXxIpOLBURntodXneIxJY?authuser=0&hl=tr&rclk=1",
    "website_url": "",
    "rating_text": "3,8",
    "stars": null,
    "number_of_reviews": null,
    "price_level": "",
    "open_hours": "",
    "extraction_timestamp": "2025-06-07T14:45:50.777Z",
    "source_name": "google",
    "source_query": "Irrigation Equipment",
    "source_country": "TR",
    "country": "Turkey",
    "state": "Kahramanmaraş",
    "city": "Göksun"
  }
]
