[
  {
    "source_id": "ChIJ4QMea4LdLRUR8zrXwXEU1_Y",
    "name": "Doğru İnşaat",
    "category": "Doğru İnşaat",
    "formatted_address": "5,0(2)",
    "phone_number": "+905363770826",
    "source_url": "https://www.google.com/maps/place/Do%C4%9Fru+%C4%B0n%C5%9Faat/data=!4m7!3m6!1s0x152ddd826b1e03e1:0xf6d71471c1d73af3!8m2!3d37.5664804!4d36.9219131!16s%2Fg%2F11vbtygtpc!19sChIJ4QMea4LdLRUR8zrXwXEU1_Y?authuser=0&hl=tr&rclk=1",
    "website_url": "",
    "rating_text": "5,0",
    "stars": null,
    "number_of_reviews": null,
    "price_level": "",
    "open_hours": "",
    "extraction_timestamp": "2025-06-07T14:44:39.285Z",
    "source_name": "google",
    "source_query": "Irrigation Equipment",
    "source_country": "TR",
    "country": "Turkey",
    "state": "Kahramanmaraş",
    "city": "Onikişubat"
  },
  {
    "source_id": "ChIJdxy1dMjdLRURYRwMDn9i944",
    "name": "SUCU YAKUP USTA",
    "category": "SUCU YAKUP USTA",
    "formatted_address": "4,8(20)",
    "phone_number": "+905374790947",
    "source_url": "https://www.google.com/maps/place/SUCU+YAKUP+USTA/data=!4m7!3m6!1s0x152dddc874b51c77:0x8ef7627f0e0c1c61!8m2!3d37.5658274!4d36.9231644!16s%2Fg%2F11h51b7ywd!19sChIJdxy1dMjdLRURYRwMDn9i944?authuser=0&hl=tr&rclk=1",
    "website_url": "",
    "rating_text": "4,8",
    "stars": null,
    "number_of_reviews": null,
    "price_level": "",
    "open_hours": "",
    "extraction_timestamp": "2025-06-07T14:44:39.286Z",
    "source_name": "google",
    "source_query": "Irrigation Equipment",
    "source_country": "TR",
    "country": "Turkey",
    "state": "Kahramanmaraş",
    "city": "Onikişubat"
  },
  {
    "source_id": "ChIJz-423FvXLRURae78LNBCVUI",
    "name": "Garden Drip Damlama Sulama Sistemleri",
    "category": "Garden Drip Damlama Sulama Sistemleri",
    "formatted_address": "",
    "phone_number": "+905395057912",
    "source_url": "https://www.google.com/maps/place/Garden+Drip+Damlama+Sulama+Sistemleri/data=!4m7!3m6!1s0x152dd75bdc36eecf:0x425542d02cfcee69!8m2!3d37.6004466!4d36.7549441!16s%2Fg%2F11lyy_g86g!19sChIJz-423FvXLRURae78LNBCVUI?authuser=0&hl=tr&rclk=1",
    "website_url": "",
    "rating_text": "",
    "stars": null,
    "number_of_reviews": null,
    "price_level": "",
    "open_hours": "",
    "extraction_timestamp": "2025-06-07T14:44:39.286Z",
    "source_name": "google",
    "source_query": "Irrigation Equipment",
    "source_country": "TR",
    "country": "Turkey",
    "state": "Kahramanmaraş",
    "city": "Onikişubat"
  },
  {
    "source_id": "ChIJ2Vi4l3zdLRURy4tg59lRh44",
    "name": "ŞİMŞEK SIHHİ TESİSAT",
    "category": "ŞİMŞEK SIHHİ TESİSAT",
    "formatted_address": "5,0(5)",
    "phone_number": "+905468464601",
    "source_url": "https://www.google.com/maps/place/%C5%9E%C4%B0M%C5%9EEK+SIHH%C4%B0+TES%C4%B0SAT/data=!4m7!3m6!1s0x152ddd7c97b858d9:0x8e8751d9e7608bcb!8m2!3d37.6004763!4d36.870736!16s%2Fg%2F11lp66nqry!19sChIJ2Vi4l3zdLRURy4tg59lRh44?authuser=0&hl=tr&rclk=1",
    "website_url": "",
    "rating_text": "5,0",
    "stars": null,
    "number_of_reviews": null,
    "price_level": "",
    "open_hours": "",
    "extraction_timestamp": "2025-06-07T14:44:39.287Z",
    "source_name": "google",
    "source_query": "Irrigation Equipment",
    "source_country": "TR",
    "country": "Turkey",
    "state": "Kahramanmaraş",
    "city": "Onikişubat"
  },
  {
    "source_id": "ChIJH9y8kbndLRURKsniAdViV48",
    "name": "ERG Mühendislik Sıhhi Tesisat Doğalgaz Isı Sis. İnş. San.ve Tic.Ltd.Şti.",
    "category": "ERG Mühendislik Sıhhi Tesisat Doğalgaz Isı Sis. İnş. San.ve Tic.Ltd.Şti.",
    "formatted_address": "4,7(123)",
    "phone_number": "+903442352575",
    "source_url": "https://www.google.com/maps/place/ERG+M%C3%BChendislik+S%C4%B1hhi+Tesisat+Do%C4%9Falgaz+Is%C4%B1+Sis.+%C4%B0n%C5%9F.+San.ve+Tic.Ltd.%C5%9Eti./data=!4m7!3m6!1s0x152dddb991bcdc1f:0x8f5762d501e2c92a!8m2!3d37.564708!4d36.924575!16s%2Fg%2F1tctp0mf!19sChIJH9y8kbndLRURKsniAdViV48?authuser=0&hl=tr&rclk=1",
    "website_url": "",
    "rating_text": "4,7",
    "stars": null,
    "number_of_reviews": null,
    "price_level": "",
    "open_hours": "",
    "extraction_timestamp": "2025-06-07T14:44:39.288Z",
    "source_name": "google",
    "source_query": "Irrigation Equipment",
    "source_country": "TR",
    "country": "Turkey",
    "state": "Kahramanmaraş",
    "city": "Onikişubat"
  },
  {
    "source_id": "ChIJYyHK_JPdLRURxShP3OYtn94",
    "name": "GENC YAPI MARKET",
    "category": "GENC YAPI MARKET",
    "formatted_address": "4,4(24)",
    "phone_number": "+905432421010",
    "source_url": "https://www.google.com/maps/place/GENC+YAPI+MARKET/data=!4m7!3m6!1s0x152ddd93fcca2163:0xde9f2de6dc4f28c5!8m2!3d37.590627!4d36.891086!16s%2Fg%2F11h056zblq!19sChIJYyHK_JPdLRURxShP3OYtn94?authuser=0&hl=tr&rclk=1",
    "website_url": "",
    "rating_text": "4,4",
    "stars": null,
    "number_of_reviews": null,
    "price_level": "",
    "open_hours": "",
    "extraction_timestamp": "2025-06-07T14:44:39.288Z",
    "source_name": "google",
    "source_query": "Irrigation Equipment",
    "source_country": "TR",
    "country": "Turkey",
    "state": "Kahramanmaraş",
    "city": "Onikişubat"
  },
  {
    "source_id": "ChIJ7RytGszdLRURBelbl0nX1Nc",
    "name": "Yüce Sıhhi Tesisat Ve Sucu",
    "category": "Yüce Sıhhi Tesisat Ve Sucu",
    "formatted_address": "5,0(16)",
    "phone_number": "+905050986766",
    "source_url": "https://www.google.com/maps/place/Y%C3%BCce+S%C4%B1hhi+Tesisat+Ve+Sucu/data=!4m7!3m6!1s0x152dddcc1aad1ced:0xd7d4d749975be905!8m2!3d37.5908067!4d36.8837758!16s%2Fg%2F11thn8vbb3!19sChIJ7RytGszdLRURBelbl0nX1Nc?authuser=0&hl=tr&rclk=1",
    "website_url": "",
    "rating_text": "5,0",
    "stars": null,
    "number_of_reviews": null,
    "price_level": "",
    "open_hours": "",
    "extraction_timestamp": "2025-06-07T14:44:39.289Z",
    "source_name": "google",
    "source_query": "Irrigation Equipment",
    "source_country": "TR",
    "country": "Turkey",
    "state": "Kahramanmaraş",
    "city": "Onikişubat"
  },
  {
    "source_id": "ChIJuWhdbDnnLRUR3zEtFuEXwDc",
    "name": "MARYAPI TOPTAN iNSAAT MALZ.",
    "category": "MARYAPI TOPTAN iNSAAT MALZ.",
    "formatted_address": "4,2(26)",
    "phone_number": "+903442320440",
    "source_url": "https://www.google.com/maps/place/MARYAPI+TOPTAN+iNSAAT+MALZ./data=!4m7!3m6!1s0x152de7396c5d68b9:0x37c017e1162d31df!8m2!3d37.5750868!4d36.9723514!16s%2Fg%2F11ghxbyqp2!19sChIJuWhdbDnnLRUR3zEtFuEXwDc?authuser=0&hl=tr&rclk=1",
    "website_url": "",
    "rating_text": "4,2",
    "stars": null,
    "number_of_reviews": null,
    "price_level": "",
    "open_hours": "",
    "extraction_timestamp": "2025-06-07T14:44:39.301Z",
    "source_name": "google",
    "source_query": "Irrigation Equipment",
    "source_country": "TR",
    "country": "Turkey",
    "state": "Kahramanmaraş",
    "city": "Onikişubat"
  },
  {
    "source_id": "ChIJpR44KGndLRURKbFdsvAlVU8",
    "name": "FEBA Doğalgaz ve Yapı Market Kahramanmaraş",
    "category": "FEBA Doğalgaz ve Yapı Market Kahramanmaraş",
    "formatted_address": "5,0(2)",
    "phone_number": "+905332363286",
    "source_url": "https://www.google.com/maps/place/FEBA+Do%C4%9Falgaz+ve+Yap%C4%B1+Market+Kahramanmara%C5%9F/data=!4m7!3m6!1s0x152ddd6928381ea5:0x4f5525f0b25db129!8m2!3d37.5812613!4d36.9084664!16s%2Fg%2F11wj0dqmkp!19sChIJpR44KGndLRURKbFdsvAlVU8?authuser=0&hl=tr&rclk=1",
    "website_url": "",
    "rating_text": "5,0",
    "stars": null,
    "number_of_reviews": null,
    "price_level": "",
    "open_hours": "",
    "extraction_timestamp": "2025-06-07T14:44:39.302Z",
    "source_name": "google",
    "source_query": "Irrigation Equipment",
    "source_country": "TR",
    "country": "Turkey",
    "state": "Kahramanmaraş",
    "city": "Onikişubat"
  },
  {
    "source_id": "ChIJLQb5jITbLRURx4lo4dF8TOE",
    "name": "AYKARSU TESİSAT",
    "category": "AYKARSU TESİSAT",
    "formatted_address": "5,0(11)",
    "phone_number": "+905306376999",
    "source_url": "https://www.google.com/maps/place/AYKARSU+TES%C4%B0SAT/data=!4m7!3m6!1s0x152ddb848cf9062d:0xe14c7cd1e16889c7!8m2!3d37.5970886!4d36.8369512!16s%2Fg%2F11wp950n7p!19sChIJLQb5jITbLRURx4lo4dF8TOE?authuser=0&hl=tr&rclk=1",
    "website_url": "",
    "rating_text": "5,0",
    "stars": null,
    "number_of_reviews": null,
    "price_level": "",
    "open_hours": "",
    "extraction_timestamp": "2025-06-07T14:44:39.302Z",
    "source_name": "google",
    "source_query": "Irrigation Equipment",
    "source_country": "TR",
    "country": "Turkey",
    "state": "Kahramanmaraş",
    "city": "Onikişubat"
  },
  {
    "source_id": "ChIJN7uhHy3dLRUR29dJ6J1XiQk",
    "name": "Sucu ve dogalgaz tesisatçısı Yusuf usta",
    "category": "Sucu ve dogalgaz tesisatçısı Yusuf usta",
    "formatted_address": "5,0(2)",
    "phone_number": "+905415182421",
    "source_url": "https://www.google.com/maps/place/Sucu+ve+dogalgaz+tesisat%C3%A7%C4%B1s%C4%B1+Yusuf+usta/data=!4m7!3m6!1s0x152ddd2d1fa1bb37:0x989579de849d7db!8m2!3d37.5920479!4d36.8963921!16s%2Fg%2F11t9r0wqmf!19sChIJN7uhHy3dLRUR29dJ6J1XiQk?authuser=0&hl=tr&rclk=1",
    "website_url": "",
    "rating_text": "5,0",
    "stars": null,
    "number_of_reviews": null,
    "price_level": "",
    "open_hours": "",
    "extraction_timestamp": "2025-06-07T14:44:39.303Z",
    "source_name": "google",
    "source_query": "Irrigation Equipment",
    "source_country": "TR",
    "country": "Turkey",
    "state": "Kahramanmaraş",
    "city": "Onikişubat"
  },
  {
    "source_id": "ChIJy2gaGc3bLRURUxWyzfko5nc",
    "name": "AYDIN TARIM&PEYZAJ",
    "category": "AYDIN TARIM&PEYZAJ",
    "formatted_address": "5,0(10)",
    "phone_number": "+905458957458",
    "source_url": "https://www.google.com/maps/place/AYDIN+TARIM%26PEYZAJ/data=!4m7!3m6!1s0x152ddbcd191a68cb:0x77e628f9cdb21553!8m2!3d37.5889317!4d36.8561749!16s%2Fg%2F11x18hk_dj!19sChIJy2gaGc3bLRURUxWyzfko5nc?authuser=0&hl=tr&rclk=1",
    "website_url": "",
    "rating_text": "5,0",
    "stars": null,
    "number_of_reviews": null,
    "price_level": "",
    "open_hours": "",
    "extraction_timestamp": "2025-06-07T14:44:39.303Z",
    "source_name": "google",
    "source_query": "Irrigation Equipment",
    "source_country": "TR",
    "country": "Turkey",
    "state": "Kahramanmaraş",
    "city": "Onikişubat"
  },
  {
    "source_id": "ChIJSc4ehAndLRUR0dWFYqkxpCM",
    "name": "TAŞDEMİR TİCARET",
    "category": "TAŞDEMİR TİCARET",
    "formatted_address": "5,0(8)",
    "phone_number": "+903442148252",
    "source_url": "https://www.google.com/maps/place/TA%C5%9EDEM%C4%B0R+T%C4%B0CARET/data=!4m7!3m6!1s0x152ddd09841ece49:0x23a431a96285d5d1!8m2!3d37.5801251!4d36.8737134!16s%2Fg%2F11f3b2g_n5!19sChIJSc4ehAndLRUR0dWFYqkxpCM?authuser=0&hl=tr&rclk=1",
    "website_url": "",
    "rating_text": "5,0",
    "stars": null,
    "number_of_reviews": null,
    "price_level": "",
    "open_hours": "",
    "extraction_timestamp": "2025-06-07T14:44:39.304Z",
    "source_name": "google",
    "source_query": "Irrigation Equipment",
    "source_country": "TR",
    "country": "Turkey",
    "state": "Kahramanmaraş",
    "city": "Onikişubat"
  },
  {
    "source_id": "ChIJFd_fEfDdLRUR-XBsOshe1cI",
    "name": "Sucu Murat Yüce Sıhhi Tesisat",
    "category": "Sucu Murat Yüce Sıhhi Tesisat",
    "formatted_address": "2,9(17)",
    "phone_number": "+905354076872",
    "source_url": "https://www.google.com/maps/place/Sucu+Murat+Y%C3%BCce+S%C4%B1hhi+Tesisat/data=!4m7!3m6!1s0x152dddf011dfdf15:0xc2d55ec83a6c70f9!8m2!3d37.5918715!4d36.8962983!16s%2Fg%2F11h0g_4x2z!19sChIJFd_fEfDdLRUR-XBsOshe1cI?authuser=0&hl=tr&rclk=1",
    "website_url": "",
    "rating_text": "2,9",
    "stars": null,
    "number_of_reviews": null,
    "price_level": "",
    "open_hours": "",
    "extraction_timestamp": "2025-06-07T14:44:39.304Z",
    "source_name": "google",
    "source_query": "Irrigation Equipment",
    "source_country": "TR",
    "country": "Turkey",
    "state": "Kahramanmaraş",
    "city": "Onikişubat"
  },
  {
    "source_id": "ChIJ5QvgNVPcLRURid-bMlpILio",
    "name": "ŞAHİN TESİSAT",
    "category": "ŞAHİN TESİSAT",
    "formatted_address": "5,0(3)",
    "phone_number": "+905355776038",
    "source_url": "https://www.google.com/maps/place/%C5%9EAH%C4%B0N+TES%C4%B0SAT/data=!4m7!3m6!1s0x152ddc5335e00be5:0x2a2e485a329bdf89!8m2!3d37.5895501!4d36.9057425!16s%2Fg%2F11dzdhc4jz!19sChIJ5QvgNVPcLRURid-bMlpILio?authuser=0&hl=tr&rclk=1",
    "website_url": "",
    "rating_text": "5,0",
    "stars": null,
    "number_of_reviews": null,
    "price_level": "",
    "open_hours": "",
    "extraction_timestamp": "2025-06-07T14:44:39.305Z",
    "source_name": "google",
    "source_query": "Irrigation Equipment",
    "source_country": "TR",
    "country": "Turkey",
    "state": "Kahramanmaraş",
    "city": "Onikişubat"
  },
  {
    "source_id": "ChIJrUFhhPrcLRURKA0NMCeFWCc",
    "name": "PAK YAPI",
    "category": "PAK YAPI",
    "formatted_address": "4,9(7)",
    "phone_number": "+903442217253",
    "source_url": "https://www.google.com/maps/place/PAK+YAPI/data=!4m7!3m6!1s0x152ddcfa846141ad:0x27588527300d0d28!8m2!3d37.5910438!4d36.9081564!16s%2Fg%2F11gdsj28q3!19sChIJrUFhhPrcLRURKA0NMCeFWCc?authuser=0&hl=tr&rclk=1",
    "website_url": "",
    "rating_text": "4,9",
    "stars": null,
    "number_of_reviews": null,
    "price_level": "",
    "open_hours": "",
    "extraction_timestamp": "2025-06-07T14:44:39.306Z",
    "source_name": "google",
    "source_query": "Irrigation Equipment",
    "source_country": "TR",
    "country": "Turkey",
    "state": "Kahramanmaraş",
    "city": "Onikişubat"
  },
  {
    "source_id": "ChIJ-ZbTt4LdLRURwxFj8XM3owg",
    "name": "GÖKÇEOĞLU YAPI MARKET/FBY İNŞAAT LTD.ŞTİ.",
    "category": "GÖKÇEOĞLU YAPI MARKET/FBY İNŞAAT LTD.ŞTİ.",
    "formatted_address": "4,5(15)",
    "phone_number": "+905336163943",
    "source_url": "https://www.google.com/maps/place/G%C3%96K%C3%87EO%C4%9ELU+YAPI+MARKET%2FFBY+%C4%B0N%C5%9EAAT+LTD.%C5%9ET%C4%B0./data=!4m7!3m6!1s0x152ddd82b7d396f9:0x8a33773f16311c3!8m2!3d37.5685226!4d36.9190039!16s%2Fg%2F11qh41qtlj!19sChIJ-ZbTt4LdLRURwxFj8XM3owg?authuser=0&hl=tr&rclk=1",
    "website_url": "",
    "rating_text": "4,5",
    "stars": null,
    "number_of_reviews": null,
    "price_level": "",
    "open_hours": "",
    "extraction_timestamp": "2025-06-07T14:44:39.306Z",
    "source_name": "google",
    "source_query": "Irrigation Equipment",
    "source_country": "TR",
    "country": "Turkey",
    "state": "Kahramanmaraş",
    "city": "Onikişubat"
  },
  {
    "source_id": "ChIJiY_tLwPdLRURzvxhdUsah0U",
    "name": "Huzur Tesisat",
    "category": "Huzur Tesisat",
    "formatted_address": "5,0(3)",
    "phone_number": "+905366224948",
    "source_url": "https://www.google.com/maps/place/Huzur+Tesisat/data=!4m7!3m6!1s0x152ddd032fed8f89:0x45871a4b7561fcce!8m2!3d37.5933218!4d36.887939!16s%2Fg%2F11lh6gcyyt!19sChIJiY_tLwPdLRURzvxhdUsah0U?authuser=0&hl=tr&rclk=1",
    "website_url": "",
    "rating_text": "5,0",
    "stars": null,
    "number_of_reviews": null,
    "price_level": "",
    "open_hours": "",
    "extraction_timestamp": "2025-06-07T14:44:39.307Z",
    "source_name": "google",
    "source_query": "Irrigation Equipment",
    "source_country": "TR",
    "country": "Turkey",
    "state": "Kahramanmaraş",
    "city": "Onikişubat"
  },
  {
    "source_id": "ChIJV07bUULdLRUR4SrB_Elkd5M",
    "name": "BERRAK SU ARITMA SİSTEMLERİ",
    "category": "BERRAK SU ARITMA SİSTEMLERİ",
    "formatted_address": "5,0(23)",
    "phone_number": "+905309348288",
    "source_url": "https://www.google.com/maps/place/BERRAK+SU+ARITMA+S%C4%B0STEMLER%C4%B0/data=!4m7!3m6!1s0x152ddd4251db4e57:0x93776449fcc12ae1!8m2!3d37.5915126!4d36.8779663!16s%2Fg%2F11y4t3qcvs!19sChIJV07bUULdLRUR4SrB_Elkd5M?authuser=0&hl=tr&rclk=1",
    "website_url": "",
    "rating_text": "5,0",
    "stars": null,
    "number_of_reviews": null,
    "price_level": "",
    "open_hours": "",
    "extraction_timestamp": "2025-06-07T14:44:39.307Z",
    "source_name": "google",
    "source_query": "Irrigation Equipment",
    "source_country": "TR",
    "country": "Turkey",
    "state": "Kahramanmaraş",
    "city": "Onikişubat"
  },
  {
    "source_id": "ChIJdUS1dYPnLRURpzdQg-PCfe4",
    "name": "Pınar Plastik Boru",
    "category": "Pınar Plastik Boru",
    "formatted_address": "4,6(27)",
    "phone_number": "+905524016049",
    "source_url": "https://www.google.com/maps/place/P%C4%B1nar+Plastik+Boru/data=!4m7!3m6!1s0x152de78375b54475:0xee7dc2e3835037a7!8m2!3d37.566583!4d36.962331!16s%2Fg%2F11bycjkh4m!19sChIJdUS1dYPnLRURpzdQg-PCfe4?authuser=0&hl=tr&rclk=1",
    "website_url": "",
    "rating_text": "4,6",
    "stars": null,
    "number_of_reviews": null,
    "price_level": "",
    "open_hours": "",
    "extraction_timestamp": "2025-06-07T14:44:39.308Z",
    "source_name": "google",
    "source_query": "Irrigation Equipment",
    "source_country": "TR",
    "country": "Turkey",
    "state": "Kahramanmaraş",
    "city": "Onikişubat"
  },
  {
    "source_id": "ChIJNyXBmdrdLRUR5ifKumy5e9s",
    "name": "TOPALOĞLU TİCARET",
    "category": "TOPALOĞLU TİCARET",
    "formatted_address": "4,2(6)",
    "phone_number": "+905376204324",
    "source_url": "https://www.google.com/maps/place/TOPALO%C4%9ELU+T%C4%B0CARET/data=!4m7!3m6!1s0x152dddda99c12537:0xdb7bb96cbaca27e6!8m2!3d37.5945268!4d36.9080432!16s%2Fg%2F11fmbzd59s!19sChIJNyXBmdrdLRUR5ifKumy5e9s?authuser=0&hl=tr&rclk=1",
    "website_url": "",
    "rating_text": "4,2",
    "stars": null,
    "number_of_reviews": null,
    "price_level": "",
    "open_hours": "",
    "extraction_timestamp": "2025-06-07T14:44:39.308Z",
    "source_name": "google",
    "source_query": "Irrigation Equipment",
    "source_country": "TR",
    "country": "Turkey",
    "state": "Kahramanmaraş",
    "city": "Onikişubat"
  },
  {
    "source_id": "ChIJ3S-wdp7bLRUR0peadSCy8WE",
    "name": "HASKAN YAPI MARKET",
    "category": "HASKAN YAPI MARKET",
    "formatted_address": "5,0(1)",
    "phone_number": "+905352259250",
    "source_url": "https://www.google.com/maps/place/HASKAN+YAPI+MARKET/data=!4m7!3m6!1s0x152ddb9e76b02fdd:0x61f1b220759a97d2!8m2!3d37.5984356!4d36.8516911!16s%2Fg%2F11vlv04sb0!19sChIJ3S-wdp7bLRUR0peadSCy8WE?authuser=0&hl=tr&rclk=1",
    "website_url": "",
    "rating_text": "5,0",
    "stars": null,
    "number_of_reviews": null,
    "price_level": "",
    "open_hours": "",
    "extraction_timestamp": "2025-06-07T14:44:39.309Z",
    "source_name": "google",
    "source_query": "Irrigation Equipment",
    "source_country": "TR",
    "country": "Turkey",
    "state": "Kahramanmaraş",
    "city": "Onikişubat"
  },
  {
    "source_id": "ChIJTfXEo_TdLRUR3_rXXyUBoY8",
    "name": "Bi Kamping Outdoor",
    "category": "Bi Kamping Outdoor",
    "formatted_address": "4,2(103)",
    "phone_number": "+908502419746",
    "source_url": "https://www.google.com/maps/place/Bi+Kamping+Outdoor/data=!4m7!3m6!1s0x152dddf4a3c4f54d:0x8fa101255fd7fadf!8m2!3d37.5942725!4d36.894592!16s%2Fg%2F11m482z4j0!19sChIJTfXEo_TdLRUR3_rXXyUBoY8?authuser=0&hl=tr&rclk=1",
    "website_url": "",
    "rating_text": "4,2",
    "stars": null,
    "number_of_reviews": null,
    "price_level": "",
    "open_hours": "",
    "extraction_timestamp": "2025-06-07T14:44:39.309Z",
    "source_name": "google",
    "source_query": "Irrigation Equipment",
    "source_country": "TR",
    "country": "Turkey",
    "state": "Kahramanmaraş",
    "city": "Onikişubat"
  },
  {
    "source_id": "ChIJh5J9mRbdLRURMtHokS6rxh0",
    "name": "AKSU MÜHENDİSLİK DOĞALGAZ",
    "category": "AKSU MÜHENDİSLİK DOĞALGAZ",
    "formatted_address": "2,3(3)",
    "phone_number": "+905427174306",
    "source_url": "https://www.google.com/maps/place/AKSU+M%C3%9CHEND%C4%B0SL%C4%B0K+DO%C4%9EALGAZ/data=!4m7!3m6!1s0x152ddd16997d9287:0x1dc6ab2e91e8d132!8m2!3d37.5723751!4d36.930877!16s%2Fg%2F11mvtrqwhs!19sChIJh5J9mRbdLRURMtHokS6rxh0?authuser=0&hl=tr&rclk=1",
    "website_url": "",
    "rating_text": "2,3",
    "stars": null,
    "number_of_reviews": null,
    "price_level": "",
    "open_hours": "",
    "extraction_timestamp": "2025-06-07T14:44:39.310Z",
    "source_name": "google",
    "source_query": "Irrigation Equipment",
    "source_country": "TR",
    "country": "Turkey",
    "state": "Kahramanmaraş",
    "city": "Onikişubat"
  },
  {
    "source_id": "ChIJPetzx4PbLRUR3hCICVQNymw",
    "name": "BÖLGE YAPI - FATURA ÖDEME VE KAHRAMANKART DOLUM - VODAFONE BAYİ",
    "category": "BÖLGE YAPI - FATURA ÖDEME VE KAHRAMANKART DOLUM - VODAFONE BAYİ",
    "formatted_address": "5,0(26)",
    "phone_number": "+903442161601",
    "source_url": "https://www.google.com/maps/place/B%C3%96LGE+YAPI+-+FATURA+%C3%96DEME+VE+KAHRAMANKART+DOLUM+-+VODAFONE+BAY%C4%B0/data=!4m7!3m6!1s0x152ddb83c773eb3d:0x6cca0d54098810de!8m2!3d37.5966904!4d36.8615299!16s%2Fg%2F11bw_5_qbf!19sChIJPetzx4PbLRUR3hCICVQNymw?authuser=0&hl=tr&rclk=1",
    "website_url": "",
    "rating_text": "5,0",
    "stars": null,
    "number_of_reviews": null,
    "price_level": "",
    "open_hours": "",
    "extraction_timestamp": "2025-06-07T14:44:39.310Z",
    "source_name": "google",
    "source_query": "Irrigation Equipment",
    "source_country": "TR",
    "country": "Turkey",
    "state": "Kahramanmaraş",
    "city": "Onikişubat"
  },
  {
    "source_id": "ChIJi-fB5CXbLRUReem25vbc3ME",
    "name": "berra ticaret",
    "category": "berra ticaret",
    "formatted_address": "",
    "phone_number": "+905465034098",
    "source_url": "https://www.google.com/maps/place/berra+ticaret/data=!4m7!3m6!1s0x152ddb25e4c1e78b:0xc1dcdcf6e6b6e979!8m2!3d37.5789369!4d36.8601406!16s%2Fg%2F11hz60lqc7!19sChIJi-fB5CXbLRUReem25vbc3ME?authuser=0&hl=tr&rclk=1",
    "website_url": "",
    "rating_text": "",
    "stars": null,
    "number_of_reviews": null,
    "price_level": "",
    "open_hours": "",
    "extraction_timestamp": "2025-06-07T14:44:39.311Z",
    "source_name": "google",
    "source_query": "Irrigation Equipment",
    "source_country": "TR",
    "country": "Turkey",
    "state": "Kahramanmaraş",
    "city": "Onikişubat"
  },
  {
    "source_id": "ChIJuzGRJ6TdLRURVmbu5PTTyIM",
    "name": "İhlas Pazarlama Kahramanmaraş",
    "category": "İhlas Pazarlama Kahramanmaraş",
    "formatted_address": "4,3(8)",
    "phone_number": "+903442320203",
    "source_url": "https://www.google.com/maps/place/%C4%B0hlas+Pazarlama+Kahramanmara%C5%9F/data=!4m7!3m6!1s0x152ddda4279131bb:0x83c8d3f4e4ee6656!8m2!3d37.5642665!4d36.8919112!16s%2Fg%2F1td8p1zv!19sChIJuzGRJ6TdLRURVmbu5PTTyIM?authuser=0&hl=tr&rclk=1",
    "website_url": "",
    "rating_text": "4,3",
    "stars": null,
    "number_of_reviews": null,
    "price_level": "",
    "open_hours": "",
    "extraction_timestamp": "2025-06-07T14:44:39.311Z",
    "source_name": "google",
    "source_query": "Irrigation Equipment",
    "source_country": "TR",
    "country": "Turkey",
    "state": "Kahramanmaraş",
    "city": "Onikişubat"
  },
  {
    "source_id": "ChIJvUIfKHncLRURma8BdIHHYno",
    "name": "VitrA | ᴀʀᴛᴇᴍᴀ Yetkili Servis - B&M Tesisat",
    "category": "VitrA | ᴀʀᴛᴇᴍᴀ Yetkili Servis - B&M Tesisat",
    "formatted_address": "5,0(6)",
    "phone_number": "+905336215717",
    "source_url": "https://www.google.com/maps/place/VitrA+%7C+%E1%B4%80%CA%80%E1%B4%9B%E1%B4%87%E1%B4%8D%E1%B4%80+Yetkili+Servis+-+B%26M+Tesisat/data=!4m7!3m6!1s0x152ddc79281f42bd:0x7a62c7817401af99!8m2!3d37.5910643!4d36.8709143!16s%2Fg%2F1q66xy7vb!19sChIJvUIfKHncLRURma8BdIHHYno?authuser=0&hl=tr&rclk=1",
    "website_url": "",
    "rating_text": "5,0",
    "stars": null,
    "number_of_reviews": null,
    "price_level": "",
    "open_hours": "",
    "extraction_timestamp": "2025-06-07T14:44:39.313Z",
    "source_name": "google",
    "source_query": "Irrigation Equipment",
    "source_country": "TR",
    "country": "Turkey",
    "state": "Kahramanmaraş",
    "city": "Onikişubat"
  },
  {
    "source_id": "ChIJP7Bb1oHdLRURAUjqG3Lh3OU",
    "name": "YEDİ İKLİM ISITMA SİSTEMLERİ & DOĞALGAZ",
    "category": "YEDİ İKLİM ISITMA SİSTEMLERİ & DOĞALGAZ",
    "formatted_address": "5,0(3)",
    "phone_number": "+905362945817",
    "source_url": "https://www.google.com/maps/place/YED%C4%B0+%C4%B0KL%C4%B0M+ISITMA+S%C4%B0STEMLER%C4%B0+%26+DO%C4%9EALGAZ/data=!4m7!3m6!1s0x152ddd81d65bb03f:0xe5dce1721bea4801!8m2!3d37.5734667!4d36.9091899!16s%2Fg%2F11mr2wqx7h!19sChIJP7Bb1oHdLRURAUjqG3Lh3OU?authuser=0&hl=tr&rclk=1",
    "website_url": "",
    "rating_text": "5,0",
    "stars": null,
    "number_of_reviews": null,
    "price_level": "",
    "open_hours": "",
    "extraction_timestamp": "2025-06-07T14:44:39.313Z",
    "source_name": "google",
    "source_query": "Irrigation Equipment",
    "source_country": "TR",
    "country": "Turkey",
    "state": "Kahramanmaraş",
    "city": "Onikişubat"
  },
  {
    "source_id": "ChIJL7V9w7LdLRURKtA3tRygDEc",
    "name": "MARZEN YAPI MARKET",
    "category": "MARZEN YAPI MARKET",
    "formatted_address": "3,7(34)",
    "phone_number": "+905444627936",
    "source_url": "https://www.google.com/maps/place/MARZEN+YAPI+MARKET/data=!4m7!3m6!1s0x152dddb2c37db52f:0x470ca01cb537d02a!8m2!3d37.5901913!4d36.8882036!16s%2Fg%2F11vq_ggl76!19sChIJL7V9w7LdLRURKtA3tRygDEc?authuser=0&hl=tr&rclk=1",
    "website_url": "",
    "rating_text": "3,7",
    "stars": null,
    "number_of_reviews": null,
    "price_level": "",
    "open_hours": "",
    "extraction_timestamp": "2025-06-07T14:44:39.314Z",
    "source_name": "google",
    "source_query": "Irrigation Equipment",
    "source_country": "TR",
    "country": "Turkey",
    "state": "Kahramanmaraş",
    "city": "Onikişubat"
  }
]
