[
  {
    "source_id": "ChIJ_Vd9a_z3LRURO4ngTAwILbQ",
    "name": "Ece tesisat",
    "category": "Ece tesisat",
    "formatted_address": "5,0(7)",
    "phone_number": "+905427423499",
    "source_url": "https://www.google.com/maps/place/Ece+tesisat/data=!4m7!3m6!1s0x152df7fc6b7d57fd:0xb42d080c4ce0893b!8m2!3d37.486217!4d37.292534!16s%2Fg%2F11hckhj1v_!19sChIJ_Vd9a_z3LRURO4ngTAwILbQ?authuser=0&hl=tr&rclk=1",
    "website_url": "",
    "rating_text": "5,0",
    "stars": null,
    "number_of_reviews": null,
    "price_level": "",
    "open_hours": "",
    "extraction_timestamp": "2025-06-07T14:45:15.642Z",
    "source_name": "google",
    "source_query": "Irrigation Equipment",
    "source_country": "TR",
    "country": "Turkey",
    "state": "Kahramanmaraş",
    "city": "Pazarcık"
  },
  {
    "source_id": "ChIJxxyFPAn3LRURz472g9SYI00",
    "name": "EMİN DOĞALGAZ & YAPI MARKET",
    "category": "EMİN DOĞALGAZ & YAPI MARKET",
    "formatted_address": "2,5(8)",
    "phone_number": "+905072168699",
    "source_url": "https://www.google.com/maps/place/EM%C4%B0N+DO%C4%9EALGAZ+%26+YAPI+MARKET/data=!4m7!3m6!1s0x152df7093c851cc7:0x4d2398d483f68ecf!8m2!3d37.4904183!4d37.2967158!16s%2Fg%2F11r7hpsy5d!19sChIJxxyFPAn3LRURz472g9SYI00?authuser=0&hl=tr&rclk=1",
    "website_url": "",
    "rating_text": "2,5",
    "stars": null,
    "number_of_reviews": null,
    "price_level": "",
    "open_hours": "",
    "extraction_timestamp": "2025-06-07T14:45:15.643Z",
    "source_name": "google",
    "source_query": "Irrigation Equipment",
    "source_country": "TR",
    "country": "Turkey",
    "state": "Kahramanmaraş",
    "city": "Pazarcık"
  },
  {
    "source_id": "ChIJJ36eN8v3LRURF9UI_mvEENA",
    "name": "SDY Su Arıtma Dünyası",
    "category": "SDY Su Arıtma Dünyası",
    "formatted_address": "5,0(5)",
    "phone_number": "+905432091739",
    "source_url": "https://www.google.com/maps/place/SDY+Su+Ar%C4%B1tma+D%C3%BCnyas%C4%B1/data=!4m7!3m6!1s0x152df7cb379e7e27:0xd010c46bfe08d517!8m2!3d37.490281!4d37.2971238!16s%2Fg%2F11kqsf4ryx!19sChIJJ36eN8v3LRURF9UI_mvEENA?authuser=0&hl=tr&rclk=1",
    "website_url": "",
    "rating_text": "5,0",
    "stars": null,
    "number_of_reviews": null,
    "price_level": "",
    "open_hours": "",
    "extraction_timestamp": "2025-06-07T14:45:15.644Z",
    "source_name": "google",
    "source_query": "Irrigation Equipment",
    "source_country": "TR",
    "country": "Turkey",
    "state": "Kahramanmaraş",
    "city": "Pazarcık"
  },
  {
    "source_id": "ChIJvfFrBHn3LRURCngP8_2-tEs",
    "name": "ASEL SU ARITMA SİSTEMLERİ",
    "category": "ASEL SU ARITMA SİSTEMLERİ",
    "formatted_address": "5,0(5)",
    "phone_number": "+905326852683",
    "source_url": "https://www.google.com/maps/place/ASEL+SU+ARITMA+S%C4%B0STEMLER%C4%B0/data=!4m7!3m6!1s0x152df779046bf1bd:0x4bb4befdf30f780a!8m2!3d37.4860526!4d37.2943765!16s%2Fg%2F11vj488dv_!19sChIJvfFrBHn3LRURCngP8_2-tEs?authuser=0&hl=tr&rclk=1",
    "website_url": "",
    "rating_text": "5,0",
    "stars": null,
    "number_of_reviews": null,
    "price_level": "",
    "open_hours": "",
    "extraction_timestamp": "2025-06-07T14:45:15.645Z",
    "source_name": "google",
    "source_query": "Irrigation Equipment",
    "source_country": "TR",
    "country": "Turkey",
    "state": "Kahramanmaraş",
    "city": "Pazarcık"
  },
  {
    "source_id": "ChIJ-zNOAAMIMhURfTNnin17GwE",
    "name": "Çiftepala Market",
    "category": "Çiftepala Market",
    "formatted_address": "4,6(35)",
    "phone_number": "+905453111635",
    "source_url": "https://www.google.com/maps/place/%C3%87iftepala+Market/data=!4m7!3m6!1s0x15320803004e33fb:0x11b7b7d8a67337d!8m2!3d37.4895098!4d37.2956543!16s%2Fg%2F113jykvjs!19sChIJ-zNOAAMIMhURfTNnin17GwE?authuser=0&hl=tr&rclk=1",
    "website_url": "",
    "rating_text": "4,6",
    "stars": null,
    "number_of_reviews": null,
    "price_level": "",
    "open_hours": "",
    "extraction_timestamp": "2025-06-07T14:45:15.646Z",
    "source_name": "google",
    "source_query": "Irrigation Equipment",
    "source_country": "TR",
    "country": "Turkey",
    "state": "Kahramanmaraş",
    "city": "Pazarcık"
  },
  {
    "source_id": "ChIJC2WCFx4IMhURTlKwt7VBMys",
    "name": "Ünal Market",
    "category": "Ünal Market",
    "formatted_address": "3,9(293)",
    "phone_number": "+903443116250",
    "source_url": "https://www.google.com/maps/place/%C3%9Cnal+Market/data=!4m7!3m6!1s0x1532081e1782650b:0x2b3341b5b7b0524e!8m2!3d37.491909!4d37.297902!16s%2Fg%2F11b7p_m56k!19sChIJC2WCFx4IMhURTlKwt7VBMys?authuser=0&hl=tr&rclk=1",
    "website_url": "",
    "rating_text": "3,9",
    "stars": null,
    "number_of_reviews": null,
    "price_level": "",
    "open_hours": "",
    "extraction_timestamp": "2025-06-07T14:45:15.647Z",
    "source_name": "google",
    "source_query": "Irrigation Equipment",
    "source_country": "TR",
    "country": "Turkey",
    "state": "Kahramanmaraş",
    "city": "Pazarcık"
  },
  {
    "source_id": "ChIJMSWLbacJMhUR8SOuTmgi5h0",
    "name": "Su Deposu",
    "category": "Su Deposu",
    "formatted_address": "5,0(1)",
    "phone_number": "",
    "source_url": "https://www.google.com/maps/place/Su+Deposu/data=!4m7!3m6!1s0x153209a76d8b2531:0x1de622684eae23f1!8m2!3d37.5113143!4d37.3398284!16s%2Fg%2F11b7q4x4mt!19sChIJMSWLbacJMhUR8SOuTmgi5h0?authuser=0&hl=tr&rclk=1",
    "website_url": "",
    "rating_text": "5,0",
    "stars": null,
    "number_of_reviews": null,
    "price_level": "",
    "open_hours": "",
    "extraction_timestamp": "2025-06-07T14:45:15.647Z",
    "source_name": "google",
    "source_query": "Irrigation Equipment",
    "source_country": "TR",
    "country": "Turkey",
    "state": "Kahramanmaraş",
    "city": "Pazarcık"
  }
]
