[
  {
    "source_id": "ChIJZ6t-aaBxLhURpAXLytV6rGU",
    "name": "Deva Tarım",
    "category": "Deva Tarım",
    "formatted_address": "5,0(2)",
    "phone_number": "+905433460678",
    "source_url": "https://www.google.com/maps/place/Deva+Tar%C4%B1m/data=!4m7!3m6!1s0x152e71a0697eab67:0x65ac7ad5cacb05a4!8m2!3d37.3825812!4d36.8448521!16s%2Fg%2F11b7qc4581!19sChIJZ6t-aaBxLhURpAXLytV6rGU?authuser=0&hl=tr&rclk=1",
    "website_url": "",
    "rating_text": "5,0",
    "stars": null,
    "number_of_reviews": null,
    "price_level": "",
    "open_hours": "",
    "extraction_timestamp": "2025-06-07T14:45:42.186Z",
    "source_name": "google",
    "source_query": "Irrigation Equipment",
    "source_country": "TR",
    "country": "Turkey",
    "state": "Kahramanmaraş",
    "city": "Türkoğlu"
  },
  {
    "source_id": "ChIJE1NIlHVxLhUR5_Cnjigyi5M",
    "name": "Türkoğlu su arıtma",
    "category": "Türkoğlu su arıtma",
    "formatted_address": "3,9(242)",
    "phone_number": "+905433940370",
    "source_url": "https://www.google.com/maps/place/T%C3%BCrko%C4%9Flu+su+ar%C4%B1tma/data=!4m7!3m6!1s0x152e717594485313:0x938b32288ea7f0e7!8m2!3d37.3825914!4d36.8503826!16s%2Fg%2F1td6vh25!19sChIJE1NIlHVxLhUR5_Cnjigyi5M?authuser=0&hl=tr&rclk=1",
    "website_url": "",
    "rating_text": "3,9",
    "stars": null,
    "number_of_reviews": null,
    "price_level": "",
    "open_hours": "",
    "extraction_timestamp": "2025-06-07T14:45:42.187Z",
    "source_name": "google",
    "source_query": "Irrigation Equipment",
    "source_country": "TR",
    "country": "Turkey",
    "state": "Kahramanmaraş",
    "city": "Türkoğlu"
  },
  {
    "source_id": "ChIJuScx1XRxLhURb4LYIUtrscI",
    "name": "Yetimoğlu Hırdavat",
    "category": "Yetimoğlu Hırdavat",
    "formatted_address": "4,4(7)",
    "phone_number": "+903446183040",
    "source_url": "https://www.google.com/maps/place/Yetimo%C4%9Flu+H%C4%B1rdavat/data=!4m7!3m6!1s0x152e7174d53127b9:0xc2b16b4b21d8826f!8m2!3d37.3869219!4d36.8475951!16s%2Fg%2F11clzh9jfm!19sChIJuScx1XRxLhURb4LYIUtrscI?authuser=0&hl=tr&rclk=1",
    "website_url": "",
    "rating_text": "4,4",
    "stars": null,
    "number_of_reviews": null,
    "price_level": "",
    "open_hours": "",
    "extraction_timestamp": "2025-06-07T14:45:42.187Z",
    "source_name": "google",
    "source_query": "Irrigation Equipment",
    "source_country": "TR",
    "country": "Turkey",
    "state": "Kahramanmaraş",
    "city": "Türkoğlu"
  },
  {
    "source_id": "ChIJA5PO3GZxLhURjN6QYPlVSjg",
    "name": "Marinas Yapı Market",
    "category": "Marinas Yapı Market",
    "formatted_address": "5,0(3)",
    "phone_number": "+903442217025",
    "source_url": "https://www.google.com/maps/place/Marinas+Yap%C4%B1+Market/data=!4m7!3m6!1s0x152e7166dcce9303:0x384a55f96090de8c!8m2!3d37.393176!4d36.861578!16s%2Fg%2F11c1mzmln0!19sChIJA5PO3GZxLhURjN6QYPlVSjg?authuser=0&hl=tr&rclk=1",
    "website_url": "",
    "rating_text": "5,0",
    "stars": null,
    "number_of_reviews": null,
    "price_level": "",
    "open_hours": "",
    "extraction_timestamp": "2025-06-07T14:45:42.188Z",
    "source_name": "google",
    "source_query": "Irrigation Equipment",
    "source_country": "TR",
    "country": "Turkey",
    "state": "Kahramanmaraş",
    "city": "Türkoğlu"
  },
  {
    "source_id": "ChIJYx5CAABxLhURQt6xqnUsXLg",
    "name": "güçlü bims yapı market",
    "category": "güçlü bims yapı market",
    "formatted_address": "5,0(1)",
    "phone_number": "",
    "source_url": "https://www.google.com/maps/place/g%C3%BC%C3%A7l%C3%BC+bims+yap%C4%B1+market/data=!4m7!3m6!1s0x152e710000421e63:0xb85c2c75aab1de42!8m2!3d37.3760526!4d36.8612338!16s%2Fg%2F11y4vdvnxq!19sChIJYx5CAABxLhURQt6xqnUsXLg?authuser=0&hl=tr&rclk=1",
    "website_url": "",
    "rating_text": "5,0",
    "stars": null,
    "number_of_reviews": null,
    "price_level": "",
    "open_hours": "",
    "extraction_timestamp": "2025-06-07T14:45:42.189Z",
    "source_name": "google",
    "source_query": "Irrigation Equipment",
    "source_country": "TR",
    "country": "Turkey",
    "state": "Kahramanmaraş",
    "city": "Türkoğlu"
  },
  {
    "source_id": "ChIJIxyOxXBpLhURvhLEnmyl6-s",
    "name": "türkoğlu su arıtma",
    "category": "türkoğlu su arıtma",
    "formatted_address": "5,0(1)",
    "phone_number": "",
    "source_url": "https://www.google.com/maps/place/t%C3%BCrko%C4%9Flu+su+ar%C4%B1tma/data=!4m7!3m6!1s0x152e6970c58e1c23:0xebeba56c9ec412be!8m2!3d37.2892095!4d36.7869075!16s%2Fg%2F11h_2lqvzx!19sChIJIxyOxXBpLhURvhLEnmyl6-s?authuser=0&hl=tr&rclk=1",
    "website_url": "",
    "rating_text": "5,0",
    "stars": null,
    "number_of_reviews": null,
    "price_level": "",
    "open_hours": "",
    "extraction_timestamp": "2025-06-07T14:45:42.190Z",
    "source_name": "google",
    "source_query": "Irrigation Equipment",
    "source_country": "TR",
    "country": "Turkey",
    "state": "Kahramanmaraş",
    "city": "Türkoğlu"
  },
  {
    "source_id": "ChIJVfmnKgtxLhURIwrpbNRBRBU",
    "name": "Tuncay Gıda",
    "category": "Tuncay Gıda",
    "formatted_address": "4,9(11)",
    "phone_number": "+905356565934",
    "source_url": "https://www.google.com/maps/place/Tuncay+G%C4%B1da/data=!4m7!3m6!1s0x152e710b2aa7f955:0x154441d46ce90a23!8m2!3d37.369298!4d36.8367554!16s%2Fg%2F11b7q5bl3p!19sChIJVfmnKgtxLhURIwrpbNRBRBU?authuser=0&hl=tr&rclk=1",
    "website_url": "",
    "rating_text": "4,9",
    "stars": null,
    "number_of_reviews": null,
    "price_level": "",
    "open_hours": "",
    "extraction_timestamp": "2025-06-07T14:45:42.191Z",
    "source_name": "google",
    "source_query": "Irrigation Equipment",
    "source_country": "TR",
    "country": "Turkey",
    "state": "Kahramanmaraş",
    "city": "Türkoğlu"
  },
  {
    "source_id": "ChIJ57O_Om9xLhURAGdMVuA4vMs",
    "name": "Türkoğlu Belediyesi",
    "category": "Türkoğlu Belediyesi",
    "formatted_address": "3,8(122)",
    "phone_number": "+903446181005",
    "source_url": "https://www.google.com/maps/place/T%C3%BCrko%C4%9Flu+Belediyesi/data=!4m7!3m6!1s0x152e716f3abfb3e7:0xcbbc38e0564c6700!8m2!3d37.393017!4d36.855378!16s%2Fg%2F1td3c2kn!19sChIJ57O_Om9xLhURAGdMVuA4vMs?authuser=0&hl=tr&rclk=1",
    "website_url": "",
    "rating_text": "3,8",
    "stars": null,
    "number_of_reviews": null,
    "price_level": "",
    "open_hours": "",
    "extraction_timestamp": "2025-06-07T14:45:42.191Z",
    "source_name": "google",
    "source_query": "Irrigation Equipment",
    "source_country": "TR",
    "country": "Turkey",
    "state": "Kahramanmaraş",
    "city": "Türkoğlu"
  },
  {
    "source_id": "ChIJZWyWArjdLRURjlu4BqJxank",
    "name": "Bosch Yetkili Satıcısı",
    "category": "Bosch Yetkili Satıcısı",
    "formatted_address": "",
    "phone_number": "+905386925982",
    "source_url": "https://www.google.com/maps/place/Bosch+Yetkili+Sat%C4%B1c%C4%B1s%C4%B1/data=!4m7!3m6!1s0x152dddb802966c65:0x796a71a206b85b8e!8m2!3d37.3805736!4d36.8439502!16s%2Fg%2F11ybzhb5nn!19sChIJZWyWArjdLRURjlu4BqJxank?authuser=0&hl=tr&rclk=1",
    "website_url": "",
    "rating_text": "",
    "stars": null,
    "number_of_reviews": null,
    "price_level": "",
    "open_hours": "",
    "extraction_timestamp": "2025-06-07T14:45:42.192Z",
    "source_name": "google",
    "source_query": "Irrigation Equipment",
    "source_country": "TR",
    "country": "Turkey",
    "state": "Kahramanmaraş",
    "city": "Türkoğlu"
  },
  {
    "source_id": "ChIJG2hYruNxLhURxJEv7UdrWec",
    "name": "AVANTAJ MARKET",
    "category": "AVANTAJ MARKET",
    "formatted_address": "",
    "phone_number": "+905327207936",
    "source_url": "https://www.google.com/maps/place/AVANTAJ+MARKET/data=!4m7!3m6!1s0x152e71e3ae58681b:0xe7596b47ed2f91c4!8m2!3d37.373136!4d36.839183!16s%2Fg%2F11rjsvl7_y!19sChIJG2hYruNxLhURxJEv7UdrWec?authuser=0&hl=tr&rclk=1",
    "website_url": "",
    "rating_text": "",
    "stars": null,
    "number_of_reviews": null,
    "price_level": "",
    "open_hours": "",
    "extraction_timestamp": "2025-06-07T14:45:42.192Z",
    "source_name": "google",
    "source_query": "Irrigation Equipment",
    "source_country": "TR",
    "country": "Turkey",
    "state": "Kahramanmaraş",
    "city": "Türkoğlu"
  },
  {
    "source_id": "ChIJ9_RnznRxLhURxysmO5hXUCA",
    "name": "Profilo",
    "category": "Profilo",
    "formatted_address": "",
    "phone_number": "+903446183479",
    "source_url": "https://www.google.com/maps/place/Profilo/data=!4m7!3m6!1s0x152e7174ce67f4f7:0x205057983b262bc7!8m2!3d37.385855!4d36.846861!16s%2Fg%2F11b7q5fh20!19sChIJ9_RnznRxLhURxysmO5hXUCA?authuser=0&hl=tr&rclk=1",
    "website_url": "",
    "rating_text": "",
    "stars": null,
    "number_of_reviews": null,
    "price_level": "",
    "open_hours": "",
    "extraction_timestamp": "2025-06-07T14:45:42.193Z",
    "source_name": "google",
    "source_query": "Irrigation Equipment",
    "source_country": "TR",
    "country": "Turkey",
    "state": "Kahramanmaraş",
    "city": "Türkoğlu"
  }
]
