[
  {
    "source_id": "ChIJNQGCJmHCTw0R8aNDhF16xWE",
    "name": "Eziolaza Amalur S.L.",
    "category": "Eziolaza Amalur S.L.",
    "formatted_address": "4,5(166)",
    "phone_number": "+34945257255",
    "source_url": "https://www.google.com/maps/place/Eziolaza+Amalur+S.L./data=!4m7!3m6!1s0xd4fc26126820135:0x61c57a5d8443a3f1!8m2!3d42.84965!4d-2.66277!16s%2Fg%2F1td2j6j9!19sChIJNQGCJmHCTw0R8aNDhF16xWE?authuser=0&hl=tr&rclk=1",
    "website_url": "http://www.eziolaza.com/",
    "rating_text": "4,5",
    "stars": null,
    "number_of_reviews": null,
    "price_level": "",
    "open_hours": "",
    "extraction_timestamp": "2025-06-08T03:18:20.087Z",
    "source_name": "google",
    "source_query": "Irrigation Equipment",
    "source_country": "ES",
    "country": "Spain",
    "state": "Araba",
    "city": "Alegría-Dulantzi"
  },
  {
    "source_id": "ChIJ98j1fTXBTw0RRsu_NlJLAjM",
    "name": "Hiartek, S.L.",
    "category": "Hiartek, S.L.",
    "formatted_address": "Hiartek, S.L.",
    "phone_number": "+34945036449",
    "source_url": "https://www.google.com/maps/place/Hiartek,+S.L./data=!4m7!3m6!1s0xd4fc1357df5c8f7:0x33024b5236bfcb46!8m2!3d42.8440557!4d-2.7397871!16s%2Fg%2F11mvvdf207!19sChIJ98j1fTXBTw0RRsu_NlJLAjM?authuser=0&hl=tr&rclk=1",
    "website_url": "http://www.hiartek.com/",
    "rating_text": "5,0",
    "stars": null,
    "number_of_reviews": null,
    "price_level": "",
    "open_hours": "",
    "extraction_timestamp": "2025-06-08T03:18:20.088Z",
    "source_name": "google",
    "source_query": "Irrigation Equipment",
    "source_country": "ES",
    "country": "Spain",
    "state": "Araba",
    "city": "Alegría-Dulantzi"
  },
  {
    "source_id": "ChIJbYjym63DTw0RZ_ikNB_HuFY",
    "name": "Proyectos Diurvi",
    "category": "Proyectos Diurvi",
    "formatted_address": "5,0(2)",
    "phone_number": "+34673058430",
    "source_url": "https://www.google.com/maps/place/Proyectos+Diurvi/data=!4m7!3m6!1s0xd4fc3ad9bf2886d:0x56b8c71f34a4f867!8m2!3d42.8472276!4d-2.6864894!16s%2Fg%2F11x0r714y8!19sChIJbYjym63DTw0RZ_ikNB_HuFY?authuser=0&hl=tr&rclk=1",
    "website_url": "https://www.proyectosdiurvi.com/",
    "rating_text": "5,0",
    "stars": null,
    "number_of_reviews": null,
    "price_level": "",
    "open_hours": "",
    "extraction_timestamp": "2025-06-08T03:18:20.090Z",
    "source_name": "google",
    "source_query": "Irrigation Equipment",
    "source_country": "ES",
    "country": "Spain",
    "state": "Araba",
    "city": "Alegría-Dulantzi"
  },
  {
    "source_id": "ChIJtTF-TCLeTw0RnqQdWnSu_hg",
    "name": "GARAJE DULANTZI SL",
    "category": "GARAJE DULANTZI SL",
    "formatted_address": "3,8(39)",
    "phone_number": "+34945420124",
    "source_url": "https://www.google.com/maps/place/GARAJE+DULANTZI+SL/data=!4m7!3m6!1s0xd4fde224c7e31b5:0x18feae745a1da49e!8m2!3d42.8420884!4d-2.516446!16s%2Fg%2F1hc2k24yw!19sChIJtTF-TCLeTw0RnqQdWnSu_hg?authuser=0&hl=tr&rclk=1",
    "website_url": "",
    "rating_text": "3,8",
    "stars": null,
    "number_of_reviews": null,
    "price_level": "",
    "open_hours": "",
    "extraction_timestamp": "2025-06-08T03:18:20.092Z",
    "source_name": "google",
    "source_query": "Irrigation Equipment",
    "source_country": "ES",
    "country": "Spain",
    "state": "Araba",
    "city": "Alegría-Dulantzi"
  },
  {
    "source_id": "ChIJAXg-kXbqTw0RDWzUVXTTcOM",
    "name": "Vitoriana de Riegos S L",
    "category": "Vitoriana de Riegos S L",
    "formatted_address": "4,0(2)",
    "phone_number": "+34945132595",
    "source_url": "https://www.google.com/maps/place/Vitoriana+de+Riegos+S+L/data=!4m7!3m6!1s0xd4fea76913e7801:0xe370d37455d46c0d!8m2!3d42.828207!4d-2.724081!16s%2Fg%2F11cncbxrg4!19sChIJAXg-kXbqTw0RDWzUVXTTcOM?authuser=0&hl=tr&rclk=1",
    "website_url": "",
    "rating_text": "4,0",
    "stars": null,
    "number_of_reviews": null,
    "price_level": "",
    "open_hours": "",
    "extraction_timestamp": "2025-06-08T03:18:20.093Z",
    "source_name": "google",
    "source_query": "Irrigation Equipment",
    "source_country": "ES",
    "country": "Spain",
    "state": "Araba",
    "city": "Alegría-Dulantzi"
  },
  {
    "source_id": "ChIJB_GOxCXeTw0RFmTyEQlYbjM",
    "name": "Eroski City",
    "category": "Eroski City",
    "formatted_address": "4,2(128)",
    "phone_number": "+34945420005",
    "source_url": "https://www.google.com/maps/place/Eroski+City/data=!4m7!3m6!1s0xd4fde25c48ef107:0x336e580911f26416!8m2!3d42.8418925!4d-2.5116366!16s%2Fg%2F11b6bmqrpg!19sChIJB_GOxCXeTw0RFmTyEQlYbjM?authuser=0&hl=tr&rclk=1",
    "website_url": "https://www.eroski.es/localizador-de-tiendas/supermercado/araba/alegria-dulantzi/eroskicity-alegria-dulantzi/",
    "rating_text": "4,2",
    "stars": null,
    "number_of_reviews": null,
    "price_level": "",
    "open_hours": "",
    "extraction_timestamp": "2025-06-08T03:18:20.095Z",
    "source_name": "google",
    "source_query": "Irrigation Equipment",
    "source_country": "ES",
    "country": "Spain",
    "state": "Araba",
    "city": "Alegría-Dulantzi"
  },
  {
    "source_id": "ChIJxcBMBePCTw0R4rJIHI5SYX0",
    "name": "Nuvi Araba",
    "category": "Nuvi Araba",
    "formatted_address": "4,8(5)",
    "phone_number": "+34945263581",
    "source_url": "https://www.google.com/maps/place/Nuvi+Araba/data=!4m7!3m6!1s0xd4fc2e3054cc0c5:0x7d61528e1c48b2e2!8m2!3d42.8693918!4d-2.6468918!16s%2Fg%2F11byhlb3c3!19sChIJxcBMBePCTw0R4rJIHI5SYX0?authuser=0&hl=tr&rclk=1",
    "website_url": "http://www.nuviaraba.com/",
    "rating_text": "4,8",
    "stars": null,
    "number_of_reviews": null,
    "price_level": "",
    "open_hours": "",
    "extraction_timestamp": "2025-06-08T03:18:20.096Z",
    "source_name": "google",
    "source_query": "Irrigation Equipment",
    "source_country": "ES",
    "country": "Spain",
    "state": "Araba",
    "city": "Alegría-Dulantzi"
  },
  {
    "source_id": "ChIJn68yfBjeTw0RdvZWa3u74UI",
    "name": "STS Alegria",
    "category": "STS Alegria",
    "formatted_address": "3,8(4)",
    "phone_number": "",
    "source_url": "https://www.google.com/maps/place/STS+Alegria/data=!4m7!3m6!1s0xd4fde187c32af9f:0x42e1bb7b6b56f676!8m2!3d42.8436076!4d-2.5201432!16s%2Fg%2F11c5h2_drp!19sChIJn68yfBjeTw0RdvZWa3u74UI?authuser=0&hl=tr&rclk=1",
    "website_url": "",
    "rating_text": "3,8",
    "stars": null,
    "number_of_reviews": null,
    "price_level": "",
    "open_hours": "",
    "extraction_timestamp": "2025-06-08T03:18:20.098Z",
    "source_name": "google",
    "source_query": "Irrigation Equipment",
    "source_country": "ES",
    "country": "Spain",
    "state": "Araba",
    "city": "Alegría-Dulantzi"
  },
  {
    "source_id": "ChIJLT7WgybeTw0RAKkVi847AUM",
    "name": "Subinarreka Supermerkatua",
    "category": "Subinarreka Supermerkatua",
    "formatted_address": "5,0(9)",
    "phone_number": "",
    "source_url": "https://www.google.com/maps/place/Subinarreka+Supermerkatua/data=!4m7!3m6!1s0xd4fde2683d63e2d:0x43013bce8b15a900!8m2!3d42.8410152!4d-2.5126333!16s%2Fg%2F12qh6w7js!19sChIJLT7WgybeTw0RAKkVi847AUM?authuser=0&hl=tr&rclk=1",
    "website_url": "",
    "rating_text": "5,0",
    "stars": null,
    "number_of_reviews": null,
    "price_level": "",
    "open_hours": "",
    "extraction_timestamp": "2025-06-08T03:18:20.099Z",
    "source_name": "google",
    "source_query": "Irrigation Equipment",
    "source_country": "ES",
    "country": "Spain",
    "state": "Araba",
    "city": "Alegría-Dulantzi"
  },
  {
    "source_id": "ChIJr6HD-CXeTw0RtJeMp-0Anmo",
    "name": "Farmacia Angulo Arce",
    "category": "Farmacia Angulo Arce",
    "formatted_address": "4,8(33)",
    "phone_number": "+34945420217",
    "source_url": "https://www.google.com/maps/place/Farmacia+Angulo+Arce/data=!4m7!3m6!1s0xd4fde25f8c3a1af:0x6a9e00eda78c97b4!8m2!3d42.8408728!4d-2.5107232!16s%2Fg%2F1z44c8w64!19sChIJr6HD-CXeTw0RtJeMp-0Anmo?authuser=0&hl=tr&rclk=1",
    "website_url": "http://farmaciaanguloarce.es/",
    "rating_text": "4,8",
    "stars": null,
    "number_of_reviews": null,
    "price_level": "",
    "open_hours": "",
    "extraction_timestamp": "2025-06-08T03:18:20.101Z",
    "source_name": "google",
    "source_query": "Irrigation Equipment",
    "source_country": "ES",
    "country": "Spain",
    "state": "Araba",
    "city": "Alegría-Dulantzi"
  },
  {
    "source_id": "ChIJB_GOxCXeTw0RHumV2Ajspkw",
    "name": "Aberasturi Dulantzi S L",
    "category": "Aberasturi Dulantzi S L",
    "formatted_address": "4,0(1)",
    "phone_number": "+34945420000",
    "source_url": "https://www.google.com/maps/place/Aberasturi+Dulantzi+S+L/data=!4m7!3m6!1s0xd4fde25c48ef107:0x4ca6ec08d895e91e!8m2!3d42.8419546!4d-2.5114953!16s%2Fg%2F1z44bdgfk!19sChIJB_GOxCXeTw0RHumV2Ajspkw?authuser=0&hl=tr&rclk=1",
    "website_url": "",
    "rating_text": "4,0",
    "stars": null,
    "number_of_reviews": null,
    "price_level": "",
    "open_hours": "",
    "extraction_timestamp": "2025-06-08T03:18:20.102Z",
    "source_name": "google",
    "source_query": "Irrigation Equipment",
    "source_country": "ES",
    "country": "Spain",
    "state": "Araba",
    "city": "Alegría-Dulantzi"
  },
  {
    "source_id": "ChIJK-Cy_SXeTw0RGuDG6Vaurhc",
    "name": "Panaderia La Vitoriana - Alegria",
    "category": "Panaderia La Vitoriana - Alegria",
    "formatted_address": "3,9(97) · €1–10",
    "phone_number": "+34945420382",
    "source_url": "https://www.google.com/maps/place/Panaderia+La+Vitoriana+-+Alegria/data=!4m7!3m6!1s0xd4fde25fdb2e02b:0x17aeae56e9c6e01a!8m2!3d42.8413795!4d-2.5103072!16s%2Fg%2F11c1gj32bf!19sChIJK-Cy_SXeTw0RGuDG6Vaurhc?authuser=0&hl=tr&rclk=1",
    "website_url": "http://www.lavitoriana.com/",
    "rating_text": "3,9",
    "stars": null,
    "number_of_reviews": null,
    "price_level": "",
    "open_hours": "",
    "extraction_timestamp": "2025-06-08T03:18:20.103Z",
    "source_name": "google",
    "source_query": "Irrigation Equipment",
    "source_country": "ES",
    "country": "Spain",
    "state": "Araba",
    "city": "Alegría-Dulantzi"
  }
]
