[
  {
    "source_id": "ChIJxf1oxKSuTw0RM0bwCV6JPg8",
    "name": "Coplasva S.L.",
    "category": "Coplasva S.L.",
    "formatted_address": "4,7(38)",
    "phone_number": "+34945890050",
    "source_url": "https://www.google.com/maps/place/Coplasva+S.L./data=!4m7!3m6!1s0xd4faea4c468fdc5:0xf3e895e09f04633!8m2!3d43.0367819!4d-3.0038738!16s%2Fg%2F1v_s75pf!19sChIJxf1oxKSuTw0RM0bwCV6JPg8?authuser=0&hl=tr&rclk=1",
    "website_url": "",
    "rating_text": "4,7",
    "stars": null,
    "number_of_reviews": null,
    "price_level": "",
    "open_hours": "",
    "extraction_timestamp": "2025-06-08T03:18:30.297Z",
    "source_name": "google",
    "source_query": "Irrigation Equipment",
    "source_country": "ES",
    "country": "Spain",
    "state": "Araba",
    "city": "Amurrio"
  },
  {
    "source_id": "ChIJG0fv0hGvTw0RuQedYel4MiA",
    "name": "TUBOS REUNIDOS S.A.",
    "category": "TUBOS REUNIDOS S.A.",
    "formatted_address": "4,1(238)",
    "phone_number": "+34945897100",
    "source_url": "https://www.google.com/maps/place/TUBOS+REUNIDOS+S.A./data=!4m7!3m6!1s0xd4faf11d2ef471b:0x203278e9619d07b9!8m2!3d43.0722867!4d-2.9963998!16s%2Fg%2F1z44d039m!19sChIJG0fv0hGvTw0RuQedYel4MiA?authuser=0&hl=tr&rclk=1",
    "website_url": "",
    "rating_text": "4,1",
    "stars": null,
    "number_of_reviews": null,
    "price_level": "",
    "open_hours": "",
    "extraction_timestamp": "2025-06-08T03:18:30.298Z",
    "source_name": "google",
    "source_query": "Irrigation Equipment",
    "source_country": "ES",
    "country": "Spain",
    "state": "Araba",
    "city": "Amurrio"
  },
  {
    "source_id": "ChIJAWZsaKGuTw0RhRWHERUfxFI",
    "name": "Raga Ibarrondo instalaciones, S.L.",
    "category": "Raga Ibarrondo instalaciones, S.L.",
    "formatted_address": "Raga Ibarrondo instalaciones, S.L.",
    "phone_number": "+34945303735",
    "source_url": "https://www.google.com/maps/place/Raga+Ibarrondo+instalaciones,+S.L./data=!4m7!3m6!1s0xd4faea1686c6601:0x52c41f1511871585!8m2!3d43.0537291!4d-3.0012072!16s%2Fg%2F11gfbc8x4q!19sChIJAWZsaKGuTw0RhRWHERUfxFI?authuser=0&hl=tr&rclk=1",
    "website_url": "",
    "rating_text": "3,6",
    "stars": null,
    "number_of_reviews": null,
    "price_level": "",
    "open_hours": "",
    "extraction_timestamp": "2025-06-08T03:18:30.299Z",
    "source_name": "google",
    "source_query": "Irrigation Equipment",
    "source_country": "ES",
    "country": "Spain",
    "state": "Araba",
    "city": "Amurrio"
  },
  {
    "source_id": "ChIJxUJN1U-vTw0RM9OxGuSAj7g",
    "name": "Mercado Drogasketa Ikasporroa",
    "category": "Mercado Drogasketa Ikasporroa",
    "formatted_address": "4,5(2)",
    "phone_number": "",
    "source_url": "https://www.google.com/maps/place/Mercado+Drogasketa+Ikasporroa/data=!4m7!3m6!1s0xd4faf4fd54d42c5:0xb88f80e41ab1d333!8m2!3d43.0510322!4d-3.0043466!16s%2Fg%2F11ngjtc9ms!19sChIJxUJN1U-vTw0RM9OxGuSAj7g?authuser=0&hl=tr&rclk=1",
    "website_url": "",
    "rating_text": "4,5",
    "stars": null,
    "number_of_reviews": null,
    "price_level": "",
    "open_hours": "",
    "extraction_timestamp": "2025-06-08T03:18:30.300Z",
    "source_name": "google",
    "source_query": "Irrigation Equipment",
    "source_country": "ES",
    "country": "Spain",
    "state": "Araba",
    "city": "Amurrio"
  },
  {
    "source_id": "ChIJmwoNAgOvTw0Rf77wooyzv9Q",
    "name": "Sidenor Amurrio",
    "category": "Sidenor Amurrio",
    "formatted_address": "4,3(151)",
    "phone_number": "",
    "source_url": "https://www.google.com/maps/place/Sidenor+Amurrio/data=!4m7!3m6!1s0xd4faf03020d0a9b:0xd4bfb38ca2f0be7f!8m2!3d43.0359916!4d-3.0052008!16s%2Fg%2F11fpl2wflx!19sChIJmwoNAgOvTw0Rf77wooyzv9Q?authuser=0&hl=tr&rclk=1",
    "website_url": "",
    "rating_text": "4,3",
    "stars": null,
    "number_of_reviews": null,
    "price_level": "",
    "open_hours": "",
    "extraction_timestamp": "2025-06-08T03:18:30.300Z",
    "source_name": "google",
    "source_query": "Irrigation Equipment",
    "source_country": "ES",
    "country": "Spain",
    "state": "Araba",
    "city": "Amurrio"
  },
  {
    "source_id": "ChIJexjtdWKvTw0Rd1B5BRwPlUI",
    "name": "Market Amurrio",
    "category": "Market Amurrio",
    "formatted_address": "4,2(158)",
    "phone_number": "+34610344551",
    "source_url": "https://www.google.com/maps/place/Market+Amurrio/data=!4m7!3m6!1s0xd4faf6275ed187b:0x42950f1c05795077!8m2!3d43.0455648!4d-2.9895486!16s%2Fg%2F11gk83jl00!19sChIJexjtdWKvTw0Rd1B5BRwPlUI?authuser=0&hl=tr&rclk=1",
    "website_url": "",
    "rating_text": "4,2",
    "stars": null,
    "number_of_reviews": null,
    "price_level": "",
    "open_hours": "",
    "extraction_timestamp": "2025-06-08T03:18:30.301Z",
    "source_name": "google",
    "source_query": "Irrigation Equipment",
    "source_country": "ES",
    "country": "Spain",
    "state": "Araba",
    "city": "Amurrio"
  },
  {
    "source_id": "ChIJiQhcwKWuTw0RtqrRwpVqc_k",
    "name": "Materiales de Construcción Arregui",
    "category": "Materiales de Construcción Arregui",
    "formatted_address": "4,5(64)",
    "phone_number": "+34945890661",
    "source_url": "https://www.google.com/maps/place/Materiales+de+Construcci%C3%B3n+Arregui/data=!4m7!3m6!1s0xd4faea5c05c0889:0xf9736a95c2d1aab6!8m2!3d43.051745!4d-3.0059839!16s%2Fg%2F1thlpd53!19sChIJiQhcwKWuTw0RtqrRwpVqc_k?authuser=0&hl=tr&rclk=1",
    "website_url": "",
    "rating_text": "4,5",
    "stars": null,
    "number_of_reviews": null,
    "price_level": "",
    "open_hours": "",
    "extraction_timestamp": "2025-06-08T03:18:30.302Z",
    "source_name": "google",
    "source_query": "Irrigation Equipment",
    "source_country": "ES",
    "country": "Spain",
    "state": "Araba",
    "city": "Amurrio"
  },
  {
    "source_id": "ChIJnSetYKGuTw0REKaaOeF66NY",
    "name": "Ferretería Arberas",
    "category": "Ferretería Arberas",
    "formatted_address": "4,4(118)",
    "phone_number": "+34945891181",
    "source_url": "https://www.google.com/maps/place/Ferreter%C3%ADa+Arberas/data=!4m7!3m6!1s0xd4faea160ad279d:0xd6e87ae1399aa610!8m2!3d43.0469991!4d-3.0005976!16s%2Fg%2F1tj2k61p!19sChIJnSetYKGuTw0REKaaOeF66NY?authuser=0&hl=tr&rclk=1",
    "website_url": "",
    "rating_text": "4,4",
    "stars": null,
    "number_of_reviews": null,
    "price_level": "",
    "open_hours": "",
    "extraction_timestamp": "2025-06-08T03:18:30.303Z",
    "source_name": "google",
    "source_query": "Irrigation Equipment",
    "source_country": "ES",
    "country": "Spain",
    "state": "Araba",
    "city": "Amurrio"
  },
  {
    "source_id": "ChIJoV2EqKOuTw0RnB529xFLWc8",
    "name": "Herboristeria Lur Amurrio",
    "category": "Herboristeria Lur Amurrio",
    "formatted_address": "4,3(4)",
    "phone_number": "+34945066809",
    "source_url": "https://www.google.com/maps/place/Herboristeria+Lur+Amurrio/data=!4m7!3m6!1s0xd4faea3a8845da1:0xcf594b11f7761e9c!8m2!3d43.0507858!4d-3.0005684!16s%2Fg%2F11c2pmny8g!19sChIJoV2EqKOuTw0RnB529xFLWc8?authuser=0&hl=tr&rclk=1",
    "website_url": "",
    "rating_text": "4,3",
    "stars": null,
    "number_of_reviews": null,
    "price_level": "",
    "open_hours": "",
    "extraction_timestamp": "2025-06-08T03:18:30.304Z",
    "source_name": "google",
    "source_query": "Irrigation Equipment",
    "source_country": "ES",
    "country": "Spain",
    "state": "Araba",
    "city": "Amurrio"
  },
  {
    "source_id": "ChIJ44aMopGuTw0Rc3XzUEzLaTU",
    "name": "PLAZA AMURRIO - EXPOSICIÓN y TIENDA de Cocinas, baños, construcción, decoración y jardinería",
    "category": "PLAZA AMURRIO - EXPOSICIÓN y TIENDA de Cocinas, baños, construcción, decoración y jardinería",
    "formatted_address": "PLAZA AMURRIO - EXPOSICIÓN y TIENDA de Cocinas, baños, construcción, decoración y jardinería",
    "phone_number": "+34945890293",
    "source_url": "https://www.google.com/maps/place/PLAZA+AMURRIO+-+EXPOSICI%C3%93N+y+TIENDA+de+Cocinas,+ba%C3%B1os,+construcci%C3%B3n,+decoraci%C3%B3n+y+jardiner%C3%ADa/data=!4m7!3m6!1s0xd4fae91a28c86e3:0x3569cb4c50f37573!8m2!3d43.0449923!4d-2.9892796!16s%2Fg%2F12m9bcx75!19sChIJ44aMopGuTw0Rc3XzUEzLaTU?authuser=0&hl=tr&rclk=1",
    "website_url": "",
    "rating_text": "4,4",
    "stars": null,
    "number_of_reviews": null,
    "price_level": "",
    "open_hours": "",
    "extraction_timestamp": "2025-06-08T03:18:30.305Z",
    "source_name": "google",
    "source_query": "Irrigation Equipment",
    "source_country": "ES",
    "country": "Spain",
    "state": "Araba",
    "city": "Amurrio"
  },
  {
    "source_id": "ChIJMS6EDFGvTw0RiCy4YKTkMT4",
    "name": "hiper bazar",
    "category": "hiper bazar",
    "formatted_address": "3,8(12)",
    "phone_number": "",
    "source_url": "https://www.google.com/maps/place/hiper+bazar/data=!4m7!3m6!1s0xd4faf510c842e31:0x3e31e4a460b82c88!8m2!3d43.0529192!4d-2.9980623!16s%2Fg%2F11hf24d08x!19sChIJMS6EDFGvTw0RiCy4YKTkMT4?authuser=0&hl=tr&rclk=1",
    "website_url": "",
    "rating_text": "3,8",
    "stars": null,
    "number_of_reviews": null,
    "price_level": "",
    "open_hours": "",
    "extraction_timestamp": "2025-06-08T03:18:30.306Z",
    "source_name": "google",
    "source_query": "Irrigation Equipment",
    "source_country": "ES",
    "country": "Spain",
    "state": "Araba",
    "city": "Amurrio"
  },
  {
    "source_id": "ChIJx0D4GhqtTw0RTrgcvN3Rbjk",
    "name": "Ferretería Arberas - Frontoi Kalea",
    "category": "Ferretería Arberas - Frontoi Kalea",
    "formatted_address": "4,7(6)",
    "phone_number": "+34945890136",
    "source_url": "https://www.google.com/maps/place/Ferreter%C3%ADa+Arberas+-+Frontoi+Kalea/data=!4m7!3m6!1s0xd4fad1a1af840c7:0x396ed1ddbc1cb84e!8m2!3d43.0534131!4d-3.0012748!16s%2Fg%2F11qnvrdl_r!19sChIJx0D4GhqtTw0RTrgcvN3Rbjk?authuser=0&hl=tr&rclk=1",
    "website_url": "",
    "rating_text": "4,7",
    "stars": null,
    "number_of_reviews": null,
    "price_level": "",
    "open_hours": "",
    "extraction_timestamp": "2025-06-08T03:18:30.307Z",
    "source_name": "google",
    "source_query": "Irrigation Equipment",
    "source_country": "ES",
    "country": "Spain",
    "state": "Araba",
    "city": "Amurrio"
  },
  {
    "source_id": "ChIJdTGOa8uvTw0Rio706fzNrGM",
    "name": "Instalaciones Berganza, S.L.",
    "category": "Instalaciones Berganza, S.L.",
    "formatted_address": "Instalaciones Berganza, S.L.",
    "phone_number": "+34665738557",
    "source_url": "https://www.google.com/maps/place/Instalaciones+Berganza,+S.L./data=!4m7!3m6!1s0xd4fafcb6b8e3175:0x63accdfce9f48e8a!8m2!3d43.0436936!4d-3.0037658!16s%2Fg%2F11x1n32grh!19sChIJdTGOa8uvTw0Rio706fzNrGM?authuser=0&hl=tr&rclk=1",
    "website_url": "",
    "rating_text": "",
    "stars": null,
    "number_of_reviews": null,
    "price_level": "",
    "open_hours": "",
    "extraction_timestamp": "2025-06-08T03:18:30.308Z",
    "source_name": "google",
    "source_query": "Irrigation Equipment",
    "source_country": "ES",
    "country": "Spain",
    "state": "Araba",
    "city": "Amurrio"
  },
  {
    "source_id": "ChIJ8zhLtKOuTw0REHui2ZRlvpg",
    "name": "Javier Otegui Ibarrola",
    "category": "Javier Otegui Ibarrola",
    "formatted_address": "4,7(3)",
    "phone_number": "+34945892003",
    "source_url": "https://www.google.com/maps/place/Javier+Otegui+Ibarrola/data=!4m7!3m6!1s0xd4faea3b44b38f3:0x98be6594d9a27b10!8m2!3d43.0517145!4d-3.0002812!16s%2Fg%2F12qhh1416!19sChIJ8zhLtKOuTw0REHui2ZRlvpg?authuser=0&hl=tr&rclk=1",
    "website_url": "",
    "rating_text": "4,7",
    "stars": null,
    "number_of_reviews": null,
    "price_level": "",
    "open_hours": "",
    "extraction_timestamp": "2025-06-08T03:18:30.309Z",
    "source_name": "google",
    "source_query": "Irrigation Equipment",
    "source_country": "ES",
    "country": "Spain",
    "state": "Araba",
    "city": "Amurrio"
  },
  {
    "source_id": "ChIJffTHZVivTw0R-veiyd57gaM",
    "name": "VINOS ALAVA S.A.",
    "category": "VINOS ALAVA S.A.",
    "formatted_address": "4,7(15)",
    "phone_number": "+34667631810",
    "source_url": "https://www.google.com/maps/place/VINOS+ALAVA+S.A./data=!4m7!3m6!1s0xd4faf5865c7f47d:0xa3817bdec9a2f7fa!8m2!3d43.0390108!4d-3.0043265!16s%2Fg%2F11hjl51l8x!19sChIJffTHZVivTw0R-veiyd57gaM?authuser=0&hl=tr&rclk=1",
    "website_url": "",
    "rating_text": "4,7",
    "stars": null,
    "number_of_reviews": null,
    "price_level": "",
    "open_hours": "",
    "extraction_timestamp": "2025-06-08T03:18:30.310Z",
    "source_name": "google",
    "source_query": "Irrigation Equipment",
    "source_country": "ES",
    "country": "Spain",
    "state": "Araba",
    "city": "Amurrio"
  },
  {
    "source_id": "ChIJHS20RaCuTw0R_PIpHUNLw_M",
    "name": "Farmacia Pérez Zubiaur, Borja",
    "category": "Farmacia Pérez Zubiaur, Borja",
    "formatted_address": "Farmacia Pérez Zubiaur, Borja",
    "phone_number": "+34945066598",
    "source_url": "https://www.google.com/maps/place/Farmacia+P%C3%A9rez+Zubiaur,+Borja/data=!4m7!3m6!1s0xd4faea045b42d1d:0xf3c34b431d29f2fc!8m2!3d43.056299!4d-2.999211!16s%2Fg%2F11fy533rw2!19sChIJHS20RaCuTw0R_PIpHUNLw_M?authuser=0&hl=tr&rclk=1",
    "website_url": "",
    "rating_text": "4,9",
    "stars": null,
    "number_of_reviews": null,
    "price_level": "",
    "open_hours": "",
    "extraction_timestamp": "2025-06-08T03:18:30.311Z",
    "source_name": "google",
    "source_query": "Irrigation Equipment",
    "source_country": "ES",
    "country": "Spain",
    "state": "Araba",
    "city": "Amurrio"
  },
  {
    "source_id": "ChIJgRtskGmvTw0RevZYiP71Klw",
    "name": "Talleres Sanecar",
    "category": "Talleres Sanecar",
    "formatted_address": "4,5(42)",
    "phone_number": "+34945211296",
    "source_url": "https://www.google.com/maps/place/Talleres+Sanecar/data=!4m7!3m6!1s0xd4faf69906c1b81:0x5c2af5fe8858f67a!8m2!3d43.0432314!4d-2.988746!16s%2Fg%2F11f9zs6rct!19sChIJgRtskGmvTw0RevZYiP71Klw?authuser=0&hl=tr&rclk=1",
    "website_url": "",
    "rating_text": "4,5",
    "stars": null,
    "number_of_reviews": null,
    "price_level": "",
    "open_hours": "",
    "extraction_timestamp": "2025-06-08T03:18:30.312Z",
    "source_name": "google",
    "source_query": "Irrigation Equipment",
    "source_country": "ES",
    "country": "Spain",
    "state": "Araba",
    "city": "Amurrio"
  },
  {
    "source_id": "ChIJTRW6RaCuTw0RRIyiUxiTkEI",
    "name": "Landaburu",
    "category": "Landaburu",
    "formatted_address": "4,3(10)",
    "phone_number": "",
    "source_url": "https://www.google.com/maps/place/Landaburu/data=!4m7!3m6!1s0xd4faea045ba154d:0x4290931853a28c44!8m2!3d43.0562735!4d-2.999225!16s%2Fg%2F11c60jhmr3!19sChIJTRW6RaCuTw0RRIyiUxiTkEI?authuser=0&hl=tr&rclk=1",
    "website_url": "",
    "rating_text": "4,3",
    "stars": null,
    "number_of_reviews": null,
    "price_level": "",
    "open_hours": "",
    "extraction_timestamp": "2025-06-08T03:18:30.312Z",
    "source_name": "google",
    "source_query": "Irrigation Equipment",
    "source_country": "ES",
    "country": "Spain",
    "state": "Araba",
    "city": "Amurrio"
  },
  {
    "source_id": "ChIJAZiU0ZiuTw0R59ysjmnoKZw",
    "name": "Nerbioi Control de Plagas",
    "category": "Nerbioi Control de Plagas",
    "formatted_address": "3,0(1)",
    "phone_number": "+34617778207",
    "source_url": "https://www.google.com/maps/place/Nerbioi+Control+de+Plagas/data=!4m7!3m6!1s0xd4fae98d1949801:0x9c29e8698eacdce7!8m2!3d43.0528671!4d-2.9955638!16s%2Fg%2F11g6xgq538!19sChIJAZiU0ZiuTw0R59ysjmnoKZw?authuser=0&hl=tr&rclk=1",
    "website_url": "",
    "rating_text": "3,0",
    "stars": null,
    "number_of_reviews": null,
    "price_level": "",
    "open_hours": "",
    "extraction_timestamp": "2025-06-08T03:18:30.313Z",
    "source_name": "google",
    "source_query": "Irrigation Equipment",
    "source_country": "ES",
    "country": "Spain",
    "state": "Araba",
    "city": "Amurrio"
  },
  {
    "source_id": "ChIJ7w8eoTCvTw0RYAG1rab24Cg",
    "name": "La Norteñita",
    "category": "La Norteñita",
    "formatted_address": "3,9(26)",
    "phone_number": "+34626718015",
    "source_url": "https://www.google.com/maps/place/La+Norte%C3%B1ita/data=!4m7!3m6!1s0xd4faf30a11e0fef:0x28e0f6a6adb50160!8m2!3d43.0524082!4d-3.0015188!16s%2Fg%2F11h0mwwn57!19sChIJ7w8eoTCvTw0RYAG1rab24Cg?authuser=0&hl=tr&rclk=1",
    "website_url": "",
    "rating_text": "3,9",
    "stars": null,
    "number_of_reviews": null,
    "price_level": "",
    "open_hours": "",
    "extraction_timestamp": "2025-06-08T03:18:30.314Z",
    "source_name": "google",
    "source_query": "Irrigation Equipment",
    "source_country": "ES",
    "country": "Spain",
    "state": "Araba",
    "city": "Amurrio"
  },
  {
    "source_id": "ChIJuUo73qKuTw0R5yYeYbQAYag",
    "name": "EROSKI",
    "category": "EROSKI",
    "formatted_address": "3,7(587)",
    "phone_number": "+34945891612",
    "source_url": "https://www.google.com/maps/place/EROSKI/data=!4m7!3m6!1s0xd4faea2de3b4ab9:0xa86100b4611e26e7!8m2!3d43.0532369!4d-2.9974688!16s%2Fg%2F1q5bp74gt!19sChIJuUo73qKuTw0R5yYeYbQAYag?authuser=0&hl=tr&rclk=1",
    "website_url": "",
    "rating_text": "3,7",
    "stars": null,
    "number_of_reviews": null,
    "price_level": "",
    "open_hours": "",
    "extraction_timestamp": "2025-06-08T03:18:30.315Z",
    "source_name": "google",
    "source_query": "Irrigation Equipment",
    "source_country": "ES",
    "country": "Spain",
    "state": "Araba",
    "city": "Amurrio"
  },
  {
    "source_id": "ChIJk-aWBwCvTw0RMGnikihp2H0",
    "name": "Trady's Supermerkatua",
    "category": "Trady's Supermerkatua",
    "formatted_address": "5,0(2)",
    "phone_number": "",
    "source_url": "https://www.google.com/maps/place/Trady%27s+Supermerkatua/data=!4m7!3m6!1s0xd4faf000796e693:0x7dd8692892e26930!8m2!3d43.0519485!4d-3.0015555!16s%2Fg%2F11x81h594n!19sChIJk-aWBwCvTw0RMGnikihp2H0?authuser=0&hl=tr&rclk=1",
    "website_url": "",
    "rating_text": "5,0",
    "stars": null,
    "number_of_reviews": null,
    "price_level": "",
    "open_hours": "",
    "extraction_timestamp": "2025-06-08T03:18:30.316Z",
    "source_name": "google",
    "source_query": "Irrigation Equipment",
    "source_country": "ES",
    "country": "Spain",
    "state": "Araba",
    "city": "Amurrio"
  },
  {
    "source_id": "ChIJs4YmYqGuTw0RnY6HFCrO2lo",
    "name": "Supermercados Dia",
    "category": "Supermercados Dia",
    "formatted_address": "4,1(140)",
    "phone_number": "+34912170453",
    "source_url": "https://www.google.com/maps/place/Supermercados+Dia/data=!4m7!3m6!1s0xd4faea1622686b3:0x5adace2a14878e9d!8m2!3d43.0532584!4d-3.0009397!16s%2Fg%2F11g6lymg97!19sChIJs4YmYqGuTw0RnY6HFCrO2lo?authuser=0&hl=tr&rclk=1",
    "website_url": "",
    "rating_text": "4,1",
    "stars": null,
    "number_of_reviews": null,
    "price_level": "",
    "open_hours": "",
    "extraction_timestamp": "2025-06-08T03:18:30.317Z",
    "source_name": "google",
    "source_query": "Irrigation Equipment",
    "source_country": "ES",
    "country": "Spain",
    "state": "Araba",
    "city": "Amurrio"
  },
  {
    "source_id": "ChIJlTYe622vTw0RhDYk-kKOpzA",
    "name": "El Desván",
    "category": "El Desván",
    "formatted_address": "4,7(18) · €1–10",
    "phone_number": "+34658352828",
    "source_url": "https://www.google.com/maps/place/El+Desv%C3%A1n/data=!4m7!3m6!1s0xd4faf6deb1e3695:0x30a78e42fa243684!8m2!3d43.0521082!4d-3.0006043!16s%2Fg%2F11nfqh7www!19sChIJlTYe622vTw0RhDYk-kKOpzA?authuser=0&hl=tr&rclk=1",
    "website_url": "",
    "rating_text": "4,7",
    "stars": null,
    "number_of_reviews": null,
    "price_level": "",
    "open_hours": "",
    "extraction_timestamp": "2025-06-08T03:18:30.318Z",
    "source_name": "google",
    "source_query": "Irrigation Equipment",
    "source_country": "ES",
    "country": "Spain",
    "state": "Araba",
    "city": "Amurrio"
  },
  {
    "source_id": "ChIJUTSW1kKvTw0R0kYbhmlaT48",
    "name": "Farmacia Yarza",
    "category": "Farmacia Yarza",
    "formatted_address": "5,0(11)",
    "phone_number": "+34945891696",
    "source_url": "https://www.google.com/maps/place/Farmacia+Yarza/data=!4m7!3m6!1s0xd4faf42d6963451:0x8f4f5a69861b46d2!8m2!3d43.0539948!4d-3.0003144!16s%2Fg%2F11twp9k7s_!19sChIJUTSW1kKvTw0R0kYbhmlaT48?authuser=0&hl=tr&rclk=1",
    "website_url": "",
    "rating_text": "5,0",
    "stars": null,
    "number_of_reviews": null,
    "price_level": "",
    "open_hours": "",
    "extraction_timestamp": "2025-06-08T03:18:30.319Z",
    "source_name": "google",
    "source_query": "Irrigation Equipment",
    "source_country": "ES",
    "country": "Spain",
    "state": "Araba",
    "city": "Amurrio"
  },
  {
    "source_id": "ChIJPfEG6qOuTw0R7aGL7JbEobY",
    "name": "Hernández Cordón Jesús Angel",
    "category": "Hernández Cordón Jesús Angel",
    "formatted_address": "3,3(9)",
    "phone_number": "+34945890181",
    "source_url": "https://www.google.com/maps/place/Hern%C3%A1ndez+Cord%C3%B3n+Jes%C3%BAs+Angel/data=!4m7!3m6!1s0xd4faea3ea06f13d:0xb6a1c496ec8ba1ed!8m2!3d43.0521883!4d-3.0011838!16s%2Fg%2F1q5bnffv6!19sChIJPfEG6qOuTw0R7aGL7JbEobY?authuser=0&hl=tr&rclk=1",
    "website_url": "",
    "rating_text": "3,3",
    "stars": null,
    "number_of_reviews": null,
    "price_level": "",
    "open_hours": "",
    "extraction_timestamp": "2025-06-08T03:18:30.319Z",
    "source_name": "google",
    "source_query": "Irrigation Equipment",
    "source_country": "ES",
    "country": "Spain",
    "state": "Araba",
    "city": "Amurrio"
  },
  {
    "source_id": "ChIJhZd716OuTw0RcP9ZuJeCa9A",
    "name": "Ortopedia Amurrio",
    "category": "Ortopedia Amurrio",
    "formatted_address": "5,0(1)",
    "phone_number": "+34945890201",
    "source_url": "https://www.google.com/maps/place/Ortopedia+Amurrio/data=!4m7!3m6!1s0xd4faea3d77b9785:0xd06b8297b859ff70!8m2!3d43.0529468!4d-3.0003995!16s%2Fg%2F11xbwjdm0!19sChIJhZd716OuTw0RcP9ZuJeCa9A?authuser=0&hl=tr&rclk=1",
    "website_url": "",
    "rating_text": "5,0",
    "stars": null,
    "number_of_reviews": null,
    "price_level": "",
    "open_hours": "",
    "extraction_timestamp": "2025-06-08T03:18:30.320Z",
    "source_name": "google",
    "source_query": "Irrigation Equipment",
    "source_country": "ES",
    "country": "Spain",
    "state": "Araba",
    "city": "Amurrio"
  }
]
