[
  {
    "source_id": "ChIJNQGCJmHCTw0R8aNDhF16xWE",
    "name": "Eziolaza Amalur S.L.",
    "category": "Eziolaza Amalur S.L.",
    "formatted_address": "4,5(166)",
    "phone_number": "+34945257255",
    "source_url": "https://www.google.com/maps/place/Eziolaza+Amalur+S.L./data=!4m7!3m6!1s0xd4fc26126820135:0x61c57a5d8443a3f1!8m2!3d42.84965!4d-2.66277!16s%2Fg%2F1td2j6j9!19sChIJNQGCJmHCTw0R8aNDhF16xWE?authuser=0&hl=tr&rclk=1",
    "website_url": "http://www.eziolaza.com/",
    "rating_text": "4,5",
    "stars": null,
    "number_of_reviews": null,
    "price_level": "",
    "open_hours": "",
    "extraction_timestamp": "2025-06-08T03:20:16.059Z",
    "source_name": "google",
    "source_query": "Irrigation Equipment",
    "source_country": "ES",
    "country": "Spain",
    "state": "Araba",
    "city": "Aramaio"
  },
  {
    "source_id": "ChIJxcBMBePCTw0R4rJIHI5SYX0",
    "name": "Nuvi Araba",
    "category": "Nuvi Araba",
    "formatted_address": "4,8(5)",
    "phone_number": "+34945263581",
    "source_url": "https://www.google.com/maps/place/Nuvi+Araba/data=!4m7!3m6!1s0xd4fc2e3054cc0c5:0x7d61528e1c48b2e2!8m2!3d42.8693918!4d-2.6468918!16s%2Fg%2F11byhlb3c3!19sChIJxcBMBePCTw0R4rJIHI5SYX0?authuser=0&hl=tr&rclk=1",
    "website_url": "http://www.nuviaraba.com/",
    "rating_text": "4,8",
    "stars": null,
    "number_of_reviews": null,
    "price_level": "",
    "open_hours": "",
    "extraction_timestamp": "2025-06-08T03:20:16.061Z",
    "source_name": "google",
    "source_query": "Irrigation Equipment",
    "source_country": "ES",
    "country": "Spain",
    "state": "Araba",
    "city": "Aramaio"
  },
  {
    "source_id": "ChIJ98j1fTXBTw0RRsu_NlJLAjM",
    "name": "Hiartek, S.L.",
    "category": "Hiartek, S.L.",
    "formatted_address": "Hiartek, S.L.",
    "phone_number": "+34945036449",
    "source_url": "https://www.google.com/maps/place/Hiartek,+S.L./data=!4m7!3m6!1s0xd4fc1357df5c8f7:0x33024b5236bfcb46!8m2!3d42.8440557!4d-2.7397871!16s%2Fg%2F11mvvdf207!19sChIJ98j1fTXBTw0RRsu_NlJLAjM?authuser=0&hl=tr&rclk=1",
    "website_url": "http://www.hiartek.com/",
    "rating_text": "5,0",
    "stars": null,
    "number_of_reviews": null,
    "price_level": "",
    "open_hours": "",
    "extraction_timestamp": "2025-06-08T03:20:16.063Z",
    "source_name": "google",
    "source_query": "Irrigation Equipment",
    "source_country": "ES",
    "country": "Spain",
    "state": "Araba",
    "city": "Aramaio"
  },
  {
    "source_id": "ChIJZbTidNbRTw0RkwpuknTKtfM",
    "name": "Kintelena Coviran",
    "category": "Kintelena Coviran",
    "formatted_address": "4,2(15)",
    "phone_number": "",
    "source_url": "https://www.google.com/maps/place/Kintelena+Coviran/data=!4m7!3m6!1s0xd4fd1d674e2b465:0xf3b5ca74926e0a93!8m2!3d43.0511966!4d-2.5649208!16s%2Fg%2F1hc4y6d0p!19sChIJZbTidNbRTw0RkwpuknTKtfM?authuser=0&hl=tr&rclk=1",
    "website_url": "http://www.arbel.eus/",
    "rating_text": "4,2",
    "stars": null,
    "number_of_reviews": null,
    "price_level": "",
    "open_hours": "",
    "extraction_timestamp": "2025-06-08T03:20:16.064Z",
    "source_name": "google",
    "source_query": "Irrigation Equipment",
    "source_country": "ES",
    "country": "Spain",
    "state": "Araba",
    "city": "Aramaio"
  },
  {
    "source_id": "ChIJO-nRKTnCTw0RZ59zgsifAgI",
    "name": "Bombas Itur",
    "category": "Bombas Itur",
    "formatted_address": "5,0(4)",
    "phone_number": "+34945121670",
    "source_url": "https://www.google.com/maps/place/Bombas+Itur/data=!4m7!3m6!1s0xd4fc23929d1e93b:0x2029fc882739f67!8m2!3d42.83818!4d-2.6544785!16s%2Fg%2F1tdld0p3!19sChIJO-nRKTnCTw0RZ59zgsifAgI?authuser=0&hl=tr&rclk=1",
    "website_url": "http://www.motoresybombasvitoria.com/",
    "rating_text": "5,0",
    "stars": null,
    "number_of_reviews": null,
    "price_level": "",
    "open_hours": "",
    "extraction_timestamp": "2025-06-08T03:20:16.066Z",
    "source_name": "google",
    "source_query": "Irrigation Equipment",
    "source_country": "ES",
    "country": "Spain",
    "state": "Araba",
    "city": "Aramaio"
  },
  {
    "source_id": "ChIJAXg-kXbqTw0RDWzUVXTTcOM",
    "name": "Vitoriana de Riegos S L",
    "category": "Vitoriana de Riegos S L",
    "formatted_address": "4,0(2)",
    "phone_number": "+34945132595",
    "source_url": "https://www.google.com/maps/place/Vitoriana+de+Riegos+S+L/data=!4m7!3m6!1s0xd4fea76913e7801:0xe370d37455d46c0d!8m2!3d42.828207!4d-2.724081!16s%2Fg%2F11cncbxrg4!19sChIJAXg-kXbqTw0RDWzUVXTTcOM?authuser=0&hl=tr&rclk=1",
    "website_url": "",
    "rating_text": "4,0",
    "stars": null,
    "number_of_reviews": null,
    "price_level": "",
    "open_hours": "",
    "extraction_timestamp": "2025-06-08T03:20:16.068Z",
    "source_name": "google",
    "source_query": "Irrigation Equipment",
    "source_country": "ES",
    "country": "Spain",
    "state": "Araba",
    "city": "Aramaio"
  },
  {
    "source_id": "ChIJWxzn9RzDTw0RyGKYXtsqBsU",
    "name": "sistemas riegos online",
    "category": "sistemas riegos online",
    "formatted_address": "Tarım Kooperatifi · San Ignacio de Loyola Kalea, 6Kalıcı olarak kapalı",
    "phone_number": "",
    "source_url": "https://www.google.com/maps/place/sistemas+riegos+online/data=!4m7!3m6!1s0xd4fc31cf5e71c5b:0xc5062adb5e9862c8!8m2!3d42.8536063!4d-2.6720276!16s%2Fg%2F11q4bv8wyf!19sChIJWxzn9RzDTw0RyGKYXtsqBsU?authuser=0&hl=tr&rclk=1",
    "website_url": "",
    "rating_text": "",
    "stars": null,
    "number_of_reviews": null,
    "price_level": "",
    "open_hours": "",
    "extraction_timestamp": "2025-06-08T03:20:16.069Z",
    "source_name": "google",
    "source_query": "Irrigation Equipment",
    "source_country": "ES",
    "country": "Spain",
    "state": "Araba",
    "city": "Aramaio"
  }
]
