[
  {
    "source_id": "ChIJ5VghOvrCTw0RZ7Ybm_gUD08",
    "name": "Saltoki",
    "category": "Saltoki",
    "formatted_address": "3,9(413)",
    "phone_number": "+34945123888",
    "source_url": "https://www.google.com/maps/place/Saltoki/data=!4m7!3m6!1s0xd4fc2fa3a2158e5:0x4f0f14f89b1bb667!8m2!3d42.864129!4d-2.645951!16s%2Fg%2F11bwqpyz6r!19sChIJ5VghOvrCTw0RZ7Ybm_gUD08?authuser=0&hl=tr&rclk=1",
    "website_url": "",
    "rating_text": "3,9",
    "stars": null,
    "number_of_reviews": null,
    "price_level": "",
    "open_hours": "",
    "extraction_timestamp": "2025-06-08T03:15:11.171Z",
    "source_name": "google",
    "source_query": "Irrigation Equipment",
    "source_country": "ES",
    "country": "Spain",
    "state": "Araba",
    "city": "Arrazua-Ubarrundia"
  },
  {
    "source_id": "ChIJdzedAlzCTw0R22BYT9s2hho",
    "name": "Del Verde al Morao CBD Grow Shop",
    "category": "Del Verde al Morao CBD Grow Shop",
    "formatted_address": "4,9(760)",
    "phone_number": "+34945212403",
    "source_url": "https://www.google.com/maps/place/Del+Verde+al+Morao+CBD+Grow+Shop/data=!4m7!3m6!1s0xd4fc25c029d3777:0x1a8636db4f5860db!8m2!3d42.8655605!4d-2.6581563!16s%2Fg%2F1hm3hdjyv!19sChIJdzedAlzCTw0R22BYT9s2hho?authuser=0&hl=tr&rclk=1",
    "website_url": "",
    "rating_text": "4,9",
    "stars": null,
    "number_of_reviews": null,
    "price_level": "",
    "open_hours": "",
    "extraction_timestamp": "2025-06-08T03:15:11.171Z",
    "source_name": "google",
    "source_query": "Irrigation Equipment",
    "source_country": "ES",
    "country": "Spain",
    "state": "Araba",
    "city": "Arrazua-Ubarrundia"
  },
  {
    "source_id": "ChIJNQGCJmHCTw0R8aNDhF16xWE",
    "name": "Eziolaza Amalur S.L.",
    "category": "Eziolaza Amalur S.L.",
    "formatted_address": "4,5(166)",
    "phone_number": "+34945257255",
    "source_url": "https://www.google.com/maps/place/Eziolaza+Amalur+S.L./data=!4m7!3m6!1s0xd4fc26126820135:0x61c57a5d8443a3f1!8m2!3d42.84965!4d-2.66277!16s%2Fg%2F1td2j6j9!19sChIJNQGCJmHCTw0R8aNDhF16xWE?authuser=0&hl=tr&rclk=1",
    "website_url": "",
    "rating_text": "4,5",
    "stars": null,
    "number_of_reviews": null,
    "price_level": "",
    "open_hours": "",
    "extraction_timestamp": "2025-06-08T03:15:11.172Z",
    "source_name": "google",
    "source_query": "Irrigation Equipment",
    "source_country": "ES",
    "country": "Spain",
    "state": "Araba",
    "city": "Arrazua-Ubarrundia"
  },
  {
    "source_id": "ChIJq6qqqmrbTw0RZY1IPrbolrI",
    "name": "Anoga S.Coop",
    "category": "Anoga S.Coop",
    "formatted_address": "4,4(200)",
    "phone_number": "+34945274588",
    "source_url": "https://www.google.com/maps/place/Anoga+S.Coop/data=!4m7!3m6!1s0xd4fdb6aaaaaaaab:0xb296e8b63e488d65!8m2!3d42.8721389!4d-2.6295588!16s%2Fg%2F11dxbp4xzk!19sChIJq6qqqmrbTw0RZY1IPrbolrI?authuser=0&hl=tr&rclk=1",
    "website_url": "",
    "rating_text": "4,4",
    "stars": null,
    "number_of_reviews": null,
    "price_level": "",
    "open_hours": "",
    "extraction_timestamp": "2025-06-08T03:15:11.172Z",
    "source_name": "google",
    "source_query": "Irrigation Equipment",
    "source_country": "ES",
    "country": "Spain",
    "state": "Araba",
    "city": "Arrazua-Ubarrundia"
  },
  {
    "source_id": "ChIJxcBMBePCTw0R4rJIHI5SYX0",
    "name": "Nuvi Araba",
    "category": "Nuvi Araba",
    "formatted_address": "4,8(5)",
    "phone_number": "+34945263581",
    "source_url": "https://www.google.com/maps/place/Nuvi+Araba/data=!4m7!3m6!1s0xd4fc2e3054cc0c5:0x7d61528e1c48b2e2!8m2!3d42.8693918!4d-2.6468918!16s%2Fg%2F11byhlb3c3!19sChIJxcBMBePCTw0R4rJIHI5SYX0?authuser=0&hl=tr&rclk=1",
    "website_url": "",
    "rating_text": "4,8",
    "stars": null,
    "number_of_reviews": null,
    "price_level": "",
    "open_hours": "",
    "extraction_timestamp": "2025-06-08T03:15:11.172Z",
    "source_name": "google",
    "source_query": "Irrigation Equipment",
    "source_country": "ES",
    "country": "Spain",
    "state": "Araba",
    "city": "Arrazua-Ubarrundia"
  },
  {
    "source_id": "ChIJ8ygt1ePETw0R2RDW8AjrZ0E",
    "name": "EGUIBER INGENÍERA Y SUMINISTROS TÉCNICOS - Delegación Legutiano",
    "category": "EGUIBER INGENÍERA Y SUMINISTROS TÉCNICOS - Delegación Legutiano",
    "formatted_address": "4,2(32)",
    "phone_number": "+34945466155",
    "source_url": "https://www.google.com/maps/place/EGUIBER+INGEN%C3%8DERA+Y+SUMINISTROS+T%C3%89CNICOS+-+Delegaci%C3%B3n+Legutiano/data=!4m7!3m6!1s0xd4fc4e3d52d28f3:0x4167eb08f0d610d9!8m2!3d42.9497998!4d-2.6436663!16s%2Fg%2F11btmbv0gg!19sChIJ8ygt1ePETw0R2RDW8AjrZ0E?authuser=0&hl=tr&rclk=1",
    "website_url": "",
    "rating_text": "4,2",
    "stars": null,
    "number_of_reviews": null,
    "price_level": "",
    "open_hours": "",
    "extraction_timestamp": "2025-06-08T03:15:11.173Z",
    "source_name": "google",
    "source_query": "Irrigation Equipment",
    "source_country": "ES",
    "country": "Spain",
    "state": "Araba",
    "city": "Arrazua-Ubarrundia"
  },
  {
    "source_id": "ChIJozTtIELDTw0RFXfA7UBL3Eo",
    "name": "SALVADOR ESCODA",
    "category": "SALVADOR ESCODA",
    "formatted_address": "5,0(7)",
    "phone_number": "+34945102228",
    "source_url": "https://www.google.com/maps/place/SALVADOR+ESCODA/data=!4m7!3m6!1s0xd4fc34220ed34a3:0x4adc4b40edc07715!8m2!3d42.8664432!4d-2.6607188!16s%2Fg%2F11fn9f4rhh!19sChIJozTtIELDTw0RFXfA7UBL3Eo?authuser=0&hl=tr&rclk=1",
    "website_url": "",
    "rating_text": "5,0",
    "stars": null,
    "number_of_reviews": null,
    "price_level": "",
    "open_hours": "",
    "extraction_timestamp": "2025-06-08T03:15:11.173Z",
    "source_name": "google",
    "source_query": "Irrigation Equipment",
    "source_country": "ES",
    "country": "Spain",
    "state": "Araba",
    "city": "Arrazua-Ubarrundia"
  },
  {
    "source_id": "ChIJB0PizPnCTw0RyTOdehI6vg4",
    "name": "Kamapa SL",
    "category": "Kamapa SL",
    "formatted_address": "5,0(1)",
    "phone_number": "+34945250573",
    "source_url": "https://www.google.com/maps/place/Kamapa+SL/data=!4m7!3m6!1s0xd4fc2f9cce24307:0xebe3a127a9d33c9!8m2!3d42.8632546!4d-2.6560562!16s%2Fg%2F1tcvw560!19sChIJB0PizPnCTw0RyTOdehI6vg4?authuser=0&hl=tr&rclk=1",
    "website_url": "",
    "rating_text": "5,0",
    "stars": null,
    "number_of_reviews": null,
    "price_level": "",
    "open_hours": "",
    "extraction_timestamp": "2025-06-08T03:15:11.173Z",
    "source_name": "google",
    "source_query": "Irrigation Equipment",
    "source_country": "ES",
    "country": "Spain",
    "state": "Araba",
    "city": "Arrazua-Ubarrundia"
  },
  {
    "source_id": "ChIJp50cJgMT8U8RKsj90bZPur0",
    "name": "TECODI",
    "category": "TECODI",
    "formatted_address": "5,0(9)",
    "phone_number": "+34945291001",
    "source_url": "https://www.google.com/maps/place/TECODI/data=!4m7!3m6!1s0x4ff11303261c9da7:0xbdba4fb6d1fdc82a!8m2!3d42.845395!4d-2.6637583!16s%2Fg%2F11q8x8r7w9!19sChIJp50cJgMT8U8RKsj90bZPur0?authuser=0&hl=tr&rclk=1",
    "website_url": "",
    "rating_text": "5,0",
    "stars": null,
    "number_of_reviews": null,
    "price_level": "",
    "open_hours": "",
    "extraction_timestamp": "2025-06-08T03:15:11.174Z",
    "source_name": "google",
    "source_query": "Irrigation Equipment",
    "source_country": "ES",
    "country": "Spain",
    "state": "Araba",
    "city": "Arrazua-Ubarrundia"
  },
  {
    "source_id": "ChIJB55y9FbCTw0RCXP6cwL04Fo",
    "name": "Cya",
    "category": "Cya",
    "formatted_address": "4,0(10)",
    "phone_number": "+34945121570",
    "source_url": "https://www.google.com/maps/place/Cya/data=!4m7!3m6!1s0xd4fc256f4729e07:0x5ae0f40273fa7309!8m2!3d42.8654468!4d-2.6612515!16s%2Fg%2F1vqmkpp4!19sChIJB55y9FbCTw0RCXP6cwL04Fo?authuser=0&hl=tr&rclk=1",
    "website_url": "",
    "rating_text": "4,0",
    "stars": null,
    "number_of_reviews": null,
    "price_level": "",
    "open_hours": "",
    "extraction_timestamp": "2025-06-08T03:15:11.174Z",
    "source_name": "google",
    "source_query": "Irrigation Equipment",
    "source_country": "ES",
    "country": "Spain",
    "state": "Araba",
    "city": "Arrazua-Ubarrundia"
  },
  {
    "source_id": "ChIJNcMDsmTCTw0Ry4jATV2mbFU",
    "name": "Zabaleta Vitoria (Suministros Fontanería y Calefacción)",
    "category": "Zabaleta Vitoria (Suministros Fontanería y Calefacción)",
    "formatted_address": "4,7(21)",
    "phone_number": "+34945255075",
    "source_url": "https://www.google.com/maps/place/Zabaleta+Vitoria+%28Suministros+Fontaner%C3%ADa+y+Calefacci%C3%B3n%29/data=!4m7!3m6!1s0xd4fc264b203c335:0x556ca65d4dc088cb!8m2!3d42.8429274!4d-2.6642493!16s%2Fg%2F11cjj5wb6b!19sChIJNcMDsmTCTw0Ry4jATV2mbFU?authuser=0&hl=tr&rclk=1",
    "website_url": "",
    "rating_text": "4,7",
    "stars": null,
    "number_of_reviews": null,
    "price_level": "",
    "open_hours": "",
    "extraction_timestamp": "2025-06-08T03:15:11.175Z",
    "source_name": "google",
    "source_query": "Irrigation Equipment",
    "source_country": "ES",
    "country": "Spain",
    "state": "Araba",
    "city": "Arrazua-Ubarrundia"
  },
  {
    "source_id": "ChIJO-nRKTnCTw0RZ59zgsifAgI",
    "name": "Bombas Itur",
    "category": "Bombas Itur",
    "formatted_address": "5,0(4)",
    "phone_number": "+34945121670",
    "source_url": "https://www.google.com/maps/place/Bombas+Itur/data=!4m7!3m6!1s0xd4fc23929d1e93b:0x2029fc882739f67!8m2!3d42.83818!4d-2.6544785!16s%2Fg%2F1tdld0p3!19sChIJO-nRKTnCTw0RZ59zgsifAgI?authuser=0&hl=tr&rclk=1",
    "website_url": "",
    "rating_text": "5,0",
    "stars": null,
    "number_of_reviews": null,
    "price_level": "",
    "open_hours": "",
    "extraction_timestamp": "2025-06-08T03:15:11.175Z",
    "source_name": "google",
    "source_query": "Irrigation Equipment",
    "source_country": "ES",
    "country": "Spain",
    "state": "Araba",
    "city": "Arrazua-Ubarrundia"
  },
  {
    "source_id": "ChIJbYjym63DTw0RZ_ikNB_HuFY",
    "name": "Proyectos Diurvi",
    "category": "Proyectos Diurvi",
    "formatted_address": "5,0(2)",
    "phone_number": "+34673058430",
    "source_url": "https://www.google.com/maps/place/Proyectos+Diurvi/data=!4m7!3m6!1s0xd4fc3ad9bf2886d:0x56b8c71f34a4f867!8m2!3d42.8472276!4d-2.6864894!16s%2Fg%2F11x0r714y8!19sChIJbYjym63DTw0RZ_ikNB_HuFY?authuser=0&hl=tr&rclk=1",
    "website_url": "",
    "rating_text": "5,0",
    "stars": null,
    "number_of_reviews": null,
    "price_level": "",
    "open_hours": "",
    "extraction_timestamp": "2025-06-08T03:15:11.175Z",
    "source_name": "google",
    "source_query": "Irrigation Equipment",
    "source_country": "ES",
    "country": "Spain",
    "state": "Araba",
    "city": "Arrazua-Ubarrundia"
  },
  {
    "source_id": "ChIJKST8OV3CTw0RWcp41OYo_i8",
    "name": "Santamarta Instalaciones S.L.",
    "category": "Santamarta Instalaciones S.L.",
    "formatted_address": "4,6(137)",
    "phone_number": "+34945282921",
    "source_url": "https://www.google.com/maps/place/Santamarta+Instalaciones+S.L./data=!4m7!3m6!1s0xd4fc25d39fc2429:0x2ffe28e6d478ca59!8m2!3d42.8540147!4d-2.666015!16s%2Fg%2F1td2w6d8!19sChIJKST8OV3CTw0RWcp41OYo_i8?authuser=0&hl=tr&rclk=1",
    "website_url": "",
    "rating_text": "4,6",
    "stars": null,
    "number_of_reviews": null,
    "price_level": "",
    "open_hours": "",
    "extraction_timestamp": "2025-06-08T03:15:11.175Z",
    "source_name": "google",
    "source_query": "Irrigation Equipment",
    "source_country": "ES",
    "country": "Spain",
    "state": "Araba",
    "city": "Arrazua-Ubarrundia"
  },
  {
    "source_id": "ChIJ05Mon0HCTw0RVGNaBv8hFBo",
    "name": "Avi Fontanería",
    "category": "Avi Fontanería",
    "formatted_address": "4,8(33)",
    "phone_number": "+34945220288",
    "source_url": "https://www.google.com/maps/place/Avi+Fontaner%C3%ADa/data=!4m7!3m6!1s0xd4fc2419f2893d3:0x1a1421ff065a6354!8m2!3d42.8543039!4d-2.674639!16s%2Fg%2F119tz9s2z!19sChIJ05Mon0HCTw0RVGNaBv8hFBo?authuser=0&hl=tr&rclk=1",
    "website_url": "",
    "rating_text": "4,8",
    "stars": null,
    "number_of_reviews": null,
    "price_level": "",
    "open_hours": "",
    "extraction_timestamp": "2025-06-08T03:15:11.176Z",
    "source_name": "google",
    "source_query": "Irrigation Equipment",
    "source_country": "ES",
    "country": "Spain",
    "state": "Araba",
    "city": "Arrazua-Ubarrundia"
  },
  {
    "source_id": "ChIJm52U94bCTw0RvG57poOFymY",
    "name": "Instalaciones Boro",
    "category": "Instalaciones Boro",
    "formatted_address": "3,6(56)",
    "phone_number": "+34945001649",
    "source_url": "https://www.google.com/maps/place/Instalaciones+Boro/data=!4m7!3m6!1s0xd4fc286f7949d9b:0x66ca8583a67b6ebc!8m2!3d42.840355!4d-2.655475!16s%2Fg%2F1tgptym0!19sChIJm52U94bCTw0RvG57poOFymY?authuser=0&hl=tr&rclk=1",
    "website_url": "",
    "rating_text": "3,6",
    "stars": null,
    "number_of_reviews": null,
    "price_level": "",
    "open_hours": "",
    "extraction_timestamp": "2025-06-08T03:15:11.176Z",
    "source_name": "google",
    "source_query": "Irrigation Equipment",
    "source_country": "ES",
    "country": "Spain",
    "state": "Araba",
    "city": "Arrazua-Ubarrundia"
  },
  {
    "source_id": "ChIJhWc7qfnCTw0RXi-IVO3KwZg",
    "name": "Caype - Material de oficina y artículos de papelería",
    "category": "Caype - Material de oficina y artículos de papelería",
    "formatted_address": "4,5(942)",
    "phone_number": "+34945128400",
    "source_url": "https://www.google.com/maps/place/Caype+-+Material+de+oficina+y+art%C3%ADculos+de+papeler%C3%ADa/data=!4m7!3m6!1s0xd4fc2f9a93b6785:0x98c1caed54882f5e!8m2!3d42.8642018!4d-2.6556714!16s%2Fg%2F1tj4ct6v!19sChIJhWc7qfnCTw0RXi-IVO3KwZg?authuser=0&hl=tr&rclk=1",
    "website_url": "",
    "rating_text": "4,5",
    "stars": null,
    "number_of_reviews": null,
    "price_level": "",
    "open_hours": "",
    "extraction_timestamp": "2025-06-08T03:15:11.176Z",
    "source_name": "google",
    "source_query": "Irrigation Equipment",
    "source_country": "ES",
    "country": "Spain",
    "state": "Araba",
    "city": "Arrazua-Ubarrundia"
  },
  {
    "source_id": "ChIJz0NMpirDTw0RDGp_fjqV65o",
    "name": "Jardinería Abeto SL",
    "category": "Jardinería Abeto SL",
    "formatted_address": "4,2(268)",
    "phone_number": "+34945142401",
    "source_url": "https://www.google.com/maps/place/Jardiner%C3%ADa+Abeto+SL/data=!4m7!3m6!1s0xd4fc32aa64c43cf:0x9aeb953a7e7f6a0c!8m2!3d42.8667149!4d-2.6367984!16s%2Fg%2F1q5cdvd5q!19sChIJz0NMpirDTw0RDGp_fjqV65o?authuser=0&hl=tr&rclk=1",
    "website_url": "",
    "rating_text": "4,2",
    "stars": null,
    "number_of_reviews": null,
    "price_level": "",
    "open_hours": "",
    "extraction_timestamp": "2025-06-08T03:15:11.177Z",
    "source_name": "google",
    "source_query": "Irrigation Equipment",
    "source_country": "ES",
    "country": "Spain",
    "state": "Araba",
    "city": "Arrazua-Ubarrundia"
  },
  {
    "source_id": "ChIJh82OXVLCTw0RJDKjbj9v7Qo",
    "name": "Makro",
    "category": "Makro",
    "formatted_address": "3,9(1.154)",
    "phone_number": "+34945123779",
    "source_url": "https://www.google.com/maps/place/Makro/data=!4m7!3m6!1s0xd4fc2525d8ecd87:0xaed6f3f6ea33224!8m2!3d42.8719371!4d-2.6686078!16s%2Fg%2F1vp70hfh!19sChIJh82OXVLCTw0RJDKjbj9v7Qo?authuser=0&hl=tr&rclk=1",
    "website_url": "",
    "rating_text": "3,9",
    "stars": null,
    "number_of_reviews": null,
    "price_level": "",
    "open_hours": "",
    "extraction_timestamp": "2025-06-08T03:15:11.177Z",
    "source_name": "google",
    "source_query": "Irrigation Equipment",
    "source_country": "ES",
    "country": "Spain",
    "state": "Araba",
    "city": "Arrazua-Ubarrundia"
  },
  {
    "source_id": "ChIJ98j1fTXBTw0RRsu_NlJLAjM",
    "name": "Hiartek, S.L.",
    "category": "Hiartek, S.L.",
    "formatted_address": "Hiartek, S.L.",
    "phone_number": "+34945036449",
    "source_url": "https://www.google.com/maps/place/Hiartek,+S.L./data=!4m7!3m6!1s0xd4fc1357df5c8f7:0x33024b5236bfcb46!8m2!3d42.8440557!4d-2.7397871!16s%2Fg%2F11mvvdf207!19sChIJ98j1fTXBTw0RRsu_NlJLAjM?authuser=0&hl=tr&rclk=1",
    "website_url": "",
    "rating_text": "5,0",
    "stars": null,
    "number_of_reviews": null,
    "price_level": "",
    "open_hours": "",
    "extraction_timestamp": "2025-06-08T03:15:11.178Z",
    "source_name": "google",
    "source_query": "Irrigation Equipment",
    "source_country": "ES",
    "country": "Spain",
    "state": "Araba",
    "city": "Arrazua-Ubarrundia"
  },
  {
    "source_id": "ChIJ2z75-YrGTw0RaLdi_L6q3-c",
    "name": "Aquaraba S.L.",
    "category": "Aquaraba S.L.",
    "formatted_address": "4,3(3)",
    "phone_number": "+34945291633",
    "source_url": "https://www.google.com/maps/place/Aquaraba+S.L./data=!4m7!3m6!1s0xd4fc68af9f93edb:0xe7dfaabefc62b768!8m2!3d42.8459064!4d-2.7356022!16s%2Fg%2F119v1hmll!19sChIJ2z75-YrGTw0RaLdi_L6q3-c?authuser=0&hl=tr&rclk=1",
    "website_url": "",
    "rating_text": "4,3",
    "stars": null,
    "number_of_reviews": null,
    "price_level": "",
    "open_hours": "",
    "extraction_timestamp": "2025-06-08T03:15:11.199Z",
    "source_name": "google",
    "source_query": "Irrigation Equipment",
    "source_country": "ES",
    "country": "Spain",
    "state": "Araba",
    "city": "Arrazua-Ubarrundia"
  },
  {
    "source_id": "ChIJibemiC7CTw0RHD_dvXmEtVQ",
    "name": "Zelai Alai",
    "category": "Zelai Alai",
    "formatted_address": "4,4(58)",
    "phone_number": "+34945068371",
    "source_url": "https://www.google.com/maps/place/Zelai+Alai/data=!4m7!3m6!1s0xd4fc22e88a6b789:0x54b58479bddd3f1c!8m2!3d42.8655655!4d-2.6909277!16s%2Fg%2F1wf39yb9!19sChIJibemiC7CTw0RHD_dvXmEtVQ?authuser=0&hl=tr&rclk=1",
    "website_url": "",
    "rating_text": "4,4",
    "stars": null,
    "number_of_reviews": null,
    "price_level": "",
    "open_hours": "",
    "extraction_timestamp": "2025-06-08T03:15:11.201Z",
    "source_name": "google",
    "source_query": "Irrigation Equipment",
    "source_country": "ES",
    "country": "Spain",
    "state": "Araba",
    "city": "Arrazua-Ubarrundia"
  },
  {
    "source_id": "ChIJAXg-kXbqTw0RDWzUVXTTcOM",
    "name": "Vitoriana de Riegos S L",
    "category": "Vitoriana de Riegos S L",
    "formatted_address": "4,0(2)",
    "phone_number": "+34945132595",
    "source_url": "https://www.google.com/maps/place/Vitoriana+de+Riegos+S+L/data=!4m7!3m6!1s0xd4fea76913e7801:0xe370d37455d46c0d!8m2!3d42.828207!4d-2.724081!16s%2Fg%2F11cncbxrg4!19sChIJAXg-kXbqTw0RDWzUVXTTcOM?authuser=0&hl=tr&rclk=1",
    "website_url": "",
    "rating_text": "4,0",
    "stars": null,
    "number_of_reviews": null,
    "price_level": "",
    "open_hours": "",
    "extraction_timestamp": "2025-06-08T03:15:11.203Z",
    "source_name": "google",
    "source_query": "Irrigation Equipment",
    "source_country": "ES",
    "country": "Spain",
    "state": "Araba",
    "city": "Arrazua-Ubarrundia"
  },
  {
    "source_id": "ChIJpVzM20WVTw0Rge0kaYJY-OE",
    "name": "HIDROARABA",
    "category": "HIDROARABA",
    "formatted_address": "4,7(3)",
    "phone_number": "+34945564290",
    "source_url": "https://www.google.com/maps/place/HIDROARABA/data=!4m7!3m6!1s0xd4f9545dbcc5ca5:0xe1f858826924ed81!8m2!3d42.8159072!4d-2.789516!16s%2Fg%2F11b_2rfvw1!19sChIJpVzM20WVTw0Rge0kaYJY-OE?authuser=0&hl=tr&rclk=1",
    "website_url": "",
    "rating_text": "4,7",
    "stars": null,
    "number_of_reviews": null,
    "price_level": "",
    "open_hours": "",
    "extraction_timestamp": "2025-06-08T03:15:11.204Z",
    "source_name": "google",
    "source_query": "Irrigation Equipment",
    "source_country": "ES",
    "country": "Spain",
    "state": "Araba",
    "city": "Arrazua-Ubarrundia"
  },
  {
    "source_id": "ChIJX283qEbCTw0RgOZYgpwzG-4",
    "name": "Fontanería Y Calefacción Roncal",
    "category": "Fontanería Y Calefacción Roncal",
    "formatted_address": "4,0(35)",
    "phone_number": "+34945223286",
    "source_url": "https://www.google.com/maps/place/Fontaner%C3%ADa+Y+Calefacci%C3%B3n+Roncal/data=!4m7!3m6!1s0xd4fc246a8376f5f:0xee1b339c8258e680!8m2!3d42.8578866!4d-2.6735703!16s%2Fg%2F1tlqr96d!19sChIJX283qEbCTw0RgOZYgpwzG-4?authuser=0&hl=tr&rclk=1",
    "website_url": "",
    "rating_text": "4,0",
    "stars": null,
    "number_of_reviews": null,
    "price_level": "",
    "open_hours": "",
    "extraction_timestamp": "2025-06-08T03:15:11.205Z",
    "source_name": "google",
    "source_query": "Irrigation Equipment",
    "source_country": "ES",
    "country": "Spain",
    "state": "Araba",
    "city": "Arrazua-Ubarrundia"
  },
  {
    "source_id": "ChIJ0wYlbKLrTw0RMRN22dWCiVA",
    "name": "Bet Energía",
    "category": "Bet Energía",
    "formatted_address": "3,0(4)",
    "phone_number": "+34945001150",
    "source_url": "https://www.google.com/maps/place/Bet+Energ%C3%ADa/data=!4m7!3m6!1s0xd4feba26c2506d3:0x508982d5d9761331!8m2!3d42.8294797!4d-2.7475662!16s%2Fg%2F11k650l6pz!19sChIJ0wYlbKLrTw0RMRN22dWCiVA?authuser=0&hl=tr&rclk=1",
    "website_url": "",
    "rating_text": "3,0",
    "stars": null,
    "number_of_reviews": null,
    "price_level": "",
    "open_hours": "",
    "extraction_timestamp": "2025-06-08T03:15:11.207Z",
    "source_name": "google",
    "source_query": "Irrigation Equipment",
    "source_country": "ES",
    "country": "Spain",
    "state": "Araba",
    "city": "Arrazua-Ubarrundia"
  },
  {
    "source_id": "ChIJ29lPCDsjUA0RSBF59HYH4ko",
    "name": "Desatascos y Limpiezas Urbanisti Álava - Servicio Urgencias 24h",
    "category": "Desatascos y Limpiezas Urbanisti Álava - Servicio Urgencias 24h",
    "formatted_address": "3,6(32)",
    "phone_number": "+34608285181",
    "source_url": "https://www.google.com/maps/place/Desatascos+y+Limpiezas+Urbanisti+%C3%81lava+-+Servicio+Urgencias+24h/data=!4m7!3m6!1s0xd50233b084fd9db:0x4ae20776f4791148!8m2!3d42.8473248!4d-2.6612439!16s%2Fg%2F1q5bnln82!19sChIJ29lPCDsjUA0RSBF59HYH4ko?authuser=0&hl=tr&rclk=1",
    "website_url": "",
    "rating_text": "3,6",
    "stars": null,
    "number_of_reviews": null,
    "price_level": "",
    "open_hours": "",
    "extraction_timestamp": "2025-06-08T03:15:11.208Z",
    "source_name": "google",
    "source_query": "Irrigation Equipment",
    "source_country": "ES",
    "country": "Spain",
    "state": "Araba",
    "city": "Arrazua-Ubarrundia"
  },
  {
    "source_id": "ChIJx6wvjEDCTw0RsWdVVqAwjwU",
    "name": "Hidroclima Instalaciones",
    "category": "Hidroclima Instalaciones",
    "formatted_address": "4,1(99)",
    "phone_number": "+34945069904",
    "source_url": "https://www.google.com/maps/place/Hidroclima+Instalaciones/data=!4m7!3m6!1s0xd4fc2408c2facc7:0x58f30a0565567b1!8m2!3d42.854756!4d-2.677785!16s%2Fg%2F11c52jwgwd!19sChIJx6wvjEDCTw0RsWdVVqAwjwU?authuser=0&hl=tr&rclk=1",
    "website_url": "",
    "rating_text": "4,1",
    "stars": null,
    "number_of_reviews": null,
    "price_level": "",
    "open_hours": "",
    "extraction_timestamp": "2025-06-08T03:15:11.209Z",
    "source_name": "google",
    "source_query": "Irrigation Equipment",
    "source_country": "ES",
    "country": "Spain",
    "state": "Araba",
    "city": "Arrazua-Ubarrundia"
  }
]
