[
  {
    "source_id": "ChIJgz8xX_GYTw0R5OG7xM68pYw",
    "name": "Salt Valley of Añana",
    "category": "Salt Valley of Añana",
    "formatted_address": "4,7(6.135)",
    "phone_number": "+34945351111",
    "source_url": "https://www.google.com/maps/place/Salt+Valley+of+A%C3%B1ana/data=!4m7!3m6!1s0xd4f98f15f313f83:0x8ca5bccec4bbe1e4!8m2!3d42.8004459!4d-2.9832402!16s%2Fg%2F11b62pvxgk!19sChIJgz8xX_GYTw0R5OG7xM68pYw?authuser=0&hl=tr&rclk=1",
    "website_url": "http://www.vallesalado.com/",
    "rating_text": "4,7",
    "stars": null,
    "number_of_reviews": null,
    "price_level": "",
    "open_hours": "",
    "extraction_timestamp": "2025-06-08T03:20:41.621Z",
    "source_name": "google",
    "source_query": "Irrigation Equipment",
    "source_country": "ES",
    "country": "Spain",
    "state": "Araba",
    "city": "Añana"
  },
  {
    "source_id": "ChIJ-QlZR_KYTw0RsYM6fyLVsRQ",
    "name": "Saltworks of Añana",
    "category": "Saltworks of Añana",
    "formatted_address": "4,8(111)",
    "phone_number": "",
    "source_url": "https://www.google.com/maps/place/Saltworks+of+A%C3%B1ana/data=!4m7!3m6!1s0xd4f98f2475909f9:0x14b1d5227f3a83b1!8m2!3d42.8004542!4d-2.9833366!16s%2Fg%2F11cssjt89p!19sChIJ-QlZR_KYTw0RsYM6fyLVsRQ?authuser=0&hl=tr&rclk=1",
    "website_url": "",
    "rating_text": "4,8",
    "stars": null,
    "number_of_reviews": null,
    "price_level": "",
    "open_hours": "",
    "extraction_timestamp": "2025-06-08T03:20:41.621Z",
    "source_name": "google",
    "source_query": "Irrigation Equipment",
    "source_country": "ES",
    "country": "Spain",
    "state": "Araba",
    "city": "Añana"
  },
  {
    "source_id": "ChIJ9dPUp-2YTw0R5nJftSmGdcE",
    "name": "Fundación Valle Salado De Añana",
    "category": "Fundación Valle Salado De Añana",
    "formatted_address": "4,7(25)",
    "phone_number": "+34945351413",
    "source_url": "https://www.google.com/maps/place/Fundaci%C3%B3n+Valle+Salado+De+A%C3%B1ana/data=!4m7!3m6!1s0xd4f98eda7d4d3f5:0xc1758629b55f72e6!8m2!3d42.802372!4d-2.986477!16s%2Fg%2F1q5bp78_4!19sChIJ9dPUp-2YTw0R5nJftSmGdcE?authuser=0&hl=tr&rclk=1",
    "website_url": "http://www.vallesalado.com/",
    "rating_text": "4,7",
    "stars": null,
    "number_of_reviews": null,
    "price_level": "",
    "open_hours": "",
    "extraction_timestamp": "2025-06-08T03:20:41.622Z",
    "source_name": "google",
    "source_query": "Irrigation Equipment",
    "source_country": "ES",
    "country": "Spain",
    "state": "Araba",
    "city": "Añana"
  },
  {
    "source_id": "ChIJNQGCJmHCTw0R8aNDhF16xWE",
    "name": "Eziolaza Amalur S.L.",
    "category": "Eziolaza Amalur S.L.",
    "formatted_address": "4,5(166)",
    "phone_number": "+34945257255",
    "source_url": "https://www.google.com/maps/place/Eziolaza+Amalur+S.L./data=!4m7!3m6!1s0xd4fc26126820135:0x61c57a5d8443a3f1!8m2!3d42.84965!4d-2.66277!16s%2Fg%2F1td2j6j9!19sChIJNQGCJmHCTw0R8aNDhF16xWE?authuser=0&hl=tr&rclk=1",
    "website_url": "http://www.eziolaza.com/",
    "rating_text": "4,5",
    "stars": null,
    "number_of_reviews": null,
    "price_level": "",
    "open_hours": "",
    "extraction_timestamp": "2025-06-08T03:20:41.622Z",
    "source_name": "google",
    "source_query": "Irrigation Equipment",
    "source_country": "ES",
    "country": "Spain",
    "state": "Araba",
    "city": "Añana"
  },
  {
    "source_id": "ChIJAXg-kXbqTw0RDWzUVXTTcOM",
    "name": "Vitoriana de Riegos S L",
    "category": "Vitoriana de Riegos S L",
    "formatted_address": "4,0(2)",
    "phone_number": "+34945132595",
    "source_url": "https://www.google.com/maps/place/Vitoriana+de+Riegos+S+L/data=!4m7!3m6!1s0xd4fea76913e7801:0xe370d37455d46c0d!8m2!3d42.828207!4d-2.724081!16s%2Fg%2F11cncbxrg4!19sChIJAXg-kXbqTw0RDWzUVXTTcOM?authuser=0&hl=tr&rclk=1",
    "website_url": "",
    "rating_text": "4,0",
    "stars": null,
    "number_of_reviews": null,
    "price_level": "",
    "open_hours": "",
    "extraction_timestamp": "2025-06-08T03:20:41.622Z",
    "source_name": "google",
    "source_query": "Irrigation Equipment",
    "source_country": "ES",
    "country": "Spain",
    "state": "Araba",
    "city": "Añana"
  }
]
