[
  {
    "source_id": "ChIJuz-ifrP9Tw0RlKAe82z-Q-8",
    "name": "Marta Tendero Baima",
    "category": "Marta Tendero Baima",
    "formatted_address": "5,0(1)",
    "phone_number": "+34945378150",
    "source_url": "https://www.google.com/maps/place/Marta+Tendero+Baima/data=!4m7!3m6!1s0xd4ffdb37ea23fbb:0xef43fe6cf31ea094!8m2!3d42.626911!4d-2.497803!16s%2Fg%2F1q5bmv5r9!19sChIJuz-ifrP9Tw0RlKAe82z-Q-8?authuser=0&hl=tr&rclk=1",
    "website_url": "https://wa.me/+34945378150",
    "rating_text": "5,0",
    "stars": null,
    "number_of_reviews": null,
    "price_level": "",
    "open_hours": "",
    "extraction_timestamp": "2025-06-08T03:20:24.623Z",
    "source_name": "google",
    "source_query": "Irrigation Equipment",
    "source_country": "ES",
    "country": "Spain",
    "state": "Araba",
    "city": "Bernedo"
  },
  {
    "source_id": "ChIJO-nRKTnCTw0RZ59zgsifAgI",
    "name": "Bombas Itur",
    "category": "Bombas Itur",
    "formatted_address": "5,0(4)",
    "phone_number": "+34945121670",
    "source_url": "https://www.google.com/maps/place/Bombas+Itur/data=!4m7!3m6!1s0xd4fc23929d1e93b:0x2029fc882739f67!8m2!3d42.83818!4d-2.6544785!16s%2Fg%2F1tdld0p3!19sChIJO-nRKTnCTw0RZ59zgsifAgI?authuser=0&hl=tr&rclk=1",
    "website_url": "http://www.motoresybombasvitoria.com/",
    "rating_text": "5,0",
    "stars": null,
    "number_of_reviews": null,
    "price_level": "",
    "open_hours": "",
    "extraction_timestamp": "2025-06-08T03:20:24.625Z",
    "source_name": "google",
    "source_query": "Irrigation Equipment",
    "source_country": "ES",
    "country": "Spain",
    "state": "Araba",
    "city": "Bernedo"
  },
  {
    "source_id": "ChIJxcBMBePCTw0R4rJIHI5SYX0",
    "name": "Nuvi Araba",
    "category": "Nuvi Araba",
    "formatted_address": "4,8(5)",
    "phone_number": "+34945263581",
    "source_url": "https://www.google.com/maps/place/Nuvi+Araba/data=!4m7!3m6!1s0xd4fc2e3054cc0c5:0x7d61528e1c48b2e2!8m2!3d42.8693918!4d-2.6468918!16s%2Fg%2F11byhlb3c3!19sChIJxcBMBePCTw0R4rJIHI5SYX0?authuser=0&hl=tr&rclk=1",
    "website_url": "http://www.nuviaraba.com/",
    "rating_text": "4,8",
    "stars": null,
    "number_of_reviews": null,
    "price_level": "",
    "open_hours": "",
    "extraction_timestamp": "2025-06-08T03:20:24.626Z",
    "source_name": "google",
    "source_query": "Irrigation Equipment",
    "source_country": "ES",
    "country": "Spain",
    "state": "Araba",
    "city": "Bernedo"
  },
  {
    "source_id": "ChIJxYQjRLP9Tw0R5P1PpL1jXaY",
    "name": "Panadería Belategi",
    "category": "Panadería Belategi",
    "formatted_address": "4,8(10)",
    "phone_number": "+34660085725",
    "source_url": "https://www.google.com/maps/place/Panader%C3%ADa+Belategi/data=!4m7!3m6!1s0xd4ffdb3442384c5:0xa65d63bda44ffde4!8m2!3d42.6277157!4d-2.4992054!16s%2Fg%2F11c5b6vwlv!19sChIJxYQjRLP9Tw0R5P1PpL1jXaY?authuser=0&hl=tr&rclk=1",
    "website_url": "",
    "rating_text": "4,8",
    "stars": null,
    "number_of_reviews": null,
    "price_level": "",
    "open_hours": "",
    "extraction_timestamp": "2025-06-08T03:20:24.628Z",
    "source_name": "google",
    "source_query": "Irrigation Equipment",
    "source_country": "ES",
    "country": "Spain",
    "state": "Araba",
    "city": "Bernedo"
  },
  {
    "source_id": "ChIJAXg-kXbqTw0RDWzUVXTTcOM",
    "name": "Vitoriana de Riegos S L",
    "category": "Vitoriana de Riegos S L",
    "formatted_address": "4,0(2)",
    "phone_number": "+34945132595",
    "source_url": "https://www.google.com/maps/place/Vitoriana+de+Riegos+S+L/data=!4m7!3m6!1s0xd4fea76913e7801:0xe370d37455d46c0d!8m2!3d42.828207!4d-2.724081!16s%2Fg%2F11cncbxrg4!19sChIJAXg-kXbqTw0RDWzUVXTTcOM?authuser=0&hl=tr&rclk=1",
    "website_url": "",
    "rating_text": "4,0",
    "stars": null,
    "number_of_reviews": null,
    "price_level": "",
    "open_hours": "",
    "extraction_timestamp": "2025-06-08T03:20:24.629Z",
    "source_name": "google",
    "source_query": "Irrigation Equipment",
    "source_country": "ES",
    "country": "Spain",
    "state": "Araba",
    "city": "Bernedo"
  },
  {
    "source_id": "ChIJwXQ1CEfCTw0Rf_xB75hVHmg",
    "name": "BOMBAS Y RIEGOS PANAMA",
    "category": "BOMBAS Y RIEGOS PANAMA",
    "formatted_address": "2,1(14)",
    "phone_number": "+34945253252",
    "source_url": "https://www.google.com/maps/place/BOMBAS+Y+RIEGOS+PANAMA/data=!4m7!3m6!1s0xd4fc247083574c1:0x681e5598ef41fc7f!8m2!3d42.8593215!4d-2.6767926!16s%2Fg%2F11bxgzqvlf!19sChIJwXQ1CEfCTw0Rf_xB75hVHmg?authuser=0&hl=tr&rclk=1",
    "website_url": "https://bombasyriegospanama.com/",
    "rating_text": "2,1",
    "stars": null,
    "number_of_reviews": null,
    "price_level": "",
    "open_hours": "",
    "extraction_timestamp": "2025-06-08T03:20:24.631Z",
    "source_name": "google",
    "source_query": "Irrigation Equipment",
    "source_country": "ES",
    "country": "Spain",
    "state": "Araba",
    "city": "Bernedo"
  }
]
