[
  {
    "source_id": "ChIJ98j1fTXBTw0RRsu_NlJLAjM",
    "name": "Hiartek, S.L.",
    "category": "Hiartek, S.L.",
    "formatted_address": "Hiartek, S.L.",
    "phone_number": "+34945036449",
    "source_url": "https://www.google.com/maps/place/Hiartek,+S.L./data=!4m7!3m6!1s0xd4fc1357df5c8f7:0x33024b5236bfcb46!8m2!3d42.8440557!4d-2.7397871!16s%2Fg%2F11mvvdf207!19sChIJ98j1fTXBTw0RRsu_NlJLAjM?authuser=0&hl=tr&rclk=1",
    "website_url": "http://www.hiartek.com/",
    "rating_text": "5,0",
    "stars": null,
    "number_of_reviews": null,
    "price_level": "",
    "open_hours": "",
    "extraction_timestamp": "2025-06-08T03:22:20.936Z",
    "source_name": "google",
    "source_query": "Irrigation Equipment",
    "source_country": "ES",
    "country": "Spain",
    "state": "Araba",
    "city": "Iruraiz-Gauna"
  },
  {
    "source_id": "ChIJxcBMBePCTw0R4rJIHI5SYX0",
    "name": "Nuvi Araba",
    "category": "Nuvi Araba",
    "formatted_address": "4,8(5)",
    "phone_number": "+34945263581",
    "source_url": "https://www.google.com/maps/place/Nuvi+Araba/data=!4m7!3m6!1s0xd4fc2e3054cc0c5:0x7d61528e1c48b2e2!8m2!3d42.8693918!4d-2.6468918!16s%2Fg%2F11byhlb3c3!19sChIJxcBMBePCTw0R4rJIHI5SYX0?authuser=0&hl=tr&rclk=1",
    "website_url": "http://www.nuviaraba.com/",
    "rating_text": "4,8",
    "stars": null,
    "number_of_reviews": null,
    "price_level": "",
    "open_hours": "",
    "extraction_timestamp": "2025-06-08T03:22:20.938Z",
    "source_name": "google",
    "source_query": "Irrigation Equipment",
    "source_country": "ES",
    "country": "Spain",
    "state": "Araba",
    "city": "Iruraiz-Gauna"
  },
  {
    "source_id": "ChIJbYjym63DTw0RZ_ikNB_HuFY",
    "name": "Proyectos Diurvi",
    "category": "Proyectos Diurvi",
    "formatted_address": "5,0(2)",
    "phone_number": "+34673058430",
    "source_url": "https://www.google.com/maps/place/Proyectos+Diurvi/data=!4m7!3m6!1s0xd4fc3ad9bf2886d:0x56b8c71f34a4f867!8m2!3d42.8472276!4d-2.6864894!16s%2Fg%2F11x0r714y8!19sChIJbYjym63DTw0RZ_ikNB_HuFY?authuser=0&hl=tr&rclk=1",
    "website_url": "https://www.proyectosdiurvi.com/",
    "rating_text": "5,0",
    "stars": null,
    "number_of_reviews": null,
    "price_level": "",
    "open_hours": "",
    "extraction_timestamp": "2025-06-08T03:22:20.940Z",
    "source_name": "google",
    "source_query": "Irrigation Equipment",
    "source_country": "ES",
    "country": "Spain",
    "state": "Araba",
    "city": "Iruraiz-Gauna"
  },
  {
    "source_id": "ChIJAXg-kXbqTw0RDWzUVXTTcOM",
    "name": "Vitoriana de Riegos S L",
    "category": "Vitoriana de Riegos S L",
    "formatted_address": "4,0(2)",
    "phone_number": "+34945132595",
    "source_url": "https://www.google.com/maps/place/Vitoriana+de+Riegos+S+L/data=!4m7!3m6!1s0xd4fea76913e7801:0xe370d37455d46c0d!8m2!3d42.828207!4d-2.724081!16s%2Fg%2F11cncbxrg4!19sChIJAXg-kXbqTw0RDWzUVXTTcOM?authuser=0&hl=tr&rclk=1",
    "website_url": "",
    "rating_text": "4,0",
    "stars": null,
    "number_of_reviews": null,
    "price_level": "",
    "open_hours": "",
    "extraction_timestamp": "2025-06-08T03:22:20.941Z",
    "source_name": "google",
    "source_query": "Irrigation Equipment",
    "source_country": "ES",
    "country": "Spain",
    "state": "Araba",
    "city": "Iruraiz-Gauna"
  },
  {
    "source_id": "ChIJcR1lsynATw0RWWz9Knx84V4",
    "name": "Sistemas OMO Vitoria SL",
    "category": "Sistemas OMO Vitoria SL",
    "formatted_address": "5,0(1)",
    "phone_number": "+34945046992",
    "source_url": "https://www.google.com/maps/place/Sistemas+OMO+Vitoria+SL/data=!4m7!3m6!1s0xd4fc029b3651d71:0x5ee17c7c2afd6c59!8m2!3d42.832529!4d-2.74552!16s%2Fg%2F11bxc7fhl7!19sChIJcR1lsynATw0RWWz9Knx84V4?authuser=0&hl=tr&rclk=1",
    "website_url": "",
    "rating_text": "5,0",
    "stars": null,
    "number_of_reviews": null,
    "price_level": "",
    "open_hours": "",
    "extraction_timestamp": "2025-06-08T03:22:20.943Z",
    "source_name": "google",
    "source_query": "Irrigation Equipment",
    "source_country": "ES",
    "country": "Spain",
    "state": "Araba",
    "city": "Iruraiz-Gauna"
  },
  {
    "source_id": "ChIJ__-_q83BTw0RLm4-VcaRHs0",
    "name": "direma",
    "category": "direma",
    "formatted_address": "5,0(1)",
    "phone_number": "+34945290402",
    "source_url": "https://www.google.com/maps/place/direma/data=!4m7!3m6!1s0xd4fc1cdabbfffff:0xcd1e91c6553e6e2e!8m2!3d42.8431699!4d-2.7354468!16s%2Fg%2F11gr3m0r8w!19sChIJ__-_q83BTw0RLm4-VcaRHs0?authuser=0&hl=tr&rclk=1",
    "website_url": "http://www.direma.es/",
    "rating_text": "5,0",
    "stars": null,
    "number_of_reviews": null,
    "price_level": "",
    "open_hours": "",
    "extraction_timestamp": "2025-06-08T03:22:20.944Z",
    "source_name": "google",
    "source_query": "Irrigation Equipment",
    "source_country": "ES",
    "country": "Spain",
    "state": "Araba",
    "city": "Iruraiz-Gauna"
  },
  {
    "source_id": "ChIJF4zvCNsPekIRQXU9TBirx0s",
    "name": "Tomás Konpondu",
    "category": "Tomás Konpondu",
    "formatted_address": "5,0(1)",
    "phone_number": "+34606519941",
    "source_url": "https://www.google.com/maps/place/Tom%C3%A1s+Konpondu/data=!4m7!3m6!1s0x427a0fdb08ef8c17:0x4bc7ab184c3d7541!8m2!3d42.844774!4d-2.759727!16s%2Fg%2F11vb4fksq6!19sChIJF4zvCNsPekIRQXU9TBirx0s?authuser=0&hl=tr&rclk=1",
    "website_url": "",
    "rating_text": "5,0",
    "stars": null,
    "number_of_reviews": null,
    "price_level": "",
    "open_hours": "",
    "extraction_timestamp": "2025-06-08T03:22:20.945Z",
    "source_name": "google",
    "source_query": "Irrigation Equipment",
    "source_country": "ES",
    "country": "Spain",
    "state": "Araba",
    "city": "Iruraiz-Gauna"
  },
  {
    "source_id": "ChIJn6VLi3ohUA0RK2sdUB6IVug",
    "name": "GOIKOMENDI INGURUMEN ZERBITZUAK",
    "category": "GOIKOMENDI INGURUMEN ZERBITZUAK",
    "formatted_address": "Bahçıvan · Lapurdi Kalea, 5Kapalı ⋅ Açılış zamanı: Pzt 08:00 · +34 667 84 88 32",
    "phone_number": "+34667848832",
    "source_url": "https://www.google.com/maps/place/GOIKOMENDI+INGURUMEN+ZERBITZUAK/data=!4m7!3m6!1s0xd50217a8b4ba59f:0xe856881e501d6b2b!8m2!3d42.8514821!4d-2.3874307!16s%2Fg%2F11ls5mc7ly!19sChIJn6VLi3ohUA0RK2sdUB6IVug?authuser=0&hl=tr&rclk=1",
    "website_url": "https://www.goikomendi.eus/",
    "rating_text": "",
    "stars": null,
    "number_of_reviews": null,
    "price_level": "",
    "open_hours": "",
    "extraction_timestamp": "2025-06-08T03:22:20.946Z",
    "source_name": "google",
    "source_query": "Irrigation Equipment",
    "source_country": "ES",
    "country": "Spain",
    "state": "Araba",
    "city": "Iruraiz-Gauna"
  },
  {
    "source_id": "ChIJx6YHGzAhUA0RgjeBLgVJh8M",
    "name": "Suministros Agurtek S.L",
    "category": "Suministros Agurtek S.L",
    "formatted_address": "Nalbur · Iturrieta Kalea, 2Kapalı ⋅ Açılış zamanı: Pzt 09:30 · +34 609 28 84 35",
    "phone_number": "+34609288435",
    "source_url": "https://www.google.com/maps/place/Suministros+Agurtek+S.L/data=!4m7!3m6!1s0xd5021301b07a6c7:0xc38749052e813782!8m2!3d42.848575!4d-2.3929272!16s%2Fg%2F11vzlzhz82!19sChIJx6YHGzAhUA0RgjeBLgVJh8M?authuser=0&hl=tr&rclk=1",
    "website_url": "",
    "rating_text": "",
    "stars": null,
    "number_of_reviews": null,
    "price_level": "",
    "open_hours": "",
    "extraction_timestamp": "2025-06-08T03:22:20.947Z",
    "source_name": "google",
    "source_query": "Irrigation Equipment",
    "source_country": "ES",
    "country": "Spain",
    "state": "Araba",
    "city": "Iruraiz-Gauna"
  }
]
