[
  {
    "source_id": "ChIJNQGCJmHCTw0R8aNDhF16xWE",
    "name": "Eziolaza Amalur S.L.",
    "category": "Eziolaza Amalur S.L.",
    "formatted_address": "4,5(166)",
    "phone_number": "+34945257255",
    "source_url": "https://www.google.com/maps/place/Eziolaza+Amalur+S.L./data=!4m7!3m6!1s0xd4fc26126820135:0x61c57a5d8443a3f1!8m2!3d42.84965!4d-2.66277!16s%2Fg%2F1td2j6j9!19sChIJNQGCJmHCTw0R8aNDhF16xWE?authuser=0&hl=tr&rclk=1",
    "website_url": "http://www.eziolaza.com/",
    "rating_text": "4,5",
    "stars": null,
    "number_of_reviews": null,
    "price_level": "",
    "open_hours": "",
    "extraction_timestamp": "2025-06-08T03:18:11.619Z",
    "source_name": "google",
    "source_query": "Irrigation Equipment",
    "source_country": "ES",
    "country": "Spain",
    "state": "Araba",
    "city": "Kuartango"
  },
  {
    "source_id": "ChIJ98j1fTXBTw0RRsu_NlJLAjM",
    "name": "Hiartek, S.L.",
    "category": "Hiartek, S.L.",
    "formatted_address": "Hiartek, S.L.",
    "phone_number": "+34945036449",
    "source_url": "https://www.google.com/maps/place/Hiartek,+S.L./data=!4m7!3m6!1s0xd4fc1357df5c8f7:0x33024b5236bfcb46!8m2!3d42.8440557!4d-2.7397871!16s%2Fg%2F11mvvdf207!19sChIJ98j1fTXBTw0RRsu_NlJLAjM?authuser=0&hl=tr&rclk=1",
    "website_url": "http://www.hiartek.com/",
    "rating_text": "5,0",
    "stars": null,
    "number_of_reviews": null,
    "price_level": "",
    "open_hours": "",
    "extraction_timestamp": "2025-06-08T03:18:11.621Z",
    "source_name": "google",
    "source_query": "Irrigation Equipment",
    "source_country": "ES",
    "country": "Spain",
    "state": "Araba",
    "city": "Kuartango"
  },
  {
    "source_id": "ChIJE1D9_MvBTw0Rm_JDT5KdCUY",
    "name": "AGRATOR Maquinaria Agrícola",
    "category": "AGRATOR Maquinaria Agrícola",
    "formatted_address": "4,6(13)",
    "phone_number": "+34945290132",
    "source_url": "https://www.google.com/maps/place/AGRATOR+Maquinaria+Agr%C3%ADcola/data=!4m7!3m6!1s0xd4fc1cbfcfd5013:0x46099d924f43f29b!8m2!3d42.8467156!4d-2.7335814!16s%2Fg%2F1q5bngds0!19sChIJE1D9_MvBTw0Rm_JDT5KdCUY?authuser=0&hl=tr&rclk=1",
    "website_url": "http://www.agrator.com/",
    "rating_text": "4,6",
    "stars": null,
    "number_of_reviews": null,
    "price_level": "",
    "open_hours": "",
    "extraction_timestamp": "2025-06-08T03:18:11.623Z",
    "source_name": "google",
    "source_query": "Irrigation Equipment",
    "source_country": "ES",
    "country": "Spain",
    "state": "Araba",
    "city": "Kuartango"
  },
  {
    "source_id": "ChIJacFuGnIhnkwRrP0T_6P-8j8",
    "name": "Urtegar jardineria y servicios",
    "category": "Urtegar jardineria y servicios",
    "formatted_address": "5,0(2)",
    "phone_number": "+34676170687",
    "source_url": "https://www.google.com/maps/place/Urtegar+jardineria+y+servicios/data=!4m7!3m6!1s0x4c9e21721a6ec169:0x3ff2fea3ff13fdac!8m2!3d42.9648034!4d-2.5898364!16s%2Fg%2F11txzk79h9!19sChIJacFuGnIhnkwRrP0T_6P-8j8?authuser=0&hl=tr&rclk=1",
    "website_url": "https://www.urtegarservicios.com/",
    "rating_text": "5,0",
    "stars": null,
    "number_of_reviews": null,
    "price_level": "",
    "open_hours": "",
    "extraction_timestamp": "2025-06-08T03:18:11.624Z",
    "source_name": "google",
    "source_query": "Irrigation Equipment",
    "source_country": "ES",
    "country": "Spain",
    "state": "Araba",
    "city": "Kuartango"
  },
  {
    "source_id": "ChIJAXg-kXbqTw0RDWzUVXTTcOM",
    "name": "Vitoriana de Riegos S L",
    "category": "Vitoriana de Riegos S L",
    "formatted_address": "4,0(2)",
    "phone_number": "+34945132595",
    "source_url": "https://www.google.com/maps/place/Vitoriana+de+Riegos+S+L/data=!4m7!3m6!1s0xd4fea76913e7801:0xe370d37455d46c0d!8m2!3d42.828207!4d-2.724081!16s%2Fg%2F11cncbxrg4!19sChIJAXg-kXbqTw0RDWzUVXTTcOM?authuser=0&hl=tr&rclk=1",
    "website_url": "",
    "rating_text": "4,0",
    "stars": null,
    "number_of_reviews": null,
    "price_level": "",
    "open_hours": "",
    "extraction_timestamp": "2025-06-08T03:18:11.626Z",
    "source_name": "google",
    "source_query": "Irrigation Equipment",
    "source_country": "ES",
    "country": "Spain",
    "state": "Araba",
    "city": "Kuartango"
  },
  {
    "source_id": "ChIJxcBMBePCTw0R4rJIHI5SYX0",
    "name": "Nuvi Araba",
    "category": "Nuvi Araba",
    "formatted_address": "4,8(5)",
    "phone_number": "+34945263581",
    "source_url": "https://www.google.com/maps/place/Nuvi+Araba/data=!4m7!3m6!1s0xd4fc2e3054cc0c5:0x7d61528e1c48b2e2!8m2!3d42.8693918!4d-2.6468918!16s%2Fg%2F11byhlb3c3!19sChIJxcBMBePCTw0R4rJIHI5SYX0?authuser=0&hl=tr&rclk=1",
    "website_url": "http://www.nuviaraba.com/",
    "rating_text": "4,8",
    "stars": null,
    "number_of_reviews": null,
    "price_level": "",
    "open_hours": "",
    "extraction_timestamp": "2025-06-08T03:18:11.628Z",
    "source_name": "google",
    "source_query": "Irrigation Equipment",
    "source_country": "ES",
    "country": "Spain",
    "state": "Araba",
    "city": "Kuartango"
  },
  {
    "source_id": "ChIJSSEy-ErrTw0RoIOaOb7CwBU",
    "name": "Tierra Vital Esconsu, Planta de Compostaje",
    "category": "Tierra Vital Esconsu, Planta de Compostaje",
    "formatted_address": "Tierra Vital Esconsu, Planta de Compostaje",
    "phone_number": "+34647685904",
    "source_url": "https://www.google.com/maps/place/Tierra+Vital+Esconsu,+Planta+de+Compostaje/data=!4m7!3m6!1s0xd4feb4af8322149:0x15c0c2be399a83a0!8m2!3d42.8390467!4d-2.7433834!16s%2Fg%2F11vd40m53t!19sChIJSSEy-ErrTw0RoIOaOb7CwBU?authuser=0&hl=tr&rclk=1",
    "website_url": "http://www.tierravital.es/",
    "rating_text": "4,0",
    "stars": null,
    "number_of_reviews": null,
    "price_level": "",
    "open_hours": "",
    "extraction_timestamp": "2025-06-08T03:18:11.629Z",
    "source_name": "google",
    "source_query": "Irrigation Equipment",
    "source_country": "ES",
    "country": "Spain",
    "state": "Araba",
    "city": "Kuartango"
  },
  {
    "source_id": "ChIJpZddBvm6Tw0R6w_mQ3yIhMw",
    "name": "Comercio Urquijo",
    "category": "Comercio Urquijo",
    "formatted_address": "4,6(45)",
    "phone_number": "+34945437196",
    "source_url": "https://www.google.com/maps/place/Comercio+Urquijo/data=!4m7!3m6!1s0xd4fbaf9065d97a5:0xcc84887c43e60feb!8m2!3d42.9505255!4d-2.9003468!16s%2Fg%2F1tj7gcfy!19sChIJpZddBvm6Tw0R6w_mQ3yIhMw?authuser=0&hl=tr&rclk=1",
    "website_url": "",
    "rating_text": "4,6",
    "stars": null,
    "number_of_reviews": null,
    "price_level": "",
    "open_hours": "",
    "extraction_timestamp": "2025-06-08T03:18:11.631Z",
    "source_name": "google",
    "source_query": "Irrigation Equipment",
    "source_country": "ES",
    "country": "Spain",
    "state": "Araba",
    "city": "Kuartango"
  },
  {
    "source_id": "ChIJWxzn9RzDTw0RyGKYXtsqBsU",
    "name": "sistemas riegos online",
    "category": "sistemas riegos online",
    "formatted_address": "Tarım Kooperatifi · San Ignacio de Loyola Kalea, 6Kalıcı olarak kapalı",
    "phone_number": "",
    "source_url": "https://www.google.com/maps/place/sistemas+riegos+online/data=!4m7!3m6!1s0xd4fc31cf5e71c5b:0xc5062adb5e9862c8!8m2!3d42.8536063!4d-2.6720276!16s%2Fg%2F11q4bv8wyf!19sChIJWxzn9RzDTw0RyGKYXtsqBsU?authuser=0&hl=tr&rclk=1",
    "website_url": "",
    "rating_text": "",
    "stars": null,
    "number_of_reviews": null,
    "price_level": "",
    "open_hours": "",
    "extraction_timestamp": "2025-06-08T03:18:11.633Z",
    "source_name": "google",
    "source_query": "Irrigation Equipment",
    "source_country": "ES",
    "country": "Spain",
    "state": "Araba",
    "city": "Kuartango"
  }
]
