[
  {
    "source_id": "ChIJqbAMZbz5Tw0RRyvUjXX54AI",
    "name": "Menndi materiales s.l.",
    "category": "Menndi materiales s.l.",
    "formatted_address": "4,7(27)",
    "phone_number": "+34945600853",
    "source_url": "https://www.google.com/maps/place/Menndi+materiales+s.l./data=!4m7!3m6!1s0xd4ff9bc650cb0a9:0x2e0f9758dd42b47!8m2!3d42.5603103!4d-2.5901939!16s%2Fg%2F11j0cxf428!19sChIJqbAMZbz5Tw0RRyvUjXX54AI?authuser=0&hl=tr&rclk=1",
    "website_url": "",
    "rating_text": "4,7",
    "stars": null,
    "number_of_reviews": null,
    "price_level": "",
    "open_hours": "",
    "extraction_timestamp": "2025-06-08T03:20:50.583Z",
    "source_name": "google",
    "source_query": "Irrigation Equipment",
    "source_country": "ES",
    "country": "Spain",
    "state": "Araba",
    "city": "Laguardia"
  },
  {
    "source_id": "ChIJg6FH26CrWg0RBN41SZWLASQ",
    "name": "Luruma Equipos y Maquinaria, S.L.",
    "category": "Luruma Equipos y Maquinaria, S.L.",
    "formatted_address": "Luruma Equipos y Maquinaria, S.L.",
    "phone_number": "+34941033861",
    "source_url": "https://www.google.com/maps/place/Luruma+Equipos+y+Maquinaria,+S.L./data=!4m7!3m6!1s0xd5aaba0db47a183:0x24018b954935de04!8m2!3d42.470868!4d-2.4181924!16s%2Fg%2F11c1wynlyr!19sChIJg6FH26CrWg0RBN41SZWLASQ?authuser=0&hl=tr&rclk=1",
    "website_url": "",
    "rating_text": "5,0",
    "stars": null,
    "number_of_reviews": null,
    "price_level": "",
    "open_hours": "",
    "extraction_timestamp": "2025-06-08T03:20:50.585Z",
    "source_name": "google",
    "source_query": "Irrigation Equipment",
    "source_country": "ES",
    "country": "Spain",
    "state": "Araba",
    "city": "Laguardia"
  },
  {
    "source_id": "ChIJ_zPSlGL3Tw0R0dl6yvsy440",
    "name": "Bodegas Lozano Rioja",
    "category": "Bodegas Lozano Rioja",
    "formatted_address": "4,9(207)",
    "phone_number": "+34647982470",
    "source_url": "https://www.google.com/maps/place/Bodegas+Lozano+Rioja/data=!4m7!3m6!1s0xd4ff76294d233ff:0x8de332fbca7ad9d1!8m2!3d42.5739126!4d-2.6277973!16s%2Fg%2F11f61q8nlf!19sChIJ_zPSlGL3Tw0R0dl6yvsy440?authuser=0&hl=tr&rclk=1",
    "website_url": "",
    "rating_text": "4,9",
    "stars": null,
    "number_of_reviews": null,
    "price_level": "",
    "open_hours": "",
    "extraction_timestamp": "2025-06-08T03:20:50.587Z",
    "source_name": "google",
    "source_query": "Irrigation Equipment",
    "source_country": "ES",
    "country": "Spain",
    "state": "Araba",
    "city": "Laguardia"
  },
  {
    "source_id": "ChIJhbtIQaX5Tw0RIIjNG5L7JYg",
    "name": "Alimentación Casa Llorente",
    "category": "Alimentación Casa Llorente",
    "formatted_address": "4,8(13)",
    "phone_number": "+34945600167",
    "source_url": "https://www.google.com/maps/place/Alimentaci%C3%B3n+Casa+Llorente/data=!4m7!3m6!1s0xd4ff9a54148bb85:0x8825fb921bcd8820!8m2!3d42.5541796!4d-2.584822!16s%2Fg%2F11mw5955rh!19sChIJhbtIQaX5Tw0RIIjNG5L7JYg?authuser=0&hl=tr&rclk=1",
    "website_url": "",
    "rating_text": "4,8",
    "stars": null,
    "number_of_reviews": null,
    "price_level": "",
    "open_hours": "",
    "extraction_timestamp": "2025-06-08T03:20:50.589Z",
    "source_name": "google",
    "source_query": "Irrigation Equipment",
    "source_country": "ES",
    "country": "Spain",
    "state": "Araba",
    "city": "Laguardia"
  },
  {
    "source_id": "ChIJOzy7IpKrWg0RlgYIEKaiB1o",
    "name": "Suministros Roymo",
    "category": "Suministros Roymo",
    "formatted_address": "4,4(193)",
    "phone_number": "+34941270655",
    "source_url": "https://www.google.com/maps/place/Suministros+Roymo/data=!4m7!3m6!1s0xd5aab9222bb3c3b:0x5a07a2a610080696!8m2!3d42.457405!4d-2.392505!16s%2Fg%2F1vq9nlz7!19sChIJOzy7IpKrWg0RlgYIEKaiB1o?authuser=0&hl=tr&rclk=1",
    "website_url": "",
    "rating_text": "4,4",
    "stars": null,
    "number_of_reviews": null,
    "price_level": "",
    "open_hours": "",
    "extraction_timestamp": "2025-06-08T03:20:50.591Z",
    "source_name": "google",
    "source_query": "Irrigation Equipment",
    "source_country": "ES",
    "country": "Spain",
    "state": "Araba",
    "city": "Laguardia"
  },
  {
    "source_id": "ChIJY9auG1f4Tw0RC4wzqGDvbPA",
    "name": "Comunidad de Regantes de la Rioja Alavesa y Sonsierra Riojan",
    "category": "Comunidad de Regantes de la Rioja Alavesa y Sonsierra Riojan",
    "formatted_address": "",
    "phone_number": "+34945600540",
    "source_url": "https://www.google.com/maps/place/Comunidad+de+Regantes+de+la+Rioja+Alavesa+y+Sonsierra+Riojan/data=!4m7!3m6!1s0xd4ff8571baed663:0xf06cef60a8338c0b!8m2!3d42.5529858!4d-2.5816835!16s%2Fg%2F1tn02k4l!19sChIJY9auG1f4Tw0RC4wzqGDvbPA?authuser=0&hl=tr&rclk=1",
    "website_url": "",
    "rating_text": "",
    "stars": null,
    "number_of_reviews": null,
    "price_level": "",
    "open_hours": "",
    "extraction_timestamp": "2025-06-08T03:20:50.592Z",
    "source_name": "google",
    "source_query": "Irrigation Equipment",
    "source_country": "ES",
    "country": "Spain",
    "state": "Araba",
    "city": "Laguardia"
  },
  {
    "source_id": "ChIJH1YCCY_2Tw0Rigpxtw8ImW0",
    "name": "Bodegas Baigorri",
    "category": "Bodegas Baigorri",
    "formatted_address": "4,6(384)",
    "phone_number": "+34945609420",
    "source_url": "https://www.google.com/maps/place/Bodegas+Baigorri/data=!4m7!3m6!1s0xd4ff68f0902561f:0x6d99080fb7710a8a!8m2!3d42.566226!4d-2.686522!16s%2Fg%2F11bbwn4xjy!19sChIJH1YCCY_2Tw0Rigpxtw8ImW0?authuser=0&hl=tr&rclk=1",
    "website_url": "",
    "rating_text": "4,6",
    "stars": null,
    "number_of_reviews": null,
    "price_level": "",
    "open_hours": "",
    "extraction_timestamp": "2025-06-08T03:20:50.595Z",
    "source_name": "google",
    "source_query": "Irrigation Equipment",
    "source_country": "ES",
    "country": "Spain",
    "state": "Araba",
    "city": "Laguardia"
  },
  {
    "source_id": "ChIJ14ueuflXRQ0R-RwTuiXaJFY",
    "name": "Bodegas Valdelana",
    "category": "Bodegas Valdelana",
    "formatted_address": "4,7(703)",
    "phone_number": "+34945606055",
    "source_url": "https://www.google.com/maps/place/Bodegas+Valdelana/data=!4m10!3m9!1s0xd4557f9b99e8bd7:0x5624da25ba131cf9!5m2!4m1!1i2!8m2!3d42.5138911!4d-2.6157098!16s%2Fg%2F1tfb7wcy!19sChIJ14ueuflXRQ0R-RwTuiXaJFY?authuser=0&hl=tr&rclk=1",
    "website_url": "",
    "rating_text": "4,7",
    "stars": null,
    "number_of_reviews": null,
    "price_level": "",
    "open_hours": "",
    "extraction_timestamp": "2025-06-08T03:20:50.610Z",
    "source_name": "google",
    "source_query": "Irrigation Equipment",
    "source_country": "ES",
    "country": "Spain",
    "state": "Araba",
    "city": "Laguardia"
  },
  {
    "source_id": "ChIJjV5ToPKrWg0R8I6VAFK960k",
    "name": "IXOS Tausa",
    "category": "IXOS Tausa",
    "formatted_address": "4,8(26)",
    "phone_number": "+34941235800",
    "source_url": "https://www.google.com/maps/place/IXOS+Tausa/data=!4m7!3m6!1s0xd5aabf2a0535e8d:0x49ebbd5200958ef0!8m2!3d42.4569667!4d-2.3999935!16s%2Fg%2F11xbn0j_9!19sChIJjV5ToPKrWg0R8I6VAFK960k?authuser=0&hl=tr&rclk=1",
    "website_url": "",
    "rating_text": "4,8",
    "stars": null,
    "number_of_reviews": null,
    "price_level": "",
    "open_hours": "",
    "extraction_timestamp": "2025-06-08T03:20:50.612Z",
    "source_name": "google",
    "source_query": "Irrigation Equipment",
    "source_country": "ES",
    "country": "Spain",
    "state": "Araba",
    "city": "Laguardia"
  },
  {
    "source_id": "ChIJu1pfSUWrWg0RLc2VVxyTDT0",
    "name": "SALVADOR ESCODA",
    "category": "SALVADOR ESCODA",
    "formatted_address": "4,8(10)",
    "phone_number": "+34941586908",
    "source_url": "https://www.google.com/maps/place/SALVADOR+ESCODA/data=!4m7!3m6!1s0xd5aab45495f5abb:0x3d0d931c5795cd2d!8m2!3d42.4537292!4d-2.4087727!16s%2Fg%2F11j320j16_!19sChIJu1pfSUWrWg0RLc2VVxyTDT0?authuser=0&hl=tr&rclk=1",
    "website_url": "",
    "rating_text": "4,8",
    "stars": null,
    "number_of_reviews": null,
    "price_level": "",
    "open_hours": "",
    "extraction_timestamp": "2025-06-08T03:20:50.613Z",
    "source_name": "google",
    "source_query": "Irrigation Equipment",
    "source_country": "ES",
    "country": "Spain",
    "state": "Araba",
    "city": "Laguardia"
  },
  {
    "source_id": "ChIJ4Xc9CPlXRQ0Rm0iram8DTl4",
    "name": "Agroturismo Valdelana",
    "category": "Agroturismo Valdelana",
    "formatted_address": "4,6(333)",
    "phone_number": "+34945606055",
    "source_url": "https://www.google.com/maps/place/Agroturismo+Valdelana/data=!4m10!3m9!1s0xd4557f9083d77e1:0x5e4e036f6aab489b!5m2!4m1!1i2!8m2!3d42.513949!4d-2.6156904!16s%2Fg%2F11cs6lbytk!19sChIJ4Xc9CPlXRQ0Rm0iram8DTl4?authuser=0&hl=tr&rclk=1",
    "website_url": "",
    "rating_text": "4,6",
    "stars": null,
    "number_of_reviews": null,
    "price_level": "",
    "open_hours": "",
    "extraction_timestamp": "2025-06-08T03:20:50.614Z",
    "source_name": "google",
    "source_query": "Irrigation Equipment",
    "source_country": "ES",
    "country": "Spain",
    "state": "Araba",
    "city": "Laguardia"
  },
  {
    "source_id": "ChIJDdmtu6-rWg0R3PGaGYBtkeQ",
    "name": "Vinca Jardineria y Viveros",
    "category": "Vinca Jardineria y Viveros",
    "formatted_address": "4,5(11)",
    "phone_number": "+34941265158",
    "source_url": "https://www.google.com/maps/place/Vinca+Jardineria+y+Viveros/data=!4m7!3m6!1s0xd5aabafbbadd90d:0xe4916d80199af1dc!8m2!3d42.4779858!4d-2.408482!16s%2Fg%2F1wf235qv!19sChIJDdmtu6-rWg0R3PGaGYBtkeQ?authuser=0&hl=tr&rclk=1",
    "website_url": "",
    "rating_text": "4,5",
    "stars": null,
    "number_of_reviews": null,
    "price_level": "",
    "open_hours": "",
    "extraction_timestamp": "2025-06-08T03:20:50.615Z",
    "source_name": "google",
    "source_query": "Irrigation Equipment",
    "source_country": "ES",
    "country": "Spain",
    "state": "Araba",
    "city": "Laguardia"
  },
  {
    "source_id": "ChIJ8f8DEEz6Tw0RGuAy_zzELLU",
    "name": "Laciturri S L",
    "category": "Laciturri S L",
    "formatted_address": "2,3(3)",
    "phone_number": "+34945214079",
    "source_url": "https://www.google.com/maps/place/Laciturri+S+L/data=!4m7!3m6!1s0xd4ffa4c1003fff1:0xb52cc43cff32e01a!8m2!3d42.6254106!4d-2.5835669!16s%2Fg%2F1q5bmv5b6!19sChIJ8f8DEEz6Tw0RGuAy_zzELLU?authuser=0&hl=tr&rclk=1",
    "website_url": "",
    "rating_text": "2,3",
    "stars": null,
    "number_of_reviews": null,
    "price_level": "",
    "open_hours": "",
    "extraction_timestamp": "2025-06-08T03:20:50.616Z",
    "source_name": "google",
    "source_query": "Irrigation Equipment",
    "source_country": "ES",
    "country": "Spain",
    "state": "Araba",
    "city": "Laguardia"
  }
]
