[
  {
    "source_id": "ChIJNQGCJmHCTw0R8aNDhF16xWE",
    "name": "Eziolaza Amalur S.L.",
    "category": "Eziolaza Amalur S.L.",
    "formatted_address": "4,5(166)",
    "phone_number": "+34945257255",
    "source_url": "https://www.google.com/maps/place/Eziolaza+Amalur+S.L./data=!4m7!3m6!1s0xd4fc26126820135:0x61c57a5d8443a3f1!8m2!3d42.84965!4d-2.66277!16s%2Fg%2F1td2j6j9!19sChIJNQGCJmHCTw0R8aNDhF16xWE?authuser=0&hl=tr&rclk=1",
    "website_url": "http://www.eziolaza.com/",
    "rating_text": "4,5",
    "stars": null,
    "number_of_reviews": null,
    "price_level": "",
    "open_hours": "",
    "extraction_timestamp": "2025-06-08T03:14:06.261Z",
    "source_name": "google",
    "source_query": "Irrigation Equipment",
    "source_country": "ES",
    "country": "Spain",
    "state": "Araba",
    "city": "Lantarón"
  },
  {
    "source_id": "ChIJ98j1fTXBTw0RRsu_NlJLAjM",
    "name": "Hiartek, S.L.",
    "category": "Hiartek, S.L.",
    "formatted_address": "Hiartek, S.L.",
    "phone_number": "+34945036449",
    "source_url": "https://www.google.com/maps/place/Hiartek,+S.L./data=!4m7!3m6!1s0xd4fc1357df5c8f7:0x33024b5236bfcb46!8m2!3d42.8440557!4d-2.7397871!16s%2Fg%2F11mvvdf207!19sChIJ98j1fTXBTw0RRsu_NlJLAjM?authuser=0&hl=tr&rclk=1",
    "website_url": "http://www.hiartek.com/",
    "rating_text": "5,0",
    "stars": null,
    "number_of_reviews": null,
    "price_level": "",
    "open_hours": "",
    "extraction_timestamp": "2025-06-08T03:14:06.262Z",
    "source_name": "google",
    "source_query": "Irrigation Equipment",
    "source_country": "ES",
    "country": "Spain",
    "state": "Araba",
    "city": "Lantarón"
  },
  {
    "source_id": "ChIJxcBMBePCTw0R4rJIHI5SYX0",
    "name": "Nuvi Araba",
    "category": "Nuvi Araba",
    "formatted_address": "4,8(5)",
    "phone_number": "+34945263581",
    "source_url": "https://www.google.com/maps/place/Nuvi+Araba/data=!4m7!3m6!1s0xd4fc2e3054cc0c5:0x7d61528e1c48b2e2!8m2!3d42.8693918!4d-2.6468918!16s%2Fg%2F11byhlb3c3!19sChIJxcBMBePCTw0R4rJIHI5SYX0?authuser=0&hl=tr&rclk=1",
    "website_url": "http://www.nuviaraba.com/",
    "rating_text": "4,8",
    "stars": null,
    "number_of_reviews": null,
    "price_level": "",
    "open_hours": "",
    "extraction_timestamp": "2025-06-08T03:14:06.262Z",
    "source_name": "google",
    "source_query": "Irrigation Equipment",
    "source_country": "ES",
    "country": "Spain",
    "state": "Araba",
    "city": "Lantarón"
  },
  {
    "source_id": "ChIJO-nRKTnCTw0RZ59zgsifAgI",
    "name": "Bombas Itur",
    "category": "Bombas Itur",
    "formatted_address": "5,0(4)",
    "phone_number": "+34945121670",
    "source_url": "https://www.google.com/maps/place/Bombas+Itur/data=!4m7!3m6!1s0xd4fc23929d1e93b:0x2029fc882739f67!8m2!3d42.83818!4d-2.6544785!16s%2Fg%2F1tdld0p3!19sChIJO-nRKTnCTw0RZ59zgsifAgI?authuser=0&hl=tr&rclk=1",
    "website_url": "http://www.motoresybombasvitoria.com/",
    "rating_text": "5,0",
    "stars": null,
    "number_of_reviews": null,
    "price_level": "",
    "open_hours": "",
    "extraction_timestamp": "2025-06-08T03:14:06.262Z",
    "source_name": "google",
    "source_query": "Irrigation Equipment",
    "source_country": "ES",
    "country": "Spain",
    "state": "Araba",
    "city": "Lantarón"
  },
  {
    "source_id": "ChIJAXg-kXbqTw0RDWzUVXTTcOM",
    "name": "Vitoriana de Riegos S L",
    "category": "Vitoriana de Riegos S L",
    "formatted_address": "4,0(2)",
    "phone_number": "+34945132595",
    "source_url": "https://www.google.com/maps/place/Vitoriana+de+Riegos+S+L/data=!4m7!3m6!1s0xd4fea76913e7801:0xe370d37455d46c0d!8m2!3d42.828207!4d-2.724081!16s%2Fg%2F11cncbxrg4!19sChIJAXg-kXbqTw0RDWzUVXTTcOM?authuser=0&hl=tr&rclk=1",
    "website_url": "",
    "rating_text": "4,0",
    "stars": null,
    "number_of_reviews": null,
    "price_level": "",
    "open_hours": "",
    "extraction_timestamp": "2025-06-08T03:14:06.263Z",
    "source_name": "google",
    "source_query": "Irrigation Equipment",
    "source_country": "ES",
    "country": "Spain",
    "state": "Araba",
    "city": "Lantarón"
  },
  {
    "source_id": "ChIJd2VKFr_DTw0Ri6s6nn6hekI",
    "name": "Servicios Forestales Araba",
    "category": "Servicios Forestales Araba",
    "formatted_address": "2,0(1)",
    "phone_number": "+34607118061",
    "source_url": "https://www.google.com/maps/place/Servicios+Forestales+Araba/data=!4m7!3m6!1s0xd4fc3bf164a6577:0x427aa17e9e3aab8b!8m2!3d42.8347152!4d-2.6574514!16s%2Fg%2F11h1_0rn6m!19sChIJd2VKFr_DTw0Ri6s6nn6hekI?authuser=0&hl=tr&rclk=1",
    "website_url": "",
    "rating_text": "2,0",
    "stars": null,
    "number_of_reviews": null,
    "price_level": "",
    "open_hours": "",
    "extraction_timestamp": "2025-06-08T03:14:06.263Z",
    "source_name": "google",
    "source_query": "Irrigation Equipment",
    "source_country": "ES",
    "country": "Spain",
    "state": "Araba",
    "city": "Lantarón"
  },
  {
    "source_id": "ChIJ0wYlbKLrTw0RMRN22dWCiVA",
    "name": "Bet Energía",
    "category": "Bet Energía",
    "formatted_address": "3,0(4)",
    "phone_number": "+34945001150",
    "source_url": "https://www.google.com/maps/place/Bet+Energ%C3%ADa/data=!4m7!3m6!1s0xd4feba26c2506d3:0x508982d5d9761331!8m2!3d42.8294797!4d-2.7475662!16s%2Fg%2F11k650l6pz!19sChIJ0wYlbKLrTw0RMRN22dWCiVA?authuser=0&hl=tr&rclk=1",
    "website_url": "",
    "rating_text": "3,0",
    "stars": null,
    "number_of_reviews": null,
    "price_level": "",
    "open_hours": "",
    "extraction_timestamp": "2025-06-08T03:14:06.264Z",
    "source_name": "google",
    "source_query": "Irrigation Equipment",
    "source_country": "ES",
    "country": "Spain",
    "state": "Araba",
    "city": "Lantarón"
  },
  {
    "source_id": "ChIJc0KMf58nZQ0RYReUtxod8mw",
    "name": "Caudal",
    "category": "Caudal",
    "formatted_address": "4,2(46)",
    "phone_number": "+34968400827",
    "source_url": "https://www.google.com/maps/place/Caudal/data=!4m7!3m6!1s0xd65279f7f8c4273:0x6cf21d1ab7941761!8m2!3d37.4939371!4d-1.8511882!16s%2Fg%2F11bxc7t2kq!19sChIJc0KMf58nZQ0RYReUtxod8mw?authuser=0&hl=tr&rclk=1",
    "website_url": "http://www.caudal.es/",
    "rating_text": "4,2",
    "stars": null,
    "number_of_reviews": null,
    "price_level": "",
    "open_hours": "",
    "extraction_timestamp": "2025-06-08T03:14:06.264Z",
    "source_name": "google",
    "source_query": "Irrigation Equipment",
    "source_country": "ES",
    "country": "Spain",
    "state": "Araba",
    "city": "Lantarón"
  },
  {
    "source_id": "ChIJUyUMal_CTw0Rl9tuRIQgYLw",
    "name": "Servicios Forestales Araba",
    "category": "Servicios Forestales Araba",
    "formatted_address": "Bahçe ürünleri satış merkezi · Madrid Kalea, 46+34 607 11 80 61",
    "phone_number": "+34607118061",
    "source_url": "https://www.google.com/maps/place/Servicios+Forestales+Araba/data=!4m7!3m6!1s0xd4fc25f6a0c2553:0xbc602084446edb97!8m2!3d42.856113!4d-2.6596319!16s%2Fg%2F11xg6y92q!19sChIJUyUMal_CTw0Rl9tuRIQgYLw?authuser=0&hl=tr&rclk=1",
    "website_url": "",
    "rating_text": "",
    "stars": null,
    "number_of_reviews": null,
    "price_level": "",
    "open_hours": "",
    "extraction_timestamp": "2025-06-08T03:14:06.264Z",
    "source_name": "google",
    "source_query": "Irrigation Equipment",
    "source_country": "ES",
    "country": "Spain",
    "state": "Araba",
    "city": "Lantarón"
  }
]
