[
  {
    "source_id": "ChIJGxAuJjbFTw0RN18xmfh-mAA",
    "name": "Tubos de Legutiano Automoción",
    "category": "Tubos de Legutiano Automoción",
    "formatted_address": "4,7(27)",
    "phone_number": "+34945194381",
    "source_url": "https://www.google.com/maps/place/Tubos+de+Legutiano+Automoci%C3%B3n/data=!4m7!3m6!1s0xd4fc536262e101b:0x987ef899315f37!8m2!3d42.9607644!4d-2.6200817!16s%2Fg%2F11g0khbd2l!19sChIJGxAuJjbFTw0RN18xmfh-mAA?authuser=0&hl=tr&rclk=1",
    "website_url": "",
    "rating_text": "4,7",
    "stars": null,
    "number_of_reviews": null,
    "price_level": "",
    "open_hours": "",
    "extraction_timestamp": "2025-06-08T03:17:06.440Z",
    "source_name": "google",
    "source_query": "Irrigation Equipment",
    "source_country": "ES",
    "country": "Spain",
    "state": "Araba",
    "city": "Legutio"
  },
  {
    "source_id": "ChIJIwN-XeXETw0R2mzd9FrF7Rw",
    "name": "SIDERALAVA S.L",
    "category": "SIDERALAVA S.L",
    "formatted_address": "4,0(1)",
    "phone_number": "+34945465681",
    "source_url": "https://www.google.com/maps/place/SIDERALAVA+S.L/data=!4m7!3m6!1s0xd4fc4e55d7e0323:0x1cedc55af4dd6cda!8m2!3d42.9414768!4d-2.6475648!16s%2Fg%2F11hcz50mkx!19sChIJIwN-XeXETw0R2mzd9FrF7Rw?authuser=0&hl=tr&rclk=1",
    "website_url": "",
    "rating_text": "4,0",
    "stars": null,
    "number_of_reviews": null,
    "price_level": "",
    "open_hours": "",
    "extraction_timestamp": "2025-06-08T03:17:06.442Z",
    "source_name": "google",
    "source_query": "Irrigation Equipment",
    "source_country": "ES",
    "country": "Spain",
    "state": "Araba",
    "city": "Legutio"
  },
  {
    "source_id": "ChIJd3yumWjFTw0Rj9EChCbZge4",
    "name": "Supermercados Coviran(tambien iker sangrana)",
    "category": "Supermercados Coviran(tambien iker sangrana)",
    "formatted_address": "3,9(18)",
    "phone_number": "+34617652957",
    "source_url": "https://www.google.com/maps/place/Supermercados+Coviran%28tambien+iker+sangrana%29/data=!4m7!3m6!1s0xd4fc56899ae7c77:0xee81d9268402d18f!8m2!3d42.9788867!4d-2.6423265!16s%2Fg%2F11ddww308w!19sChIJd3yumWjFTw0Rj9EChCbZge4?authuser=0&hl=tr&rclk=1",
    "website_url": "",
    "rating_text": "3,9",
    "stars": null,
    "number_of_reviews": null,
    "price_level": "",
    "open_hours": "",
    "extraction_timestamp": "2025-06-08T03:17:06.443Z",
    "source_name": "google",
    "source_query": "Irrigation Equipment",
    "source_country": "ES",
    "country": "Spain",
    "state": "Araba",
    "city": "Legutio"
  },
  {
    "source_id": "ChIJNQGCJmHCTw0R8aNDhF16xWE",
    "name": "Eziolaza Amalur S.L.",
    "category": "Eziolaza Amalur S.L.",
    "formatted_address": "4,5(166)",
    "phone_number": "+34945257255",
    "source_url": "https://www.google.com/maps/place/Eziolaza+Amalur+S.L./data=!4m7!3m6!1s0xd4fc26126820135:0x61c57a5d8443a3f1!8m2!3d42.84965!4d-2.66277!16s%2Fg%2F1td2j6j9!19sChIJNQGCJmHCTw0R8aNDhF16xWE?authuser=0&hl=tr&rclk=1",
    "website_url": "",
    "rating_text": "4,5",
    "stars": null,
    "number_of_reviews": null,
    "price_level": "",
    "open_hours": "",
    "extraction_timestamp": "2025-06-08T03:17:06.444Z",
    "source_name": "google",
    "source_query": "Irrigation Equipment",
    "source_country": "ES",
    "country": "Spain",
    "state": "Araba",
    "city": "Legutio"
  },
  {
    "source_id": "ChIJR1eyceXETw0RqUZpmqgJVnM",
    "name": "SIDELAN",
    "category": "SIDELAN",
    "formatted_address": "4,0(2)",
    "phone_number": "+34945466252",
    "source_url": "https://www.google.com/maps/place/SIDELAN/data=!4m7!3m6!1s0xd4fc4e571b25747:0x735609a89a6946a9!8m2!3d42.9401321!4d-2.647403!16s%2Fg%2F11bw5m9682!19sChIJR1eyceXETw0RqUZpmqgJVnM?authuser=0&hl=tr&rclk=1",
    "website_url": "",
    "rating_text": "4,0",
    "stars": null,
    "number_of_reviews": null,
    "price_level": "",
    "open_hours": "",
    "extraction_timestamp": "2025-06-08T03:17:06.446Z",
    "source_name": "google",
    "source_query": "Irrigation Equipment",
    "source_country": "ES",
    "country": "Spain",
    "state": "Araba",
    "city": "Legutio"
  },
  {
    "source_id": "ChIJEVnMayfFTw0RgrFn-PIBVJM",
    "name": "Alimentación Aitor",
    "category": "Alimentación Aitor",
    "formatted_address": "5,0(2)",
    "phone_number": "+34945386771",
    "source_url": "https://www.google.com/maps/place/Alimentaci%C3%B3n+Aitor/data=!4m7!3m6!1s0xd4fc5276bcc5911:0x935401f2f867b182!8m2!3d42.9789313!4d-2.6423523!16s%2Fg%2F11lm9ys20d!19sChIJEVnMayfFTw0RgrFn-PIBVJM?authuser=0&hl=tr&rclk=1",
    "website_url": "",
    "rating_text": "5,0",
    "stars": null,
    "number_of_reviews": null,
    "price_level": "",
    "open_hours": "",
    "extraction_timestamp": "2025-06-08T03:17:06.447Z",
    "source_name": "google",
    "source_query": "Irrigation Equipment",
    "source_country": "ES",
    "country": "Spain",
    "state": "Araba",
    "city": "Legutio"
  },
  {
    "source_id": "ChIJbYjym63DTw0RZ_ikNB_HuFY",
    "name": "Proyectos Diurvi",
    "category": "Proyectos Diurvi",
    "formatted_address": "5,0(2)",
    "phone_number": "+34673058430",
    "source_url": "https://www.google.com/maps/place/Proyectos+Diurvi/data=!4m7!3m6!1s0xd4fc3ad9bf2886d:0x56b8c71f34a4f867!8m2!3d42.8472276!4d-2.6864894!16s%2Fg%2F11x0r714y8!19sChIJbYjym63DTw0RZ_ikNB_HuFY?authuser=0&hl=tr&rclk=1",
    "website_url": "",
    "rating_text": "5,0",
    "stars": null,
    "number_of_reviews": null,
    "price_level": "",
    "open_hours": "",
    "extraction_timestamp": "2025-06-08T03:17:06.449Z",
    "source_name": "google",
    "source_query": "Irrigation Equipment",
    "source_country": "ES",
    "country": "Spain",
    "state": "Araba",
    "city": "Legutio"
  },
  {
    "source_id": "ChIJ98j1fTXBTw0RRsu_NlJLAjM",
    "name": "Hiartek, S.L.",
    "category": "Hiartek, S.L.",
    "formatted_address": "Hiartek, S.L.",
    "phone_number": "+34945036449",
    "source_url": "https://www.google.com/maps/place/Hiartek,+S.L./data=!4m7!3m6!1s0xd4fc1357df5c8f7:0x33024b5236bfcb46!8m2!3d42.8440557!4d-2.7397871!16s%2Fg%2F11mvvdf207!19sChIJ98j1fTXBTw0RRsu_NlJLAjM?authuser=0&hl=tr&rclk=1",
    "website_url": "",
    "rating_text": "5,0",
    "stars": null,
    "number_of_reviews": null,
    "price_level": "",
    "open_hours": "",
    "extraction_timestamp": "2025-06-08T03:17:06.450Z",
    "source_name": "google",
    "source_query": "Irrigation Equipment",
    "source_country": "ES",
    "country": "Spain",
    "state": "Araba",
    "city": "Legutio"
  },
  {
    "source_id": "ChIJj4GZxGjFTw0RH5cyDTzikdY",
    "name": "López de Ocariz farmazia",
    "category": "López de Ocariz farmazia",
    "formatted_address": "5,0(10)",
    "phone_number": "+34945455189",
    "source_url": "https://www.google.com/maps/place/L%C3%B3pez+de+Ocariz+farmazia/data=!4m7!3m6!1s0xd4fc568c499818f:0xd691e23c0d32971f!8m2!3d42.9789617!4d-2.6427354!16s%2Fg%2F12hqnx3q1!19sChIJj4GZxGjFTw0RH5cyDTzikdY?authuser=0&hl=tr&rclk=1",
    "website_url": "",
    "rating_text": "5,0",
    "stars": null,
    "number_of_reviews": null,
    "price_level": "",
    "open_hours": "",
    "extraction_timestamp": "2025-06-08T03:17:06.451Z",
    "source_name": "google",
    "source_query": "Irrigation Equipment",
    "source_country": "ES",
    "country": "Spain",
    "state": "Araba",
    "city": "Legutio"
  },
  {
    "source_id": "ChIJxcBMBePCTw0R4rJIHI5SYX0",
    "name": "Nuvi Araba",
    "category": "Nuvi Araba",
    "formatted_address": "4,8(5)",
    "phone_number": "+34945263581",
    "source_url": "https://www.google.com/maps/place/Nuvi+Araba/data=!4m7!3m6!1s0xd4fc2e3054cc0c5:0x7d61528e1c48b2e2!8m2!3d42.8693918!4d-2.6468918!16s%2Fg%2F11byhlb3c3!19sChIJxcBMBePCTw0R4rJIHI5SYX0?authuser=0&hl=tr&rclk=1",
    "website_url": "",
    "rating_text": "4,8",
    "stars": null,
    "number_of_reviews": null,
    "price_level": "",
    "open_hours": "",
    "extraction_timestamp": "2025-06-08T03:17:06.452Z",
    "source_name": "google",
    "source_query": "Irrigation Equipment",
    "source_country": "ES",
    "country": "Spain",
    "state": "Araba",
    "city": "Legutio"
  },
  {
    "source_id": "ChIJGSmXo2jFTw0Rld2aUn3xoxk",
    "name": "Botika",
    "category": "Botika",
    "formatted_address": "5,0(1)",
    "phone_number": "",
    "source_url": "https://www.google.com/maps/place/Botika/data=!4m7!3m6!1s0xd4fc568a3972919:0x19a3f17d529add95!8m2!3d42.9789531!4d-2.6427531!16s%2Fg%2F11bzz1ywj3!19sChIJGSmXo2jFTw0Rld2aUn3xoxk?authuser=0&hl=tr&rclk=1",
    "website_url": "",
    "rating_text": "5,0",
    "stars": null,
    "number_of_reviews": null,
    "price_level": "",
    "open_hours": "",
    "extraction_timestamp": "2025-06-08T03:17:06.453Z",
    "source_name": "google",
    "source_query": "Irrigation Equipment",
    "source_country": "ES",
    "country": "Spain",
    "state": "Araba",
    "city": "Legutio"
  },
  {
    "source_id": "ChIJjaRT1vbBTw0RoMCsc8Gnav0",
    "name": "LOIZAGA S.A",
    "category": "LOIZAGA S.A",
    "formatted_address": "4,5(2)",
    "phone_number": "+34945260366",
    "source_url": "https://www.google.com/maps/place/LOIZAGA+S.A/data=!4m7!3m6!1s0xd4fc1f6d653a48d:0xfd6aa7c173acc0a0!8m2!3d42.8432993!4d-2.7467667!16s%2Fg%2F1hc4byc3k!19sChIJjaRT1vbBTw0RoMCsc8Gnav0?authuser=0&hl=tr&rclk=1",
    "website_url": "",
    "rating_text": "4,5",
    "stars": null,
    "number_of_reviews": null,
    "price_level": "",
    "open_hours": "",
    "extraction_timestamp": "2025-06-08T03:17:06.455Z",
    "source_name": "google",
    "source_query": "Irrigation Equipment",
    "source_country": "ES",
    "country": "Spain",
    "state": "Araba",
    "city": "Legutio"
  },
  {
    "source_id": "ChIJAXg-kXbqTw0RDWzUVXTTcOM",
    "name": "Vitoriana de Riegos S L",
    "category": "Vitoriana de Riegos S L",
    "formatted_address": "4,0(2)",
    "phone_number": "+34945132595",
    "source_url": "https://www.google.com/maps/place/Vitoriana+de+Riegos+S+L/data=!4m7!3m6!1s0xd4fea76913e7801:0xe370d37455d46c0d!8m2!3d42.828207!4d-2.724081!16s%2Fg%2F11cncbxrg4!19sChIJAXg-kXbqTw0RDWzUVXTTcOM?authuser=0&hl=tr&rclk=1",
    "website_url": "",
    "rating_text": "4,0",
    "stars": null,
    "number_of_reviews": null,
    "price_level": "",
    "open_hours": "",
    "extraction_timestamp": "2025-06-08T03:17:06.456Z",
    "source_name": "google",
    "source_query": "Irrigation Equipment",
    "source_country": "ES",
    "country": "Spain",
    "state": "Araba",
    "city": "Legutio"
  },
  {
    "source_id": "ChIJwzZKL5fBTw0ReZV4SwzsS80",
    "name": "Teilsa - Nidec Industrial Automation",
    "category": "Teilsa - Nidec Industrial Automation",
    "formatted_address": "4,1(8)",
    "phone_number": "+34945223346",
    "source_url": "https://www.google.com/maps/place/Teilsa+-+Nidec+Industrial+Automation/data=!4m7!3m6!1s0xd4fc1972f4a36c3:0xcd4bec0c4b789579!8m2!3d42.8701238!4d-2.6604563!16s%2Fg%2F11d_20l2vk!19sChIJwzZKL5fBTw0ReZV4SwzsS80?authuser=0&hl=tr&rclk=1",
    "website_url": "",
    "rating_text": "4,1",
    "stars": null,
    "number_of_reviews": null,
    "price_level": "",
    "open_hours": "",
    "extraction_timestamp": "2025-06-08T03:17:06.456Z",
    "source_name": "google",
    "source_query": "Irrigation Equipment",
    "source_country": "ES",
    "country": "Spain",
    "state": "Araba",
    "city": "Legutio"
  },
  {
    "source_id": "ChIJkQG109nFTw0RJ331i4y04lc",
    "name": "La Vitoriana",
    "category": "La Vitoriana",
    "formatted_address": "3,0(8) · ₺",
    "phone_number": "+34945362849",
    "source_url": "https://www.google.com/maps/place/La+Vitoriana/data=!4m7!3m6!1s0xd4fc5d9d3b50191:0x57e2b48c8bf57d27!8m2!3d42.9781213!4d-2.6422817!16s%2Fg%2F11vz0z_czs!19sChIJkQG109nFTw0RJ331i4y04lc?authuser=0&hl=tr&rclk=1",
    "website_url": "",
    "rating_text": "3,0",
    "stars": null,
    "number_of_reviews": null,
    "price_level": "",
    "open_hours": "",
    "extraction_timestamp": "2025-06-08T03:17:06.457Z",
    "source_name": "google",
    "source_query": "Irrigation Equipment",
    "source_country": "ES",
    "country": "Spain",
    "state": "Araba",
    "city": "Legutio"
  }
]
