[
  {
    "source_id": "ChIJbYjym63DTw0RZ_ikNB_HuFY",
    "name": "Proyectos Diurvi",
    "category": "Proyectos Diurvi",
    "formatted_address": "5,0(2)",
    "phone_number": "+34673058430",
    "source_url": "https://www.google.com/maps/place/Proyectos+Diurvi/data=!4m7!3m6!1s0xd4fc3ad9bf2886d:0x56b8c71f34a4f867!8m2!3d42.8472276!4d-2.6864894!16s%2Fg%2F11x0r714y8!19sChIJbYjym63DTw0RZ_ikNB_HuFY?authuser=0&hl=tr&rclk=1",
    "website_url": "https://www.proyectosdiurvi.com/",
    "rating_text": "5,0",
    "stars": null,
    "number_of_reviews": null,
    "price_level": "",
    "open_hours": "",
    "extraction_timestamp": "2025-06-08T03:20:59.177Z",
    "source_name": "google",
    "source_query": "Irrigation Equipment",
    "source_country": "ES",
    "country": "Spain",
    "state": "Araba",
    "city": "Navaridas"
  },
  {
    "source_id": "ChIJxcBMBePCTw0R4rJIHI5SYX0",
    "name": "Nuvi Araba",
    "category": "Nuvi Araba",
    "formatted_address": "4,8(5)",
    "phone_number": "+34945263581",
    "source_url": "https://www.google.com/maps/place/Nuvi+Araba/data=!4m7!3m6!1s0xd4fc2e3054cc0c5:0x7d61528e1c48b2e2!8m2!3d42.8693918!4d-2.6468918!16s%2Fg%2F11byhlb3c3!19sChIJxcBMBePCTw0R4rJIHI5SYX0?authuser=0&hl=tr&rclk=1",
    "website_url": "http://www.nuviaraba.com/",
    "rating_text": "4,8",
    "stars": null,
    "number_of_reviews": null,
    "price_level": "",
    "open_hours": "",
    "extraction_timestamp": "2025-06-08T03:20:59.178Z",
    "source_name": "google",
    "source_query": "Irrigation Equipment",
    "source_country": "ES",
    "country": "Spain",
    "state": "Araba",
    "city": "Navaridas"
  },
  {
    "source_id": "ChIJ98j1fTXBTw0RRsu_NlJLAjM",
    "name": "Hiartek, S.L.",
    "category": "Hiartek, S.L.",
    "formatted_address": "Hiartek, S.L.",
    "phone_number": "+34945036449",
    "source_url": "https://www.google.com/maps/place/Hiartek,+S.L./data=!4m7!3m6!1s0xd4fc1357df5c8f7:0x33024b5236bfcb46!8m2!3d42.8440557!4d-2.7397871!16s%2Fg%2F11mvvdf207!19sChIJ98j1fTXBTw0RRsu_NlJLAjM?authuser=0&hl=tr&rclk=1",
    "website_url": "http://www.hiartek.com/",
    "rating_text": "5,0",
    "stars": null,
    "number_of_reviews": null,
    "price_level": "",
    "open_hours": "",
    "extraction_timestamp": "2025-06-08T03:20:59.178Z",
    "source_name": "google",
    "source_query": "Irrigation Equipment",
    "source_country": "ES",
    "country": "Spain",
    "state": "Araba",
    "city": "Navaridas"
  },
  {
    "source_id": "ChIJAXg-kXbqTw0RDWzUVXTTcOM",
    "name": "Vitoriana de Riegos S L",
    "category": "Vitoriana de Riegos S L",
    "formatted_address": "4,0(2)",
    "phone_number": "+34945132595",
    "source_url": "https://www.google.com/maps/place/Vitoriana+de+Riegos+S+L/data=!4m7!3m6!1s0xd4fea76913e7801:0xe370d37455d46c0d!8m2!3d42.828207!4d-2.724081!16s%2Fg%2F11cncbxrg4!19sChIJAXg-kXbqTw0RDWzUVXTTcOM?authuser=0&hl=tr&rclk=1",
    "website_url": "",
    "rating_text": "4,0",
    "stars": null,
    "number_of_reviews": null,
    "price_level": "",
    "open_hours": "",
    "extraction_timestamp": "2025-06-08T03:20:59.178Z",
    "source_name": "google",
    "source_query": "Irrigation Equipment",
    "source_country": "ES",
    "country": "Spain",
    "state": "Araba",
    "city": "Navaridas"
  }
]
