[
  {
    "source_id": "ChIJKW6W4ZlUTg0RJd-Qtfyhet4",
    "name": "Super Okondo",
    "category": "Super Okondo",
    "formatted_address": "4,6(36)",
    "phone_number": "+34945898248",
    "source_url": "https://www.google.com/maps/place/Super+Okondo/data=!4m7!3m6!1s0xd4e5499e1966e29:0xde7aa1fcb590df25!8m2!3d43.1575549!4d-3.0259738!16s%2Fg%2F1q5bpc9p6!19sChIJKW6W4ZlUTg0RJd-Qtfyhet4?authuser=0&hl=tr&rclk=1",
    "website_url": "",
    "rating_text": "4,6",
    "stars": null,
    "number_of_reviews": null,
    "price_level": "",
    "open_hours": "",
    "extraction_timestamp": "2025-06-08T03:21:16.870Z",
    "source_name": "google",
    "source_query": "Irrigation Equipment",
    "source_country": "ES",
    "country": "Spain",
    "state": "Araba",
    "city": "Okondo"
  },
  {
    "source_id": "ChIJNQGCJmHCTw0R8aNDhF16xWE",
    "name": "Eziolaza Amalur S.L.",
    "category": "Eziolaza Amalur S.L.",
    "formatted_address": "4,5(166)",
    "phone_number": "+34945257255",
    "source_url": "https://www.google.com/maps/place/Eziolaza+Amalur+S.L./data=!4m7!3m6!1s0xd4fc26126820135:0x61c57a5d8443a3f1!8m2!3d42.84965!4d-2.66277!16s%2Fg%2F1td2j6j9!19sChIJNQGCJmHCTw0R8aNDhF16xWE?authuser=0&hl=tr&rclk=1",
    "website_url": "http://www.eziolaza.com/",
    "rating_text": "4,5",
    "stars": null,
    "number_of_reviews": null,
    "price_level": "",
    "open_hours": "",
    "extraction_timestamp": "2025-06-08T03:21:16.871Z",
    "source_name": "google",
    "source_query": "Irrigation Equipment",
    "source_country": "ES",
    "country": "Spain",
    "state": "Araba",
    "city": "Okondo"
  },
  {
    "source_id": "ChIJ4cnE_kPCTw0RE9JHBdS8_Rw",
    "name": "Izquierdo tailerra",
    "category": "Izquierdo tailerra",
    "formatted_address": "4,1(98)",
    "phone_number": "+34945260239",
    "source_url": "https://www.google.com/maps/place/Izquierdo+tailerra/data=!4m7!3m6!1s0xd4fc243fec4c9e1:0x1cfdbcd40547d213!8m2!3d42.8567947!4d-2.6730737!16s%2Fg%2F1tdr4msl!19sChIJ4cnE_kPCTw0RE9JHBdS8_Rw?authuser=0&hl=tr&rclk=1",
    "website_url": "http://www.garajeizquierdo.com/",
    "rating_text": "4,1",
    "stars": null,
    "number_of_reviews": null,
    "price_level": "",
    "open_hours": "",
    "extraction_timestamp": "2025-06-08T03:21:16.873Z",
    "source_name": "google",
    "source_query": "Irrigation Equipment",
    "source_country": "ES",
    "country": "Spain",
    "state": "Araba",
    "city": "Okondo"
  },
  {
    "source_id": "ChIJ98j1fTXBTw0RRsu_NlJLAjM",
    "name": "Hiartek, S.L.",
    "category": "Hiartek, S.L.",
    "formatted_address": "Hiartek, S.L.",
    "phone_number": "+34945036449",
    "source_url": "https://www.google.com/maps/place/Hiartek,+S.L./data=!4m7!3m6!1s0xd4fc1357df5c8f7:0x33024b5236bfcb46!8m2!3d42.8440557!4d-2.7397871!16s%2Fg%2F11mvvdf207!19sChIJ98j1fTXBTw0RRsu_NlJLAjM?authuser=0&hl=tr&rclk=1",
    "website_url": "http://www.hiartek.com/",
    "rating_text": "5,0",
    "stars": null,
    "number_of_reviews": null,
    "price_level": "",
    "open_hours": "",
    "extraction_timestamp": "2025-06-08T03:21:16.874Z",
    "source_name": "google",
    "source_query": "Irrigation Equipment",
    "source_country": "ES",
    "country": "Spain",
    "state": "Araba",
    "city": "Okondo"
  },
  {
    "source_id": "ChIJxcBMBePCTw0R4rJIHI5SYX0",
    "name": "Nuvi Araba",
    "category": "Nuvi Araba",
    "formatted_address": "4,8(5)",
    "phone_number": "+34945263581",
    "source_url": "https://www.google.com/maps/place/Nuvi+Araba/data=!4m7!3m6!1s0xd4fc2e3054cc0c5:0x7d61528e1c48b2e2!8m2!3d42.8693918!4d-2.6468918!16s%2Fg%2F11byhlb3c3!19sChIJxcBMBePCTw0R4rJIHI5SYX0?authuser=0&hl=tr&rclk=1",
    "website_url": "http://www.nuviaraba.com/",
    "rating_text": "4,8",
    "stars": null,
    "number_of_reviews": null,
    "price_level": "",
    "open_hours": "",
    "extraction_timestamp": "2025-06-08T03:21:16.875Z",
    "source_name": "google",
    "source_query": "Irrigation Equipment",
    "source_country": "ES",
    "country": "Spain",
    "state": "Araba",
    "city": "Okondo"
  },
  {
    "source_id": "ChIJAXg-kXbqTw0RDWzUVXTTcOM",
    "name": "Vitoriana de Riegos S L",
    "category": "Vitoriana de Riegos S L",
    "formatted_address": "4,0(2)",
    "phone_number": "+34945132595",
    "source_url": "https://www.google.com/maps/place/Vitoriana+de+Riegos+S+L/data=!4m7!3m6!1s0xd4fea76913e7801:0xe370d37455d46c0d!8m2!3d42.828207!4d-2.724081!16s%2Fg%2F11cncbxrg4!19sChIJAXg-kXbqTw0RDWzUVXTTcOM?authuser=0&hl=tr&rclk=1",
    "website_url": "",
    "rating_text": "4,0",
    "stars": null,
    "number_of_reviews": null,
    "price_level": "",
    "open_hours": "",
    "extraction_timestamp": "2025-06-08T03:21:16.876Z",
    "source_name": "google",
    "source_query": "Irrigation Equipment",
    "source_country": "ES",
    "country": "Spain",
    "state": "Araba",
    "city": "Okondo"
  },
  {
    "source_id": "ChIJbYjym63DTw0RZ_ikNB_HuFY",
    "name": "Proyectos Diurvi",
    "category": "Proyectos Diurvi",
    "formatted_address": "5,0(2)",
    "phone_number": "+34673058430",
    "source_url": "https://www.google.com/maps/place/Proyectos+Diurvi/data=!4m7!3m6!1s0xd4fc3ad9bf2886d:0x56b8c71f34a4f867!8m2!3d42.8472276!4d-2.6864894!16s%2Fg%2F11x0r714y8!19sChIJbYjym63DTw0RZ_ikNB_HuFY?authuser=0&hl=tr&rclk=1",
    "website_url": "https://www.proyectosdiurvi.com/",
    "rating_text": "5,0",
    "stars": null,
    "number_of_reviews": null,
    "price_level": "",
    "open_hours": "",
    "extraction_timestamp": "2025-06-08T03:21:16.877Z",
    "source_name": "google",
    "source_query": "Irrigation Equipment",
    "source_country": "ES",
    "country": "Spain",
    "state": "Araba",
    "city": "Okondo"
  },
  {
    "source_id": "ChIJcR1lsynATw0RWWz9Knx84V4",
    "name": "Sistemas OMO Vitoria SL",
    "category": "Sistemas OMO Vitoria SL",
    "formatted_address": "5,0(1)",
    "phone_number": "+34945046992",
    "source_url": "https://www.google.com/maps/place/Sistemas+OMO+Vitoria+SL/data=!4m7!3m6!1s0xd4fc029b3651d71:0x5ee17c7c2afd6c59!8m2!3d42.832529!4d-2.74552!16s%2Fg%2F11bxc7fhl7!19sChIJcR1lsynATw0RWWz9Knx84V4?authuser=0&hl=tr&rclk=1",
    "website_url": "",
    "rating_text": "5,0",
    "stars": null,
    "number_of_reviews": null,
    "price_level": "",
    "open_hours": "",
    "extraction_timestamp": "2025-06-08T03:21:16.879Z",
    "source_name": "google",
    "source_query": "Irrigation Equipment",
    "source_country": "ES",
    "country": "Spain",
    "state": "Araba",
    "city": "Okondo"
  },
  {
    "source_id": "ChIJb3yCCphUTg0RwofKRQnVczo",
    "name": "Okondoko botika",
    "category": "Okondoko botika",
    "formatted_address": "4,9(15)",
    "phone_number": "+34945898131",
    "source_url": "https://www.google.com/maps/place/Okondoko+botika/data=!4m7!3m6!1s0xd4e54980a827c6f:0x3a73d50945ca87c2!8m2!3d43.1544677!4d-3.0267455!16s%2Fg%2F11f4r76_c4!19sChIJb3yCCphUTg0RwofKRQnVczo?authuser=0&hl=tr&rclk=1",
    "website_url": "http://www.farmaciaokondo.com/",
    "rating_text": "4,9",
    "stars": null,
    "number_of_reviews": null,
    "price_level": "",
    "open_hours": "",
    "extraction_timestamp": "2025-06-08T03:21:16.880Z",
    "source_name": "google",
    "source_query": "Irrigation Equipment",
    "source_country": "ES",
    "country": "Spain",
    "state": "Araba",
    "city": "Okondo"
  },
  {
    "source_id": "ChIJwXQ1CEfCTw0Rf_xB75hVHmg",
    "name": "BOMBAS Y RIEGOS PANAMA",
    "category": "BOMBAS Y RIEGOS PANAMA",
    "formatted_address": "2,1(14)",
    "phone_number": "+34945253252",
    "source_url": "https://www.google.com/maps/place/BOMBAS+Y+RIEGOS+PANAMA/data=!4m7!3m6!1s0xd4fc247083574c1:0x681e5598ef41fc7f!8m2!3d42.8593215!4d-2.6767926!16s%2Fg%2F11bxgzqvlf!19sChIJwXQ1CEfCTw0Rf_xB75hVHmg?authuser=0&hl=tr&rclk=1",
    "website_url": "https://bombasyriegospanama.com/",
    "rating_text": "2,1",
    "stars": null,
    "number_of_reviews": null,
    "price_level": "",
    "open_hours": "",
    "extraction_timestamp": "2025-06-08T03:21:16.881Z",
    "source_name": "google",
    "source_query": "Irrigation Equipment",
    "source_country": "ES",
    "country": "Spain",
    "state": "Araba",
    "city": "Okondo"
  },
  {
    "source_id": "ChIJIcDVHb1UTg0R4K-AbtFGOAg",
    "name": "OKONDO OKINDEGIA",
    "category": "OKONDO OKINDEGIA",
    "formatted_address": "4,7(91) · ₺",
    "phone_number": "+34659877157",
    "source_url": "https://www.google.com/maps/place/OKONDO+OKINDEGIA/data=!4m7!3m6!1s0xd4e54bd1dd5c021:0x83846d16e80afe0!8m2!3d43.1518723!4d-3.029017!16s%2Fg%2F11b6xh5x45!19sChIJIcDVHb1UTg0R4K-AbtFGOAg?authuser=0&hl=tr&rclk=1",
    "website_url": "",
    "rating_text": "4,7",
    "stars": null,
    "number_of_reviews": null,
    "price_level": "",
    "open_hours": "",
    "extraction_timestamp": "2025-06-08T03:21:16.882Z",
    "source_name": "google",
    "source_query": "Irrigation Equipment",
    "source_country": "ES",
    "country": "Spain",
    "state": "Araba",
    "city": "Okondo"
  }
]
