[
  {
    "source_id": "ChIJg9Z6QNqrWg0Rqx-EgwmY93k",
    "name": "SIR suministros industriales riojanos",
    "category": "SIR suministros industriales riojanos",
    "formatted_address": "5,0(4)",
    "phone_number": "+34945601586",
    "source_url": "https://www.google.com/maps/place/SIR+suministros+industriales+riojanos/data=!4m7!3m6!1s0xd5aabda407ad683:0x79f7980983841fab!8m2!3d42.4904021!4d-2.4281728!16s%2Fg%2F11gy0hynkr!19sChIJg9Z6QNqrWg0Rqx-EgwmY93k?authuser=0&hl=tr&rclk=1",
    "website_url": "",
    "rating_text": "5,0",
    "stars": null,
    "number_of_reviews": null,
    "price_level": "",
    "open_hours": "",
    "extraction_timestamp": "2025-06-08T03:19:31.181Z",
    "source_name": "google",
    "source_query": "Irrigation Equipment",
    "source_country": "ES",
    "country": "Spain",
    "state": "Araba",
    "city": "Oyón-Oion"
  },
  {
    "source_id": "ChIJoXLNiqSpWg0R3sVLMZd1OxA",
    "name": "Espadas y Mas",
    "category": "Espadas y Mas",
    "formatted_address": "4,8(1.182)",
    "phone_number": "+34658885339",
    "source_url": "https://www.google.com/maps/place/Espadas+y+Mas/data=!4m7!3m6!1s0xd5aa9a48acd72a1:0x103b7597314bc5de!8m2!3d42.5004837!4d-2.4337375!16s%2Fg%2F11fn514l02!19sChIJoXLNiqSpWg0R3sVLMZd1OxA?authuser=0&hl=tr&rclk=1",
    "website_url": "",
    "rating_text": "4,8",
    "stars": null,
    "number_of_reviews": null,
    "price_level": "",
    "open_hours": "",
    "extraction_timestamp": "2025-06-08T03:19:31.183Z",
    "source_name": "google",
    "source_query": "Irrigation Equipment",
    "source_country": "ES",
    "country": "Spain",
    "state": "Araba",
    "city": "Oyón-Oion"
  },
  {
    "source_id": "ChIJRyKUwIKrWg0Rb3fso0kqpnA",
    "name": "Oyon Nature",
    "category": "Oyon Nature",
    "formatted_address": "4,2(5)",
    "phone_number": "+34945198297",
    "source_url": "https://www.google.com/maps/place/Oyon+Nature/data=!4m7!3m6!1s0xd5aab82c0942247:0x70a62a49a3ec776f!8m2!3d42.5017585!4d-2.4355835!16s%2Fg%2F11h1yggf30!19sChIJRyKUwIKrWg0Rb3fso0kqpnA?authuser=0&hl=tr&rclk=1",
    "website_url": "",
    "rating_text": "4,2",
    "stars": null,
    "number_of_reviews": null,
    "price_level": "",
    "open_hours": "",
    "extraction_timestamp": "2025-06-08T03:19:31.185Z",
    "source_name": "google",
    "source_query": "Irrigation Equipment",
    "source_country": "ES",
    "country": "Spain",
    "state": "Araba",
    "city": "Oyón-Oion"
  },
  {
    "source_id": "ChIJlYT--OuqWg0RkRYVftuzsm0",
    "name": "Almacen de Electrodomesticos Iruzubieta",
    "category": "Almacen de Electrodomesticos Iruzubieta",
    "formatted_address": "4,7(117)",
    "phone_number": "+34945601891",
    "source_url": "https://www.google.com/maps/place/Almacen+de+Electrodomesticos+Iruzubieta/data=!4m7!3m6!1s0xd5aaaebf8fe8495:0x6db2b3db7e151691!8m2!3d42.5010808!4d-2.4359084!16s%2Fg%2F1v6l8tst!19sChIJlYT--OuqWg0RkRYVftuzsm0?authuser=0&hl=tr&rclk=1",
    "website_url": "",
    "rating_text": "4,7",
    "stars": null,
    "number_of_reviews": null,
    "price_level": "",
    "open_hours": "",
    "extraction_timestamp": "2025-06-08T03:19:31.186Z",
    "source_name": "google",
    "source_query": "Irrigation Equipment",
    "source_country": "ES",
    "country": "Spain",
    "state": "Araba",
    "city": "Oyón-Oion"
  },
  {
    "source_id": "ChIJmbV81-6rWg0RyViuU83hiRc",
    "name": "Jardinorte",
    "category": "Jardinorte",
    "formatted_address": "Çim Bakım Hizmetleri · Paseoelprao, 23Kapalı ⋅ Açılış zamanı: Pzt 00:00 · +34 608 87 20 79",
    "phone_number": "+34608872079",
    "source_url": "https://www.google.com/maps/place/Jardinorte/data=!4m7!3m6!1s0xd5aabeed77cb599:0x1789e1cd53ae58c9!8m2!3d42.4956572!4d-2.4351481!16s%2Fg%2F11s7vqqwjb!19sChIJmbV81-6rWg0RyViuU83hiRc?authuser=0&hl=tr&rclk=1",
    "website_url": "",
    "rating_text": "",
    "stars": null,
    "number_of_reviews": null,
    "price_level": "",
    "open_hours": "",
    "extraction_timestamp": "2025-06-08T03:19:31.187Z",
    "source_name": "google",
    "source_query": "Irrigation Equipment",
    "source_country": "ES",
    "country": "Spain",
    "state": "Araba",
    "city": "Oyón-Oion"
  },
  {
    "source_id": "ChIJue7sfeuqWg0RfOz219s02IM",
    "name": "Guridi Kafetegia",
    "category": "Guridi Kafetegia",
    "formatted_address": "4,6(364) · €1–20",
    "phone_number": "+34945622195",
    "source_url": "https://www.google.com/maps/place/Guridi+Kafetegia/data=!4m7!3m6!1s0xd5aaaeb7deceeb9:0x83d834dbd7f6ec7c!8m2!3d42.5032944!4d-2.4355553!16s%2Fg%2F1td_zy9x!19sChIJue7sfeuqWg0RfOz219s02IM?authuser=0&hl=tr&rclk=1",
    "website_url": "",
    "rating_text": "4,6",
    "stars": null,
    "number_of_reviews": null,
    "price_level": "",
    "open_hours": "",
    "extraction_timestamp": "2025-06-08T03:19:31.188Z",
    "source_name": "google",
    "source_query": "Irrigation Equipment",
    "source_country": "ES",
    "country": "Spain",
    "state": "Araba",
    "city": "Oyón-Oion"
  },
  {
    "source_id": "ChIJN0LjQuuqWg0R4E09QWNh5FU",
    "name": "Carrefour Express",
    "category": "Carrefour Express",
    "formatted_address": "3,9(198)",
    "phone_number": "+34914908900",
    "source_url": "https://www.google.com/maps/place/Carrefour+Express/data=!4m7!3m6!1s0xd5aaaeb42e34237:0x55e46163413d4de0!8m2!3d42.5043717!4d-2.4366562!16s%2Fg%2F11bw64b6x3!19sChIJN0LjQuuqWg0R4E09QWNh5FU?authuser=0&hl=tr&rclk=1",
    "website_url": "",
    "rating_text": "3,9",
    "stars": null,
    "number_of_reviews": null,
    "price_level": "",
    "open_hours": "",
    "extraction_timestamp": "2025-06-08T03:19:31.190Z",
    "source_name": "google",
    "source_query": "Irrigation Equipment",
    "source_country": "ES",
    "country": "Spain",
    "state": "Araba",
    "city": "Oyón-Oion"
  },
  {
    "source_id": "ChIJ30coMwCrWg0RB9j9qnhJ1AY",
    "name": "Euro Bazar",
    "category": "Euro Bazar",
    "formatted_address": "Bakkal · Torre Giralda Enparantza, 2",
    "phone_number": "",
    "source_url": "https://www.google.com/maps/place/Euro+Bazar/data=!4m7!3m6!1s0xd5aab00332847df:0x6d44978aafdd807!8m2!3d42.5053521!4d-2.43715!16s%2Fg%2F11wts3sgj1!19sChIJ30coMwCrWg0RB9j9qnhJ1AY?authuser=0&hl=tr&rclk=1",
    "website_url": "",
    "rating_text": "",
    "stars": null,
    "number_of_reviews": null,
    "price_level": "",
    "open_hours": "",
    "extraction_timestamp": "2025-06-08T03:19:31.191Z",
    "source_name": "google",
    "source_query": "Irrigation Equipment",
    "source_country": "ES",
    "country": "Spain",
    "state": "Araba",
    "city": "Oyón-Oion"
  },
  {
    "source_id": "ChIJNQGCJmHCTw0R8aNDhF16xWE",
    "name": "Eziolaza Amalur S.L.",
    "category": "Eziolaza Amalur S.L.",
    "formatted_address": "4,5(166)",
    "phone_number": "+34945257255",
    "source_url": "https://www.google.com/maps/place/Eziolaza+Amalur+S.L./data=!4m7!3m6!1s0xd4fc26126820135:0x61c57a5d8443a3f1!8m2!3d42.84965!4d-2.66277!16s%2Fg%2F1td2j6j9!19sChIJNQGCJmHCTw0R8aNDhF16xWE?authuser=0&hl=tr&rclk=1",
    "website_url": "",
    "rating_text": "4,5",
    "stars": null,
    "number_of_reviews": null,
    "price_level": "",
    "open_hours": "",
    "extraction_timestamp": "2025-06-08T03:19:31.225Z",
    "source_name": "google",
    "source_query": "Irrigation Equipment",
    "source_country": "ES",
    "country": "Spain",
    "state": "Araba",
    "city": "Oyón-Oion"
  },
  {
    "source_id": "ChIJp0TwJe2qWg0R3Syq4rEZZq4",
    "name": "Pulido Alvarez José Manuel",
    "category": "Pulido Alvarez José Manuel",
    "formatted_address": "3,4(13)",
    "phone_number": "+34945601184",
    "source_url": "https://www.google.com/maps/place/Pulido+Alvarez+Jos%C3%A9+Manuel/data=!4m7!3m6!1s0xd5aaaed25f044a7:0xae6619b1e2aa2cdd!8m2!3d42.5048036!4d-2.4329851!16s%2Fg%2F1z44bll8p!19sChIJp0TwJe2qWg0R3Syq4rEZZq4?authuser=0&hl=tr&rclk=1",
    "website_url": "",
    "rating_text": "3,4",
    "stars": null,
    "number_of_reviews": null,
    "price_level": "",
    "open_hours": "",
    "extraction_timestamp": "2025-06-08T03:19:31.226Z",
    "source_name": "google",
    "source_query": "Irrigation Equipment",
    "source_country": "ES",
    "country": "Spain",
    "state": "Araba",
    "city": "Oyón-Oion"
  },
  {
    "source_id": "ChIJ8Vcb5-OqWg0RBVNtqq6F0cI",
    "name": "Panadería Repostería la Oka",
    "category": "Panadería Repostería la Oka",
    "formatted_address": "4,8(73) · ₺",
    "phone_number": "+34945601846",
    "source_url": "https://www.google.com/maps/place/Panader%C3%ADa+Reposter%C3%ADa+la+Oka/data=!4m7!3m6!1s0xd5aaae3e71b57f1:0xc2d185aeaa6d5305!8m2!3d42.5009878!4d-2.4359044!16s%2Fg%2F12qfvy5g2!19sChIJ8Vcb5-OqWg0RBVNtqq6F0cI?authuser=0&hl=tr&rclk=1",
    "website_url": "",
    "rating_text": "4,8",
    "stars": null,
    "number_of_reviews": null,
    "price_level": "",
    "open_hours": "",
    "extraction_timestamp": "2025-06-08T03:19:31.227Z",
    "source_name": "google",
    "source_query": "Irrigation Equipment",
    "source_country": "ES",
    "country": "Spain",
    "state": "Araba",
    "city": "Oyón-Oion"
  },
  {
    "source_id": "ChIJ17yeFeqrWg0R3DkoC--2vSU",
    "name": "RIOJA MOTOR",
    "category": "RIOJA MOTOR",
    "formatted_address": "4,6(383)",
    "phone_number": "+34941255222",
    "source_url": "https://www.google.com/maps/place/RIOJA+MOTOR/data=!4m7!3m6!1s0xd5aabea159ebcd7:0x25bdb6ef0b2839dc!8m2!3d42.4874866!4d-2.4275135!16s%2Fg%2F11ffvw0fq_!19sChIJ17yeFeqrWg0R3DkoC--2vSU?authuser=0&hl=tr&rclk=1",
    "website_url": "",
    "rating_text": "4,6",
    "stars": null,
    "number_of_reviews": null,
    "price_level": "",
    "open_hours": "",
    "extraction_timestamp": "2025-06-08T03:19:31.228Z",
    "source_name": "google",
    "source_query": "Irrigation Equipment",
    "source_country": "ES",
    "country": "Spain",
    "state": "Araba",
    "city": "Oyón-Oion"
  },
  {
    "source_id": "ChIJp5fYXqGrWg0RJKqJGq5mePM",
    "name": "Ferretería Casado Rioja",
    "category": "Ferretería Casado Rioja",
    "formatted_address": "4,6(86)",
    "phone_number": "+34941258543",
    "source_url": "https://www.google.com/maps/place/Ferreter%C3%ADa+Casado+Rioja/data=!4m7!3m6!1s0xd5aaba15ed897a7:0xf37866ae1a89aa24!8m2!3d42.470748!4d-2.416006!16s%2Fg%2F11cfh6xv1!19sChIJp5fYXqGrWg0RJKqJGq5mePM?authuser=0&hl=tr&rclk=1",
    "website_url": "",
    "rating_text": "4,6",
    "stars": null,
    "number_of_reviews": null,
    "price_level": "",
    "open_hours": "",
    "extraction_timestamp": "2025-06-08T03:19:31.229Z",
    "source_name": "google",
    "source_query": "Irrigation Equipment",
    "source_country": "ES",
    "country": "Spain",
    "state": "Araba",
    "city": "Oyón-Oion"
  },
  {
    "source_id": "ChIJJWZZzgqrWg0R_DblZsxAmn8",
    "name": "Talleres Lamrija S.C",
    "category": "Talleres Lamrija S.C",
    "formatted_address": "Oto Tamirhanesi ·  · Kalea Joar, 20Kapalı ⋅ Açılış saati: 09:00 · +34 660 79 57 10",
    "phone_number": "+34660795710",
    "source_url": "https://www.google.com/maps/place/Talleres+Lamrija+S.C/data=!4m7!3m6!1s0xd5aab0ace596625:0x7f9a40cc66e536fc!8m2!3d42.4897646!4d-2.4276219!16s%2Fg%2F11y204hkw9!19sChIJJWZZzgqrWg0R_DblZsxAmn8?authuser=0&hl=tr&rclk=1",
    "website_url": "",
    "rating_text": "",
    "stars": null,
    "number_of_reviews": null,
    "price_level": "",
    "open_hours": "",
    "extraction_timestamp": "2025-06-08T03:19:31.230Z",
    "source_name": "google",
    "source_query": "Irrigation Equipment",
    "source_country": "ES",
    "country": "Spain",
    "state": "Araba",
    "city": "Oyón-Oion"
  },
  {
    "source_id": "ChIJOY41JeWqWg0RuTj_ynEW97c",
    "name": "5mm Servicio de Papelería",
    "category": "5mm Servicio de Papelería",
    "formatted_address": "Bilgisayar mağazası · Polígono El Prado, Parcela D-10Kapalı ⋅ Açılış zamanı: Pzt 08:30 · +34 945 10 93 01",
    "phone_number": "+34945109301",
    "source_url": "https://www.google.com/maps/place/5mm+Servicio+de+Papeler%C3%ADa/data=!4m7!3m6!1s0xd5aaae525358e39:0xb7f71671caff38b9!8m2!3d42.4934356!4d-2.4315806!16s%2Fg%2F11xb2gdj6!19sChIJOY41JeWqWg0RuTj_ynEW97c?authuser=0&hl=tr&rclk=1",
    "website_url": "",
    "rating_text": "",
    "stars": null,
    "number_of_reviews": null,
    "price_level": "",
    "open_hours": "",
    "extraction_timestamp": "2025-06-08T03:19:31.231Z",
    "source_name": "google",
    "source_query": "Irrigation Equipment",
    "source_country": "ES",
    "country": "Spain",
    "state": "Araba",
    "city": "Oyón-Oion"
  }
]
