[
  {
    "source_id": "ChIJH1YCCY_2Tw0Rigpxtw8ImW0",
    "name": "Bodegas Baigorri",
    "category": "Bodegas Baigorri",
    "formatted_address": "4,6(384)",
    "phone_number": "+34945609420",
    "source_url": "https://www.google.com/maps/place/Bodegas+Baigorri/data=!4m7!3m6!1s0xd4ff68f0902561f:0x6d99080fb7710a8a!8m2!3d42.566226!4d-2.686522!16s%2Fg%2F11bbwn4xjy!19sChIJH1YCCY_2Tw0Rigpxtw8ImW0?authuser=0&hl=tr&rclk=1",
    "website_url": "https://bodegasbaigorri.com/",
    "rating_text": "4,6",
    "stars": null,
    "number_of_reviews": null,
    "price_level": "",
    "open_hours": "",
    "extraction_timestamp": "2025-06-08T03:16:49.604Z",
    "source_name": "google",
    "source_query": "Irrigation Equipment",
    "source_country": "ES",
    "country": "Spain",
    "state": "Araba",
    "city": "Samaniego"
  },
  {
    "source_id": "ChIJKy_m1VH2Tw0Ri936WXfLEWk",
    "name": "Alimentación Ramírez",
    "category": "Alimentación Ramírez",
    "formatted_address": "4,9(10)",
    "phone_number": "+34945609062",
    "source_url": "https://www.google.com/maps/place/Alimentaci%C3%B3n+Ram%C3%ADrez/data=!4m7!3m6!1s0xd4ff651d5e62f2b:0x6911cb7759fadd8b!8m2!3d42.5495259!4d-2.6658172!16s%2Fg%2F11dz567s08!19sChIJKy_m1VH2Tw0Ri936WXfLEWk?authuser=0&hl=tr&rclk=1",
    "website_url": "",
    "rating_text": "4,9",
    "stars": null,
    "number_of_reviews": null,
    "price_level": "",
    "open_hours": "",
    "extraction_timestamp": "2025-06-08T03:16:49.604Z",
    "source_name": "google",
    "source_query": "Irrigation Equipment",
    "source_country": "ES",
    "country": "Spain",
    "state": "Araba",
    "city": "Samaniego"
  },
  {
    "source_id": "ChIJlSrg11H2Tw0R-eI4jTXTpYk",
    "name": "Supermercado Loli",
    "category": "Supermercado Loli",
    "formatted_address": "4,7(27)",
    "phone_number": "+34656838117",
    "source_url": "https://www.google.com/maps/place/Supermercado+Loli/data=!4m7!3m6!1s0xd4ff651d7e02a95:0x89a5d3358d38e2f9!8m2!3d42.5494675!4d-2.6655374!16s%2Fg%2F11cn6d42fg!19sChIJlSrg11H2Tw0R-eI4jTXTpYk?authuser=0&hl=tr&rclk=1",
    "website_url": "",
    "rating_text": "4,7",
    "stars": null,
    "number_of_reviews": null,
    "price_level": "",
    "open_hours": "",
    "extraction_timestamp": "2025-06-08T03:16:49.604Z",
    "source_name": "google",
    "source_query": "Irrigation Equipment",
    "source_country": "ES",
    "country": "Spain",
    "state": "Araba",
    "city": "Samaniego"
  },
  {
    "source_id": "ChIJAXg-kXbqTw0RDWzUVXTTcOM",
    "name": "Vitoriana de Riegos S L",
    "category": "Vitoriana de Riegos S L",
    "formatted_address": "4,0(2)",
    "phone_number": "+34945132595",
    "source_url": "https://www.google.com/maps/place/Vitoriana+de+Riegos+S+L/data=!4m7!3m6!1s0xd4fea76913e7801:0xe370d37455d46c0d!8m2!3d42.828207!4d-2.724081!16s%2Fg%2F11cncbxrg4!19sChIJAXg-kXbqTw0RDWzUVXTTcOM?authuser=0&hl=tr&rclk=1",
    "website_url": "",
    "rating_text": "4,0",
    "stars": null,
    "number_of_reviews": null,
    "price_level": "",
    "open_hours": "",
    "extraction_timestamp": "2025-06-08T03:16:49.605Z",
    "source_name": "google",
    "source_query": "Irrigation Equipment",
    "source_country": "ES",
    "country": "Spain",
    "state": "Araba",
    "city": "Samaniego"
  },
  {
    "source_id": "ChIJbYjym63DTw0RZ_ikNB_HuFY",
    "name": "Proyectos Diurvi",
    "category": "Proyectos Diurvi",
    "formatted_address": "5,0(2)",
    "phone_number": "+34673058430",
    "source_url": "https://www.google.com/maps/place/Proyectos+Diurvi/data=!4m7!3m6!1s0xd4fc3ad9bf2886d:0x56b8c71f34a4f867!8m2!3d42.8472276!4d-2.6864894!16s%2Fg%2F11x0r714y8!19sChIJbYjym63DTw0RZ_ikNB_HuFY?authuser=0&hl=tr&rclk=1",
    "website_url": "https://www.proyectosdiurvi.com/",
    "rating_text": "5,0",
    "stars": null,
    "number_of_reviews": null,
    "price_level": "",
    "open_hours": "",
    "extraction_timestamp": "2025-06-08T03:16:49.605Z",
    "source_name": "google",
    "source_query": "Irrigation Equipment",
    "source_country": "ES",
    "country": "Spain",
    "state": "Araba",
    "city": "Samaniego"
  },
  {
    "source_id": "ChIJxcBMBePCTw0R4rJIHI5SYX0",
    "name": "Nuvi Araba",
    "category": "Nuvi Araba",
    "formatted_address": "4,8(5)",
    "phone_number": "+34945263581",
    "source_url": "https://www.google.com/maps/place/Nuvi+Araba/data=!4m7!3m6!1s0xd4fc2e3054cc0c5:0x7d61528e1c48b2e2!8m2!3d42.8693918!4d-2.6468918!16s%2Fg%2F11byhlb3c3!19sChIJxcBMBePCTw0R4rJIHI5SYX0?authuser=0&hl=tr&rclk=1",
    "website_url": "http://www.nuviaraba.com/",
    "rating_text": "4,8",
    "stars": null,
    "number_of_reviews": null,
    "price_level": "",
    "open_hours": "",
    "extraction_timestamp": "2025-06-08T03:16:49.605Z",
    "source_name": "google",
    "source_query": "Irrigation Equipment",
    "source_country": "ES",
    "country": "Spain",
    "state": "Araba",
    "city": "Samaniego"
  }
]
