[
  {
    "source_id": "ChIJpZddBvm6Tw0R6w_mQ3yIhMw",
    "name": "Comercio Urquijo",
    "category": "Comercio Urquijo",
    "formatted_address": "4,6(45)",
    "phone_number": "+34945437196",
    "source_url": "https://www.google.com/maps/place/Comercio+Urquijo/data=!4m7!3m6!1s0xd4fbaf9065d97a5:0xcc84887c43e60feb!8m2!3d42.9505255!4d-2.9003468!16s%2Fg%2F1tj7gcfy!19sChIJpZddBvm6Tw0R6w_mQ3yIhMw?authuser=0&hl=tr&rclk=1",
    "website_url": "",
    "rating_text": "4,6",
    "stars": null,
    "number_of_reviews": null,
    "price_level": "",
    "open_hours": "",
    "extraction_timestamp": "2025-06-08T03:16:57.970Z",
    "source_name": "google",
    "source_query": "Irrigation Equipment",
    "source_country": "ES",
    "country": "Spain",
    "state": "Araba",
    "city": "Urkabustaiz"
  },
  {
    "source_id": "ChIJNQGCJmHCTw0R8aNDhF16xWE",
    "name": "Eziolaza Amalur S.L.",
    "category": "Eziolaza Amalur S.L.",
    "formatted_address": "4,5(166)",
    "phone_number": "+34945257255",
    "source_url": "https://www.google.com/maps/place/Eziolaza+Amalur+S.L./data=!4m7!3m6!1s0xd4fc26126820135:0x61c57a5d8443a3f1!8m2!3d42.84965!4d-2.66277!16s%2Fg%2F1td2j6j9!19sChIJNQGCJmHCTw0R8aNDhF16xWE?authuser=0&hl=tr&rclk=1",
    "website_url": "http://www.eziolaza.com/",
    "rating_text": "4,5",
    "stars": null,
    "number_of_reviews": null,
    "price_level": "",
    "open_hours": "",
    "extraction_timestamp": "2025-06-08T03:16:57.972Z",
    "source_name": "google",
    "source_query": "Irrigation Equipment",
    "source_country": "ES",
    "country": "Spain",
    "state": "Araba",
    "city": "Urkabustaiz"
  },
  {
    "source_id": "ChIJ98j1fTXBTw0RRsu_NlJLAjM",
    "name": "Hiartek, S.L.",
    "category": "Hiartek, S.L.",
    "formatted_address": "Hiartek, S.L.",
    "phone_number": "+34945036449",
    "source_url": "https://www.google.com/maps/place/Hiartek,+S.L./data=!4m7!3m6!1s0xd4fc1357df5c8f7:0x33024b5236bfcb46!8m2!3d42.8440557!4d-2.7397871!16s%2Fg%2F11mvvdf207!19sChIJ98j1fTXBTw0RRsu_NlJLAjM?authuser=0&hl=tr&rclk=1",
    "website_url": "http://www.hiartek.com/",
    "rating_text": "5,0",
    "stars": null,
    "number_of_reviews": null,
    "price_level": "",
    "open_hours": "",
    "extraction_timestamp": "2025-06-08T03:16:57.974Z",
    "source_name": "google",
    "source_query": "Irrigation Equipment",
    "source_country": "ES",
    "country": "Spain",
    "state": "Araba",
    "city": "Urkabustaiz"
  },
  {
    "source_id": "ChIJbYjym63DTw0RZ_ikNB_HuFY",
    "name": "Proyectos Diurvi",
    "category": "Proyectos Diurvi",
    "formatted_address": "5,0(2)",
    "phone_number": "+34673058430",
    "source_url": "https://www.google.com/maps/place/Proyectos+Diurvi/data=!4m7!3m6!1s0xd4fc3ad9bf2886d:0x56b8c71f34a4f867!8m2!3d42.8472276!4d-2.6864894!16s%2Fg%2F11x0r714y8!19sChIJbYjym63DTw0RZ_ikNB_HuFY?authuser=0&hl=tr&rclk=1",
    "website_url": "https://www.proyectosdiurvi.com/",
    "rating_text": "5,0",
    "stars": null,
    "number_of_reviews": null,
    "price_level": "",
    "open_hours": "",
    "extraction_timestamp": "2025-06-08T03:16:57.975Z",
    "source_name": "google",
    "source_query": "Irrigation Equipment",
    "source_country": "ES",
    "country": "Spain",
    "state": "Araba",
    "city": "Urkabustaiz"
  },
  {
    "source_id": "ChIJxcBMBePCTw0R4rJIHI5SYX0",
    "name": "Nuvi Araba",
    "category": "Nuvi Araba",
    "formatted_address": "4,8(5)",
    "phone_number": "+34945263581",
    "source_url": "https://www.google.com/maps/place/Nuvi+Araba/data=!4m7!3m6!1s0xd4fc2e3054cc0c5:0x7d61528e1c48b2e2!8m2!3d42.8693918!4d-2.6468918!16s%2Fg%2F11byhlb3c3!19sChIJxcBMBePCTw0R4rJIHI5SYX0?authuser=0&hl=tr&rclk=1",
    "website_url": "http://www.nuviaraba.com/",
    "rating_text": "4,8",
    "stars": null,
    "number_of_reviews": null,
    "price_level": "",
    "open_hours": "",
    "extraction_timestamp": "2025-06-08T03:16:57.977Z",
    "source_name": "google",
    "source_query": "Irrigation Equipment",
    "source_country": "ES",
    "country": "Spain",
    "state": "Araba",
    "city": "Urkabustaiz"
  },
  {
    "source_id": "ChIJO-nRKTnCTw0RZ59zgsifAgI",
    "name": "Bombas Itur",
    "category": "Bombas Itur",
    "formatted_address": "5,0(4)",
    "phone_number": "+34945121670",
    "source_url": "https://www.google.com/maps/place/Bombas+Itur/data=!4m7!3m6!1s0xd4fc23929d1e93b:0x2029fc882739f67!8m2!3d42.83818!4d-2.6544785!16s%2Fg%2F1tdld0p3!19sChIJO-nRKTnCTw0RZ59zgsifAgI?authuser=0&hl=tr&rclk=1",
    "website_url": "http://www.motoresybombasvitoria.com/",
    "rating_text": "5,0",
    "stars": null,
    "number_of_reviews": null,
    "price_level": "",
    "open_hours": "",
    "extraction_timestamp": "2025-06-08T03:16:57.979Z",
    "source_name": "google",
    "source_query": "Irrigation Equipment",
    "source_country": "ES",
    "country": "Spain",
    "state": "Araba",
    "city": "Urkabustaiz"
  }
]
