[
  {
    "source_id": "ChIJ5VghOvrCTw0RZ7Ybm_gUD08",
    "name": "Saltoki",
    "category": "Saltoki",
    "formatted_address": "3,9(413)",
    "phone_number": "+34945123888",
    "source_url": "https://www.google.com/maps/place/Saltoki/data=!4m7!3m6!1s0xd4fc2fa3a2158e5:0x4f0f14f89b1bb667!8m2!3d42.864129!4d-2.645951!16s%2Fg%2F11bwqpyz6r!19sChIJ5VghOvrCTw0RZ7Ybm_gUD08?authuser=0&hl=tr&rclk=1",
    "website_url": "https://www.saltoki.com/",
    "rating_text": "3,9",
    "stars": null,
    "number_of_reviews": null,
    "price_level": "",
    "open_hours": "",
    "extraction_timestamp": "2025-06-08T03:18:57.237Z",
    "source_name": "google",
    "source_query": "Irrigation Equipment",
    "source_country": "ES",
    "country": "Spain",
    "state": "Araba",
    "city": "Vitoria-Gasteiz"
  },
  {
    "source_id": "ChIJazWRFZHBTw0RW8TB23b63pI",
    "name": "Suministros Industriales Roal Industrial S.L.U.",
    "category": "Suministros Industriales Roal Industrial S.L.U.",
    "formatted_address": "4,9(44)",
    "phone_number": "+34945230488",
    "source_url": "https://www.google.com/maps/place/Suministros+Industriales+Roal+Industrial+S.L.U./data=!4m7!3m6!1s0xd4fc1911591356b:0x92defa76dbc1c45b!8m2!3d42.85722!4d-2.71206!16s%2Fg%2F11fx7v04vs!19sChIJazWRFZHBTw0RW8TB23b63pI?authuser=0&hl=tr&rclk=1",
    "website_url": "https://www.roalindustrial.com/",
    "rating_text": "4,9",
    "stars": null,
    "number_of_reviews": null,
    "price_level": "",
    "open_hours": "",
    "extraction_timestamp": "2025-06-08T03:18:57.237Z",
    "source_name": "google",
    "source_query": "Irrigation Equipment",
    "source_country": "ES",
    "country": "Spain",
    "state": "Araba",
    "city": "Vitoria-Gasteiz"
  },
  {
    "source_id": "ChIJNQGCJmHCTw0R8aNDhF16xWE",
    "name": "Eziolaza Amalur S.L.",
    "category": "Eziolaza Amalur S.L.",
    "formatted_address": "4,5(166)",
    "phone_number": "+34945257255",
    "source_url": "https://www.google.com/maps/place/Eziolaza+Amalur+S.L./data=!4m7!3m6!1s0xd4fc26126820135:0x61c57a5d8443a3f1!8m2!3d42.84965!4d-2.66277!16s%2Fg%2F1td2j6j9!19sChIJNQGCJmHCTw0R8aNDhF16xWE?authuser=0&hl=tr&rclk=1",
    "website_url": "http://www.eziolaza.com/",
    "rating_text": "4,5",
    "stars": null,
    "number_of_reviews": null,
    "price_level": "",
    "open_hours": "",
    "extraction_timestamp": "2025-06-08T03:18:57.238Z",
    "source_name": "google",
    "source_query": "Irrigation Equipment",
    "source_country": "ES",
    "country": "Spain",
    "state": "Araba",
    "city": "Vitoria-Gasteiz"
  },
  {
    "source_id": "ChIJdzedAlzCTw0R22BYT9s2hho",
    "name": "Del Verde al Morao CBD Grow Shop",
    "category": "Del Verde al Morao CBD Grow Shop",
    "formatted_address": "4,9(760)",
    "phone_number": "+34945212403",
    "source_url": "https://www.google.com/maps/place/Del+Verde+al+Morao+CBD+Grow+Shop/data=!4m7!3m6!1s0xd4fc25c029d3777:0x1a8636db4f5860db!8m2!3d42.8655605!4d-2.6581563!16s%2Fg%2F1hm3hdjyv!19sChIJdzedAlzCTw0R22BYT9s2hho?authuser=0&hl=tr&rclk=1",
    "website_url": "http://delverdealmorao.com/",
    "rating_text": "4,9",
    "stars": null,
    "number_of_reviews": null,
    "price_level": "",
    "open_hours": "",
    "extraction_timestamp": "2025-06-08T03:18:57.238Z",
    "source_name": "google",
    "source_query": "Irrigation Equipment",
    "source_country": "ES",
    "country": "Spain",
    "state": "Araba",
    "city": "Vitoria-Gasteiz"
  },
  {
    "source_id": "ChIJ4cnE_kPCTw0RE9JHBdS8_Rw",
    "name": "Izquierdo tailerra",
    "category": "Izquierdo tailerra",
    "formatted_address": "4,1(98)",
    "phone_number": "+34945260239",
    "source_url": "https://www.google.com/maps/place/Izquierdo+tailerra/data=!4m7!3m6!1s0xd4fc243fec4c9e1:0x1cfdbcd40547d213!8m2!3d42.8567947!4d-2.6730737!16s%2Fg%2F1tdr4msl!19sChIJ4cnE_kPCTw0RE9JHBdS8_Rw?authuser=0&hl=tr&rclk=1",
    "website_url": "http://www.garajeizquierdo.com/",
    "rating_text": "4,1",
    "stars": null,
    "number_of_reviews": null,
    "price_level": "",
    "open_hours": "",
    "extraction_timestamp": "2025-06-08T03:18:57.238Z",
    "source_name": "google",
    "source_query": "Irrigation Equipment",
    "source_country": "ES",
    "country": "Spain",
    "state": "Araba",
    "city": "Vitoria-Gasteiz"
  },
  {
    "source_id": "ChIJxcBMBePCTw0R4rJIHI5SYX0",
    "name": "Nuvi Araba",
    "category": "Nuvi Araba",
    "formatted_address": "4,8(5)",
    "phone_number": "+34945263581",
    "source_url": "https://www.google.com/maps/place/Nuvi+Araba/data=!4m7!3m6!1s0xd4fc2e3054cc0c5:0x7d61528e1c48b2e2!8m2!3d42.8693918!4d-2.6468918!16s%2Fg%2F11byhlb3c3!19sChIJxcBMBePCTw0R4rJIHI5SYX0?authuser=0&hl=tr&rclk=1",
    "website_url": "http://www.nuviaraba.com/",
    "rating_text": "4,8",
    "stars": null,
    "number_of_reviews": null,
    "price_level": "",
    "open_hours": "",
    "extraction_timestamp": "2025-06-08T03:18:57.239Z",
    "source_name": "google",
    "source_query": "Irrigation Equipment",
    "source_country": "ES",
    "country": "Spain",
    "state": "Araba",
    "city": "Vitoria-Gasteiz"
  },
  {
    "source_id": "ChIJQ6aXXprBTw0RB8-kQpmp9nk",
    "name": "Alkivent, S.L.",
    "category": "Alkivent, S.L.",
    "formatted_address": "Alkivent, S.L.",
    "phone_number": "+34945564141",
    "source_url": "https://www.google.com/maps/place/Alkivent,+S.L./data=!4m7!3m6!1s0xd4fc19a5e97a643:0x79f6a99942a4cf07!8m2!3d42.8628022!4d-2.7109035!16s%2Fg%2F1tfmpq5x!19sChIJQ6aXXprBTw0RB8-kQpmp9nk?authuser=0&hl=tr&rclk=1",
    "website_url": "https://www.alkivent.com/",
    "rating_text": "4,3",
    "stars": null,
    "number_of_reviews": null,
    "price_level": "",
    "open_hours": "",
    "extraction_timestamp": "2025-06-08T03:18:57.239Z",
    "source_name": "google",
    "source_query": "Irrigation Equipment",
    "source_country": "ES",
    "country": "Spain",
    "state": "Araba",
    "city": "Vitoria-Gasteiz"
  },
  {
    "source_id": "ChIJm52U94bCTw0RvG57poOFymY",
    "name": "Instalaciones Boro",
    "category": "Instalaciones Boro",
    "formatted_address": "3,6(56)",
    "phone_number": "+34945001649",
    "source_url": "https://www.google.com/maps/place/Instalaciones+Boro/data=!4m7!3m6!1s0xd4fc286f7949d9b:0x66ca8583a67b6ebc!8m2!3d42.840355!4d-2.655475!16s%2Fg%2F1tgptym0!19sChIJm52U94bCTw0RvG57poOFymY?authuser=0&hl=tr&rclk=1",
    "website_url": "http://www.boro.es/",
    "rating_text": "3,6",
    "stars": null,
    "number_of_reviews": null,
    "price_level": "",
    "open_hours": "",
    "extraction_timestamp": "2025-06-08T03:18:57.239Z",
    "source_name": "google",
    "source_query": "Irrigation Equipment",
    "source_country": "ES",
    "country": "Spain",
    "state": "Araba",
    "city": "Vitoria-Gasteiz"
  },
  {
    "source_id": "ChIJ57Ilz3_qTw0R38b5NLiP60w",
    "name": "Alquileres Álava S.L. (Vialki)",
    "category": "Alquileres Álava S.L. (Vialki)",
    "formatted_address": "4,4(75)",
    "phone_number": "+34945279031",
    "source_url": "https://www.google.com/maps/place/Alquileres+%C3%81lava+S.L.+%28Vialki%29/data=!4m7!3m6!1s0xd4fea7fcf25b2e7:0x4ceb8fb834f9c6df!8m2!3d42.8294802!4d-2.7373033!16s%2Fg%2F1ptzs_76_!19sChIJ57Ilz3_qTw0R38b5NLiP60w?authuser=0&hl=tr&rclk=1",
    "website_url": "https://www.vialki.net/",
    "rating_text": "4,4",
    "stars": null,
    "number_of_reviews": null,
    "price_level": "",
    "open_hours": "",
    "extraction_timestamp": "2025-06-08T03:18:57.240Z",
    "source_name": "google",
    "source_query": "Irrigation Equipment",
    "source_country": "ES",
    "country": "Spain",
    "state": "Araba",
    "city": "Vitoria-Gasteiz"
  },
  {
    "source_id": "ChIJNcMDsmTCTw0Ry4jATV2mbFU",
    "name": "Zabaleta Vitoria (Suministros Fontanería y Calefacción)",
    "category": "Zabaleta Vitoria (Suministros Fontanería y Calefacción)",
    "formatted_address": "4,7(21)",
    "phone_number": "+34945255075",
    "source_url": "https://www.google.com/maps/place/Zabaleta+Vitoria+%28Suministros+Fontaner%C3%ADa+y+Calefacci%C3%B3n%29/data=!4m7!3m6!1s0xd4fc264b203c335:0x556ca65d4dc088cb!8m2!3d42.8429274!4d-2.6642493!16s%2Fg%2F11cjj5wb6b!19sChIJNcMDsmTCTw0Ry4jATV2mbFU?authuser=0&hl=tr&rclk=1",
    "website_url": "http://www.grupozabaletq.com/",
    "rating_text": "4,7",
    "stars": null,
    "number_of_reviews": null,
    "price_level": "",
    "open_hours": "",
    "extraction_timestamp": "2025-06-08T03:18:57.240Z",
    "source_name": "google",
    "source_query": "Irrigation Equipment",
    "source_country": "ES",
    "country": "Spain",
    "state": "Araba",
    "city": "Vitoria-Gasteiz"
  },
  {
    "source_id": "ChIJp50cJgMT8U8RKsj90bZPur0",
    "name": "TECODI",
    "category": "TECODI",
    "formatted_address": "5,0(9)",
    "phone_number": "+34945291001",
    "source_url": "https://www.google.com/maps/place/TECODI/data=!4m7!3m6!1s0x4ff11303261c9da7:0xbdba4fb6d1fdc82a!8m2!3d42.845395!4d-2.6637583!16s%2Fg%2F11q8x8r7w9!19sChIJp50cJgMT8U8RKsj90bZPur0?authuser=0&hl=tr&rclk=1",
    "website_url": "https://tecodi.com/",
    "rating_text": "5,0",
    "stars": null,
    "number_of_reviews": null,
    "price_level": "",
    "open_hours": "",
    "extraction_timestamp": "2025-06-08T03:18:57.240Z",
    "source_name": "google",
    "source_query": "Irrigation Equipment",
    "source_country": "ES",
    "country": "Spain",
    "state": "Araba",
    "city": "Vitoria-Gasteiz"
  },
  {
    "source_id": "ChIJozTtIELDTw0RFXfA7UBL3Eo",
    "name": "SALVADOR ESCODA",
    "category": "SALVADOR ESCODA",
    "formatted_address": "5,0(7)",
    "phone_number": "+34945102228",
    "source_url": "https://www.google.com/maps/place/SALVADOR+ESCODA/data=!4m7!3m6!1s0xd4fc34220ed34a3:0x4adc4b40edc07715!8m2!3d42.8664432!4d-2.6607188!16s%2Fg%2F11fn9f4rhh!19sChIJozTtIELDTw0RFXfA7UBL3Eo?authuser=0&hl=tr&rclk=1",
    "website_url": "https://www.salvadorescoda.com/",
    "rating_text": "5,0",
    "stars": null,
    "number_of_reviews": null,
    "price_level": "",
    "open_hours": "",
    "extraction_timestamp": "2025-06-08T03:18:57.241Z",
    "source_name": "google",
    "source_query": "Irrigation Equipment",
    "source_country": "ES",
    "country": "Spain",
    "state": "Araba",
    "city": "Vitoria-Gasteiz"
  },
  {
    "source_id": "ChIJbYjym63DTw0RZ_ikNB_HuFY",
    "name": "Proyectos Diurvi",
    "category": "Proyectos Diurvi",
    "formatted_address": "5,0(2)",
    "phone_number": "+34673058430",
    "source_url": "https://www.google.com/maps/place/Proyectos+Diurvi/data=!4m7!3m6!1s0xd4fc3ad9bf2886d:0x56b8c71f34a4f867!8m2!3d42.8472276!4d-2.6864894!16s%2Fg%2F11x0r714y8!19sChIJbYjym63DTw0RZ_ikNB_HuFY?authuser=0&hl=tr&rclk=1",
    "website_url": "https://www.proyectosdiurvi.com/",
    "rating_text": "5,0",
    "stars": null,
    "number_of_reviews": null,
    "price_level": "",
    "open_hours": "",
    "extraction_timestamp": "2025-06-08T03:18:57.241Z",
    "source_name": "google",
    "source_query": "Irrigation Equipment",
    "source_country": "ES",
    "country": "Spain",
    "state": "Araba",
    "city": "Vitoria-Gasteiz"
  },
  {
    "source_id": "ChIJ-zSUhFDCTw0RRYf3rq11q4A",
    "name": "Leroy Merlin",
    "category": "Leroy Merlin",
    "formatted_address": "3,9(4.213)",
    "phone_number": "+34945129900",
    "source_url": "https://www.google.com/maps/place/Leroy+Merlin/data=!4m7!3m6!1s0xd4fc250849434fb:0x80ab75adaef78745!8m2!3d42.8612584!4d-2.6652514!16s%2Fg%2F1td1fr1h!19sChIJ-zSUhFDCTw0RRYf3rq11q4A?authuser=0&hl=tr&rclk=1",
    "website_url": "https://www.leroymerlin.es/tiendas/vitoria.html",
    "rating_text": "3,9",
    "stars": null,
    "number_of_reviews": null,
    "price_level": "",
    "open_hours": "",
    "extraction_timestamp": "2025-06-08T03:18:57.242Z",
    "source_name": "google",
    "source_query": "Irrigation Equipment",
    "source_country": "ES",
    "country": "Spain",
    "state": "Araba",
    "city": "Vitoria-Gasteiz"
  },
  {
    "source_id": "ChIJwXQ1CEfCTw0Rf_xB75hVHmg",
    "name": "BOMBAS Y RIEGOS PANAMA",
    "category": "BOMBAS Y RIEGOS PANAMA",
    "formatted_address": "2,1(14)",
    "phone_number": "+34945253252",
    "source_url": "https://www.google.com/maps/place/BOMBAS+Y+RIEGOS+PANAMA/data=!4m7!3m6!1s0xd4fc247083574c1:0x681e5598ef41fc7f!8m2!3d42.8593215!4d-2.6767926!16s%2Fg%2F11bxgzqvlf!19sChIJwXQ1CEfCTw0Rf_xB75hVHmg?authuser=0&hl=tr&rclk=1",
    "website_url": "https://bombasyriegospanama.com/",
    "rating_text": "2,1",
    "stars": null,
    "number_of_reviews": null,
    "price_level": "",
    "open_hours": "",
    "extraction_timestamp": "2025-06-08T03:18:57.263Z",
    "source_name": "google",
    "source_query": "Irrigation Equipment",
    "source_country": "ES",
    "country": "Spain",
    "state": "Araba",
    "city": "Vitoria-Gasteiz"
  },
  {
    "source_id": "ChIJKST8OV3CTw0RWcp41OYo_i8",
    "name": "Santamarta Instalaciones S.L.",
    "category": "Santamarta Instalaciones S.L.",
    "formatted_address": "4,6(137)",
    "phone_number": "+34945282921",
    "source_url": "https://www.google.com/maps/place/Santamarta+Instalaciones+S.L./data=!4m7!3m6!1s0xd4fc25d39fc2429:0x2ffe28e6d478ca59!8m2!3d42.8540147!4d-2.666015!16s%2Fg%2F1td2w6d8!19sChIJKST8OV3CTw0RWcp41OYo_i8?authuser=0&hl=tr&rclk=1",
    "website_url": "https://www.santamartainstalaciones.com/",
    "rating_text": "4,6",
    "stars": null,
    "number_of_reviews": null,
    "price_level": "",
    "open_hours": "",
    "extraction_timestamp": "2025-06-08T03:18:57.264Z",
    "source_name": "google",
    "source_query": "Irrigation Equipment",
    "source_country": "ES",
    "country": "Spain",
    "state": "Araba",
    "city": "Vitoria-Gasteiz"
  },
  {
    "source_id": "ChIJO-nRKTnCTw0RZ59zgsifAgI",
    "name": "Bombas Itur",
    "category": "Bombas Itur",
    "formatted_address": "5,0(4)",
    "phone_number": "+34945121670",
    "source_url": "https://www.google.com/maps/place/Bombas+Itur/data=!4m7!3m6!1s0xd4fc23929d1e93b:0x2029fc882739f67!8m2!3d42.83818!4d-2.6544785!16s%2Fg%2F1tdld0p3!19sChIJO-nRKTnCTw0RZ59zgsifAgI?authuser=0&hl=tr&rclk=1",
    "website_url": "http://www.motoresybombasvitoria.com/",
    "rating_text": "5,0",
    "stars": null,
    "number_of_reviews": null,
    "price_level": "",
    "open_hours": "",
    "extraction_timestamp": "2025-06-08T03:18:57.266Z",
    "source_name": "google",
    "source_query": "Irrigation Equipment",
    "source_country": "ES",
    "country": "Spain",
    "state": "Araba",
    "city": "Vitoria-Gasteiz"
  },
  {
    "source_id": "ChIJS8iPAyvoTw0RUzpnHP_Qjbw",
    "name": "Piensos Sanders - Servipienso Gasteiz",
    "category": "Piensos Sanders - Servipienso Gasteiz",
    "formatted_address": "4,6(103)",
    "phone_number": "+34609502425",
    "source_url": "https://www.google.com/maps/place/Piensos+Sanders+-+Servipienso+Gasteiz/data=!4m7!3m6!1s0xd4fe82b038fc84b:0xbc8dd0ff1c673a53!8m2!3d42.8303623!4d-2.656576!16s%2Fg%2F11g65gyrvh!19sChIJS8iPAyvoTw0RUzpnHP_Qjbw?authuser=0&hl=tr&rclk=1",
    "website_url": "",
    "rating_text": "4,6",
    "stars": null,
    "number_of_reviews": null,
    "price_level": "",
    "open_hours": "",
    "extraction_timestamp": "2025-06-08T03:18:57.267Z",
    "source_name": "google",
    "source_query": "Irrigation Equipment",
    "source_country": "ES",
    "country": "Spain",
    "state": "Araba",
    "city": "Vitoria-Gasteiz"
  },
  {
    "source_id": "ChIJ7cUiMoTBTw0RNMIFvPa4uks",
    "name": "Gomez Group Metering",
    "category": "Gomez Group Metering",
    "formatted_address": "4,0(4)",
    "phone_number": "+34945303470",
    "source_url": "https://www.google.com/maps/place/Gomez+Group+Metering/data=!4m7!3m6!1s0xd4fc1843222c5ed:0x4bbab8f6bc05c234!8m2!3d42.8606241!4d-2.71105!16s%2Fg%2F11j95tv6g3!19sChIJ7cUiMoTBTw0RNMIFvPa4uks?authuser=0&hl=tr&rclk=1",
    "website_url": "http://www.gomezgroupmetering.com/",
    "rating_text": "4,0",
    "stars": null,
    "number_of_reviews": null,
    "price_level": "",
    "open_hours": "",
    "extraction_timestamp": "2025-06-08T03:18:57.267Z",
    "source_name": "google",
    "source_query": "Irrigation Equipment",
    "source_country": "ES",
    "country": "Spain",
    "state": "Araba",
    "city": "Vitoria-Gasteiz"
  },
  {
    "source_id": "ChIJB55y9FbCTw0RCXP6cwL04Fo",
    "name": "Cya",
    "category": "Cya",
    "formatted_address": "4,0(10)",
    "phone_number": "+34945121570",
    "source_url": "https://www.google.com/maps/place/Cya/data=!4m7!3m6!1s0xd4fc256f4729e07:0x5ae0f40273fa7309!8m2!3d42.8654468!4d-2.6612515!16s%2Fg%2F1vqmkpp4!19sChIJB55y9FbCTw0RCXP6cwL04Fo?authuser=0&hl=tr&rclk=1",
    "website_url": "http://cya.eus/",
    "rating_text": "4,0",
    "stars": null,
    "number_of_reviews": null,
    "price_level": "",
    "open_hours": "",
    "extraction_timestamp": "2025-06-08T03:18:57.269Z",
    "source_name": "google",
    "source_query": "Irrigation Equipment",
    "source_country": "ES",
    "country": "Spain",
    "state": "Araba",
    "city": "Vitoria-Gasteiz"
  },
  {
    "source_id": "ChIJAXg-kXbqTw0RDWzUVXTTcOM",
    "name": "Vitoriana de Riegos S L",
    "category": "Vitoriana de Riegos S L",
    "formatted_address": "4,0(2)",
    "phone_number": "+34945132595",
    "source_url": "https://www.google.com/maps/place/Vitoriana+de+Riegos+S+L/data=!4m7!3m6!1s0xd4fea76913e7801:0xe370d37455d46c0d!8m2!3d42.828207!4d-2.724081!16s%2Fg%2F11cncbxrg4!19sChIJAXg-kXbqTw0RDWzUVXTTcOM?authuser=0&hl=tr&rclk=1",
    "website_url": "",
    "rating_text": "4,0",
    "stars": null,
    "number_of_reviews": null,
    "price_level": "",
    "open_hours": "",
    "extraction_timestamp": "2025-06-08T03:18:57.269Z",
    "source_name": "google",
    "source_query": "Irrigation Equipment",
    "source_country": "ES",
    "country": "Spain",
    "state": "Araba",
    "city": "Vitoria-Gasteiz"
  },
  {
    "source_id": "ChIJ-3hARBrCTw0RQaxR_CIn03E",
    "name": "GasNature Araba",
    "category": "GasNature Araba",
    "formatted_address": "4,7(30)",
    "phone_number": "+34945039002",
    "source_url": "https://www.google.com/maps/place/GasNature+Araba/data=!4m7!3m6!1s0xd4fc21a444078fb:0x71d32722fc51ac41!8m2!3d42.845307!4d-2.690086!16s%2Fg%2F11dzsyb4l_!19sChIJ-3hARBrCTw0RQaxR_CIn03E?authuser=0&hl=tr&rclk=1",
    "website_url": "http://www.gasnature.com/",
    "rating_text": "4,7",
    "stars": null,
    "number_of_reviews": null,
    "price_level": "",
    "open_hours": "",
    "extraction_timestamp": "2025-06-08T03:18:57.270Z",
    "source_name": "google",
    "source_query": "Irrigation Equipment",
    "source_country": "ES",
    "country": "Spain",
    "state": "Araba",
    "city": "Vitoria-Gasteiz"
  },
  {
    "source_id": "ChIJq6qqqmrbTw0RZY1IPrbolrI",
    "name": "Anoga S.Coop",
    "category": "Anoga S.Coop",
    "formatted_address": "4,4(200)",
    "phone_number": "+34945274588",
    "source_url": "https://www.google.com/maps/place/Anoga+S.Coop/data=!4m7!3m6!1s0xd4fdb6aaaaaaaab:0xb296e8b63e488d65!8m2!3d42.8721389!4d-2.6295588!16s%2Fg%2F11dxbp4xzk!19sChIJq6qqqmrbTw0RZY1IPrbolrI?authuser=0&hl=tr&rclk=1",
    "website_url": "https://www.anoga.es/",
    "rating_text": "4,4",
    "stars": null,
    "number_of_reviews": null,
    "price_level": "",
    "open_hours": "",
    "extraction_timestamp": "2025-06-08T03:18:57.271Z",
    "source_name": "google",
    "source_query": "Irrigation Equipment",
    "source_country": "ES",
    "country": "Spain",
    "state": "Araba",
    "city": "Vitoria-Gasteiz"
  },
  {
    "source_id": "ChIJ11RU70HCTw0R8oRgHk-T0JA",
    "name": "Valvulería del Norte, S.l.",
    "category": "Valvulería del Norte, S.l.",
    "formatted_address": "Valvulería del Norte, S.l.",
    "phone_number": "+34945150098",
    "source_url": "https://www.google.com/maps/place/Valvuler%C3%ADa+del+Norte,+S.l./data=!4m7!3m6!1s0xd4fc241ef5454d7:0x90d0934f1e6084f2!8m2!3d42.852743!4d-2.674452!16s%2Fg%2F11cmf_4fg0!19sChIJ11RU70HCTw0R8oRgHk-T0JA?authuser=0&hl=tr&rclk=1",
    "website_url": "",
    "rating_text": "4,3",
    "stars": null,
    "number_of_reviews": null,
    "price_level": "",
    "open_hours": "",
    "extraction_timestamp": "2025-06-08T03:18:57.272Z",
    "source_name": "google",
    "source_query": "Irrigation Equipment",
    "source_country": "ES",
    "country": "Spain",
    "state": "Araba",
    "city": "Vitoria-Gasteiz"
  },
  {
    "source_id": "ChIJSSEy-ErrTw0RoIOaOb7CwBU",
    "name": "Tierra Vital Esconsu, Planta de Compostaje",
    "category": "Tierra Vital Esconsu, Planta de Compostaje",
    "formatted_address": "Tierra Vital Esconsu, Planta de Compostaje",
    "phone_number": "+34647685904",
    "source_url": "https://www.google.com/maps/place/Tierra+Vital+Esconsu,+Planta+de+Compostaje/data=!4m7!3m6!1s0xd4feb4af8322149:0x15c0c2be399a83a0!8m2!3d42.8390467!4d-2.7433834!16s%2Fg%2F11vd40m53t!19sChIJSSEy-ErrTw0RoIOaOb7CwBU?authuser=0&hl=tr&rclk=1",
    "website_url": "http://www.tierravital.es/",
    "rating_text": "4,0",
    "stars": null,
    "number_of_reviews": null,
    "price_level": "",
    "open_hours": "",
    "extraction_timestamp": "2025-06-08T03:18:57.273Z",
    "source_name": "google",
    "source_query": "Irrigation Equipment",
    "source_country": "ES",
    "country": "Spain",
    "state": "Araba",
    "city": "Vitoria-Gasteiz"
  },
  {
    "source_id": "ChIJ0UjKuzbCTw0RURCL-DcTz4s",
    "name": "Fontanería RESA",
    "category": "Fontanería RESA",
    "formatted_address": "4,6(28)",
    "phone_number": "+34945278138",
    "source_url": "https://www.google.com/maps/place/Fontaner%C3%ADa+RESA/data=!4m7!3m6!1s0xd4fc236bbca48d1:0x8bcf1337f88b1051!8m2!3d42.8658835!4d-2.6826992!16s%2Fg%2F11b6gbyf1x!19sChIJ0UjKuzbCTw0RURCL-DcTz4s?authuser=0&hl=tr&rclk=1",
    "website_url": "http://www.fontaneriaresa.com/",
    "rating_text": "4,6",
    "stars": null,
    "number_of_reviews": null,
    "price_level": "",
    "open_hours": "",
    "extraction_timestamp": "2025-06-08T03:18:57.273Z",
    "source_name": "google",
    "source_query": "Irrigation Equipment",
    "source_country": "ES",
    "country": "Spain",
    "state": "Araba",
    "city": "Vitoria-Gasteiz"
  },
  {
    "source_id": "ChIJxUxdoUPCTw0Rq93_nunwfko",
    "name": "Fontaneria Y Calefaccion Bernardo SL",
    "category": "Fontaneria Y Calefaccion Bernardo SL",
    "formatted_address": "4,6(71)",
    "phone_number": "+34945254493",
    "source_url": "https://www.google.com/maps/place/Fontaneria+Y+Calefaccion+Bernardo+SL/data=!4m7!3m6!1s0xd4fc243a15d4cc5:0x4a7ef0e99effddab!8m2!3d42.8556058!4d-2.6715066!16s%2Fg%2F1vm_z5zl!19sChIJxUxdoUPCTw0Rq93_nunwfko?authuser=0&hl=tr&rclk=1",
    "website_url": "https://fontaneravitoria.es/",
    "rating_text": "4,6",
    "stars": null,
    "number_of_reviews": null,
    "price_level": "",
    "open_hours": "",
    "extraction_timestamp": "2025-06-08T03:18:57.274Z",
    "source_name": "google",
    "source_query": "Irrigation Equipment",
    "source_country": "ES",
    "country": "Spain",
    "state": "Araba",
    "city": "Vitoria-Gasteiz"
  },
  {
    "source_id": "ChIJ_T8rv5bDTw0RTna5zBtb_JA",
    "name": "INSAT NORTE",
    "category": "INSAT NORTE",
    "formatted_address": "4,9(19)",
    "phone_number": "+34609260712",
    "source_url": "https://www.google.com/maps/place/INSAT+NORTE/data=!4m7!3m6!1s0xd4fc396bf2b3ffd:0x90fc5b1bccb9764e!8m2!3d42.8714648!4d-2.6533295!16s%2Fg%2F11fnp38krw!19sChIJ_T8rv5bDTw0RTna5zBtb_JA?authuser=0&hl=tr&rclk=1",
    "website_url": "http://www.insatnorte.com/",
    "rating_text": "4,9",
    "stars": null,
    "number_of_reviews": null,
    "price_level": "",
    "open_hours": "",
    "extraction_timestamp": "2025-06-08T03:18:57.275Z",
    "source_name": "google",
    "source_query": "Irrigation Equipment",
    "source_country": "ES",
    "country": "Spain",
    "state": "Araba",
    "city": "Vitoria-Gasteiz"
  },
  {
    "source_id": "ChIJh82OXVLCTw0RJDKjbj9v7Qo",
    "name": "Makro",
    "category": "Makro",
    "formatted_address": "3,9(1.154)",
    "phone_number": "+34945123779",
    "source_url": "https://www.google.com/maps/place/Makro/data=!4m7!3m6!1s0xd4fc2525d8ecd87:0xaed6f3f6ea33224!8m2!3d42.8719371!4d-2.6686078!16s%2Fg%2F1vp70hfh!19sChIJh82OXVLCTw0RJDKjbj9v7Qo?authuser=0&hl=tr&rclk=1",
    "website_url": "https://www.makro.es/tiendas/vitoria?utm_source=gmb&utm_medium=organic&utm_content=website&utm_term=vitoria",
    "rating_text": "3,9",
    "stars": null,
    "number_of_reviews": null,
    "price_level": "",
    "open_hours": "",
    "extraction_timestamp": "2025-06-08T03:18:57.277Z",
    "source_name": "google",
    "source_query": "Irrigation Equipment",
    "source_country": "ES",
    "country": "Spain",
    "state": "Araba",
    "city": "Vitoria-Gasteiz"
  },
  {
    "source_id": "ChIJf_wgawDBTw0RWJhdc5KPyYw",
    "name": "Isona",
    "category": "Isona",
    "formatted_address": "5,0(6)",
    "phone_number": "",
    "source_url": "https://www.google.com/maps/place/Isona/data=!4m7!3m6!1s0xd4fc1006b20fc7f:0x8cc98f92735d9858!8m2!3d42.8423093!4d-2.7027138!16s%2Fg%2F11wvdqln4c!19sChIJf_wgawDBTw0RWJhdc5KPyYw?authuser=0&hl=tr&rclk=1",
    "website_url": "",
    "rating_text": "5,0",
    "stars": null,
    "number_of_reviews": null,
    "price_level": "",
    "open_hours": "",
    "extraction_timestamp": "2025-06-08T03:18:57.277Z",
    "source_name": "google",
    "source_query": "Irrigation Equipment",
    "source_country": "ES",
    "country": "Spain",
    "state": "Araba",
    "city": "Vitoria-Gasteiz"
  },
  {
    "source_id": "ChIJxxPS4WHCTw0R5nYFyHzdaAk",
    "name": "Guinealandia",
    "category": "Guinealandia",
    "formatted_address": "4,5(413)",
    "phone_number": "+34945282011",
    "source_url": "https://www.google.com/maps/place/Guinealandia/data=!4m7!3m6!1s0xd4fc261e1d213c7:0x968dd7cc80576e6!8m2!3d42.8489227!4d-2.6588119!16s%2Fg%2F12m8zzv89!19sChIJxxPS4WHCTw0R5nYFyHzdaAk?authuser=0&hl=tr&rclk=1",
    "website_url": "http://www.guinealandia.es/",
    "rating_text": "4,5",
    "stars": null,
    "number_of_reviews": null,
    "price_level": "",
    "open_hours": "",
    "extraction_timestamp": "2025-06-08T03:18:57.278Z",
    "source_name": "google",
    "source_query": "Irrigation Equipment",
    "source_country": "ES",
    "country": "Spain",
    "state": "Araba",
    "city": "Vitoria-Gasteiz"
  },
  {
    "source_id": "ChIJX283qEbCTw0RgOZYgpwzG-4",
    "name": "Fontanería Y Calefacción Roncal",
    "category": "Fontanería Y Calefacción Roncal",
    "formatted_address": "4,0(35)",
    "phone_number": "+34945223286",
    "source_url": "https://www.google.com/maps/place/Fontaner%C3%ADa+Y+Calefacci%C3%B3n+Roncal/data=!4m7!3m6!1s0xd4fc246a8376f5f:0xee1b339c8258e680!8m2!3d42.8578866!4d-2.6735703!16s%2Fg%2F1tlqr96d!19sChIJX283qEbCTw0RgOZYgpwzG-4?authuser=0&hl=tr&rclk=1",
    "website_url": "http://www.fontaneria-roncal.es/",
    "rating_text": "4,0",
    "stars": null,
    "number_of_reviews": null,
    "price_level": "",
    "open_hours": "",
    "extraction_timestamp": "2025-06-08T03:18:57.279Z",
    "source_name": "google",
    "source_query": "Irrigation Equipment",
    "source_country": "ES",
    "country": "Spain",
    "state": "Araba",
    "city": "Vitoria-Gasteiz"
  },
  {
    "source_id": "ChIJ96Ew6-PCTw0RHlSzEHoRhF0",
    "name": "Rulisa Vitoria",
    "category": "Rulisa Vitoria",
    "formatted_address": "4,2(13)",
    "phone_number": "+34945289884",
    "source_url": "https://www.google.com/maps/place/Rulisa+Vitoria/data=!4m7!3m6!1s0xd4fc2e3eb30a1f7:0x5d84117a10b3541e!8m2!3d42.8691844!4d-2.6475521!16s%2Fg%2F1hc4vgt6v!19sChIJ96Ew6-PCTw0RHlSzEHoRhF0?authuser=0&hl=tr&rclk=1",
    "website_url": "https://rulisa.com/",
    "rating_text": "4,2",
    "stars": null,
    "number_of_reviews": null,
    "price_level": "",
    "open_hours": "",
    "extraction_timestamp": "2025-06-08T03:18:57.281Z",
    "source_name": "google",
    "source_query": "Irrigation Equipment",
    "source_country": "ES",
    "country": "Spain",
    "state": "Araba",
    "city": "Vitoria-Gasteiz"
  },
  {
    "source_id": "ChIJVVqyPo_BTw0RR7mStiSISU4",
    "name": "Eguzkilore Energiak S.L.",
    "category": "Eguzkilore Energiak S.L.",
    "formatted_address": "3,4(57)",
    "phone_number": "+34945100165",
    "source_url": "https://www.google.com/maps/place/Eguzkilore+Energiak+S.L./data=!4m7!3m6!1s0xd4fc18f3eb25a55:0x4e498824b692b947!8m2!3d42.8596894!4d-2.704283!16s%2Fg%2F11g8tz56l6!19sChIJVVqyPo_BTw0RR7mStiSISU4?authuser=0&hl=tr&rclk=1",
    "website_url": "https://www.eguzkiloreenergiak.es/",
    "rating_text": "3,4",
    "stars": null,
    "number_of_reviews": null,
    "price_level": "",
    "open_hours": "",
    "extraction_timestamp": "2025-06-08T03:18:57.282Z",
    "source_name": "google",
    "source_query": "Irrigation Equipment",
    "source_country": "ES",
    "country": "Spain",
    "state": "Araba",
    "city": "Vitoria-Gasteiz"
  }
]
