[
  {
    "source_id": "ChIJPYSjbrXGTw0RWeWTA4a8BWI",
    "name": "Brico Depôt Vitoria Gasteiz",
    "category": "Brico Depôt Vitoria Gasteiz",
    "formatted_address": "4,1(1.304)",
    "phone_number": "+34945460510",
    "source_url": "https://www.google.com/maps/place/Brico+Dep%C3%B4t+Vitoria+Gasteiz/data=!4m7!3m6!1s0xd4fc6b56ea3843d:0x6205bc860393e559!8m2!3d42.9113396!4d-2.7174927!16s%2Fg%2F11xk1x1q5!19sChIJPYSjbrXGTw0RWeWTA4a8BWI?authuser=0&hl=tr&rclk=1",
    "website_url": "",
    "rating_text": "4,1",
    "stars": null,
    "number_of_reviews": null,
    "price_level": "",
    "open_hours": "",
    "extraction_timestamp": "2025-06-08T03:22:58.432Z",
    "source_name": "google",
    "source_query": "Irrigation Equipment",
    "source_country": "ES",
    "country": "Spain",
    "state": "Araba",
    "city": "Zigoitia"
  },
  {
    "source_id": "ChIJacFuGnIhnkwRrP0T_6P-8j8",
    "name": "Urtegar jardineria y servicios",
    "category": "Urtegar jardineria y servicios",
    "formatted_address": "5,0(2)",
    "phone_number": "+34676170687",
    "source_url": "https://www.google.com/maps/place/Urtegar+jardineria+y+servicios/data=!4m7!3m6!1s0x4c9e21721a6ec169:0x3ff2fea3ff13fdac!8m2!3d42.9648034!4d-2.5898364!16s%2Fg%2F11txzk79h9!19sChIJacFuGnIhnkwRrP0T_6P-8j8?authuser=0&hl=tr&rclk=1",
    "website_url": "",
    "rating_text": "5,0",
    "stars": null,
    "number_of_reviews": null,
    "price_level": "",
    "open_hours": "",
    "extraction_timestamp": "2025-06-08T03:22:58.434Z",
    "source_name": "google",
    "source_query": "Irrigation Equipment",
    "source_country": "ES",
    "country": "Spain",
    "state": "Araba",
    "city": "Zigoitia"
  },
  {
    "source_id": "ChIJKZ6UhDLBTw0RCeM0iofYHHw",
    "name": "Berdeko, S.C.",
    "category": "Berdeko, S.C.",
    "formatted_address": "Berdeko, S.C.",
    "phone_number": "+34625726474",
    "source_url": "https://www.google.com/maps/place/Berdeko,+S.C./data=!4m7!3m6!1s0xd4fc13284949e29:0x7c1cd8878a34e309!8m2!3d42.8772748!4d-2.7029263!16s%2Fg%2F11jbjq7bn1!19sChIJKZ6UhDLBTw0RCeM0iofYHHw?authuser=0&hl=tr&rclk=1",
    "website_url": "",
    "rating_text": "4,4",
    "stars": null,
    "number_of_reviews": null,
    "price_level": "",
    "open_hours": "",
    "extraction_timestamp": "2025-06-08T03:22:58.435Z",
    "source_name": "google",
    "source_query": "Irrigation Equipment",
    "source_country": "ES",
    "country": "Spain",
    "state": "Araba",
    "city": "Zigoitia"
  },
  {
    "source_id": "ChIJNQGCJmHCTw0R8aNDhF16xWE",
    "name": "Eziolaza Amalur S.L.",
    "category": "Eziolaza Amalur S.L.",
    "formatted_address": "4,5(166)",
    "phone_number": "+34945257255",
    "source_url": "https://www.google.com/maps/place/Eziolaza+Amalur+S.L./data=!4m7!3m6!1s0xd4fc26126820135:0x61c57a5d8443a3f1!8m2!3d42.84965!4d-2.66277!16s%2Fg%2F1td2j6j9!19sChIJNQGCJmHCTw0R8aNDhF16xWE?authuser=0&hl=tr&rclk=1",
    "website_url": "",
    "rating_text": "4,5",
    "stars": null,
    "number_of_reviews": null,
    "price_level": "",
    "open_hours": "",
    "extraction_timestamp": "2025-06-08T03:22:58.436Z",
    "source_name": "google",
    "source_query": "Irrigation Equipment",
    "source_country": "ES",
    "country": "Spain",
    "state": "Araba",
    "city": "Zigoitia"
  },
  {
    "source_id": "ChIJdzedAlzCTw0R22BYT9s2hho",
    "name": "Del Verde al Morao CBD Grow Shop",
    "category": "Del Verde al Morao CBD Grow Shop",
    "formatted_address": "4,9(760)",
    "phone_number": "+34945212403",
    "source_url": "https://www.google.com/maps/place/Del+Verde+al+Morao+CBD+Grow+Shop/data=!4m7!3m6!1s0xd4fc25c029d3777:0x1a8636db4f5860db!8m2!3d42.8655605!4d-2.6581563!16s%2Fg%2F1hm3hdjyv!19sChIJdzedAlzCTw0R22BYT9s2hho?authuser=0&hl=tr&rclk=1",
    "website_url": "",
    "rating_text": "4,9",
    "stars": null,
    "number_of_reviews": null,
    "price_level": "",
    "open_hours": "",
    "extraction_timestamp": "2025-06-08T03:22:58.438Z",
    "source_name": "google",
    "source_query": "Irrigation Equipment",
    "source_country": "ES",
    "country": "Spain",
    "state": "Araba",
    "city": "Zigoitia"
  },
  {
    "source_id": "ChIJ8ygt1ePETw0R2RDW8AjrZ0E",
    "name": "EGUIBER INGENÍERA Y SUMINISTROS TÉCNICOS - Delegación Legutiano",
    "category": "EGUIBER INGENÍERA Y SUMINISTROS TÉCNICOS - Delegación Legutiano",
    "formatted_address": "4,2(32)",
    "phone_number": "+34945466155",
    "source_url": "https://www.google.com/maps/place/EGUIBER+INGEN%C3%8DERA+Y+SUMINISTROS+T%C3%89CNICOS+-+Delegaci%C3%B3n+Legutiano/data=!4m7!3m6!1s0xd4fc4e3d52d28f3:0x4167eb08f0d610d9!8m2!3d42.9497998!4d-2.6436663!16s%2Fg%2F11btmbv0gg!19sChIJ8ygt1ePETw0R2RDW8AjrZ0E?authuser=0&hl=tr&rclk=1",
    "website_url": "",
    "rating_text": "4,2",
    "stars": null,
    "number_of_reviews": null,
    "price_level": "",
    "open_hours": "",
    "extraction_timestamp": "2025-06-08T03:22:58.440Z",
    "source_name": "google",
    "source_query": "Irrigation Equipment",
    "source_country": "ES",
    "country": "Spain",
    "state": "Araba",
    "city": "Zigoitia"
  },
  {
    "source_id": "ChIJ7cUiMoTBTw0RNMIFvPa4uks",
    "name": "Gomez Group Metering",
    "category": "Gomez Group Metering",
    "formatted_address": "4,0(4)",
    "phone_number": "+34945303470",
    "source_url": "https://www.google.com/maps/place/Gomez+Group+Metering/data=!4m7!3m6!1s0xd4fc1843222c5ed:0x4bbab8f6bc05c234!8m2!3d42.8606241!4d-2.71105!16s%2Fg%2F11j95tv6g3!19sChIJ7cUiMoTBTw0RNMIFvPa4uks?authuser=0&hl=tr&rclk=1",
    "website_url": "",
    "rating_text": "4,0",
    "stars": null,
    "number_of_reviews": null,
    "price_level": "",
    "open_hours": "",
    "extraction_timestamp": "2025-06-08T03:22:58.441Z",
    "source_name": "google",
    "source_query": "Irrigation Equipment",
    "source_country": "ES",
    "country": "Spain",
    "state": "Araba",
    "city": "Zigoitia"
  },
  {
    "source_id": "ChIJ5VghOvrCTw0RZ7Ybm_gUD08",
    "name": "Saltoki",
    "category": "Saltoki",
    "formatted_address": "3,9(413)",
    "phone_number": "+34945123888",
    "source_url": "https://www.google.com/maps/place/Saltoki/data=!4m7!3m6!1s0xd4fc2fa3a2158e5:0x4f0f14f89b1bb667!8m2!3d42.864129!4d-2.645951!16s%2Fg%2F11bwqpyz6r!19sChIJ5VghOvrCTw0RZ7Ybm_gUD08?authuser=0&hl=tr&rclk=1",
    "website_url": "",
    "rating_text": "3,9",
    "stars": null,
    "number_of_reviews": null,
    "price_level": "",
    "open_hours": "",
    "extraction_timestamp": "2025-06-08T03:22:58.442Z",
    "source_name": "google",
    "source_query": "Irrigation Equipment",
    "source_country": "ES",
    "country": "Spain",
    "state": "Araba",
    "city": "Zigoitia"
  },
  {
    "source_id": "ChIJz6X-HrXGTw0RENXUIxYQs20",
    "name": "Centro de Jardinería Gorbeia",
    "category": "Centro de Jardinería Gorbeia",
    "formatted_address": "4,4(592)",
    "phone_number": "+34621251190",
    "source_url": "https://www.google.com/maps/place/Centro+de+Jardiner%C3%ADa+Gorbeia/data=!4m7!3m6!1s0xd4fc6b51efea5cf:0x6db3101623d4d510!8m2!3d42.911943!4d-2.715016!16s%2Fg%2F1pp2vbcy4!19sChIJz6X-HrXGTw0RENXUIxYQs20?authuser=0&hl=tr&rclk=1",
    "website_url": "",
    "rating_text": "4,4",
    "stars": null,
    "number_of_reviews": null,
    "price_level": "",
    "open_hours": "",
    "extraction_timestamp": "2025-06-08T03:22:58.444Z",
    "source_name": "google",
    "source_query": "Irrigation Equipment",
    "source_country": "ES",
    "country": "Spain",
    "state": "Araba",
    "city": "Zigoitia"
  },
  {
    "source_id": "ChIJ0xC9R7PGTw0RH5GdjBl090k",
    "name": "Decathlon",
    "category": "Decathlon",
    "formatted_address": "4,2(2.828)",
    "phone_number": "+34945460790",
    "source_url": "https://www.google.com/maps/place/Decathlon/data=!4m7!3m6!1s0xd4fc6b347bd10d3:0x49f774198c9d911f!8m2!3d42.910511!4d-2.712271!16s%2Fg%2F1v3gt6yz!19sChIJ0xC9R7PGTw0RH5GdjBl090k?authuser=0&hl=tr&rclk=1",
    "website_url": "",
    "rating_text": "4,2",
    "stars": null,
    "number_of_reviews": null,
    "price_level": "",
    "open_hours": "",
    "extraction_timestamp": "2025-06-08T03:22:58.446Z",
    "source_name": "google",
    "source_query": "Irrigation Equipment",
    "source_country": "ES",
    "country": "Spain",
    "state": "Araba",
    "city": "Zigoitia"
  },
  {
    "source_id": "ChIJa42N_HfETw0RXTc9d4HO18Y",
    "name": "CIC EnergiGUNE",
    "category": "CIC EnergiGUNE",
    "formatted_address": "4,8(25)",
    "phone_number": "+34945297108",
    "source_url": "https://www.google.com/maps/place/CIC+EnergiGUNE/data=!4m7!3m6!1s0xd4fc477fc8d8d6b:0xc6d7ce81773d375d!8m2!3d42.9110755!4d-2.6691284!16s%2Fg%2F1tg51rd1!19sChIJa42N_HfETw0RXTc9d4HO18Y?authuser=0&hl=tr&rclk=1",
    "website_url": "",
    "rating_text": "4,8",
    "stars": null,
    "number_of_reviews": null,
    "price_level": "",
    "open_hours": "",
    "extraction_timestamp": "2025-06-08T03:22:58.447Z",
    "source_name": "google",
    "source_query": "Irrigation Equipment",
    "source_country": "ES",
    "country": "Spain",
    "state": "Araba",
    "city": "Zigoitia"
  },
  {
    "source_id": "ChIJbYjym63DTw0RZ_ikNB_HuFY",
    "name": "Proyectos Diurvi",
    "category": "Proyectos Diurvi",
    "formatted_address": "5,0(2)",
    "phone_number": "+34673058430",
    "source_url": "https://www.google.com/maps/place/Proyectos+Diurvi/data=!4m7!3m6!1s0xd4fc3ad9bf2886d:0x56b8c71f34a4f867!8m2!3d42.8472276!4d-2.6864894!16s%2Fg%2F11x0r714y8!19sChIJbYjym63DTw0RZ_ikNB_HuFY?authuser=0&hl=tr&rclk=1",
    "website_url": "",
    "rating_text": "5,0",
    "stars": null,
    "number_of_reviews": null,
    "price_level": "",
    "open_hours": "",
    "extraction_timestamp": "2025-06-08T03:22:58.449Z",
    "source_name": "google",
    "source_query": "Irrigation Equipment",
    "source_country": "ES",
    "country": "Spain",
    "state": "Araba",
    "city": "Zigoitia"
  },
  {
    "source_id": "ChIJ98j1fTXBTw0RRsu_NlJLAjM",
    "name": "Hiartek, S.L.",
    "category": "Hiartek, S.L.",
    "formatted_address": "Hiartek, S.L.",
    "phone_number": "+34945036449",
    "source_url": "https://www.google.com/maps/place/Hiartek,+S.L./data=!4m7!3m6!1s0xd4fc1357df5c8f7:0x33024b5236bfcb46!8m2!3d42.8440557!4d-2.7397871!16s%2Fg%2F11mvvdf207!19sChIJ98j1fTXBTw0RRsu_NlJLAjM?authuser=0&hl=tr&rclk=1",
    "website_url": "",
    "rating_text": "5,0",
    "stars": null,
    "number_of_reviews": null,
    "price_level": "",
    "open_hours": "",
    "extraction_timestamp": "2025-06-08T03:22:58.450Z",
    "source_name": "google",
    "source_query": "Irrigation Equipment",
    "source_country": "ES",
    "country": "Spain",
    "state": "Araba",
    "city": "Zigoitia"
  },
  {
    "source_id": "ChIJq6qqqmrbTw0RZY1IPrbolrI",
    "name": "Anoga S.Coop",
    "category": "Anoga S.Coop",
    "formatted_address": "4,4(200)",
    "phone_number": "+34945274588",
    "source_url": "https://www.google.com/maps/place/Anoga+S.Coop/data=!4m7!3m6!1s0xd4fdb6aaaaaaaab:0xb296e8b63e488d65!8m2!3d42.8721389!4d-2.6295588!16s%2Fg%2F11dxbp4xzk!19sChIJq6qqqmrbTw0RZY1IPrbolrI?authuser=0&hl=tr&rclk=1",
    "website_url": "",
    "rating_text": "4,4",
    "stars": null,
    "number_of_reviews": null,
    "price_level": "",
    "open_hours": "",
    "extraction_timestamp": "2025-06-08T03:22:58.451Z",
    "source_name": "google",
    "source_query": "Irrigation Equipment",
    "source_country": "ES",
    "country": "Spain",
    "state": "Araba",
    "city": "Zigoitia"
  },
  {
    "source_id": "ChIJp50cJgMT8U8RKsj90bZPur0",
    "name": "TECODI",
    "category": "TECODI",
    "formatted_address": "5,0(9)",
    "phone_number": "+34945291001",
    "source_url": "https://www.google.com/maps/place/TECODI/data=!4m7!3m6!1s0x4ff11303261c9da7:0xbdba4fb6d1fdc82a!8m2!3d42.845395!4d-2.6637583!16s%2Fg%2F11q8x8r7w9!19sChIJp50cJgMT8U8RKsj90bZPur0?authuser=0&hl=tr&rclk=1",
    "website_url": "",
    "rating_text": "5,0",
    "stars": null,
    "number_of_reviews": null,
    "price_level": "",
    "open_hours": "",
    "extraction_timestamp": "2025-06-08T03:22:58.452Z",
    "source_name": "google",
    "source_query": "Irrigation Equipment",
    "source_country": "ES",
    "country": "Spain",
    "state": "Araba",
    "city": "Zigoitia"
  },
  {
    "source_id": "ChIJ05Mon0HCTw0RVGNaBv8hFBo",
    "name": "Avi Fontanería",
    "category": "Avi Fontanería",
    "formatted_address": "4,8(33)",
    "phone_number": "+34945220288",
    "source_url": "https://www.google.com/maps/place/Avi+Fontaner%C3%ADa/data=!4m7!3m6!1s0xd4fc2419f2893d3:0x1a1421ff065a6354!8m2!3d42.8543039!4d-2.674639!16s%2Fg%2F119tz9s2z!19sChIJ05Mon0HCTw0RVGNaBv8hFBo?authuser=0&hl=tr&rclk=1",
    "website_url": "",
    "rating_text": "4,8",
    "stars": null,
    "number_of_reviews": null,
    "price_level": "",
    "open_hours": "",
    "extraction_timestamp": "2025-06-08T03:22:58.454Z",
    "source_name": "google",
    "source_query": "Irrigation Equipment",
    "source_country": "ES",
    "country": "Spain",
    "state": "Araba",
    "city": "Zigoitia"
  },
  {
    "source_id": "ChIJ-3hARBrCTw0RQaxR_CIn03E",
    "name": "GasNature Araba",
    "category": "GasNature Araba",
    "formatted_address": "4,7(30)",
    "phone_number": "+34945039002",
    "source_url": "https://www.google.com/maps/place/GasNature+Araba/data=!4m7!3m6!1s0xd4fc21a444078fb:0x71d32722fc51ac41!8m2!3d42.845307!4d-2.690086!16s%2Fg%2F11dzsyb4l_!19sChIJ-3hARBrCTw0RQaxR_CIn03E?authuser=0&hl=tr&rclk=1",
    "website_url": "",
    "rating_text": "4,7",
    "stars": null,
    "number_of_reviews": null,
    "price_level": "",
    "open_hours": "",
    "extraction_timestamp": "2025-06-08T03:22:58.455Z",
    "source_name": "google",
    "source_query": "Irrigation Equipment",
    "source_country": "ES",
    "country": "Spain",
    "state": "Araba",
    "city": "Zigoitia"
  },
  {
    "source_id": "ChIJibemiC7CTw0RHD_dvXmEtVQ",
    "name": "Zelai Alai",
    "category": "Zelai Alai",
    "formatted_address": "4,4(58)",
    "phone_number": "+34945068371",
    "source_url": "https://www.google.com/maps/place/Zelai+Alai/data=!4m7!3m6!1s0xd4fc22e88a6b789:0x54b58479bddd3f1c!8m2!3d42.8655655!4d-2.6909277!16s%2Fg%2F1wf39yb9!19sChIJibemiC7CTw0RHD_dvXmEtVQ?authuser=0&hl=tr&rclk=1",
    "website_url": "",
    "rating_text": "4,4",
    "stars": null,
    "number_of_reviews": null,
    "price_level": "",
    "open_hours": "",
    "extraction_timestamp": "2025-06-08T03:22:58.483Z",
    "source_name": "google",
    "source_query": "Irrigation Equipment",
    "source_country": "ES",
    "country": "Spain",
    "state": "Araba",
    "city": "Zigoitia"
  },
  {
    "source_id": "ChIJozTtIELDTw0RFXfA7UBL3Eo",
    "name": "SALVADOR ESCODA",
    "category": "SALVADOR ESCODA",
    "formatted_address": "5,0(7)",
    "phone_number": "+34945102228",
    "source_url": "https://www.google.com/maps/place/SALVADOR+ESCODA/data=!4m7!3m6!1s0xd4fc34220ed34a3:0x4adc4b40edc07715!8m2!3d42.8664432!4d-2.6607188!16s%2Fg%2F11fn9f4rhh!19sChIJozTtIELDTw0RFXfA7UBL3Eo?authuser=0&hl=tr&rclk=1",
    "website_url": "",
    "rating_text": "5,0",
    "stars": null,
    "number_of_reviews": null,
    "price_level": "",
    "open_hours": "",
    "extraction_timestamp": "2025-06-08T03:22:58.484Z",
    "source_name": "google",
    "source_query": "Irrigation Equipment",
    "source_country": "ES",
    "country": "Spain",
    "state": "Araba",
    "city": "Zigoitia"
  },
  {
    "source_id": "ChIJxcBMBePCTw0R4rJIHI5SYX0",
    "name": "Nuvi Araba",
    "category": "Nuvi Araba",
    "formatted_address": "4,8(5)",
    "phone_number": "+34945263581",
    "source_url": "https://www.google.com/maps/place/Nuvi+Araba/data=!4m7!3m6!1s0xd4fc2e3054cc0c5:0x7d61528e1c48b2e2!8m2!3d42.8693918!4d-2.6468918!16s%2Fg%2F11byhlb3c3!19sChIJxcBMBePCTw0R4rJIHI5SYX0?authuser=0&hl=tr&rclk=1",
    "website_url": "",
    "rating_text": "4,8",
    "stars": null,
    "number_of_reviews": null,
    "price_level": "",
    "open_hours": "",
    "extraction_timestamp": "2025-06-08T03:22:58.486Z",
    "source_name": "google",
    "source_query": "Irrigation Equipment",
    "source_country": "ES",
    "country": "Spain",
    "state": "Araba",
    "city": "Zigoitia"
  },
  {
    "source_id": "ChIJOzy7IpKrWg0RlgYIEKaiB1o",
    "name": "Suministros Roymo",
    "category": "Suministros Roymo",
    "formatted_address": "4,4(193)",
    "phone_number": "+34941270655",
    "source_url": "https://www.google.com/maps/place/Suministros+Roymo/data=!4m7!3m6!1s0xd5aab9222bb3c3b:0x5a07a2a610080696!8m2!3d42.457405!4d-2.392505!16s%2Fg%2F1vq9nlz7!19sChIJOzy7IpKrWg0RlgYIEKaiB1o?authuser=0&hl=tr&rclk=1",
    "website_url": "",
    "rating_text": "4,4",
    "stars": null,
    "number_of_reviews": null,
    "price_level": "",
    "open_hours": "",
    "extraction_timestamp": "2025-06-08T03:22:58.486Z",
    "source_name": "google",
    "source_query": "Irrigation Equipment",
    "source_country": "ES",
    "country": "Spain",
    "state": "Araba",
    "city": "Zigoitia"
  },
  {
    "source_id": "ChIJ29lPCDsjUA0RSBF59HYH4ko",
    "name": "Desatascos y Limpiezas Urbanisti Álava - Servicio Urgencias 24h",
    "category": "Desatascos y Limpiezas Urbanisti Álava - Servicio Urgencias 24h",
    "formatted_address": "3,6(32)",
    "phone_number": "+34608285181",
    "source_url": "https://www.google.com/maps/place/Desatascos+y+Limpiezas+Urbanisti+%C3%81lava+-+Servicio+Urgencias+24h/data=!4m7!3m6!1s0xd50233b084fd9db:0x4ae20776f4791148!8m2!3d42.8473248!4d-2.6612439!16s%2Fg%2F1q5bnln82!19sChIJ29lPCDsjUA0RSBF59HYH4ko?authuser=0&hl=tr&rclk=1",
    "website_url": "",
    "rating_text": "3,6",
    "stars": null,
    "number_of_reviews": null,
    "price_level": "",
    "open_hours": "",
    "extraction_timestamp": "2025-06-08T03:22:58.488Z",
    "source_name": "google",
    "source_query": "Irrigation Equipment",
    "source_country": "ES",
    "country": "Spain",
    "state": "Araba",
    "city": "Zigoitia"
  },
  {
    "source_id": "ChIJF4zvCNsPekIRQXU9TBirx0s",
    "name": "Tomás Konpondu",
    "category": "Tomás Konpondu",
    "formatted_address": "5,0(1)",
    "phone_number": "+34606519941",
    "source_url": "https://www.google.com/maps/place/Tom%C3%A1s+Konpondu/data=!4m7!3m6!1s0x427a0fdb08ef8c17:0x4bc7ab184c3d7541!8m2!3d42.844774!4d-2.759727!16s%2Fg%2F11vb4fksq6!19sChIJF4zvCNsPekIRQXU9TBirx0s?authuser=0&hl=tr&rclk=1",
    "website_url": "",
    "rating_text": "5,0",
    "stars": null,
    "number_of_reviews": null,
    "price_level": "",
    "open_hours": "",
    "extraction_timestamp": "2025-06-08T03:22:58.488Z",
    "source_name": "google",
    "source_query": "Irrigation Equipment",
    "source_country": "ES",
    "country": "Spain",
    "state": "Araba",
    "city": "Zigoitia"
  },
  {
    "source_id": "ChIJX283qEbCTw0RgOZYgpwzG-4",
    "name": "Fontanería Y Calefacción Roncal",
    "category": "Fontanería Y Calefacción Roncal",
    "formatted_address": "4,0(35)",
    "phone_number": "+34945223286",
    "source_url": "https://www.google.com/maps/place/Fontaner%C3%ADa+Y+Calefacci%C3%B3n+Roncal/data=!4m7!3m6!1s0xd4fc246a8376f5f:0xee1b339c8258e680!8m2!3d42.8578866!4d-2.6735703!16s%2Fg%2F1tlqr96d!19sChIJX283qEbCTw0RgOZYgpwzG-4?authuser=0&hl=tr&rclk=1",
    "website_url": "",
    "rating_text": "4,0",
    "stars": null,
    "number_of_reviews": null,
    "price_level": "",
    "open_hours": "",
    "extraction_timestamp": "2025-06-08T03:22:58.489Z",
    "source_name": "google",
    "source_query": "Irrigation Equipment",
    "source_country": "ES",
    "country": "Spain",
    "state": "Araba",
    "city": "Zigoitia"
  },
  {
    "source_id": "ChIJKST8OV3CTw0RWcp41OYo_i8",
    "name": "Santamarta Instalaciones S.L.",
    "category": "Santamarta Instalaciones S.L.",
    "formatted_address": "4,6(137)",
    "phone_number": "+34945282921",
    "source_url": "https://www.google.com/maps/place/Santamarta+Instalaciones+S.L./data=!4m7!3m6!1s0xd4fc25d39fc2429:0x2ffe28e6d478ca59!8m2!3d42.8540147!4d-2.666015!16s%2Fg%2F1td2w6d8!19sChIJKST8OV3CTw0RWcp41OYo_i8?authuser=0&hl=tr&rclk=1",
    "website_url": "",
    "rating_text": "4,6",
    "stars": null,
    "number_of_reviews": null,
    "price_level": "",
    "open_hours": "",
    "extraction_timestamp": "2025-06-08T03:22:58.490Z",
    "source_name": "google",
    "source_query": "Irrigation Equipment",
    "source_country": "ES",
    "country": "Spain",
    "state": "Araba",
    "city": "Zigoitia"
  },
  {
    "source_id": "ChIJxxPS4WHCTw0R5nYFyHzdaAk",
    "name": "Guinealandia",
    "category": "Guinealandia",
    "formatted_address": "4,5(413)",
    "phone_number": "+34945282011",
    "source_url": "https://www.google.com/maps/place/Guinealandia/data=!4m7!3m6!1s0xd4fc261e1d213c7:0x968dd7cc80576e6!8m2!3d42.8489227!4d-2.6588119!16s%2Fg%2F12m8zzv89!19sChIJxxPS4WHCTw0R5nYFyHzdaAk?authuser=0&hl=tr&rclk=1",
    "website_url": "",
    "rating_text": "4,5",
    "stars": null,
    "number_of_reviews": null,
    "price_level": "",
    "open_hours": "",
    "extraction_timestamp": "2025-06-08T03:22:58.491Z",
    "source_name": "google",
    "source_query": "Irrigation Equipment",
    "source_country": "ES",
    "country": "Spain",
    "state": "Araba",
    "city": "Zigoitia"
  },
  {
    "source_id": "ChIJZ1n1wqTDTw0RAXyy0qXqzkY",
    "name": "FONTANERÍA GOIEN - IRIGOIEN ARGOTE, S.L.",
    "category": "FONTANERÍA GOIEN - IRIGOIEN ARGOTE, S.L.",
    "formatted_address": "FONTANERÍA GOIEN - IRIGOIEN ARGOTE, S.L.",
    "phone_number": "+34945145271",
    "source_url": "https://www.google.com/maps/place/FONTANER%C3%8DA+GOIEN+-+IRIGOIEN+ARGOTE,+S.L./data=!4m7!3m6!1s0xd4fc3a4c2f55967:0x46ceeaa5d2b27c01!8m2!3d42.837574!4d-2.662108!16s%2Fg%2F11b76fmv5w!19sChIJZ1n1wqTDTw0RAXyy0qXqzkY?authuser=0&hl=tr&rclk=1",
    "website_url": "",
    "rating_text": "3,0",
    "stars": null,
    "number_of_reviews": null,
    "price_level": "",
    "open_hours": "",
    "extraction_timestamp": "2025-06-08T03:22:58.492Z",
    "source_name": "google",
    "source_query": "Irrigation Equipment",
    "source_country": "ES",
    "country": "Spain",
    "state": "Araba",
    "city": "Zigoitia"
  },
  {
    "source_id": "ChIJL354CAvWTw0RBxktrw7Q2A0",
    "name": "Agricentro Otxoa",
    "category": "Agricentro Otxoa",
    "formatted_address": "3,9(26)",
    "phone_number": "+34943791779",
    "source_url": "https://www.google.com/maps/place/Agricentro+Otxoa/data=!4m7!3m6!1s0xd4fd60b08787e2f:0xdd8d00eaf2d1907!8m2!3d43.0674711!4d-2.4771997!16s%2Fg%2F11btlqgrr2!19sChIJL354CAvWTw0RBxktrw7Q2A0?authuser=0&hl=tr&rclk=1",
    "website_url": "",
    "rating_text": "3,9",
    "stars": null,
    "number_of_reviews": null,
    "price_level": "",
    "open_hours": "",
    "extraction_timestamp": "2025-06-08T03:22:58.493Z",
    "source_name": "google",
    "source_query": "Irrigation Equipment",
    "source_country": "ES",
    "country": "Spain",
    "state": "Araba",
    "city": "Zigoitia"
  },
  {
    "source_id": "ChIJx6wvjEDCTw0RsWdVVqAwjwU",
    "name": "Hidroclima Instalaciones",
    "category": "Hidroclima Instalaciones",
    "formatted_address": "4,1(99)",
    "phone_number": "+34945069904",
    "source_url": "https://www.google.com/maps/place/Hidroclima+Instalaciones/data=!4m7!3m6!1s0xd4fc2408c2facc7:0x58f30a0565567b1!8m2!3d42.854756!4d-2.677785!16s%2Fg%2F11c52jwgwd!19sChIJx6wvjEDCTw0RsWdVVqAwjwU?authuser=0&hl=tr&rclk=1",
    "website_url": "",
    "rating_text": "4,1",
    "stars": null,
    "number_of_reviews": null,
    "price_level": "",
    "open_hours": "",
    "extraction_timestamp": "2025-06-08T03:22:58.495Z",
    "source_name": "google",
    "source_query": "Irrigation Equipment",
    "source_country": "ES",
    "country": "Spain",
    "state": "Araba",
    "city": "Zigoitia"
  },
  {
    "source_id": "ChIJxUxdoUPCTw0Rq93_nunwfko",
    "name": "Fontaneria Y Calefaccion Bernardo SL",
    "category": "Fontaneria Y Calefaccion Bernardo SL",
    "formatted_address": "4,6(71)",
    "phone_number": "+34945254493",
    "source_url": "https://www.google.com/maps/place/Fontaneria+Y+Calefaccion+Bernardo+SL/data=!4m7!3m6!1s0xd4fc243a15d4cc5:0x4a7ef0e99effddab!8m2!3d42.8556058!4d-2.6715066!16s%2Fg%2F1vm_z5zl!19sChIJxUxdoUPCTw0Rq93_nunwfko?authuser=0&hl=tr&rclk=1",
    "website_url": "",
    "rating_text": "4,6",
    "stars": null,
    "number_of_reviews": null,
    "price_level": "",
    "open_hours": "",
    "extraction_timestamp": "2025-06-08T03:22:58.496Z",
    "source_name": "google",
    "source_query": "Irrigation Equipment",
    "source_country": "ES",
    "country": "Spain",
    "state": "Araba",
    "city": "Zigoitia"
  }
]
