[
  {
    "source_id": "ChIJm2k4OBhnRUcRorlDejzLFj8",
    "name": "INTTECH INDUSTRY - Timis",
    "category": "INTTECH INDUSTRY - Timis",
    "formatted_address": "5,0(30)",
    "phone_number": "+40744323626",
    "source_url": "https://www.google.com/maps/place/INTTECH+INDUSTRY+-+Timis/data=!4m7!3m6!1s0x474567183838699b:0x3f16cb3c7a43b9a2!8m2!3d45.8007315!4d21.249204!16s%2Fg%2F11j3g9f8jq!19sChIJm2k4OBhnRUcRorlDejzLFj8?authuser=0&hl=tr&rclk=1",
    "website_url": "http://www.irrishop.ro/",
    "rating_text": "5,0",
    "stars": null,
    "number_of_reviews": null,
    "price_level": "",
    "open_hours": "",
    "extraction_timestamp": "2025-06-07T14:36:47.782Z",
    "source_name": "google",
    "source_query": "Irrigation Equipment",
    "source_country": "RO",
    "country": "Romania",
    "state": "Timiș County",
    "city": "Bacova"
  },
  {
    "source_id": "ChIJD7OM9o1dRUcRRqlJ_yffJcE",
    "name": "Gardensis S.R.L.",
    "category": "Gardensis S.R.L.",
    "formatted_address": "4,6(16)",
    "phone_number": "+40724011591",
    "source_url": "https://www.google.com/maps/place/Gardensis+S.R.L./data=!4m7!3m6!1s0x47455d8df68cb30f:0xc125df27ff49a946!8m2!3d45.7292754!4d21.2698954!16s%2Fg%2F1hc7xr42_!19sChIJD7OM9o1dRUcRRqlJ_yffJcE?authuser=0&hl=tr&rclk=1",
    "website_url": "http://www.irigatii.ro/",
    "rating_text": "4,6",
    "stars": null,
    "number_of_reviews": null,
    "price_level": "",
    "open_hours": "",
    "extraction_timestamp": "2025-06-07T14:36:47.783Z",
    "source_name": "google",
    "source_query": "Irrigation Equipment",
    "source_country": "RO",
    "country": "Romania",
    "state": "Timiș County",
    "city": "Bacova"
  },
  {
    "source_id": "ChIJu9QYiMJdRUcROlyKL-xy3eg",
    "name": "Fluidiqa SRL",
    "category": "Fluidiqa SRL",
    "formatted_address": "5,0(1)",
    "phone_number": "+40756100954",
    "source_url": "https://www.google.com/maps/place/Fluidiqa+SRL/data=!4m7!3m6!1s0x47455dc28818d4bb:0xe8dd72ec2f8a5c3a!8m2!3d45.7038491!4d21.1825258!16s%2Fg%2F11c61qxjzj!19sChIJu9QYiMJdRUcROlyKL-xy3eg?authuser=0&hl=tr&rclk=1",
    "website_url": "http://www.fluidiqa.ro/",
    "rating_text": "5,0",
    "stars": null,
    "number_of_reviews": null,
    "price_level": "",
    "open_hours": "",
    "extraction_timestamp": "2025-06-07T14:36:47.783Z",
    "source_name": "google",
    "source_query": "Irrigation Equipment",
    "source_country": "RO",
    "country": "Romania",
    "state": "Timiș County",
    "city": "Bacova"
  },
  {
    "source_id": "ChIJzzGl8ApeRUcR3xJZHCGgt08",
    "name": "irigatii.ro",
    "category": "irigatii.ro",
    "formatted_address": "4,8(65)",
    "phone_number": "+40724011591",
    "source_url": "https://www.google.com/maps/place/irigatii.ro/data=!4m7!3m6!1s0x47455e0af0a531cf:0x4fb7a0211c5912df!8m2!3d45.7293134!4d21.2700735!16s%2Fg%2F1hc2p_4by!19sChIJzzGl8ApeRUcR3xJZHCGgt08?authuser=0&hl=tr&rclk=1",
    "website_url": "http://www.irigatii.ro/",
    "rating_text": "4,8",
    "stars": null,
    "number_of_reviews": null,
    "price_level": "",
    "open_hours": "",
    "extraction_timestamp": "2025-06-07T14:36:47.783Z",
    "source_name": "google",
    "source_query": "Irrigation Equipment",
    "source_country": "RO",
    "country": "Romania",
    "state": "Timiș County",
    "city": "Bacova"
  },
  {
    "source_id": "ChIJMWnr6hJeRUcR1qATsiSFcKk",
    "name": "Irigații-S.C.Badin-sistem S.R.L.",
    "category": "Irigații-S.C.Badin-sistem S.R.L.",
    "formatted_address": "4,7(76)",
    "phone_number": "+40785111698",
    "source_url": "https://www.google.com/maps/place/Iriga%C8%9Bii-S.C.Badin-sistem+S.R.L./data=!4m7!3m6!1s0x47455e12eaeb6931:0xa9708524b213a0d6!8m2!3d45.7351861!4d21.263806!16s%2Fg%2F11c5rmlsvm!19sChIJMWnr6hJeRUcR1qATsiSFcKk?authuser=0&hl=tr&rclk=1",
    "website_url": "http://www.badinsistem.ro/",
    "rating_text": "4,7",
    "stars": null,
    "number_of_reviews": null,
    "price_level": "",
    "open_hours": "",
    "extraction_timestamp": "2025-06-07T14:36:47.783Z",
    "source_name": "google",
    "source_query": "Irrigation Equipment",
    "source_country": "RO",
    "country": "Romania",
    "state": "Timiș County",
    "city": "Bacova"
  },
  {
    "source_id": "ChIJu3QMYXRdRUcRJ2-T1_nXT6U",
    "name": "Marprest",
    "category": "Marprest",
    "formatted_address": "5,0(1)",
    "phone_number": "+40721795322",
    "source_url": "https://www.google.com/maps/place/Marprest/data=!4m7!3m6!1s0x47455d74610c74bb:0xa54fd7f9d7936f27!8m2!3d45.7291043!4d21.2078843!16s%2Fg%2F11c1vmmqkp!19sChIJu3QMYXRdRUcRJ2-T1_nXT6U?authuser=0&hl=tr&rclk=1",
    "website_url": "http://www.marprest.ro/",
    "rating_text": "5,0",
    "stars": null,
    "number_of_reviews": null,
    "price_level": "",
    "open_hours": "",
    "extraction_timestamp": "2025-06-07T14:36:47.784Z",
    "source_name": "google",
    "source_query": "Irrigation Equipment",
    "source_country": "RO",
    "country": "Romania",
    "state": "Timiș County",
    "city": "Bacova"
  },
  {
    "source_id": "ChIJ2yyu2u-ZRUcRAentcQp81yg",
    "name": "Fish farm accesorii iaz, pesti, sisteme de irigatii",
    "category": "Fish farm accesorii iaz, pesti, sisteme de irigatii",
    "formatted_address": "Fish farm accesorii iaz, pesti, sisteme de irigatii",
    "phone_number": "+40756060729",
    "source_url": "https://www.google.com/maps/place/Fish+farm+accesorii+iaz,+pesti,+sisteme+de+irigatii/data=!4m7!3m6!1s0x474599efdaae2cdb:0x28d77c0a71ede901!8m2!3d46.1692156!4d21.2834742!16s%2Fg%2F11gr2fbfdv!19sChIJ2yyu2u-ZRUcRAentcQp81yg?authuser=0&hl=tr&rclk=1",
    "website_url": "http://www.fish-farm.ro/",
    "rating_text": "2,9",
    "stars": null,
    "number_of_reviews": null,
    "price_level": "",
    "open_hours": "",
    "extraction_timestamp": "2025-06-07T14:36:47.784Z",
    "source_name": "google",
    "source_query": "Irrigation Equipment",
    "source_country": "RO",
    "country": "Romania",
    "state": "Timiș County",
    "city": "Bacova"
  },
  {
    "source_id": "ChIJcUVxnDaZRUcRUbUn3okKfP4",
    "name": "SC Tehnica Irigatii-Lacuri Decorative SRL",
    "category": "SC Tehnica Irigatii-Lacuri Decorative SRL",
    "formatted_address": "4,9(32)",
    "phone_number": "+40731208755",
    "source_url": "https://www.google.com/maps/place/SC+Tehnica+Irigatii-Lacuri+Decorative+SRL/data=!4m7!3m6!1s0x474599369c714571:0xfe7c0a89de27b551!8m2!3d46.1409626!4d21.3164797!16s%2Fg%2F11c6vbxz0v!19sChIJcUVxnDaZRUcRUbUn3okKfP4?authuser=0&hl=tr&rclk=1",
    "website_url": "https://www.tehnicairigatii.ro/",
    "rating_text": "4,9",
    "stars": null,
    "number_of_reviews": null,
    "price_level": "",
    "open_hours": "",
    "extraction_timestamp": "2025-06-07T14:36:47.784Z",
    "source_name": "google",
    "source_query": "Irrigation Equipment",
    "source_country": "RO",
    "country": "Romania",
    "state": "Timiș County",
    "city": "Bacova"
  },
  {
    "source_id": "ChIJnUQBrmNcRUcRiYKKcWdU8UE",
    "name": "Datcomp S.R.L.",
    "category": "Datcomp S.R.L.",
    "formatted_address": "4,9(9)",
    "phone_number": "+40729133951",
    "source_url": "https://www.google.com/maps/place/Datcomp+S.R.L./data=!4m7!3m6!1s0x47455c63ae01449d:0x41f15467718a8289!8m2!3d45.696862!4d21.1873457!16s%2Fg%2F1hhmw76h1!19sChIJnUQBrmNcRUcRiYKKcWdU8UE?authuser=0&hl=tr&rclk=1",
    "website_url": "http://www.datcomp.ro/",
    "rating_text": "4,9",
    "stars": null,
    "number_of_reviews": null,
    "price_level": "",
    "open_hours": "",
    "extraction_timestamp": "2025-06-07T14:36:47.785Z",
    "source_name": "google",
    "source_query": "Irrigation Equipment",
    "source_country": "RO",
    "country": "Romania",
    "state": "Timiș County",
    "city": "Bacova"
  },
  {
    "source_id": "ChIJIfnfLTNnRUcRSrDX85TqUB4",
    "name": "Delta Exclusiv s.r.l.",
    "category": "Delta Exclusiv s.r.l.",
    "formatted_address": "5,0(1)",
    "phone_number": "+40744797018",
    "source_url": "https://www.google.com/maps/place/Delta+Exclusiv+s.r.l./data=!4m7!3m6!1s0x474567332ddff921:0x1e50ea94f3d7b04a!8m2!3d45.756904!4d21.239286!16s%2Fg%2F11fkkzwcn_!19sChIJIfnfLTNnRUcRSrDX85TqUB4?authuser=0&hl=tr&rclk=1",
    "website_url": "https://www.deltaexclusiv.ro/",
    "rating_text": "5,0",
    "stars": null,
    "number_of_reviews": null,
    "price_level": "",
    "open_hours": "",
    "extraction_timestamp": "2025-06-07T14:36:47.786Z",
    "source_name": "google",
    "source_query": "Irrigation Equipment",
    "source_country": "RO",
    "country": "Romania",
    "state": "Timiș County",
    "city": "Bacova"
  },
  {
    "source_id": "ChIJe5iszo5fRUcRxo7w0Xha61A",
    "name": "BADIN SISTEM",
    "category": "BADIN SISTEM",
    "formatted_address": "5,0(5)",
    "phone_number": "+40785111698",
    "source_url": "https://www.google.com/maps/place/BADIN+SISTEM/data=!4m7!3m6!1s0x47455f8eceac987b:0x50eb5a78d1f08ec6!8m2!3d45.7262042!4d21.2819381!16s%2Fg%2F11tjzt76v7!19sChIJe5iszo5fRUcRxo7w0Xha61A?authuser=0&hl=tr&rclk=1",
    "website_url": "https://www.badinsistem.ro/",
    "rating_text": "5,0",
    "stars": null,
    "number_of_reviews": null,
    "price_level": "",
    "open_hours": "",
    "extraction_timestamp": "2025-06-07T14:36:47.786Z",
    "source_name": "google",
    "source_query": "Irrigation Equipment",
    "source_country": "RO",
    "country": "Romania",
    "state": "Timiș County",
    "city": "Bacova"
  },
  {
    "source_id": "ChIJ89rcY25dRUcRZT8mqS9M5qc",
    "name": "Banat Garden Timisoara",
    "category": "Banat Garden Timisoara",
    "formatted_address": "4,9(34)",
    "phone_number": "+40724402076",
    "source_url": "https://www.google.com/maps/place/Banat+Garden+Timisoara/data=!4m7!3m6!1s0x47455d6e63dcdaf3:0xa7e64c2fa9263f65!8m2!3d45.7571782!4d21.2301306!16s%2Fg%2F11gl0h6gg8!19sChIJ89rcY25dRUcRZT8mqS9M5qc?authuser=0&hl=tr&rclk=1",
    "website_url": "http://banatgarden.ro/",
    "rating_text": "4,9",
    "stars": null,
    "number_of_reviews": null,
    "price_level": "",
    "open_hours": "",
    "extraction_timestamp": "2025-06-07T14:36:47.786Z",
    "source_name": "google",
    "source_query": "Irrigation Equipment",
    "source_country": "RO",
    "country": "Romania",
    "state": "Timiș County",
    "city": "Bacova"
  },
  {
    "source_id": "ChIJv_eizuFdRUcRg4yb6UmX30I",
    "name": "MagazinGradina",
    "category": "MagazinGradina",
    "formatted_address": "",
    "phone_number": "+40724011591",
    "source_url": "https://www.google.com/maps/place/MagazinGradina/data=!4m7!3m6!1s0x47455de1cea2f7bf:0x42df9749e99b8c83!8m2!3d45.7293427!4d21.2700876!16s%2Fg%2F11fqptlzbn!19sChIJv_eizuFdRUcRg4yb6UmX30I?authuser=0&hl=tr&rclk=1",
    "website_url": "http://magazingradina.ro/",
    "rating_text": "",
    "stars": null,
    "number_of_reviews": null,
    "price_level": "",
    "open_hours": "",
    "extraction_timestamp": "2025-06-07T14:36:47.786Z",
    "source_name": "google",
    "source_query": "Irrigation Equipment",
    "source_country": "RO",
    "country": "Romania",
    "state": "Timiș County",
    "city": "Bacova"
  },
  {
    "source_id": "ChIJtyU70chPRUcRQ5GNiHtF8AQ",
    "name": "AGRO BADEN BANAT SRL",
    "category": "AGRO BADEN BANAT SRL",
    "formatted_address": "5,0(19)",
    "phone_number": "+40742357999",
    "source_url": "https://www.google.com/maps/place/AGRO+BADEN+BANAT+SRL/data=!4m7!3m6!1s0x47454fc8d13b25b7:0x4f0457b888d9143!8m2!3d45.608985!4d20.964087!16s%2Fg%2F11jnsn3sz8!19sChIJtyU70chPRUcRQ5GNiHtF8AQ?authuser=0&hl=tr&rclk=1",
    "website_url": "",
    "rating_text": "5,0",
    "stars": null,
    "number_of_reviews": null,
    "price_level": "",
    "open_hours": "",
    "extraction_timestamp": "2025-06-07T14:36:47.787Z",
    "source_name": "google",
    "source_query": "Irrigation Equipment",
    "source_country": "RO",
    "country": "Romania",
    "state": "Timiș County",
    "city": "Bacova"
  },
  {
    "source_id": "ChIJu_3uZ3ddRUcRIRUlcPqNBE0",
    "name": "Gardensis",
    "category": "Gardensis",
    "formatted_address": "",
    "phone_number": "+40724831901",
    "source_url": "https://www.google.com/maps/place/Gardensis/data=!4m7!3m6!1s0x47455d7767eefdbb:0x4d048dfa70251521!8m2!3d45.7437075!4d21.2137216!16s%2Fg%2F11hyt1pk45!19sChIJu_3uZ3ddRUcRIRUlcPqNBE0?authuser=0&hl=tr&rclk=1",
    "website_url": "",
    "rating_text": "",
    "stars": null,
    "number_of_reviews": null,
    "price_level": "",
    "open_hours": "",
    "extraction_timestamp": "2025-06-07T14:36:47.787Z",
    "source_name": "google",
    "source_query": "Irrigation Equipment",
    "source_country": "RO",
    "country": "Romania",
    "state": "Timiș County",
    "city": "Bacova"
  },
  {
    "source_id": "ChIJp8YZmWJnRUcRjv4S2flju7k",
    "name": "AQUA JET VEST S.R.L.",
    "category": "AQUA JET VEST S.R.L.",
    "formatted_address": "5,0(194)",
    "phone_number": "+40732022032",
    "source_url": "https://www.google.com/maps/place/AQUA+JET+VEST+S.R.L./data=!4m7!3m6!1s0x474567629919c6a7:0xb9bb63f9d912fe8e!8m2!3d45.7858688!4d21.2313758!16s%2Fg%2F11rnnjv1nx!19sChIJp8YZmWJnRUcRjv4S2flju7k?authuser=0&hl=tr&rclk=1",
    "website_url": "https://desfundarecanale.ro/",
    "rating_text": "5,0",
    "stars": null,
    "number_of_reviews": null,
    "price_level": "",
    "open_hours": "",
    "extraction_timestamp": "2025-06-07T14:36:47.787Z",
    "source_name": "google",
    "source_query": "Irrigation Equipment",
    "source_country": "RO",
    "country": "Romania",
    "state": "Timiș County",
    "city": "Bacova"
  },
  {
    "source_id": "ChIJY4O8JMLzT0cRRfhiZGbKcr0",
    "name": "Magazin nr 1",
    "category": "Magazin nr 1",
    "formatted_address": "3,6(5)",
    "phone_number": "",
    "source_url": "https://www.google.com/maps/place/Magazin+nr+1/data=!4m7!3m6!1s0x474ff3c224bc8363:0xbd72ca666462f845!8m2!3d45.6637295!4d21.5588396!16s%2Fg%2F11k2kw283n!19sChIJY4O8JMLzT0cRRfhiZGbKcr0?authuser=0&hl=tr&rclk=1",
    "website_url": "",
    "rating_text": "3,6",
    "stars": null,
    "number_of_reviews": null,
    "price_level": "",
    "open_hours": "",
    "extraction_timestamp": "2025-06-07T14:36:47.787Z",
    "source_name": "google",
    "source_query": "Irrigation Equipment",
    "source_country": "RO",
    "country": "Romania",
    "state": "Timiș County",
    "city": "Bacova"
  },
  {
    "source_id": "ChIJzZpYyItnRUcRHPcJ3uYfQ-k",
    "name": "Wartung Tratamente Speciale",
    "category": "Wartung Tratamente Speciale",
    "formatted_address": "3,4(47)",
    "phone_number": "+40729941177",
    "source_url": "https://www.google.com/maps/place/Wartung+Tratamente+Speciale/data=!4m7!3m6!1s0x4745678bc8589acd:0xe9431fe6de09f71c!8m2!3d45.7618233!4d21.2097954!16s%2Fg%2F11b7q4sc97!19sChIJzZpYyItnRUcRHPcJ3uYfQ-k?authuser=0&hl=tr&rclk=1",
    "website_url": "http://www.wartung.ro/",
    "rating_text": "3,4",
    "stars": null,
    "number_of_reviews": null,
    "price_level": "",
    "open_hours": "",
    "extraction_timestamp": "2025-06-07T14:36:47.788Z",
    "source_name": "google",
    "source_query": "Irrigation Equipment",
    "source_country": "RO",
    "country": "Romania",
    "state": "Timiș County",
    "city": "Bacova"
  },
  {
    "source_id": "ChIJ2SHYVwBBRUcRxh8pwdeXz6c",
    "name": "Stația de Pompare Bobda (mai stâng, Bega Veche)",
    "category": "Stația de Pompare Bobda (mai stâng, Bega Veche)",
    "formatted_address": "Stația de Pompare Bobda (mai stâng, Bega Veche)",
    "phone_number": "",
    "source_url": "https://www.google.com/maps/place/Sta%C8%9Bia+de+Pompare+Bobda+%28mai+st%C3%A2ng,+Bega+Veche%29/data=!4m7!3m6!1s0x4745410057d821d9:0xa7cf97d7c1291fc6!8m2!3d45.7354857!4d20.9663843!16s%2Fg%2F11wfmg3h7_!19sChIJ2SHYVwBBRUcRxh8pwdeXz6c?authuser=0&hl=tr&rclk=1",
    "website_url": "",
    "rating_text": "",
    "stars": null,
    "number_of_reviews": null,
    "price_level": "",
    "open_hours": "",
    "extraction_timestamp": "2025-06-07T14:36:47.788Z",
    "source_name": "google",
    "source_query": "Irrigation Equipment",
    "source_country": "RO",
    "country": "Romania",
    "state": "Timiș County",
    "city": "Bacova"
  }
]
