[
  {
    "source_id": "ChIJzSv2gkJfRUcRSSfwAA0LWDE",
    "name": "AmA Climatic",
    "category": "AmA Climatic",
    "formatted_address": "5,0(40)",
    "phone_number": "+40730309356",
    "source_url": "https://www.google.com/maps/place/AmA+Climatic/data=!4m7!3m6!1s0x47455f4282f62bcd:0x31580b0d00f02749!8m2!3d45.7245141!4d21.2898017!16s%2Fg%2F11kpl32d52!19sChIJzSv2gkJfRUcRSSfwAA0LWDE?authuser=0&hl=tr&rclk=1",
    "website_url": "",
    "rating_text": "5,0",
    "stars": null,
    "number_of_reviews": null,
    "price_level": "",
    "open_hours": "",
    "extraction_timestamp": "2025-06-07T14:42:46.332Z",
    "source_name": "google",
    "source_query": "Irrigation Equipment",
    "source_country": "RO",
    "country": "Romania",
    "state": "Timiș County",
    "city": "Comuna Moşniţa Nouã"
  },
  {
    "source_id": "ChIJD7OM9o1dRUcRRqlJ_yffJcE",
    "name": "Gardensis S.R.L.",
    "category": "Gardensis S.R.L.",
    "formatted_address": "4,6(16)",
    "phone_number": "+40724011591",
    "source_url": "https://www.google.com/maps/place/Gardensis+S.R.L./data=!4m7!3m6!1s0x47455d8df68cb30f:0xc125df27ff49a946!8m2!3d45.7292754!4d21.2698954!16s%2Fg%2F1hc7xr42_!19sChIJD7OM9o1dRUcRRqlJ_yffJcE?authuser=0&hl=tr&rclk=1",
    "website_url": "",
    "rating_text": "4,6",
    "stars": null,
    "number_of_reviews": null,
    "price_level": "",
    "open_hours": "",
    "extraction_timestamp": "2025-06-07T14:42:46.333Z",
    "source_name": "google",
    "source_query": "Irrigation Equipment",
    "source_country": "RO",
    "country": "Romania",
    "state": "Timiș County",
    "city": "Comuna Moşniţa Nouã"
  },
  {
    "source_id": "ChIJMWnr6hJeRUcR1qATsiSFcKk",
    "name": "Irigații-S.C.Badin-sistem S.R.L.",
    "category": "Irigații-S.C.Badin-sistem S.R.L.",
    "formatted_address": "4,7(76)",
    "phone_number": "+40785111698",
    "source_url": "https://www.google.com/maps/place/Iriga%C8%9Bii-S.C.Badin-sistem+S.R.L./data=!4m7!3m6!1s0x47455e12eaeb6931:0xa9708524b213a0d6!8m2!3d45.7351861!4d21.263806!16s%2Fg%2F11c5rmlsvm!19sChIJMWnr6hJeRUcR1qATsiSFcKk?authuser=0&hl=tr&rclk=1",
    "website_url": "",
    "rating_text": "4,7",
    "stars": null,
    "number_of_reviews": null,
    "price_level": "",
    "open_hours": "",
    "extraction_timestamp": "2025-06-07T14:42:46.333Z",
    "source_name": "google",
    "source_query": "Irrigation Equipment",
    "source_country": "RO",
    "country": "Romania",
    "state": "Timiș County",
    "city": "Comuna Moşniţa Nouã"
  },
  {
    "source_id": "ChIJzzGl8ApeRUcR3xJZHCGgt08",
    "name": "irigatii.ro",
    "category": "irigatii.ro",
    "formatted_address": "4,8(65)",
    "phone_number": "+40724011591",
    "source_url": "https://www.google.com/maps/place/irigatii.ro/data=!4m7!3m6!1s0x47455e0af0a531cf:0x4fb7a0211c5912df!8m2!3d45.7293134!4d21.2700735!16s%2Fg%2F1hc2p_4by!19sChIJzzGl8ApeRUcR3xJZHCGgt08?authuser=0&hl=tr&rclk=1",
    "website_url": "",
    "rating_text": "4,8",
    "stars": null,
    "number_of_reviews": null,
    "price_level": "",
    "open_hours": "",
    "extraction_timestamp": "2025-06-07T14:42:46.334Z",
    "source_name": "google",
    "source_query": "Irrigation Equipment",
    "source_country": "RO",
    "country": "Romania",
    "state": "Timiș County",
    "city": "Comuna Moşniţa Nouã"
  },
  {
    "source_id": "ChIJm2k4OBhnRUcRorlDejzLFj8",
    "name": "INTTECH INDUSTRY - Timis",
    "category": "INTTECH INDUSTRY - Timis",
    "formatted_address": "5,0(30)",
    "phone_number": "+40744323626",
    "source_url": "https://www.google.com/maps/place/INTTECH+INDUSTRY+-+Timis/data=!4m7!3m6!1s0x474567183838699b:0x3f16cb3c7a43b9a2!8m2!3d45.8007315!4d21.249204!16s%2Fg%2F11j3g9f8jq!19sChIJm2k4OBhnRUcRorlDejzLFj8?authuser=0&hl=tr&rclk=1",
    "website_url": "",
    "rating_text": "5,0",
    "stars": null,
    "number_of_reviews": null,
    "price_level": "",
    "open_hours": "",
    "extraction_timestamp": "2025-06-07T14:42:46.334Z",
    "source_name": "google",
    "source_query": "Irrigation Equipment",
    "source_country": "RO",
    "country": "Romania",
    "state": "Timiș County",
    "city": "Comuna Moşniţa Nouã"
  },
  {
    "source_id": "ChIJTVG0CPBfRUcR4gt1tkoGKCE",
    "name": "Fermierul Banatului",
    "category": "Fermierul Banatului",
    "formatted_address": "4,9(21)",
    "phone_number": "+40754553773",
    "source_url": "https://www.google.com/maps/place/Fermierul+Banatului/data=!4m7!3m6!1s0x47455ff008b4514d:0x2128064ab6750be2!8m2!3d45.7183051!4d21.3247113!16s%2Fg%2F11sn2mcjgs!19sChIJTVG0CPBfRUcR4gt1tkoGKCE?authuser=0&hl=tr&rclk=1",
    "website_url": "",
    "rating_text": "4,9",
    "stars": null,
    "number_of_reviews": null,
    "price_level": "",
    "open_hours": "",
    "extraction_timestamp": "2025-06-07T14:42:46.335Z",
    "source_name": "google",
    "source_query": "Irrigation Equipment",
    "source_country": "RO",
    "country": "Romania",
    "state": "Timiș County",
    "city": "Comuna Moşniţa Nouã"
  },
  {
    "source_id": "ChIJu9QYiMJdRUcROlyKL-xy3eg",
    "name": "Fluidiqa SRL",
    "category": "Fluidiqa SRL",
    "formatted_address": "5,0(1)",
    "phone_number": "+40756100954",
    "source_url": "https://www.google.com/maps/place/Fluidiqa+SRL/data=!4m7!3m6!1s0x47455dc28818d4bb:0xe8dd72ec2f8a5c3a!8m2!3d45.7038491!4d21.1825258!16s%2Fg%2F11c61qxjzj!19sChIJu9QYiMJdRUcROlyKL-xy3eg?authuser=0&hl=tr&rclk=1",
    "website_url": "",
    "rating_text": "5,0",
    "stars": null,
    "number_of_reviews": null,
    "price_level": "",
    "open_hours": "",
    "extraction_timestamp": "2025-06-07T14:42:46.335Z",
    "source_name": "google",
    "source_query": "Irrigation Equipment",
    "source_country": "RO",
    "country": "Romania",
    "state": "Timiș County",
    "city": "Comuna Moşniţa Nouã"
  },
  {
    "source_id": "ChIJge4f6MpfRUcR4CUY6Dm9cvU",
    "name": "Prodan Chim",
    "category": "Prodan Chim",
    "formatted_address": "4,6(517)",
    "phone_number": "+40740159445",
    "source_url": "https://www.google.com/maps/place/Prodan+Chim/data=!4m7!3m6!1s0x47455fcae81fee81:0xf572bd39e81825e0!8m2!3d45.719089!4d21.3200064!16s%2Fg%2F11hcjz5c7z!19sChIJge4f6MpfRUcR4CUY6Dm9cvU?authuser=0&hl=tr&rclk=1",
    "website_url": "",
    "rating_text": "4,6",
    "stars": null,
    "number_of_reviews": null,
    "price_level": "",
    "open_hours": "",
    "extraction_timestamp": "2025-06-07T14:42:46.335Z",
    "source_name": "google",
    "source_query": "Irrigation Equipment",
    "source_country": "RO",
    "country": "Romania",
    "state": "Timiș County",
    "city": "Comuna Moşniţa Nouã"
  },
  {
    "source_id": "ChIJe5iszo5fRUcRxo7w0Xha61A",
    "name": "BADIN SISTEM",
    "category": "BADIN SISTEM",
    "formatted_address": "5,0(5)",
    "phone_number": "+40785111698",
    "source_url": "https://www.google.com/maps/place/BADIN+SISTEM/data=!4m7!3m6!1s0x47455f8eceac987b:0x50eb5a78d1f08ec6!8m2!3d45.7262042!4d21.2819381!16s%2Fg%2F11tjzt76v7!19sChIJe5iszo5fRUcRxo7w0Xha61A?authuser=0&hl=tr&rclk=1",
    "website_url": "",
    "rating_text": "5,0",
    "stars": null,
    "number_of_reviews": null,
    "price_level": "",
    "open_hours": "",
    "extraction_timestamp": "2025-06-07T14:42:46.336Z",
    "source_name": "google",
    "source_query": "Irrigation Equipment",
    "source_country": "RO",
    "country": "Romania",
    "state": "Timiș County",
    "city": "Comuna Moşniţa Nouã"
  },
  {
    "source_id": "ChIJ_2zvZtRfRUcRnmSybMc7tGE",
    "name": "IGNNEX FIRE SOLUTIONS",
    "category": "IGNNEX FIRE SOLUTIONS",
    "formatted_address": "5,0(2)",
    "phone_number": "+40746428738",
    "source_url": "https://www.google.com/maps/place/IGNNEX+FIRE+SOLUTIONS/data=!4m7!3m6!1s0x47455fd466ef6cff:0x61b43bc76cb2649e!8m2!3d45.7243537!4d21.2951931!16s%2Fg%2F11n5rtp4pl!19sChIJ_2zvZtRfRUcRnmSybMc7tGE?authuser=0&hl=tr&rclk=1",
    "website_url": "",
    "rating_text": "5,0",
    "stars": null,
    "number_of_reviews": null,
    "price_level": "",
    "open_hours": "",
    "extraction_timestamp": "2025-06-07T14:42:46.336Z",
    "source_name": "google",
    "source_query": "Irrigation Equipment",
    "source_country": "RO",
    "country": "Romania",
    "state": "Timiș County",
    "city": "Comuna Moşniţa Nouã"
  },
  {
    "source_id": "ChIJWczOSDReRUcReNUJiaBsFqs",
    "name": "ANINOASA TIM (stingatoare,echipamente si servicii de specialitate PSI)",
    "category": "ANINOASA TIM (stingatoare,echipamente si servicii de specialitate PSI)",
    "formatted_address": "ANINOASA TIM (stingatoare,echipamente si servicii de specialitate PSI)",
    "phone_number": "+40726466272",
    "source_url": "https://www.google.com/maps/place/ANINOASA+TIM+%28stingatoare,echipamente+si+servicii+de+specialitate+PSI%29/data=!4m7!3m6!1s0x47455e3448cecc59:0xab166ca08909d578!8m2!3d45.7227444!4d21.3044263!16s%2Fg%2F12lscdfz8!19sChIJWczOSDReRUcReNUJiaBsFqs?authuser=0&hl=tr&rclk=1",
    "website_url": "",
    "rating_text": "4,8",
    "stars": null,
    "number_of_reviews": null,
    "price_level": "",
    "open_hours": "",
    "extraction_timestamp": "2025-06-07T14:42:46.336Z",
    "source_name": "google",
    "source_query": "Irrigation Equipment",
    "source_country": "RO",
    "country": "Romania",
    "state": "Timiș County",
    "city": "Comuna Moşniţa Nouã"
  },
  {
    "source_id": "ChIJJ6MUlwxeRUcRnA91koGm7oE",
    "name": "Hesse SRL",
    "category": "Hesse SRL",
    "formatted_address": "4,6(70)",
    "phone_number": "+40753044936",
    "source_url": "https://www.google.com/maps/place/Hesse+SRL/data=!4m7!3m6!1s0x47455e0c9714a327:0x81eea68192750f9c!8m2!3d45.7281249!4d21.2740876!16s%2Fg%2F11c1nj7q6k!19sChIJJ6MUlwxeRUcRnA91koGm7oE?authuser=0&hl=tr&rclk=1",
    "website_url": "",
    "rating_text": "4,6",
    "stars": null,
    "number_of_reviews": null,
    "price_level": "",
    "open_hours": "",
    "extraction_timestamp": "2025-06-07T14:42:46.337Z",
    "source_name": "google",
    "source_query": "Irrigation Equipment",
    "source_country": "RO",
    "country": "Romania",
    "state": "Timiș County",
    "city": "Comuna Moşniţa Nouã"
  },
  {
    "source_id": "ChIJNRjFXDheRUcRdxW1bnfXkAI",
    "name": "Technic Trial",
    "category": "Technic Trial",
    "formatted_address": "4,8(4)",
    "phone_number": "",
    "source_url": "https://www.google.com/maps/place/Technic+Trial/data=!4m7!3m6!1s0x47455e385cc51835:0x290d7776eb51577!8m2!3d45.7220419!4d21.3028708!16s%2Fg%2F11h3c55q99!19sChIJNRjFXDheRUcRdxW1bnfXkAI?authuser=0&hl=tr&rclk=1",
    "website_url": "",
    "rating_text": "4,8",
    "stars": null,
    "number_of_reviews": null,
    "price_level": "",
    "open_hours": "",
    "extraction_timestamp": "2025-06-07T14:42:46.337Z",
    "source_name": "google",
    "source_query": "Irrigation Equipment",
    "source_country": "RO",
    "country": "Romania",
    "state": "Timiș County",
    "city": "Comuna Moşniţa Nouã"
  },
  {
    "source_id": "ChIJu3QMYXRdRUcRJ2-T1_nXT6U",
    "name": "Marprest",
    "category": "Marprest",
    "formatted_address": "5,0(1)",
    "phone_number": "+40721795322",
    "source_url": "https://www.google.com/maps/place/Marprest/data=!4m7!3m6!1s0x47455d74610c74bb:0xa54fd7f9d7936f27!8m2!3d45.7291043!4d21.2078843!16s%2Fg%2F11c1vmmqkp!19sChIJu3QMYXRdRUcRJ2-T1_nXT6U?authuser=0&hl=tr&rclk=1",
    "website_url": "",
    "rating_text": "5,0",
    "stars": null,
    "number_of_reviews": null,
    "price_level": "",
    "open_hours": "",
    "extraction_timestamp": "2025-06-07T14:42:46.338Z",
    "source_name": "google",
    "source_query": "Irrigation Equipment",
    "source_country": "RO",
    "country": "Romania",
    "state": "Timiș County",
    "city": "Comuna Moşniţa Nouã"
  },
  {
    "source_id": "ChIJdZjKBjVeRUcRFydVsGwEDd4",
    "name": "Agroland Mega Mosnita Noua",
    "category": "Agroland Mega Mosnita Noua",
    "formatted_address": "4,4(395)",
    "phone_number": "+40783001887",
    "source_url": "https://www.google.com/maps/place/Agroland+Mega+Mosnita+Noua/data=!4m7!3m6!1s0x47455e3506ca9875:0xde0d046cb0552717!8m2!3d45.719126!4d21.3156531!16s%2Fg%2F1pv0bcztk!19sChIJdZjKBjVeRUcRFydVsGwEDd4?authuser=0&hl=tr&rclk=1",
    "website_url": "",
    "rating_text": "4,4",
    "stars": null,
    "number_of_reviews": null,
    "price_level": "",
    "open_hours": "",
    "extraction_timestamp": "2025-06-07T14:42:46.338Z",
    "source_name": "google",
    "source_query": "Irrigation Equipment",
    "source_country": "RO",
    "country": "Romania",
    "state": "Timiș County",
    "city": "Comuna Moşniţa Nouã"
  },
  {
    "source_id": "ChIJv_eizuFdRUcRg4yb6UmX30I",
    "name": "MagazinGradina",
    "category": "MagazinGradina",
    "formatted_address": "",
    "phone_number": "+40724011591",
    "source_url": "https://www.google.com/maps/place/MagazinGradina/data=!4m7!3m6!1s0x47455de1cea2f7bf:0x42df9749e99b8c83!8m2!3d45.7293427!4d21.2700876!16s%2Fg%2F11fqptlzbn!19sChIJv_eizuFdRUcRg4yb6UmX30I?authuser=0&hl=tr&rclk=1",
    "website_url": "",
    "rating_text": "",
    "stars": null,
    "number_of_reviews": null,
    "price_level": "",
    "open_hours": "",
    "extraction_timestamp": "2025-06-07T14:42:46.338Z",
    "source_name": "google",
    "source_query": "Irrigation Equipment",
    "source_country": "RO",
    "country": "Romania",
    "state": "Timiș County",
    "city": "Comuna Moşniţa Nouã"
  },
  {
    "source_id": "ChIJQUePpTVeRUcR09rfF2ioaz8",
    "name": "3G GARDEN",
    "category": "3G GARDEN",
    "formatted_address": "3G GARDEN",
    "phone_number": "+40773330333",
    "source_url": "https://www.google.com/maps/place/3G+GARDEN/data=!4m7!3m6!1s0x47455e35a58f4741:0x3f6ba86817dfdad3!8m2!3d45.742339!4d21.3544235!16s%2Fg%2F124t02x4y!19sChIJQUePpTVeRUcR09rfF2ioaz8?authuser=0&hl=tr&rclk=1",
    "website_url": "",
    "rating_text": "4,8",
    "stars": null,
    "number_of_reviews": null,
    "price_level": "",
    "open_hours": "",
    "extraction_timestamp": "2025-06-07T14:42:46.339Z",
    "source_name": "google",
    "source_query": "Irrigation Equipment",
    "source_country": "RO",
    "country": "Romania",
    "state": "Timiș County",
    "city": "Comuna Moşniţa Nouã"
  },
  {
    "source_id": "ChIJXSFD7AdfRUcRABsaM5YXO9Y",
    "name": "Microplante Timișoara - Sănătate din Banat",
    "category": "Microplante Timișoara - Sănătate din Banat",
    "formatted_address": "5,0(1)",
    "phone_number": "+40766800553",
    "source_url": "https://www.google.com/maps/place/Microplante+Timi%C8%99oara+-+S%C4%83n%C4%83tate+din+Banat/data=!4m7!3m6!1s0x47455f07ec43215d:0xd63b1796331a1b00!8m2!3d45.720277!4d21.3156473!16s%2Fg%2F11ssqf4_1t!19sChIJXSFD7AdfRUcRABsaM5YXO9Y?authuser=0&hl=tr&rclk=1",
    "website_url": "",
    "rating_text": "5,0",
    "stars": null,
    "number_of_reviews": null,
    "price_level": "",
    "open_hours": "",
    "extraction_timestamp": "2025-06-07T14:42:46.339Z",
    "source_name": "google",
    "source_query": "Irrigation Equipment",
    "source_country": "RO",
    "country": "Romania",
    "state": "Timiș County",
    "city": "Comuna Moşniţa Nouã"
  },
  {
    "source_id": "ChIJOYT06hJeRUcRnLTcHOESTkY",
    "name": "Rembka",
    "category": "Rembka",
    "formatted_address": "4,5(153)",
    "phone_number": "+40735875763",
    "source_url": "https://www.google.com/maps/place/Rembka/data=!4m7!3m6!1s0x47455e12eaf48439:0x464e12e11cdcb49c!8m2!3d45.726233!4d21.2813269!16s%2Fg%2F1tdqg7pb!19sChIJOYT06hJeRUcRnLTcHOESTkY?authuser=0&hl=tr&rclk=1",
    "website_url": "",
    "rating_text": "4,5",
    "stars": null,
    "number_of_reviews": null,
    "price_level": "",
    "open_hours": "",
    "extraction_timestamp": "2025-06-07T14:42:46.340Z",
    "source_name": "google",
    "source_query": "Irrigation Equipment",
    "source_country": "RO",
    "country": "Romania",
    "state": "Timiș County",
    "city": "Comuna Moşniţa Nouã"
  },
  {
    "source_id": "ChIJZ7Ivxe9dRUcRwCl6_Cz2TIg",
    "name": "Modirom S.R.L.",
    "category": "Modirom S.R.L.",
    "formatted_address": "4,3(51)",
    "phone_number": "+40256247528",
    "source_url": "https://www.google.com/maps/place/Modirom+S.R.L./data=!4m7!3m6!1s0x47455defc52fb267:0x884cf62cfc7a29c0!8m2!3d45.7260561!4d21.2825643!16s%2Fg%2F1hc4sz2f8!19sChIJZ7Ivxe9dRUcRwCl6_Cz2TIg?authuser=0&hl=tr&rclk=1",
    "website_url": "",
    "rating_text": "4,3",
    "stars": null,
    "number_of_reviews": null,
    "price_level": "",
    "open_hours": "",
    "extraction_timestamp": "2025-06-07T14:42:46.340Z",
    "source_name": "google",
    "source_query": "Irrigation Equipment",
    "source_country": "RO",
    "country": "Romania",
    "state": "Timiș County",
    "city": "Comuna Moşniţa Nouã"
  },
  {
    "source_id": "ChIJH8WgtL9nRUcRtzTLRiyI53o",
    "name": "Instal Impex",
    "category": "Instal Impex",
    "formatted_address": "4,9(12)",
    "phone_number": "+40356423372",
    "source_url": "https://www.google.com/maps/place/Instal+Impex/data=!4m7!3m6!1s0x474567bfb4a0c51f:0x7ae7882c46cb34b7!8m2!3d45.7360839!4d21.2562389!16s%2Fg%2F11b77wly4x!19sChIJH8WgtL9nRUcRtzTLRiyI53o?authuser=0&hl=tr&rclk=1",
    "website_url": "",
    "rating_text": "4,9",
    "stars": null,
    "number_of_reviews": null,
    "price_level": "",
    "open_hours": "",
    "extraction_timestamp": "2025-06-07T14:42:46.340Z",
    "source_name": "google",
    "source_query": "Irrigation Equipment",
    "source_country": "RO",
    "country": "Romania",
    "state": "Timiș County",
    "city": "Comuna Moşniţa Nouã"
  },
  {
    "source_id": "ChIJ2yZvZb5dRUcRP2CPcc58LgU",
    "name": "Sulfatim SRL Timisoara",
    "category": "Sulfatim SRL Timisoara",
    "formatted_address": "5,0(50)",
    "phone_number": "+40730900200",
    "source_url": "https://www.google.com/maps/place/Sulfatim+SRL+Timisoara/data=!4m7!3m6!1s0x47455dbe656f26db:0x52e7cce718f603f!8m2!3d45.7323311!4d21.2336105!16s%2Fg%2F11c553_r_k!19sChIJ2yZvZb5dRUcRP2CPcc58LgU?authuser=0&hl=tr&rclk=1",
    "website_url": "",
    "rating_text": "5,0",
    "stars": null,
    "number_of_reviews": null,
    "price_level": "",
    "open_hours": "",
    "extraction_timestamp": "2025-06-07T14:42:46.341Z",
    "source_name": "google",
    "source_query": "Irrigation Equipment",
    "source_country": "RO",
    "country": "Romania",
    "state": "Timiș County",
    "city": "Comuna Moşniţa Nouã"
  },
  {
    "source_id": "ChIJVw2ETl1dRUcRruHEnh6DBo4",
    "name": "Instalator Timisoara Non Stop - Instalatii Sanitare - Montaj Centrala Termica - Apa - Desfundare Canalizare",
    "category": "Instalator Timisoara Non Stop - Instalatii Sanitare - Montaj Centrala Termica - Apa - Desfundare Canalizare",
    "formatted_address": "5,0(1)",
    "phone_number": "+40376300656",
    "source_url": "https://www.google.com/maps/place/Instalator+Timisoara+Non+Stop+-+Instalatii+Sanitare+-+Montaj+Centrala+Termica+-+Apa+-+Desfundare+Canalizare/data=!4m7!3m6!1s0x47455d5d4e840d57:0x8e06831e9ec4e1ae!8m2!3d45.7551681!4d21.2218989!16s%2Fg%2F11xgnytzbn!19sChIJVw2ETl1dRUcRruHEnh6DBo4?authuser=0&hl=tr&rclk=1",
    "website_url": "",
    "rating_text": "5,0",
    "stars": null,
    "number_of_reviews": null,
    "price_level": "",
    "open_hours": "",
    "extraction_timestamp": "2025-06-07T14:42:46.341Z",
    "source_name": "google",
    "source_query": "Irrigation Equipment",
    "source_country": "RO",
    "country": "Romania",
    "state": "Timiș County",
    "city": "Comuna Moşniţa Nouã"
  },
  {
    "source_id": "ChIJswFoFGxdRUcR7FncKGqo66Q",
    "name": "Vasi' Gradinaru' - Servicii Gradinarit Timisoara",
    "category": "Vasi' Gradinaru' - Servicii Gradinarit Timisoara",
    "formatted_address": "4,9(53)",
    "phone_number": "+40728688758",
    "source_url": "https://www.google.com/maps/place/Vasi%27+Gradinaru%27+-+Servicii+Gradinarit+Timisoara/data=!4m7!3m6!1s0x47455d6c146801b3:0xa4eba86a28dc59ec!8m2!3d45.7452851!4d21.198661!16s%2Fg%2F11c713wgl6!19sChIJswFoFGxdRUcR7FncKGqo66Q?authuser=0&hl=tr&rclk=1",
    "website_url": "",
    "rating_text": "4,9",
    "stars": null,
    "number_of_reviews": null,
    "price_level": "",
    "open_hours": "",
    "extraction_timestamp": "2025-06-07T14:42:46.341Z",
    "source_name": "google",
    "source_query": "Irrigation Equipment",
    "source_country": "RO",
    "country": "Romania",
    "state": "Timiș County",
    "city": "Comuna Moşniţa Nouã"
  },
  {
    "source_id": "ChIJQ5yWqTRnRUcR3NZOoM2_5N8",
    "name": "Hexagon Oa Srl",
    "category": "Hexagon Oa Srl",
    "formatted_address": "4,8(52)",
    "phone_number": "+40356464047",
    "source_url": "https://www.google.com/maps/place/Hexagon+Oa+Srl/data=!4m7!3m6!1s0x47456734a9969c43:0xdfe4bfcda04ed6dc!8m2!3d45.7400089!4d21.2546519!16s%2Fg%2F11smky3hzq!19sChIJQ5yWqTRnRUcR3NZOoM2_5N8?authuser=0&hl=tr&rclk=1",
    "website_url": "",
    "rating_text": "4,8",
    "stars": null,
    "number_of_reviews": null,
    "price_level": "",
    "open_hours": "",
    "extraction_timestamp": "2025-06-07T14:42:46.342Z",
    "source_name": "google",
    "source_query": "Irrigation Equipment",
    "source_country": "RO",
    "country": "Romania",
    "state": "Timiș County",
    "city": "Comuna Moşniţa Nouã"
  },
  {
    "source_id": "ChIJn7M3l-ZfRUcRwA_b2vuamEA",
    "name": "Inomila Electric",
    "category": "Inomila Electric",
    "formatted_address": "5,0(10)",
    "phone_number": "+40722450498",
    "source_url": "https://www.google.com/maps/place/Inomila+Electric/data=!4m7!3m6!1s0x47455fe69737b39f:0x40989afbdadb0fc0!8m2!3d45.7396847!4d21.3258911!16s%2Fg%2F11fd7hsq0d!19sChIJn7M3l-ZfRUcRwA_b2vuamEA?authuser=0&hl=tr&rclk=1",
    "website_url": "",
    "rating_text": "5,0",
    "stars": null,
    "number_of_reviews": null,
    "price_level": "",
    "open_hours": "",
    "extraction_timestamp": "2025-06-07T14:42:46.342Z",
    "source_name": "google",
    "source_query": "Irrigation Equipment",
    "source_country": "RO",
    "country": "Romania",
    "state": "Timiș County",
    "city": "Comuna Moşniţa Nouã"
  },
  {
    "source_id": "ChIJH7DdtKtdRUcRLJXQhLkF7o8",
    "name": "System Install",
    "category": "System Install",
    "formatted_address": "5,0(317)",
    "phone_number": "+40735657575",
    "source_url": "https://www.google.com/maps/place/System+Install/data=!4m7!3m6!1s0x47455dabb4ddb01f:0x8fee05b984d0952c!8m2!3d45.7077619!4d21.2100434!16s%2Fg%2F11hy_mn98z!19sChIJH7DdtKtdRUcRLJXQhLkF7o8?authuser=0&hl=tr&rclk=1",
    "website_url": "",
    "rating_text": "5,0",
    "stars": null,
    "number_of_reviews": null,
    "price_level": "",
    "open_hours": "",
    "extraction_timestamp": "2025-06-07T14:42:46.342Z",
    "source_name": "google",
    "source_query": "Irrigation Equipment",
    "source_country": "RO",
    "country": "Romania",
    "state": "Timiș County",
    "city": "Comuna Moşniţa Nouã"
  },
  {
    "source_id": "ChIJa3qkQ_5cRUcRiDGFULtTr2Q",
    "name": "AVO MOBILE Srl",
    "category": "AVO MOBILE Srl",
    "formatted_address": "5,0(1)",
    "phone_number": "+40762203612",
    "source_url": "https://www.google.com/maps/place/AVO+MOBILE+Srl/data=!4m7!3m6!1s0x47455cfe43a47a6b:0x64af53bb50853188!8m2!3d45.7199701!4d21.1957437!16s%2Fg%2F11h0jpy7b!19sChIJa3qkQ_5cRUcRiDGFULtTr2Q?authuser=0&hl=tr&rclk=1",
    "website_url": "",
    "rating_text": "5,0",
    "stars": null,
    "number_of_reviews": null,
    "price_level": "",
    "open_hours": "",
    "extraction_timestamp": "2025-06-07T14:42:46.343Z",
    "source_name": "google",
    "source_query": "Irrigation Equipment",
    "source_country": "RO",
    "country": "Romania",
    "state": "Timiș County",
    "city": "Comuna Moşniţa Nouã"
  },
  {
    "source_id": "ChIJWRMxCuddRUcRNNzDVD1aXEU",
    "name": "Art Clim",
    "category": "Art Clim",
    "formatted_address": "4,3(6)",
    "phone_number": "+40256223214",
    "source_url": "https://www.google.com/maps/place/Art+Clim/data=!4m7!3m6!1s0x47455de70a311359:0x455c5a3d54c3dc34!8m2!3d45.7317471!4d21.2576774!16s%2Fg%2F1hc1fd9pf!19sChIJWRMxCuddRUcRNNzDVD1aXEU?authuser=0&hl=tr&rclk=1",
    "website_url": "",
    "rating_text": "4,3",
    "stars": null,
    "number_of_reviews": null,
    "price_level": "",
    "open_hours": "",
    "extraction_timestamp": "2025-06-07T14:42:46.343Z",
    "source_name": "google",
    "source_query": "Irrigation Equipment",
    "source_country": "RO",
    "country": "Romania",
    "state": "Timiș County",
    "city": "Comuna Moşniţa Nouã"
  }
]
