[
  {
    "source_id": "ChIJMWnr6hJeRUcR1qATsiSFcKk",
    "name": "Irigații-S.C.Badin-sistem S.R.L.",
    "category": "Irigații-S.C.Badin-sistem S.R.L.",
    "formatted_address": "4,7(76)",
    "phone_number": "+40785111698",
    "source_url": "https://www.google.com/maps/place/Iriga%C8%9Bii-S.C.Badin-sistem+S.R.L./data=!4m7!3m6!1s0x47455e12eaeb6931:0xa9708524b213a0d6!8m2!3d45.7351861!4d21.263806!16s%2Fg%2F11c5rmlsvm!19sChIJMWnr6hJeRUcR1qATsiSFcKk?authuser=0&hl=tr&rclk=1",
    "website_url": "",
    "rating_text": "4,7",
    "stars": null,
    "number_of_reviews": null,
    "price_level": "",
    "open_hours": "",
    "extraction_timestamp": "2025-06-07T14:29:16.029Z",
    "source_name": "google",
    "source_query": "Irrigation Equipment",
    "source_country": "RO",
    "country": "Romania",
    "state": "Timiș County",
    "city": "Comuna Banloc"
  },
  {
    "source_id": "ChIJm2k4OBhnRUcRorlDejzLFj8",
    "name": "INTTECH INDUSTRY - Timis",
    "category": "INTTECH INDUSTRY - Timis",
    "formatted_address": "5,0(30)",
    "phone_number": "+40744323626",
    "source_url": "https://www.google.com/maps/place/INTTECH+INDUSTRY+-+Timis/data=!4m7!3m6!1s0x474567183838699b:0x3f16cb3c7a43b9a2!8m2!3d45.8007315!4d21.249204!16s%2Fg%2F11j3g9f8jq!19sChIJm2k4OBhnRUcRorlDejzLFj8?authuser=0&hl=tr&rclk=1",
    "website_url": "",
    "rating_text": "5,0",
    "stars": null,
    "number_of_reviews": null,
    "price_level": "",
    "open_hours": "",
    "extraction_timestamp": "2025-06-07T14:29:16.030Z",
    "source_name": "google",
    "source_query": "Irrigation Equipment",
    "source_country": "RO",
    "country": "Romania",
    "state": "Timiș County",
    "city": "Comuna Banloc"
  },
  {
    "source_id": "ChIJu9QYiMJdRUcROlyKL-xy3eg",
    "name": "Fluidiqa SRL",
    "category": "Fluidiqa SRL",
    "formatted_address": "5,0(1)",
    "phone_number": "+40756100954",
    "source_url": "https://www.google.com/maps/place/Fluidiqa+SRL/data=!4m7!3m6!1s0x47455dc28818d4bb:0xe8dd72ec2f8a5c3a!8m2!3d45.7038491!4d21.1825258!16s%2Fg%2F11c61qxjzj!19sChIJu9QYiMJdRUcROlyKL-xy3eg?authuser=0&hl=tr&rclk=1",
    "website_url": "",
    "rating_text": "5,0",
    "stars": null,
    "number_of_reviews": null,
    "price_level": "",
    "open_hours": "",
    "extraction_timestamp": "2025-06-07T14:29:16.030Z",
    "source_name": "google",
    "source_query": "Irrigation Equipment",
    "source_country": "RO",
    "country": "Romania",
    "state": "Timiș County",
    "city": "Comuna Banloc"
  },
  {
    "source_id": "ChIJD7OM9o1dRUcRRqlJ_yffJcE",
    "name": "Gardensis S.R.L.",
    "category": "Gardensis S.R.L.",
    "formatted_address": "4,6(16)",
    "phone_number": "+40724011591",
    "source_url": "https://www.google.com/maps/place/Gardensis+S.R.L./data=!4m7!3m6!1s0x47455d8df68cb30f:0xc125df27ff49a946!8m2!3d45.7292754!4d21.2698954!16s%2Fg%2F1hc7xr42_!19sChIJD7OM9o1dRUcRRqlJ_yffJcE?authuser=0&hl=tr&rclk=1",
    "website_url": "",
    "rating_text": "4,6",
    "stars": null,
    "number_of_reviews": null,
    "price_level": "",
    "open_hours": "",
    "extraction_timestamp": "2025-06-07T14:29:16.031Z",
    "source_name": "google",
    "source_query": "Irrigation Equipment",
    "source_country": "RO",
    "country": "Romania",
    "state": "Timiș County",
    "city": "Comuna Banloc"
  },
  {
    "source_id": "ChIJzzGl8ApeRUcR3xJZHCGgt08",
    "name": "irigatii.ro",
    "category": "irigatii.ro",
    "formatted_address": "4,8(65)",
    "phone_number": "+40724011591",
    "source_url": "https://www.google.com/maps/place/irigatii.ro/data=!4m7!3m6!1s0x47455e0af0a531cf:0x4fb7a0211c5912df!8m2!3d45.7293134!4d21.2700735!16s%2Fg%2F1hc2p_4by!19sChIJzzGl8ApeRUcR3xJZHCGgt08?authuser=0&hl=tr&rclk=1",
    "website_url": "",
    "rating_text": "4,8",
    "stars": null,
    "number_of_reviews": null,
    "price_level": "",
    "open_hours": "",
    "extraction_timestamp": "2025-06-07T14:29:16.032Z",
    "source_name": "google",
    "source_query": "Irrigation Equipment",
    "source_country": "RO",
    "country": "Romania",
    "state": "Timiș County",
    "city": "Comuna Banloc"
  },
  {
    "source_id": "ChIJJ1Xj9LAAUEcRtVjgpFU6cN0",
    "name": "MAGO",
    "category": "MAGO",
    "formatted_address": "4,3(30)",
    "phone_number": "",
    "source_url": "https://www.google.com/maps/place/MAGO/data=!4m7!3m6!1s0x475000b0f4e35527:0xdd703a55a4e058b5!8m2!3d45.38659!4d21.1370121!16s%2Fg%2F11f4pvh11k!19sChIJJ1Xj9LAAUEcRtVjgpFU6cN0?authuser=0&hl=tr&rclk=1",
    "website_url": "",
    "rating_text": "4,3",
    "stars": null,
    "number_of_reviews": null,
    "price_level": "",
    "open_hours": "",
    "extraction_timestamp": "2025-06-07T14:29:16.032Z",
    "source_name": "google",
    "source_query": "Irrigation Equipment",
    "source_country": "RO",
    "country": "Romania",
    "state": "Timiș County",
    "city": "Comuna Banloc"
  },
  {
    "source_id": "ChIJe5iszo5fRUcRxo7w0Xha61A",
    "name": "BADIN SISTEM",
    "category": "BADIN SISTEM",
    "formatted_address": "5,0(5)",
    "phone_number": "+40785111698",
    "source_url": "https://www.google.com/maps/place/BADIN+SISTEM/data=!4m7!3m6!1s0x47455f8eceac987b:0x50eb5a78d1f08ec6!8m2!3d45.7262042!4d21.2819381!16s%2Fg%2F11tjzt76v7!19sChIJe5iszo5fRUcRxo7w0Xha61A?authuser=0&hl=tr&rclk=1",
    "website_url": "",
    "rating_text": "5,0",
    "stars": null,
    "number_of_reviews": null,
    "price_level": "",
    "open_hours": "",
    "extraction_timestamp": "2025-06-07T14:29:16.033Z",
    "source_name": "google",
    "source_query": "Irrigation Equipment",
    "source_country": "RO",
    "country": "Romania",
    "state": "Timiș County",
    "city": "Comuna Banloc"
  },
  {
    "source_id": "ChIJMxnY5ioBUEcR_88_nrw0dDE",
    "name": "Profi Loco New",
    "category": "Profi Loco New",
    "formatted_address": "3,8(58)",
    "phone_number": "+40799940242",
    "source_url": "https://www.google.com/maps/place/Profi+Loco+New/data=!4m7!3m6!1s0x4750012ae6d81933:0x317434bc9e3fcfff!8m2!3d45.3869665!4d21.1361462!16s%2Fg%2F11ry9gdbgs!19sChIJMxnY5ioBUEcR_88_nrw0dDE?authuser=0&hl=tr&rclk=1",
    "website_url": "",
    "rating_text": "3,8",
    "stars": null,
    "number_of_reviews": null,
    "price_level": "",
    "open_hours": "",
    "extraction_timestamp": "2025-06-07T14:29:16.033Z",
    "source_name": "google",
    "source_query": "Irrigation Equipment",
    "source_country": "RO",
    "country": "Romania",
    "state": "Timiș County",
    "city": "Comuna Banloc"
  },
  {
    "source_id": "ChIJ89rcY25dRUcRZT8mqS9M5qc",
    "name": "Banat Garden Timisoara",
    "category": "Banat Garden Timisoara",
    "formatted_address": "4,9(34)",
    "phone_number": "+40724402076",
    "source_url": "https://www.google.com/maps/place/Banat+Garden+Timisoara/data=!4m7!3m6!1s0x47455d6e63dcdaf3:0xa7e64c2fa9263f65!8m2!3d45.7571782!4d21.2301306!16s%2Fg%2F11gl0h6gg8!19sChIJ89rcY25dRUcRZT8mqS9M5qc?authuser=0&hl=tr&rclk=1",
    "website_url": "",
    "rating_text": "4,9",
    "stars": null,
    "number_of_reviews": null,
    "price_level": "",
    "open_hours": "",
    "extraction_timestamp": "2025-06-07T14:29:16.034Z",
    "source_name": "google",
    "source_query": "Irrigation Equipment",
    "source_country": "RO",
    "country": "Romania",
    "state": "Timiș County",
    "city": "Comuna Banloc"
  },
  {
    "source_id": "ChIJv_eizuFdRUcRg4yb6UmX30I",
    "name": "MagazinGradina",
    "category": "MagazinGradina",
    "formatted_address": "",
    "phone_number": "+40724011591",
    "source_url": "https://www.google.com/maps/place/MagazinGradina/data=!4m7!3m6!1s0x47455de1cea2f7bf:0x42df9749e99b8c83!8m2!3d45.7293427!4d21.2700876!16s%2Fg%2F11fqptlzbn!19sChIJv_eizuFdRUcRg4yb6UmX30I?authuser=0&hl=tr&rclk=1",
    "website_url": "",
    "rating_text": "",
    "stars": null,
    "number_of_reviews": null,
    "price_level": "",
    "open_hours": "",
    "extraction_timestamp": "2025-06-07T14:29:16.034Z",
    "source_name": "google",
    "source_query": "Irrigation Equipment",
    "source_country": "RO",
    "country": "Romania",
    "state": "Timiș County",
    "city": "Comuna Banloc"
  },
  {
    "source_id": "ChIJbwbdSwCVT0cRFc1jiN7nnu0",
    "name": "Stația de Pompare Sinersig (Timișana, mal stâng)",
    "category": "Stația de Pompare Sinersig (Timișana, mal stâng)",
    "formatted_address": "Stația de Pompare Sinersig (Timișana, mal stâng)",
    "phone_number": "",
    "source_url": "https://www.google.com/maps/place/Sta%C8%9Bia+de+Pompare+Sinersig+%28Timi%C8%99ana,+mal+st%C3%A2ng%29/data=!4m7!3m6!1s0x474f95004bdd066f:0xed9ee7de8863cd15!8m2!3d45.6993479!4d21.7233815!16s%2Fg%2F11lv5zt1fv!19sChIJbwbdSwCVT0cRFc1jiN7nnu0?authuser=0&hl=tr&rclk=1",
    "website_url": "",
    "rating_text": "",
    "stars": null,
    "number_of_reviews": null,
    "price_level": "",
    "open_hours": "",
    "extraction_timestamp": "2025-06-07T14:29:16.034Z",
    "source_name": "google",
    "source_query": "Irrigation Equipment",
    "source_country": "RO",
    "country": "Romania",
    "state": "Timiș County",
    "city": "Comuna Banloc"
  },
  {
    "source_id": "ChIJKaKzupBdRUcRLxaMG-4_5rI",
    "name": "Banat Tractor Service SRL",
    "category": "Banat Tractor Service SRL",
    "formatted_address": "3,4(17)",
    "phone_number": "+40722555961",
    "source_url": "https://www.google.com/maps/place/Banat+Tractor+Service+SRL/data=!4m7!3m6!1s0x47455d90bab3a229:0xb2e63fee1b8c162f!8m2!3d45.7400516!4d21.2322389!16s%2Fg%2F11f03jlcvf!19sChIJKaKzupBdRUcRLxaMG-4_5rI?authuser=0&hl=tr&rclk=1",
    "website_url": "",
    "rating_text": "3,4",
    "stars": null,
    "number_of_reviews": null,
    "price_level": "",
    "open_hours": "",
    "extraction_timestamp": "2025-06-07T14:29:16.035Z",
    "source_name": "google",
    "source_query": "Irrigation Equipment",
    "source_country": "RO",
    "country": "Romania",
    "state": "Timiș County",
    "city": "Comuna Banloc"
  },
  {
    "source_id": "ChIJ1VxolZkBUEcRyusH3Wf7YSo",
    "name": "La doi paşi",
    "category": "La doi paşi",
    "formatted_address": "Bakkal · Loc. Banloc, nr.777Açık ⋅ Kapanış saati: 21:00 · +40 374 072 072",
    "phone_number": "+40374072072",
    "source_url": "https://www.google.com/maps/place/La+doi+pa%C5%9Fi/data=!4m7!3m6!1s0x4750019995685cd5:0x2a61fb67dd07ebca!8m2!3d45.3868046!4d21.1368434!16s%2Fg%2F11h8j6qs91!19sChIJ1VxolZkBUEcRyusH3Wf7YSo?authuser=0&hl=tr&rclk=1",
    "website_url": "",
    "rating_text": "",
    "stars": null,
    "number_of_reviews": null,
    "price_level": "",
    "open_hours": "",
    "extraction_timestamp": "2025-06-07T14:29:16.035Z",
    "source_name": "google",
    "source_query": "Irrigation Equipment",
    "source_country": "RO",
    "country": "Romania",
    "state": "Timiș County",
    "city": "Comuna Banloc"
  },
  {
    "source_id": "ChIJh3Fb0ElnRUcRG64eohRJY9Q",
    "name": "Hydroline",
    "category": "Hydroline",
    "formatted_address": "4,7(51)",
    "phone_number": "+40256499714",
    "source_url": "https://www.google.com/maps/place/Hydroline/data=!4m7!3m6!1s0x47456749d05b7187:0xd4634914a21eae1b!8m2!3d45.7634781!4d21.2841228!16s%2Fg%2F1tmgb6j2!19sChIJh3Fb0ElnRUcRG64eohRJY9Q?authuser=0&hl=tr&rclk=1",
    "website_url": "",
    "rating_text": "4,7",
    "stars": null,
    "number_of_reviews": null,
    "price_level": "",
    "open_hours": "",
    "extraction_timestamp": "2025-06-07T14:29:16.036Z",
    "source_name": "google",
    "source_query": "Irrigation Equipment",
    "source_country": "RO",
    "country": "Romania",
    "state": "Timiș County",
    "city": "Comuna Banloc"
  },
  {
    "source_id": "ChIJ2SHYVwBBRUcRxh8pwdeXz6c",
    "name": "Stația de Pompare Bobda (mai stâng, Bega Veche)",
    "category": "Stația de Pompare Bobda (mai stâng, Bega Veche)",
    "formatted_address": "Stația de Pompare Bobda (mai stâng, Bega Veche)",
    "phone_number": "",
    "source_url": "https://www.google.com/maps/place/Sta%C8%9Bia+de+Pompare+Bobda+%28mai+st%C3%A2ng,+Bega+Veche%29/data=!4m7!3m6!1s0x4745410057d821d9:0xa7cf97d7c1291fc6!8m2!3d45.7354857!4d20.9663843!16s%2Fg%2F11wfmg3h7_!19sChIJ2SHYVwBBRUcRxh8pwdeXz6c?authuser=0&hl=tr&rclk=1",
    "website_url": "",
    "rating_text": "",
    "stars": null,
    "number_of_reviews": null,
    "price_level": "",
    "open_hours": "",
    "extraction_timestamp": "2025-06-07T14:29:16.036Z",
    "source_name": "google",
    "source_query": "Irrigation Equipment",
    "source_country": "RO",
    "country": "Romania",
    "state": "Timiș County",
    "city": "Comuna Banloc"
  }
]
