[
  {
    "source_id": "ChIJgURmzti_T0cRTeWnAxxIKb0",
    "name": "RURAL PLANT SRL",
    "category": "RURAL PLANT SRL",
    "formatted_address": "4,7(39)",
    "phone_number": "+40761231076",
    "source_url": "https://www.google.com/maps/place/RURAL+PLANT+SRL/data=!4m7!3m6!1s0x474fbfd8ce664481:0xbd29481c03a7e54d!8m2!3d45.6838012!4d21.9072438!16s%2Fg%2F11gl20ty7c!19sChIJgURmzti_T0cRTeWnAxxIKb0?authuser=0&hl=tr&rclk=1",
    "website_url": "",
    "rating_text": "4,7",
    "stars": null,
    "number_of_reviews": null,
    "price_level": "",
    "open_hours": "",
    "extraction_timestamp": "2025-06-07T14:16:51.480Z",
    "source_name": "google",
    "source_query": "Irrigation Equipment",
    "source_country": "RO",
    "country": "Romania",
    "state": "Timiș County",
    "city": "Comuna Margina"
  },
  {
    "source_id": "ChIJm2k4OBhnRUcRorlDejzLFj8",
    "name": "INTTECH INDUSTRY - Timis",
    "category": "INTTECH INDUSTRY - Timis",
    "formatted_address": "5,0(30)",
    "phone_number": "+40744323626",
    "source_url": "https://www.google.com/maps/place/INTTECH+INDUSTRY+-+Timis/data=!4m7!3m6!1s0x474567183838699b:0x3f16cb3c7a43b9a2!8m2!3d45.8007315!4d21.249204!16s%2Fg%2F11j3g9f8jq!19sChIJm2k4OBhnRUcRorlDejzLFj8?authuser=0&hl=tr&rclk=1",
    "website_url": "",
    "rating_text": "5,0",
    "stars": null,
    "number_of_reviews": null,
    "price_level": "",
    "open_hours": "",
    "extraction_timestamp": "2025-06-07T14:16:51.480Z",
    "source_name": "google",
    "source_query": "Irrigation Equipment",
    "source_country": "RO",
    "country": "Romania",
    "state": "Timiș County",
    "city": "Comuna Margina"
  },
  {
    "source_id": "ChIJNVF0JZyZRUcROrGIQqRikNo",
    "name": "Sc Irigarden Srl",
    "category": "Sc Irigarden Srl",
    "formatted_address": "4,7(52)",
    "phone_number": "+40744310125",
    "source_url": "https://www.google.com/maps/place/Sc+Irigarden+Srl/data=!4m7!3m6!1s0x4745999c25745135:0xda9062a44288b13a!8m2!3d46.14823!4d21.328789!16s%2Fg%2F1tp0cg5b!19sChIJNVF0JZyZRUcROrGIQqRikNo?authuser=0&hl=tr&rclk=1",
    "website_url": "",
    "rating_text": "4,7",
    "stars": null,
    "number_of_reviews": null,
    "price_level": "",
    "open_hours": "",
    "extraction_timestamp": "2025-06-07T14:16:51.481Z",
    "source_name": "google",
    "source_query": "Irrigation Equipment",
    "source_country": "RO",
    "country": "Romania",
    "state": "Timiș County",
    "city": "Comuna Margina"
  },
  {
    "source_id": "ChIJhSMeUPkHT0cRPTp40cTZb5c",
    "name": "Stana la Fantana",
    "category": "Stana la Fantana",
    "formatted_address": "4,6(20)",
    "phone_number": "",
    "source_url": "https://www.google.com/maps/place/Stana+la+Fantana/data=!4m7!3m6!1s0x474f07f9501e2385:0x976fd9c4d1783a3d!8m2!3d45.8715754!4d22.2875471!16s%2Fg%2F11jcd9qv_7!19sChIJhSMeUPkHT0cRPTp40cTZb5c?authuser=0&hl=tr&rclk=1",
    "website_url": "",
    "rating_text": "4,6",
    "stars": null,
    "number_of_reviews": null,
    "price_level": "",
    "open_hours": "",
    "extraction_timestamp": "2025-06-07T14:16:51.481Z",
    "source_name": "google",
    "source_query": "Irrigation Equipment",
    "source_country": "RO",
    "country": "Romania",
    "state": "Timiș County",
    "city": "Comuna Margina"
  },
  {
    "source_id": "ChIJW4U_Q9KpT0cR96hHlxO1wH8",
    "name": "Magazin Mixt&caffe",
    "category": "Magazin Mixt&caffe",
    "formatted_address": "5,0(16)",
    "phone_number": "",
    "source_url": "https://www.google.com/maps/place/Magazin+Mixt%26caffe/data=!4m7!3m6!1s0x474fa9d2433f855b:0x7fc0b5139747a8f7!8m2!3d45.8577593!4d22.2657984!16s%2Fg%2F11f3s78h5b!19sChIJW4U_Q9KpT0cR96hHlxO1wH8?authuser=0&hl=tr&rclk=1",
    "website_url": "",
    "rating_text": "5,0",
    "stars": null,
    "number_of_reviews": null,
    "price_level": "",
    "open_hours": "",
    "extraction_timestamp": "2025-06-07T14:16:51.482Z",
    "source_name": "google",
    "source_query": "Irrigation Equipment",
    "source_country": "RO",
    "country": "Romania",
    "state": "Timiș County",
    "city": "Comuna Margina"
  },
  {
    "source_id": "ChIJD7OM9o1dRUcRRqlJ_yffJcE",
    "name": "Gardensis S.R.L.",
    "category": "Gardensis S.R.L.",
    "formatted_address": "4,6(16)",
    "phone_number": "+40724011591",
    "source_url": "https://www.google.com/maps/place/Gardensis+S.R.L./data=!4m7!3m6!1s0x47455d8df68cb30f:0xc125df27ff49a946!8m2!3d45.7292754!4d21.2698954!16s%2Fg%2F1hc7xr42_!19sChIJD7OM9o1dRUcRRqlJ_yffJcE?authuser=0&hl=tr&rclk=1",
    "website_url": "",
    "rating_text": "4,6",
    "stars": null,
    "number_of_reviews": null,
    "price_level": "",
    "open_hours": "",
    "extraction_timestamp": "2025-06-07T14:16:51.482Z",
    "source_name": "google",
    "source_query": "Irrigation Equipment",
    "source_country": "RO",
    "country": "Romania",
    "state": "Timiș County",
    "city": "Comuna Margina"
  },
  {
    "source_id": "ChIJNWcRJtKpT0cRofXnB41ZeM0",
    "name": "Magazin Mixt",
    "category": "Magazin Mixt",
    "formatted_address": "4,1(332)",
    "phone_number": "",
    "source_url": "https://www.google.com/maps/place/Magazin+Mixt/data=!4m7!3m6!1s0x474fa9d226116735:0xcd78598d07e7f5a1!8m2!3d45.8569758!4d22.2693878!16s%2Fg%2F11c6t6m42q!19sChIJNWcRJtKpT0cRofXnB41ZeM0?authuser=0&hl=tr&rclk=1",
    "website_url": "",
    "rating_text": "4,1",
    "stars": null,
    "number_of_reviews": null,
    "price_level": "",
    "open_hours": "",
    "extraction_timestamp": "2025-06-07T14:16:51.483Z",
    "source_name": "google",
    "source_query": "Irrigation Equipment",
    "source_country": "RO",
    "country": "Romania",
    "state": "Timiș County",
    "city": "Comuna Margina"
  },
  {
    "source_id": "ChIJhYgctPWRT0cRe9Nm2HJCq4k",
    "name": "Magazia lu' Costica Banat",
    "category": "Magazia lu' Costica Banat",
    "formatted_address": "4,7(6)",
    "phone_number": "+40761231076",
    "source_url": "https://www.google.com/maps/place/Magazia+lu%27+Costica+Banat/data=!4m7!3m6!1s0x474f91f5b41c8885:0x89ab4272d866d37b!8m2!3d45.7633017!4d21.7277277!16s%2Fg%2F11vpj66knt!19sChIJhYgctPWRT0cRe9Nm2HJCq4k?authuser=0&hl=tr&rclk=1",
    "website_url": "",
    "rating_text": "4,7",
    "stars": null,
    "number_of_reviews": null,
    "price_level": "",
    "open_hours": "",
    "extraction_timestamp": "2025-06-07T14:16:51.483Z",
    "source_name": "google",
    "source_query": "Irrigation Equipment",
    "source_country": "RO",
    "country": "Romania",
    "state": "Timiș County",
    "city": "Comuna Margina"
  },
  {
    "source_id": "ChIJ9d2Z91WpT0cRyawUU-ZXooo",
    "name": "FLORY WUW SRL",
    "category": "FLORY WUW SRL",
    "formatted_address": "5,0(2)",
    "phone_number": "+40733458063",
    "source_url": "https://www.google.com/maps/place/FLORY+WUW+SRL/data=!4m7!3m6!1s0x474fa955f799ddf5:0x8aa257e65314acc9!8m2!3d45.8575479!4d22.2651467!16s%2Fg%2F11y3zft9_y!19sChIJ9d2Z91WpT0cRyawUU-ZXooo?authuser=0&hl=tr&rclk=1",
    "website_url": "",
    "rating_text": "5,0",
    "stars": null,
    "number_of_reviews": null,
    "price_level": "",
    "open_hours": "",
    "extraction_timestamp": "2025-06-07T14:16:51.484Z",
    "source_name": "google",
    "source_query": "Irrigation Equipment",
    "source_country": "RO",
    "country": "Romania",
    "state": "Timiș County",
    "city": "Comuna Margina"
  },
  {
    "source_id": "ChIJu9QYiMJdRUcROlyKL-xy3eg",
    "name": "Fluidiqa SRL",
    "category": "Fluidiqa SRL",
    "formatted_address": "5,0(1)",
    "phone_number": "+40756100954",
    "source_url": "https://www.google.com/maps/place/Fluidiqa+SRL/data=!4m7!3m6!1s0x47455dc28818d4bb:0xe8dd72ec2f8a5c3a!8m2!3d45.7038491!4d21.1825258!16s%2Fg%2F11c61qxjzj!19sChIJu9QYiMJdRUcROlyKL-xy3eg?authuser=0&hl=tr&rclk=1",
    "website_url": "",
    "rating_text": "5,0",
    "stars": null,
    "number_of_reviews": null,
    "price_level": "",
    "open_hours": "",
    "extraction_timestamp": "2025-06-07T14:16:51.485Z",
    "source_name": "google",
    "source_query": "Irrigation Equipment",
    "source_country": "RO",
    "country": "Romania",
    "state": "Timiș County",
    "city": "Comuna Margina"
  },
  {
    "source_id": "ChIJgch17NKpT0cRUzBpkL23xKA",
    "name": "Minimarket",
    "category": "Minimarket",
    "formatted_address": "3,9(13)",
    "phone_number": "",
    "source_url": "https://www.google.com/maps/place/Minimarket/data=!4m7!3m6!1s0x474fa9d2ec75c881:0xa0c4b7bd90693053!8m2!3d45.8577274!4d22.2658273!16s%2Fg%2F12hv47vmg!19sChIJgch17NKpT0cRUzBpkL23xKA?authuser=0&hl=tr&rclk=1",
    "website_url": "",
    "rating_text": "3,9",
    "stars": null,
    "number_of_reviews": null,
    "price_level": "",
    "open_hours": "",
    "extraction_timestamp": "2025-06-07T14:16:51.486Z",
    "source_name": "google",
    "source_query": "Irrigation Equipment",
    "source_country": "RO",
    "country": "Romania",
    "state": "Timiș County",
    "city": "Comuna Margina"
  },
  {
    "source_id": "ChIJMWnr6hJeRUcR1qATsiSFcKk",
    "name": "Irigații-S.C.Badin-sistem S.R.L.",
    "category": "Irigații-S.C.Badin-sistem S.R.L.",
    "formatted_address": "4,7(76)",
    "phone_number": "+40785111698",
    "source_url": "https://www.google.com/maps/place/Iriga%C8%9Bii-S.C.Badin-sistem+S.R.L./data=!4m7!3m6!1s0x47455e12eaeb6931:0xa9708524b213a0d6!8m2!3d45.7351861!4d21.263806!16s%2Fg%2F11c5rmlsvm!19sChIJMWnr6hJeRUcR1qATsiSFcKk?authuser=0&hl=tr&rclk=1",
    "website_url": "",
    "rating_text": "4,7",
    "stars": null,
    "number_of_reviews": null,
    "price_level": "",
    "open_hours": "",
    "extraction_timestamp": "2025-06-07T14:16:51.487Z",
    "source_name": "google",
    "source_query": "Irrigation Equipment",
    "source_country": "RO",
    "country": "Romania",
    "state": "Timiș County",
    "city": "Comuna Margina"
  },
  {
    "source_id": "ChIJXddeeIapT0cRcQYqZHP8ZQU",
    "name": "La doi pasi Margina",
    "category": "La doi pasi Margina",
    "formatted_address": "4,0(34)",
    "phone_number": "",
    "source_url": "https://www.google.com/maps/place/La+doi+pasi+Margina/data=!4m7!3m6!1s0x474fa986785ed75d:0x565fc73642a0671!8m2!3d45.8570444!4d22.2705445!16s%2Fg%2F11kj4kznph!19sChIJXddeeIapT0cRcQYqZHP8ZQU?authuser=0&hl=tr&rclk=1",
    "website_url": "",
    "rating_text": "4,0",
    "stars": null,
    "number_of_reviews": null,
    "price_level": "",
    "open_hours": "",
    "extraction_timestamp": "2025-06-07T14:16:51.487Z",
    "source_name": "google",
    "source_query": "Irrigation Equipment",
    "source_country": "RO",
    "country": "Romania",
    "state": "Timiș County",
    "city": "Comuna Margina"
  },
  {
    "source_id": "ChIJz4jwNwCTT0cRamU1l1irZME",
    "name": "Stația de Pompare Ficătar (Timișana, mal stâng)",
    "category": "Stația de Pompare Ficătar (Timișana, mal stâng)",
    "formatted_address": "Stația de Pompare Ficătar (Timișana, mal stâng)",
    "phone_number": "",
    "source_url": "https://www.google.com/maps/place/Sta%C8%9Bia+de+Pompare+Fic%C4%83tar+%28Timi%C8%99ana,+mal+st%C3%A2ng%29/data=!4m7!3m6!1s0x474f930037f088cf:0xc164ab589735656a!8m2!3d45.700578!4d21.698171!16s%2Fg%2F11wg5xf_l4!19sChIJz4jwNwCTT0cRamU1l1irZME?authuser=0&hl=tr&rclk=1",
    "website_url": "",
    "rating_text": "",
    "stars": null,
    "number_of_reviews": null,
    "price_level": "",
    "open_hours": "",
    "extraction_timestamp": "2025-06-07T14:16:51.488Z",
    "source_name": "google",
    "source_query": "Irrigation Equipment",
    "source_country": "RO",
    "country": "Romania",
    "state": "Timiș County",
    "city": "Comuna Margina"
  },
  {
    "source_id": "ChIJHf9ZXt_-sUARDzm2kUTL_KA",
    "name": "MAG-irigatii.ro - Rain Bird Romania Sisteme de Irigatii",
    "category": "MAG-irigatii.ro - Rain Bird Romania Sisteme de Irigatii",
    "formatted_address": "4,8(54)",
    "phone_number": "+40748093097",
    "source_url": "https://www.google.com/maps/place/MAG-irigatii.ro+-+Rain+Bird+Romania+Sisteme+de+Irigatii/data=!4m7!3m6!1s0x40b1fedf5e59ff1d:0xa0fccb4491b6390f!8m2!3d44.3735344!4d26.178023!16s%2Fg%2F11bbw_z176!19sChIJHf9ZXt_-sUARDzm2kUTL_KA?authuser=0&hl=tr&rclk=1",
    "website_url": "",
    "rating_text": "4,8",
    "stars": null,
    "number_of_reviews": null,
    "price_level": "",
    "open_hours": "",
    "extraction_timestamp": "2025-06-07T14:16:51.488Z",
    "source_name": "google",
    "source_query": "Irrigation Equipment",
    "source_country": "RO",
    "country": "Romania",
    "state": "Timiș County",
    "city": "Comuna Margina"
  },
  {
    "source_id": "ChIJbwbdSwCVT0cRFc1jiN7nnu0",
    "name": "Stația de Pompare Sinersig (Timișana, mal stâng)",
    "category": "Stația de Pompare Sinersig (Timișana, mal stâng)",
    "formatted_address": "Stația de Pompare Sinersig (Timișana, mal stâng)",
    "phone_number": "",
    "source_url": "https://www.google.com/maps/place/Sta%C8%9Bia+de+Pompare+Sinersig+%28Timi%C8%99ana,+mal+st%C3%A2ng%29/data=!4m7!3m6!1s0x474f95004bdd066f:0xed9ee7de8863cd15!8m2!3d45.6993479!4d21.7233815!16s%2Fg%2F11lv5zt1fv!19sChIJbwbdSwCVT0cRFc1jiN7nnu0?authuser=0&hl=tr&rclk=1",
    "website_url": "",
    "rating_text": "",
    "stars": null,
    "number_of_reviews": null,
    "price_level": "",
    "open_hours": "",
    "extraction_timestamp": "2025-06-07T14:16:51.488Z",
    "source_name": "google",
    "source_query": "Irrigation Equipment",
    "source_country": "RO",
    "country": "Romania",
    "state": "Timiș County",
    "city": "Comuna Margina"
  },
  {
    "source_id": "ChIJzzGl8ApeRUcR3xJZHCGgt08",
    "name": "irigatii.ro",
    "category": "irigatii.ro",
    "formatted_address": "4,8(65)",
    "phone_number": "+40724011591",
    "source_url": "https://www.google.com/maps/place/irigatii.ro/data=!4m7!3m6!1s0x47455e0af0a531cf:0x4fb7a0211c5912df!8m2!3d45.7293134!4d21.2700735!16s%2Fg%2F1hc2p_4by!19sChIJzzGl8ApeRUcR3xJZHCGgt08?authuser=0&hl=tr&rclk=1",
    "website_url": "",
    "rating_text": "4,8",
    "stars": null,
    "number_of_reviews": null,
    "price_level": "",
    "open_hours": "",
    "extraction_timestamp": "2025-06-07T14:16:51.489Z",
    "source_name": "google",
    "source_query": "Irrigation Equipment",
    "source_country": "RO",
    "country": "Romania",
    "state": "Timiș County",
    "city": "Comuna Margina"
  },
  {
    "source_id": "ChIJaXn2gtFgRUcRWtrH1smIcNI",
    "name": "Professional Irrigation SRL",
    "category": "Professional Irrigation SRL",
    "formatted_address": "5,0(4)",
    "phone_number": "+40742054946",
    "source_url": "https://www.google.com/maps/place/Professional+Irrigation+SRL/data=!4m7!3m6!1s0x474560d182f67969:0xd27088c9d6c7da5a!8m2!3d45.7715327!4d21.3081823!16s%2Fg%2F12qfsp1nj!19sChIJaXn2gtFgRUcRWtrH1smIcNI?authuser=0&hl=tr&rclk=1",
    "website_url": "",
    "rating_text": "5,0",
    "stars": null,
    "number_of_reviews": null,
    "price_level": "",
    "open_hours": "",
    "extraction_timestamp": "2025-06-07T14:16:51.490Z",
    "source_name": "google",
    "source_query": "Irrigation Equipment",
    "source_country": "RO",
    "country": "Romania",
    "state": "Timiș County",
    "city": "Comuna Margina"
  }
]
