[
  {
    "source_id": "ChIJm2k4OBhnRUcRorlDejzLFj8",
    "name": "INTTECH INDUSTRY - Timis",
    "category": "INTTECH INDUSTRY - Timis",
    "formatted_address": "5,0(30)",
    "phone_number": "+40744323626",
    "source_url": "https://www.google.com/maps/place/INTTECH+INDUSTRY+-+Timis/data=!4m7!3m6!1s0x474567183838699b:0x3f16cb3c7a43b9a2!8m2!3d45.8007315!4d21.249204!16s%2Fg%2F11j3g9f8jq!19sChIJm2k4OBhnRUcRorlDejzLFj8?authuser=0&hl=tr&rclk=1",
    "website_url": "http://www.irrishop.ro/",
    "rating_text": "5,0",
    "stars": null,
    "number_of_reviews": null,
    "price_level": "",
    "open_hours": "",
    "extraction_timestamp": "2025-06-07T14:24:40.328Z",
    "source_name": "google",
    "source_query": "Irrigation Equipment",
    "source_country": "RO",
    "country": "Romania",
    "state": "Timiș County",
    "city": "Comuna Pişchia"
  },
  {
    "source_id": "ChIJD7OM9o1dRUcRRqlJ_yffJcE",
    "name": "Gardensis S.R.L.",
    "category": "Gardensis S.R.L.",
    "formatted_address": "4,6(16)",
    "phone_number": "+40724011591",
    "source_url": "https://www.google.com/maps/place/Gardensis+S.R.L./data=!4m7!3m6!1s0x47455d8df68cb30f:0xc125df27ff49a946!8m2!3d45.7292754!4d21.2698954!16s%2Fg%2F1hc7xr42_!19sChIJD7OM9o1dRUcRRqlJ_yffJcE?authuser=0&hl=tr&rclk=1",
    "website_url": "http://www.irigatii.ro/",
    "rating_text": "4,6",
    "stars": null,
    "number_of_reviews": null,
    "price_level": "",
    "open_hours": "",
    "extraction_timestamp": "2025-06-07T14:24:40.329Z",
    "source_name": "google",
    "source_query": "Irrigation Equipment",
    "source_country": "RO",
    "country": "Romania",
    "state": "Timiș County",
    "city": "Comuna Pişchia"
  },
  {
    "source_id": "ChIJzzGl8ApeRUcR3xJZHCGgt08",
    "name": "irigatii.ro",
    "category": "irigatii.ro",
    "formatted_address": "4,8(65)",
    "phone_number": "+40724011591",
    "source_url": "https://www.google.com/maps/place/irigatii.ro/data=!4m7!3m6!1s0x47455e0af0a531cf:0x4fb7a0211c5912df!8m2!3d45.7293134!4d21.2700735!16s%2Fg%2F1hc2p_4by!19sChIJzzGl8ApeRUcR3xJZHCGgt08?authuser=0&hl=tr&rclk=1",
    "website_url": "http://www.irigatii.ro/",
    "rating_text": "4,8",
    "stars": null,
    "number_of_reviews": null,
    "price_level": "",
    "open_hours": "",
    "extraction_timestamp": "2025-06-07T14:24:40.329Z",
    "source_name": "google",
    "source_query": "Irrigation Equipment",
    "source_country": "RO",
    "country": "Romania",
    "state": "Timiș County",
    "city": "Comuna Pişchia"
  },
  {
    "source_id": "ChIJu9QYiMJdRUcROlyKL-xy3eg",
    "name": "Fluidiqa SRL",
    "category": "Fluidiqa SRL",
    "formatted_address": "5,0(1)",
    "phone_number": "+40756100954",
    "source_url": "https://www.google.com/maps/place/Fluidiqa+SRL/data=!4m7!3m6!1s0x47455dc28818d4bb:0xe8dd72ec2f8a5c3a!8m2!3d45.7038491!4d21.1825258!16s%2Fg%2F11c61qxjzj!19sChIJu9QYiMJdRUcROlyKL-xy3eg?authuser=0&hl=tr&rclk=1",
    "website_url": "http://www.fluidiqa.ro/",
    "rating_text": "5,0",
    "stars": null,
    "number_of_reviews": null,
    "price_level": "",
    "open_hours": "",
    "extraction_timestamp": "2025-06-07T14:24:40.330Z",
    "source_name": "google",
    "source_query": "Irrigation Equipment",
    "source_country": "RO",
    "country": "Romania",
    "state": "Timiș County",
    "city": "Comuna Pişchia"
  },
  {
    "source_id": "ChIJMWnr6hJeRUcR1qATsiSFcKk",
    "name": "Irigații-S.C.Badin-sistem S.R.L.",
    "category": "Irigații-S.C.Badin-sistem S.R.L.",
    "formatted_address": "4,7(76)",
    "phone_number": "+40785111698",
    "source_url": "https://www.google.com/maps/place/Iriga%C8%9Bii-S.C.Badin-sistem+S.R.L./data=!4m7!3m6!1s0x47455e12eaeb6931:0xa9708524b213a0d6!8m2!3d45.7351861!4d21.263806!16s%2Fg%2F11c5rmlsvm!19sChIJMWnr6hJeRUcR1qATsiSFcKk?authuser=0&hl=tr&rclk=1",
    "website_url": "http://www.badinsistem.ro/",
    "rating_text": "4,7",
    "stars": null,
    "number_of_reviews": null,
    "price_level": "",
    "open_hours": "",
    "extraction_timestamp": "2025-06-07T14:24:40.330Z",
    "source_name": "google",
    "source_query": "Irrigation Equipment",
    "source_country": "RO",
    "country": "Romania",
    "state": "Timiș County",
    "city": "Comuna Pişchia"
  },
  {
    "source_id": "ChIJmUu2lf5DRUcRs735lW7LIiQ",
    "name": "Palm Garden",
    "category": "Palm Garden",
    "formatted_address": "5,0(51)",
    "phone_number": "+40720294100",
    "source_url": "https://www.google.com/maps/place/Palm+Garden/data=!4m7!3m6!1s0x474543fe95b64b99:0x2422cb6e95f9bdb3!8m2!3d45.7522588!4d21.0999943!16s%2Fg%2F11qqmjm4rs!19sChIJmUu2lf5DRUcRs735lW7LIiQ?authuser=0&hl=tr&rclk=1",
    "website_url": "https://www.palmgarden.ro/",
    "rating_text": "5,0",
    "stars": null,
    "number_of_reviews": null,
    "price_level": "",
    "open_hours": "",
    "extraction_timestamp": "2025-06-07T14:24:40.331Z",
    "source_name": "google",
    "source_query": "Irrigation Equipment",
    "source_country": "RO",
    "country": "Romania",
    "state": "Timiș County",
    "city": "Comuna Pişchia"
  },
  {
    "source_id": "ChIJzSv2gkJfRUcRSSfwAA0LWDE",
    "name": "AmA Climatic",
    "category": "AmA Climatic",
    "formatted_address": "5,0(40)",
    "phone_number": "+40730309356",
    "source_url": "https://www.google.com/maps/place/AmA+Climatic/data=!4m7!3m6!1s0x47455f4282f62bcd:0x31580b0d00f02749!8m2!3d45.7245141!4d21.2898017!16s%2Fg%2F11kpl32d52!19sChIJzSv2gkJfRUcRSSfwAA0LWDE?authuser=0&hl=tr&rclk=1",
    "website_url": "",
    "rating_text": "5,0",
    "stars": null,
    "number_of_reviews": null,
    "price_level": "",
    "open_hours": "",
    "extraction_timestamp": "2025-06-07T14:24:40.331Z",
    "source_name": "google",
    "source_query": "Irrigation Equipment",
    "source_country": "RO",
    "country": "Romania",
    "state": "Timiș County",
    "city": "Comuna Pişchia"
  },
  {
    "source_id": "ChIJefZ1BABDRUcRaUMQHlcPupw",
    "name": "Stația de pompare Utvin (mal drept)",
    "category": "Stația de pompare Utvin (mal drept)",
    "formatted_address": "5,0(1)",
    "phone_number": "",
    "source_url": "https://www.google.com/maps/place/Sta%C8%9Bia+de+pompare+Utvin+%28mal+drept%29/data=!4m7!3m6!1s0x474543000475f679:0x9cba0f571e104369!8m2!3d45.717913!4d21.1221141!16s%2Fg%2F11vz4k1pr9!19sChIJefZ1BABDRUcRaUMQHlcPupw?authuser=0&hl=tr&rclk=1",
    "website_url": "",
    "rating_text": "5,0",
    "stars": null,
    "number_of_reviews": null,
    "price_level": "",
    "open_hours": "",
    "extraction_timestamp": "2025-06-07T14:24:40.331Z",
    "source_name": "google",
    "source_query": "Irrigation Equipment",
    "source_country": "RO",
    "country": "Romania",
    "state": "Timiș County",
    "city": "Comuna Pişchia"
  },
  {
    "source_id": "ChIJj_KW7oFdRUcRM8oUP8aWZco",
    "name": "Hidropump S.R.L.",
    "category": "Hidropump S.R.L.",
    "formatted_address": "4,6(22)",
    "phone_number": "+40724519545",
    "source_url": "https://www.google.com/maps/place/Hidropump+S.R.L./data=!4m7!3m6!1s0x47455d81ee96f28f:0xca6596c63f14ca33!8m2!3d45.8116595!4d21.2623818!16s%2Fg%2F1w0p4dfv!19sChIJj_KW7oFdRUcRM8oUP8aWZco?authuser=0&hl=tr&rclk=1",
    "website_url": "https://hidropump.ro/",
    "rating_text": "4,6",
    "stars": null,
    "number_of_reviews": null,
    "price_level": "",
    "open_hours": "",
    "extraction_timestamp": "2025-06-07T14:24:40.332Z",
    "source_name": "google",
    "source_query": "Irrigation Equipment",
    "source_country": "RO",
    "country": "Romania",
    "state": "Timiș County",
    "city": "Comuna Pişchia"
  },
  {
    "source_id": "ChIJNVF0JZyZRUcROrGIQqRikNo",
    "name": "Sc Irigarden Srl",
    "category": "Sc Irigarden Srl",
    "formatted_address": "4,7(52)",
    "phone_number": "+40744310125",
    "source_url": "https://www.google.com/maps/place/Sc+Irigarden+Srl/data=!4m7!3m6!1s0x4745999c25745135:0xda9062a44288b13a!8m2!3d46.14823!4d21.328789!16s%2Fg%2F1tp0cg5b!19sChIJNVF0JZyZRUcROrGIQqRikNo?authuser=0&hl=tr&rclk=1",
    "website_url": "https://www.irigarden.ro/",
    "rating_text": "4,7",
    "stars": null,
    "number_of_reviews": null,
    "price_level": "",
    "open_hours": "",
    "extraction_timestamp": "2025-06-07T14:24:40.332Z",
    "source_name": "google",
    "source_query": "Irrigation Equipment",
    "source_country": "RO",
    "country": "Romania",
    "state": "Timiș County",
    "city": "Comuna Pişchia"
  },
  {
    "source_id": "ChIJgURmzti_T0cRTeWnAxxIKb0",
    "name": "RURAL PLANT SRL",
    "category": "RURAL PLANT SRL",
    "formatted_address": "4,7(39)",
    "phone_number": "+40761231076",
    "source_url": "https://www.google.com/maps/place/RURAL+PLANT+SRL/data=!4m7!3m6!1s0x474fbfd8ce664481:0xbd29481c03a7e54d!8m2!3d45.6838012!4d21.9072438!16s%2Fg%2F11gl20ty7c!19sChIJgURmzti_T0cRTeWnAxxIKb0?authuser=0&hl=tr&rclk=1",
    "website_url": "https://ruralplant.ro/",
    "rating_text": "4,7",
    "stars": null,
    "number_of_reviews": null,
    "price_level": "",
    "open_hours": "",
    "extraction_timestamp": "2025-06-07T14:24:40.333Z",
    "source_name": "google",
    "source_query": "Irrigation Equipment",
    "source_country": "RO",
    "country": "Romania",
    "state": "Timiș County",
    "city": "Comuna Pişchia"
  },
  {
    "source_id": "ChIJhxenMwBHRUcRsFkQG6V4s6c",
    "name": "Stația de pompare Proletarul (mal drept)",
    "category": "Stația de pompare Proletarul (mal drept)",
    "formatted_address": "5,0(1)",
    "phone_number": "",
    "source_url": "https://www.google.com/maps/place/Sta%C8%9Bia+de+pompare+Proletarul+%28mal+drept%29/data=!4m7!3m6!1s0x4745470033a71787:0xa7b378a51b1059b0!8m2!3d45.6702049!4d20.9801263!16s%2Fg%2F11vx5grzy_!19sChIJhxenMwBHRUcRsFkQG6V4s6c?authuser=0&hl=tr&rclk=1",
    "website_url": "",
    "rating_text": "5,0",
    "stars": null,
    "number_of_reviews": null,
    "price_level": "",
    "open_hours": "",
    "extraction_timestamp": "2025-06-07T14:24:40.333Z",
    "source_name": "google",
    "source_query": "Irrigation Equipment",
    "source_country": "RO",
    "country": "Romania",
    "state": "Timiș County",
    "city": "Comuna Pişchia"
  },
  {
    "source_id": "ChIJ5WSJMaJdRUcRDBPN8TlgxKI",
    "name": "Infinitrade-Romania - Piese de schimb pt. mentenanta si echipamente industriale",
    "category": "Infinitrade-Romania - Piese de schimb pt. mentenanta si echipamente industriale",
    "formatted_address": "3,8(12)",
    "phone_number": "+40371232404",
    "source_url": "https://www.google.com/maps/place/Infinitrade-Romania+-+Piese+de+schimb+pt.+mentenanta+si+echipamente+industriale/data=!4m7!3m6!1s0x47455da2318964e5:0xa2c46039f1cd130c!8m2!3d45.7757739!4d21.2999637!16s%2Fg%2F11h9z7l0cp!19sChIJ5WSJMaJdRUcRDBPN8TlgxKI?authuser=0&hl=tr&rclk=1",
    "website_url": "https://infinitrade-romania.ro/",
    "rating_text": "3,8",
    "stars": null,
    "number_of_reviews": null,
    "price_level": "",
    "open_hours": "",
    "extraction_timestamp": "2025-06-07T14:24:40.333Z",
    "source_name": "google",
    "source_query": "Irrigation Equipment",
    "source_country": "RO",
    "country": "Romania",
    "state": "Timiș County",
    "city": "Comuna Pişchia"
  },
  {
    "source_id": "ChIJu3QMYXRdRUcRJ2-T1_nXT6U",
    "name": "Marprest",
    "category": "Marprest",
    "formatted_address": "5,0(1)",
    "phone_number": "+40721795322",
    "source_url": "https://www.google.com/maps/place/Marprest/data=!4m7!3m6!1s0x47455d74610c74bb:0xa54fd7f9d7936f27!8m2!3d45.7291043!4d21.2078843!16s%2Fg%2F11c1vmmqkp!19sChIJu3QMYXRdRUcRJ2-T1_nXT6U?authuser=0&hl=tr&rclk=1",
    "website_url": "http://www.marprest.ro/",
    "rating_text": "5,0",
    "stars": null,
    "number_of_reviews": null,
    "price_level": "",
    "open_hours": "",
    "extraction_timestamp": "2025-06-07T14:24:40.334Z",
    "source_name": "google",
    "source_query": "Irrigation Equipment",
    "source_country": "RO",
    "country": "Romania",
    "state": "Timiș County",
    "city": "Comuna Pişchia"
  },
  {
    "source_id": "ChIJlQLiYwBHRUcRvpMe14mSt7s",
    "name": "Priza de apă Aurélháza/Răuți (Bega, mal drept)",
    "category": "Priza de apă Aurélháza/Răuți (Bega, mal drept)",
    "formatted_address": "Priza de apă Aurélháza/Răuți (Bega, mal drept)",
    "phone_number": "",
    "source_url": "https://www.google.com/maps/place/Priza+de+ap%C4%83+Aur%C3%A9lh%C3%A1za%2FR%C4%83u%C8%9Bi+%28Bega,+mal+drept%29/data=!4m7!3m6!1s0x4745470063e20295:0xbbb79289d71e93be!8m2!3d45.6594252!4d20.9280531!16s%2Fg%2F11y50fyqnc!19sChIJlQLiYwBHRUcRvpMe14mSt7s?authuser=0&hl=tr&rclk=1",
    "website_url": "",
    "rating_text": "5,0",
    "stars": null,
    "number_of_reviews": null,
    "price_level": "",
    "open_hours": "",
    "extraction_timestamp": "2025-06-07T14:24:40.334Z",
    "source_name": "google",
    "source_query": "Irrigation Equipment",
    "source_country": "RO",
    "country": "Romania",
    "state": "Timiș County",
    "city": "Comuna Pişchia"
  },
  {
    "source_id": "ChIJhYgctPWRT0cRe9Nm2HJCq4k",
    "name": "Magazia lu' Costica Banat",
    "category": "Magazia lu' Costica Banat",
    "formatted_address": "4,7(6)",
    "phone_number": "+40761231076",
    "source_url": "https://www.google.com/maps/place/Magazia+lu%27+Costica+Banat/data=!4m7!3m6!1s0x474f91f5b41c8885:0x89ab4272d866d37b!8m2!3d45.7633017!4d21.7277277!16s%2Fg%2F11vpj66knt!19sChIJhYgctPWRT0cRe9Nm2HJCq4k?authuser=0&hl=tr&rclk=1",
    "website_url": "https://www.ruralplant.ro/",
    "rating_text": "4,7",
    "stars": null,
    "number_of_reviews": null,
    "price_level": "",
    "open_hours": "",
    "extraction_timestamp": "2025-06-07T14:24:40.334Z",
    "source_name": "google",
    "source_query": "Irrigation Equipment",
    "source_country": "RO",
    "country": "Romania",
    "state": "Timiș County",
    "city": "Comuna Pişchia"
  },
  {
    "source_id": "ChIJcUVxnDaZRUcRUbUn3okKfP4",
    "name": "SC Tehnica Irigatii-Lacuri Decorative SRL",
    "category": "SC Tehnica Irigatii-Lacuri Decorative SRL",
    "formatted_address": "4,9(32)",
    "phone_number": "+40731208755",
    "source_url": "https://www.google.com/maps/place/SC+Tehnica+Irigatii-Lacuri+Decorative+SRL/data=!4m7!3m6!1s0x474599369c714571:0xfe7c0a89de27b551!8m2!3d46.1409626!4d21.3164797!16s%2Fg%2F11c6vbxz0v!19sChIJcUVxnDaZRUcRUbUn3okKfP4?authuser=0&hl=tr&rclk=1",
    "website_url": "https://www.tehnicairigatii.ro/",
    "rating_text": "4,9",
    "stars": null,
    "number_of_reviews": null,
    "price_level": "",
    "open_hours": "",
    "extraction_timestamp": "2025-06-07T14:24:40.335Z",
    "source_name": "google",
    "source_query": "Irrigation Equipment",
    "source_country": "RO",
    "country": "Romania",
    "state": "Timiș County",
    "city": "Comuna Pişchia"
  },
  {
    "source_id": "ChIJxbH83mNnRUcRXCZtZxeQlHA",
    "name": "Potop Company S.R.L",
    "category": "Potop Company S.R.L",
    "formatted_address": "4,5(60)",
    "phone_number": "+40737032555",
    "source_url": "https://www.google.com/maps/place/Potop+Company+S.R.L/data=!4m7!3m6!1s0x47456763defcb1c5:0x70949017676d265c!8m2!3d45.7544149!4d21.2493535!16s%2Fg%2F11c1tm1cdp!19sChIJxbH83mNnRUcRXCZtZxeQlHA?authuser=0&hl=tr&rclk=1",
    "website_url": "",
    "rating_text": "4,5",
    "stars": null,
    "number_of_reviews": null,
    "price_level": "",
    "open_hours": "",
    "extraction_timestamp": "2025-06-07T14:24:40.335Z",
    "source_name": "google",
    "source_query": "Irrigation Equipment",
    "source_country": "RO",
    "country": "Romania",
    "state": "Timiș County",
    "city": "Comuna Pişchia"
  },
  {
    "source_id": "ChIJWwlqo3dnRUcRE1PZAJWOvC4",
    "name": "Uniprest Instal",
    "category": "Uniprest Instal",
    "formatted_address": "4,3(30)",
    "phone_number": "+40771294435",
    "source_url": "https://www.google.com/maps/place/Uniprest+Instal/data=!4m7!3m6!1s0x47456777a36a095b:0x2ebc8e9500d95313!8m2!3d45.7776432!4d21.3081463!16s%2Fg%2F11c5h1r7db!19sChIJWwlqo3dnRUcRE1PZAJWOvC4?authuser=0&hl=tr&rclk=1",
    "website_url": "http://www.uniprest.ro/",
    "rating_text": "4,3",
    "stars": null,
    "number_of_reviews": null,
    "price_level": "",
    "open_hours": "",
    "extraction_timestamp": "2025-06-07T14:24:40.336Z",
    "source_name": "google",
    "source_query": "Irrigation Equipment",
    "source_country": "RO",
    "country": "Romania",
    "state": "Timiș County",
    "city": "Comuna Pişchia"
  },
  {
    "source_id": "ChIJVw2ETl1dRUcRruHEnh6DBo4",
    "name": "Instalator Timisoara Non Stop - Instalatii Sanitare - Montaj Centrala Termica - Apa - Desfundare Canalizare",
    "category": "Instalator Timisoara Non Stop - Instalatii Sanitare - Montaj Centrala Termica - Apa - Desfundare Canalizare",
    "formatted_address": "5,0(1)",
    "phone_number": "+40376300656",
    "source_url": "https://www.google.com/maps/place/Instalator+Timisoara+Non+Stop+-+Instalatii+Sanitare+-+Montaj+Centrala+Termica+-+Apa+-+Desfundare+Canalizare/data=!4m7!3m6!1s0x47455d5d4e840d57:0x8e06831e9ec4e1ae!8m2!3d45.7551681!4d21.2218989!16s%2Fg%2F11xgnytzbn!19sChIJVw2ETl1dRUcRruHEnh6DBo4?authuser=0&hl=tr&rclk=1",
    "website_url": "https://expertilocali.ro/instalator-timisoara/",
    "rating_text": "5,0",
    "stars": null,
    "number_of_reviews": null,
    "price_level": "",
    "open_hours": "",
    "extraction_timestamp": "2025-06-07T14:24:40.336Z",
    "source_name": "google",
    "source_query": "Irrigation Equipment",
    "source_country": "RO",
    "country": "Romania",
    "state": "Timiș County",
    "city": "Comuna Pişchia"
  },
  {
    "source_id": "ChIJdZGW41dnRUcR5r-_ISinHhI",
    "name": "doWell - INSTALATII -",
    "category": "doWell - INSTALATII -",
    "formatted_address": "4,9(73)",
    "phone_number": "+40731134222",
    "source_url": "https://www.google.com/maps/place/doWell+-+INSTALATII+-/data=!4m7!3m6!1s0x47456757e3969175:0x121ea72821bfbfe6!8m2!3d45.7826293!4d21.2283964!16s%2Fg%2F11rtg291v0!19sChIJdZGW41dnRUcR5r-_ISinHhI?authuser=0&hl=tr&rclk=1",
    "website_url": "http://www.dowell.ro/",
    "rating_text": "4,9",
    "stars": null,
    "number_of_reviews": null,
    "price_level": "",
    "open_hours": "",
    "extraction_timestamp": "2025-06-07T14:24:40.336Z",
    "source_name": "google",
    "source_query": "Irrigation Equipment",
    "source_country": "RO",
    "country": "Romania",
    "state": "Timiș County",
    "city": "Comuna Pişchia"
  },
  {
    "source_id": "ChIJm7LzDSVdRUcR34Uc2p2s4RM",
    "name": "Constructii Piscine Timisoara - BDA GROUP",
    "category": "Constructii Piscine Timisoara - BDA GROUP",
    "formatted_address": "5,0(11)",
    "phone_number": "+40759024236",
    "source_url": "https://www.google.com/maps/place/Constructii+Piscine+Timisoara+-+BDA+GROUP/data=!4m7!3m6!1s0x47455d250df3b29b:0x13e1ac9dda1c85df!8m2!3d45.7431083!4d21.2132351!16s%2Fg%2F11y4xjv8l5!19sChIJm7LzDSVdRUcR34Uc2p2s4RM?authuser=0&hl=tr&rclk=1",
    "website_url": "https://bdagroup.ro/",
    "rating_text": "5,0",
    "stars": null,
    "number_of_reviews": null,
    "price_level": "",
    "open_hours": "",
    "extraction_timestamp": "2025-06-07T14:24:40.337Z",
    "source_name": "google",
    "source_query": "Irrigation Equipment",
    "source_country": "RO",
    "country": "Romania",
    "state": "Timiș County",
    "city": "Comuna Pişchia"
  },
  {
    "source_id": "ChIJ2yZvZb5dRUcRP2CPcc58LgU",
    "name": "Sulfatim SRL Timisoara",
    "category": "Sulfatim SRL Timisoara",
    "formatted_address": "5,0(50)",
    "phone_number": "+40730900200",
    "source_url": "https://www.google.com/maps/place/Sulfatim+SRL+Timisoara/data=!4m7!3m6!1s0x47455dbe656f26db:0x52e7cce718f603f!8m2!3d45.7323311!4d21.2336105!16s%2Fg%2F11c553_r_k!19sChIJ2yZvZb5dRUcRP2CPcc58LgU?authuser=0&hl=tr&rclk=1",
    "website_url": "https://sulfatim.ro/",
    "rating_text": "5,0",
    "stars": null,
    "number_of_reviews": null,
    "price_level": "",
    "open_hours": "",
    "extraction_timestamp": "2025-06-07T14:24:40.337Z",
    "source_name": "google",
    "source_query": "Irrigation Equipment",
    "source_country": "RO",
    "country": "Romania",
    "state": "Timiș County",
    "city": "Comuna Pişchia"
  },
  {
    "source_id": "ChIJC6g01QBnRUcRxXJBepvvwpw",
    "name": "Agri Alianta SRL",
    "category": "Agri Alianta SRL",
    "formatted_address": "4,5(4)",
    "phone_number": "",
    "source_url": "https://www.google.com/maps/place/Agri+Alianta+SRL/data=!4m7!3m6!1s0x47456700d534a80b:0x9cc2ef9b7a4172c5!8m2!3d45.7745832!4d21.2995893!16s%2Fg%2F11hds34hqr!19sChIJC6g01QBnRUcRxXJBepvvwpw?authuser=0&hl=tr&rclk=1",
    "website_url": "",
    "rating_text": "4,5",
    "stars": null,
    "number_of_reviews": null,
    "price_level": "",
    "open_hours": "",
    "extraction_timestamp": "2025-06-07T14:24:40.337Z",
    "source_name": "google",
    "source_query": "Irrigation Equipment",
    "source_country": "RO",
    "country": "Romania",
    "state": "Timiș County",
    "city": "Comuna Pişchia"
  },
  {
    "source_id": "ChIJPcU4VpBnRUcRQikVyq_fOYI",
    "name": "Romstal",
    "category": "Romstal",
    "formatted_address": "4,2(248)",
    "phone_number": "+40372123110",
    "source_url": "https://www.google.com/maps/place/Romstal/data=!4m7!3m6!1s0x474567905638c53d:0x8239dfafca152942!8m2!3d45.7685415!4d21.2211134!16s%2Fg%2F1tycvf85!19sChIJPcU4VpBnRUcRQikVyq_fOYI?authuser=0&hl=tr&rclk=1",
    "website_url": "http://www.romstal.ro/",
    "rating_text": "4,2",
    "stars": null,
    "number_of_reviews": null,
    "price_level": "",
    "open_hours": "",
    "extraction_timestamp": "2025-06-07T14:24:40.338Z",
    "source_name": "google",
    "source_query": "Irrigation Equipment",
    "source_country": "RO",
    "country": "Romania",
    "state": "Timiș County",
    "city": "Comuna Pişchia"
  },
  {
    "source_id": "ChIJIYpADkdnRUcRYhFMyNr5B6Y",
    "name": "Landscape Experts - SC FACULTATIV DEZVOLTARE SRL",
    "category": "Landscape Experts - SC FACULTATIV DEZVOLTARE SRL",
    "formatted_address": "5,0(3)",
    "phone_number": "+40720627264",
    "source_url": "https://www.google.com/maps/place/Landscape+Experts+-+SC+FACULTATIV+DEZVOLTARE+SRL/data=!4m7!3m6!1s0x474567470e408a21:0xa607f9dac84c1162!8m2!3d45.7836652!4d21.2066845!16s%2Fg%2F11ryt3szcr!19sChIJIYpADkdnRUcRYhFMyNr5B6Y?authuser=0&hl=tr&rclk=1",
    "website_url": "http://www.l-e.ro/",
    "rating_text": "5,0",
    "stars": null,
    "number_of_reviews": null,
    "price_level": "",
    "open_hours": "",
    "extraction_timestamp": "2025-06-07T14:24:40.338Z",
    "source_name": "google",
    "source_query": "Irrigation Equipment",
    "source_country": "RO",
    "country": "Romania",
    "state": "Timiș County",
    "city": "Comuna Pişchia"
  },
  {
    "source_id": "ChIJh3Fb0ElnRUcRG64eohRJY9Q",
    "name": "Hydroline",
    "category": "Hydroline",
    "formatted_address": "4,7(51)",
    "phone_number": "+40256499714",
    "source_url": "https://www.google.com/maps/place/Hydroline/data=!4m7!3m6!1s0x47456749d05b7187:0xd4634914a21eae1b!8m2!3d45.7634781!4d21.2841228!16s%2Fg%2F1tmgb6j2!19sChIJh3Fb0ElnRUcRG64eohRJY9Q?authuser=0&hl=tr&rclk=1",
    "website_url": "https://hydroline.ro/",
    "rating_text": "4,7",
    "stars": null,
    "number_of_reviews": null,
    "price_level": "",
    "open_hours": "",
    "extraction_timestamp": "2025-06-07T14:24:40.338Z",
    "source_name": "google",
    "source_query": "Irrigation Equipment",
    "source_country": "RO",
    "country": "Romania",
    "state": "Timiș County",
    "city": "Comuna Pişchia"
  },
  {
    "source_id": "ChIJjQWIZk1cRUcRCva52mD1Krc",
    "name": "Agri Inovatie",
    "category": "Agri Inovatie",
    "formatted_address": "5,0(1)",
    "phone_number": "+40759040364",
    "source_url": "https://www.google.com/maps/place/Agri+Inovatie/data=!4m7!3m6!1s0x47455c4d6688058d:0xb72af560dab9f60a!8m2!3d45.7166659!4d21.213804!16s%2Fg%2F11flzgyqs5!19sChIJjQWIZk1cRUcRCva52mD1Krc?authuser=0&hl=tr&rclk=1",
    "website_url": "https://agri-inovatie.ro/",
    "rating_text": "5,0",
    "stars": null,
    "number_of_reviews": null,
    "price_level": "",
    "open_hours": "",
    "extraction_timestamp": "2025-06-07T14:24:40.339Z",
    "source_name": "google",
    "source_query": "Irrigation Equipment",
    "source_country": "RO",
    "country": "Romania",
    "state": "Timiș County",
    "city": "Comuna Pişchia"
  },
  {
    "source_id": "ChIJswFoFGxdRUcR7FncKGqo66Q",
    "name": "Vasi' Gradinaru' - Servicii Gradinarit Timisoara",
    "category": "Vasi' Gradinaru' - Servicii Gradinarit Timisoara",
    "formatted_address": "4,9(53)",
    "phone_number": "+40728688758",
    "source_url": "https://www.google.com/maps/place/Vasi%27+Gradinaru%27+-+Servicii+Gradinarit+Timisoara/data=!4m7!3m6!1s0x47455d6c146801b3:0xa4eba86a28dc59ec!8m2!3d45.7452851!4d21.198661!16s%2Fg%2F11c713wgl6!19sChIJswFoFGxdRUcR7FncKGqo66Q?authuser=0&hl=tr&rclk=1",
    "website_url": "https://www.vasigradinaru.ro/",
    "rating_text": "4,9",
    "stars": null,
    "number_of_reviews": null,
    "price_level": "",
    "open_hours": "",
    "extraction_timestamp": "2025-06-07T14:24:40.339Z",
    "source_name": "google",
    "source_query": "Irrigation Equipment",
    "source_country": "RO",
    "country": "Romania",
    "state": "Timiș County",
    "city": "Comuna Pişchia"
  },
  {
    "source_id": "ChIJw-YksvWYRUcRkVBvDN1DkDU",
    "name": "Bendea",
    "category": "Bendea",
    "formatted_address": "4,3(53)",
    "phone_number": "+40751094705",
    "source_url": "https://www.google.com/maps/place/Bendea/data=!4m7!3m6!1s0x474598f5b224e6c3:0x359043dd0c6f5091!8m2!3d46.1779225!4d21.2955464!16s%2Fg%2F11c1nfbk3c!19sChIJw-YksvWYRUcRkVBvDN1DkDU?authuser=0&hl=tr&rclk=1",
    "website_url": "",
    "rating_text": "4,3",
    "stars": null,
    "number_of_reviews": null,
    "price_level": "",
    "open_hours": "",
    "extraction_timestamp": "2025-06-07T14:24:40.339Z",
    "source_name": "google",
    "source_query": "Irrigation Equipment",
    "source_country": "RO",
    "country": "Romania",
    "state": "Timiș County",
    "city": "Comuna Pişchia"
  },
  {
    "source_id": "ChIJj7-7za2ZRUcR6M_jOJcGFjk",
    "name": "Agronomo - motounelte Arad",
    "category": "Agronomo - motounelte Arad",
    "formatted_address": "4,3(146)",
    "phone_number": "+40759927777",
    "source_url": "https://www.google.com/maps/place/Agronomo+-+motounelte+Arad/data=!4m7!3m6!1s0x474599adcdbbbf8f:0x3916069738e3cfe8!8m2!3d46.198694!4d21.3377498!16s%2Fg%2F11mr99fc3s!19sChIJj7-7za2ZRUcR6M_jOJcGFjk?authuser=0&hl=tr&rclk=1",
    "website_url": "http://agronomo.ro/",
    "rating_text": "4,3",
    "stars": null,
    "number_of_reviews": null,
    "price_level": "",
    "open_hours": "",
    "extraction_timestamp": "2025-06-07T14:24:40.340Z",
    "source_name": "google",
    "source_query": "Irrigation Equipment",
    "source_country": "RO",
    "country": "Romania",
    "state": "Timiș County",
    "city": "Comuna Pişchia"
  }
]
