[
  {
    "source_id": "ChIJm2k4OBhnRUcRorlDejzLFj8",
    "name": "INTTECH INDUSTRY - Timis",
    "category": "INTTECH INDUSTRY - Timis",
    "formatted_address": "5,0(30)",
    "phone_number": "+40744323626",
    "source_url": "https://www.google.com/maps/place/INTTECH+INDUSTRY+-+Timis/data=!4m7!3m6!1s0x474567183838699b:0x3f16cb3c7a43b9a2!8m2!3d45.8007315!4d21.249204!16s%2Fg%2F11j3g9f8jq!19sChIJm2k4OBhnRUcRorlDejzLFj8?authuser=0&hl=tr&rclk=1",
    "website_url": "http://www.irrishop.ro/",
    "rating_text": "5,0",
    "stars": null,
    "number_of_reviews": null,
    "price_level": "",
    "open_hours": "",
    "extraction_timestamp": "2025-06-07T14:13:28.041Z",
    "source_name": "google",
    "source_query": "Irrigation Equipment",
    "source_country": "RO",
    "country": "Romania",
    "state": "Timiș County",
    "city": "Comuna Giulvăz"
  },
  {
    "source_id": "ChIJD7OM9o1dRUcRRqlJ_yffJcE",
    "name": "Gardensis S.R.L.",
    "category": "Gardensis S.R.L.",
    "formatted_address": "4,6(16)",
    "phone_number": "+40724011591",
    "source_url": "https://www.google.com/maps/place/Gardensis+S.R.L./data=!4m7!3m6!1s0x47455d8df68cb30f:0xc125df27ff49a946!8m2!3d45.7292754!4d21.2698954!16s%2Fg%2F1hc7xr42_!19sChIJD7OM9o1dRUcRRqlJ_yffJcE?authuser=0&hl=tr&rclk=1",
    "website_url": "http://www.irigatii.ro/",
    "rating_text": "4,6",
    "stars": null,
    "number_of_reviews": null,
    "price_level": "",
    "open_hours": "",
    "extraction_timestamp": "2025-06-07T14:13:28.042Z",
    "source_name": "google",
    "source_query": "Irrigation Equipment",
    "source_country": "RO",
    "country": "Romania",
    "state": "Timiș County",
    "city": "Comuna Giulvăz"
  },
  {
    "source_id": "ChIJMWnr6hJeRUcR1qATsiSFcKk",
    "name": "Irigații-S.C.Badin-sistem S.R.L.",
    "category": "Irigații-S.C.Badin-sistem S.R.L.",
    "formatted_address": "4,7(76)",
    "phone_number": "+40785111698",
    "source_url": "https://www.google.com/maps/place/Iriga%C8%9Bii-S.C.Badin-sistem+S.R.L./data=!4m7!3m6!1s0x47455e12eaeb6931:0xa9708524b213a0d6!8m2!3d45.7351861!4d21.263806!16s%2Fg%2F11c5rmlsvm!19sChIJMWnr6hJeRUcR1qATsiSFcKk?authuser=0&hl=tr&rclk=1",
    "website_url": "http://www.badinsistem.ro/",
    "rating_text": "4,7",
    "stars": null,
    "number_of_reviews": null,
    "price_level": "",
    "open_hours": "",
    "extraction_timestamp": "2025-06-07T14:13:28.043Z",
    "source_name": "google",
    "source_query": "Irrigation Equipment",
    "source_country": "RO",
    "country": "Romania",
    "state": "Timiș County",
    "city": "Comuna Giulvăz"
  },
  {
    "source_id": "ChIJu9QYiMJdRUcROlyKL-xy3eg",
    "name": "Fluidiqa SRL",
    "category": "Fluidiqa SRL",
    "formatted_address": "5,0(1)",
    "phone_number": "+40756100954",
    "source_url": "https://www.google.com/maps/place/Fluidiqa+SRL/data=!4m7!3m6!1s0x47455dc28818d4bb:0xe8dd72ec2f8a5c3a!8m2!3d45.7038491!4d21.1825258!16s%2Fg%2F11c61qxjzj!19sChIJu9QYiMJdRUcROlyKL-xy3eg?authuser=0&hl=tr&rclk=1",
    "website_url": "http://www.fluidiqa.ro/",
    "rating_text": "5,0",
    "stars": null,
    "number_of_reviews": null,
    "price_level": "",
    "open_hours": "",
    "extraction_timestamp": "2025-06-07T14:13:28.048Z",
    "source_name": "google",
    "source_query": "Irrigation Equipment",
    "source_country": "RO",
    "country": "Romania",
    "state": "Timiș County",
    "city": "Comuna Giulvăz"
  },
  {
    "source_id": "ChIJzzGl8ApeRUcR3xJZHCGgt08",
    "name": "irigatii.ro",
    "category": "irigatii.ro",
    "formatted_address": "4,8(65)",
    "phone_number": "+40724011591",
    "source_url": "https://www.google.com/maps/place/irigatii.ro/data=!4m7!3m6!1s0x47455e0af0a531cf:0x4fb7a0211c5912df!8m2!3d45.7293134!4d21.2700735!16s%2Fg%2F1hc2p_4by!19sChIJzzGl8ApeRUcR3xJZHCGgt08?authuser=0&hl=tr&rclk=1",
    "website_url": "http://www.irigatii.ro/",
    "rating_text": "4,8",
    "stars": null,
    "number_of_reviews": null,
    "price_level": "",
    "open_hours": "",
    "extraction_timestamp": "2025-06-07T14:13:28.048Z",
    "source_name": "google",
    "source_query": "Irrigation Equipment",
    "source_country": "RO",
    "country": "Romania",
    "state": "Timiș County",
    "city": "Comuna Giulvăz"
  },
  {
    "source_id": "ChIJRfP0aQZNRUcRmOKwJkjeaTo",
    "name": "DORTON PREST SRL",
    "category": "DORTON PREST SRL",
    "formatted_address": "5,0(1)",
    "phone_number": "+40721277340",
    "source_url": "https://www.google.com/maps/place/DORTON+PREST+SRL/data=!4m7!3m6!1s0x47454d0669f4f345:0x3a69de4826b0e298!8m2!3d45.5494676!4d20.9794952!16s%2Fg%2F11ks0j2_k5!19sChIJRfP0aQZNRUcRmOKwJkjeaTo?authuser=0&hl=tr&rclk=1",
    "website_url": "https://www.dorton.ro/",
    "rating_text": "5,0",
    "stars": null,
    "number_of_reviews": null,
    "price_level": "",
    "open_hours": "",
    "extraction_timestamp": "2025-06-07T14:13:28.049Z",
    "source_name": "google",
    "source_query": "Irrigation Equipment",
    "source_country": "RO",
    "country": "Romania",
    "state": "Timiș County",
    "city": "Comuna Giulvăz"
  },
  {
    "source_id": "ChIJVSBQCOxNRUcRzWhqz1Nktw4",
    "name": "Popagra S.R.L.",
    "category": "Popagra S.R.L.",
    "formatted_address": "5,0(3)",
    "phone_number": "+40742047477",
    "source_url": "https://www.google.com/maps/place/Popagra+S.R.L./data=!4m7!3m6!1s0x47454dec08502055:0xeb76453cf6a68cd!8m2!3d45.5549015!4d20.9930457!16s%2Fg%2F1hc8l79qh!19sChIJVSBQCOxNRUcRzWhqz1Nktw4?authuser=0&hl=tr&rclk=1",
    "website_url": "https://www.listafirme.ro/popagra-srl-16774024/",
    "rating_text": "5,0",
    "stars": null,
    "number_of_reviews": null,
    "price_level": "",
    "open_hours": "",
    "extraction_timestamp": "2025-06-07T14:13:28.049Z",
    "source_name": "google",
    "source_query": "Irrigation Equipment",
    "source_country": "RO",
    "country": "Romania",
    "state": "Timiș County",
    "city": "Comuna Giulvăz"
  },
  {
    "source_id": "ChIJcUVxnDaZRUcRUbUn3okKfP4",
    "name": "SC Tehnica Irigatii-Lacuri Decorative SRL",
    "category": "SC Tehnica Irigatii-Lacuri Decorative SRL",
    "formatted_address": "4,9(32)",
    "phone_number": "+40731208755",
    "source_url": "https://www.google.com/maps/place/SC+Tehnica+Irigatii-Lacuri+Decorative+SRL/data=!4m7!3m6!1s0x474599369c714571:0xfe7c0a89de27b551!8m2!3d46.1409626!4d21.3164797!16s%2Fg%2F11c6vbxz0v!19sChIJcUVxnDaZRUcRUbUn3okKfP4?authuser=0&hl=tr&rclk=1",
    "website_url": "https://www.tehnicairigatii.ro/",
    "rating_text": "4,9",
    "stars": null,
    "number_of_reviews": null,
    "price_level": "",
    "open_hours": "",
    "extraction_timestamp": "2025-06-07T14:13:28.049Z",
    "source_name": "google",
    "source_query": "Irrigation Equipment",
    "source_country": "RO",
    "country": "Romania",
    "state": "Timiș County",
    "city": "Comuna Giulvăz"
  },
  {
    "source_id": "ChIJNVF0JZyZRUcROrGIQqRikNo",
    "name": "Sc Irigarden Srl",
    "category": "Sc Irigarden Srl",
    "formatted_address": "4,7(52)",
    "phone_number": "+40744310125",
    "source_url": "https://www.google.com/maps/place/Sc+Irigarden+Srl/data=!4m7!3m6!1s0x4745999c25745135:0xda9062a44288b13a!8m2!3d46.14823!4d21.328789!16s%2Fg%2F1tp0cg5b!19sChIJNVF0JZyZRUcROrGIQqRikNo?authuser=0&hl=tr&rclk=1",
    "website_url": "https://www.irigarden.ro/",
    "rating_text": "4,7",
    "stars": null,
    "number_of_reviews": null,
    "price_level": "",
    "open_hours": "",
    "extraction_timestamp": "2025-06-07T14:13:28.050Z",
    "source_name": "google",
    "source_query": "Irrigation Equipment",
    "source_country": "RO",
    "country": "Romania",
    "state": "Timiș County",
    "city": "Comuna Giulvăz"
  },
  {
    "source_id": "ChIJ2yyu2u-ZRUcRAentcQp81yg",
    "name": "Fish farm accesorii iaz, pesti, sisteme de irigatii",
    "category": "Fish farm accesorii iaz, pesti, sisteme de irigatii",
    "formatted_address": "Fish farm accesorii iaz, pesti, sisteme de irigatii",
    "phone_number": "+40756060729",
    "source_url": "https://www.google.com/maps/place/Fish+farm+accesorii+iaz,+pesti,+sisteme+de+irigatii/data=!4m7!3m6!1s0x474599efdaae2cdb:0x28d77c0a71ede901!8m2!3d46.1692156!4d21.2834742!16s%2Fg%2F11gr2fbfdv!19sChIJ2yyu2u-ZRUcRAentcQp81yg?authuser=0&hl=tr&rclk=1",
    "website_url": "http://www.fish-farm.ro/",
    "rating_text": "2,9",
    "stars": null,
    "number_of_reviews": null,
    "price_level": "",
    "open_hours": "",
    "extraction_timestamp": "2025-06-07T14:13:28.050Z",
    "source_name": "google",
    "source_query": "Irrigation Equipment",
    "source_country": "RO",
    "country": "Romania",
    "state": "Timiș County",
    "city": "Comuna Giulvăz"
  },
  {
    "source_id": "ChIJtyU70chPRUcRQ5GNiHtF8AQ",
    "name": "AGRO BADEN BANAT SRL",
    "category": "AGRO BADEN BANAT SRL",
    "formatted_address": "5,0(19)",
    "phone_number": "+40742357999",
    "source_url": "https://www.google.com/maps/place/AGRO+BADEN+BANAT+SRL/data=!4m7!3m6!1s0x47454fc8d13b25b7:0x4f0457b888d9143!8m2!3d45.608985!4d20.964087!16s%2Fg%2F11jnsn3sz8!19sChIJtyU70chPRUcRQ5GNiHtF8AQ?authuser=0&hl=tr&rclk=1",
    "website_url": "",
    "rating_text": "5,0",
    "stars": null,
    "number_of_reviews": null,
    "price_level": "",
    "open_hours": "",
    "extraction_timestamp": "2025-06-07T14:13:28.050Z",
    "source_name": "google",
    "source_query": "Irrigation Equipment",
    "source_country": "RO",
    "country": "Romania",
    "state": "Timiș County",
    "city": "Comuna Giulvăz"
  },
  {
    "source_id": "ChIJIfnfLTNnRUcRSrDX85TqUB4",
    "name": "Delta Exclusiv s.r.l.",
    "category": "Delta Exclusiv s.r.l.",
    "formatted_address": "5,0(1)",
    "phone_number": "+40744797018",
    "source_url": "https://www.google.com/maps/place/Delta+Exclusiv+s.r.l./data=!4m7!3m6!1s0x474567332ddff921:0x1e50ea94f3d7b04a!8m2!3d45.756904!4d21.239286!16s%2Fg%2F11fkkzwcn_!19sChIJIfnfLTNnRUcRSrDX85TqUB4?authuser=0&hl=tr&rclk=1",
    "website_url": "https://www.deltaexclusiv.ro/",
    "rating_text": "5,0",
    "stars": null,
    "number_of_reviews": null,
    "price_level": "",
    "open_hours": "",
    "extraction_timestamp": "2025-06-07T14:13:28.051Z",
    "source_name": "google",
    "source_query": "Irrigation Equipment",
    "source_country": "RO",
    "country": "Romania",
    "state": "Timiș County",
    "city": "Comuna Giulvăz"
  },
  {
    "source_id": "ChIJIbS92Y1NRUcRw7kNWpAXcSM",
    "name": "Daleanca",
    "category": "Daleanca",
    "formatted_address": "4,7(13)",
    "phone_number": "",
    "source_url": "https://www.google.com/maps/place/Daleanca/data=!4m7!3m6!1s0x47454d8dd9bdb421:0x237117905a0db9c3!8m2!3d45.5471139!4d20.9850589!16s%2Fg%2F11fl7dw2g1!19sChIJIbS92Y1NRUcRw7kNWpAXcSM?authuser=0&hl=tr&rclk=1",
    "website_url": "",
    "rating_text": "4,7",
    "stars": null,
    "number_of_reviews": null,
    "price_level": "",
    "open_hours": "",
    "extraction_timestamp": "2025-06-07T14:13:28.051Z",
    "source_name": "google",
    "source_query": "Irrigation Equipment",
    "source_country": "RO",
    "country": "Romania",
    "state": "Timiș County",
    "city": "Comuna Giulvăz"
  },
  {
    "source_id": "ChIJO8O1vIRNRUcRV6DwcqLx9w8",
    "name": "Magazin universal",
    "category": "Magazin universal",
    "formatted_address": "5,0(1)",
    "phone_number": "",
    "source_url": "https://www.google.com/maps/place/Magazin+universal/data=!4m7!3m6!1s0x47454d84bcb5c33b:0xff7f1a272f0a057!8m2!3d45.5483496!4d20.9847199!16s%2Fg%2F11fl7dzq9w!19sChIJO8O1vIRNRUcRV6DwcqLx9w8?authuser=0&hl=tr&rclk=1",
    "website_url": "",
    "rating_text": "5,0",
    "stars": null,
    "number_of_reviews": null,
    "price_level": "",
    "open_hours": "",
    "extraction_timestamp": "2025-06-07T14:13:28.052Z",
    "source_name": "google",
    "source_query": "Irrigation Equipment",
    "source_country": "RO",
    "country": "Romania",
    "state": "Timiș County",
    "city": "Comuna Giulvăz"
  },
  {
    "source_id": "ChIJJ6MUlwxeRUcRnA91koGm7oE",
    "name": "Hesse SRL",
    "category": "Hesse SRL",
    "formatted_address": "4,6(70)",
    "phone_number": "+40753044936",
    "source_url": "https://www.google.com/maps/place/Hesse+SRL/data=!4m7!3m6!1s0x47455e0c9714a327:0x81eea68192750f9c!8m2!3d45.7281249!4d21.2740876!16s%2Fg%2F11c1nj7q6k!19sChIJJ6MUlwxeRUcRnA91koGm7oE?authuser=0&hl=tr&rclk=1",
    "website_url": "http://www.hesse.ro/",
    "rating_text": "4,6",
    "stars": null,
    "number_of_reviews": null,
    "price_level": "",
    "open_hours": "",
    "extraction_timestamp": "2025-06-07T14:13:28.052Z",
    "source_name": "google",
    "source_query": "Irrigation Equipment",
    "source_country": "RO",
    "country": "Romania",
    "state": "Timiș County",
    "city": "Comuna Giulvăz"
  },
  {
    "source_id": "ChIJR742KhlNRUcRZFwIwB71Y8k",
    "name": "Profi Loco",
    "category": "Profi Loco",
    "formatted_address": "2,7(18)",
    "phone_number": "+40751051889",
    "source_url": "https://www.google.com/maps/place/Profi+Loco/data=!4m7!3m6!1s0x47454d192a36be47:0xc963f51ec0085c64!8m2!3d45.5485246!4d20.9860272!16s%2Fg%2F11ltfxgxb8!19sChIJR742KhlNRUcRZFwIwB71Y8k?authuser=0&hl=tr&rclk=1",
    "website_url": "https://www.profi.ro/?utm_source=google&utm_medium=organic&utm_campaign=dwf_local_seo",
    "rating_text": "2,7",
    "stars": null,
    "number_of_reviews": null,
    "price_level": "",
    "open_hours": "",
    "extraction_timestamp": "2025-06-07T14:13:28.052Z",
    "source_name": "google",
    "source_query": "Irrigation Equipment",
    "source_country": "RO",
    "country": "Romania",
    "state": "Timiș County",
    "city": "Comuna Giulvăz"
  },
  {
    "source_id": "ChIJv_eizuFdRUcRg4yb6UmX30I",
    "name": "MagazinGradina",
    "category": "MagazinGradina",
    "formatted_address": "",
    "phone_number": "+40724011591",
    "source_url": "https://www.google.com/maps/place/MagazinGradina/data=!4m7!3m6!1s0x47455de1cea2f7bf:0x42df9749e99b8c83!8m2!3d45.7293427!4d21.2700876!16s%2Fg%2F11fqptlzbn!19sChIJv_eizuFdRUcRg4yb6UmX30I?authuser=0&hl=tr&rclk=1",
    "website_url": "http://magazingradina.ro/",
    "rating_text": "",
    "stars": null,
    "number_of_reviews": null,
    "price_level": "",
    "open_hours": "",
    "extraction_timestamp": "2025-06-07T14:13:28.053Z",
    "source_name": "google",
    "source_query": "Irrigation Equipment",
    "source_country": "RO",
    "country": "Romania",
    "state": "Timiș County",
    "city": "Comuna Giulvăz"
  },
  {
    "source_id": "ChIJu_3uZ3ddRUcRIRUlcPqNBE0",
    "name": "Gardensis",
    "category": "Gardensis",
    "formatted_address": "",
    "phone_number": "+40724831901",
    "source_url": "https://www.google.com/maps/place/Gardensis/data=!4m7!3m6!1s0x47455d7767eefdbb:0x4d048dfa70251521!8m2!3d45.7437075!4d21.2137216!16s%2Fg%2F11hyt1pk45!19sChIJu_3uZ3ddRUcRIRUlcPqNBE0?authuser=0&hl=tr&rclk=1",
    "website_url": "",
    "rating_text": "",
    "stars": null,
    "number_of_reviews": null,
    "price_level": "",
    "open_hours": "",
    "extraction_timestamp": "2025-06-07T14:13:28.053Z",
    "source_name": "google",
    "source_query": "Irrigation Equipment",
    "source_country": "RO",
    "country": "Romania",
    "state": "Timiș County",
    "city": "Comuna Giulvăz"
  },
  {
    "source_id": "ChIJ2e9MjK9nTEcR0nHZ6zxguck",
    "name": "HydroSmart Planning",
    "category": "HydroSmart Planning",
    "formatted_address": "",
    "phone_number": "+40723668568",
    "source_url": "https://www.google.com/maps/place/HydroSmart+Planning/data=!4m7!3m6!1s0x474c67af8c4cefd9:0xc9b9603cebd971d2!8m2!3d45.9425072!4d25.0201084!16s%2Fg%2F11r9h916hq!19sChIJ2e9MjK9nTEcR0nHZ6zxguck?authuser=0&hl=tr&rclk=1",
    "website_url": "http://hydrosmart.ro/",
    "rating_text": "",
    "stars": null,
    "number_of_reviews": null,
    "price_level": "",
    "open_hours": "",
    "extraction_timestamp": "2025-06-07T14:13:28.053Z",
    "source_name": "google",
    "source_query": "Irrigation Equipment",
    "source_country": "RO",
    "country": "Romania",
    "state": "Timiș County",
    "city": "Comuna Giulvăz"
  },
  {
    "source_id": "ChIJaXn2gtFgRUcRWtrH1smIcNI",
    "name": "Professional Irrigation SRL",
    "category": "Professional Irrigation SRL",
    "formatted_address": "5,0(4)",
    "phone_number": "+40742054946",
    "source_url": "https://www.google.com/maps/place/Professional+Irrigation+SRL/data=!4m7!3m6!1s0x474560d182f67969:0xd27088c9d6c7da5a!8m2!3d45.7715327!4d21.3081823!16s%2Fg%2F12qfsp1nj!19sChIJaXn2gtFgRUcRWtrH1smIcNI?authuser=0&hl=tr&rclk=1",
    "website_url": "http://www.irigatii-profesionale.ro/",
    "rating_text": "5,0",
    "stars": null,
    "number_of_reviews": null,
    "price_level": "",
    "open_hours": "",
    "extraction_timestamp": "2025-06-07T14:13:28.054Z",
    "source_name": "google",
    "source_query": "Irrigation Equipment",
    "source_country": "RO",
    "country": "Romania",
    "state": "Timiș County",
    "city": "Comuna Giulvăz"
  }
]
