[
  {
    "source_id": "ChIJm2k4OBhnRUcRorlDejzLFj8",
    "name": "INTTECH INDUSTRY - Timis",
    "category": "INTTECH INDUSTRY - Timis",
    "formatted_address": "5,0(30)",
    "phone_number": "+40744323626",
    "source_url": "https://www.google.com/maps/place/INTTECH+INDUSTRY+-+Timis/data=!4m7!3m6!1s0x474567183838699b:0x3f16cb3c7a43b9a2!8m2!3d45.8007315!4d21.249204!16s%2Fg%2F11j3g9f8jq!19sChIJm2k4OBhnRUcRorlDejzLFj8?authuser=0&hl=tr&rclk=1",
    "website_url": "http://www.irrishop.ro/",
    "rating_text": "5,0",
    "stars": null,
    "number_of_reviews": null,
    "price_level": "",
    "open_hours": "",
    "extraction_timestamp": "2025-06-07T14:32:48.622Z",
    "source_name": "google",
    "source_query": "Irrigation Equipment",
    "source_country": "RO",
    "country": "Romania",
    "state": "Timiș County",
    "city": "Comuna Fibiş"
  },
  {
    "source_id": "ChIJD7OM9o1dRUcRRqlJ_yffJcE",
    "name": "Gardensis S.R.L.",
    "category": "Gardensis S.R.L.",
    "formatted_address": "4,6(16)",
    "phone_number": "+40724011591",
    "source_url": "https://www.google.com/maps/place/Gardensis+S.R.L./data=!4m7!3m6!1s0x47455d8df68cb30f:0xc125df27ff49a946!8m2!3d45.7292754!4d21.2698954!16s%2Fg%2F1hc7xr42_!19sChIJD7OM9o1dRUcRRqlJ_yffJcE?authuser=0&hl=tr&rclk=1",
    "website_url": "http://www.irigatii.ro/",
    "rating_text": "4,6",
    "stars": null,
    "number_of_reviews": null,
    "price_level": "",
    "open_hours": "",
    "extraction_timestamp": "2025-06-07T14:32:48.622Z",
    "source_name": "google",
    "source_query": "Irrigation Equipment",
    "source_country": "RO",
    "country": "Romania",
    "state": "Timiș County",
    "city": "Comuna Fibiş"
  },
  {
    "source_id": "ChIJNVF0JZyZRUcROrGIQqRikNo",
    "name": "Sc Irigarden Srl",
    "category": "Sc Irigarden Srl",
    "formatted_address": "4,7(52)",
    "phone_number": "+40744310125",
    "source_url": "https://www.google.com/maps/place/Sc+Irigarden+Srl/data=!4m7!3m6!1s0x4745999c25745135:0xda9062a44288b13a!8m2!3d46.14823!4d21.328789!16s%2Fg%2F1tp0cg5b!19sChIJNVF0JZyZRUcROrGIQqRikNo?authuser=0&hl=tr&rclk=1",
    "website_url": "https://www.irigarden.ro/",
    "rating_text": "4,7",
    "stars": null,
    "number_of_reviews": null,
    "price_level": "",
    "open_hours": "",
    "extraction_timestamp": "2025-06-07T14:32:48.623Z",
    "source_name": "google",
    "source_query": "Irrigation Equipment",
    "source_country": "RO",
    "country": "Romania",
    "state": "Timiș County",
    "city": "Comuna Fibiş"
  },
  {
    "source_id": "ChIJu9QYiMJdRUcROlyKL-xy3eg",
    "name": "Fluidiqa SRL",
    "category": "Fluidiqa SRL",
    "formatted_address": "5,0(1)",
    "phone_number": "+40756100954",
    "source_url": "https://www.google.com/maps/place/Fluidiqa+SRL/data=!4m7!3m6!1s0x47455dc28818d4bb:0xe8dd72ec2f8a5c3a!8m2!3d45.7038491!4d21.1825258!16s%2Fg%2F11c61qxjzj!19sChIJu9QYiMJdRUcROlyKL-xy3eg?authuser=0&hl=tr&rclk=1",
    "website_url": "http://www.fluidiqa.ro/",
    "rating_text": "5,0",
    "stars": null,
    "number_of_reviews": null,
    "price_level": "",
    "open_hours": "",
    "extraction_timestamp": "2025-06-07T14:32:48.623Z",
    "source_name": "google",
    "source_query": "Irrigation Equipment",
    "source_country": "RO",
    "country": "Romania",
    "state": "Timiș County",
    "city": "Comuna Fibiş"
  },
  {
    "source_id": "ChIJ5WSJMaJdRUcRDBPN8TlgxKI",
    "name": "Infinitrade-Romania - Piese de schimb pt. mentenanta si echipamente industriale",
    "category": "Infinitrade-Romania - Piese de schimb pt. mentenanta si echipamente industriale",
    "formatted_address": "3,8(12)",
    "phone_number": "+40371232404",
    "source_url": "https://www.google.com/maps/place/Infinitrade-Romania+-+Piese+de+schimb+pt.+mentenanta+si+echipamente+industriale/data=!4m7!3m6!1s0x47455da2318964e5:0xa2c46039f1cd130c!8m2!3d45.7757739!4d21.2999637!16s%2Fg%2F11h9z7l0cp!19sChIJ5WSJMaJdRUcRDBPN8TlgxKI?authuser=0&hl=tr&rclk=1",
    "website_url": "https://infinitrade-romania.ro/",
    "rating_text": "3,8",
    "stars": null,
    "number_of_reviews": null,
    "price_level": "",
    "open_hours": "",
    "extraction_timestamp": "2025-06-07T14:32:48.623Z",
    "source_name": "google",
    "source_query": "Irrigation Equipment",
    "source_country": "RO",
    "country": "Romania",
    "state": "Timiș County",
    "city": "Comuna Fibiş"
  },
  {
    "source_id": "ChIJcUVxnDaZRUcRUbUn3okKfP4",
    "name": "SC Tehnica Irigatii-Lacuri Decorative SRL",
    "category": "SC Tehnica Irigatii-Lacuri Decorative SRL",
    "formatted_address": "4,9(32)",
    "phone_number": "+40731208755",
    "source_url": "https://www.google.com/maps/place/SC+Tehnica+Irigatii-Lacuri+Decorative+SRL/data=!4m7!3m6!1s0x474599369c714571:0xfe7c0a89de27b551!8m2!3d46.1409626!4d21.3164797!16s%2Fg%2F11c6vbxz0v!19sChIJcUVxnDaZRUcRUbUn3okKfP4?authuser=0&hl=tr&rclk=1",
    "website_url": "https://www.tehnicairigatii.ro/",
    "rating_text": "4,9",
    "stars": null,
    "number_of_reviews": null,
    "price_level": "",
    "open_hours": "",
    "extraction_timestamp": "2025-06-07T14:32:48.624Z",
    "source_name": "google",
    "source_query": "Irrigation Equipment",
    "source_country": "RO",
    "country": "Romania",
    "state": "Timiș County",
    "city": "Comuna Fibiş"
  },
  {
    "source_id": "ChIJ2yyu2u-ZRUcRAentcQp81yg",
    "name": "Fish farm accesorii iaz, pesti, sisteme de irigatii",
    "category": "Fish farm accesorii iaz, pesti, sisteme de irigatii",
    "formatted_address": "Fish farm accesorii iaz, pesti, sisteme de irigatii",
    "phone_number": "+40756060729",
    "source_url": "https://www.google.com/maps/place/Fish+farm+accesorii+iaz,+pesti,+sisteme+de+irigatii/data=!4m7!3m6!1s0x474599efdaae2cdb:0x28d77c0a71ede901!8m2!3d46.1692156!4d21.2834742!16s%2Fg%2F11gr2fbfdv!19sChIJ2yyu2u-ZRUcRAentcQp81yg?authuser=0&hl=tr&rclk=1",
    "website_url": "http://www.fish-farm.ro/",
    "rating_text": "2,9",
    "stars": null,
    "number_of_reviews": null,
    "price_level": "",
    "open_hours": "",
    "extraction_timestamp": "2025-06-07T14:32:48.624Z",
    "source_name": "google",
    "source_query": "Irrigation Equipment",
    "source_country": "RO",
    "country": "Romania",
    "state": "Timiș County",
    "city": "Comuna Fibiş"
  },
  {
    "source_id": "ChIJu3QMYXRdRUcRJ2-T1_nXT6U",
    "name": "Marprest",
    "category": "Marprest",
    "formatted_address": "5,0(1)",
    "phone_number": "+40721795322",
    "source_url": "https://www.google.com/maps/place/Marprest/data=!4m7!3m6!1s0x47455d74610c74bb:0xa54fd7f9d7936f27!8m2!3d45.7291043!4d21.2078843!16s%2Fg%2F11c1vmmqkp!19sChIJu3QMYXRdRUcRJ2-T1_nXT6U?authuser=0&hl=tr&rclk=1",
    "website_url": "http://www.marprest.ro/",
    "rating_text": "5,0",
    "stars": null,
    "number_of_reviews": null,
    "price_level": "",
    "open_hours": "",
    "extraction_timestamp": "2025-06-07T14:32:48.624Z",
    "source_name": "google",
    "source_query": "Irrigation Equipment",
    "source_country": "RO",
    "country": "Romania",
    "state": "Timiș County",
    "city": "Comuna Fibiş"
  },
  {
    "source_id": "ChIJzzGl8ApeRUcR3xJZHCGgt08",
    "name": "irigatii.ro",
    "category": "irigatii.ro",
    "formatted_address": "4,8(65)",
    "phone_number": "+40724011591",
    "source_url": "https://www.google.com/maps/place/irigatii.ro/data=!4m7!3m6!1s0x47455e0af0a531cf:0x4fb7a0211c5912df!8m2!3d45.7293134!4d21.2700735!16s%2Fg%2F1hc2p_4by!19sChIJzzGl8ApeRUcR3xJZHCGgt08?authuser=0&hl=tr&rclk=1",
    "website_url": "http://www.irigatii.ro/",
    "rating_text": "4,8",
    "stars": null,
    "number_of_reviews": null,
    "price_level": "",
    "open_hours": "",
    "extraction_timestamp": "2025-06-07T14:32:48.625Z",
    "source_name": "google",
    "source_query": "Irrigation Equipment",
    "source_country": "RO",
    "country": "Romania",
    "state": "Timiș County",
    "city": "Comuna Fibiş"
  },
  {
    "source_id": "ChIJC6g01QBnRUcRxXJBepvvwpw",
    "name": "Agri Alianta SRL",
    "category": "Agri Alianta SRL",
    "formatted_address": "4,5(4)",
    "phone_number": "",
    "source_url": "https://www.google.com/maps/place/Agri+Alianta+SRL/data=!4m7!3m6!1s0x47456700d534a80b:0x9cc2ef9b7a4172c5!8m2!3d45.7745832!4d21.2995893!16s%2Fg%2F11hds34hqr!19sChIJC6g01QBnRUcRxXJBepvvwpw?authuser=0&hl=tr&rclk=1",
    "website_url": "",
    "rating_text": "4,5",
    "stars": null,
    "number_of_reviews": null,
    "price_level": "",
    "open_hours": "",
    "extraction_timestamp": "2025-06-07T14:32:48.625Z",
    "source_name": "google",
    "source_query": "Irrigation Equipment",
    "source_country": "RO",
    "country": "Romania",
    "state": "Timiș County",
    "city": "Comuna Fibiş"
  },
  {
    "source_id": "ChIJn4QYw-xnRUcRBpkOtl-0r3U",
    "name": "PompeSubmersibile.Ro",
    "category": "PompeSubmersibile.Ro",
    "formatted_address": "4,9(21)",
    "phone_number": "+40723774676",
    "source_url": "https://www.google.com/maps/place/PompeSubmersibile.Ro/data=!4m7!3m6!1s0x474567ecc318849f:0x75afb45fb60e9906!8m2!3d45.783602!4d21.2385186!16s%2Fg%2F11hgk562yv!19sChIJn4QYw-xnRUcRBpkOtl-0r3U?authuser=0&hl=tr&rclk=1",
    "website_url": "https://pompesubmersibile.ro/",
    "rating_text": "4,9",
    "stars": null,
    "number_of_reviews": null,
    "price_level": "",
    "open_hours": "",
    "extraction_timestamp": "2025-06-07T14:32:48.625Z",
    "source_name": "google",
    "source_query": "Irrigation Equipment",
    "source_country": "RO",
    "country": "Romania",
    "state": "Timiș County",
    "city": "Comuna Fibiş"
  },
  {
    "source_id": "ChIJnUQBrmNcRUcRiYKKcWdU8UE",
    "name": "Datcomp S.R.L.",
    "category": "Datcomp S.R.L.",
    "formatted_address": "4,9(9)",
    "phone_number": "+40729133951",
    "source_url": "https://www.google.com/maps/place/Datcomp+S.R.L./data=!4m7!3m6!1s0x47455c63ae01449d:0x41f15467718a8289!8m2!3d45.696862!4d21.1873457!16s%2Fg%2F1hhmw76h1!19sChIJnUQBrmNcRUcRiYKKcWdU8UE?authuser=0&hl=tr&rclk=1",
    "website_url": "http://www.datcomp.ro/",
    "rating_text": "4,9",
    "stars": null,
    "number_of_reviews": null,
    "price_level": "",
    "open_hours": "",
    "extraction_timestamp": "2025-06-07T14:32:48.626Z",
    "source_name": "google",
    "source_query": "Irrigation Equipment",
    "source_country": "RO",
    "country": "Romania",
    "state": "Timiș County",
    "city": "Comuna Fibiş"
  },
  {
    "source_id": "ChIJz5xWSdRgRUcRFaqJMoY0fKs",
    "name": "Romagrotehnica",
    "category": "Romagrotehnica",
    "formatted_address": "5,0(9)",
    "phone_number": "+40724550402",
    "source_url": "https://www.google.com/maps/place/Romagrotehnica/data=!4m7!3m6!1s0x474560d449569ccf:0xab7c34863289aa15!8m2!3d45.7769642!4d21.3081965!16s%2Fg%2F11cmrwbg67!19sChIJz5xWSdRgRUcRFaqJMoY0fKs?authuser=0&hl=tr&rclk=1",
    "website_url": "https://romagrotehnica.ro/",
    "rating_text": "5,0",
    "stars": null,
    "number_of_reviews": null,
    "price_level": "",
    "open_hours": "",
    "extraction_timestamp": "2025-06-07T14:32:48.627Z",
    "source_name": "google",
    "source_query": "Irrigation Equipment",
    "source_country": "RO",
    "country": "Romania",
    "state": "Timiș County",
    "city": "Comuna Fibiş"
  },
  {
    "source_id": "ChIJIfnfLTNnRUcRSrDX85TqUB4",
    "name": "Delta Exclusiv s.r.l.",
    "category": "Delta Exclusiv s.r.l.",
    "formatted_address": "5,0(1)",
    "phone_number": "+40744797018",
    "source_url": "https://www.google.com/maps/place/Delta+Exclusiv+s.r.l./data=!4m7!3m6!1s0x474567332ddff921:0x1e50ea94f3d7b04a!8m2!3d45.756904!4d21.239286!16s%2Fg%2F11fkkzwcn_!19sChIJIfnfLTNnRUcRSrDX85TqUB4?authuser=0&hl=tr&rclk=1",
    "website_url": "https://www.deltaexclusiv.ro/",
    "rating_text": "5,0",
    "stars": null,
    "number_of_reviews": null,
    "price_level": "",
    "open_hours": "",
    "extraction_timestamp": "2025-06-07T14:32:48.627Z",
    "source_name": "google",
    "source_query": "Irrigation Equipment",
    "source_country": "RO",
    "country": "Romania",
    "state": "Timiș County",
    "city": "Comuna Fibiş"
  },
  {
    "source_id": "ChIJ85yFN7ldRUcRCM-S6obemM0",
    "name": "Hidromet S.R.L.",
    "category": "Hidromet S.R.L.",
    "formatted_address": "4,6(17)",
    "phone_number": "+40374200636",
    "source_url": "https://www.google.com/maps/place/Hidromet+S.R.L./data=!4m7!3m6!1s0x47455db937859cf3:0xcd98de86ea92cf08!8m2!3d45.7289414!4d21.2318315!16s%2Fg%2F1hcb5hysh!19sChIJ85yFN7ldRUcRCM-S6obemM0?authuser=0&hl=tr&rclk=1",
    "website_url": "http://hidromet.ro/",
    "rating_text": "4,6",
    "stars": null,
    "number_of_reviews": null,
    "price_level": "",
    "open_hours": "",
    "extraction_timestamp": "2025-06-07T14:32:48.627Z",
    "source_name": "google",
    "source_query": "Irrigation Equipment",
    "source_country": "RO",
    "country": "Romania",
    "state": "Timiș County",
    "city": "Comuna Fibiş"
  },
  {
    "source_id": "ChIJlfg6OkNnRUcRrbouNdiPafc",
    "name": "Aquatim - Water Plant",
    "category": "Aquatim - Water Plant",
    "formatted_address": "4,4(11)",
    "phone_number": "",
    "source_url": "https://www.google.com/maps/place/Aquatim+-+Water+Plant/data=!4m7!3m6!1s0x474567433a3af895:0xf7698fd8352ebaad!8m2!3d45.7568161!4d21.2647777!16s%2Fg%2F1tn4wyyl!19sChIJlfg6OkNnRUcRrbouNdiPafc?authuser=0&hl=tr&rclk=1",
    "website_url": "http://www.aquatim.ro/",
    "rating_text": "4,4",
    "stars": null,
    "number_of_reviews": null,
    "price_level": "",
    "open_hours": "",
    "extraction_timestamp": "2025-06-07T14:32:48.628Z",
    "source_name": "google",
    "source_query": "Irrigation Equipment",
    "source_country": "RO",
    "country": "Romania",
    "state": "Timiș County",
    "city": "Comuna Fibiş"
  },
  {
    "source_id": "ChIJf_CYG_BdRUcRKGny1Dlfp8M",
    "name": "Filtration Group SRL",
    "category": "Filtration Group SRL",
    "formatted_address": "4,3(43)",
    "phone_number": "+40256408261",
    "source_url": "https://www.google.com/maps/place/Filtration+Group+SRL/data=!4m7!3m6!1s0x47455df01b98f07f:0xc3a75f39d4f26928!8m2!3d45.7392824!4d21.2592214!16s%2Fg%2F11g1kn1j3w!19sChIJf_CYG_BdRUcRKGny1Dlfp8M?authuser=0&hl=tr&rclk=1",
    "website_url": "http://industrial.filtrationgroup.com/",
    "rating_text": "4,3",
    "stars": null,
    "number_of_reviews": null,
    "price_level": "",
    "open_hours": "",
    "extraction_timestamp": "2025-06-07T14:32:48.628Z",
    "source_name": "google",
    "source_query": "Irrigation Equipment",
    "source_country": "RO",
    "country": "Romania",
    "state": "Timiș County",
    "city": "Comuna Fibiş"
  },
  {
    "source_id": "ChIJsWtpcedcRUcRlWliCmI627o",
    "name": "AquaFlow SRL",
    "category": "AquaFlow SRL",
    "formatted_address": "5,0(12)",
    "phone_number": "+40753100880",
    "source_url": "https://www.google.com/maps/place/AquaFlow+SRL/data=!4m7!3m6!1s0x47455ce771696bb1:0xbadb3a620a626995!8m2!3d45.719172!4d21.1725477!16s%2Fg%2F11gd1wncz6!19sChIJsWtpcedcRUcRlWliCmI627o?authuser=0&hl=tr&rclk=1",
    "website_url": "http://www.aquaflow.ro/",
    "rating_text": "5,0",
    "stars": null,
    "number_of_reviews": null,
    "price_level": "",
    "open_hours": "",
    "extraction_timestamp": "2025-06-07T14:32:48.628Z",
    "source_name": "google",
    "source_query": "Irrigation Equipment",
    "source_country": "RO",
    "country": "Romania",
    "state": "Timiș County",
    "city": "Comuna Fibiş"
  },
  {
    "source_id": "ChIJv_eizuFdRUcRg4yb6UmX30I",
    "name": "MagazinGradina",
    "category": "MagazinGradina",
    "formatted_address": "",
    "phone_number": "+40724011591",
    "source_url": "https://www.google.com/maps/place/MagazinGradina/data=!4m7!3m6!1s0x47455de1cea2f7bf:0x42df9749e99b8c83!8m2!3d45.7293427!4d21.2700876!16s%2Fg%2F11fqptlzbn!19sChIJv_eizuFdRUcRg4yb6UmX30I?authuser=0&hl=tr&rclk=1",
    "website_url": "http://magazingradina.ro/",
    "rating_text": "",
    "stars": null,
    "number_of_reviews": null,
    "price_level": "",
    "open_hours": "",
    "extraction_timestamp": "2025-06-07T14:32:48.629Z",
    "source_name": "google",
    "source_query": "Irrigation Equipment",
    "source_country": "RO",
    "country": "Romania",
    "state": "Timiș County",
    "city": "Comuna Fibiş"
  },
  {
    "source_id": "ChIJj7-7za2ZRUcR6M_jOJcGFjk",
    "name": "Agronomo - motounelte Arad",
    "category": "Agronomo - motounelte Arad",
    "formatted_address": "4,3(146)",
    "phone_number": "+40759927777",
    "source_url": "https://www.google.com/maps/place/Agronomo+-+motounelte+Arad/data=!4m7!3m6!1s0x474599adcdbbbf8f:0x3916069738e3cfe8!8m2!3d46.198694!4d21.3377498!16s%2Fg%2F11mr99fc3s!19sChIJj7-7za2ZRUcR6M_jOJcGFjk?authuser=0&hl=tr&rclk=1",
    "website_url": "http://agronomo.ro/",
    "rating_text": "4,3",
    "stars": null,
    "number_of_reviews": null,
    "price_level": "",
    "open_hours": "",
    "extraction_timestamp": "2025-06-07T14:32:48.629Z",
    "source_name": "google",
    "source_query": "Irrigation Equipment",
    "source_country": "RO",
    "country": "Romania",
    "state": "Timiș County",
    "city": "Comuna Fibiş"
  },
  {
    "source_id": "ChIJH8WgtL9nRUcRtzTLRiyI53o",
    "name": "Instal Impex",
    "category": "Instal Impex",
    "formatted_address": "4,9(12)",
    "phone_number": "+40356423372",
    "source_url": "https://www.google.com/maps/place/Instal+Impex/data=!4m7!3m6!1s0x474567bfb4a0c51f:0x7ae7882c46cb34b7!8m2!3d45.7360839!4d21.2562389!16s%2Fg%2F11b77wly4x!19sChIJH8WgtL9nRUcRtzTLRiyI53o?authuser=0&hl=tr&rclk=1",
    "website_url": "http://www.instalimpex.ro/",
    "rating_text": "4,9",
    "stars": null,
    "number_of_reviews": null,
    "price_level": "",
    "open_hours": "",
    "extraction_timestamp": "2025-06-07T14:32:48.629Z",
    "source_name": "google",
    "source_query": "Irrigation Equipment",
    "source_country": "RO",
    "country": "Romania",
    "state": "Timiș County",
    "city": "Comuna Fibiş"
  },
  {
    "source_id": "ChIJPcU4VpBnRUcRQikVyq_fOYI",
    "name": "Romstal",
    "category": "Romstal",
    "formatted_address": "4,2(248)",
    "phone_number": "+40372123110",
    "source_url": "https://www.google.com/maps/place/Romstal/data=!4m7!3m6!1s0x474567905638c53d:0x8239dfafca152942!8m2!3d45.7685415!4d21.2211134!16s%2Fg%2F1tycvf85!19sChIJPcU4VpBnRUcRQikVyq_fOYI?authuser=0&hl=tr&rclk=1",
    "website_url": "http://www.romstal.ro/",
    "rating_text": "4,2",
    "stars": null,
    "number_of_reviews": null,
    "price_level": "",
    "open_hours": "",
    "extraction_timestamp": "2025-06-07T14:32:48.630Z",
    "source_name": "google",
    "source_query": "Irrigation Equipment",
    "source_country": "RO",
    "country": "Romania",
    "state": "Timiș County",
    "city": "Comuna Fibiş"
  },
  {
    "source_id": "ChIJw-YksvWYRUcRkVBvDN1DkDU",
    "name": "Bendea",
    "category": "Bendea",
    "formatted_address": "4,3(53)",
    "phone_number": "+40751094705",
    "source_url": "https://www.google.com/maps/place/Bendea/data=!4m7!3m6!1s0x474598f5b224e6c3:0x359043dd0c6f5091!8m2!3d46.1779225!4d21.2955464!16s%2Fg%2F11c1nfbk3c!19sChIJw-YksvWYRUcRkVBvDN1DkDU?authuser=0&hl=tr&rclk=1",
    "website_url": "",
    "rating_text": "4,3",
    "stars": null,
    "number_of_reviews": null,
    "price_level": "",
    "open_hours": "",
    "extraction_timestamp": "2025-06-07T14:32:48.630Z",
    "source_name": "google",
    "source_query": "Irrigation Equipment",
    "source_country": "RO",
    "country": "Romania",
    "state": "Timiș County",
    "city": "Comuna Fibiş"
  },
  {
    "source_id": "ChIJw1khbXRdRUcRlc6pgqLLfVc",
    "name": "Euroinstal",
    "category": "Euroinstal",
    "formatted_address": "4,3(43)",
    "phone_number": "+40728160252",
    "source_url": "https://www.google.com/maps/place/Euroinstal/data=!4m7!3m6!1s0x47455d746d2159c3:0x577dcba282a9ce95!8m2!3d45.7420536!4d21.211796!16s%2Fg%2F11c1tb2m_z!19sChIJw1khbXRdRUcRlc6pgqLLfVc?authuser=0&hl=tr&rclk=1",
    "website_url": "http://euro-instal.ro/",
    "rating_text": "4,3",
    "stars": null,
    "number_of_reviews": null,
    "price_level": "",
    "open_hours": "",
    "extraction_timestamp": "2025-06-07T14:32:48.630Z",
    "source_name": "google",
    "source_query": "Irrigation Equipment",
    "source_country": "RO",
    "country": "Romania",
    "state": "Timiș County",
    "city": "Comuna Fibiş"
  },
  {
    "source_id": "ChIJP7T5uBlnRUcRPEwfUVWl7Ik",
    "name": "Euroinstal",
    "category": "Euroinstal",
    "formatted_address": "4,5(38)",
    "phone_number": "+40734002114",
    "source_url": "https://www.google.com/maps/place/Euroinstal/data=!4m7!3m6!1s0x47456719b8f9b43f:0x89eca555511f4c3c!8m2!3d45.7649126!4d21.211908!16s%2Fg%2F11h2lp0tj2!19sChIJP7T5uBlnRUcRPEwfUVWl7Ik?authuser=0&hl=tr&rclk=1",
    "website_url": "http://www.euro-instal.ro/",
    "rating_text": "4,5",
    "stars": null,
    "number_of_reviews": null,
    "price_level": "",
    "open_hours": "",
    "extraction_timestamp": "2025-06-07T14:32:48.631Z",
    "source_name": "google",
    "source_query": "Irrigation Equipment",
    "source_country": "RO",
    "country": "Romania",
    "state": "Timiș County",
    "city": "Comuna Fibiş"
  },
  {
    "source_id": "ChIJQT4bo-y-T0cRmaeeDYSjmQY",
    "name": "Intercom Lugostar S.R.L.",
    "category": "Intercom Lugostar S.R.L.",
    "formatted_address": "4,3(44)",
    "phone_number": "+40722301936",
    "source_url": "https://www.google.com/maps/place/Intercom+Lugostar+S.R.L./data=!4m7!3m6!1s0x474fbeeca31b3e41:0x699a3840d9ea799!8m2!3d45.6808245!4d21.9026932!16s%2Fg%2F1hc5dzbyy!19sChIJQT4bo-y-T0cRmaeeDYSjmQY?authuser=0&hl=tr&rclk=1",
    "website_url": "https://www.lugostar.ro/",
    "rating_text": "4,3",
    "stars": null,
    "number_of_reviews": null,
    "price_level": "",
    "open_hours": "",
    "extraction_timestamp": "2025-06-07T14:32:48.631Z",
    "source_name": "google",
    "source_query": "Irrigation Equipment",
    "source_country": "RO",
    "country": "Romania",
    "state": "Timiș County",
    "city": "Comuna Fibiş"
  },
  {
    "source_id": "ChIJNTRTIuS_T0cRQCDPhDYmrOg",
    "name": "D.A. Constantin",
    "category": "D.A. Constantin",
    "formatted_address": "4,5(10)",
    "phone_number": "",
    "source_url": "https://www.google.com/maps/place/D.A.+Constantin/data=!4m7!3m6!1s0x474fbfe422533435:0xe8ac263684cf2040!8m2!3d45.6916909!4d21.9073388!16s%2Fg%2F11hdsrr9h1!19sChIJNTRTIuS_T0cRQCDPhDYmrOg?authuser=0&hl=tr&rclk=1",
    "website_url": "",
    "rating_text": "4,5",
    "stars": null,
    "number_of_reviews": null,
    "price_level": "",
    "open_hours": "",
    "extraction_timestamp": "2025-06-07T14:32:48.631Z",
    "source_name": "google",
    "source_query": "Irrigation Equipment",
    "source_country": "RO",
    "country": "Romania",
    "state": "Timiș County",
    "city": "Comuna Fibiş"
  },
  {
    "source_id": "ChIJSbffBqNdRUcRctvkYTzSxPc",
    "name": "Euroinstal",
    "category": "Euroinstal",
    "formatted_address": "4,4(64)",
    "phone_number": "+40728160249",
    "source_url": "https://www.google.com/maps/place/Euroinstal/data=!4m7!3m6!1s0x47455da306dfb749:0xf7c4d23c61e4db72!8m2!3d45.7334142!4d21.2226917!16s%2Fg%2F1ptzy_plm!19sChIJSbffBqNdRUcRctvkYTzSxPc?authuser=0&hl=tr&rclk=1",
    "website_url": "http://www.euro-instal.ro/",
    "rating_text": "4,4",
    "stars": null,
    "number_of_reviews": null,
    "price_level": "",
    "open_hours": "",
    "extraction_timestamp": "2025-06-07T14:32:48.632Z",
    "source_name": "google",
    "source_query": "Irrigation Equipment",
    "source_country": "RO",
    "country": "Romania",
    "state": "Timiș County",
    "city": "Comuna Fibiş"
  },
  {
    "source_id": "ChIJYyUjRUVmRUcRZP2wMvLM8qw",
    "name": "Euroinstal",
    "category": "Euroinstal",
    "formatted_address": "4,3(40)",
    "phone_number": "+40728160248",
    "source_url": "https://www.google.com/maps/place/Euroinstal/data=!4m7!3m6!1s0x4745664545232563:0xacf2ccf232b0fd64!8m2!3d45.7920143!4d21.2392745!16s%2Fg%2F11c2pf6kvg!19sChIJYyUjRUVmRUcRZP2wMvLM8qw?authuser=0&hl=tr&rclk=1",
    "website_url": "http://www.euro-instal.ro/",
    "rating_text": "4,3",
    "stars": null,
    "number_of_reviews": null,
    "price_level": "",
    "open_hours": "",
    "extraction_timestamp": "2025-06-07T14:32:48.632Z",
    "source_name": "google",
    "source_query": "Irrigation Equipment",
    "source_country": "RO",
    "country": "Romania",
    "state": "Timiș County",
    "city": "Comuna Fibiş"
  },
  {
    "source_id": "ChIJf0OO15ZnRUcRkmZ-P_zMMlY",
    "name": "Euroinstal",
    "category": "Euroinstal",
    "formatted_address": "4,0(37)",
    "phone_number": "+40728160247",
    "source_url": "https://www.google.com/maps/place/Euroinstal/data=!4m7!3m6!1s0x47456796d78e437f:0x5632ccfc3f7e6692!8m2!3d45.7715149!4d21.2222084!16s%2Fg%2F11c60p45tn!19sChIJf0OO15ZnRUcRkmZ-P_zMMlY?authuser=0&hl=tr&rclk=1",
    "website_url": "http://www.euro-instal.ro/",
    "rating_text": "4,0",
    "stars": null,
    "number_of_reviews": null,
    "price_level": "",
    "open_hours": "",
    "extraction_timestamp": "2025-06-07T14:32:48.632Z",
    "source_name": "google",
    "source_query": "Irrigation Equipment",
    "source_country": "RO",
    "country": "Romania",
    "state": "Timiș County",
    "city": "Comuna Fibiş"
  }
]
