[
  {
    "source_id": "ChIJr2IpafT5REcRl0dcH6MFZTY",
    "name": "Ferma Cenad S.R.L",
    "category": "Ferma Cenad S.R.L",
    "formatted_address": "4,7(31)",
    "phone_number": "",
    "source_url": "https://www.google.com/maps/place/Ferma+Cenad+S.R.L/data=!4m7!3m6!1s0x4744f9f4692962af:0x366505a31f5c4797!8m2!3d46.1173383!4d20.5930007!16s%2Fg%2F11hzx34xzv!19sChIJr2IpafT5REcRl0dcH6MFZTY?authuser=0&hl=tr&rclk=1",
    "website_url": "",
    "rating_text": "4,7",
    "stars": null,
    "number_of_reviews": null,
    "price_level": "",
    "open_hours": "",
    "extraction_timestamp": "2025-06-07T14:33:14.103Z",
    "source_name": "google",
    "source_query": "Irrigation Equipment",
    "source_country": "RO",
    "country": "Romania",
    "state": "Timiș County",
    "city": "Comuna Cenad"
  },
  {
    "source_id": "ChIJm2k4OBhnRUcRorlDejzLFj8",
    "name": "INTTECH INDUSTRY - Timis",
    "category": "INTTECH INDUSTRY - Timis",
    "formatted_address": "5,0(30)",
    "phone_number": "+40744323626",
    "source_url": "https://www.google.com/maps/place/INTTECH+INDUSTRY+-+Timis/data=!4m7!3m6!1s0x474567183838699b:0x3f16cb3c7a43b9a2!8m2!3d45.8007315!4d21.249204!16s%2Fg%2F11j3g9f8jq!19sChIJm2k4OBhnRUcRorlDejzLFj8?authuser=0&hl=tr&rclk=1",
    "website_url": "http://www.irrishop.ro/",
    "rating_text": "5,0",
    "stars": null,
    "number_of_reviews": null,
    "price_level": "",
    "open_hours": "",
    "extraction_timestamp": "2025-06-07T14:33:14.103Z",
    "source_name": "google",
    "source_query": "Irrigation Equipment",
    "source_country": "RO",
    "country": "Romania",
    "state": "Timiș County",
    "city": "Comuna Cenad"
  },
  {
    "source_id": "ChIJD7OM9o1dRUcRRqlJ_yffJcE",
    "name": "Gardensis S.R.L.",
    "category": "Gardensis S.R.L.",
    "formatted_address": "4,6(16)",
    "phone_number": "+40724011591",
    "source_url": "https://www.google.com/maps/place/Gardensis+S.R.L./data=!4m7!3m6!1s0x47455d8df68cb30f:0xc125df27ff49a946!8m2!3d45.7292754!4d21.2698954!16s%2Fg%2F1hc7xr42_!19sChIJD7OM9o1dRUcRRqlJ_yffJcE?authuser=0&hl=tr&rclk=1",
    "website_url": "http://www.irigatii.ro/",
    "rating_text": "4,6",
    "stars": null,
    "number_of_reviews": null,
    "price_level": "",
    "open_hours": "",
    "extraction_timestamp": "2025-06-07T14:33:14.103Z",
    "source_name": "google",
    "source_query": "Irrigation Equipment",
    "source_country": "RO",
    "country": "Romania",
    "state": "Timiș County",
    "city": "Comuna Cenad"
  },
  {
    "source_id": "ChIJcUVxnDaZRUcRUbUn3okKfP4",
    "name": "SC Tehnica Irigatii-Lacuri Decorative SRL",
    "category": "SC Tehnica Irigatii-Lacuri Decorative SRL",
    "formatted_address": "4,9(32)",
    "phone_number": "+40731208755",
    "source_url": "https://www.google.com/maps/place/SC+Tehnica+Irigatii-Lacuri+Decorative+SRL/data=!4m7!3m6!1s0x474599369c714571:0xfe7c0a89de27b551!8m2!3d46.1409626!4d21.3164797!16s%2Fg%2F11c6vbxz0v!19sChIJcUVxnDaZRUcRUbUn3okKfP4?authuser=0&hl=tr&rclk=1",
    "website_url": "https://www.tehnicairigatii.ro/",
    "rating_text": "4,9",
    "stars": null,
    "number_of_reviews": null,
    "price_level": "",
    "open_hours": "",
    "extraction_timestamp": "2025-06-07T14:33:14.104Z",
    "source_name": "google",
    "source_query": "Irrigation Equipment",
    "source_country": "RO",
    "country": "Romania",
    "state": "Timiș County",
    "city": "Comuna Cenad"
  },
  {
    "source_id": "ChIJMWnr6hJeRUcR1qATsiSFcKk",
    "name": "Irigații-S.C.Badin-sistem S.R.L.",
    "category": "Irigații-S.C.Badin-sistem S.R.L.",
    "formatted_address": "4,7(76)",
    "phone_number": "+40785111698",
    "source_url": "https://www.google.com/maps/place/Iriga%C8%9Bii-S.C.Badin-sistem+S.R.L./data=!4m7!3m6!1s0x47455e12eaeb6931:0xa9708524b213a0d6!8m2!3d45.7351861!4d21.263806!16s%2Fg%2F11c5rmlsvm!19sChIJMWnr6hJeRUcR1qATsiSFcKk?authuser=0&hl=tr&rclk=1",
    "website_url": "http://www.badinsistem.ro/",
    "rating_text": "4,7",
    "stars": null,
    "number_of_reviews": null,
    "price_level": "",
    "open_hours": "",
    "extraction_timestamp": "2025-06-07T14:33:14.104Z",
    "source_name": "google",
    "source_query": "Irrigation Equipment",
    "source_country": "RO",
    "country": "Romania",
    "state": "Timiș County",
    "city": "Comuna Cenad"
  },
  {
    "source_id": "ChIJg3WWYIX5REcRlTSDc_4Aqwg",
    "name": "Profi loco",
    "category": "Profi loco",
    "formatted_address": "4,3(36)",
    "phone_number": "",
    "source_url": "https://www.google.com/maps/place/Profi+loco/data=!4m7!3m6!1s0x4744f98560967583:0x8ab00fe73833495!8m2!3d46.1318043!4d20.5712352!16s%2Fg%2F11t63x24hs!19sChIJg3WWYIX5REcRlTSDc_4Aqwg?authuser=0&hl=tr&rclk=1",
    "website_url": "",
    "rating_text": "4,3",
    "stars": null,
    "number_of_reviews": null,
    "price_level": "",
    "open_hours": "",
    "extraction_timestamp": "2025-06-07T14:33:14.104Z",
    "source_name": "google",
    "source_query": "Irrigation Equipment",
    "source_country": "RO",
    "country": "Romania",
    "state": "Timiș County",
    "city": "Comuna Cenad"
  },
  {
    "source_id": "ChIJzzGl8ApeRUcR3xJZHCGgt08",
    "name": "irigatii.ro",
    "category": "irigatii.ro",
    "formatted_address": "4,8(65)",
    "phone_number": "+40724011591",
    "source_url": "https://www.google.com/maps/place/irigatii.ro/data=!4m7!3m6!1s0x47455e0af0a531cf:0x4fb7a0211c5912df!8m2!3d45.7293134!4d21.2700735!16s%2Fg%2F1hc2p_4by!19sChIJzzGl8ApeRUcR3xJZHCGgt08?authuser=0&hl=tr&rclk=1",
    "website_url": "http://www.irigatii.ro/",
    "rating_text": "4,8",
    "stars": null,
    "number_of_reviews": null,
    "price_level": "",
    "open_hours": "",
    "extraction_timestamp": "2025-06-07T14:33:14.105Z",
    "source_name": "google",
    "source_query": "Irrigation Equipment",
    "source_country": "RO",
    "country": "Romania",
    "state": "Timiș County",
    "city": "Comuna Cenad"
  },
  {
    "source_id": "ChIJuTrO7h75REcRjK_ljVgQL3g",
    "name": "Profi Loco",
    "category": "Profi Loco",
    "formatted_address": "4,4(131)",
    "phone_number": "+40799314780",
    "source_url": "https://www.google.com/maps/place/Profi+Loco/data=!4m7!3m6!1s0x4744f91eeece3ab9:0x782f10588de5af8c!8m2!3d46.1375451!4d20.5871693!16s%2Fg%2F11h3l3tf0m!19sChIJuTrO7h75REcRjK_ljVgQL3g?authuser=0&hl=tr&rclk=1",
    "website_url": "https://www.profi.ro/?utm_source=google&utm_medium=organic&utm_campaign=dwf_local_seo",
    "rating_text": "4,4",
    "stars": null,
    "number_of_reviews": null,
    "price_level": "",
    "open_hours": "",
    "extraction_timestamp": "2025-06-07T14:33:14.105Z",
    "source_name": "google",
    "source_query": "Irrigation Equipment",
    "source_country": "RO",
    "country": "Romania",
    "state": "Timiș County",
    "city": "Comuna Cenad"
  },
  {
    "source_id": "ChIJ8cr9wnL5REcRtb9aUwUggkE",
    "name": "Brothers Center",
    "category": "Brothers Center",
    "formatted_address": "4,2(193)",
    "phone_number": "+40761693648",
    "source_url": "https://www.google.com/maps/place/Brothers+Center/data=!4m7!3m6!1s0x4744f972c2fdcaf1:0x41822005535abfb5!8m2!3d46.132183!4d20.5889874!16s%2Fg%2F11f24w8nhh!19sChIJ8cr9wnL5REcRtb9aUwUggkE?authuser=0&hl=tr&rclk=1",
    "website_url": "",
    "rating_text": "4,2",
    "stars": null,
    "number_of_reviews": null,
    "price_level": "",
    "open_hours": "",
    "extraction_timestamp": "2025-06-07T14:33:14.105Z",
    "source_name": "google",
    "source_query": "Irrigation Equipment",
    "source_country": "RO",
    "country": "Romania",
    "state": "Timiș County",
    "city": "Comuna Cenad"
  },
  {
    "source_id": "ChIJ-7u21vz5REcRbJcDpJ5u2Qg",
    "name": "La doi paşi",
    "category": "La doi paşi",
    "formatted_address": "4,5(6)",
    "phone_number": "+40356177376",
    "source_url": "https://www.google.com/maps/place/La+doi+pa%C5%9Fi/data=!4m7!3m6!1s0x4744f9fcd6b6bbfb:0x8d96e9ea403976c!8m2!3d46.1375696!4d20.5846272!16s%2Fg%2F11h8j6n8pt!19sChIJ-7u21vz5REcRbJcDpJ5u2Qg?authuser=0&hl=tr&rclk=1",
    "website_url": "http://www.la-doi-pasi.ro/",
    "rating_text": "4,5",
    "stars": null,
    "number_of_reviews": null,
    "price_level": "",
    "open_hours": "",
    "extraction_timestamp": "2025-06-07T14:33:14.106Z",
    "source_name": "google",
    "source_query": "Irrigation Equipment",
    "source_country": "RO",
    "country": "Romania",
    "state": "Timiș County",
    "city": "Comuna Cenad"
  },
  {
    "source_id": "ChIJNfHNFAv5REcRUVwmCw5usJM",
    "name": "Primăria Cenad",
    "category": "Primăria Cenad",
    "formatted_address": "4,7(39)",
    "phone_number": "+40256374501",
    "source_url": "https://www.google.com/maps/place/Prim%C4%83ria+Cenad/data=!4m7!3m6!1s0x4744f90b14cdf135:0x93b06e0e0b265c51!8m2!3d46.1376687!4d20.5839912!16s%2Fg%2F11hbg9twhf!19sChIJNfHNFAv5REcRUVwmCw5usJM?authuser=0&hl=tr&rclk=1",
    "website_url": "http://www.cenad.ro/",
    "rating_text": "4,7",
    "stars": null,
    "number_of_reviews": null,
    "price_level": "",
    "open_hours": "",
    "extraction_timestamp": "2025-06-07T14:33:14.106Z",
    "source_name": "google",
    "source_query": "Irrigation Equipment",
    "source_country": "RO",
    "country": "Romania",
    "state": "Timiș County",
    "city": "Comuna Cenad"
  },
  {
    "source_id": "ChIJc_o_YQD5REcRU8qM9BZg_qA",
    "name": "Magazin de varietăți",
    "category": "Magazin de varietăți",
    "formatted_address": "5,0(1)",
    "phone_number": "",
    "source_url": "https://www.google.com/maps/place/Magazin+de+variet%C4%83%C8%9Bi/data=!4m7!3m6!1s0x4744f900613ffa73:0xa0fe6016f48cca53!8m2!3d46.1323775!4d20.5736256!16s%2Fg%2F11w9grm0j2!19sChIJc_o_YQD5REcRU8qM9BZg_qA?authuser=0&hl=tr&rclk=1",
    "website_url": "",
    "rating_text": "5,0",
    "stars": null,
    "number_of_reviews": null,
    "price_level": "",
    "open_hours": "",
    "extraction_timestamp": "2025-06-07T14:33:14.106Z",
    "source_name": "google",
    "source_query": "Irrigation Equipment",
    "source_country": "RO",
    "country": "Romania",
    "state": "Timiș County",
    "city": "Comuna Cenad"
  },
  {
    "source_id": "ChIJJ6MUlwxeRUcRnA91koGm7oE",
    "name": "Hesse SRL",
    "category": "Hesse SRL",
    "formatted_address": "4,6(70)",
    "phone_number": "+40753044936",
    "source_url": "https://www.google.com/maps/place/Hesse+SRL/data=!4m7!3m6!1s0x47455e0c9714a327:0x81eea68192750f9c!8m2!3d45.7281249!4d21.2740876!16s%2Fg%2F11c1nj7q6k!19sChIJJ6MUlwxeRUcRnA91koGm7oE?authuser=0&hl=tr&rclk=1",
    "website_url": "http://www.hesse.ro/",
    "rating_text": "4,6",
    "stars": null,
    "number_of_reviews": null,
    "price_level": "",
    "open_hours": "",
    "extraction_timestamp": "2025-06-07T14:33:14.107Z",
    "source_name": "google",
    "source_query": "Irrigation Equipment",
    "source_country": "RO",
    "country": "Romania",
    "state": "Timiș County",
    "city": "Comuna Cenad"
  },
  {
    "source_id": "ChIJIfnfLTNnRUcRSrDX85TqUB4",
    "name": "Delta Exclusiv s.r.l.",
    "category": "Delta Exclusiv s.r.l.",
    "formatted_address": "5,0(1)",
    "phone_number": "+40744797018",
    "source_url": "https://www.google.com/maps/place/Delta+Exclusiv+s.r.l./data=!4m7!3m6!1s0x474567332ddff921:0x1e50ea94f3d7b04a!8m2!3d45.756904!4d21.239286!16s%2Fg%2F11fkkzwcn_!19sChIJIfnfLTNnRUcRSrDX85TqUB4?authuser=0&hl=tr&rclk=1",
    "website_url": "https://www.deltaexclusiv.ro/",
    "rating_text": "5,0",
    "stars": null,
    "number_of_reviews": null,
    "price_level": "",
    "open_hours": "",
    "extraction_timestamp": "2025-06-07T14:33:14.107Z",
    "source_name": "google",
    "source_query": "Irrigation Equipment",
    "source_country": "RO",
    "country": "Romania",
    "state": "Timiș County",
    "city": "Comuna Cenad"
  },
  {
    "source_id": "ChIJnUQBrmNcRUcRiYKKcWdU8UE",
    "name": "Datcomp S.R.L.",
    "category": "Datcomp S.R.L.",
    "formatted_address": "4,9(9)",
    "phone_number": "+40729133951",
    "source_url": "https://www.google.com/maps/place/Datcomp+S.R.L./data=!4m7!3m6!1s0x47455c63ae01449d:0x41f15467718a8289!8m2!3d45.696862!4d21.1873457!16s%2Fg%2F1hhmw76h1!19sChIJnUQBrmNcRUcRiYKKcWdU8UE?authuser=0&hl=tr&rclk=1",
    "website_url": "http://www.datcomp.ro/",
    "rating_text": "4,9",
    "stars": null,
    "number_of_reviews": null,
    "price_level": "",
    "open_hours": "",
    "extraction_timestamp": "2025-06-07T14:33:14.108Z",
    "source_name": "google",
    "source_query": "Irrigation Equipment",
    "source_country": "RO",
    "country": "Romania",
    "state": "Timiș County",
    "city": "Comuna Cenad"
  },
  {
    "source_id": "ChIJK4u6AjC-1WER6Mgl7JmaNMI",
    "name": "Ipari Alpin Technika",
    "category": "Ipari Alpin Technika",
    "formatted_address": "",
    "phone_number": "+36702183583",
    "source_url": "https://www.google.com/maps/place/Ipari+Alpin+Technika/data=!4m7!3m6!1s0x61d5be3002ba8b2b:0xc2349a99ec25c8e8!8m2!3d47.1611554!4d19.5052372!16s%2Fg%2F11rvjym5mp!19sChIJK4u6AjC-1WER6Mgl7JmaNMI?authuser=0&hl=tr&rclk=1",
    "website_url": "http://www.alpinnal.webnode.hu/",
    "rating_text": "",
    "stars": null,
    "number_of_reviews": null,
    "price_level": "",
    "open_hours": "",
    "extraction_timestamp": "2025-06-07T14:33:14.108Z",
    "source_name": "google",
    "source_query": "Irrigation Equipment",
    "source_country": "RO",
    "country": "Romania",
    "state": "Timiș County",
    "city": "Comuna Cenad"
  },
  {
    "source_id": "ChIJg9FISpL5REcR2Vkav1-ZXvo",
    "name": "Profi Loco",
    "category": "Profi Loco",
    "formatted_address": "",
    "phone_number": "+40799314766",
    "source_url": "https://www.google.com/maps/place/Profi+Loco/data=!4m7!3m6!1s0x4744f9924a48d183:0xfa5e995fbf1a59d9!8m2!3d46.1377535!4d20.5869949!16s%2Fg%2F11y3hqnwdn!19sChIJg9FISpL5REcR2Vkav1-ZXvo?authuser=0&hl=tr&rclk=1",
    "website_url": "https://www.profi.ro/?utm_source=google&utm_medium=organic&utm_campaign=dwf_local_seo",
    "rating_text": "",
    "stars": null,
    "number_of_reviews": null,
    "price_level": "",
    "open_hours": "",
    "extraction_timestamp": "2025-06-07T14:33:14.109Z",
    "source_name": "google",
    "source_query": "Irrigation Equipment",
    "source_country": "RO",
    "country": "Romania",
    "state": "Timiș County",
    "city": "Comuna Cenad"
  }
]
