[
  {
    "source_id": "ChIJm2k4OBhnRUcRorlDejzLFj8",
    "name": "INTTECH INDUSTRY - Timis",
    "category": "INTTECH INDUSTRY - Timis",
    "formatted_address": "5,0(30)",
    "phone_number": "+40744323626",
    "source_url": "https://www.google.com/maps/place/INTTECH+INDUSTRY+-+Timis/data=!4m7!3m6!1s0x474567183838699b:0x3f16cb3c7a43b9a2!8m2!3d45.8007315!4d21.249204!16s%2Fg%2F11j3g9f8jq!19sChIJm2k4OBhnRUcRorlDejzLFj8?authuser=0&hl=tr&rclk=1",
    "website_url": "http://www.irrishop.ro/",
    "rating_text": "5,0",
    "stars": null,
    "number_of_reviews": null,
    "price_level": "",
    "open_hours": "",
    "extraction_timestamp": "2025-06-07T14:16:32.686Z",
    "source_name": "google",
    "source_query": "Irrigation Equipment",
    "source_country": "RO",
    "country": "Romania",
    "state": "Timiș County",
    "city": "Comuna Balinţ"
  },
  {
    "source_id": "ChIJD7OM9o1dRUcRRqlJ_yffJcE",
    "name": "Gardensis S.R.L.",
    "category": "Gardensis S.R.L.",
    "formatted_address": "4,6(16)",
    "phone_number": "+40724011591",
    "source_url": "https://www.google.com/maps/place/Gardensis+S.R.L./data=!4m7!3m6!1s0x47455d8df68cb30f:0xc125df27ff49a946!8m2!3d45.7292754!4d21.2698954!16s%2Fg%2F1hc7xr42_!19sChIJD7OM9o1dRUcRRqlJ_yffJcE?authuser=0&hl=tr&rclk=1",
    "website_url": "http://www.irigatii.ro/",
    "rating_text": "4,6",
    "stars": null,
    "number_of_reviews": null,
    "price_level": "",
    "open_hours": "",
    "extraction_timestamp": "2025-06-07T14:16:32.687Z",
    "source_name": "google",
    "source_query": "Irrigation Equipment",
    "source_country": "RO",
    "country": "Romania",
    "state": "Timiș County",
    "city": "Comuna Balinţ"
  },
  {
    "source_id": "ChIJgURmzti_T0cRTeWnAxxIKb0",
    "name": "RURAL PLANT SRL",
    "category": "RURAL PLANT SRL",
    "formatted_address": "4,7(39)",
    "phone_number": "+40761231076",
    "source_url": "https://www.google.com/maps/place/RURAL+PLANT+SRL/data=!4m7!3m6!1s0x474fbfd8ce664481:0xbd29481c03a7e54d!8m2!3d45.6838012!4d21.9072438!16s%2Fg%2F11gl20ty7c!19sChIJgURmzti_T0cRTeWnAxxIKb0?authuser=0&hl=tr&rclk=1",
    "website_url": "https://ruralplant.ro/",
    "rating_text": "4,7",
    "stars": null,
    "number_of_reviews": null,
    "price_level": "",
    "open_hours": "",
    "extraction_timestamp": "2025-06-07T14:16:32.687Z",
    "source_name": "google",
    "source_query": "Irrigation Equipment",
    "source_country": "RO",
    "country": "Romania",
    "state": "Timiș County",
    "city": "Comuna Balinţ"
  },
  {
    "source_id": "ChIJMWnr6hJeRUcR1qATsiSFcKk",
    "name": "Irigații-S.C.Badin-sistem S.R.L.",
    "category": "Irigații-S.C.Badin-sistem S.R.L.",
    "formatted_address": "4,7(76)",
    "phone_number": "+40785111698",
    "source_url": "https://www.google.com/maps/place/Iriga%C8%9Bii-S.C.Badin-sistem+S.R.L./data=!4m7!3m6!1s0x47455e12eaeb6931:0xa9708524b213a0d6!8m2!3d45.7351861!4d21.263806!16s%2Fg%2F11c5rmlsvm!19sChIJMWnr6hJeRUcR1qATsiSFcKk?authuser=0&hl=tr&rclk=1",
    "website_url": "http://www.badinsistem.ro/",
    "rating_text": "4,7",
    "stars": null,
    "number_of_reviews": null,
    "price_level": "",
    "open_hours": "",
    "extraction_timestamp": "2025-06-07T14:16:32.688Z",
    "source_name": "google",
    "source_query": "Irrigation Equipment",
    "source_country": "RO",
    "country": "Romania",
    "state": "Timiș County",
    "city": "Comuna Balinţ"
  },
  {
    "source_id": "ChIJNVF0JZyZRUcROrGIQqRikNo",
    "name": "Sc Irigarden Srl",
    "category": "Sc Irigarden Srl",
    "formatted_address": "4,7(52)",
    "phone_number": "+40744310125",
    "source_url": "https://www.google.com/maps/place/Sc+Irigarden+Srl/data=!4m7!3m6!1s0x4745999c25745135:0xda9062a44288b13a!8m2!3d46.14823!4d21.328789!16s%2Fg%2F1tp0cg5b!19sChIJNVF0JZyZRUcROrGIQqRikNo?authuser=0&hl=tr&rclk=1",
    "website_url": "https://www.irigarden.ro/",
    "rating_text": "4,7",
    "stars": null,
    "number_of_reviews": null,
    "price_level": "",
    "open_hours": "",
    "extraction_timestamp": "2025-06-07T14:16:32.688Z",
    "source_name": "google",
    "source_query": "Irrigation Equipment",
    "source_country": "RO",
    "country": "Romania",
    "state": "Timiș County",
    "city": "Comuna Balinţ"
  },
  {
    "source_id": "ChIJhYgctPWRT0cRe9Nm2HJCq4k",
    "name": "Magazia lu' Costica Banat",
    "category": "Magazia lu' Costica Banat",
    "formatted_address": "4,7(6)",
    "phone_number": "+40761231076",
    "source_url": "https://www.google.com/maps/place/Magazia+lu%27+Costica+Banat/data=!4m7!3m6!1s0x474f91f5b41c8885:0x89ab4272d866d37b!8m2!3d45.7633017!4d21.7277277!16s%2Fg%2F11vpj66knt!19sChIJhYgctPWRT0cRe9Nm2HJCq4k?authuser=0&hl=tr&rclk=1",
    "website_url": "https://www.ruralplant.ro/",
    "rating_text": "4,7",
    "stars": null,
    "number_of_reviews": null,
    "price_level": "",
    "open_hours": "",
    "extraction_timestamp": "2025-06-07T14:16:32.689Z",
    "source_name": "google",
    "source_query": "Irrigation Equipment",
    "source_country": "RO",
    "country": "Romania",
    "state": "Timiș County",
    "city": "Comuna Balinţ"
  },
  {
    "source_id": "ChIJzzGl8ApeRUcR3xJZHCGgt08",
    "name": "irigatii.ro",
    "category": "irigatii.ro",
    "formatted_address": "4,8(65)",
    "phone_number": "+40724011591",
    "source_url": "https://www.google.com/maps/place/irigatii.ro/data=!4m7!3m6!1s0x47455e0af0a531cf:0x4fb7a0211c5912df!8m2!3d45.7293134!4d21.2700735!16s%2Fg%2F1hc2p_4by!19sChIJzzGl8ApeRUcR3xJZHCGgt08?authuser=0&hl=tr&rclk=1",
    "website_url": "http://www.irigatii.ro/",
    "rating_text": "4,8",
    "stars": null,
    "number_of_reviews": null,
    "price_level": "",
    "open_hours": "",
    "extraction_timestamp": "2025-06-07T14:16:32.689Z",
    "source_name": "google",
    "source_query": "Irrigation Equipment",
    "source_country": "RO",
    "country": "Romania",
    "state": "Timiș County",
    "city": "Comuna Balinţ"
  },
  {
    "source_id": "ChIJcUVxnDaZRUcRUbUn3okKfP4",
    "name": "SC Tehnica Irigatii-Lacuri Decorative SRL",
    "category": "SC Tehnica Irigatii-Lacuri Decorative SRL",
    "formatted_address": "4,9(32)",
    "phone_number": "+40731208755",
    "source_url": "https://www.google.com/maps/place/SC+Tehnica+Irigatii-Lacuri+Decorative+SRL/data=!4m7!3m6!1s0x474599369c714571:0xfe7c0a89de27b551!8m2!3d46.1409626!4d21.3164797!16s%2Fg%2F11c6vbxz0v!19sChIJcUVxnDaZRUcRUbUn3okKfP4?authuser=0&hl=tr&rclk=1",
    "website_url": "https://www.tehnicairigatii.ro/",
    "rating_text": "4,9",
    "stars": null,
    "number_of_reviews": null,
    "price_level": "",
    "open_hours": "",
    "extraction_timestamp": "2025-06-07T14:16:32.690Z",
    "source_name": "google",
    "source_query": "Irrigation Equipment",
    "source_country": "RO",
    "country": "Romania",
    "state": "Timiș County",
    "city": "Comuna Balinţ"
  },
  {
    "source_id": "ChIJbwbdSwCVT0cRFc1jiN7nnu0",
    "name": "Stația de Pompare Sinersig (Timișana, mal stâng)",
    "category": "Stația de Pompare Sinersig (Timișana, mal stâng)",
    "formatted_address": "Stația de Pompare Sinersig (Timișana, mal stâng)",
    "phone_number": "",
    "source_url": "https://www.google.com/maps/place/Sta%C8%9Bia+de+Pompare+Sinersig+%28Timi%C8%99ana,+mal+st%C3%A2ng%29/data=!4m7!3m6!1s0x474f95004bdd066f:0xed9ee7de8863cd15!8m2!3d45.6993479!4d21.7233815!16s%2Fg%2F11lv5zt1fv!19sChIJbwbdSwCVT0cRFc1jiN7nnu0?authuser=0&hl=tr&rclk=1",
    "website_url": "",
    "rating_text": "",
    "stars": null,
    "number_of_reviews": null,
    "price_level": "",
    "open_hours": "",
    "extraction_timestamp": "2025-06-07T14:16:32.690Z",
    "source_name": "google",
    "source_query": "Irrigation Equipment",
    "source_country": "RO",
    "country": "Romania",
    "state": "Timiș County",
    "city": "Comuna Balinţ"
  },
  {
    "source_id": "ChIJe5iszo5fRUcRxo7w0Xha61A",
    "name": "BADIN SISTEM",
    "category": "BADIN SISTEM",
    "formatted_address": "5,0(5)",
    "phone_number": "+40785111698",
    "source_url": "https://www.google.com/maps/place/BADIN+SISTEM/data=!4m7!3m6!1s0x47455f8eceac987b:0x50eb5a78d1f08ec6!8m2!3d45.7262042!4d21.2819381!16s%2Fg%2F11tjzt76v7!19sChIJe5iszo5fRUcRxo7w0Xha61A?authuser=0&hl=tr&rclk=1",
    "website_url": "https://www.badinsistem.ro/",
    "rating_text": "5,0",
    "stars": null,
    "number_of_reviews": null,
    "price_level": "",
    "open_hours": "",
    "extraction_timestamp": "2025-06-07T14:16:32.691Z",
    "source_name": "google",
    "source_query": "Irrigation Equipment",
    "source_country": "RO",
    "country": "Romania",
    "state": "Timiș County",
    "city": "Comuna Balinţ"
  },
  {
    "source_id": "ChIJAVoS98SZT0cRm7RIb74ZYEw",
    "name": "Magazin alimentar",
    "category": "Magazin alimentar",
    "formatted_address": "5,0(3)",
    "phone_number": "",
    "source_url": "https://www.google.com/maps/place/Magazin+alimentar/data=!4m7!3m6!1s0x474f99c4f7125a01:0x4c6019be6f48b49b!8m2!3d45.8152172!4d21.8586483!16s%2Fg%2F11fm_k4q2h!19sChIJAVoS98SZT0cRm7RIb74ZYEw?authuser=0&hl=tr&rclk=1",
    "website_url": "",
    "rating_text": "5,0",
    "stars": null,
    "number_of_reviews": null,
    "price_level": "",
    "open_hours": "",
    "extraction_timestamp": "2025-06-07T14:16:32.691Z",
    "source_name": "google",
    "source_query": "Irrigation Equipment",
    "source_country": "RO",
    "country": "Romania",
    "state": "Timiș County",
    "city": "Comuna Balinţ"
  },
  {
    "source_id": "ChIJIfnfLTNnRUcRSrDX85TqUB4",
    "name": "Delta Exclusiv s.r.l.",
    "category": "Delta Exclusiv s.r.l.",
    "formatted_address": "5,0(1)",
    "phone_number": "+40744797018",
    "source_url": "https://www.google.com/maps/place/Delta+Exclusiv+s.r.l./data=!4m7!3m6!1s0x474567332ddff921:0x1e50ea94f3d7b04a!8m2!3d45.756904!4d21.239286!16s%2Fg%2F11fkkzwcn_!19sChIJIfnfLTNnRUcRSrDX85TqUB4?authuser=0&hl=tr&rclk=1",
    "website_url": "https://www.deltaexclusiv.ro/",
    "rating_text": "5,0",
    "stars": null,
    "number_of_reviews": null,
    "price_level": "",
    "open_hours": "",
    "extraction_timestamp": "2025-06-07T14:16:32.691Z",
    "source_name": "google",
    "source_query": "Irrigation Equipment",
    "source_country": "RO",
    "country": "Romania",
    "state": "Timiș County",
    "city": "Comuna Balinţ"
  },
  {
    "source_id": "ChIJ89rcY25dRUcRZT8mqS9M5qc",
    "name": "Banat Garden Timisoara",
    "category": "Banat Garden Timisoara",
    "formatted_address": "4,9(34)",
    "phone_number": "+40724402076",
    "source_url": "https://www.google.com/maps/place/Banat+Garden+Timisoara/data=!4m7!3m6!1s0x47455d6e63dcdaf3:0xa7e64c2fa9263f65!8m2!3d45.7571782!4d21.2301306!16s%2Fg%2F11gl0h6gg8!19sChIJ89rcY25dRUcRZT8mqS9M5qc?authuser=0&hl=tr&rclk=1",
    "website_url": "http://banatgarden.ro/",
    "rating_text": "4,9",
    "stars": null,
    "number_of_reviews": null,
    "price_level": "",
    "open_hours": "",
    "extraction_timestamp": "2025-06-07T14:16:32.692Z",
    "source_name": "google",
    "source_query": "Irrigation Equipment",
    "source_country": "RO",
    "country": "Romania",
    "state": "Timiș County",
    "city": "Comuna Balinţ"
  },
  {
    "source_id": "ChIJHf9ZXt_-sUARDzm2kUTL_KA",
    "name": "MAG-irigatii.ro - Rain Bird Romania Sisteme de Irigatii",
    "category": "MAG-irigatii.ro - Rain Bird Romania Sisteme de Irigatii",
    "formatted_address": "4,8(54)",
    "phone_number": "+40748093097",
    "source_url": "https://www.google.com/maps/place/MAG-irigatii.ro+-+Rain+Bird+Romania+Sisteme+de+Irigatii/data=!4m7!3m6!1s0x40b1fedf5e59ff1d:0xa0fccb4491b6390f!8m2!3d44.3735344!4d26.178023!16s%2Fg%2F11bbw_z176!19sChIJHf9ZXt_-sUARDzm2kUTL_KA?authuser=0&hl=tr&rclk=1",
    "website_url": "https://www.mag-irigatii.ro/",
    "rating_text": "4,8",
    "stars": null,
    "number_of_reviews": null,
    "price_level": "",
    "open_hours": "",
    "extraction_timestamp": "2025-06-07T14:16:32.692Z",
    "source_name": "google",
    "source_query": "Irrigation Equipment",
    "source_country": "RO",
    "country": "Romania",
    "state": "Timiș County",
    "city": "Comuna Balinţ"
  },
  {
    "source_id": "ChIJv_eizuFdRUcRg4yb6UmX30I",
    "name": "MagazinGradina",
    "category": "MagazinGradina",
    "formatted_address": "",
    "phone_number": "+40724011591",
    "source_url": "https://www.google.com/maps/place/MagazinGradina/data=!4m7!3m6!1s0x47455de1cea2f7bf:0x42df9749e99b8c83!8m2!3d45.7293427!4d21.2700876!16s%2Fg%2F11fqptlzbn!19sChIJv_eizuFdRUcRg4yb6UmX30I?authuser=0&hl=tr&rclk=1",
    "website_url": "http://magazingradina.ro/",
    "rating_text": "",
    "stars": null,
    "number_of_reviews": null,
    "price_level": "",
    "open_hours": "",
    "extraction_timestamp": "2025-06-07T14:16:32.692Z",
    "source_name": "google",
    "source_query": "Irrigation Equipment",
    "source_country": "RO",
    "country": "Romania",
    "state": "Timiș County",
    "city": "Comuna Balinţ"
  },
  {
    "source_id": "ChIJu_3uZ3ddRUcRIRUlcPqNBE0",
    "name": "Gardensis",
    "category": "Gardensis",
    "formatted_address": "",
    "phone_number": "+40724831901",
    "source_url": "https://www.google.com/maps/place/Gardensis/data=!4m7!3m6!1s0x47455d7767eefdbb:0x4d048dfa70251521!8m2!3d45.7437075!4d21.2137216!16s%2Fg%2F11hyt1pk45!19sChIJu_3uZ3ddRUcRIRUlcPqNBE0?authuser=0&hl=tr&rclk=1",
    "website_url": "",
    "rating_text": "",
    "stars": null,
    "number_of_reviews": null,
    "price_level": "",
    "open_hours": "",
    "extraction_timestamp": "2025-06-07T14:16:32.693Z",
    "source_name": "google",
    "source_query": "Irrigation Equipment",
    "source_country": "RO",
    "country": "Romania",
    "state": "Timiș County",
    "city": "Comuna Balinţ"
  },
  {
    "source_id": "ChIJLWnyUBaZT0cRrHbe9O0IccM",
    "name": "Farmacie veterinară",
    "category": "Farmacie veterinară",
    "formatted_address": "4,9(8)",
    "phone_number": "",
    "source_url": "https://www.google.com/maps/place/Farmacie+veterinar%C4%83/data=!4m7!3m6!1s0x474f991650f2692d:0xc37108edf4de76ac!8m2!3d45.8123625!4d21.8576787!16s%2Fg%2F11h_46nkk9!19sChIJLWnyUBaZT0cRrHbe9O0IccM?authuser=0&hl=tr&rclk=1",
    "website_url": "",
    "rating_text": "4,9",
    "stars": null,
    "number_of_reviews": null,
    "price_level": "",
    "open_hours": "",
    "extraction_timestamp": "2025-06-07T14:16:32.693Z",
    "source_name": "google",
    "source_query": "Irrigation Equipment",
    "source_country": "RO",
    "country": "Romania",
    "state": "Timiș County",
    "city": "Comuna Balinţ"
  },
  {
    "source_id": "ChIJfz7qt4yZT0cRZvc9oLW0Wg8",
    "name": "Primăria Balinț",
    "category": "Primăria Balinț",
    "formatted_address": "4,4(22)",
    "phone_number": "+40256333100",
    "source_url": "https://www.google.com/maps/place/Prim%C4%83ria+Balin%C8%9B/data=!4m7!3m6!1s0x474f998cb7ea3e7f:0xf5ab4b5a03df766!8m2!3d45.8132138!4d21.8575147!16s%2Fg%2F11fn4jqlfb!19sChIJfz7qt4yZT0cRZvc9oLW0Wg8?authuser=0&hl=tr&rclk=1",
    "website_url": "https://www.primariabalint.ro/contact",
    "rating_text": "4,4",
    "stars": null,
    "number_of_reviews": null,
    "price_level": "",
    "open_hours": "",
    "extraction_timestamp": "2025-06-07T14:16:32.693Z",
    "source_name": "google",
    "source_query": "Irrigation Equipment",
    "source_country": "RO",
    "country": "Romania",
    "state": "Timiș County",
    "city": "Comuna Balinţ"
  },
  {
    "source_id": "ChIJxbMwbvGZRUcR3m3IP3squl4",
    "name": "SC HENNLICH SRL",
    "category": "SC HENNLICH SRL",
    "formatted_address": "4,4(14)",
    "phone_number": "+40257211119",
    "source_url": "https://www.google.com/maps/place/SC+HENNLICH+SRL/data=!4m7!3m6!1s0x474599f16e30b3c5:0x5eba2a7b3fc86dde!8m2!3d46.1967967!4d21.3340806!16s%2Fg%2F11j73mcr8s!19sChIJxbMwbvGZRUcR3m3IP3squl4?authuser=0&hl=tr&rclk=1",
    "website_url": "http://www.hennlich.ro/",
    "rating_text": "4,4",
    "stars": null,
    "number_of_reviews": null,
    "price_level": "",
    "open_hours": "",
    "extraction_timestamp": "2025-06-07T14:16:32.694Z",
    "source_name": "google",
    "source_query": "Irrigation Equipment",
    "source_country": "RO",
    "country": "Romania",
    "state": "Timiș County",
    "city": "Comuna Balinţ"
  },
  {
    "source_id": "ChIJ2SHYVwBBRUcRxh8pwdeXz6c",
    "name": "Stația de Pompare Bobda (mai stâng, Bega Veche)",
    "category": "Stația de Pompare Bobda (mai stâng, Bega Veche)",
    "formatted_address": "Stația de Pompare Bobda (mai stâng, Bega Veche)",
    "phone_number": "",
    "source_url": "https://www.google.com/maps/place/Sta%C8%9Bia+de+Pompare+Bobda+%28mai+st%C3%A2ng,+Bega+Veche%29/data=!4m7!3m6!1s0x4745410057d821d9:0xa7cf97d7c1291fc6!8m2!3d45.7354857!4d20.9663843!16s%2Fg%2F11wfmg3h7_!19sChIJ2SHYVwBBRUcRxh8pwdeXz6c?authuser=0&hl=tr&rclk=1",
    "website_url": "",
    "rating_text": "",
    "stars": null,
    "number_of_reviews": null,
    "price_level": "",
    "open_hours": "",
    "extraction_timestamp": "2025-06-07T14:16:32.694Z",
    "source_name": "google",
    "source_query": "Irrigation Equipment",
    "source_country": "RO",
    "country": "Romania",
    "state": "Timiș County",
    "city": "Comuna Balinţ"
  },
  {
    "source_id": "ChIJw-YksvWYRUcRkVBvDN1DkDU",
    "name": "Bendea",
    "category": "Bendea",
    "formatted_address": "4,3(53)",
    "phone_number": "+40751094705",
    "source_url": "https://www.google.com/maps/place/Bendea/data=!4m7!3m6!1s0x474598f5b224e6c3:0x359043dd0c6f5091!8m2!3d46.1779225!4d21.2955464!16s%2Fg%2F11c1nfbk3c!19sChIJw-YksvWYRUcRkVBvDN1DkDU?authuser=0&hl=tr&rclk=1",
    "website_url": "",
    "rating_text": "4,3",
    "stars": null,
    "number_of_reviews": null,
    "price_level": "",
    "open_hours": "",
    "extraction_timestamp": "2025-06-07T14:16:32.694Z",
    "source_name": "google",
    "source_query": "Irrigation Equipment",
    "source_country": "RO",
    "country": "Romania",
    "state": "Timiș County",
    "city": "Comuna Balinţ"
  },
  {
    "source_id": "ChIJQT4bo-y-T0cRmaeeDYSjmQY",
    "name": "Intercom Lugostar S.R.L.",
    "category": "Intercom Lugostar S.R.L.",
    "formatted_address": "4,3(44)",
    "phone_number": "+40722301936",
    "source_url": "https://www.google.com/maps/place/Intercom+Lugostar+S.R.L./data=!4m7!3m6!1s0x474fbeeca31b3e41:0x699a3840d9ea799!8m2!3d45.6808245!4d21.9026932!16s%2Fg%2F1hc5dzbyy!19sChIJQT4bo-y-T0cRmaeeDYSjmQY?authuser=0&hl=tr&rclk=1",
    "website_url": "https://www.lugostar.ro/",
    "rating_text": "4,3",
    "stars": null,
    "number_of_reviews": null,
    "price_level": "",
    "open_hours": "",
    "extraction_timestamp": "2025-06-07T14:16:32.694Z",
    "source_name": "google",
    "source_query": "Irrigation Equipment",
    "source_country": "RO",
    "country": "Romania",
    "state": "Timiș County",
    "city": "Comuna Balinţ"
  },
  {
    "source_id": "ChIJH7DdtKtdRUcRLJXQhLkF7o8",
    "name": "System Install",
    "category": "System Install",
    "formatted_address": "5,0(317)",
    "phone_number": "+40735657575",
    "source_url": "https://www.google.com/maps/place/System+Install/data=!4m7!3m6!1s0x47455dabb4ddb01f:0x8fee05b984d0952c!8m2!3d45.7077619!4d21.2100434!16s%2Fg%2F11hy_mn98z!19sChIJH7DdtKtdRUcRLJXQhLkF7o8?authuser=0&hl=tr&rclk=1",
    "website_url": "https://instalatii-timisoara.ro/",
    "rating_text": "5,0",
    "stars": null,
    "number_of_reviews": null,
    "price_level": "",
    "open_hours": "",
    "extraction_timestamp": "2025-06-07T14:16:32.695Z",
    "source_name": "google",
    "source_query": "Irrigation Equipment",
    "source_country": "RO",
    "country": "Romania",
    "state": "Timiș County",
    "city": "Comuna Balinţ"
  },
  {
    "source_id": "ChIJp2OAcQBTRUcRniu69EXSQRA",
    "name": "Stația de Pompare Gad (Timiș, mal stâng)",
    "category": "Stația de Pompare Gad (Timiș, mal stâng)",
    "formatted_address": "Stația de Pompare Gad (Timiș, mal stâng)",
    "phone_number": "",
    "source_url": "https://www.google.com/maps/place/Sta%C8%9Bia+de+Pompare+Gad+%28Timi%C8%99,+mal+st%C3%A2ng%29/data=!4m7!3m6!1s0x47455300718063a7:0x1041d245f4ba2b9e!8m2!3d45.4876294!4d21.0120564!16s%2Fg%2F11lnw65r19!19sChIJp2OAcQBTRUcRniu69EXSQRA?authuser=0&hl=tr&rclk=1",
    "website_url": "",
    "rating_text": "",
    "stars": null,
    "number_of_reviews": null,
    "price_level": "",
    "open_hours": "",
    "extraction_timestamp": "2025-06-07T14:16:32.695Z",
    "source_name": "google",
    "source_query": "Irrigation Equipment",
    "source_country": "RO",
    "country": "Romania",
    "state": "Timiș County",
    "city": "Comuna Balinţ"
  },
  {
    "source_id": "ChIJH8WgtL9nRUcRtzTLRiyI53o",
    "name": "Instal Impex",
    "category": "Instal Impex",
    "formatted_address": "4,9(12)",
    "phone_number": "+40356423372",
    "source_url": "https://www.google.com/maps/place/Instal+Impex/data=!4m7!3m6!1s0x474567bfb4a0c51f:0x7ae7882c46cb34b7!8m2!3d45.7360839!4d21.2562389!16s%2Fg%2F11b77wly4x!19sChIJH8WgtL9nRUcRtzTLRiyI53o?authuser=0&hl=tr&rclk=1",
    "website_url": "http://www.instalimpex.ro/",
    "rating_text": "4,9",
    "stars": null,
    "number_of_reviews": null,
    "price_level": "",
    "open_hours": "",
    "extraction_timestamp": "2025-06-07T14:16:32.696Z",
    "source_name": "google",
    "source_query": "Irrigation Equipment",
    "source_country": "RO",
    "country": "Romania",
    "state": "Timiș County",
    "city": "Comuna Balinţ"
  },
  {
    "source_id": "ChIJfRMY9QldRUcRBP62OdyuMe0",
    "name": "Instalplus",
    "category": "Instalplus",
    "formatted_address": "4,7(29)",
    "phone_number": "+40728969778",
    "source_url": "https://www.google.com/maps/place/Instalplus/data=!4m7!3m6!1s0x47455d09f518137d:0xed31aedc39b6fe04!8m2!3d45.7336556!4d21.2094947!16s%2Fg%2F11c1vq02h0!19sChIJfRMY9QldRUcRBP62OdyuMe0?authuser=0&hl=tr&rclk=1",
    "website_url": "https://www.instalplus.ro/",
    "rating_text": "4,7",
    "stars": null,
    "number_of_reviews": null,
    "price_level": "",
    "open_hours": "",
    "extraction_timestamp": "2025-06-07T14:16:32.696Z",
    "source_name": "google",
    "source_query": "Irrigation Equipment",
    "source_country": "RO",
    "country": "Romania",
    "state": "Timiș County",
    "city": "Comuna Balinţ"
  },
  {
    "source_id": "ChIJPcU4VpBnRUcRQikVyq_fOYI",
    "name": "Romstal",
    "category": "Romstal",
    "formatted_address": "4,2(248)",
    "phone_number": "+40372123110",
    "source_url": "https://www.google.com/maps/place/Romstal/data=!4m7!3m6!1s0x474567905638c53d:0x8239dfafca152942!8m2!3d45.7685415!4d21.2211134!16s%2Fg%2F1tycvf85!19sChIJPcU4VpBnRUcRQikVyq_fOYI?authuser=0&hl=tr&rclk=1",
    "website_url": "http://www.romstal.ro/",
    "rating_text": "4,2",
    "stars": null,
    "number_of_reviews": null,
    "price_level": "",
    "open_hours": "",
    "extraction_timestamp": "2025-06-07T14:16:32.697Z",
    "source_name": "google",
    "source_query": "Irrigation Equipment",
    "source_country": "RO",
    "country": "Romania",
    "state": "Timiș County",
    "city": "Comuna Balinţ"
  },
  {
    "source_id": "ChIJ6cB_O0P3RUcRFMRw4_28-NE",
    "name": "Instalzone Company",
    "category": "Instalzone Company",
    "formatted_address": "4,8(5)",
    "phone_number": "+40742677118",
    "source_url": "https://www.google.com/maps/place/Instalzone+Company/data=!4m7!3m6!1s0x4745f7433b7fc0e9:0xd1f8bcfde370c414!8m2!3d46.4226021!4d21.8401836!16s%2Fg%2F11gfnw02qt!19sChIJ6cB_O0P3RUcRFMRw4_28-NE?authuser=0&hl=tr&rclk=1",
    "website_url": "https://www.listafirme.ro/instalzone-company-srl-26170998/",
    "rating_text": "4,8",
    "stars": null,
    "number_of_reviews": null,
    "price_level": "",
    "open_hours": "",
    "extraction_timestamp": "2025-06-07T14:16:32.697Z",
    "source_name": "google",
    "source_query": "Irrigation Equipment",
    "source_country": "RO",
    "country": "Romania",
    "state": "Timiș County",
    "city": "Comuna Balinţ"
  },
  {
    "source_id": "ChIJswFoFGxdRUcR7FncKGqo66Q",
    "name": "Vasi' Gradinaru' - Servicii Gradinarit Timisoara",
    "category": "Vasi' Gradinaru' - Servicii Gradinarit Timisoara",
    "formatted_address": "4,9(53)",
    "phone_number": "+40728688758",
    "source_url": "https://www.google.com/maps/place/Vasi%27+Gradinaru%27+-+Servicii+Gradinarit+Timisoara/data=!4m7!3m6!1s0x47455d6c146801b3:0xa4eba86a28dc59ec!8m2!3d45.7452851!4d21.198661!16s%2Fg%2F11c713wgl6!19sChIJswFoFGxdRUcR7FncKGqo66Q?authuser=0&hl=tr&rclk=1",
    "website_url": "https://www.vasigradinaru.ro/",
    "rating_text": "4,9",
    "stars": null,
    "number_of_reviews": null,
    "price_level": "",
    "open_hours": "",
    "extraction_timestamp": "2025-06-07T14:16:32.698Z",
    "source_name": "google",
    "source_query": "Irrigation Equipment",
    "source_country": "RO",
    "country": "Romania",
    "state": "Timiș County",
    "city": "Comuna Balinţ"
  },
  {
    "source_id": "ChIJWwlqo3dnRUcRE1PZAJWOvC4",
    "name": "Uniprest Instal",
    "category": "Uniprest Instal",
    "formatted_address": "4,3(30)",
    "phone_number": "+40771294435",
    "source_url": "https://www.google.com/maps/place/Uniprest+Instal/data=!4m7!3m6!1s0x47456777a36a095b:0x2ebc8e9500d95313!8m2!3d45.7776432!4d21.3081463!16s%2Fg%2F11c5h1r7db!19sChIJWwlqo3dnRUcRE1PZAJWOvC4?authuser=0&hl=tr&rclk=1",
    "website_url": "http://www.uniprest.ro/",
    "rating_text": "4,3",
    "stars": null,
    "number_of_reviews": null,
    "price_level": "",
    "open_hours": "",
    "extraction_timestamp": "2025-06-07T14:16:32.698Z",
    "source_name": "google",
    "source_query": "Irrigation Equipment",
    "source_country": "RO",
    "country": "Romania",
    "state": "Timiș County",
    "city": "Comuna Balinţ"
  },
  {
    "source_id": "ChIJNTRTIuS_T0cRQCDPhDYmrOg",
    "name": "D.A. Constantin",
    "category": "D.A. Constantin",
    "formatted_address": "4,5(10)",
    "phone_number": "",
    "source_url": "https://www.google.com/maps/place/D.A.+Constantin/data=!4m7!3m6!1s0x474fbfe422533435:0xe8ac263684cf2040!8m2!3d45.6916909!4d21.9073388!16s%2Fg%2F11hdsrr9h1!19sChIJNTRTIuS_T0cRQCDPhDYmrOg?authuser=0&hl=tr&rclk=1",
    "website_url": "",
    "rating_text": "4,5",
    "stars": null,
    "number_of_reviews": null,
    "price_level": "",
    "open_hours": "",
    "extraction_timestamp": "2025-06-07T14:16:32.699Z",
    "source_name": "google",
    "source_query": "Irrigation Equipment",
    "source_country": "RO",
    "country": "Romania",
    "state": "Timiș County",
    "city": "Comuna Balinţ"
  },
  {
    "source_id": "ChIJIYpADkdnRUcRYhFMyNr5B6Y",
    "name": "Landscape Experts - SC FACULTATIV DEZVOLTARE SRL",
    "category": "Landscape Experts - SC FACULTATIV DEZVOLTARE SRL",
    "formatted_address": "5,0(3)",
    "phone_number": "+40720627264",
    "source_url": "https://www.google.com/maps/place/Landscape+Experts+-+SC+FACULTATIV+DEZVOLTARE+SRL/data=!4m7!3m6!1s0x474567470e408a21:0xa607f9dac84c1162!8m2!3d45.7836652!4d21.2066845!16s%2Fg%2F11ryt3szcr!19sChIJIYpADkdnRUcRYhFMyNr5B6Y?authuser=0&hl=tr&rclk=1",
    "website_url": "http://www.l-e.ro/",
    "rating_text": "5,0",
    "stars": null,
    "number_of_reviews": null,
    "price_level": "",
    "open_hours": "",
    "extraction_timestamp": "2025-06-07T14:16:32.699Z",
    "source_name": "google",
    "source_query": "Irrigation Equipment",
    "source_country": "RO",
    "country": "Romania",
    "state": "Timiș County",
    "city": "Comuna Balinţ"
  },
  {
    "source_id": "ChIJWRMxCuddRUcRNNzDVD1aXEU",
    "name": "Art Clim",
    "category": "Art Clim",
    "formatted_address": "4,3(6)",
    "phone_number": "+40256223214",
    "source_url": "https://www.google.com/maps/place/Art+Clim/data=!4m7!3m6!1s0x47455de70a311359:0x455c5a3d54c3dc34!8m2!3d45.7317471!4d21.2576774!16s%2Fg%2F1hc1fd9pf!19sChIJWRMxCuddRUcRNNzDVD1aXEU?authuser=0&hl=tr&rclk=1",
    "website_url": "http://artclim.ro/",
    "rating_text": "4,3",
    "stars": null,
    "number_of_reviews": null,
    "price_level": "",
    "open_hours": "",
    "extraction_timestamp": "2025-06-07T14:16:32.700Z",
    "source_name": "google",
    "source_query": "Irrigation Equipment",
    "source_country": "RO",
    "country": "Romania",
    "state": "Timiș County",
    "city": "Comuna Balinţ"
  }
]
