[
  {
    "source_id": "ChIJm2k4OBhnRUcRorlDejzLFj8",
    "name": "INTTECH INDUSTRY - Timis",
    "category": "INTTECH INDUSTRY - Timis",
    "formatted_address": "5,0(30)",
    "phone_number": "+40744323626",
    "source_url": "https://www.google.com/maps/place/INTTECH+INDUSTRY+-+Timis/data=!4m7!3m6!1s0x474567183838699b:0x3f16cb3c7a43b9a2!8m2!3d45.8007315!4d21.249204!16s%2Fg%2F11j3g9f8jq!19sChIJm2k4OBhnRUcRorlDejzLFj8?authuser=0&hl=tr&rclk=1",
    "website_url": "http://www.irrishop.ro/",
    "rating_text": "5,0",
    "stars": null,
    "number_of_reviews": null,
    "price_level": "",
    "open_hours": "",
    "extraction_timestamp": "2025-06-07T14:43:15.179Z",
    "source_name": "google",
    "source_query": "Irrigation Equipment",
    "source_country": "RO",
    "country": "Romania",
    "state": "Timiș County",
    "city": "Comuna Mănăştiur"
  },
  {
    "source_id": "ChIJMWnr6hJeRUcR1qATsiSFcKk",
    "name": "Irigații-S.C.Badin-sistem S.R.L.",
    "category": "Irigații-S.C.Badin-sistem S.R.L.",
    "formatted_address": "4,7(76)",
    "phone_number": "+40785111698",
    "source_url": "https://www.google.com/maps/place/Iriga%C8%9Bii-S.C.Badin-sistem+S.R.L./data=!4m7!3m6!1s0x47455e12eaeb6931:0xa9708524b213a0d6!8m2!3d45.7351861!4d21.263806!16s%2Fg%2F11c5rmlsvm!19sChIJMWnr6hJeRUcR1qATsiSFcKk?authuser=0&hl=tr&rclk=1",
    "website_url": "http://www.badinsistem.ro/",
    "rating_text": "4,7",
    "stars": null,
    "number_of_reviews": null,
    "price_level": "",
    "open_hours": "",
    "extraction_timestamp": "2025-06-07T14:43:15.180Z",
    "source_name": "google",
    "source_query": "Irrigation Equipment",
    "source_country": "RO",
    "country": "Romania",
    "state": "Timiș County",
    "city": "Comuna Mănăştiur"
  },
  {
    "source_id": "ChIJD7OM9o1dRUcRRqlJ_yffJcE",
    "name": "Gardensis S.R.L.",
    "category": "Gardensis S.R.L.",
    "formatted_address": "4,6(16)",
    "phone_number": "+40724011591",
    "source_url": "https://www.google.com/maps/place/Gardensis+S.R.L./data=!4m7!3m6!1s0x47455d8df68cb30f:0xc125df27ff49a946!8m2!3d45.7292754!4d21.2698954!16s%2Fg%2F1hc7xr42_!19sChIJD7OM9o1dRUcRRqlJ_yffJcE?authuser=0&hl=tr&rclk=1",
    "website_url": "http://www.irigatii.ro/",
    "rating_text": "4,6",
    "stars": null,
    "number_of_reviews": null,
    "price_level": "",
    "open_hours": "",
    "extraction_timestamp": "2025-06-07T14:43:15.180Z",
    "source_name": "google",
    "source_query": "Irrigation Equipment",
    "source_country": "RO",
    "country": "Romania",
    "state": "Timiș County",
    "city": "Comuna Mănăştiur"
  },
  {
    "source_id": "ChIJzzGl8ApeRUcR3xJZHCGgt08",
    "name": "irigatii.ro",
    "category": "irigatii.ro",
    "formatted_address": "4,8(65)",
    "phone_number": "+40724011591",
    "source_url": "https://www.google.com/maps/place/irigatii.ro/data=!4m7!3m6!1s0x47455e0af0a531cf:0x4fb7a0211c5912df!8m2!3d45.7293134!4d21.2700735!16s%2Fg%2F1hc2p_4by!19sChIJzzGl8ApeRUcR3xJZHCGgt08?authuser=0&hl=tr&rclk=1",
    "website_url": "http://www.irigatii.ro/",
    "rating_text": "4,8",
    "stars": null,
    "number_of_reviews": null,
    "price_level": "",
    "open_hours": "",
    "extraction_timestamp": "2025-06-07T14:43:15.181Z",
    "source_name": "google",
    "source_query": "Irrigation Equipment",
    "source_country": "RO",
    "country": "Romania",
    "state": "Timiș County",
    "city": "Comuna Mănăştiur"
  },
  {
    "source_id": "ChIJcUVxnDaZRUcRUbUn3okKfP4",
    "name": "SC Tehnica Irigatii-Lacuri Decorative SRL",
    "category": "SC Tehnica Irigatii-Lacuri Decorative SRL",
    "formatted_address": "4,9(32)",
    "phone_number": "+40731208755",
    "source_url": "https://www.google.com/maps/place/SC+Tehnica+Irigatii-Lacuri+Decorative+SRL/data=!4m7!3m6!1s0x474599369c714571:0xfe7c0a89de27b551!8m2!3d46.1409626!4d21.3164797!16s%2Fg%2F11c6vbxz0v!19sChIJcUVxnDaZRUcRUbUn3okKfP4?authuser=0&hl=tr&rclk=1",
    "website_url": "https://www.tehnicairigatii.ro/",
    "rating_text": "4,9",
    "stars": null,
    "number_of_reviews": null,
    "price_level": "",
    "open_hours": "",
    "extraction_timestamp": "2025-06-07T14:43:15.181Z",
    "source_name": "google",
    "source_query": "Irrigation Equipment",
    "source_country": "RO",
    "country": "Romania",
    "state": "Timiș County",
    "city": "Comuna Mănăştiur"
  },
  {
    "source_id": "ChIJu3QMYXRdRUcRJ2-T1_nXT6U",
    "name": "Marprest",
    "category": "Marprest",
    "formatted_address": "5,0(1)",
    "phone_number": "+40721795322",
    "source_url": "https://www.google.com/maps/place/Marprest/data=!4m7!3m6!1s0x47455d74610c74bb:0xa54fd7f9d7936f27!8m2!3d45.7291043!4d21.2078843!16s%2Fg%2F11c1vmmqkp!19sChIJu3QMYXRdRUcRJ2-T1_nXT6U?authuser=0&hl=tr&rclk=1",
    "website_url": "http://www.marprest.ro/",
    "rating_text": "5,0",
    "stars": null,
    "number_of_reviews": null,
    "price_level": "",
    "open_hours": "",
    "extraction_timestamp": "2025-06-07T14:43:15.182Z",
    "source_name": "google",
    "source_query": "Irrigation Equipment",
    "source_country": "RO",
    "country": "Romania",
    "state": "Timiș County",
    "city": "Comuna Mănăştiur"
  },
  {
    "source_id": "ChIJe5iszo5fRUcRxo7w0Xha61A",
    "name": "BADIN SISTEM",
    "category": "BADIN SISTEM",
    "formatted_address": "5,0(5)",
    "phone_number": "+40785111698",
    "source_url": "https://www.google.com/maps/place/BADIN+SISTEM/data=!4m7!3m6!1s0x47455f8eceac987b:0x50eb5a78d1f08ec6!8m2!3d45.7262042!4d21.2819381!16s%2Fg%2F11tjzt76v7!19sChIJe5iszo5fRUcRxo7w0Xha61A?authuser=0&hl=tr&rclk=1",
    "website_url": "https://www.badinsistem.ro/",
    "rating_text": "5,0",
    "stars": null,
    "number_of_reviews": null,
    "price_level": "",
    "open_hours": "",
    "extraction_timestamp": "2025-06-07T14:43:15.182Z",
    "source_name": "google",
    "source_query": "Irrigation Equipment",
    "source_country": "RO",
    "country": "Romania",
    "state": "Timiș County",
    "city": "Comuna Mănăştiur"
  },
  {
    "source_id": "ChIJNVF0JZyZRUcROrGIQqRikNo",
    "name": "Sc Irigarden Srl",
    "category": "Sc Irigarden Srl",
    "formatted_address": "4,7(52)",
    "phone_number": "+40744310125",
    "source_url": "https://www.google.com/maps/place/Sc+Irigarden+Srl/data=!4m7!3m6!1s0x4745999c25745135:0xda9062a44288b13a!8m2!3d46.14823!4d21.328789!16s%2Fg%2F1tp0cg5b!19sChIJNVF0JZyZRUcROrGIQqRikNo?authuser=0&hl=tr&rclk=1",
    "website_url": "https://www.irigarden.ro/",
    "rating_text": "4,7",
    "stars": null,
    "number_of_reviews": null,
    "price_level": "",
    "open_hours": "",
    "extraction_timestamp": "2025-06-07T14:43:15.183Z",
    "source_name": "google",
    "source_query": "Irrigation Equipment",
    "source_country": "RO",
    "country": "Romania",
    "state": "Timiș County",
    "city": "Comuna Mănăştiur"
  },
  {
    "source_id": "ChIJz5xWSdRgRUcRFaqJMoY0fKs",
    "name": "Romagrotehnica",
    "category": "Romagrotehnica",
    "formatted_address": "5,0(9)",
    "phone_number": "+40724550402",
    "source_url": "https://www.google.com/maps/place/Romagrotehnica/data=!4m7!3m6!1s0x474560d449569ccf:0xab7c34863289aa15!8m2!3d45.7769642!4d21.3081965!16s%2Fg%2F11cmrwbg67!19sChIJz5xWSdRgRUcRFaqJMoY0fKs?authuser=0&hl=tr&rclk=1",
    "website_url": "https://romagrotehnica.ro/",
    "rating_text": "5,0",
    "stars": null,
    "number_of_reviews": null,
    "price_level": "",
    "open_hours": "",
    "extraction_timestamp": "2025-06-07T14:43:15.183Z",
    "source_name": "google",
    "source_query": "Irrigation Equipment",
    "source_country": "RO",
    "country": "Romania",
    "state": "Timiș County",
    "city": "Comuna Mănăştiur"
  },
  {
    "source_id": "ChIJz4jwNwCTT0cRamU1l1irZME",
    "name": "Stația de Pompare Ficătar (Timișana, mal stâng)",
    "category": "Stația de Pompare Ficătar (Timișana, mal stâng)",
    "formatted_address": "Stația de Pompare Ficătar (Timișana, mal stâng)",
    "phone_number": "",
    "source_url": "https://www.google.com/maps/place/Sta%C8%9Bia+de+Pompare+Fic%C4%83tar+%28Timi%C8%99ana,+mal+st%C3%A2ng%29/data=!4m7!3m6!1s0x474f930037f088cf:0xc164ab589735656a!8m2!3d45.700578!4d21.698171!16s%2Fg%2F11wg5xf_l4!19sChIJz4jwNwCTT0cRamU1l1irZME?authuser=0&hl=tr&rclk=1",
    "website_url": "",
    "rating_text": "",
    "stars": null,
    "number_of_reviews": null,
    "price_level": "",
    "open_hours": "",
    "extraction_timestamp": "2025-06-07T14:43:15.184Z",
    "source_name": "google",
    "source_query": "Irrigation Equipment",
    "source_country": "RO",
    "country": "Romania",
    "state": "Timiș County",
    "city": "Comuna Mănăştiur"
  },
  {
    "source_id": "ChIJ2yyu2u-ZRUcRAentcQp81yg",
    "name": "Fish farm accesorii iaz, pesti, sisteme de irigatii",
    "category": "Fish farm accesorii iaz, pesti, sisteme de irigatii",
    "formatted_address": "Fish farm accesorii iaz, pesti, sisteme de irigatii",
    "phone_number": "+40756060729",
    "source_url": "https://www.google.com/maps/place/Fish+farm+accesorii+iaz,+pesti,+sisteme+de+irigatii/data=!4m7!3m6!1s0x474599efdaae2cdb:0x28d77c0a71ede901!8m2!3d46.1692156!4d21.2834742!16s%2Fg%2F11gr2fbfdv!19sChIJ2yyu2u-ZRUcRAentcQp81yg?authuser=0&hl=tr&rclk=1",
    "website_url": "http://www.fish-farm.ro/",
    "rating_text": "2,9",
    "stars": null,
    "number_of_reviews": null,
    "price_level": "",
    "open_hours": "",
    "extraction_timestamp": "2025-06-07T14:43:15.184Z",
    "source_name": "google",
    "source_query": "Irrigation Equipment",
    "source_country": "RO",
    "country": "Romania",
    "state": "Timiș County",
    "city": "Comuna Mănăştiur"
  },
  {
    "source_id": "ChIJJ6MUlwxeRUcRnA91koGm7oE",
    "name": "Hesse SRL",
    "category": "Hesse SRL",
    "formatted_address": "4,6(70)",
    "phone_number": "+40753044936",
    "source_url": "https://www.google.com/maps/place/Hesse+SRL/data=!4m7!3m6!1s0x47455e0c9714a327:0x81eea68192750f9c!8m2!3d45.7281249!4d21.2740876!16s%2Fg%2F11c1nj7q6k!19sChIJJ6MUlwxeRUcRnA91koGm7oE?authuser=0&hl=tr&rclk=1",
    "website_url": "http://www.hesse.ro/",
    "rating_text": "4,6",
    "stars": null,
    "number_of_reviews": null,
    "price_level": "",
    "open_hours": "",
    "extraction_timestamp": "2025-06-07T14:43:15.184Z",
    "source_name": "google",
    "source_query": "Irrigation Equipment",
    "source_country": "RO",
    "country": "Romania",
    "state": "Timiș County",
    "city": "Comuna Mănăştiur"
  },
  {
    "source_id": "ChIJbwbdSwCVT0cRFc1jiN7nnu0",
    "name": "Stația de Pompare Sinersig (Timișana, mal stâng)",
    "category": "Stația de Pompare Sinersig (Timișana, mal stâng)",
    "formatted_address": "Stația de Pompare Sinersig (Timișana, mal stâng)",
    "phone_number": "",
    "source_url": "https://www.google.com/maps/place/Sta%C8%9Bia+de+Pompare+Sinersig+%28Timi%C8%99ana,+mal+st%C3%A2ng%29/data=!4m7!3m6!1s0x474f95004bdd066f:0xed9ee7de8863cd15!8m2!3d45.6993479!4d21.7233815!16s%2Fg%2F11lv5zt1fv!19sChIJbwbdSwCVT0cRFc1jiN7nnu0?authuser=0&hl=tr&rclk=1",
    "website_url": "",
    "rating_text": "",
    "stars": null,
    "number_of_reviews": null,
    "price_level": "",
    "open_hours": "",
    "extraction_timestamp": "2025-06-07T14:43:15.185Z",
    "source_name": "google",
    "source_query": "Irrigation Equipment",
    "source_country": "RO",
    "country": "Romania",
    "state": "Timiș County",
    "city": "Comuna Mănăştiur"
  },
  {
    "source_id": "ChIJHf9ZXt_-sUARDzm2kUTL_KA",
    "name": "MAG-irigatii.ro - Rain Bird Romania Sisteme de Irigatii",
    "category": "MAG-irigatii.ro - Rain Bird Romania Sisteme de Irigatii",
    "formatted_address": "4,8(54)",
    "phone_number": "+40748093097",
    "source_url": "https://www.google.com/maps/place/MAG-irigatii.ro+-+Rain+Bird+Romania+Sisteme+de+Irigatii/data=!4m7!3m6!1s0x40b1fedf5e59ff1d:0xa0fccb4491b6390f!8m2!3d44.3735344!4d26.178023!16s%2Fg%2F11bbw_z176!19sChIJHf9ZXt_-sUARDzm2kUTL_KA?authuser=0&hl=tr&rclk=1",
    "website_url": "https://www.mag-irigatii.ro/",
    "rating_text": "4,8",
    "stars": null,
    "number_of_reviews": null,
    "price_level": "",
    "open_hours": "",
    "extraction_timestamp": "2025-06-07T14:43:15.185Z",
    "source_name": "google",
    "source_query": "Irrigation Equipment",
    "source_country": "RO",
    "country": "Romania",
    "state": "Timiș County",
    "city": "Comuna Mănăştiur"
  },
  {
    "source_id": "ChIJIfnfLTNnRUcRSrDX85TqUB4",
    "name": "Delta Exclusiv s.r.l.",
    "category": "Delta Exclusiv s.r.l.",
    "formatted_address": "5,0(1)",
    "phone_number": "+40744797018",
    "source_url": "https://www.google.com/maps/place/Delta+Exclusiv+s.r.l./data=!4m7!3m6!1s0x474567332ddff921:0x1e50ea94f3d7b04a!8m2!3d45.756904!4d21.239286!16s%2Fg%2F11fkkzwcn_!19sChIJIfnfLTNnRUcRSrDX85TqUB4?authuser=0&hl=tr&rclk=1",
    "website_url": "https://www.deltaexclusiv.ro/",
    "rating_text": "5,0",
    "stars": null,
    "number_of_reviews": null,
    "price_level": "",
    "open_hours": "",
    "extraction_timestamp": "2025-06-07T14:43:15.185Z",
    "source_name": "google",
    "source_query": "Irrigation Equipment",
    "source_country": "RO",
    "country": "Romania",
    "state": "Timiș County",
    "city": "Comuna Mănăştiur"
  },
  {
    "source_id": "ChIJefZ1BABDRUcRaUMQHlcPupw",
    "name": "Stația de pompare Utvin (mal drept)",
    "category": "Stația de pompare Utvin (mal drept)",
    "formatted_address": "5,0(1)",
    "phone_number": "",
    "source_url": "https://www.google.com/maps/place/Sta%C8%9Bia+de+pompare+Utvin+%28mal+drept%29/data=!4m7!3m6!1s0x474543000475f679:0x9cba0f571e104369!8m2!3d45.717913!4d21.1221141!16s%2Fg%2F11vz4k1pr9!19sChIJefZ1BABDRUcRaUMQHlcPupw?authuser=0&hl=tr&rclk=1",
    "website_url": "",
    "rating_text": "5,0",
    "stars": null,
    "number_of_reviews": null,
    "price_level": "",
    "open_hours": "",
    "extraction_timestamp": "2025-06-07T14:43:15.186Z",
    "source_name": "google",
    "source_query": "Irrigation Equipment",
    "source_country": "RO",
    "country": "Romania",
    "state": "Timiș County",
    "city": "Comuna Mănăştiur"
  },
  {
    "source_id": "ChIJv_eizuFdRUcRg4yb6UmX30I",
    "name": "MagazinGradina",
    "category": "MagazinGradina",
    "formatted_address": "",
    "phone_number": "+40724011591",
    "source_url": "https://www.google.com/maps/place/MagazinGradina/data=!4m7!3m6!1s0x47455de1cea2f7bf:0x42df9749e99b8c83!8m2!3d45.7293427!4d21.2700876!16s%2Fg%2F11fqptlzbn!19sChIJv_eizuFdRUcRg4yb6UmX30I?authuser=0&hl=tr&rclk=1",
    "website_url": "http://magazingradina.ro/",
    "rating_text": "",
    "stars": null,
    "number_of_reviews": null,
    "price_level": "",
    "open_hours": "",
    "extraction_timestamp": "2025-06-07T14:43:15.186Z",
    "source_name": "google",
    "source_query": "Irrigation Equipment",
    "source_country": "RO",
    "country": "Romania",
    "state": "Timiș County",
    "city": "Comuna Mănăştiur"
  },
  {
    "source_id": "ChIJ89rcY25dRUcRZT8mqS9M5qc",
    "name": "Banat Garden Timisoara",
    "category": "Banat Garden Timisoara",
    "formatted_address": "4,9(34)",
    "phone_number": "+40724402076",
    "source_url": "https://www.google.com/maps/place/Banat+Garden+Timisoara/data=!4m7!3m6!1s0x47455d6e63dcdaf3:0xa7e64c2fa9263f65!8m2!3d45.7571782!4d21.2301306!16s%2Fg%2F11gl0h6gg8!19sChIJ89rcY25dRUcRZT8mqS9M5qc?authuser=0&hl=tr&rclk=1",
    "website_url": "http://banatgarden.ro/",
    "rating_text": "4,9",
    "stars": null,
    "number_of_reviews": null,
    "price_level": "",
    "open_hours": "",
    "extraction_timestamp": "2025-06-07T14:43:15.186Z",
    "source_name": "google",
    "source_query": "Irrigation Equipment",
    "source_country": "RO",
    "country": "Romania",
    "state": "Timiș County",
    "city": "Comuna Mănăştiur"
  },
  {
    "source_id": "ChIJj7-7za2ZRUcR6M_jOJcGFjk",
    "name": "Agronomo - motounelte Arad",
    "category": "Agronomo - motounelte Arad",
    "formatted_address": "4,3(146)",
    "phone_number": "+40759927777",
    "source_url": "https://www.google.com/maps/place/Agronomo+-+motounelte+Arad/data=!4m7!3m6!1s0x474599adcdbbbf8f:0x3916069738e3cfe8!8m2!3d46.198694!4d21.3377498!16s%2Fg%2F11mr99fc3s!19sChIJj7-7za2ZRUcR6M_jOJcGFjk?authuser=0&hl=tr&rclk=1",
    "website_url": "http://agronomo.ro/",
    "rating_text": "4,3",
    "stars": null,
    "number_of_reviews": null,
    "price_level": "",
    "open_hours": "",
    "extraction_timestamp": "2025-06-07T14:43:15.187Z",
    "source_name": "google",
    "source_query": "Irrigation Equipment",
    "source_country": "RO",
    "country": "Romania",
    "state": "Timiș County",
    "city": "Comuna Mănăştiur"
  },
  {
    "source_id": "ChIJ2e9MjK9nTEcR0nHZ6zxguck",
    "name": "HydroSmart Planning",
    "category": "HydroSmart Planning",
    "formatted_address": "",
    "phone_number": "+40723668568",
    "source_url": "https://www.google.com/maps/place/HydroSmart+Planning/data=!4m7!3m6!1s0x474c67af8c4cefd9:0xc9b9603cebd971d2!8m2!3d45.9425072!4d25.0201084!16s%2Fg%2F11r9h916hq!19sChIJ2e9MjK9nTEcR0nHZ6zxguck?authuser=0&hl=tr&rclk=1",
    "website_url": "http://hydrosmart.ro/",
    "rating_text": "",
    "stars": null,
    "number_of_reviews": null,
    "price_level": "",
    "open_hours": "",
    "extraction_timestamp": "2025-06-07T14:43:15.187Z",
    "source_name": "google",
    "source_query": "Irrigation Equipment",
    "source_country": "RO",
    "country": "Romania",
    "state": "Timiș County",
    "city": "Comuna Mănăştiur"
  },
  {
    "source_id": "ChIJQT4bo-y-T0cRmaeeDYSjmQY",
    "name": "Intercom Lugostar S.R.L.",
    "category": "Intercom Lugostar S.R.L.",
    "formatted_address": "4,3(44)",
    "phone_number": "+40722301936",
    "source_url": "https://www.google.com/maps/place/Intercom+Lugostar+S.R.L./data=!4m7!3m6!1s0x474fbeeca31b3e41:0x699a3840d9ea799!8m2!3d45.6808245!4d21.9026932!16s%2Fg%2F1hc5dzbyy!19sChIJQT4bo-y-T0cRmaeeDYSjmQY?authuser=0&hl=tr&rclk=1",
    "website_url": "https://www.lugostar.ro/",
    "rating_text": "4,3",
    "stars": null,
    "number_of_reviews": null,
    "price_level": "",
    "open_hours": "",
    "extraction_timestamp": "2025-06-07T14:43:15.187Z",
    "source_name": "google",
    "source_query": "Irrigation Equipment",
    "source_country": "RO",
    "country": "Romania",
    "state": "Timiș County",
    "city": "Comuna Mănăştiur"
  },
  {
    "source_id": "ChIJj_KW7oFdRUcRM8oUP8aWZco",
    "name": "Hidropump S.R.L.",
    "category": "Hidropump S.R.L.",
    "formatted_address": "4,6(22)",
    "phone_number": "+40724519545",
    "source_url": "https://www.google.com/maps/place/Hidropump+S.R.L./data=!4m7!3m6!1s0x47455d81ee96f28f:0xca6596c63f14ca33!8m2!3d45.8116595!4d21.2623818!16s%2Fg%2F1w0p4dfv!19sChIJj_KW7oFdRUcRM8oUP8aWZco?authuser=0&hl=tr&rclk=1",
    "website_url": "https://hidropump.ro/",
    "rating_text": "4,6",
    "stars": null,
    "number_of_reviews": null,
    "price_level": "",
    "open_hours": "",
    "extraction_timestamp": "2025-06-07T14:43:15.187Z",
    "source_name": "google",
    "source_query": "Irrigation Equipment",
    "source_country": "RO",
    "country": "Romania",
    "state": "Timiș County",
    "city": "Comuna Mănăştiur"
  },
  {
    "source_id": "ChIJm3u2wleYRUcRnweoz5hUFMM",
    "name": "Myza Instal",
    "category": "Myza Instal",
    "formatted_address": "4,9(44)",
    "phone_number": "+40748514332",
    "source_url": "https://www.google.com/maps/place/Myza+Instal/data=!4m7!3m6!1s0x47459857c2b67b9b:0xc3145498cfa8079f!8m2!3d46.1781093!4d21.3076379!16s%2Fg%2F11g9m9yn3c!19sChIJm3u2wleYRUcRnweoz5hUFMM?authuser=0&hl=tr&rclk=1",
    "website_url": "https://myza-instal.ro/",
    "rating_text": "4,9",
    "stars": null,
    "number_of_reviews": null,
    "price_level": "",
    "open_hours": "",
    "extraction_timestamp": "2025-06-07T14:43:15.188Z",
    "source_name": "google",
    "source_query": "Irrigation Equipment",
    "source_country": "RO",
    "country": "Romania",
    "state": "Timiș County",
    "city": "Comuna Mănăştiur"
  },
  {
    "source_id": "ChIJmUu2lf5DRUcRs735lW7LIiQ",
    "name": "Palm Garden",
    "category": "Palm Garden",
    "formatted_address": "5,0(51)",
    "phone_number": "+40720294100",
    "source_url": "https://www.google.com/maps/place/Palm+Garden/data=!4m7!3m6!1s0x474543fe95b64b99:0x2422cb6e95f9bdb3!8m2!3d45.7522588!4d21.0999943!16s%2Fg%2F11qqmjm4rs!19sChIJmUu2lf5DRUcRs735lW7LIiQ?authuser=0&hl=tr&rclk=1",
    "website_url": "https://www.palmgarden.ro/",
    "rating_text": "5,0",
    "stars": null,
    "number_of_reviews": null,
    "price_level": "",
    "open_hours": "",
    "extraction_timestamp": "2025-06-07T14:43:15.188Z",
    "source_name": "google",
    "source_query": "Irrigation Equipment",
    "source_country": "RO",
    "country": "Romania",
    "state": "Timiș County",
    "city": "Comuna Mănăştiur"
  },
  {
    "source_id": "ChIJdZGW41dnRUcR5r-_ISinHhI",
    "name": "doWell - INSTALATII -",
    "category": "doWell - INSTALATII -",
    "formatted_address": "4,9(74)",
    "phone_number": "+40731134222",
    "source_url": "https://www.google.com/maps/place/doWell+-+INSTALATII+-/data=!4m7!3m6!1s0x47456757e3969175:0x121ea72821bfbfe6!8m2!3d45.7826293!4d21.2283964!16s%2Fg%2F11rtg291v0!19sChIJdZGW41dnRUcR5r-_ISinHhI?authuser=0&hl=tr&rclk=1",
    "website_url": "http://www.dowell.ro/",
    "rating_text": "4,9",
    "stars": null,
    "number_of_reviews": null,
    "price_level": "",
    "open_hours": "",
    "extraction_timestamp": "2025-06-07T14:43:15.188Z",
    "source_name": "google",
    "source_query": "Irrigation Equipment",
    "source_country": "RO",
    "country": "Romania",
    "state": "Timiș County",
    "city": "Comuna Mănăştiur"
  },
  {
    "source_id": "ChIJP7T5uBlnRUcRPEwfUVWl7Ik",
    "name": "Euroinstal",
    "category": "Euroinstal",
    "formatted_address": "4,5(38)",
    "phone_number": "+40734002114",
    "source_url": "https://www.google.com/maps/place/Euroinstal/data=!4m7!3m6!1s0x47456719b8f9b43f:0x89eca555511f4c3c!8m2!3d45.7649126!4d21.211908!16s%2Fg%2F11h2lp0tj2!19sChIJP7T5uBlnRUcRPEwfUVWl7Ik?authuser=0&hl=tr&rclk=1",
    "website_url": "http://www.euro-instal.ro/",
    "rating_text": "4,5",
    "stars": null,
    "number_of_reviews": null,
    "price_level": "",
    "open_hours": "",
    "extraction_timestamp": "2025-06-07T14:43:15.189Z",
    "source_name": "google",
    "source_query": "Irrigation Equipment",
    "source_country": "RO",
    "country": "Romania",
    "state": "Timiș County",
    "city": "Comuna Mănăştiur"
  },
  {
    "source_id": "ChIJEzOBdtpkTkcR3qkFmJwtel4",
    "name": "Claudan Instal",
    "category": "Claudan Instal",
    "formatted_address": "5,0(6)",
    "phone_number": "+40768996454",
    "source_url": "https://www.google.com/maps/place/Claudan+Instal/data=!4m7!3m6!1s0x474e64da76813313:0x5e7a2d9c9805a9de!8m2!3d45.6110277!4d22.9519177!16s%2Fg%2F11gg6bxq45!19sChIJEzOBdtpkTkcR3qkFmJwtel4?authuser=0&hl=tr&rclk=1",
    "website_url": "",
    "rating_text": "5,0",
    "stars": null,
    "number_of_reviews": null,
    "price_level": "",
    "open_hours": "",
    "extraction_timestamp": "2025-06-07T14:43:15.189Z",
    "source_name": "google",
    "source_query": "Irrigation Equipment",
    "source_country": "RO",
    "country": "Romania",
    "state": "Timiș County",
    "city": "Comuna Mănăştiur"
  },
  {
    "source_id": "ChIJw1khbXRdRUcRlc6pgqLLfVc",
    "name": "Euroinstal",
    "category": "Euroinstal",
    "formatted_address": "4,3(43)",
    "phone_number": "+40728160252",
    "source_url": "https://www.google.com/maps/place/Euroinstal/data=!4m7!3m6!1s0x47455d746d2159c3:0x577dcba282a9ce95!8m2!3d45.7420536!4d21.211796!16s%2Fg%2F11c1tb2m_z!19sChIJw1khbXRdRUcRlc6pgqLLfVc?authuser=0&hl=tr&rclk=1",
    "website_url": "http://euro-instal.ro/",
    "rating_text": "4,3",
    "stars": null,
    "number_of_reviews": null,
    "price_level": "",
    "open_hours": "",
    "extraction_timestamp": "2025-06-07T14:43:15.190Z",
    "source_name": "google",
    "source_query": "Irrigation Equipment",
    "source_country": "RO",
    "country": "Romania",
    "state": "Timiș County",
    "city": "Comuna Mănăştiur"
  },
  {
    "source_id": "ChIJvfIO_CdrRUcRHq6Vx10lbvk",
    "name": "Sc Miron Garden s.r.l",
    "category": "Sc Miron Garden s.r.l",
    "formatted_address": "5,0(6)",
    "phone_number": "+40770366209",
    "source_url": "https://www.google.com/maps/place/Sc+Miron+Garden+s.r.l/data=!4m7!3m6!1s0x47456b27fc0ef2bd:0xf96e255dc795ae1e!8m2!3d45.8398631!4d21.0964328!16s%2Fg%2F11r9vn5y5k!19sChIJvfIO_CdrRUcRHq6Vx10lbvk?authuser=0&hl=tr&rclk=1",
    "website_url": "",
    "rating_text": "5,0",
    "stars": null,
    "number_of_reviews": null,
    "price_level": "",
    "open_hours": "",
    "extraction_timestamp": "2025-06-07T14:43:15.190Z",
    "source_name": "google",
    "source_query": "Irrigation Equipment",
    "source_country": "RO",
    "country": "Romania",
    "state": "Timiș County",
    "city": "Comuna Mănăştiur"
  },
  {
    "source_id": "ChIJf0OO15ZnRUcRkmZ-P_zMMlY",
    "name": "Euroinstal",
    "category": "Euroinstal",
    "formatted_address": "4,0(37)",
    "phone_number": "+40728160247",
    "source_url": "https://www.google.com/maps/place/Euroinstal/data=!4m7!3m6!1s0x47456796d78e437f:0x5632ccfc3f7e6692!8m2!3d45.7715149!4d21.2222084!16s%2Fg%2F11c60p45tn!19sChIJf0OO15ZnRUcRkmZ-P_zMMlY?authuser=0&hl=tr&rclk=1",
    "website_url": "http://www.euro-instal.ro/",
    "rating_text": "4,0",
    "stars": null,
    "number_of_reviews": null,
    "price_level": "",
    "open_hours": "",
    "extraction_timestamp": "2025-06-07T14:43:15.190Z",
    "source_name": "google",
    "source_query": "Irrigation Equipment",
    "source_country": "RO",
    "country": "Romania",
    "state": "Timiș County",
    "city": "Comuna Mănăştiur"
  },
  {
    "source_id": "ChIJQSBNb6laT0cRCiXURaLlcHE",
    "name": "Corado Comercial SRL",
    "category": "Corado Comercial SRL",
    "formatted_address": "4,7(7)",
    "phone_number": "+40357402929",
    "source_url": "https://www.google.com/maps/place/Corado+Comercial+SRL/data=!4m7!3m6!1s0x474f5aa96f4d2041:0x7170e5a245d4250a!8m2!3d46.3726214!4d22.1298972!16s%2Fg%2F1hd_83r19!19sChIJQSBNb6laT0cRCiXURaLlcHE?authuser=0&hl=tr&rclk=1",
    "website_url": "",
    "rating_text": "4,7",
    "stars": null,
    "number_of_reviews": null,
    "price_level": "",
    "open_hours": "",
    "extraction_timestamp": "2025-06-07T14:43:15.191Z",
    "source_name": "google",
    "source_query": "Irrigation Equipment",
    "source_country": "RO",
    "country": "Romania",
    "state": "Timiș County",
    "city": "Comuna Mănăştiur"
  }
]
