[
  {
    "source_id": "ChIJm2k4OBhnRUcRorlDejzLFj8",
    "name": "INTTECH INDUSTRY - Timis",
    "category": "INTTECH INDUSTRY - Timis",
    "formatted_address": "5,0(30)",
    "phone_number": "+40744323626",
    "source_url": "https://www.google.com/maps/place/INTTECH+INDUSTRY+-+Timis/data=!4m7!3m6!1s0x474567183838699b:0x3f16cb3c7a43b9a2!8m2!3d45.8007315!4d21.249204!16s%2Fg%2F11j3g9f8jq!19sChIJm2k4OBhnRUcRorlDejzLFj8?authuser=0&hl=tr&rclk=1",
    "website_url": "http://www.irrishop.ro/",
    "rating_text": "5,0",
    "stars": null,
    "number_of_reviews": null,
    "price_level": "",
    "open_hours": "",
    "extraction_timestamp": "2025-06-07T14:28:39.680Z",
    "source_name": "google",
    "source_query": "Irrigation Equipment",
    "source_country": "RO",
    "country": "Romania",
    "state": "Timiș County",
    "city": "Comuna Topolovãţu Mare"
  },
  {
    "source_id": "ChIJMWnr6hJeRUcR1qATsiSFcKk",
    "name": "Irigații-S.C.Badin-sistem S.R.L.",
    "category": "Irigații-S.C.Badin-sistem S.R.L.",
    "formatted_address": "4,7(76)",
    "phone_number": "+40785111698",
    "source_url": "https://www.google.com/maps/place/Iriga%C8%9Bii-S.C.Badin-sistem+S.R.L./data=!4m7!3m6!1s0x47455e12eaeb6931:0xa9708524b213a0d6!8m2!3d45.7351861!4d21.263806!16s%2Fg%2F11c5rmlsvm!19sChIJMWnr6hJeRUcR1qATsiSFcKk?authuser=0&hl=tr&rclk=1",
    "website_url": "http://www.badinsistem.ro/",
    "rating_text": "4,7",
    "stars": null,
    "number_of_reviews": null,
    "price_level": "",
    "open_hours": "",
    "extraction_timestamp": "2025-06-07T14:28:39.681Z",
    "source_name": "google",
    "source_query": "Irrigation Equipment",
    "source_country": "RO",
    "country": "Romania",
    "state": "Timiș County",
    "city": "Comuna Topolovãţu Mare"
  },
  {
    "source_id": "ChIJzzGl8ApeRUcR3xJZHCGgt08",
    "name": "irigatii.ro",
    "category": "irigatii.ro",
    "formatted_address": "4,8(65)",
    "phone_number": "+40724011591",
    "source_url": "https://www.google.com/maps/place/irigatii.ro/data=!4m7!3m6!1s0x47455e0af0a531cf:0x4fb7a0211c5912df!8m2!3d45.7293134!4d21.2700735!16s%2Fg%2F1hc2p_4by!19sChIJzzGl8ApeRUcR3xJZHCGgt08?authuser=0&hl=tr&rclk=1",
    "website_url": "http://www.irigatii.ro/",
    "rating_text": "4,8",
    "stars": null,
    "number_of_reviews": null,
    "price_level": "",
    "open_hours": "",
    "extraction_timestamp": "2025-06-07T14:28:39.681Z",
    "source_name": "google",
    "source_query": "Irrigation Equipment",
    "source_country": "RO",
    "country": "Romania",
    "state": "Timiș County",
    "city": "Comuna Topolovãţu Mare"
  },
  {
    "source_id": "ChIJcUVxnDaZRUcRUbUn3okKfP4",
    "name": "SC Tehnica Irigatii-Lacuri Decorative SRL",
    "category": "SC Tehnica Irigatii-Lacuri Decorative SRL",
    "formatted_address": "4,9(32)",
    "phone_number": "+40731208755",
    "source_url": "https://www.google.com/maps/place/SC+Tehnica+Irigatii-Lacuri+Decorative+SRL/data=!4m7!3m6!1s0x474599369c714571:0xfe7c0a89de27b551!8m2!3d46.1409626!4d21.3164797!16s%2Fg%2F11c6vbxz0v!19sChIJcUVxnDaZRUcRUbUn3okKfP4?authuser=0&hl=tr&rclk=1",
    "website_url": "https://www.tehnicairigatii.ro/",
    "rating_text": "4,9",
    "stars": null,
    "number_of_reviews": null,
    "price_level": "",
    "open_hours": "",
    "extraction_timestamp": "2025-06-07T14:28:39.682Z",
    "source_name": "google",
    "source_query": "Irrigation Equipment",
    "source_country": "RO",
    "country": "Romania",
    "state": "Timiș County",
    "city": "Comuna Topolovãţu Mare"
  },
  {
    "source_id": "ChIJD7OM9o1dRUcRRqlJ_yffJcE",
    "name": "Gardensis S.R.L.",
    "category": "Gardensis S.R.L.",
    "formatted_address": "4,6(16)",
    "phone_number": "+40724011591",
    "source_url": "https://www.google.com/maps/place/Gardensis+S.R.L./data=!4m7!3m6!1s0x47455d8df68cb30f:0xc125df27ff49a946!8m2!3d45.7292754!4d21.2698954!16s%2Fg%2F1hc7xr42_!19sChIJD7OM9o1dRUcRRqlJ_yffJcE?authuser=0&hl=tr&rclk=1",
    "website_url": "http://www.irigatii.ro/",
    "rating_text": "4,6",
    "stars": null,
    "number_of_reviews": null,
    "price_level": "",
    "open_hours": "",
    "extraction_timestamp": "2025-06-07T14:28:39.682Z",
    "source_name": "google",
    "source_query": "Irrigation Equipment",
    "source_country": "RO",
    "country": "Romania",
    "state": "Timiș County",
    "city": "Comuna Topolovãţu Mare"
  },
  {
    "source_id": "ChIJGcqCOWqOT0cRk6MxIYzwVic",
    "name": "SA Nu Services S.R.L.",
    "category": "SA Nu Services S.R.L.",
    "formatted_address": "4,2(23)",
    "phone_number": "+40256328277",
    "source_url": "https://www.google.com/maps/place/SA+Nu+Services+S.R.L./data=!4m7!3m6!1s0x474f8e6a3982ca19:0x2756f08c2131a393!8m2!3d45.7627761!4d21.6275748!16s%2Fg%2F1hc30tjhx!19sChIJGcqCOWqOT0cRk6MxIYzwVic?authuser=0&hl=tr&rclk=1",
    "website_url": "https://sanu.ro/",
    "rating_text": "4,2",
    "stars": null,
    "number_of_reviews": null,
    "price_level": "",
    "open_hours": "",
    "extraction_timestamp": "2025-06-07T14:28:39.683Z",
    "source_name": "google",
    "source_query": "Irrigation Equipment",
    "source_country": "RO",
    "country": "Romania",
    "state": "Timiș County",
    "city": "Comuna Topolovãţu Mare"
  },
  {
    "source_id": "ChIJNVF0JZyZRUcROrGIQqRikNo",
    "name": "Sc Irigarden Srl",
    "category": "Sc Irigarden Srl",
    "formatted_address": "4,7(52)",
    "phone_number": "+40744310125",
    "source_url": "https://www.google.com/maps/place/Sc+Irigarden+Srl/data=!4m7!3m6!1s0x4745999c25745135:0xda9062a44288b13a!8m2!3d46.14823!4d21.328789!16s%2Fg%2F1tp0cg5b!19sChIJNVF0JZyZRUcROrGIQqRikNo?authuser=0&hl=tr&rclk=1",
    "website_url": "https://www.irigarden.ro/",
    "rating_text": "4,7",
    "stars": null,
    "number_of_reviews": null,
    "price_level": "",
    "open_hours": "",
    "extraction_timestamp": "2025-06-07T14:28:39.683Z",
    "source_name": "google",
    "source_query": "Irrigation Equipment",
    "source_country": "RO",
    "country": "Romania",
    "state": "Timiș County",
    "city": "Comuna Topolovãţu Mare"
  },
  {
    "source_id": "ChIJu9QYiMJdRUcROlyKL-xy3eg",
    "name": "Fluidiqa SRL",
    "category": "Fluidiqa SRL",
    "formatted_address": "5,0(1)",
    "phone_number": "+40756100954",
    "source_url": "https://www.google.com/maps/place/Fluidiqa+SRL/data=!4m7!3m6!1s0x47455dc28818d4bb:0xe8dd72ec2f8a5c3a!8m2!3d45.7038491!4d21.1825258!16s%2Fg%2F11c61qxjzj!19sChIJu9QYiMJdRUcROlyKL-xy3eg?authuser=0&hl=tr&rclk=1",
    "website_url": "http://www.fluidiqa.ro/",
    "rating_text": "5,0",
    "stars": null,
    "number_of_reviews": null,
    "price_level": "",
    "open_hours": "",
    "extraction_timestamp": "2025-06-07T14:28:39.684Z",
    "source_name": "google",
    "source_query": "Irrigation Equipment",
    "source_country": "RO",
    "country": "Romania",
    "state": "Timiș County",
    "city": "Comuna Topolovãţu Mare"
  },
  {
    "source_id": "ChIJz5xWSdRgRUcRFaqJMoY0fKs",
    "name": "Romagrotehnica",
    "category": "Romagrotehnica",
    "formatted_address": "5,0(9)",
    "phone_number": "+40724550402",
    "source_url": "https://www.google.com/maps/place/Romagrotehnica/data=!4m7!3m6!1s0x474560d449569ccf:0xab7c34863289aa15!8m2!3d45.7769642!4d21.3081965!16s%2Fg%2F11cmrwbg67!19sChIJz5xWSdRgRUcRFaqJMoY0fKs?authuser=0&hl=tr&rclk=1",
    "website_url": "https://romagrotehnica.ro/",
    "rating_text": "5,0",
    "stars": null,
    "number_of_reviews": null,
    "price_level": "",
    "open_hours": "",
    "extraction_timestamp": "2025-06-07T14:28:39.684Z",
    "source_name": "google",
    "source_query": "Irrigation Equipment",
    "source_country": "RO",
    "country": "Romania",
    "state": "Timiș County",
    "city": "Comuna Topolovãţu Mare"
  },
  {
    "source_id": "ChIJu3QMYXRdRUcRJ2-T1_nXT6U",
    "name": "Marprest",
    "category": "Marprest",
    "formatted_address": "5,0(1)",
    "phone_number": "+40721795322",
    "source_url": "https://www.google.com/maps/place/Marprest/data=!4m7!3m6!1s0x47455d74610c74bb:0xa54fd7f9d7936f27!8m2!3d45.7291043!4d21.2078843!16s%2Fg%2F11c1vmmqkp!19sChIJu3QMYXRdRUcRJ2-T1_nXT6U?authuser=0&hl=tr&rclk=1",
    "website_url": "http://www.marprest.ro/",
    "rating_text": "5,0",
    "stars": null,
    "number_of_reviews": null,
    "price_level": "",
    "open_hours": "",
    "extraction_timestamp": "2025-06-07T14:28:39.685Z",
    "source_name": "google",
    "source_query": "Irrigation Equipment",
    "source_country": "RO",
    "country": "Romania",
    "state": "Timiș County",
    "city": "Comuna Topolovãţu Mare"
  },
  {
    "source_id": "ChIJxbH83mNnRUcRXCZtZxeQlHA",
    "name": "Potop Company S.R.L",
    "category": "Potop Company S.R.L",
    "formatted_address": "4,5(60)",
    "phone_number": "+40737032555",
    "source_url": "https://www.google.com/maps/place/Potop+Company+S.R.L/data=!4m7!3m6!1s0x47456763defcb1c5:0x70949017676d265c!8m2!3d45.7544149!4d21.2493535!16s%2Fg%2F11c1tm1cdp!19sChIJxbH83mNnRUcRXCZtZxeQlHA?authuser=0&hl=tr&rclk=1",
    "website_url": "",
    "rating_text": "4,5",
    "stars": null,
    "number_of_reviews": null,
    "price_level": "",
    "open_hours": "",
    "extraction_timestamp": "2025-06-07T14:28:39.685Z",
    "source_name": "google",
    "source_query": "Irrigation Equipment",
    "source_country": "RO",
    "country": "Romania",
    "state": "Timiș County",
    "city": "Comuna Topolovãţu Mare"
  },
  {
    "source_id": "ChIJe5iszo5fRUcRxo7w0Xha61A",
    "name": "BADIN SISTEM",
    "category": "BADIN SISTEM",
    "formatted_address": "5,0(5)",
    "phone_number": "+40785111698",
    "source_url": "https://www.google.com/maps/place/BADIN+SISTEM/data=!4m7!3m6!1s0x47455f8eceac987b:0x50eb5a78d1f08ec6!8m2!3d45.7262042!4d21.2819381!16s%2Fg%2F11tjzt76v7!19sChIJe5iszo5fRUcRxo7w0Xha61A?authuser=0&hl=tr&rclk=1",
    "website_url": "https://www.badinsistem.ro/",
    "rating_text": "5,0",
    "stars": null,
    "number_of_reviews": null,
    "price_level": "",
    "open_hours": "",
    "extraction_timestamp": "2025-06-07T14:28:39.686Z",
    "source_name": "google",
    "source_query": "Irrigation Equipment",
    "source_country": "RO",
    "country": "Romania",
    "state": "Timiș County",
    "city": "Comuna Topolovãţu Mare"
  },
  {
    "source_id": "ChIJIfnfLTNnRUcRSrDX85TqUB4",
    "name": "Delta Exclusiv s.r.l.",
    "category": "Delta Exclusiv s.r.l.",
    "formatted_address": "5,0(1)",
    "phone_number": "+40744797018",
    "source_url": "https://www.google.com/maps/place/Delta+Exclusiv+s.r.l./data=!4m7!3m6!1s0x474567332ddff921:0x1e50ea94f3d7b04a!8m2!3d45.756904!4d21.239286!16s%2Fg%2F11fkkzwcn_!19sChIJIfnfLTNnRUcRSrDX85TqUB4?authuser=0&hl=tr&rclk=1",
    "website_url": "https://www.deltaexclusiv.ro/",
    "rating_text": "5,0",
    "stars": null,
    "number_of_reviews": null,
    "price_level": "",
    "open_hours": "",
    "extraction_timestamp": "2025-06-07T14:28:39.686Z",
    "source_name": "google",
    "source_query": "Irrigation Equipment",
    "source_country": "RO",
    "country": "Romania",
    "state": "Timiș County",
    "city": "Comuna Topolovãţu Mare"
  },
  {
    "source_id": "ChIJ_3lBe2ldRUcRXGftDTM-wmY",
    "name": "COMPARTNER IONUT SRL – UTILAJE INDUSTRIE ALIMENTARA",
    "category": "COMPARTNER IONUT SRL – UTILAJE INDUSTRIE ALIMENTARA",
    "formatted_address": "5,0(1)",
    "phone_number": "+40742321074",
    "source_url": "https://www.google.com/maps/place/COMPARTNER+IONUT+SRL+%E2%80%93+UTILAJE+INDUSTRIE+ALIMENTARA/data=!4m7!3m6!1s0x47455d697b4179ff:0x66c23e330ded675c!8m2!3d45.7284186!4d21.2066428!16s%2Fg%2F11h3g2xzf0!19sChIJ_3lBe2ldRUcRXGftDTM-wmY?authuser=0&hl=tr&rclk=1",
    "website_url": "",
    "rating_text": "5,0",
    "stars": null,
    "number_of_reviews": null,
    "price_level": "",
    "open_hours": "",
    "extraction_timestamp": "2025-06-07T14:28:39.687Z",
    "source_name": "google",
    "source_query": "Irrigation Equipment",
    "source_country": "RO",
    "country": "Romania",
    "state": "Timiș County",
    "city": "Comuna Topolovãţu Mare"
  },
  {
    "source_id": "ChIJGzbWhiuPT0cRbZc5gvZ2AUg",
    "name": "SANU VENT SRL",
    "category": "SANU VENT SRL",
    "formatted_address": "",
    "phone_number": "+40743035812",
    "source_url": "https://www.google.com/maps/place/SANU+VENT+SRL/data=!4m7!3m6!1s0x474f8f2b86d6361b:0x480176f68239976d!8m2!3d45.7635451!4d21.6274483!16s%2Fg%2F11m6b3l5rm!19sChIJGzbWhiuPT0cRbZc5gvZ2AUg?authuser=0&hl=tr&rclk=1",
    "website_url": "https://shop.sanu.ro/",
    "rating_text": "",
    "stars": null,
    "number_of_reviews": null,
    "price_level": "",
    "open_hours": "",
    "extraction_timestamp": "2025-06-07T14:28:39.687Z",
    "source_name": "google",
    "source_query": "Irrigation Equipment",
    "source_country": "RO",
    "country": "Romania",
    "state": "Timiș County",
    "city": "Comuna Topolovãţu Mare"
  },
  {
    "source_id": "ChIJnUQBrmNcRUcRiYKKcWdU8UE",
    "name": "Datcomp S.R.L.",
    "category": "Datcomp S.R.L.",
    "formatted_address": "4,9(9)",
    "phone_number": "+40729133951",
    "source_url": "https://www.google.com/maps/place/Datcomp+S.R.L./data=!4m7!3m6!1s0x47455c63ae01449d:0x41f15467718a8289!8m2!3d45.696862!4d21.1873457!16s%2Fg%2F1hhmw76h1!19sChIJnUQBrmNcRUcRiYKKcWdU8UE?authuser=0&hl=tr&rclk=1",
    "website_url": "http://www.datcomp.ro/",
    "rating_text": "4,9",
    "stars": null,
    "number_of_reviews": null,
    "price_level": "",
    "open_hours": "",
    "extraction_timestamp": "2025-06-07T14:28:39.688Z",
    "source_name": "google",
    "source_query": "Irrigation Equipment",
    "source_country": "RO",
    "country": "Romania",
    "state": "Timiș County",
    "city": "Comuna Topolovãţu Mare"
  },
  {
    "source_id": "ChIJ2dsBSx5dRUcRbx08-C5cBGQ",
    "name": "HYDRO JET",
    "category": "HYDRO JET",
    "formatted_address": "5,0(4)",
    "phone_number": "+40732050950",
    "source_url": "https://www.google.com/maps/place/HYDRO+JET/data=!4m7!3m6!1s0x47455d1e4b01dbd9:0x64045c2ef83c1d6f!8m2!3d45.7278068!4d21.2052744!16s%2Fg%2F11wp75zhyl!19sChIJ2dsBSx5dRUcRbx08-C5cBGQ?authuser=0&hl=tr&rclk=1",
    "website_url": "https://hydro-jet.ro/",
    "rating_text": "5,0",
    "stars": null,
    "number_of_reviews": null,
    "price_level": "",
    "open_hours": "",
    "extraction_timestamp": "2025-06-07T14:28:39.688Z",
    "source_name": "google",
    "source_query": "Irrigation Equipment",
    "source_country": "RO",
    "country": "Romania",
    "state": "Timiș County",
    "city": "Comuna Topolovãţu Mare"
  },
  {
    "source_id": "ChIJv_eizuFdRUcRg4yb6UmX30I",
    "name": "MagazinGradina",
    "category": "MagazinGradina",
    "formatted_address": "",
    "phone_number": "+40724011591",
    "source_url": "https://www.google.com/maps/place/MagazinGradina/data=!4m7!3m6!1s0x47455de1cea2f7bf:0x42df9749e99b8c83!8m2!3d45.7293427!4d21.2700876!16s%2Fg%2F11fqptlzbn!19sChIJv_eizuFdRUcRg4yb6UmX30I?authuser=0&hl=tr&rclk=1",
    "website_url": "http://magazingradina.ro/",
    "rating_text": "",
    "stars": null,
    "number_of_reviews": null,
    "price_level": "",
    "open_hours": "",
    "extraction_timestamp": "2025-06-07T14:28:39.689Z",
    "source_name": "google",
    "source_query": "Irrigation Equipment",
    "source_country": "RO",
    "country": "Romania",
    "state": "Timiș County",
    "city": "Comuna Topolovãţu Mare"
  },
  {
    "source_id": "ChIJDWyQjHWPT0cR88onu2tnj30",
    "name": "Profi Loco New",
    "category": "Profi Loco New",
    "formatted_address": "4,0(275)",
    "phone_number": "+40799303140",
    "source_url": "https://www.google.com/maps/place/Profi+Loco+New/data=!4m7!3m6!1s0x474f8f758c906c0d:0x7d8f676bbb27caf3!8m2!3d45.7736939!4d21.622817!16s%2Fg%2F11ry9g0_7z!19sChIJDWyQjHWPT0cR88onu2tnj30?authuser=0&hl=tr&rclk=1",
    "website_url": "https://www.profi.ro/?utm_source=google&utm_medium=organic&utm_campaign=dwf_local_seo",
    "rating_text": "4,0",
    "stars": null,
    "number_of_reviews": null,
    "price_level": "",
    "open_hours": "",
    "extraction_timestamp": "2025-06-07T14:28:39.690Z",
    "source_name": "google",
    "source_query": "Irrigation Equipment",
    "source_country": "RO",
    "country": "Romania",
    "state": "Timiș County",
    "city": "Comuna Topolovãţu Mare"
  },
  {
    "source_id": "ChIJj7-7za2ZRUcR6M_jOJcGFjk",
    "name": "Agronomo - motounelte Arad",
    "category": "Agronomo - motounelte Arad",
    "formatted_address": "4,3(146)",
    "phone_number": "+40759927777",
    "source_url": "https://www.google.com/maps/place/Agronomo+-+motounelte+Arad/data=!4m7!3m6!1s0x474599adcdbbbf8f:0x3916069738e3cfe8!8m2!3d46.198694!4d21.3377498!16s%2Fg%2F11mr99fc3s!19sChIJj7-7za2ZRUcR6M_jOJcGFjk?authuser=0&hl=tr&rclk=1",
    "website_url": "http://agronomo.ro/",
    "rating_text": "4,3",
    "stars": null,
    "number_of_reviews": null,
    "price_level": "",
    "open_hours": "",
    "extraction_timestamp": "2025-06-07T14:28:39.690Z",
    "source_name": "google",
    "source_query": "Irrigation Equipment",
    "source_country": "RO",
    "country": "Romania",
    "state": "Timiș County",
    "city": "Comuna Topolovãţu Mare"
  },
  {
    "source_id": "ChIJWwlqo3dnRUcRE1PZAJWOvC4",
    "name": "Uniprest Instal",
    "category": "Uniprest Instal",
    "formatted_address": "4,3(30)",
    "phone_number": "+40771294435",
    "source_url": "https://www.google.com/maps/place/Uniprest+Instal/data=!4m7!3m6!1s0x47456777a36a095b:0x2ebc8e9500d95313!8m2!3d45.7776432!4d21.3081463!16s%2Fg%2F11c5h1r7db!19sChIJWwlqo3dnRUcRE1PZAJWOvC4?authuser=0&hl=tr&rclk=1",
    "website_url": "http://www.uniprest.ro/",
    "rating_text": "4,3",
    "stars": null,
    "number_of_reviews": null,
    "price_level": "",
    "open_hours": "",
    "extraction_timestamp": "2025-06-07T14:28:39.690Z",
    "source_name": "google",
    "source_query": "Irrigation Equipment",
    "source_country": "RO",
    "country": "Romania",
    "state": "Timiș County",
    "city": "Comuna Topolovãţu Mare"
  },
  {
    "source_id": "ChIJH8WgtL9nRUcRtzTLRiyI53o",
    "name": "Instal Impex",
    "category": "Instal Impex",
    "formatted_address": "4,9(12)",
    "phone_number": "+40356423372",
    "source_url": "https://www.google.com/maps/place/Instal+Impex/data=!4m7!3m6!1s0x474567bfb4a0c51f:0x7ae7882c46cb34b7!8m2!3d45.7360839!4d21.2562389!16s%2Fg%2F11b77wly4x!19sChIJH8WgtL9nRUcRtzTLRiyI53o?authuser=0&hl=tr&rclk=1",
    "website_url": "http://www.instalimpex.ro/",
    "rating_text": "4,9",
    "stars": null,
    "number_of_reviews": null,
    "price_level": "",
    "open_hours": "",
    "extraction_timestamp": "2025-06-07T14:28:39.691Z",
    "source_name": "google",
    "source_query": "Irrigation Equipment",
    "source_country": "RO",
    "country": "Romania",
    "state": "Timiș County",
    "city": "Comuna Topolovãţu Mare"
  },
  {
    "source_id": "ChIJrRNEBNJnRUcRMUyGJZE96w0",
    "name": "Badehaus Timisoara",
    "category": "Badehaus Timisoara",
    "formatted_address": "5,0(16)",
    "phone_number": "+40751588641",
    "source_url": "https://www.google.com/maps/place/Badehaus+Timisoara/data=!4m7!3m6!1s0x474567d2044413ad:0xdeb3d9125864c31!8m2!3d45.7361451!4d21.2543419!16s%2Fg%2F11jgj93kdj!19sChIJrRNEBNJnRUcRMUyGJZE96w0?authuser=0&hl=tr&rclk=1",
    "website_url": "https://www.badehaus.ro/",
    "rating_text": "5,0",
    "stars": null,
    "number_of_reviews": null,
    "price_level": "",
    "open_hours": "",
    "extraction_timestamp": "2025-06-07T14:28:39.691Z",
    "source_name": "google",
    "source_query": "Irrigation Equipment",
    "source_country": "RO",
    "country": "Romania",
    "state": "Timiș County",
    "city": "Comuna Topolovãţu Mare"
  },
  {
    "source_id": "ChIJQT4bo-y-T0cRmaeeDYSjmQY",
    "name": "Intercom Lugostar S.R.L.",
    "category": "Intercom Lugostar S.R.L.",
    "formatted_address": "4,3(44)",
    "phone_number": "+40722301936",
    "source_url": "https://www.google.com/maps/place/Intercom+Lugostar+S.R.L./data=!4m7!3m6!1s0x474fbeeca31b3e41:0x699a3840d9ea799!8m2!3d45.6808245!4d21.9026932!16s%2Fg%2F1hc5dzbyy!19sChIJQT4bo-y-T0cRmaeeDYSjmQY?authuser=0&hl=tr&rclk=1",
    "website_url": "https://www.lugostar.ro/",
    "rating_text": "4,3",
    "stars": null,
    "number_of_reviews": null,
    "price_level": "",
    "open_hours": "",
    "extraction_timestamp": "2025-06-07T14:28:39.691Z",
    "source_name": "google",
    "source_query": "Irrigation Equipment",
    "source_country": "RO",
    "country": "Romania",
    "state": "Timiș County",
    "city": "Comuna Topolovãţu Mare"
  },
  {
    "source_id": "ChIJw-YksvWYRUcRkVBvDN1DkDU",
    "name": "Bendea",
    "category": "Bendea",
    "formatted_address": "4,3(53)",
    "phone_number": "+40751094705",
    "source_url": "https://www.google.com/maps/place/Bendea/data=!4m7!3m6!1s0x474598f5b224e6c3:0x359043dd0c6f5091!8m2!3d46.1779225!4d21.2955464!16s%2Fg%2F11c1nfbk3c!19sChIJw-YksvWYRUcRkVBvDN1DkDU?authuser=0&hl=tr&rclk=1",
    "website_url": "",
    "rating_text": "4,3",
    "stars": null,
    "number_of_reviews": null,
    "price_level": "",
    "open_hours": "",
    "extraction_timestamp": "2025-06-07T14:28:39.692Z",
    "source_name": "google",
    "source_query": "Irrigation Equipment",
    "source_country": "RO",
    "country": "Romania",
    "state": "Timiș County",
    "city": "Comuna Topolovãţu Mare"
  },
  {
    "source_id": "ChIJP7T5uBlnRUcRPEwfUVWl7Ik",
    "name": "Euroinstal",
    "category": "Euroinstal",
    "formatted_address": "4,5(38)",
    "phone_number": "+40734002114",
    "source_url": "https://www.google.com/maps/place/Euroinstal/data=!4m7!3m6!1s0x47456719b8f9b43f:0x89eca555511f4c3c!8m2!3d45.7649126!4d21.211908!16s%2Fg%2F11h2lp0tj2!19sChIJP7T5uBlnRUcRPEwfUVWl7Ik?authuser=0&hl=tr&rclk=1",
    "website_url": "http://www.euro-instal.ro/",
    "rating_text": "4,5",
    "stars": null,
    "number_of_reviews": null,
    "price_level": "",
    "open_hours": "",
    "extraction_timestamp": "2025-06-07T14:28:39.692Z",
    "source_name": "google",
    "source_query": "Irrigation Equipment",
    "source_country": "RO",
    "country": "Romania",
    "state": "Timiș County",
    "city": "Comuna Topolovãţu Mare"
  },
  {
    "source_id": "ChIJfRMY9QldRUcRBP62OdyuMe0",
    "name": "Instalplus",
    "category": "Instalplus",
    "formatted_address": "4,7(29)",
    "phone_number": "+40728969778",
    "source_url": "https://www.google.com/maps/place/Instalplus/data=!4m7!3m6!1s0x47455d09f518137d:0xed31aedc39b6fe04!8m2!3d45.7336556!4d21.2094947!16s%2Fg%2F11c1vq02h0!19sChIJfRMY9QldRUcRBP62OdyuMe0?authuser=0&hl=tr&rclk=1",
    "website_url": "https://www.instalplus.ro/",
    "rating_text": "4,7",
    "stars": null,
    "number_of_reviews": null,
    "price_level": "",
    "open_hours": "",
    "extraction_timestamp": "2025-06-07T14:28:39.692Z",
    "source_name": "google",
    "source_query": "Irrigation Equipment",
    "source_country": "RO",
    "country": "Romania",
    "state": "Timiș County",
    "city": "Comuna Topolovãţu Mare"
  },
  {
    "source_id": "ChIJlQLiYwBHRUcRvpMe14mSt7s",
    "name": "Priza de apă Aurélháza/Răuți (Bega, mal drept)",
    "category": "Priza de apă Aurélháza/Răuți (Bega, mal drept)",
    "formatted_address": "Priza de apă Aurélháza/Răuți (Bega, mal drept)",
    "phone_number": "",
    "source_url": "https://www.google.com/maps/place/Priza+de+ap%C4%83+Aur%C3%A9lh%C3%A1za%2FR%C4%83u%C8%9Bi+%28Bega,+mal+drept%29/data=!4m7!3m6!1s0x4745470063e20295:0xbbb79289d71e93be!8m2!3d45.6594252!4d20.9280531!16s%2Fg%2F11y50fyqnc!19sChIJlQLiYwBHRUcRvpMe14mSt7s?authuser=0&hl=tr&rclk=1",
    "website_url": "",
    "rating_text": "5,0",
    "stars": null,
    "number_of_reviews": null,
    "price_level": "",
    "open_hours": "",
    "extraction_timestamp": "2025-06-07T14:28:39.693Z",
    "source_name": "google",
    "source_query": "Irrigation Equipment",
    "source_country": "RO",
    "country": "Romania",
    "state": "Timiș County",
    "city": "Comuna Topolovãţu Mare"
  },
  {
    "source_id": "ChIJH7DdtKtdRUcRLJXQhLkF7o8",
    "name": "System Install",
    "category": "System Install",
    "formatted_address": "5,0(317)",
    "phone_number": "+40735657575",
    "source_url": "https://www.google.com/maps/place/System+Install/data=!4m7!3m6!1s0x47455dabb4ddb01f:0x8fee05b984d0952c!8m2!3d45.7077619!4d21.2100434!16s%2Fg%2F11hy_mn98z!19sChIJH7DdtKtdRUcRLJXQhLkF7o8?authuser=0&hl=tr&rclk=1",
    "website_url": "https://instalatii-timisoara.ro/",
    "rating_text": "5,0",
    "stars": null,
    "number_of_reviews": null,
    "price_level": "",
    "open_hours": "",
    "extraction_timestamp": "2025-06-07T14:28:39.693Z",
    "source_name": "google",
    "source_query": "Irrigation Equipment",
    "source_country": "RO",
    "country": "Romania",
    "state": "Timiș County",
    "city": "Comuna Topolovãţu Mare"
  },
  {
    "source_id": "ChIJ-UCNtrJYREcRzGxXbeQITqA",
    "name": "Tó és Öntözés Kft.",
    "category": "Tó és Öntözés Kft.",
    "formatted_address": "4,4(81)",
    "phone_number": "+3662211497",
    "source_url": "https://www.google.com/maps/place/T%C3%B3+%C3%A9s+%C3%96nt%C3%B6z%C3%A9s+Kft./data=!4m7!3m6!1s0x474458b2b68d40f9:0xa04e08e46d576ccc!8m2!3d46.2309434!4d20.477726!16s%2Fg%2F1tfpngwz!19sChIJ-UCNtrJYREcRzGxXbeQITqA?authuser=0&hl=tr&rclk=1",
    "website_url": "http://www.toesontozeswebaruhaz.hu/",
    "rating_text": "4,4",
    "stars": null,
    "number_of_reviews": null,
    "price_level": "",
    "open_hours": "",
    "extraction_timestamp": "2025-06-07T14:28:39.693Z",
    "source_name": "google",
    "source_query": "Irrigation Equipment",
    "source_country": "RO",
    "country": "Romania",
    "state": "Timiș County",
    "city": "Comuna Topolovãţu Mare"
  },
  {
    "source_id": "ChIJ7Zn8KHaZRUcRet3MjD7hfQA",
    "name": "Maky",
    "category": "Maky",
    "formatted_address": "4,6(12)",
    "phone_number": "+40730009296",
    "source_url": "https://www.google.com/maps/place/Maky/data=!4m7!3m6!1s0x4745997628fc99ed:0x7de13e8cccdd7a!8m2!3d46.150332!4d21.316915!16s%2Fg%2F11rdb216c6!19sChIJ7Zn8KHaZRUcRet3MjD7hfQA?authuser=0&hl=tr&rclk=1",
    "website_url": "http://maky-shop.ro/",
    "rating_text": "4,6",
    "stars": null,
    "number_of_reviews": null,
    "price_level": "",
    "open_hours": "",
    "extraction_timestamp": "2025-06-07T14:28:39.694Z",
    "source_name": "google",
    "source_query": "Irrigation Equipment",
    "source_country": "RO",
    "country": "Romania",
    "state": "Timiș County",
    "city": "Comuna Topolovãţu Mare"
  }
]
