[
  {
    "source_id": "ChIJMWnr6hJeRUcR1qATsiSFcKk",
    "name": "Irigații-S.C.Badin-sistem S.R.L.",
    "category": "Irigații-S.C.Badin-sistem S.R.L.",
    "formatted_address": "4,7(76)",
    "phone_number": "+40785111698",
    "source_url": "https://www.google.com/maps/place/Iriga%C8%9Bii-S.C.Badin-sistem+S.R.L./data=!4m7!3m6!1s0x47455e12eaeb6931:0xa9708524b213a0d6!8m2!3d45.7351861!4d21.263806!16s%2Fg%2F11c5rmlsvm!19sChIJMWnr6hJeRUcR1qATsiSFcKk?authuser=0&hl=tr&rclk=1",
    "website_url": "http://www.badinsistem.ro/",
    "rating_text": "4,7",
    "stars": null,
    "number_of_reviews": null,
    "price_level": "",
    "open_hours": "",
    "extraction_timestamp": "2025-06-07T14:37:24.232Z",
    "source_name": "google",
    "source_query": "Irrigation Equipment",
    "source_country": "RO",
    "country": "Romania",
    "state": "Timiș County",
    "city": "Comuna Sânandrei"
  },
  {
    "source_id": "ChIJm2k4OBhnRUcRorlDejzLFj8",
    "name": "INTTECH INDUSTRY - Timis",
    "category": "INTTECH INDUSTRY - Timis",
    "formatted_address": "5,0(30)",
    "phone_number": "+40744323626",
    "source_url": "https://www.google.com/maps/place/INTTECH+INDUSTRY+-+Timis/data=!4m7!3m6!1s0x474567183838699b:0x3f16cb3c7a43b9a2!8m2!3d45.8007315!4d21.249204!16s%2Fg%2F11j3g9f8jq!19sChIJm2k4OBhnRUcRorlDejzLFj8?authuser=0&hl=tr&rclk=1",
    "website_url": "http://www.irrishop.ro/",
    "rating_text": "5,0",
    "stars": null,
    "number_of_reviews": null,
    "price_level": "",
    "open_hours": "",
    "extraction_timestamp": "2025-06-07T14:37:24.237Z",
    "source_name": "google",
    "source_query": "Irrigation Equipment",
    "source_country": "RO",
    "country": "Romania",
    "state": "Timiș County",
    "city": "Comuna Sânandrei"
  },
  {
    "source_id": "ChIJD7OM9o1dRUcRRqlJ_yffJcE",
    "name": "Gardensis S.R.L.",
    "category": "Gardensis S.R.L.",
    "formatted_address": "4,6(16)",
    "phone_number": "+40724011591",
    "source_url": "https://www.google.com/maps/place/Gardensis+S.R.L./data=!4m7!3m6!1s0x47455d8df68cb30f:0xc125df27ff49a946!8m2!3d45.7292754!4d21.2698954!16s%2Fg%2F1hc7xr42_!19sChIJD7OM9o1dRUcRRqlJ_yffJcE?authuser=0&hl=tr&rclk=1",
    "website_url": "http://www.irigatii.ro/",
    "rating_text": "4,6",
    "stars": null,
    "number_of_reviews": null,
    "price_level": "",
    "open_hours": "",
    "extraction_timestamp": "2025-06-07T14:37:24.237Z",
    "source_name": "google",
    "source_query": "Irrigation Equipment",
    "source_country": "RO",
    "country": "Romania",
    "state": "Timiș County",
    "city": "Comuna Sânandrei"
  },
  {
    "source_id": "ChIJqwSZUxdvRUcRaE1HyPL6jbo",
    "name": "APA SERVLYNE SRL",
    "category": "APA SERVLYNE SRL",
    "formatted_address": "5,0(3)",
    "phone_number": "+40768107120",
    "source_url": "https://www.google.com/maps/place/APA+SERVLYNE+SRL/data=!4m7!3m6!1s0x47456f17539904ab:0xba8dfaf2c8474d68!8m2!3d45.8587969!4d21.1617433!16s%2Fg%2F11j2fp1qkl!19sChIJqwSZUxdvRUcRaE1HyPL6jbo?authuser=0&hl=tr&rclk=1",
    "website_url": "https://www.paginiaurii.ro/companii/COM.+S%C3%82NANDREI/L4527591/APA+SERVLYNE+SRL/",
    "rating_text": "5,0",
    "stars": null,
    "number_of_reviews": null,
    "price_level": "",
    "open_hours": "",
    "extraction_timestamp": "2025-06-07T14:37:24.238Z",
    "source_name": "google",
    "source_query": "Irrigation Equipment",
    "source_country": "RO",
    "country": "Romania",
    "state": "Timiș County",
    "city": "Comuna Sânandrei"
  },
  {
    "source_id": "ChIJzzGl8ApeRUcR3xJZHCGgt08",
    "name": "irigatii.ro",
    "category": "irigatii.ro",
    "formatted_address": "4,8(65)",
    "phone_number": "+40724011591",
    "source_url": "https://www.google.com/maps/place/irigatii.ro/data=!4m7!3m6!1s0x47455e0af0a531cf:0x4fb7a0211c5912df!8m2!3d45.7293134!4d21.2700735!16s%2Fg%2F1hc2p_4by!19sChIJzzGl8ApeRUcR3xJZHCGgt08?authuser=0&hl=tr&rclk=1",
    "website_url": "http://www.irigatii.ro/",
    "rating_text": "4,8",
    "stars": null,
    "number_of_reviews": null,
    "price_level": "",
    "open_hours": "",
    "extraction_timestamp": "2025-06-07T14:37:24.238Z",
    "source_name": "google",
    "source_query": "Irrigation Equipment",
    "source_country": "RO",
    "country": "Romania",
    "state": "Timiș County",
    "city": "Comuna Sânandrei"
  },
  {
    "source_id": "ChIJu9QYiMJdRUcROlyKL-xy3eg",
    "name": "Fluidiqa SRL",
    "category": "Fluidiqa SRL",
    "formatted_address": "5,0(1)",
    "phone_number": "+40756100954",
    "source_url": "https://www.google.com/maps/place/Fluidiqa+SRL/data=!4m7!3m6!1s0x47455dc28818d4bb:0xe8dd72ec2f8a5c3a!8m2!3d45.7038491!4d21.1825258!16s%2Fg%2F11c61qxjzj!19sChIJu9QYiMJdRUcROlyKL-xy3eg?authuser=0&hl=tr&rclk=1",
    "website_url": "http://www.fluidiqa.ro/",
    "rating_text": "5,0",
    "stars": null,
    "number_of_reviews": null,
    "price_level": "",
    "open_hours": "",
    "extraction_timestamp": "2025-06-07T14:37:24.239Z",
    "source_name": "google",
    "source_query": "Irrigation Equipment",
    "source_country": "RO",
    "country": "Romania",
    "state": "Timiș County",
    "city": "Comuna Sânandrei"
  },
  {
    "source_id": "ChIJcUVxnDaZRUcRUbUn3okKfP4",
    "name": "SC Tehnica Irigatii-Lacuri Decorative SRL",
    "category": "SC Tehnica Irigatii-Lacuri Decorative SRL",
    "formatted_address": "4,9(32)",
    "phone_number": "+40731208755",
    "source_url": "https://www.google.com/maps/place/SC+Tehnica+Irigatii-Lacuri+Decorative+SRL/data=!4m7!3m6!1s0x474599369c714571:0xfe7c0a89de27b551!8m2!3d46.1409626!4d21.3164797!16s%2Fg%2F11c6vbxz0v!19sChIJcUVxnDaZRUcRUbUn3okKfP4?authuser=0&hl=tr&rclk=1",
    "website_url": "https://www.tehnicairigatii.ro/",
    "rating_text": "4,9",
    "stars": null,
    "number_of_reviews": null,
    "price_level": "",
    "open_hours": "",
    "extraction_timestamp": "2025-06-07T14:37:24.239Z",
    "source_name": "google",
    "source_query": "Irrigation Equipment",
    "source_country": "RO",
    "country": "Romania",
    "state": "Timiș County",
    "city": "Comuna Sânandrei"
  },
  {
    "source_id": "ChIJBRg3BGVvRUcRLODRHNAsoQ8",
    "name": "KLUMEA GARDEN SRL",
    "category": "KLUMEA GARDEN SRL",
    "formatted_address": "",
    "phone_number": "+40724293141",
    "source_url": "https://www.google.com/maps/place/KLUMEA+GARDEN+SRL/data=!4m7!3m6!1s0x47456f6504371805:0xfa12cd01cd1e02c!8m2!3d45.8549814!4d21.1660803!16s%2Fg%2F11n32sjp7g!19sChIJBRg3BGVvRUcRLODRHNAsoQ8?authuser=0&hl=tr&rclk=1",
    "website_url": "",
    "rating_text": "",
    "stars": null,
    "number_of_reviews": null,
    "price_level": "",
    "open_hours": "",
    "extraction_timestamp": "2025-06-07T14:37:24.239Z",
    "source_name": "google",
    "source_query": "Irrigation Equipment",
    "source_country": "RO",
    "country": "Romania",
    "state": "Timiș County",
    "city": "Comuna Sânandrei"
  },
  {
    "source_id": "ChIJ4VsJDTJvRUcRlCxDBveXlkk",
    "name": "Ipso Timisoara",
    "category": "Ipso Timisoara",
    "formatted_address": "4,7(80)",
    "phone_number": "+40373800222",
    "source_url": "https://www.google.com/maps/place/Ipso+Timisoara/data=!4m7!3m6!1s0x47456f320d095be1:0x499697f706432c94!8m2!3d45.8438569!4d21.1952603!16s%2Fg%2F11c525wb_7!19sChIJ4VsJDTJvRUcRlCxDBveXlkk?authuser=0&hl=tr&rclk=1",
    "website_url": "http://www.ipso.ro/",
    "rating_text": "4,7",
    "stars": null,
    "number_of_reviews": null,
    "price_level": "",
    "open_hours": "",
    "extraction_timestamp": "2025-06-07T14:37:24.240Z",
    "source_name": "google",
    "source_query": "Irrigation Equipment",
    "source_country": "RO",
    "country": "Romania",
    "state": "Timiș County",
    "city": "Comuna Sânandrei"
  },
  {
    "source_id": "ChIJNVF0JZyZRUcROrGIQqRikNo",
    "name": "Sc Irigarden Srl",
    "category": "Sc Irigarden Srl",
    "formatted_address": "4,7(52)",
    "phone_number": "+40744310125",
    "source_url": "https://www.google.com/maps/place/Sc+Irigarden+Srl/data=!4m7!3m6!1s0x4745999c25745135:0xda9062a44288b13a!8m2!3d46.14823!4d21.328789!16s%2Fg%2F1tp0cg5b!19sChIJNVF0JZyZRUcROrGIQqRikNo?authuser=0&hl=tr&rclk=1",
    "website_url": "https://www.irigarden.ro/",
    "rating_text": "4,7",
    "stars": null,
    "number_of_reviews": null,
    "price_level": "",
    "open_hours": "",
    "extraction_timestamp": "2025-06-07T14:37:24.240Z",
    "source_name": "google",
    "source_query": "Irrigation Equipment",
    "source_country": "RO",
    "country": "Romania",
    "state": "Timiș County",
    "city": "Comuna Sânandrei"
  },
  {
    "source_id": "ChIJIfnfLTNnRUcRSrDX85TqUB4",
    "name": "Delta Exclusiv s.r.l.",
    "category": "Delta Exclusiv s.r.l.",
    "formatted_address": "5,0(1)",
    "phone_number": "+40744797018",
    "source_url": "https://www.google.com/maps/place/Delta+Exclusiv+s.r.l./data=!4m7!3m6!1s0x474567332ddff921:0x1e50ea94f3d7b04a!8m2!3d45.756904!4d21.239286!16s%2Fg%2F11fkkzwcn_!19sChIJIfnfLTNnRUcRSrDX85TqUB4?authuser=0&hl=tr&rclk=1",
    "website_url": "https://www.deltaexclusiv.ro/",
    "rating_text": "5,0",
    "stars": null,
    "number_of_reviews": null,
    "price_level": "",
    "open_hours": "",
    "extraction_timestamp": "2025-06-07T14:37:24.241Z",
    "source_name": "google",
    "source_query": "Irrigation Equipment",
    "source_country": "RO",
    "country": "Romania",
    "state": "Timiș County",
    "city": "Comuna Sânandrei"
  },
  {
    "source_id": "ChIJe5iszo5fRUcRxo7w0Xha61A",
    "name": "BADIN SISTEM",
    "category": "BADIN SISTEM",
    "formatted_address": "5,0(5)",
    "phone_number": "+40785111698",
    "source_url": "https://www.google.com/maps/place/BADIN+SISTEM/data=!4m7!3m6!1s0x47455f8eceac987b:0x50eb5a78d1f08ec6!8m2!3d45.7262042!4d21.2819381!16s%2Fg%2F11tjzt76v7!19sChIJe5iszo5fRUcRxo7w0Xha61A?authuser=0&hl=tr&rclk=1",
    "website_url": "https://www.badinsistem.ro/",
    "rating_text": "5,0",
    "stars": null,
    "number_of_reviews": null,
    "price_level": "",
    "open_hours": "",
    "extraction_timestamp": "2025-06-07T14:37:24.241Z",
    "source_name": "google",
    "source_query": "Irrigation Equipment",
    "source_country": "RO",
    "country": "Romania",
    "state": "Timiș County",
    "city": "Comuna Sânandrei"
  },
  {
    "source_id": "ChIJu3QMYXRdRUcRJ2-T1_nXT6U",
    "name": "Marprest",
    "category": "Marprest",
    "formatted_address": "5,0(1)",
    "phone_number": "+40721795322",
    "source_url": "https://www.google.com/maps/place/Marprest/data=!4m7!3m6!1s0x47455d74610c74bb:0xa54fd7f9d7936f27!8m2!3d45.7291043!4d21.2078843!16s%2Fg%2F11c1vmmqkp!19sChIJu3QMYXRdRUcRJ2-T1_nXT6U?authuser=0&hl=tr&rclk=1",
    "website_url": "http://www.marprest.ro/",
    "rating_text": "5,0",
    "stars": null,
    "number_of_reviews": null,
    "price_level": "",
    "open_hours": "",
    "extraction_timestamp": "2025-06-07T14:37:24.241Z",
    "source_name": "google",
    "source_query": "Irrigation Equipment",
    "source_country": "RO",
    "country": "Romania",
    "state": "Timiș County",
    "city": "Comuna Sânandrei"
  },
  {
    "source_id": "ChIJkYA04BJvRUcRlYNEBkRuYqk",
    "name": "Smart Market",
    "category": "Smart Market",
    "formatted_address": "4,4(82)",
    "phone_number": "",
    "source_url": "https://www.google.com/maps/place/Smart+Market/data=!4m7!3m6!1s0x47456f12e0348091:0xa9626e4406448395!8m2!3d45.855338!4d21.1690752!16s%2Fg%2F11h3jcd_4c!19sChIJkYA04BJvRUcRlYNEBkRuYqk?authuser=0&hl=tr&rclk=1",
    "website_url": "",
    "rating_text": "4,4",
    "stars": null,
    "number_of_reviews": null,
    "price_level": "",
    "open_hours": "",
    "extraction_timestamp": "2025-06-07T14:37:24.242Z",
    "source_name": "google",
    "source_query": "Irrigation Equipment",
    "source_country": "RO",
    "country": "Romania",
    "state": "Timiș County",
    "city": "Comuna Sânandrei"
  },
  {
    "source_id": "ChIJ_xhtQtlvRUcR9mMqGjP7ppQ",
    "name": "Gradina Idunnei",
    "category": "Gradina Idunnei",
    "formatted_address": "",
    "phone_number": "+40743023921",
    "source_url": "https://www.google.com/maps/place/Gradina+Idunnei/data=!4m7!3m6!1s0x47456fd9426d18ff:0x94a6fb331a2a63f6!8m2!3d45.8557433!4d21.1693135!16s%2Fg%2F11vqjcbl25!19sChIJ_xhtQtlvRUcR9mMqGjP7ppQ?authuser=0&hl=tr&rclk=1",
    "website_url": "https://gradinaidunnei.ro/",
    "rating_text": "",
    "stars": null,
    "number_of_reviews": null,
    "price_level": "",
    "open_hours": "",
    "extraction_timestamp": "2025-06-07T14:37:24.242Z",
    "source_name": "google",
    "source_query": "Irrigation Equipment",
    "source_country": "RO",
    "country": "Romania",
    "state": "Timiș County",
    "city": "Comuna Sânandrei"
  },
  {
    "source_id": "ChIJv_eizuFdRUcRg4yb6UmX30I",
    "name": "MagazinGradina",
    "category": "MagazinGradina",
    "formatted_address": "",
    "phone_number": "+40724011591",
    "source_url": "https://www.google.com/maps/place/MagazinGradina/data=!4m7!3m6!1s0x47455de1cea2f7bf:0x42df9749e99b8c83!8m2!3d45.7293427!4d21.2700876!16s%2Fg%2F11fqptlzbn!19sChIJv_eizuFdRUcRg4yb6UmX30I?authuser=0&hl=tr&rclk=1",
    "website_url": "http://magazingradina.ro/",
    "rating_text": "",
    "stars": null,
    "number_of_reviews": null,
    "price_level": "",
    "open_hours": "",
    "extraction_timestamp": "2025-06-07T14:37:24.242Z",
    "source_name": "google",
    "source_query": "Irrigation Equipment",
    "source_country": "RO",
    "country": "Romania",
    "state": "Timiș County",
    "city": "Comuna Sânandrei"
  },
  {
    "source_id": "ChIJh3Fb0ElnRUcRG64eohRJY9Q",
    "name": "Hydroline",
    "category": "Hydroline",
    "formatted_address": "4,7(51)",
    "phone_number": "+40256499714",
    "source_url": "https://www.google.com/maps/place/Hydroline/data=!4m7!3m6!1s0x47456749d05b7187:0xd4634914a21eae1b!8m2!3d45.7634781!4d21.2841228!16s%2Fg%2F1tmgb6j2!19sChIJh3Fb0ElnRUcRG64eohRJY9Q?authuser=0&hl=tr&rclk=1",
    "website_url": "https://hydroline.ro/",
    "rating_text": "4,7",
    "stars": null,
    "number_of_reviews": null,
    "price_level": "",
    "open_hours": "",
    "extraction_timestamp": "2025-06-07T14:37:24.243Z",
    "source_name": "google",
    "source_query": "Irrigation Equipment",
    "source_country": "RO",
    "country": "Romania",
    "state": "Timiș County",
    "city": "Comuna Sânandrei"
  },
  {
    "source_id": "ChIJp2OAcQBTRUcRniu69EXSQRA",
    "name": "Stația de Pompare Gad (Timiș, mal stâng)",
    "category": "Stația de Pompare Gad (Timiș, mal stâng)",
    "formatted_address": "Stația de Pompare Gad (Timiș, mal stâng)",
    "phone_number": "",
    "source_url": "https://www.google.com/maps/place/Sta%C8%9Bia+de+Pompare+Gad+%28Timi%C8%99,+mal+st%C3%A2ng%29/data=!4m7!3m6!1s0x47455300718063a7:0x1041d245f4ba2b9e!8m2!3d45.4876294!4d21.0120564!16s%2Fg%2F11lnw65r19!19sChIJp2OAcQBTRUcRniu69EXSQRA?authuser=0&hl=tr&rclk=1",
    "website_url": "",
    "rating_text": "",
    "stars": null,
    "number_of_reviews": null,
    "price_level": "",
    "open_hours": "",
    "extraction_timestamp": "2025-06-07T14:37:24.243Z",
    "source_name": "google",
    "source_query": "Irrigation Equipment",
    "source_country": "RO",
    "country": "Romania",
    "state": "Timiș County",
    "city": "Comuna Sânandrei"
  },
  {
    "source_id": "ChIJ-VZeec9uRUcRETCde2fk_Q8",
    "name": "Euro Motor's",
    "category": "Euro Motor's",
    "formatted_address": "4,6(23)",
    "phone_number": "+40722402277",
    "source_url": "https://www.google.com/maps/place/Euro+Motor%27s/data=!4m7!3m6!1s0x47456ecf795e56f9:0xffde4677b9d3011!8m2!3d45.8553025!4d21.1691576!16s%2Fg%2F11c605h6wk!19sChIJ-VZeec9uRUcRETCde2fk_Q8?authuser=0&hl=tr&rclk=1",
    "website_url": "",
    "rating_text": "4,6",
    "stars": null,
    "number_of_reviews": null,
    "price_level": "",
    "open_hours": "",
    "extraction_timestamp": "2025-06-07T14:37:24.243Z",
    "source_name": "google",
    "source_query": "Irrigation Equipment",
    "source_country": "RO",
    "country": "Romania",
    "state": "Timiș County",
    "city": "Comuna Sânandrei"
  },
  {
    "source_id": "ChIJcf2_6sVuRUcRuF4bRaSrptg",
    "name": "ZebraPay",
    "category": "ZebraPay",
    "formatted_address": "4,2(41)",
    "phone_number": "+40372776060",
    "source_url": "https://www.google.com/maps/place/ZebraPay/data=!4m7!3m6!1s0x47456ec5eabffd71:0xd8a6aba4451b5eb8!8m2!3d45.8569!4d21.1688799!16s%2Fg%2F11d_d4k_j2!19sChIJcf2_6sVuRUcRuF4bRaSrptg?authuser=0&hl=tr&rclk=1",
    "website_url": "https://www.zebrapay.ro/",
    "rating_text": "4,2",
    "stars": null,
    "number_of_reviews": null,
    "price_level": "",
    "open_hours": "",
    "extraction_timestamp": "2025-06-07T14:37:24.244Z",
    "source_name": "google",
    "source_query": "Irrigation Equipment",
    "source_country": "RO",
    "country": "Romania",
    "state": "Timiș County",
    "city": "Comuna Sânandrei"
  },
  {
    "source_id": "ChIJWzqf0q9nRUcRAYOZd6IQsas",
    "name": "Inmedio",
    "category": "Inmedio",
    "formatted_address": "4,3(149)",
    "phone_number": "+40371525738",
    "source_url": "https://www.google.com/maps/place/Inmedio/data=!4m7!3m6!1s0x474567afd29f3a5b:0xabb110a277998301!8m2!3d45.7853552!4d21.2378832!16s%2Fg%2F12hp_pln6!19sChIJWzqf0q9nRUcRAYOZd6IQsas?authuser=0&hl=tr&rclk=1",
    "website_url": "https://inmedio.ro/",
    "rating_text": "4,3",
    "stars": null,
    "number_of_reviews": null,
    "price_level": "",
    "open_hours": "",
    "extraction_timestamp": "2025-06-07T14:37:24.244Z",
    "source_name": "google",
    "source_query": "Irrigation Equipment",
    "source_country": "RO",
    "country": "Romania",
    "state": "Timiș County",
    "city": "Comuna Sânandrei"
  },
  {
    "source_id": "ChIJNSQ45sdnRUcRs_GuGxRiXDQ",
    "name": "Inmedio",
    "category": "Inmedio",
    "formatted_address": "4,3(18)",
    "phone_number": "+40738000737",
    "source_url": "https://www.google.com/maps/place/Inmedio/data=!4m7!3m6!1s0x474567c7e6382435:0x345c62141baef1b3!8m2!3d45.7856301!4d21.2212585!16s%2Fg%2F12hr5vxhm!19sChIJNSQ45sdnRUcRs_GuGxRiXDQ?authuser=0&hl=tr&rclk=1",
    "website_url": "http://www.inmedio.ro/",
    "rating_text": "4,3",
    "stars": null,
    "number_of_reviews": null,
    "price_level": "",
    "open_hours": "",
    "extraction_timestamp": "2025-06-07T14:37:24.245Z",
    "source_name": "google",
    "source_query": "Irrigation Equipment",
    "source_country": "RO",
    "country": "Romania",
    "state": "Timiș County",
    "city": "Comuna Sânandrei"
  },
  {
    "source_id": "ChIJ-UCNtrJYREcRzGxXbeQITqA",
    "name": "Tó és Öntözés Kft.",
    "category": "Tó és Öntözés Kft.",
    "formatted_address": "4,4(81)",
    "phone_number": "+3662211497",
    "source_url": "https://www.google.com/maps/place/T%C3%B3+%C3%A9s+%C3%96nt%C3%B6z%C3%A9s+Kft./data=!4m7!3m6!1s0x474458b2b68d40f9:0xa04e08e46d576ccc!8m2!3d46.2309434!4d20.477726!16s%2Fg%2F1tfpngwz!19sChIJ-UCNtrJYREcRzGxXbeQITqA?authuser=0&hl=tr&rclk=1",
    "website_url": "http://www.toesontozeswebaruhaz.hu/",
    "rating_text": "4,4",
    "stars": null,
    "number_of_reviews": null,
    "price_level": "",
    "open_hours": "",
    "extraction_timestamp": "2025-06-07T14:37:24.245Z",
    "source_name": "google",
    "source_query": "Irrigation Equipment",
    "source_country": "RO",
    "country": "Romania",
    "state": "Timiș County",
    "city": "Comuna Sânandrei"
  },
  {
    "source_id": "ChIJlQLiYwBHRUcRvpMe14mSt7s",
    "name": "Priza de apă Aurélháza/Răuți (Bega, mal drept)",
    "category": "Priza de apă Aurélháza/Răuți (Bega, mal drept)",
    "formatted_address": "Priza de apă Aurélháza/Răuți (Bega, mal drept)",
    "phone_number": "",
    "source_url": "https://www.google.com/maps/place/Priza+de+ap%C4%83+Aur%C3%A9lh%C3%A1za%2FR%C4%83u%C8%9Bi+%28Bega,+mal+drept%29/data=!4m7!3m6!1s0x4745470063e20295:0xbbb79289d71e93be!8m2!3d45.6594252!4d20.9280531!16s%2Fg%2F11y50fyqnc!19sChIJlQLiYwBHRUcRvpMe14mSt7s?authuser=0&hl=tr&rclk=1",
    "website_url": "",
    "rating_text": "5,0",
    "stars": null,
    "number_of_reviews": null,
    "price_level": "",
    "open_hours": "",
    "extraction_timestamp": "2025-06-07T14:37:24.245Z",
    "source_name": "google",
    "source_query": "Irrigation Equipment",
    "source_country": "RO",
    "country": "Romania",
    "state": "Timiș County",
    "city": "Comuna Sânandrei"
  },
  {
    "source_id": "ChIJZRMwt7JYREcRlVLi2lV4LgE",
    "name": "Kertészeti Öntözéstechnika Kft.",
    "category": "Kertészeti Öntözéstechnika Kft.",
    "formatted_address": "4,6(9)",
    "phone_number": "+3662211497",
    "source_url": "https://www.google.com/maps/place/Kert%C3%A9szeti+%C3%96nt%C3%B6z%C3%A9stechnika+Kft./data=!4m7!3m6!1s0x474458b2b7301365:0x12e7855dae25295!8m2!3d46.2310257!4d20.4777381!16s%2Fg%2F1hhxmgj05!19sChIJZRMwt7JYREcRlVLi2lV4LgE?authuser=0&hl=tr&rclk=1",
    "website_url": "http://www.kerteszetiontozestechnika.hu/",
    "rating_text": "4,6",
    "stars": null,
    "number_of_reviews": null,
    "price_level": "",
    "open_hours": "",
    "extraction_timestamp": "2025-06-07T14:37:24.246Z",
    "source_name": "google",
    "source_query": "Irrigation Equipment",
    "source_country": "RO",
    "country": "Romania",
    "state": "Timiș County",
    "city": "Comuna Sânandrei"
  },
  {
    "source_id": "ChIJ2yyu2u-ZRUcRAentcQp81yg",
    "name": "Fish farm accesorii iaz, pesti, sisteme de irigatii",
    "category": "Fish farm accesorii iaz, pesti, sisteme de irigatii",
    "formatted_address": "Fish farm accesorii iaz, pesti, sisteme de irigatii",
    "phone_number": "+40756060729",
    "source_url": "https://www.google.com/maps/place/Fish+farm+accesorii+iaz,+pesti,+sisteme+de+irigatii/data=!4m7!3m6!1s0x474599efdaae2cdb:0x28d77c0a71ede901!8m2!3d46.1692156!4d21.2834742!16s%2Fg%2F11gr2fbfdv!19sChIJ2yyu2u-ZRUcRAentcQp81yg?authuser=0&hl=tr&rclk=1",
    "website_url": "http://www.fish-farm.ro/",
    "rating_text": "2,9",
    "stars": null,
    "number_of_reviews": null,
    "price_level": "",
    "open_hours": "",
    "extraction_timestamp": "2025-06-07T14:37:24.246Z",
    "source_name": "google",
    "source_query": "Irrigation Equipment",
    "source_country": "RO",
    "country": "Romania",
    "state": "Timiș County",
    "city": "Comuna Sânandrei"
  },
  {
    "source_id": "ChIJhxenMwBHRUcRsFkQG6V4s6c",
    "name": "Stația de pompare Proletarul (mal drept)",
    "category": "Stația de pompare Proletarul (mal drept)",
    "formatted_address": "5,0(1)",
    "phone_number": "",
    "source_url": "https://www.google.com/maps/place/Sta%C8%9Bia+de+pompare+Proletarul+%28mal+drept%29/data=!4m7!3m6!1s0x4745470033a71787:0xa7b378a51b1059b0!8m2!3d45.6702049!4d20.9801263!16s%2Fg%2F11vx5grzy_!19sChIJhxenMwBHRUcRsFkQG6V4s6c?authuser=0&hl=tr&rclk=1",
    "website_url": "",
    "rating_text": "5,0",
    "stars": null,
    "number_of_reviews": null,
    "price_level": "",
    "open_hours": "",
    "extraction_timestamp": "2025-06-07T14:37:24.246Z",
    "source_name": "google",
    "source_query": "Irrigation Equipment",
    "source_country": "RO",
    "country": "Romania",
    "state": "Timiș County",
    "city": "Comuna Sânandrei"
  },
  {
    "source_id": "ChIJLST0Pa1FRUcRYvP0RVhfsv4",
    "name": "Amenajari spatii verzi",
    "category": "Amenajari spatii verzi",
    "formatted_address": "",
    "phone_number": "+40756857321",
    "source_url": "https://www.google.com/maps/place/Amenajari+spatii+verzi/data=!4m7!3m6!1s0x474545ad3df4242d:0xfeb25f5845f4f362!8m2!3d45.6990863!4d21.0856672!16s%2Fg%2F11whgxvrc8!19sChIJLST0Pa1FRUcRYvP0RVhfsv4?authuser=0&hl=tr&rclk=1",
    "website_url": "",
    "rating_text": "",
    "stars": null,
    "number_of_reviews": null,
    "price_level": "",
    "open_hours": "",
    "extraction_timestamp": "2025-06-07T14:37:24.247Z",
    "source_name": "google",
    "source_query": "Irrigation Equipment",
    "source_country": "RO",
    "country": "Romania",
    "state": "Timiș County",
    "city": "Comuna Sânandrei"
  },
  {
    "source_id": "ChIJrRNEBNJnRUcRMUyGJZE96w0",
    "name": "Badehaus Timisoara",
    "category": "Badehaus Timisoara",
    "formatted_address": "5,0(16)",
    "phone_number": "+40751588641",
    "source_url": "https://www.google.com/maps/place/Badehaus+Timisoara/data=!4m7!3m6!1s0x474567d2044413ad:0xdeb3d9125864c31!8m2!3d45.7361451!4d21.2543419!16s%2Fg%2F11jgj93kdj!19sChIJrRNEBNJnRUcRMUyGJZE96w0?authuser=0&hl=tr&rclk=1",
    "website_url": "https://www.badehaus.ro/",
    "rating_text": "5,0",
    "stars": null,
    "number_of_reviews": null,
    "price_level": "",
    "open_hours": "",
    "extraction_timestamp": "2025-06-07T14:37:24.247Z",
    "source_name": "google",
    "source_query": "Irrigation Equipment",
    "source_country": "RO",
    "country": "Romania",
    "state": "Timiș County",
    "city": "Comuna Sânandrei"
  },
  {
    "source_id": "ChIJA7NsIvdnRUcRkb63DQjDBx0",
    "name": "Brutăria Amra",
    "category": "Brutăria Amra",
    "formatted_address": "4,2(205) · L 1–20",
    "phone_number": "+40256473176",
    "source_url": "https://www.google.com/maps/place/Brut%C4%83ria+Amra/data=!4m7!3m6!1s0x474567f7226cb303:0x1d07c3080db7be91!8m2!3d45.7653081!4d21.1950557!16s%2Fg%2F1hc2d6z50!19sChIJA7NsIvdnRUcRkb63DQjDBx0?authuser=0&hl=tr&rclk=1",
    "website_url": "https://www.amra.ro/",
    "rating_text": "4,2",
    "stars": null,
    "number_of_reviews": null,
    "price_level": "",
    "open_hours": "",
    "extraction_timestamp": "2025-06-07T14:37:24.248Z",
    "source_name": "google",
    "source_query": "Irrigation Equipment",
    "source_country": "RO",
    "country": "Romania",
    "state": "Timiș County",
    "city": "Comuna Sânandrei"
  },
  {
    "source_id": "ChIJb4WE7Tu7RUcRWkbVD1KcdOg",
    "name": "irisky.ro - Sisteme de irigatii",
    "category": "irisky.ro - Sisteme de irigatii",
    "formatted_address": "5,0(7)",
    "phone_number": "+40758715338",
    "source_url": "https://www.google.com/maps/place/irisky.ro+-+Sisteme+de+irigatii/data=!4m7!3m6!1s0x4745bb3bed84856f:0xe8749c520fd5465a!8m2!3d46.2542004!4d21.1275527!16s%2Fg%2F11shprbdbz!19sChIJb4WE7Tu7RUcRWkbVD1KcdOg?authuser=0&hl=tr&rclk=1",
    "website_url": "https://irisky.ro/",
    "rating_text": "5,0",
    "stars": null,
    "number_of_reviews": null,
    "price_level": "",
    "open_hours": "",
    "extraction_timestamp": "2025-06-07T14:37:24.248Z",
    "source_name": "google",
    "source_query": "Irrigation Equipment",
    "source_country": "RO",
    "country": "Romania",
    "state": "Timiș County",
    "city": "Comuna Sânandrei"
  },
  {
    "source_id": "ChIJfRMY9QldRUcRBP62OdyuMe0",
    "name": "Instalplus",
    "category": "Instalplus",
    "formatted_address": "4,7(29)",
    "phone_number": "+40728969778",
    "source_url": "https://www.google.com/maps/place/Instalplus/data=!4m7!3m6!1s0x47455d09f518137d:0xed31aedc39b6fe04!8m2!3d45.7336556!4d21.2094947!16s%2Fg%2F11c1vq02h0!19sChIJfRMY9QldRUcRBP62OdyuMe0?authuser=0&hl=tr&rclk=1",
    "website_url": "https://www.instalplus.ro/",
    "rating_text": "4,7",
    "stars": null,
    "number_of_reviews": null,
    "price_level": "",
    "open_hours": "",
    "extraction_timestamp": "2025-06-07T14:37:24.248Z",
    "source_name": "google",
    "source_query": "Irrigation Equipment",
    "source_country": "RO",
    "country": "Romania",
    "state": "Timiș County",
    "city": "Comuna Sânandrei"
  }
]
