[
  {
    "source_id": "ChIJm2k4OBhnRUcRorlDejzLFj8",
    "name": "INTTECH INDUSTRY - Timis",
    "category": "INTTECH INDUSTRY - Timis",
    "formatted_address": "5,0(30)",
    "phone_number": "+40744323626",
    "source_url": "https://www.google.com/maps/place/INTTECH+INDUSTRY+-+Timis/data=!4m7!3m6!1s0x474567183838699b:0x3f16cb3c7a43b9a2!8m2!3d45.8007315!4d21.249204!16s%2Fg%2F11j3g9f8jq!19sChIJm2k4OBhnRUcRorlDejzLFj8?authuser=0&hl=tr&rclk=1",
    "website_url": "http://www.irrishop.ro/",
    "rating_text": "5,0",
    "stars": null,
    "number_of_reviews": null,
    "price_level": "",
    "open_hours": "",
    "extraction_timestamp": "2025-06-07T14:12:51.198Z",
    "source_name": "google",
    "source_query": "Irrigation Equipment",
    "source_country": "RO",
    "country": "Romania",
    "state": "Timiș County",
    "city": "Comuna Becicherecu Mic"
  },
  {
    "source_id": "ChIJD7OM9o1dRUcRRqlJ_yffJcE",
    "name": "Gardensis S.R.L.",
    "category": "Gardensis S.R.L.",
    "formatted_address": "4,6(16)",
    "phone_number": "+40724011591",
    "source_url": "https://www.google.com/maps/place/Gardensis+S.R.L./data=!4m7!3m6!1s0x47455d8df68cb30f:0xc125df27ff49a946!8m2!3d45.7292754!4d21.2698954!16s%2Fg%2F1hc7xr42_!19sChIJD7OM9o1dRUcRRqlJ_yffJcE?authuser=0&hl=tr&rclk=1",
    "website_url": "http://www.irigatii.ro/",
    "rating_text": "4,6",
    "stars": null,
    "number_of_reviews": null,
    "price_level": "",
    "open_hours": "",
    "extraction_timestamp": "2025-06-07T14:12:51.199Z",
    "source_name": "google",
    "source_query": "Irrigation Equipment",
    "source_country": "RO",
    "country": "Romania",
    "state": "Timiș County",
    "city": "Comuna Becicherecu Mic"
  },
  {
    "source_id": "ChIJu9QYiMJdRUcROlyKL-xy3eg",
    "name": "Fluidiqa SRL",
    "category": "Fluidiqa SRL",
    "formatted_address": "5,0(1)",
    "phone_number": "+40756100954",
    "source_url": "https://www.google.com/maps/place/Fluidiqa+SRL/data=!4m7!3m6!1s0x47455dc28818d4bb:0xe8dd72ec2f8a5c3a!8m2!3d45.7038491!4d21.1825258!16s%2Fg%2F11c61qxjzj!19sChIJu9QYiMJdRUcROlyKL-xy3eg?authuser=0&hl=tr&rclk=1",
    "website_url": "http://www.fluidiqa.ro/",
    "rating_text": "5,0",
    "stars": null,
    "number_of_reviews": null,
    "price_level": "",
    "open_hours": "",
    "extraction_timestamp": "2025-06-07T14:12:51.200Z",
    "source_name": "google",
    "source_query": "Irrigation Equipment",
    "source_country": "RO",
    "country": "Romania",
    "state": "Timiș County",
    "city": "Comuna Becicherecu Mic"
  },
  {
    "source_id": "ChIJvfIO_CdrRUcRHq6Vx10lbvk",
    "name": "Sc Miron Garden s.r.l",
    "category": "Sc Miron Garden s.r.l",
    "formatted_address": "5,0(6)",
    "phone_number": "+40770366209",
    "source_url": "https://www.google.com/maps/place/Sc+Miron+Garden+s.r.l/data=!4m7!3m6!1s0x47456b27fc0ef2bd:0xf96e255dc795ae1e!8m2!3d45.8398631!4d21.0964328!16s%2Fg%2F11r9vn5y5k!19sChIJvfIO_CdrRUcRHq6Vx10lbvk?authuser=0&hl=tr&rclk=1",
    "website_url": "",
    "rating_text": "5,0",
    "stars": null,
    "number_of_reviews": null,
    "price_level": "",
    "open_hours": "",
    "extraction_timestamp": "2025-06-07T14:12:51.200Z",
    "source_name": "google",
    "source_query": "Irrigation Equipment",
    "source_country": "RO",
    "country": "Romania",
    "state": "Timiș County",
    "city": "Comuna Becicherecu Mic"
  },
  {
    "source_id": "ChIJMWnr6hJeRUcR1qATsiSFcKk",
    "name": "Irigații-S.C.Badin-sistem S.R.L.",
    "category": "Irigații-S.C.Badin-sistem S.R.L.",
    "formatted_address": "4,7(76)",
    "phone_number": "+40785111698",
    "source_url": "https://www.google.com/maps/place/Iriga%C8%9Bii-S.C.Badin-sistem+S.R.L./data=!4m7!3m6!1s0x47455e12eaeb6931:0xa9708524b213a0d6!8m2!3d45.7351861!4d21.263806!16s%2Fg%2F11c5rmlsvm!19sChIJMWnr6hJeRUcR1qATsiSFcKk?authuser=0&hl=tr&rclk=1",
    "website_url": "http://www.badinsistem.ro/",
    "rating_text": "4,7",
    "stars": null,
    "number_of_reviews": null,
    "price_level": "",
    "open_hours": "",
    "extraction_timestamp": "2025-06-07T14:12:51.202Z",
    "source_name": "google",
    "source_query": "Irrigation Equipment",
    "source_country": "RO",
    "country": "Romania",
    "state": "Timiș County",
    "city": "Comuna Becicherecu Mic"
  },
  {
    "source_id": "ChIJzzGl8ApeRUcR3xJZHCGgt08",
    "name": "irigatii.ro",
    "category": "irigatii.ro",
    "formatted_address": "4,8(65)",
    "phone_number": "+40724011591",
    "source_url": "https://www.google.com/maps/place/irigatii.ro/data=!4m7!3m6!1s0x47455e0af0a531cf:0x4fb7a0211c5912df!8m2!3d45.7293134!4d21.2700735!16s%2Fg%2F1hc2p_4by!19sChIJzzGl8ApeRUcR3xJZHCGgt08?authuser=0&hl=tr&rclk=1",
    "website_url": "http://www.irigatii.ro/",
    "rating_text": "4,8",
    "stars": null,
    "number_of_reviews": null,
    "price_level": "",
    "open_hours": "",
    "extraction_timestamp": "2025-06-07T14:12:51.202Z",
    "source_name": "google",
    "source_query": "Irrigation Equipment",
    "source_country": "RO",
    "country": "Romania",
    "state": "Timiș County",
    "city": "Comuna Becicherecu Mic"
  },
  {
    "source_id": "ChIJeYlMsH5rRUcR8XH5c-lZGvM",
    "name": "MATERIALE CONSTRUCTII BECICHERECU MIC",
    "category": "MATERIALE CONSTRUCTII BECICHERECU MIC",
    "formatted_address": "4,3(3)",
    "phone_number": "+40372703551",
    "source_url": "https://www.google.com/maps/place/MATERIALE+CONSTRUCTII+BECICHERECU+MIC/data=!4m7!3m6!1s0x47456b7eb04c8979:0xf31a59e973f971f1!8m2!3d45.830447!4d21.0486849!16s%2Fg%2F11tcv2x_5b!19sChIJeYlMsH5rRUcR8XH5c-lZGvM?authuser=0&hl=tr&rclk=1",
    "website_url": "https://www.facebook.com/profile.php?id=100085329795988",
    "rating_text": "4,3",
    "stars": null,
    "number_of_reviews": null,
    "price_level": "",
    "open_hours": "",
    "extraction_timestamp": "2025-06-07T14:12:51.203Z",
    "source_name": "google",
    "source_query": "Irrigation Equipment",
    "source_country": "RO",
    "country": "Romania",
    "state": "Timiș County",
    "city": "Comuna Becicherecu Mic"
  },
  {
    "source_id": "ChIJ30pz5flrRUcRkUC-tJ9ulMo",
    "name": "Aquatorontal Srl",
    "category": "Aquatorontal Srl",
    "formatted_address": "4,7(3)",
    "phone_number": "",
    "source_url": "https://www.google.com/maps/place/Aquatorontal+Srl/data=!4m7!3m6!1s0x47456bf9e5734adf:0xca946e9fb4be4091!8m2!3d45.8330741!4d21.0487888!16s%2Fg%2F11l4mlfjy7!19sChIJ30pz5flrRUcRkUC-tJ9ulMo?authuser=0&hl=tr&rclk=1",
    "website_url": "",
    "rating_text": "4,7",
    "stars": null,
    "number_of_reviews": null,
    "price_level": "",
    "open_hours": "",
    "extraction_timestamp": "2025-06-07T14:12:51.203Z",
    "source_name": "google",
    "source_query": "Irrigation Equipment",
    "source_country": "RO",
    "country": "Romania",
    "state": "Timiș County",
    "city": "Comuna Becicherecu Mic"
  },
  {
    "source_id": "ChIJo0DbuQxrRUcRRJWM1n0kEKw",
    "name": "SEE Solution BM - Sisteme de pompare",
    "category": "SEE Solution BM - Sisteme de pompare",
    "formatted_address": "",
    "phone_number": "+40729081215",
    "source_url": "https://www.google.com/maps/place/SEE+Solution+BM+-+Sisteme+de+pompare/data=!4m7!3m6!1s0x47456b0cb9db40a3:0xac10247dd68c9544!8m2!3d45.8364614!4d21.0612403!16s%2Fg%2F11k4swqb9d!19sChIJo0DbuQxrRUcRRJWM1n0kEKw?authuser=0&hl=tr&rclk=1",
    "website_url": "",
    "rating_text": "",
    "stars": null,
    "number_of_reviews": null,
    "price_level": "",
    "open_hours": "",
    "extraction_timestamp": "2025-06-07T14:12:51.203Z",
    "source_name": "google",
    "source_query": "Irrigation Equipment",
    "source_country": "RO",
    "country": "Romania",
    "state": "Timiș County",
    "city": "Comuna Becicherecu Mic"
  },
  {
    "source_id": "ChIJhYGdDgBBRUcRPztPLXvalJI",
    "name": "Stația de Pompare Săcălaz NV (Bega Veche, mal drept)",
    "category": "Stația de Pompare Săcălaz NV (Bega Veche, mal drept)",
    "formatted_address": "Stația de Pompare Săcălaz NV (Bega Veche, mal drept)",
    "phone_number": "",
    "source_url": "https://www.google.com/maps/place/Sta%C8%9Bia+de+Pompare+S%C4%83c%C4%83laz+NV+%28Bega+Veche,+mal+drept%29/data=!4m7!3m6!1s0x474541000e9d8185:0x9294da7b2d4f3b3f!8m2!3d45.7779596!4d21.0566631!16s%2Fg%2F11wjlks9f9!19sChIJhYGdDgBBRUcRPztPLXvalJI?authuser=0&hl=tr&rclk=1",
    "website_url": "",
    "rating_text": "",
    "stars": null,
    "number_of_reviews": null,
    "price_level": "",
    "open_hours": "",
    "extraction_timestamp": "2025-06-07T14:12:51.204Z",
    "source_name": "google",
    "source_query": "Irrigation Equipment",
    "source_country": "RO",
    "country": "Romania",
    "state": "Timiș County",
    "city": "Comuna Becicherecu Mic"
  },
  {
    "source_id": "ChIJ58wcKh8_RUcRM-Nc-wxy3Qc",
    "name": "D&D Water Construct",
    "category": "D&D Water Construct",
    "formatted_address": "4,8(5)",
    "phone_number": "+40768040950",
    "source_url": "https://www.google.com/maps/place/D%26D+Water+Construct/data=!4m7!3m6!1s0x47453f1f2a1ccce7:0x7dd720cfb5ce333!8m2!3d45.7871468!4d20.9027202!16s%2Fg%2F11g30hx95m!19sChIJ58wcKh8_RUcRM-Nc-wxy3Qc?authuser=0&hl=tr&rclk=1",
    "website_url": "",
    "rating_text": "4,8",
    "stars": null,
    "number_of_reviews": null,
    "price_level": "",
    "open_hours": "",
    "extraction_timestamp": "2025-06-07T14:12:51.204Z",
    "source_name": "google",
    "source_query": "Irrigation Equipment",
    "source_country": "RO",
    "country": "Romania",
    "state": "Timiș County",
    "city": "Comuna Becicherecu Mic"
  },
  {
    "source_id": "ChIJcUVxnDaZRUcRUbUn3okKfP4",
    "name": "SC Tehnica Irigatii-Lacuri Decorative SRL",
    "category": "SC Tehnica Irigatii-Lacuri Decorative SRL",
    "formatted_address": "4,9(32)",
    "phone_number": "+40731208755",
    "source_url": "https://www.google.com/maps/place/SC+Tehnica+Irigatii-Lacuri+Decorative+SRL/data=!4m7!3m6!1s0x474599369c714571:0xfe7c0a89de27b551!8m2!3d46.1409626!4d21.3164797!16s%2Fg%2F11c6vbxz0v!19sChIJcUVxnDaZRUcRUbUn3okKfP4?authuser=0&hl=tr&rclk=1",
    "website_url": "https://www.tehnicairigatii.ro/",
    "rating_text": "4,9",
    "stars": null,
    "number_of_reviews": null,
    "price_level": "",
    "open_hours": "",
    "extraction_timestamp": "2025-06-07T14:12:51.205Z",
    "source_name": "google",
    "source_query": "Irrigation Equipment",
    "source_country": "RO",
    "country": "Romania",
    "state": "Timiș County",
    "city": "Comuna Becicherecu Mic"
  },
  {
    "source_id": "ChIJ_YtYR4gTRUcRmlqsNB8rW1w",
    "name": "Tipa",
    "category": "Tipa",
    "formatted_address": "4,6(82)",
    "phone_number": "+40733387624",
    "source_url": "https://www.google.com/maps/place/Tipa/data=!4m7!3m6!1s0x4745138847588bfd:0x5c5b2b1f34ac5a9a!8m2!3d45.8828821!4d20.9630326!16s%2Fg%2F1hc3dqcym!19sChIJ_YtYR4gTRUcRmlqsNB8rW1w?authuser=0&hl=tr&rclk=1",
    "website_url": "",
    "rating_text": "4,6",
    "stars": null,
    "number_of_reviews": null,
    "price_level": "",
    "open_hours": "",
    "extraction_timestamp": "2025-06-07T14:12:51.206Z",
    "source_name": "google",
    "source_query": "Irrigation Equipment",
    "source_country": "RO",
    "country": "Romania",
    "state": "Timiș County",
    "city": "Comuna Becicherecu Mic"
  },
  {
    "source_id": "ChIJIfnfLTNnRUcRSrDX85TqUB4",
    "name": "Delta Exclusiv s.r.l.",
    "category": "Delta Exclusiv s.r.l.",
    "formatted_address": "5,0(1)",
    "phone_number": "+40744797018",
    "source_url": "https://www.google.com/maps/place/Delta+Exclusiv+s.r.l./data=!4m7!3m6!1s0x474567332ddff921:0x1e50ea94f3d7b04a!8m2!3d45.756904!4d21.239286!16s%2Fg%2F11fkkzwcn_!19sChIJIfnfLTNnRUcRSrDX85TqUB4?authuser=0&hl=tr&rclk=1",
    "website_url": "https://www.deltaexclusiv.ro/",
    "rating_text": "5,0",
    "stars": null,
    "number_of_reviews": null,
    "price_level": "",
    "open_hours": "",
    "extraction_timestamp": "2025-06-07T14:12:51.206Z",
    "source_name": "google",
    "source_query": "Irrigation Equipment",
    "source_country": "RO",
    "country": "Romania",
    "state": "Timiș County",
    "city": "Comuna Becicherecu Mic"
  }
]
