[
  {
    "source_id": "ChIJidrmRbEFRUcRIjSLeRt3WAs",
    "name": "SC AGROMEC PERIAM SA",
    "category": "SC AGROMEC PERIAM SA",
    "formatted_address": "4,5(25)",
    "phone_number": "+40745255596",
    "source_url": "https://www.google.com/maps/place/SC+AGROMEC+PERIAM+SA/data=!4m7!3m6!1s0x474505b145e6da89:0xb58771b798b3422!8m2!3d46.0372851!4d20.8654612!16s%2Fg%2F11g7ydblrp!19sChIJidrmRbEFRUcRIjSLeRt3WAs?authuser=0&hl=tr&rclk=1",
    "website_url": "",
    "rating_text": "4,5",
    "stars": null,
    "number_of_reviews": null,
    "price_level": "",
    "open_hours": "",
    "extraction_timestamp": "2025-06-07T14:43:43.526Z",
    "source_name": "google",
    "source_query": "Irrigation Equipment",
    "source_country": "RO",
    "country": "Romania",
    "state": "Timiș County",
    "city": "Comuna Periam"
  },
  {
    "source_id": "ChIJzXV0784FRUcR3QiIUbDnZ-k",
    "name": "Ramicom",
    "category": "Ramicom",
    "formatted_address": "4,5(131)",
    "phone_number": "+40256375201",
    "source_url": "https://www.google.com/maps/place/Ramicom/data=!4m7!3m6!1s0x474505ceef7475cd:0xe967e7b0518808dd!8m2!3d46.0478945!4d20.8743409!16s%2Fg%2F11gfp3pb2_!19sChIJzXV0784FRUcR3QiIUbDnZ-k?authuser=0&hl=tr&rclk=1",
    "website_url": "",
    "rating_text": "4,5",
    "stars": null,
    "number_of_reviews": null,
    "price_level": "",
    "open_hours": "",
    "extraction_timestamp": "2025-06-07T14:43:43.527Z",
    "source_name": "google",
    "source_query": "Irrigation Equipment",
    "source_country": "RO",
    "country": "Romania",
    "state": "Timiș County",
    "city": "Comuna Periam"
  },
  {
    "source_id": "ChIJC99U5iIFRUcRTQFAv0xB1JI",
    "name": "Casa Verde Magazin Materiale de Constructii si Agricol",
    "category": "Casa Verde Magazin Materiale de Constructii si Agricol",
    "formatted_address": "4,6(61)",
    "phone_number": "+40758535618",
    "source_url": "https://www.google.com/maps/place/Casa+Verde+Magazin+Materiale+de+Constructii+si+Agricol/data=!4m7!3m6!1s0x47450522e654df0b:0x92d4414cbf40014d!8m2!3d46.0408071!4d20.8691146!16s%2Fg%2F11pr7hpf9x!19sChIJC99U5iIFRUcRTQFAv0xB1JI?authuser=0&hl=tr&rclk=1",
    "website_url": "",
    "rating_text": "4,6",
    "stars": null,
    "number_of_reviews": null,
    "price_level": "",
    "open_hours": "",
    "extraction_timestamp": "2025-06-07T14:43:43.531Z",
    "source_name": "google",
    "source_query": "Irrigation Equipment",
    "source_country": "RO",
    "country": "Romania",
    "state": "Timiș County",
    "city": "Comuna Periam"
  },
  {
    "source_id": "ChIJm2k4OBhnRUcRorlDejzLFj8",
    "name": "INTTECH INDUSTRY - Timis",
    "category": "INTTECH INDUSTRY - Timis",
    "formatted_address": "5,0(30)",
    "phone_number": "+40744323626",
    "source_url": "https://www.google.com/maps/place/INTTECH+INDUSTRY+-+Timis/data=!4m7!3m6!1s0x474567183838699b:0x3f16cb3c7a43b9a2!8m2!3d45.8007315!4d21.249204!16s%2Fg%2F11j3g9f8jq!19sChIJm2k4OBhnRUcRorlDejzLFj8?authuser=0&hl=tr&rclk=1",
    "website_url": "",
    "rating_text": "5,0",
    "stars": null,
    "number_of_reviews": null,
    "price_level": "",
    "open_hours": "",
    "extraction_timestamp": "2025-06-07T14:43:43.532Z",
    "source_name": "google",
    "source_query": "Irrigation Equipment",
    "source_country": "RO",
    "country": "Romania",
    "state": "Timiș County",
    "city": "Comuna Periam"
  },
  {
    "source_id": "ChIJL_Gzp78FRUcRYHXRsfKtUUc",
    "name": "Mai mult decat energie",
    "category": "Mai mult decat energie",
    "formatted_address": "4,2(5)",
    "phone_number": "+40762649865",
    "source_url": "https://www.google.com/maps/place/Mai+mult+decat+energie/data=!4m7!3m6!1s0x474505bfa7b3f12f:0x4751adf2b1d17560!8m2!3d46.0422255!4d20.8703163!16s%2Fg%2F11mv_4v8g4!19sChIJL_Gzp78FRUcRYHXRsfKtUUc?authuser=0&hl=tr&rclk=1",
    "website_url": "",
    "rating_text": "4,2",
    "stars": null,
    "number_of_reviews": null,
    "price_level": "",
    "open_hours": "",
    "extraction_timestamp": "2025-06-07T14:43:43.532Z",
    "source_name": "google",
    "source_query": "Irrigation Equipment",
    "source_country": "RO",
    "country": "Romania",
    "state": "Timiș County",
    "city": "Comuna Periam"
  },
  {
    "source_id": "ChIJMWnr6hJeRUcR1qATsiSFcKk",
    "name": "Irigații-S.C.Badin-sistem S.R.L.",
    "category": "Irigații-S.C.Badin-sistem S.R.L.",
    "formatted_address": "4,7(76)",
    "phone_number": "+40785111698",
    "source_url": "https://www.google.com/maps/place/Iriga%C8%9Bii-S.C.Badin-sistem+S.R.L./data=!4m7!3m6!1s0x47455e12eaeb6931:0xa9708524b213a0d6!8m2!3d45.7351861!4d21.263806!16s%2Fg%2F11c5rmlsvm!19sChIJMWnr6hJeRUcR1qATsiSFcKk?authuser=0&hl=tr&rclk=1",
    "website_url": "",
    "rating_text": "4,7",
    "stars": null,
    "number_of_reviews": null,
    "price_level": "",
    "open_hours": "",
    "extraction_timestamp": "2025-06-07T14:43:43.533Z",
    "source_name": "google",
    "source_query": "Irrigation Equipment",
    "source_country": "RO",
    "country": "Romania",
    "state": "Timiș County",
    "city": "Comuna Periam"
  },
  {
    "source_id": "ChIJX1JlMMUFRUcRDRniMfTeFrg",
    "name": "Bender",
    "category": "Bender",
    "formatted_address": "4,1(40)",
    "phone_number": "+40372776060",
    "source_url": "https://www.google.com/maps/place/Bender/data=!4m7!3m6!1s0x474505c53065525f:0xb816def431e2190d!8m2!3d46.0493816!4d20.8824196!16s%2Fg%2F11d_26z120!19sChIJX1JlMMUFRUcRDRniMfTeFrg?authuser=0&hl=tr&rclk=1",
    "website_url": "",
    "rating_text": "4,1",
    "stars": null,
    "number_of_reviews": null,
    "price_level": "",
    "open_hours": "",
    "extraction_timestamp": "2025-06-07T14:43:43.533Z",
    "source_name": "google",
    "source_query": "Irrigation Equipment",
    "source_country": "RO",
    "country": "Romania",
    "state": "Timiș County",
    "city": "Comuna Periam"
  },
  {
    "source_id": "ChIJUW6H4LIFRUcRpE3JRHSzmrQ",
    "name": "E.G.D Magazin/service motoutilaje de gradina",
    "category": "E.G.D Magazin/service motoutilaje de gradina",
    "formatted_address": "5,0(6)",
    "phone_number": "+40799738639",
    "source_url": "https://www.google.com/maps/place/E.G.D+Magazin%2Fservice+motoutilaje+de+gradina/data=!4m7!3m6!1s0x474505b2e0876e51:0xb49ab37444c94da4!8m2!3d46.0438182!4d20.8804721!16s%2Fg%2F11jl0dprh6!19sChIJUW6H4LIFRUcRpE3JRHSzmrQ?authuser=0&hl=tr&rclk=1",
    "website_url": "",
    "rating_text": "5,0",
    "stars": null,
    "number_of_reviews": null,
    "price_level": "",
    "open_hours": "",
    "extraction_timestamp": "2025-06-07T14:43:43.533Z",
    "source_name": "google",
    "source_query": "Irrigation Equipment",
    "source_country": "RO",
    "country": "Romania",
    "state": "Timiș County",
    "city": "Comuna Periam"
  },
  {
    "source_id": "ChIJaRliTs1dRUcRqRQd6R09PEw",
    "name": "SC Agrogreen SRL",
    "category": "SC Agrogreen SRL",
    "formatted_address": "",
    "phone_number": "+40744477851",
    "source_url": "https://www.google.com/maps/place/SC+Agrogreen+SRL/data=!4m7!3m6!1s0x47455dcd4e621969:0x4c3c3d1de91d14a9!8m2!3d46.0359419!4d20.8642138!16s%2Fg%2F11y570djqt!19sChIJaRliTs1dRUcRqRQd6R09PEw?authuser=0&hl=tr&rclk=1",
    "website_url": "",
    "rating_text": "",
    "stars": null,
    "number_of_reviews": null,
    "price_level": "",
    "open_hours": "",
    "extraction_timestamp": "2025-06-07T14:43:43.534Z",
    "source_name": "google",
    "source_query": "Irrigation Equipment",
    "source_country": "RO",
    "country": "Romania",
    "state": "Timiș County",
    "city": "Comuna Periam"
  },
  {
    "source_id": "ChIJzzGl8ApeRUcR3xJZHCGgt08",
    "name": "irigatii.ro",
    "category": "irigatii.ro",
    "formatted_address": "4,8(65)",
    "phone_number": "+40724011591",
    "source_url": "https://www.google.com/maps/place/irigatii.ro/data=!4m7!3m6!1s0x47455e0af0a531cf:0x4fb7a0211c5912df!8m2!3d45.7293134!4d21.2700735!16s%2Fg%2F1hc2p_4by!19sChIJzzGl8ApeRUcR3xJZHCGgt08?authuser=0&hl=tr&rclk=1",
    "website_url": "",
    "rating_text": "4,8",
    "stars": null,
    "number_of_reviews": null,
    "price_level": "",
    "open_hours": "",
    "extraction_timestamp": "2025-06-07T14:43:43.534Z",
    "source_name": "google",
    "source_query": "Irrigation Equipment",
    "source_country": "RO",
    "country": "Romania",
    "state": "Timiș County",
    "city": "Comuna Periam"
  },
  {
    "source_id": "ChIJNVF0JZyZRUcROrGIQqRikNo",
    "name": "Sc Irigarden Srl",
    "category": "Sc Irigarden Srl",
    "formatted_address": "4,7(52)",
    "phone_number": "+40744310125",
    "source_url": "https://www.google.com/maps/place/Sc+Irigarden+Srl/data=!4m7!3m6!1s0x4745999c25745135:0xda9062a44288b13a!8m2!3d46.14823!4d21.328789!16s%2Fg%2F1tp0cg5b!19sChIJNVF0JZyZRUcROrGIQqRikNo?authuser=0&hl=tr&rclk=1",
    "website_url": "",
    "rating_text": "4,7",
    "stars": null,
    "number_of_reviews": null,
    "price_level": "",
    "open_hours": "",
    "extraction_timestamp": "2025-06-07T14:43:43.534Z",
    "source_name": "google",
    "source_query": "Irrigation Equipment",
    "source_country": "RO",
    "country": "Romania",
    "state": "Timiș County",
    "city": "Comuna Periam"
  },
  {
    "source_id": "ChIJq7Y_hXEFRUcRuYH0VDn5eSg",
    "name": "Benzinărie ROM BENZIN",
    "category": "Benzinărie ROM BENZIN",
    "formatted_address": "4,3(18)",
    "phone_number": "+40256375068",
    "source_url": "https://www.google.com/maps/place/Benzin%C4%83rie+ROM+BENZIN/data=!4m7!3m6!1s0x47450571853fb6ab:0x2879f93954f481b9!8m2!3d46.0399365!4d20.8717572!16s%2Fg%2F11grc7rjtm!19sChIJq7Y_hXEFRUcRuYH0VDn5eSg?authuser=0&hl=tr&rclk=1",
    "website_url": "",
    "rating_text": "4,3",
    "stars": null,
    "number_of_reviews": null,
    "price_level": "",
    "open_hours": "",
    "extraction_timestamp": "2025-06-07T14:43:43.535Z",
    "source_name": "google",
    "source_query": "Irrigation Equipment",
    "source_country": "RO",
    "country": "Romania",
    "state": "Timiș County",
    "city": "Comuna Periam"
  },
  {
    "source_id": "ChIJe5iszo5fRUcRxo7w0Xha61A",
    "name": "BADIN SISTEM",
    "category": "BADIN SISTEM",
    "formatted_address": "5,0(5)",
    "phone_number": "+40785111698",
    "source_url": "https://www.google.com/maps/place/BADIN+SISTEM/data=!4m7!3m6!1s0x47455f8eceac987b:0x50eb5a78d1f08ec6!8m2!3d45.7262042!4d21.2819381!16s%2Fg%2F11tjzt76v7!19sChIJe5iszo5fRUcRxo7w0Xha61A?authuser=0&hl=tr&rclk=1",
    "website_url": "",
    "rating_text": "5,0",
    "stars": null,
    "number_of_reviews": null,
    "price_level": "",
    "open_hours": "",
    "extraction_timestamp": "2025-06-07T14:43:43.535Z",
    "source_name": "google",
    "source_query": "Irrigation Equipment",
    "source_country": "RO",
    "country": "Romania",
    "state": "Timiș County",
    "city": "Comuna Periam"
  },
  {
    "source_id": "ChIJl2io1-wFRUcRN4oFq8N8kMo",
    "name": "GRUP MAPAN SRL",
    "category": "GRUP MAPAN SRL",
    "formatted_address": "4,4(18)",
    "phone_number": "+40722218885",
    "source_url": "https://www.google.com/maps/place/GRUP+MAPAN+SRL/data=!4m7!3m6!1s0x474505ecd7a86897:0xca907cc3ab058a37!8m2!3d46.0379515!4d20.8653751!16s%2Fg%2F11h26b9jhr!19sChIJl2io1-wFRUcRN4oFq8N8kMo?authuser=0&hl=tr&rclk=1",
    "website_url": "",
    "rating_text": "4,4",
    "stars": null,
    "number_of_reviews": null,
    "price_level": "",
    "open_hours": "",
    "extraction_timestamp": "2025-06-07T14:43:43.535Z",
    "source_name": "google",
    "source_query": "Irrigation Equipment",
    "source_country": "RO",
    "country": "Romania",
    "state": "Timiș County",
    "city": "Comuna Periam"
  },
  {
    "source_id": "ChIJu3QMYXRdRUcRJ2-T1_nXT6U",
    "name": "Marprest",
    "category": "Marprest",
    "formatted_address": "5,0(1)",
    "phone_number": "+40721795322",
    "source_url": "https://www.google.com/maps/place/Marprest/data=!4m7!3m6!1s0x47455d74610c74bb:0xa54fd7f9d7936f27!8m2!3d45.7291043!4d21.2078843!16s%2Fg%2F11c1vmmqkp!19sChIJu3QMYXRdRUcRJ2-T1_nXT6U?authuser=0&hl=tr&rclk=1",
    "website_url": "",
    "rating_text": "5,0",
    "stars": null,
    "number_of_reviews": null,
    "price_level": "",
    "open_hours": "",
    "extraction_timestamp": "2025-06-07T14:43:43.536Z",
    "source_name": "google",
    "source_query": "Irrigation Equipment",
    "source_country": "RO",
    "country": "Romania",
    "state": "Timiș County",
    "city": "Comuna Periam"
  },
  {
    "source_id": "ChIJFU62RPgFRUcRN_ZHW1RBR7w",
    "name": "ASG ideal minimarket",
    "category": "ASG ideal minimarket",
    "formatted_address": "",
    "phone_number": "+40729485928",
    "source_url": "https://www.google.com/maps/place/ASG+ideal+minimarket/data=!4m7!3m6!1s0x474505f844b64e15:0xbc4741545b47f637!8m2!3d46.0424163!4d20.8703448!16s%2Fg%2F11txp82wgx!19sChIJFU62RPgFRUcRN_ZHW1RBR7w?authuser=0&hl=tr&rclk=1",
    "website_url": "",
    "rating_text": "",
    "stars": null,
    "number_of_reviews": null,
    "price_level": "",
    "open_hours": "",
    "extraction_timestamp": "2025-06-07T14:43:43.536Z",
    "source_name": "google",
    "source_query": "Irrigation Equipment",
    "source_country": "RO",
    "country": "Romania",
    "state": "Timiș County",
    "city": "Comuna Periam"
  },
  {
    "source_id": "ChIJe4uFleIFRUcRVp3AUtbOjCA",
    "name": "Magazin Market",
    "category": "Magazin Market",
    "formatted_address": "3,6(10)",
    "phone_number": "",
    "source_url": "https://www.google.com/maps/place/Magazin+Market/data=!4m7!3m6!1s0x474505e295858b7b:0x208cced652c09d56!8m2!3d46.0426776!4d20.8577282!16s%2Fg%2F11fd5vh67n!19sChIJe4uFleIFRUcRVp3AUtbOjCA?authuser=0&hl=tr&rclk=1",
    "website_url": "",
    "rating_text": "3,6",
    "stars": null,
    "number_of_reviews": null,
    "price_level": "",
    "open_hours": "",
    "extraction_timestamp": "2025-06-07T14:43:43.536Z",
    "source_name": "google",
    "source_query": "Irrigation Equipment",
    "source_country": "RO",
    "country": "Romania",
    "state": "Timiș County",
    "city": "Comuna Periam"
  },
  {
    "source_id": "ChIJHf9ZXt_-sUARDzm2kUTL_KA",
    "name": "MAG-irigatii.ro - Rain Bird Romania Sisteme de Irigatii",
    "category": "MAG-irigatii.ro - Rain Bird Romania Sisteme de Irigatii",
    "formatted_address": "4,8(54)",
    "phone_number": "+40748093097",
    "source_url": "https://www.google.com/maps/place/MAG-irigatii.ro+-+Rain+Bird+Romania+Sisteme+de+Irigatii/data=!4m7!3m6!1s0x40b1fedf5e59ff1d:0xa0fccb4491b6390f!8m2!3d44.3735344!4d26.178023!16s%2Fg%2F11bbw_z176!19sChIJHf9ZXt_-sUARDzm2kUTL_KA?authuser=0&hl=tr&rclk=1",
    "website_url": "",
    "rating_text": "4,8",
    "stars": null,
    "number_of_reviews": null,
    "price_level": "",
    "open_hours": "",
    "extraction_timestamp": "2025-06-07T14:43:43.536Z",
    "source_name": "google",
    "source_query": "Irrigation Equipment",
    "source_country": "RO",
    "country": "Romania",
    "state": "Timiș County",
    "city": "Comuna Periam"
  },
  {
    "source_id": "ChIJ_d9JNIoFRUcR2zZwxNlKrvs",
    "name": "NM Gabriela- Transport Persoane",
    "category": "NM Gabriela- Transport Persoane",
    "formatted_address": "5,0(21)",
    "phone_number": "+40770171282",
    "source_url": "https://www.google.com/maps/place/NM+Gabriela-+Transport+Persoane/data=!4m7!3m6!1s0x4745058a3449dffd:0xfbae4ad9c47036db!8m2!3d46.0382232!4d20.873976!16s%2Fg%2F11pv2m7435!19sChIJ_d9JNIoFRUcR2zZwxNlKrvs?authuser=0&hl=tr&rclk=1",
    "website_url": "",
    "rating_text": "5,0",
    "stars": null,
    "number_of_reviews": null,
    "price_level": "",
    "open_hours": "",
    "extraction_timestamp": "2025-06-07T14:43:43.537Z",
    "source_name": "google",
    "source_query": "Irrigation Equipment",
    "source_country": "RO",
    "country": "Romania",
    "state": "Timiș County",
    "city": "Comuna Periam"
  },
  {
    "source_id": "ChIJ6205RnAFRUcRtrcWE0qRBBQ",
    "name": "Agro Expert Periam",
    "category": "Agro Expert Periam",
    "formatted_address": "",
    "phone_number": "+40765499500",
    "source_url": "https://www.google.com/maps/place/Agro+Expert+Periam/data=!4m7!3m6!1s0x4745057046396deb:0x1404914a1316b7b6!8m2!3d46.0419753!4d20.8732544!16s%2Fg%2F11wts0lmgb!19sChIJ6205RnAFRUcRtrcWE0qRBBQ?authuser=0&hl=tr&rclk=1",
    "website_url": "",
    "rating_text": "",
    "stars": null,
    "number_of_reviews": null,
    "price_level": "",
    "open_hours": "",
    "extraction_timestamp": "2025-06-07T14:43:43.537Z",
    "source_name": "google",
    "source_query": "Irrigation Equipment",
    "source_country": "RO",
    "country": "Romania",
    "state": "Timiș County",
    "city": "Comuna Periam"
  },
  {
    "source_id": "ChIJb4WE7Tu7RUcRWkbVD1KcdOg",
    "name": "irisky.ro - Sisteme de irigatii",
    "category": "irisky.ro - Sisteme de irigatii",
    "formatted_address": "5,0(7)",
    "phone_number": "+40758715338",
    "source_url": "https://www.google.com/maps/place/irisky.ro+-+Sisteme+de+irigatii/data=!4m7!3m6!1s0x4745bb3bed84856f:0xe8749c520fd5465a!8m2!3d46.2542004!4d21.1275527!16s%2Fg%2F11shprbdbz!19sChIJb4WE7Tu7RUcRWkbVD1KcdOg?authuser=0&hl=tr&rclk=1",
    "website_url": "",
    "rating_text": "5,0",
    "stars": null,
    "number_of_reviews": null,
    "price_level": "",
    "open_hours": "",
    "extraction_timestamp": "2025-06-07T14:43:43.538Z",
    "source_name": "google",
    "source_query": "Irrigation Equipment",
    "source_country": "RO",
    "country": "Romania",
    "state": "Timiș County",
    "city": "Comuna Periam"
  },
  {
    "source_id": "ChIJ_aqUFz08W0cRk7umQHB39fo",
    "name": "Petrichor Zalivni Sistemi",
    "category": "Petrichor Zalivni Sistemi",
    "formatted_address": "4,9(8)",
    "phone_number": "+38163591817",
    "source_url": "https://www.google.com/maps/place/Petrichor+Zalivni+Sistemi/data=!4m7!3m6!1s0x475b3c3d1794aafd:0xfaf5777040a6bb93!8m2!3d44.2107785!4d20.9104991!16s%2Fg%2F11g8_0l1hc!19sChIJ_aqUFz08W0cRk7umQHB39fo?authuser=0&hl=tr&rclk=1",
    "website_url": "",
    "rating_text": "4,9",
    "stars": null,
    "number_of_reviews": null,
    "price_level": "",
    "open_hours": "",
    "extraction_timestamp": "2025-06-07T14:43:43.538Z",
    "source_name": "google",
    "source_query": "Irrigation Equipment",
    "source_country": "RO",
    "country": "Romania",
    "state": "Timiș County",
    "city": "Comuna Periam"
  },
  {
    "source_id": "ChIJm5eJ5L9nRUcRTfzYpSY93UI",
    "name": "Liliane Trading International S.R.L. - Producator utilaje de reciclare, prese, dezizolatoare cabluri",
    "category": "Liliane Trading International S.R.L. - Producator utilaje de reciclare, prese, dezizolatoare cabluri",
    "formatted_address": "Liliane Trading International S.R.L. - Producator utilaje de reciclare, prese, dezizolatoare cabluri",
    "phone_number": "+40721270891",
    "source_url": "https://www.google.com/maps/place/Liliane+Trading+International+S.R.L.+-+Producator+utilaje+de+reciclare,+prese,+dezizolatoare+cabluri/data=!4m7!3m6!1s0x474567bfe489979b:0x42dd3d26a5d8fc4d!8m2!3d45.7912674!4d21.2326896!16s%2Fg%2F11f5q0fxkj!19sChIJm5eJ5L9nRUcRTfzYpSY93UI?authuser=0&hl=tr&rclk=1",
    "website_url": "",
    "rating_text": "",
    "stars": null,
    "number_of_reviews": null,
    "price_level": "",
    "open_hours": "",
    "extraction_timestamp": "2025-06-07T14:43:43.538Z",
    "source_name": "google",
    "source_query": "Irrigation Equipment",
    "source_country": "RO",
    "country": "Romania",
    "state": "Timiș County",
    "city": "Comuna Periam"
  },
  {
    "source_id": "ChIJl64hCy08W0cR_4DdaFy6ruo",
    "name": "BSB Agro doo",
    "category": "BSB Agro doo",
    "formatted_address": "4,0(4)",
    "phone_number": "+381653322897",
    "source_url": "https://www.google.com/maps/place/BSB+Agro+doo/data=!4m7!3m6!1s0x475b3c2d0b21ae97:0xeaaeba5c68dd80ff!8m2!3d45.3904637!4d19.8799822!16s%2Fg%2F11c30p6jk4!19sChIJl64hCy08W0cR_4DdaFy6ruo?authuser=0&hl=tr&rclk=1",
    "website_url": "",
    "rating_text": "4,0",
    "stars": null,
    "number_of_reviews": null,
    "price_level": "",
    "open_hours": "",
    "extraction_timestamp": "2025-06-07T14:43:43.539Z",
    "source_name": "google",
    "source_query": "Irrigation Equipment",
    "source_country": "RO",
    "country": "Romania",
    "state": "Timiș County",
    "city": "Comuna Periam"
  },
  {
    "source_id": "ChIJ-UCNtrJYREcRzGxXbeQITqA",
    "name": "Tó és Öntözés Kft.",
    "category": "Tó és Öntözés Kft.",
    "formatted_address": "4,4(81)",
    "phone_number": "+3662211497",
    "source_url": "https://www.google.com/maps/place/T%C3%B3+%C3%A9s+%C3%96nt%C3%B6z%C3%A9s+Kft./data=!4m7!3m6!1s0x474458b2b68d40f9:0xa04e08e46d576ccc!8m2!3d46.2309434!4d20.477726!16s%2Fg%2F1tfpngwz!19sChIJ-UCNtrJYREcRzGxXbeQITqA?authuser=0&hl=tr&rclk=1",
    "website_url": "",
    "rating_text": "4,4",
    "stars": null,
    "number_of_reviews": null,
    "price_level": "",
    "open_hours": "",
    "extraction_timestamp": "2025-06-07T14:43:43.539Z",
    "source_name": "google",
    "source_query": "Irrigation Equipment",
    "source_country": "RO",
    "country": "Romania",
    "state": "Timiș County",
    "city": "Comuna Periam"
  },
  {
    "source_id": "ChIJlQLiYwBHRUcRvpMe14mSt7s",
    "name": "Priza de apă Aurélháza/Răuți (Bega, mal drept)",
    "category": "Priza de apă Aurélháza/Răuți (Bega, mal drept)",
    "formatted_address": "Priza de apă Aurélháza/Răuți (Bega, mal drept)",
    "phone_number": "",
    "source_url": "https://www.google.com/maps/place/Priza+de+ap%C4%83+Aur%C3%A9lh%C3%A1za%2FR%C4%83u%C8%9Bi+%28Bega,+mal+drept%29/data=!4m7!3m6!1s0x4745470063e20295:0xbbb79289d71e93be!8m2!3d45.6594252!4d20.9280531!16s%2Fg%2F11y50fyqnc!19sChIJlQLiYwBHRUcRvpMe14mSt7s?authuser=0&hl=tr&rclk=1",
    "website_url": "",
    "rating_text": "5,0",
    "stars": null,
    "number_of_reviews": null,
    "price_level": "",
    "open_hours": "",
    "extraction_timestamp": "2025-06-07T14:43:43.539Z",
    "source_name": "google",
    "source_query": "Irrigation Equipment",
    "source_country": "RO",
    "country": "Romania",
    "state": "Timiș County",
    "city": "Comuna Periam"
  },
  {
    "source_id": "ChIJhxenMwBHRUcRsFkQG6V4s6c",
    "name": "Stația de pompare Proletarul (mal drept)",
    "category": "Stația de pompare Proletarul (mal drept)",
    "formatted_address": "5,0(1)",
    "phone_number": "",
    "source_url": "https://www.google.com/maps/place/Sta%C8%9Bia+de+pompare+Proletarul+%28mal+drept%29/data=!4m7!3m6!1s0x4745470033a71787:0xa7b378a51b1059b0!8m2!3d45.6702049!4d20.9801263!16s%2Fg%2F11vx5grzy_!19sChIJhxenMwBHRUcRsFkQG6V4s6c?authuser=0&hl=tr&rclk=1",
    "website_url": "",
    "rating_text": "5,0",
    "stars": null,
    "number_of_reviews": null,
    "price_level": "",
    "open_hours": "",
    "extraction_timestamp": "2025-06-07T14:43:43.540Z",
    "source_name": "google",
    "source_query": "Irrigation Equipment",
    "source_country": "RO",
    "country": "Romania",
    "state": "Timiș County",
    "city": "Comuna Periam"
  }
]
