[
  {
    "source_id": "ChIJm2k4OBhnRUcRorlDejzLFj8",
    "name": "INTTECH INDUSTRY - Timis",
    "category": "INTTECH INDUSTRY - Timis",
    "formatted_address": "5,0(30)",
    "phone_number": "+40744323626",
    "source_url": "https://www.google.com/maps/place/INTTECH+INDUSTRY+-+Timis/data=!4m7!3m6!1s0x474567183838699b:0x3f16cb3c7a43b9a2!8m2!3d45.8007315!4d21.249204!16s%2Fg%2F11j3g9f8jq!19sChIJm2k4OBhnRUcRorlDejzLFj8?authuser=0&hl=tr&rclk=1",
    "website_url": "http://www.irrishop.ro/",
    "rating_text": "5,0",
    "stars": null,
    "number_of_reviews": null,
    "price_level": "",
    "open_hours": "",
    "extraction_timestamp": "2025-06-07T14:39:34.465Z",
    "source_name": "google",
    "source_query": "Irrigation Equipment",
    "source_country": "RO",
    "country": "Romania",
    "state": "Timiș County",
    "city": "Comuna Ştiuca"
  },
  {
    "source_id": "ChIJD7OM9o1dRUcRRqlJ_yffJcE",
    "name": "Gardensis S.R.L.",
    "category": "Gardensis S.R.L.",
    "formatted_address": "4,6(16)",
    "phone_number": "+40724011591",
    "source_url": "https://www.google.com/maps/place/Gardensis+S.R.L./data=!4m7!3m6!1s0x47455d8df68cb30f:0xc125df27ff49a946!8m2!3d45.7292754!4d21.2698954!16s%2Fg%2F1hc7xr42_!19sChIJD7OM9o1dRUcRRqlJ_yffJcE?authuser=0&hl=tr&rclk=1",
    "website_url": "http://www.irigatii.ro/",
    "rating_text": "4,6",
    "stars": null,
    "number_of_reviews": null,
    "price_level": "",
    "open_hours": "",
    "extraction_timestamp": "2025-06-07T14:39:34.466Z",
    "source_name": "google",
    "source_query": "Irrigation Equipment",
    "source_country": "RO",
    "country": "Romania",
    "state": "Timiș County",
    "city": "Comuna Ştiuca"
  },
  {
    "source_id": "ChIJu9QYiMJdRUcROlyKL-xy3eg",
    "name": "Fluidiqa SRL",
    "category": "Fluidiqa SRL",
    "formatted_address": "5,0(1)",
    "phone_number": "+40756100954",
    "source_url": "https://www.google.com/maps/place/Fluidiqa+SRL/data=!4m7!3m6!1s0x47455dc28818d4bb:0xe8dd72ec2f8a5c3a!8m2!3d45.7038491!4d21.1825258!16s%2Fg%2F11c61qxjzj!19sChIJu9QYiMJdRUcROlyKL-xy3eg?authuser=0&hl=tr&rclk=1",
    "website_url": "http://www.fluidiqa.ro/",
    "rating_text": "5,0",
    "stars": null,
    "number_of_reviews": null,
    "price_level": "",
    "open_hours": "",
    "extraction_timestamp": "2025-06-07T14:39:34.466Z",
    "source_name": "google",
    "source_query": "Irrigation Equipment",
    "source_country": "RO",
    "country": "Romania",
    "state": "Timiș County",
    "city": "Comuna Ştiuca"
  },
  {
    "source_id": "ChIJMWnr6hJeRUcR1qATsiSFcKk",
    "name": "Irigații-S.C.Badin-sistem S.R.L.",
    "category": "Irigații-S.C.Badin-sistem S.R.L.",
    "formatted_address": "4,7(76)",
    "phone_number": "+40785111698",
    "source_url": "https://www.google.com/maps/place/Iriga%C8%9Bii-S.C.Badin-sistem+S.R.L./data=!4m7!3m6!1s0x47455e12eaeb6931:0xa9708524b213a0d6!8m2!3d45.7351861!4d21.263806!16s%2Fg%2F11c5rmlsvm!19sChIJMWnr6hJeRUcR1qATsiSFcKk?authuser=0&hl=tr&rclk=1",
    "website_url": "http://www.badinsistem.ro/",
    "rating_text": "4,7",
    "stars": null,
    "number_of_reviews": null,
    "price_level": "",
    "open_hours": "",
    "extraction_timestamp": "2025-06-07T14:39:34.467Z",
    "source_name": "google",
    "source_query": "Irrigation Equipment",
    "source_country": "RO",
    "country": "Romania",
    "state": "Timiș County",
    "city": "Comuna Ştiuca"
  },
  {
    "source_id": "ChIJzzGl8ApeRUcR3xJZHCGgt08",
    "name": "irigatii.ro",
    "category": "irigatii.ro",
    "formatted_address": "4,8(65)",
    "phone_number": "+40724011591",
    "source_url": "https://www.google.com/maps/place/irigatii.ro/data=!4m7!3m6!1s0x47455e0af0a531cf:0x4fb7a0211c5912df!8m2!3d45.7293134!4d21.2700735!16s%2Fg%2F1hc2p_4by!19sChIJzzGl8ApeRUcR3xJZHCGgt08?authuser=0&hl=tr&rclk=1",
    "website_url": "http://www.irigatii.ro/",
    "rating_text": "4,8",
    "stars": null,
    "number_of_reviews": null,
    "price_level": "",
    "open_hours": "",
    "extraction_timestamp": "2025-06-07T14:39:34.467Z",
    "source_name": "google",
    "source_query": "Irrigation Equipment",
    "source_country": "RO",
    "country": "Romania",
    "state": "Timiș County",
    "city": "Comuna Ştiuca"
  },
  {
    "source_id": "ChIJNVF0JZyZRUcROrGIQqRikNo",
    "name": "Sc Irigarden Srl",
    "category": "Sc Irigarden Srl",
    "formatted_address": "4,7(52)",
    "phone_number": "+40744310125",
    "source_url": "https://www.google.com/maps/place/Sc+Irigarden+Srl/data=!4m7!3m6!1s0x4745999c25745135:0xda9062a44288b13a!8m2!3d46.14823!4d21.328789!16s%2Fg%2F1tp0cg5b!19sChIJNVF0JZyZRUcROrGIQqRikNo?authuser=0&hl=tr&rclk=1",
    "website_url": "https://www.irigarden.ro/",
    "rating_text": "4,7",
    "stars": null,
    "number_of_reviews": null,
    "price_level": "",
    "open_hours": "",
    "extraction_timestamp": "2025-06-07T14:39:34.468Z",
    "source_name": "google",
    "source_query": "Irrigation Equipment",
    "source_country": "RO",
    "country": "Romania",
    "state": "Timiș County",
    "city": "Comuna Ştiuca"
  },
  {
    "source_id": "ChIJcUVxnDaZRUcRUbUn3okKfP4",
    "name": "SC Tehnica Irigatii-Lacuri Decorative SRL",
    "category": "SC Tehnica Irigatii-Lacuri Decorative SRL",
    "formatted_address": "4,9(32)",
    "phone_number": "+40731208755",
    "source_url": "https://www.google.com/maps/place/SC+Tehnica+Irigatii-Lacuri+Decorative+SRL/data=!4m7!3m6!1s0x474599369c714571:0xfe7c0a89de27b551!8m2!3d46.1409626!4d21.3164797!16s%2Fg%2F11c6vbxz0v!19sChIJcUVxnDaZRUcRUbUn3okKfP4?authuser=0&hl=tr&rclk=1",
    "website_url": "https://www.tehnicairigatii.ro/",
    "rating_text": "4,9",
    "stars": null,
    "number_of_reviews": null,
    "price_level": "",
    "open_hours": "",
    "extraction_timestamp": "2025-06-07T14:39:34.468Z",
    "source_name": "google",
    "source_query": "Irrigation Equipment",
    "source_country": "RO",
    "country": "Romania",
    "state": "Timiș County",
    "city": "Comuna Ştiuca"
  },
  {
    "source_id": "ChIJz4jwNwCTT0cRamU1l1irZME",
    "name": "Stația de Pompare Ficătar (Timișana, mal stâng)",
    "category": "Stația de Pompare Ficătar (Timișana, mal stâng)",
    "formatted_address": "Stația de Pompare Ficătar (Timișana, mal stâng)",
    "phone_number": "",
    "source_url": "https://www.google.com/maps/place/Sta%C8%9Bia+de+Pompare+Fic%C4%83tar+%28Timi%C8%99ana,+mal+st%C3%A2ng%29/data=!4m7!3m6!1s0x474f930037f088cf:0xc164ab589735656a!8m2!3d45.700578!4d21.698171!16s%2Fg%2F11wg5xf_l4!19sChIJz4jwNwCTT0cRamU1l1irZME?authuser=0&hl=tr&rclk=1",
    "website_url": "",
    "rating_text": "",
    "stars": null,
    "number_of_reviews": null,
    "price_level": "",
    "open_hours": "",
    "extraction_timestamp": "2025-06-07T14:39:34.469Z",
    "source_name": "google",
    "source_query": "Irrigation Equipment",
    "source_country": "RO",
    "country": "Romania",
    "state": "Timiș County",
    "city": "Comuna Ştiuca"
  },
  {
    "source_id": "ChIJbwbdSwCVT0cRFc1jiN7nnu0",
    "name": "Stația de Pompare Sinersig (Timișana, mal stâng)",
    "category": "Stația de Pompare Sinersig (Timișana, mal stâng)",
    "formatted_address": "Stația de Pompare Sinersig (Timișana, mal stâng)",
    "phone_number": "",
    "source_url": "https://www.google.com/maps/place/Sta%C8%9Bia+de+Pompare+Sinersig+%28Timi%C8%99ana,+mal+st%C3%A2ng%29/data=!4m7!3m6!1s0x474f95004bdd066f:0xed9ee7de8863cd15!8m2!3d45.6993479!4d21.7233815!16s%2Fg%2F11lv5zt1fv!19sChIJbwbdSwCVT0cRFc1jiN7nnu0?authuser=0&hl=tr&rclk=1",
    "website_url": "",
    "rating_text": "",
    "stars": null,
    "number_of_reviews": null,
    "price_level": "",
    "open_hours": "",
    "extraction_timestamp": "2025-06-07T14:39:34.469Z",
    "source_name": "google",
    "source_query": "Irrigation Equipment",
    "source_country": "RO",
    "country": "Romania",
    "state": "Timiș County",
    "city": "Comuna Ştiuca"
  },
  {
    "source_id": "ChIJ2yyu2u-ZRUcRAentcQp81yg",
    "name": "Fish farm accesorii iaz, pesti, sisteme de irigatii",
    "category": "Fish farm accesorii iaz, pesti, sisteme de irigatii",
    "formatted_address": "Fish farm accesorii iaz, pesti, sisteme de irigatii",
    "phone_number": "+40756060729",
    "source_url": "https://www.google.com/maps/place/Fish+farm+accesorii+iaz,+pesti,+sisteme+de+irigatii/data=!4m7!3m6!1s0x474599efdaae2cdb:0x28d77c0a71ede901!8m2!3d46.1692156!4d21.2834742!16s%2Fg%2F11gr2fbfdv!19sChIJ2yyu2u-ZRUcRAentcQp81yg?authuser=0&hl=tr&rclk=1",
    "website_url": "http://www.fish-farm.ro/",
    "rating_text": "2,9",
    "stars": null,
    "number_of_reviews": null,
    "price_level": "",
    "open_hours": "",
    "extraction_timestamp": "2025-06-07T14:39:34.469Z",
    "source_name": "google",
    "source_query": "Irrigation Equipment",
    "source_country": "RO",
    "country": "Romania",
    "state": "Timiș County",
    "city": "Comuna Ştiuca"
  },
  {
    "source_id": "ChIJu3QMYXRdRUcRJ2-T1_nXT6U",
    "name": "Marprest",
    "category": "Marprest",
    "formatted_address": "5,0(1)",
    "phone_number": "+40721795322",
    "source_url": "https://www.google.com/maps/place/Marprest/data=!4m7!3m6!1s0x47455d74610c74bb:0xa54fd7f9d7936f27!8m2!3d45.7291043!4d21.2078843!16s%2Fg%2F11c1vmmqkp!19sChIJu3QMYXRdRUcRJ2-T1_nXT6U?authuser=0&hl=tr&rclk=1",
    "website_url": "http://www.marprest.ro/",
    "rating_text": "5,0",
    "stars": null,
    "number_of_reviews": null,
    "price_level": "",
    "open_hours": "",
    "extraction_timestamp": "2025-06-07T14:39:34.470Z",
    "source_name": "google",
    "source_query": "Irrigation Equipment",
    "source_country": "RO",
    "country": "Romania",
    "state": "Timiș County",
    "city": "Comuna Ştiuca"
  },
  {
    "source_id": "ChIJIfnfLTNnRUcRSrDX85TqUB4",
    "name": "Delta Exclusiv s.r.l.",
    "category": "Delta Exclusiv s.r.l.",
    "formatted_address": "5,0(1)",
    "phone_number": "+40744797018",
    "source_url": "https://www.google.com/maps/place/Delta+Exclusiv+s.r.l./data=!4m7!3m6!1s0x474567332ddff921:0x1e50ea94f3d7b04a!8m2!3d45.756904!4d21.239286!16s%2Fg%2F11fkkzwcn_!19sChIJIfnfLTNnRUcRSrDX85TqUB4?authuser=0&hl=tr&rclk=1",
    "website_url": "https://www.deltaexclusiv.ro/",
    "rating_text": "5,0",
    "stars": null,
    "number_of_reviews": null,
    "price_level": "",
    "open_hours": "",
    "extraction_timestamp": "2025-06-07T14:39:34.470Z",
    "source_name": "google",
    "source_query": "Irrigation Equipment",
    "source_country": "RO",
    "country": "Romania",
    "state": "Timiș County",
    "city": "Comuna Ştiuca"
  },
  {
    "source_id": "ChIJe5iszo5fRUcRxo7w0Xha61A",
    "name": "BADIN SISTEM",
    "category": "BADIN SISTEM",
    "formatted_address": "5,0(5)",
    "phone_number": "+40785111698",
    "source_url": "https://www.google.com/maps/place/BADIN+SISTEM/data=!4m7!3m6!1s0x47455f8eceac987b:0x50eb5a78d1f08ec6!8m2!3d45.7262042!4d21.2819381!16s%2Fg%2F11tjzt76v7!19sChIJe5iszo5fRUcRxo7w0Xha61A?authuser=0&hl=tr&rclk=1",
    "website_url": "https://www.badinsistem.ro/",
    "rating_text": "5,0",
    "stars": null,
    "number_of_reviews": null,
    "price_level": "",
    "open_hours": "",
    "extraction_timestamp": "2025-06-07T14:39:34.471Z",
    "source_name": "google",
    "source_query": "Irrigation Equipment",
    "source_country": "RO",
    "country": "Romania",
    "state": "Timiș County",
    "city": "Comuna Ştiuca"
  },
  {
    "source_id": "ChIJv_eizuFdRUcRg4yb6UmX30I",
    "name": "MagazinGradina",
    "category": "MagazinGradina",
    "formatted_address": "",
    "phone_number": "+40724011591",
    "source_url": "https://www.google.com/maps/place/MagazinGradina/data=!4m7!3m6!1s0x47455de1cea2f7bf:0x42df9749e99b8c83!8m2!3d45.7293427!4d21.2700876!16s%2Fg%2F11fqptlzbn!19sChIJv_eizuFdRUcRg4yb6UmX30I?authuser=0&hl=tr&rclk=1",
    "website_url": "http://magazingradina.ro/",
    "rating_text": "",
    "stars": null,
    "number_of_reviews": null,
    "price_level": "",
    "open_hours": "",
    "extraction_timestamp": "2025-06-07T14:39:34.471Z",
    "source_name": "google",
    "source_query": "Irrigation Equipment",
    "source_country": "RO",
    "country": "Romania",
    "state": "Timiș County",
    "city": "Comuna Ştiuca"
  },
  {
    "source_id": "ChIJu_3uZ3ddRUcRIRUlcPqNBE0",
    "name": "Gardensis",
    "category": "Gardensis",
    "formatted_address": "",
    "phone_number": "+40724831901",
    "source_url": "https://www.google.com/maps/place/Gardensis/data=!4m7!3m6!1s0x47455d7767eefdbb:0x4d048dfa70251521!8m2!3d45.7437075!4d21.2137216!16s%2Fg%2F11hyt1pk45!19sChIJu_3uZ3ddRUcRIRUlcPqNBE0?authuser=0&hl=tr&rclk=1",
    "website_url": "",
    "rating_text": "",
    "stars": null,
    "number_of_reviews": null,
    "price_level": "",
    "open_hours": "",
    "extraction_timestamp": "2025-06-07T14:39:34.471Z",
    "source_name": "google",
    "source_query": "Irrigation Equipment",
    "source_country": "RO",
    "country": "Romania",
    "state": "Timiș County",
    "city": "Comuna Ştiuca"
  },
  {
    "source_id": "ChIJMccEz0dEGSIRw9cKYGtMCCs",
    "name": "Hidronic SRL - PL Timisoara",
    "category": "Hidronic SRL - PL Timisoara",
    "formatted_address": "Su Pompası Tedarikçisi · Hala D14, Calea Șagului 235Kapalı ⋅ Açılış zamanı: Pzt 09:00 · +40 753 100 408",
    "phone_number": "+40753100408",
    "source_url": "https://www.google.com/maps/place/Hidronic+SRL+-+PL+Timisoara/data=!4m7!3m6!1s0x22194447cf04c731:0x2b084c6b600ad7c3!8m2!3d45.7031858!4d21.1849949!16s%2Fg%2F11y79y5w3v!19sChIJMccEz0dEGSIRw9cKYGtMCCs?authuser=0&hl=tr&rclk=1",
    "website_url": "https://www.hidronic.ro/",
    "rating_text": "",
    "stars": null,
    "number_of_reviews": null,
    "price_level": "",
    "open_hours": "",
    "extraction_timestamp": "2025-06-07T14:39:34.472Z",
    "source_name": "google",
    "source_query": "Irrigation Equipment",
    "source_country": "RO",
    "country": "Romania",
    "state": "Timiș County",
    "city": "Comuna Ştiuca"
  },
  {
    "source_id": "ChIJ844cjyxnRUcRJvdFiewIAZM",
    "name": "Ricardo-M.I.- Impex LLC",
    "category": "Ricardo-M.I.- Impex LLC",
    "formatted_address": "5,0(5)",
    "phone_number": "+40256211317",
    "source_url": "https://www.google.com/maps/place/Ricardo-M.I.-+Impex+LLC/data=!4m7!3m6!1s0x4745672c8f1c8ef3:0x930108ec8945f726!8m2!3d45.7749086!4d21.2972968!16s%2Fg%2F1261y_qhw!19sChIJ844cjyxnRUcRJvdFiewIAZM?authuser=0&hl=tr&rclk=1",
    "website_url": "http://www.ricardo.ro/",
    "rating_text": "5,0",
    "stars": null,
    "number_of_reviews": null,
    "price_level": "",
    "open_hours": "",
    "extraction_timestamp": "2025-06-07T14:39:34.472Z",
    "source_name": "google",
    "source_query": "Irrigation Equipment",
    "source_country": "RO",
    "country": "Romania",
    "state": "Timiș County",
    "city": "Comuna Ştiuca"
  },
  {
    "source_id": "ChIJmb1fa8BdRUcRIy-OUWNhqOk",
    "name": "Fire Service (fire extinguishers, services and equipment, PSI)",
    "category": "Fire Service (fire extinguishers, services and equipment, PSI)",
    "formatted_address": "Fire Service (fire extinguishers, services and equipment, PSI)",
    "phone_number": "+40729949908",
    "source_url": "https://www.google.com/maps/place/Fire+Service+%28fire+extinguishers,+services+and+equipment,+PSI%29/data=!4m7!3m6!1s0x47455dc06b5fbd99:0xe9a86163518e2f23!8m2!3d45.7310088!4d21.2414251!16s%2Fg%2F11dxjtg9g9!19sChIJmb1fa8BdRUcRIy-OUWNhqOk?authuser=0&hl=tr&rclk=1",
    "website_url": "http://www.stingatoaretimisoara.ro/",
    "rating_text": "3,9",
    "stars": null,
    "number_of_reviews": null,
    "price_level": "",
    "open_hours": "",
    "extraction_timestamp": "2025-06-07T14:39:34.472Z",
    "source_name": "google",
    "source_query": "Irrigation Equipment",
    "source_country": "RO",
    "country": "Romania",
    "state": "Timiș County",
    "city": "Comuna Ştiuca"
  },
  {
    "source_id": "ChIJtXdq2v-YRUcRL1sMzE1RGXw",
    "name": "Sisteme Hidraulice S.R.L.",
    "category": "Sisteme Hidraulice S.R.L.",
    "formatted_address": "4,8(20)",
    "phone_number": "+40723602343",
    "source_url": "https://www.google.com/maps/place/Sisteme+Hidraulice+S.R.L./data=!4m7!3m6!1s0x474598ffda6a77b5:0x7c19514dcc0c5b2f!8m2!3d46.114693!4d21.132389!16s%2Fg%2F1hc1y2b7x!19sChIJtXdq2v-YRUcRL1sMzE1RGXw?authuser=0&hl=tr&rclk=1",
    "website_url": "https://sistemehidraulice.ro/",
    "rating_text": "4,8",
    "stars": null,
    "number_of_reviews": null,
    "price_level": "",
    "open_hours": "",
    "extraction_timestamp": "2025-06-07T14:39:34.473Z",
    "source_name": "google",
    "source_query": "Irrigation Equipment",
    "source_country": "RO",
    "country": "Romania",
    "state": "Timiș County",
    "city": "Comuna Ştiuca"
  },
  {
    "source_id": "ChIJfRMY9QldRUcRBP62OdyuMe0",
    "name": "Instalplus",
    "category": "Instalplus",
    "formatted_address": "4,7(29)",
    "phone_number": "+40728969778",
    "source_url": "https://www.google.com/maps/place/Instalplus/data=!4m7!3m6!1s0x47455d09f518137d:0xed31aedc39b6fe04!8m2!3d45.7336556!4d21.2094947!16s%2Fg%2F11c1vq02h0!19sChIJfRMY9QldRUcRBP62OdyuMe0?authuser=0&hl=tr&rclk=1",
    "website_url": "https://www.instalplus.ro/",
    "rating_text": "4,7",
    "stars": null,
    "number_of_reviews": null,
    "price_level": "",
    "open_hours": "",
    "extraction_timestamp": "2025-06-07T14:39:34.473Z",
    "source_name": "google",
    "source_query": "Irrigation Equipment",
    "source_country": "RO",
    "country": "Romania",
    "state": "Timiș County",
    "city": "Comuna Ştiuca"
  },
  {
    "source_id": "ChIJ89rcY25dRUcRZT8mqS9M5qc",
    "name": "Banat Garden Timisoara",
    "category": "Banat Garden Timisoara",
    "formatted_address": "4,9(34)",
    "phone_number": "+40724402076",
    "source_url": "https://www.google.com/maps/place/Banat+Garden+Timisoara/data=!4m7!3m6!1s0x47455d6e63dcdaf3:0xa7e64c2fa9263f65!8m2!3d45.7571782!4d21.2301306!16s%2Fg%2F11gl0h6gg8!19sChIJ89rcY25dRUcRZT8mqS9M5qc?authuser=0&hl=tr&rclk=1",
    "website_url": "http://banatgarden.ro/",
    "rating_text": "4,9",
    "stars": null,
    "number_of_reviews": null,
    "price_level": "",
    "open_hours": "",
    "extraction_timestamp": "2025-06-07T14:39:34.474Z",
    "source_name": "google",
    "source_query": "Irrigation Equipment",
    "source_country": "RO",
    "country": "Romania",
    "state": "Timiș County",
    "city": "Comuna Ştiuca"
  },
  {
    "source_id": "ChIJlQLiYwBHRUcRvpMe14mSt7s",
    "name": "Priza de apă Aurélháza/Răuți (Bega, mal drept)",
    "category": "Priza de apă Aurélháza/Răuți (Bega, mal drept)",
    "formatted_address": "Priza de apă Aurélháza/Răuți (Bega, mal drept)",
    "phone_number": "",
    "source_url": "https://www.google.com/maps/place/Priza+de+ap%C4%83+Aur%C3%A9lh%C3%A1za%2FR%C4%83u%C8%9Bi+%28Bega,+mal+drept%29/data=!4m7!3m6!1s0x4745470063e20295:0xbbb79289d71e93be!8m2!3d45.6594252!4d20.9280531!16s%2Fg%2F11y50fyqnc!19sChIJlQLiYwBHRUcRvpMe14mSt7s?authuser=0&hl=tr&rclk=1",
    "website_url": "",
    "rating_text": "5,0",
    "stars": null,
    "number_of_reviews": null,
    "price_level": "",
    "open_hours": "",
    "extraction_timestamp": "2025-06-07T14:39:34.474Z",
    "source_name": "google",
    "source_query": "Irrigation Equipment",
    "source_country": "RO",
    "country": "Romania",
    "state": "Timiș County",
    "city": "Comuna Ştiuca"
  },
  {
    "source_id": "ChIJH7DdtKtdRUcRLJXQhLkF7o8",
    "name": "System Install",
    "category": "System Install",
    "formatted_address": "5,0(317)",
    "phone_number": "+40735657575",
    "source_url": "https://www.google.com/maps/place/System+Install/data=!4m7!3m6!1s0x47455dabb4ddb01f:0x8fee05b984d0952c!8m2!3d45.7077619!4d21.2100434!16s%2Fg%2F11hy_mn98z!19sChIJH7DdtKtdRUcRLJXQhLkF7o8?authuser=0&hl=tr&rclk=1",
    "website_url": "https://instalatii-timisoara.ro/",
    "rating_text": "5,0",
    "stars": null,
    "number_of_reviews": null,
    "price_level": "",
    "open_hours": "",
    "extraction_timestamp": "2025-06-07T14:39:34.474Z",
    "source_name": "google",
    "source_query": "Irrigation Equipment",
    "source_country": "RO",
    "country": "Romania",
    "state": "Timiș County",
    "city": "Comuna Ştiuca"
  },
  {
    "source_id": "ChIJH8WgtL9nRUcRtzTLRiyI53o",
    "name": "Instal Impex",
    "category": "Instal Impex",
    "formatted_address": "4,9(12)",
    "phone_number": "+40356423372",
    "source_url": "https://www.google.com/maps/place/Instal+Impex/data=!4m7!3m6!1s0x474567bfb4a0c51f:0x7ae7882c46cb34b7!8m2!3d45.7360839!4d21.2562389!16s%2Fg%2F11b77wly4x!19sChIJH8WgtL9nRUcRtzTLRiyI53o?authuser=0&hl=tr&rclk=1",
    "website_url": "http://www.instalimpex.ro/",
    "rating_text": "4,9",
    "stars": null,
    "number_of_reviews": null,
    "price_level": "",
    "open_hours": "",
    "extraction_timestamp": "2025-06-07T14:39:34.474Z",
    "source_name": "google",
    "source_query": "Irrigation Equipment",
    "source_country": "RO",
    "country": "Romania",
    "state": "Timiș County",
    "city": "Comuna Ştiuca"
  },
  {
    "source_id": "ChIJWwlqo3dnRUcRE1PZAJWOvC4",
    "name": "Uniprest Instal",
    "category": "Uniprest Instal",
    "formatted_address": "4,3(30)",
    "phone_number": "+40771294435",
    "source_url": "https://www.google.com/maps/place/Uniprest+Instal/data=!4m7!3m6!1s0x47456777a36a095b:0x2ebc8e9500d95313!8m2!3d45.7776432!4d21.3081463!16s%2Fg%2F11c5h1r7db!19sChIJWwlqo3dnRUcRE1PZAJWOvC4?authuser=0&hl=tr&rclk=1",
    "website_url": "http://www.uniprest.ro/",
    "rating_text": "4,3",
    "stars": null,
    "number_of_reviews": null,
    "price_level": "",
    "open_hours": "",
    "extraction_timestamp": "2025-06-07T14:39:34.475Z",
    "source_name": "google",
    "source_query": "Irrigation Equipment",
    "source_country": "RO",
    "country": "Romania",
    "state": "Timiș County",
    "city": "Comuna Ştiuca"
  },
  {
    "source_id": "ChIJm7LzDSVdRUcR34Uc2p2s4RM",
    "name": "Constructii Piscine Timisoara - BDA GROUP",
    "category": "Constructii Piscine Timisoara - BDA GROUP",
    "formatted_address": "5,0(11)",
    "phone_number": "+40759024236",
    "source_url": "https://www.google.com/maps/place/Constructii+Piscine+Timisoara+-+BDA+GROUP/data=!4m7!3m6!1s0x47455d250df3b29b:0x13e1ac9dda1c85df!8m2!3d45.7431083!4d21.2132351!16s%2Fg%2F11y4xjv8l5!19sChIJm7LzDSVdRUcR34Uc2p2s4RM?authuser=0&hl=tr&rclk=1",
    "website_url": "https://bdagroup.ro/",
    "rating_text": "5,0",
    "stars": null,
    "number_of_reviews": null,
    "price_level": "",
    "open_hours": "",
    "extraction_timestamp": "2025-06-07T14:39:34.475Z",
    "source_name": "google",
    "source_query": "Irrigation Equipment",
    "source_country": "RO",
    "country": "Romania",
    "state": "Timiș County",
    "city": "Comuna Ştiuca"
  },
  {
    "source_id": "ChIJdZGW41dnRUcR5r-_ISinHhI",
    "name": "doWell - INSTALATII -",
    "category": "doWell - INSTALATII -",
    "formatted_address": "4,9(74)",
    "phone_number": "+40731134222",
    "source_url": "https://www.google.com/maps/place/doWell+-+INSTALATII+-/data=!4m7!3m6!1s0x47456757e3969175:0x121ea72821bfbfe6!8m2!3d45.7826293!4d21.2283964!16s%2Fg%2F11rtg291v0!19sChIJdZGW41dnRUcR5r-_ISinHhI?authuser=0&hl=tr&rclk=1",
    "website_url": "http://www.dowell.ro/",
    "rating_text": "4,9",
    "stars": null,
    "number_of_reviews": null,
    "price_level": "",
    "open_hours": "",
    "extraction_timestamp": "2025-06-07T14:39:34.476Z",
    "source_name": "google",
    "source_query": "Irrigation Equipment",
    "source_country": "RO",
    "country": "Romania",
    "state": "Timiș County",
    "city": "Comuna Ştiuca"
  },
  {
    "source_id": "ChIJVw2ETl1dRUcRruHEnh6DBo4",
    "name": "Instalator Timisoara Non Stop - Instalatii Sanitare - Montaj Centrala Termica - Apa - Desfundare Canalizare",
    "category": "Instalator Timisoara Non Stop - Instalatii Sanitare - Montaj Centrala Termica - Apa - Desfundare Canalizare",
    "formatted_address": "5,0(1)",
    "phone_number": "+40376300656",
    "source_url": "https://www.google.com/maps/place/Instalator+Timisoara+Non+Stop+-+Instalatii+Sanitare+-+Montaj+Centrala+Termica+-+Apa+-+Desfundare+Canalizare/data=!4m7!3m6!1s0x47455d5d4e840d57:0x8e06831e9ec4e1ae!8m2!3d45.7551681!4d21.2218989!16s%2Fg%2F11xgnytzbn!19sChIJVw2ETl1dRUcRruHEnh6DBo4?authuser=0&hl=tr&rclk=1",
    "website_url": "https://expertilocali.ro/instalator-timisoara/",
    "rating_text": "5,0",
    "stars": null,
    "number_of_reviews": null,
    "price_level": "",
    "open_hours": "",
    "extraction_timestamp": "2025-06-07T14:39:34.476Z",
    "source_name": "google",
    "source_query": "Irrigation Equipment",
    "source_country": "RO",
    "country": "Romania",
    "state": "Timiș County",
    "city": "Comuna Ştiuca"
  },
  {
    "source_id": "ChIJE3iMEqxnRUcRb2Pn-67nFlM",
    "name": "Gradinarul Verde - Servicii Amenajari Gradini Timisoara",
    "category": "Gradinarul Verde - Servicii Amenajari Gradini Timisoara",
    "formatted_address": "5,0(43)",
    "phone_number": "+40720853070",
    "source_url": "https://www.google.com/maps/place/Gradinarul+Verde+-+Servicii+Amenajari+Gradini+Timisoara/data=!4m7!3m6!1s0x474567ac128c7813:0x5316e7aefbe7636f!8m2!3d45.766485!4d21.225461!16s%2Fg%2F11k0wy_rc7!19sChIJE3iMEqxnRUcRb2Pn-67nFlM?authuser=0&hl=tr&rclk=1",
    "website_url": "https://gradinarulverde.ro/",
    "rating_text": "5,0",
    "stars": null,
    "number_of_reviews": null,
    "price_level": "",
    "open_hours": "",
    "extraction_timestamp": "2025-06-07T14:39:34.476Z",
    "source_name": "google",
    "source_query": "Irrigation Equipment",
    "source_country": "RO",
    "country": "Romania",
    "state": "Timiș County",
    "city": "Comuna Ştiuca"
  },
  {
    "source_id": "ChIJQT4bo-y-T0cRmaeeDYSjmQY",
    "name": "Intercom Lugostar S.R.L.",
    "category": "Intercom Lugostar S.R.L.",
    "formatted_address": "4,3(44)",
    "phone_number": "+40722301936",
    "source_url": "https://www.google.com/maps/place/Intercom+Lugostar+S.R.L./data=!4m7!3m6!1s0x474fbeeca31b3e41:0x699a3840d9ea799!8m2!3d45.6808245!4d21.9026932!16s%2Fg%2F1hc5dzbyy!19sChIJQT4bo-y-T0cRmaeeDYSjmQY?authuser=0&hl=tr&rclk=1",
    "website_url": "https://www.lugostar.ro/",
    "rating_text": "4,3",
    "stars": null,
    "number_of_reviews": null,
    "price_level": "",
    "open_hours": "",
    "extraction_timestamp": "2025-06-07T14:39:34.477Z",
    "source_name": "google",
    "source_query": "Irrigation Equipment",
    "source_country": "RO",
    "country": "Romania",
    "state": "Timiș County",
    "city": "Comuna Ştiuca"
  },
  {
    "source_id": "ChIJTVfuJABJRUcRYAFJQKjnpjM",
    "name": "Stația de Pompare Pustiniș (mal drept, Bega)",
    "category": "Stația de Pompare Pustiniș (mal drept, Bega)",
    "formatted_address": "Stația de Pompare Pustiniș (mal drept, Bega)",
    "phone_number": "",
    "source_url": "https://www.google.com/maps/place/Sta%C8%9Bia+de+Pompare+Pustini%C8%99+%28mal+drept,+Bega%29/data=!4m7!3m6!1s0x4745490024ee574d:0x33a6e7a840490160!8m2!3d45.6262881!4d20.8626069!16s%2Fg%2F11ltlsv4_y!19sChIJTVfuJABJRUcRYAFJQKjnpjM?authuser=0&hl=tr&rclk=1",
    "website_url": "",
    "rating_text": "",
    "stars": null,
    "number_of_reviews": null,
    "price_level": "",
    "open_hours": "",
    "extraction_timestamp": "2025-06-07T14:39:34.477Z",
    "source_name": "google",
    "source_query": "Irrigation Equipment",
    "source_country": "RO",
    "country": "Romania",
    "state": "Timiș County",
    "city": "Comuna Ştiuca"
  },
  {
    "source_id": "ChIJNTRTIuS_T0cRQCDPhDYmrOg",
    "name": "D.A. Constantin",
    "category": "D.A. Constantin",
    "formatted_address": "4,5(10)",
    "phone_number": "",
    "source_url": "https://www.google.com/maps/place/D.A.+Constantin/data=!4m7!3m6!1s0x474fbfe422533435:0xe8ac263684cf2040!8m2!3d45.6916909!4d21.9073388!16s%2Fg%2F11hdsrr9h1!19sChIJNTRTIuS_T0cRQCDPhDYmrOg?authuser=0&hl=tr&rclk=1",
    "website_url": "",
    "rating_text": "4,5",
    "stars": null,
    "number_of_reviews": null,
    "price_level": "",
    "open_hours": "",
    "extraction_timestamp": "2025-06-07T14:39:34.477Z",
    "source_name": "google",
    "source_query": "Irrigation Equipment",
    "source_country": "RO",
    "country": "Romania",
    "state": "Timiș County",
    "city": "Comuna Ştiuca"
  }
]
