[
  {
    "source_id": "ChIJm2k4OBhnRUcRorlDejzLFj8",
    "name": "INTTECH INDUSTRY - Timis",
    "category": "INTTECH INDUSTRY - Timis",
    "formatted_address": "5,0(30)",
    "phone_number": "+40744323626",
    "source_url": "https://www.google.com/maps/place/INTTECH+INDUSTRY+-+Timis/data=!4m7!3m6!1s0x474567183838699b:0x3f16cb3c7a43b9a2!8m2!3d45.8007315!4d21.249204!16s%2Fg%2F11j3g9f8jq!19sChIJm2k4OBhnRUcRorlDejzLFj8?authuser=0&hl=tr&rclk=1",
    "website_url": "http://www.irrishop.ro/",
    "rating_text": "5,0",
    "stars": null,
    "number_of_reviews": null,
    "price_level": "",
    "open_hours": "",
    "extraction_timestamp": "2025-06-07T14:34:57.473Z",
    "source_name": "google",
    "source_query": "Irrigation Equipment",
    "source_country": "RO",
    "country": "Romania",
    "state": "Timiș County",
    "city": "Darova Nouă"
  },
  {
    "source_id": "ChIJD7OM9o1dRUcRRqlJ_yffJcE",
    "name": "Gardensis S.R.L.",
    "category": "Gardensis S.R.L.",
    "formatted_address": "4,6(16)",
    "phone_number": "+40724011591",
    "source_url": "https://www.google.com/maps/place/Gardensis+S.R.L./data=!4m7!3m6!1s0x47455d8df68cb30f:0xc125df27ff49a946!8m2!3d45.7292754!4d21.2698954!16s%2Fg%2F1hc7xr42_!19sChIJD7OM9o1dRUcRRqlJ_yffJcE?authuser=0&hl=tr&rclk=1",
    "website_url": "http://www.irigatii.ro/",
    "rating_text": "4,6",
    "stars": null,
    "number_of_reviews": null,
    "price_level": "",
    "open_hours": "",
    "extraction_timestamp": "2025-06-07T14:34:57.474Z",
    "source_name": "google",
    "source_query": "Irrigation Equipment",
    "source_country": "RO",
    "country": "Romania",
    "state": "Timiș County",
    "city": "Darova Nouă"
  },
  {
    "source_id": "ChIJu9QYiMJdRUcROlyKL-xy3eg",
    "name": "Fluidiqa SRL",
    "category": "Fluidiqa SRL",
    "formatted_address": "5,0(1)",
    "phone_number": "+40756100954",
    "source_url": "https://www.google.com/maps/place/Fluidiqa+SRL/data=!4m7!3m6!1s0x47455dc28818d4bb:0xe8dd72ec2f8a5c3a!8m2!3d45.7038491!4d21.1825258!16s%2Fg%2F11c61qxjzj!19sChIJu9QYiMJdRUcROlyKL-xy3eg?authuser=0&hl=tr&rclk=1",
    "website_url": "http://www.fluidiqa.ro/",
    "rating_text": "5,0",
    "stars": null,
    "number_of_reviews": null,
    "price_level": "",
    "open_hours": "",
    "extraction_timestamp": "2025-06-07T14:34:57.474Z",
    "source_name": "google",
    "source_query": "Irrigation Equipment",
    "source_country": "RO",
    "country": "Romania",
    "state": "Timiș County",
    "city": "Darova Nouă"
  },
  {
    "source_id": "ChIJj_KW7oFdRUcRM8oUP8aWZco",
    "name": "Hidropump S.R.L.",
    "category": "Hidropump S.R.L.",
    "formatted_address": "4,6(22)",
    "phone_number": "+40724519545",
    "source_url": "https://www.google.com/maps/place/Hidropump+S.R.L./data=!4m7!3m6!1s0x47455d81ee96f28f:0xca6596c63f14ca33!8m2!3d45.8116595!4d21.2623818!16s%2Fg%2F1w0p4dfv!19sChIJj_KW7oFdRUcRM8oUP8aWZco?authuser=0&hl=tr&rclk=1",
    "website_url": "https://hidropump.ro/",
    "rating_text": "4,6",
    "stars": null,
    "number_of_reviews": null,
    "price_level": "",
    "open_hours": "",
    "extraction_timestamp": "2025-06-07T14:34:57.475Z",
    "source_name": "google",
    "source_query": "Irrigation Equipment",
    "source_country": "RO",
    "country": "Romania",
    "state": "Timiș County",
    "city": "Darova Nouă"
  },
  {
    "source_id": "ChIJu3QMYXRdRUcRJ2-T1_nXT6U",
    "name": "Marprest",
    "category": "Marprest",
    "formatted_address": "5,0(1)",
    "phone_number": "+40721795322",
    "source_url": "https://www.google.com/maps/place/Marprest/data=!4m7!3m6!1s0x47455d74610c74bb:0xa54fd7f9d7936f27!8m2!3d45.7291043!4d21.2078843!16s%2Fg%2F11c1vmmqkp!19sChIJu3QMYXRdRUcRJ2-T1_nXT6U?authuser=0&hl=tr&rclk=1",
    "website_url": "http://www.marprest.ro/",
    "rating_text": "5,0",
    "stars": null,
    "number_of_reviews": null,
    "price_level": "",
    "open_hours": "",
    "extraction_timestamp": "2025-06-07T14:34:57.475Z",
    "source_name": "google",
    "source_query": "Irrigation Equipment",
    "source_country": "RO",
    "country": "Romania",
    "state": "Timiș County",
    "city": "Darova Nouă"
  },
  {
    "source_id": "ChIJ89rcY25dRUcRZT8mqS9M5qc",
    "name": "Banat Garden Timisoara",
    "category": "Banat Garden Timisoara",
    "formatted_address": "4,9(34)",
    "phone_number": "+40724402076",
    "source_url": "https://www.google.com/maps/place/Banat+Garden+Timisoara/data=!4m7!3m6!1s0x47455d6e63dcdaf3:0xa7e64c2fa9263f65!8m2!3d45.7571782!4d21.2301306!16s%2Fg%2F11gl0h6gg8!19sChIJ89rcY25dRUcRZT8mqS9M5qc?authuser=0&hl=tr&rclk=1",
    "website_url": "http://banatgarden.ro/",
    "rating_text": "4,9",
    "stars": null,
    "number_of_reviews": null,
    "price_level": "",
    "open_hours": "",
    "extraction_timestamp": "2025-06-07T14:34:57.476Z",
    "source_name": "google",
    "source_query": "Irrigation Equipment",
    "source_country": "RO",
    "country": "Romania",
    "state": "Timiș County",
    "city": "Darova Nouă"
  },
  {
    "source_id": "ChIJNVF0JZyZRUcROrGIQqRikNo",
    "name": "Sc Irigarden Srl",
    "category": "Sc Irigarden Srl",
    "formatted_address": "4,7(52)",
    "phone_number": "+40744310125",
    "source_url": "https://www.google.com/maps/place/Sc+Irigarden+Srl/data=!4m7!3m6!1s0x4745999c25745135:0xda9062a44288b13a!8m2!3d46.14823!4d21.328789!16s%2Fg%2F1tp0cg5b!19sChIJNVF0JZyZRUcROrGIQqRikNo?authuser=0&hl=tr&rclk=1",
    "website_url": "https://www.irigarden.ro/",
    "rating_text": "4,7",
    "stars": null,
    "number_of_reviews": null,
    "price_level": "",
    "open_hours": "",
    "extraction_timestamp": "2025-06-07T14:34:57.476Z",
    "source_name": "google",
    "source_query": "Irrigation Equipment",
    "source_country": "RO",
    "country": "Romania",
    "state": "Timiș County",
    "city": "Darova Nouă"
  },
  {
    "source_id": "ChIJcUVxnDaZRUcRUbUn3okKfP4",
    "name": "SC Tehnica Irigatii-Lacuri Decorative SRL",
    "category": "SC Tehnica Irigatii-Lacuri Decorative SRL",
    "formatted_address": "4,9(32)",
    "phone_number": "+40731208755",
    "source_url": "https://www.google.com/maps/place/SC+Tehnica+Irigatii-Lacuri+Decorative+SRL/data=!4m7!3m6!1s0x474599369c714571:0xfe7c0a89de27b551!8m2!3d46.1409626!4d21.3164797!16s%2Fg%2F11c6vbxz0v!19sChIJcUVxnDaZRUcRUbUn3okKfP4?authuser=0&hl=tr&rclk=1",
    "website_url": "https://www.tehnicairigatii.ro/",
    "rating_text": "4,9",
    "stars": null,
    "number_of_reviews": null,
    "price_level": "",
    "open_hours": "",
    "extraction_timestamp": "2025-06-07T14:34:57.476Z",
    "source_name": "google",
    "source_query": "Irrigation Equipment",
    "source_country": "RO",
    "country": "Romania",
    "state": "Timiș County",
    "city": "Darova Nouă"
  },
  {
    "source_id": "ChIJJ6MUlwxeRUcRnA91koGm7oE",
    "name": "Hesse SRL",
    "category": "Hesse SRL",
    "formatted_address": "4,6(70)",
    "phone_number": "+40753044936",
    "source_url": "https://www.google.com/maps/place/Hesse+SRL/data=!4m7!3m6!1s0x47455e0c9714a327:0x81eea68192750f9c!8m2!3d45.7281249!4d21.2740876!16s%2Fg%2F11c1nj7q6k!19sChIJJ6MUlwxeRUcRnA91koGm7oE?authuser=0&hl=tr&rclk=1",
    "website_url": "http://www.hesse.ro/",
    "rating_text": "4,6",
    "stars": null,
    "number_of_reviews": null,
    "price_level": "",
    "open_hours": "",
    "extraction_timestamp": "2025-06-07T14:34:57.477Z",
    "source_name": "google",
    "source_query": "Irrigation Equipment",
    "source_country": "RO",
    "country": "Romania",
    "state": "Timiș County",
    "city": "Darova Nouă"
  },
  {
    "source_id": "ChIJMWnr6hJeRUcR1qATsiSFcKk",
    "name": "Irigații-S.C.Badin-sistem S.R.L.",
    "category": "Irigații-S.C.Badin-sistem S.R.L.",
    "formatted_address": "4,7(76)",
    "phone_number": "+40785111698",
    "source_url": "https://www.google.com/maps/place/Iriga%C8%9Bii-S.C.Badin-sistem+S.R.L./data=!4m7!3m6!1s0x47455e12eaeb6931:0xa9708524b213a0d6!8m2!3d45.7351861!4d21.263806!16s%2Fg%2F11c5rmlsvm!19sChIJMWnr6hJeRUcR1qATsiSFcKk?authuser=0&hl=tr&rclk=1",
    "website_url": "http://www.badinsistem.ro/",
    "rating_text": "4,7",
    "stars": null,
    "number_of_reviews": null,
    "price_level": "",
    "open_hours": "",
    "extraction_timestamp": "2025-06-07T14:34:57.477Z",
    "source_name": "google",
    "source_query": "Irrigation Equipment",
    "source_country": "RO",
    "country": "Romania",
    "state": "Timiș County",
    "city": "Darova Nouă"
  },
  {
    "source_id": "ChIJzzGl8ApeRUcR3xJZHCGgt08",
    "name": "irigatii.ro",
    "category": "irigatii.ro",
    "formatted_address": "4,8(65)",
    "phone_number": "+40724011591",
    "source_url": "https://www.google.com/maps/place/irigatii.ro/data=!4m7!3m6!1s0x47455e0af0a531cf:0x4fb7a0211c5912df!8m2!3d45.7293134!4d21.2700735!16s%2Fg%2F1hc2p_4by!19sChIJzzGl8ApeRUcR3xJZHCGgt08?authuser=0&hl=tr&rclk=1",
    "website_url": "http://www.irigatii.ro/",
    "rating_text": "4,8",
    "stars": null,
    "number_of_reviews": null,
    "price_level": "",
    "open_hours": "",
    "extraction_timestamp": "2025-06-07T14:34:57.478Z",
    "source_name": "google",
    "source_query": "Irrigation Equipment",
    "source_country": "RO",
    "country": "Romania",
    "state": "Timiș County",
    "city": "Darova Nouă"
  },
  {
    "source_id": "ChIJYxmFcC5dRUcRzB1VHJxhxw8",
    "name": "CDM GRUP",
    "category": "CDM GRUP",
    "formatted_address": "4,4(21)",
    "phone_number": "+40720506506",
    "source_url": "https://www.google.com/maps/place/CDM+GRUP/data=!4m7!3m6!1s0x47455d2e70851963:0xfc7619c1c551dcc!8m2!3d45.7344282!4d21.1771426!16s%2Fg%2F11p5614l_z!19sChIJYxmFcC5dRUcRzB1VHJxhxw8?authuser=0&hl=tr&rclk=1",
    "website_url": "https://cdmgrup.ro/",
    "rating_text": "4,4",
    "stars": null,
    "number_of_reviews": null,
    "price_level": "",
    "open_hours": "",
    "extraction_timestamp": "2025-06-07T14:34:57.478Z",
    "source_name": "google",
    "source_query": "Irrigation Equipment",
    "source_country": "RO",
    "country": "Romania",
    "state": "Timiș County",
    "city": "Darova Nouă"
  },
  {
    "source_id": "ChIJh3Fb0ElnRUcRG64eohRJY9Q",
    "name": "Hydroline",
    "category": "Hydroline",
    "formatted_address": "4,7(51)",
    "phone_number": "+40256499714",
    "source_url": "https://www.google.com/maps/place/Hydroline/data=!4m7!3m6!1s0x47456749d05b7187:0xd4634914a21eae1b!8m2!3d45.7634781!4d21.2841228!16s%2Fg%2F1tmgb6j2!19sChIJh3Fb0ElnRUcRG64eohRJY9Q?authuser=0&hl=tr&rclk=1",
    "website_url": "https://hydroline.ro/",
    "rating_text": "4,7",
    "stars": null,
    "number_of_reviews": null,
    "price_level": "",
    "open_hours": "",
    "extraction_timestamp": "2025-06-07T14:34:57.479Z",
    "source_name": "google",
    "source_query": "Irrigation Equipment",
    "source_country": "RO",
    "country": "Romania",
    "state": "Timiș County",
    "city": "Darova Nouă"
  },
  {
    "source_id": "ChIJz5xWSdRgRUcRFaqJMoY0fKs",
    "name": "Romagrotehnica",
    "category": "Romagrotehnica",
    "formatted_address": "5,0(9)",
    "phone_number": "+40724550402",
    "source_url": "https://www.google.com/maps/place/Romagrotehnica/data=!4m7!3m6!1s0x474560d449569ccf:0xab7c34863289aa15!8m2!3d45.7769642!4d21.3081965!16s%2Fg%2F11cmrwbg67!19sChIJz5xWSdRgRUcRFaqJMoY0fKs?authuser=0&hl=tr&rclk=1",
    "website_url": "https://romagrotehnica.ro/",
    "rating_text": "5,0",
    "stars": null,
    "number_of_reviews": null,
    "price_level": "",
    "open_hours": "",
    "extraction_timestamp": "2025-06-07T14:34:57.479Z",
    "source_name": "google",
    "source_query": "Irrigation Equipment",
    "source_country": "RO",
    "country": "Romania",
    "state": "Timiș County",
    "city": "Darova Nouă"
  },
  {
    "source_id": "ChIJ85yFN7ldRUcRCM-S6obemM0",
    "name": "Hidromet S.R.L.",
    "category": "Hidromet S.R.L.",
    "formatted_address": "4,6(17)",
    "phone_number": "+40374200636",
    "source_url": "https://www.google.com/maps/place/Hidromet+S.R.L./data=!4m7!3m6!1s0x47455db937859cf3:0xcd98de86ea92cf08!8m2!3d45.7289414!4d21.2318315!16s%2Fg%2F1hcb5hysh!19sChIJ85yFN7ldRUcRCM-S6obemM0?authuser=0&hl=tr&rclk=1",
    "website_url": "http://hidromet.ro/",
    "rating_text": "4,6",
    "stars": null,
    "number_of_reviews": null,
    "price_level": "",
    "open_hours": "",
    "extraction_timestamp": "2025-06-07T14:34:57.480Z",
    "source_name": "google",
    "source_query": "Irrigation Equipment",
    "source_country": "RO",
    "country": "Romania",
    "state": "Timiș County",
    "city": "Darova Nouă"
  },
  {
    "source_id": "ChIJMccEz0dEGSIRw9cKYGtMCCs",
    "name": "Hidronic SRL - PL Timisoara",
    "category": "Hidronic SRL - PL Timisoara",
    "formatted_address": "Su Pompası Tedarikçisi · Hala D14, Calea Șagului 235Kapalı ⋅ Açılış zamanı: Pzt 09:00 · +40 753 100 408",
    "phone_number": "+40753100408",
    "source_url": "https://www.google.com/maps/place/Hidronic+SRL+-+PL+Timisoara/data=!4m7!3m6!1s0x22194447cf04c731:0x2b084c6b600ad7c3!8m2!3d45.7031858!4d21.1849949!16s%2Fg%2F11y79y5w3v!19sChIJMccEz0dEGSIRw9cKYGtMCCs?authuser=0&hl=tr&rclk=1",
    "website_url": "https://www.hidronic.ro/",
    "rating_text": "",
    "stars": null,
    "number_of_reviews": null,
    "price_level": "",
    "open_hours": "",
    "extraction_timestamp": "2025-06-07T14:34:57.480Z",
    "source_name": "google",
    "source_query": "Irrigation Equipment",
    "source_country": "RO",
    "country": "Romania",
    "state": "Timiș County",
    "city": "Darova Nouă"
  },
  {
    "source_id": "ChIJIfnfLTNnRUcRSrDX85TqUB4",
    "name": "Delta Exclusiv s.r.l.",
    "category": "Delta Exclusiv s.r.l.",
    "formatted_address": "5,0(1)",
    "phone_number": "+40744797018",
    "source_url": "https://www.google.com/maps/place/Delta+Exclusiv+s.r.l./data=!4m7!3m6!1s0x474567332ddff921:0x1e50ea94f3d7b04a!8m2!3d45.756904!4d21.239286!16s%2Fg%2F11fkkzwcn_!19sChIJIfnfLTNnRUcRSrDX85TqUB4?authuser=0&hl=tr&rclk=1",
    "website_url": "https://www.deltaexclusiv.ro/",
    "rating_text": "5,0",
    "stars": null,
    "number_of_reviews": null,
    "price_level": "",
    "open_hours": "",
    "extraction_timestamp": "2025-06-07T14:34:57.480Z",
    "source_name": "google",
    "source_query": "Irrigation Equipment",
    "source_country": "RO",
    "country": "Romania",
    "state": "Timiș County",
    "city": "Darova Nouă"
  },
  {
    "source_id": "ChIJ2dsBSx5dRUcRbx08-C5cBGQ",
    "name": "HYDRO JET",
    "category": "HYDRO JET",
    "formatted_address": "5,0(4)",
    "phone_number": "+40732050950",
    "source_url": "https://www.google.com/maps/place/HYDRO+JET/data=!4m7!3m6!1s0x47455d1e4b01dbd9:0x64045c2ef83c1d6f!8m2!3d45.7278068!4d21.2052744!16s%2Fg%2F11wp75zhyl!19sChIJ2dsBSx5dRUcRbx08-C5cBGQ?authuser=0&hl=tr&rclk=1",
    "website_url": "https://hydro-jet.ro/",
    "rating_text": "5,0",
    "stars": null,
    "number_of_reviews": null,
    "price_level": "",
    "open_hours": "",
    "extraction_timestamp": "2025-06-07T14:34:57.481Z",
    "source_name": "google",
    "source_query": "Irrigation Equipment",
    "source_country": "RO",
    "country": "Romania",
    "state": "Timiș County",
    "city": "Darova Nouă"
  },
  {
    "source_id": "ChIJnUQBrmNcRUcRiYKKcWdU8UE",
    "name": "Datcomp S.R.L.",
    "category": "Datcomp S.R.L.",
    "formatted_address": "4,9(9)",
    "phone_number": "+40729133951",
    "source_url": "https://www.google.com/maps/place/Datcomp+S.R.L./data=!4m7!3m6!1s0x47455c63ae01449d:0x41f15467718a8289!8m2!3d45.696862!4d21.1873457!16s%2Fg%2F1hhmw76h1!19sChIJnUQBrmNcRUcRiYKKcWdU8UE?authuser=0&hl=tr&rclk=1",
    "website_url": "http://www.datcomp.ro/",
    "rating_text": "4,9",
    "stars": null,
    "number_of_reviews": null,
    "price_level": "",
    "open_hours": "",
    "extraction_timestamp": "2025-06-07T14:34:57.482Z",
    "source_name": "google",
    "source_query": "Irrigation Equipment",
    "source_country": "RO",
    "country": "Romania",
    "state": "Timiș County",
    "city": "Darova Nouă"
  },
  {
    "source_id": "ChIJv_eizuFdRUcRg4yb6UmX30I",
    "name": "MagazinGradina",
    "category": "MagazinGradina",
    "formatted_address": "",
    "phone_number": "+40724011591",
    "source_url": "https://www.google.com/maps/place/MagazinGradina/data=!4m7!3m6!1s0x47455de1cea2f7bf:0x42df9749e99b8c83!8m2!3d45.7293427!4d21.2700876!16s%2Fg%2F11fqptlzbn!19sChIJv_eizuFdRUcRg4yb6UmX30I?authuser=0&hl=tr&rclk=1",
    "website_url": "http://magazingradina.ro/",
    "rating_text": "",
    "stars": null,
    "number_of_reviews": null,
    "price_level": "",
    "open_hours": "",
    "extraction_timestamp": "2025-06-07T14:34:57.482Z",
    "source_name": "google",
    "source_query": "Irrigation Equipment",
    "source_country": "RO",
    "country": "Romania",
    "state": "Timiș County",
    "city": "Darova Nouă"
  },
  {
    "source_id": "ChIJm7LzDSVdRUcR34Uc2p2s4RM",
    "name": "Constructii Piscine Timisoara - BDA GROUP",
    "category": "Constructii Piscine Timisoara - BDA GROUP",
    "formatted_address": "5,0(11)",
    "phone_number": "+40759024236",
    "source_url": "https://www.google.com/maps/place/Constructii+Piscine+Timisoara+-+BDA+GROUP/data=!4m7!3m6!1s0x47455d250df3b29b:0x13e1ac9dda1c85df!8m2!3d45.7431083!4d21.2132351!16s%2Fg%2F11y4xjv8l5!19sChIJm7LzDSVdRUcR34Uc2p2s4RM?authuser=0&hl=tr&rclk=1",
    "website_url": "https://bdagroup.ro/",
    "rating_text": "5,0",
    "stars": null,
    "number_of_reviews": null,
    "price_level": "",
    "open_hours": "",
    "extraction_timestamp": "2025-06-07T14:34:57.483Z",
    "source_name": "google",
    "source_query": "Irrigation Equipment",
    "source_country": "RO",
    "country": "Romania",
    "state": "Timiș County",
    "city": "Darova Nouă"
  },
  {
    "source_id": "ChIJw-YksvWYRUcRkVBvDN1DkDU",
    "name": "Bendea",
    "category": "Bendea",
    "formatted_address": "4,3(53)",
    "phone_number": "+40751094705",
    "source_url": "https://www.google.com/maps/place/Bendea/data=!4m7!3m6!1s0x474598f5b224e6c3:0x359043dd0c6f5091!8m2!3d46.1779225!4d21.2955464!16s%2Fg%2F11c1nfbk3c!19sChIJw-YksvWYRUcRkVBvDN1DkDU?authuser=0&hl=tr&rclk=1",
    "website_url": "",
    "rating_text": "4,3",
    "stars": null,
    "number_of_reviews": null,
    "price_level": "",
    "open_hours": "",
    "extraction_timestamp": "2025-06-07T14:34:57.483Z",
    "source_name": "google",
    "source_query": "Irrigation Equipment",
    "source_country": "RO",
    "country": "Romania",
    "state": "Timiș County",
    "city": "Darova Nouă"
  },
  {
    "source_id": "ChIJefZ1BABDRUcRaUMQHlcPupw",
    "name": "Stația de pompare Utvin (mal drept)",
    "category": "Stația de pompare Utvin (mal drept)",
    "formatted_address": "5,0(1)",
    "phone_number": "",
    "source_url": "https://www.google.com/maps/place/Sta%C8%9Bia+de+pompare+Utvin+%28mal+drept%29/data=!4m7!3m6!1s0x474543000475f679:0x9cba0f571e104369!8m2!3d45.717913!4d21.1221141!16s%2Fg%2F11vz4k1pr9!19sChIJefZ1BABDRUcRaUMQHlcPupw?authuser=0&hl=tr&rclk=1",
    "website_url": "",
    "rating_text": "5,0",
    "stars": null,
    "number_of_reviews": null,
    "price_level": "",
    "open_hours": "",
    "extraction_timestamp": "2025-06-07T14:34:57.484Z",
    "source_name": "google",
    "source_query": "Irrigation Equipment",
    "source_country": "RO",
    "country": "Romania",
    "state": "Timiș County",
    "city": "Darova Nouă"
  },
  {
    "source_id": "ChIJWwlqo3dnRUcRE1PZAJWOvC4",
    "name": "Uniprest Instal",
    "category": "Uniprest Instal",
    "formatted_address": "4,3(30)",
    "phone_number": "+40771294435",
    "source_url": "https://www.google.com/maps/place/Uniprest+Instal/data=!4m7!3m6!1s0x47456777a36a095b:0x2ebc8e9500d95313!8m2!3d45.7776432!4d21.3081463!16s%2Fg%2F11c5h1r7db!19sChIJWwlqo3dnRUcRE1PZAJWOvC4?authuser=0&hl=tr&rclk=1",
    "website_url": "http://www.uniprest.ro/",
    "rating_text": "4,3",
    "stars": null,
    "number_of_reviews": null,
    "price_level": "",
    "open_hours": "",
    "extraction_timestamp": "2025-06-07T14:34:57.484Z",
    "source_name": "google",
    "source_query": "Irrigation Equipment",
    "source_country": "RO",
    "country": "Romania",
    "state": "Timiș County",
    "city": "Darova Nouă"
  },
  {
    "source_id": "ChIJdZGW41dnRUcR5r-_ISinHhI",
    "name": "doWell - INSTALATII -",
    "category": "doWell - INSTALATII -",
    "formatted_address": "4,9(74)",
    "phone_number": "+40731134222",
    "source_url": "https://www.google.com/maps/place/doWell+-+INSTALATII+-/data=!4m7!3m6!1s0x47456757e3969175:0x121ea72821bfbfe6!8m2!3d45.7826293!4d21.2283964!16s%2Fg%2F11rtg291v0!19sChIJdZGW41dnRUcR5r-_ISinHhI?authuser=0&hl=tr&rclk=1",
    "website_url": "http://www.dowell.ro/",
    "rating_text": "4,9",
    "stars": null,
    "number_of_reviews": null,
    "price_level": "",
    "open_hours": "",
    "extraction_timestamp": "2025-06-07T14:34:57.485Z",
    "source_name": "google",
    "source_query": "Irrigation Equipment",
    "source_country": "RO",
    "country": "Romania",
    "state": "Timiș County",
    "city": "Darova Nouă"
  },
  {
    "source_id": "ChIJH8WgtL9nRUcRtzTLRiyI53o",
    "name": "Instal Impex",
    "category": "Instal Impex",
    "formatted_address": "4,9(12)",
    "phone_number": "+40356423372",
    "source_url": "https://www.google.com/maps/place/Instal+Impex/data=!4m7!3m6!1s0x474567bfb4a0c51f:0x7ae7882c46cb34b7!8m2!3d45.7360839!4d21.2562389!16s%2Fg%2F11b77wly4x!19sChIJH8WgtL9nRUcRtzTLRiyI53o?authuser=0&hl=tr&rclk=1",
    "website_url": "http://www.instalimpex.ro/",
    "rating_text": "4,9",
    "stars": null,
    "number_of_reviews": null,
    "price_level": "",
    "open_hours": "",
    "extraction_timestamp": "2025-06-07T14:34:57.485Z",
    "source_name": "google",
    "source_query": "Irrigation Equipment",
    "source_country": "RO",
    "country": "Romania",
    "state": "Timiș County",
    "city": "Darova Nouă"
  },
  {
    "source_id": "ChIJvfIO_CdrRUcRHq6Vx10lbvk",
    "name": "Sc Miron Garden s.r.l",
    "category": "Sc Miron Garden s.r.l",
    "formatted_address": "5,0(6)",
    "phone_number": "+40770366209",
    "source_url": "https://www.google.com/maps/place/Sc+Miron+Garden+s.r.l/data=!4m7!3m6!1s0x47456b27fc0ef2bd:0xf96e255dc795ae1e!8m2!3d45.8398631!4d21.0964328!16s%2Fg%2F11r9vn5y5k!19sChIJvfIO_CdrRUcRHq6Vx10lbvk?authuser=0&hl=tr&rclk=1",
    "website_url": "",
    "rating_text": "5,0",
    "stars": null,
    "number_of_reviews": null,
    "price_level": "",
    "open_hours": "",
    "extraction_timestamp": "2025-06-07T14:34:57.485Z",
    "source_name": "google",
    "source_query": "Irrigation Equipment",
    "source_country": "RO",
    "country": "Romania",
    "state": "Timiș County",
    "city": "Darova Nouă"
  },
  {
    "source_id": "ChIJj7-7za2ZRUcR6M_jOJcGFjk",
    "name": "Agronomo - motounelte Arad",
    "category": "Agronomo - motounelte Arad",
    "formatted_address": "4,3(146)",
    "phone_number": "+40759927777",
    "source_url": "https://www.google.com/maps/place/Agronomo+-+motounelte+Arad/data=!4m7!3m6!1s0x474599adcdbbbf8f:0x3916069738e3cfe8!8m2!3d46.198694!4d21.3377498!16s%2Fg%2F11mr99fc3s!19sChIJj7-7za2ZRUcR6M_jOJcGFjk?authuser=0&hl=tr&rclk=1",
    "website_url": "http://agronomo.ro/",
    "rating_text": "4,3",
    "stars": null,
    "number_of_reviews": null,
    "price_level": "",
    "open_hours": "",
    "extraction_timestamp": "2025-06-07T14:34:57.486Z",
    "source_name": "google",
    "source_query": "Irrigation Equipment",
    "source_country": "RO",
    "country": "Romania",
    "state": "Timiș County",
    "city": "Darova Nouă"
  },
  {
    "source_id": "ChIJVw2ETl1dRUcRruHEnh6DBo4",
    "name": "Instalator Timisoara Non Stop - Instalatii Sanitare - Montaj Centrala Termica - Apa - Desfundare Canalizare",
    "category": "Instalator Timisoara Non Stop - Instalatii Sanitare - Montaj Centrala Termica - Apa - Desfundare Canalizare",
    "formatted_address": "5,0(1)",
    "phone_number": "+40376300656",
    "source_url": "https://www.google.com/maps/place/Instalator+Timisoara+Non+Stop+-+Instalatii+Sanitare+-+Montaj+Centrala+Termica+-+Apa+-+Desfundare+Canalizare/data=!4m7!3m6!1s0x47455d5d4e840d57:0x8e06831e9ec4e1ae!8m2!3d45.7551681!4d21.2218989!16s%2Fg%2F11xgnytzbn!19sChIJVw2ETl1dRUcRruHEnh6DBo4?authuser=0&hl=tr&rclk=1",
    "website_url": "https://expertilocali.ro/instalator-timisoara/",
    "rating_text": "5,0",
    "stars": null,
    "number_of_reviews": null,
    "price_level": "",
    "open_hours": "",
    "extraction_timestamp": "2025-06-07T14:34:57.486Z",
    "source_name": "google",
    "source_query": "Irrigation Equipment",
    "source_country": "RO",
    "country": "Romania",
    "state": "Timiș County",
    "city": "Darova Nouă"
  },
  {
    "source_id": "ChIJw4kg1e9dRUcR26409iQuTn8",
    "name": "Hexagon OA - Organe de asamblare și Scule electrice - MILWAUKEE® Authorised Distributor",
    "category": "Hexagon OA - Organe de asamblare și Scule electrice - MILWAUKEE® Authorised Distributor",
    "formatted_address": "4,7(252)",
    "phone_number": "+40356464047",
    "source_url": "https://www.google.com/maps/place/Hexagon+OA+-+Organe+de+asamblare+%C8%99i+Scule+electrice+-+MILWAUKEE%C2%AE+Authorised+Distributor/data=!4m7!3m6!1s0x47455defd52089c3:0x7f4e2e24f634aedb!8m2!3d45.7721254!4d21.2874071!16s%2Fg%2F11f0l49070!19sChIJw4kg1e9dRUcR26409iQuTn8?authuser=0&hl=tr&rclk=1",
    "website_url": "http://www.suruburitimisoara.ro/",
    "rating_text": "4,7",
    "stars": null,
    "number_of_reviews": null,
    "price_level": "",
    "open_hours": "",
    "extraction_timestamp": "2025-06-07T14:34:57.487Z",
    "source_name": "google",
    "source_query": "Irrigation Equipment",
    "source_country": "RO",
    "country": "Romania",
    "state": "Timiș County",
    "city": "Darova Nouă"
  },
  {
    "source_id": "ChIJfRMY9QldRUcRBP62OdyuMe0",
    "name": "Instalplus",
    "category": "Instalplus",
    "formatted_address": "4,7(29)",
    "phone_number": "+40728969778",
    "source_url": "https://www.google.com/maps/place/Instalplus/data=!4m7!3m6!1s0x47455d09f518137d:0xed31aedc39b6fe04!8m2!3d45.7336556!4d21.2094947!16s%2Fg%2F11c1vq02h0!19sChIJfRMY9QldRUcRBP62OdyuMe0?authuser=0&hl=tr&rclk=1",
    "website_url": "https://www.instalplus.ro/",
    "rating_text": "4,7",
    "stars": null,
    "number_of_reviews": null,
    "price_level": "",
    "open_hours": "",
    "extraction_timestamp": "2025-06-07T14:34:57.487Z",
    "source_name": "google",
    "source_query": "Irrigation Equipment",
    "source_country": "RO",
    "country": "Romania",
    "state": "Timiș County",
    "city": "Darova Nouă"
  },
  {
    "source_id": "ChIJH7DdtKtdRUcRLJXQhLkF7o8",
    "name": "System Install",
    "category": "System Install",
    "formatted_address": "5,0(317)",
    "phone_number": "+40735657575",
    "source_url": "https://www.google.com/maps/place/System+Install/data=!4m7!3m6!1s0x47455dabb4ddb01f:0x8fee05b984d0952c!8m2!3d45.7077619!4d21.2100434!16s%2Fg%2F11hy_mn98z!19sChIJH7DdtKtdRUcRLJXQhLkF7o8?authuser=0&hl=tr&rclk=1",
    "website_url": "https://instalatii-timisoara.ro/",
    "rating_text": "5,0",
    "stars": null,
    "number_of_reviews": null,
    "price_level": "",
    "open_hours": "",
    "extraction_timestamp": "2025-06-07T14:34:57.487Z",
    "source_name": "google",
    "source_query": "Irrigation Equipment",
    "source_country": "RO",
    "country": "Romania",
    "state": "Timiș County",
    "city": "Darova Nouă"
  },
  {
    "source_id": "ChIJPcU4VpBnRUcRQikVyq_fOYI",
    "name": "Romstal",
    "category": "Romstal",
    "formatted_address": "4,2(248)",
    "phone_number": "+40372123110",
    "source_url": "https://www.google.com/maps/place/Romstal/data=!4m7!3m6!1s0x474567905638c53d:0x8239dfafca152942!8m2!3d45.7685415!4d21.2211134!16s%2Fg%2F1tycvf85!19sChIJPcU4VpBnRUcRQikVyq_fOYI?authuser=0&hl=tr&rclk=1",
    "website_url": "http://www.romstal.ro/",
    "rating_text": "4,2",
    "stars": null,
    "number_of_reviews": null,
    "price_level": "",
    "open_hours": "",
    "extraction_timestamp": "2025-06-07T14:34:57.488Z",
    "source_name": "google",
    "source_query": "Irrigation Equipment",
    "source_country": "RO",
    "country": "Romania",
    "state": "Timiș County",
    "city": "Darova Nouă"
  },
  {
    "source_id": "ChIJa3qkQ_5cRUcRiDGFULtTr2Q",
    "name": "AVO MOBILE Srl",
    "category": "AVO MOBILE Srl",
    "formatted_address": "5,0(1)",
    "phone_number": "+40762203612",
    "source_url": "https://www.google.com/maps/place/AVO+MOBILE+Srl/data=!4m7!3m6!1s0x47455cfe43a47a6b:0x64af53bb50853188!8m2!3d45.7199701!4d21.1957437!16s%2Fg%2F11h0jpy7b!19sChIJa3qkQ_5cRUcRiDGFULtTr2Q?authuser=0&hl=tr&rclk=1",
    "website_url": "",
    "rating_text": "5,0",
    "stars": null,
    "number_of_reviews": null,
    "price_level": "",
    "open_hours": "",
    "extraction_timestamp": "2025-06-07T14:34:57.488Z",
    "source_name": "google",
    "source_query": "Irrigation Equipment",
    "source_country": "RO",
    "country": "Romania",
    "state": "Timiș County",
    "city": "Darova Nouă"
  }
]
