[
  {
    "source_id": "ChIJm2k4OBhnRUcRorlDejzLFj8",
    "name": "INTTECH INDUSTRY - Timis",
    "category": "INTTECH INDUSTRY - Timis",
    "formatted_address": "5,0(30)",
    "phone_number": "+40744323626",
    "source_url": "https://www.google.com/maps/place/INTTECH+INDUSTRY+-+Timis/data=!4m7!3m6!1s0x474567183838699b:0x3f16cb3c7a43b9a2!8m2!3d45.8007315!4d21.249204!16s%2Fg%2F11j3g9f8jq!19sChIJm2k4OBhnRUcRorlDejzLFj8?authuser=0&hl=tr&rclk=1",
    "website_url": "http://www.irrishop.ro/",
    "rating_text": "5,0",
    "stars": null,
    "number_of_reviews": null,
    "price_level": "",
    "open_hours": "",
    "extraction_timestamp": "2025-06-07T14:21:43.068Z",
    "source_name": "google",
    "source_query": "Irrigation Equipment",
    "source_country": "RO",
    "country": "Romania",
    "state": "Timiș County",
    "city": "Denta"
  },
  {
    "source_id": "ChIJD7OM9o1dRUcRRqlJ_yffJcE",
    "name": "Gardensis S.R.L.",
    "category": "Gardensis S.R.L.",
    "formatted_address": "4,6(16)",
    "phone_number": "+40724011591",
    "source_url": "https://www.google.com/maps/place/Gardensis+S.R.L./data=!4m7!3m6!1s0x47455d8df68cb30f:0xc125df27ff49a946!8m2!3d45.7292754!4d21.2698954!16s%2Fg%2F1hc7xr42_!19sChIJD7OM9o1dRUcRRqlJ_yffJcE?authuser=0&hl=tr&rclk=1",
    "website_url": "http://www.irigatii.ro/",
    "rating_text": "4,6",
    "stars": null,
    "number_of_reviews": null,
    "price_level": "",
    "open_hours": "",
    "extraction_timestamp": "2025-06-07T14:21:43.069Z",
    "source_name": "google",
    "source_query": "Irrigation Equipment",
    "source_country": "RO",
    "country": "Romania",
    "state": "Timiș County",
    "city": "Denta"
  },
  {
    "source_id": "ChIJu9QYiMJdRUcROlyKL-xy3eg",
    "name": "Fluidiqa SRL",
    "category": "Fluidiqa SRL",
    "formatted_address": "5,0(1)",
    "phone_number": "+40756100954",
    "source_url": "https://www.google.com/maps/place/Fluidiqa+SRL/data=!4m7!3m6!1s0x47455dc28818d4bb:0xe8dd72ec2f8a5c3a!8m2!3d45.7038491!4d21.1825258!16s%2Fg%2F11c61qxjzj!19sChIJu9QYiMJdRUcROlyKL-xy3eg?authuser=0&hl=tr&rclk=1",
    "website_url": "http://www.fluidiqa.ro/",
    "rating_text": "5,0",
    "stars": null,
    "number_of_reviews": null,
    "price_level": "",
    "open_hours": "",
    "extraction_timestamp": "2025-06-07T14:21:43.070Z",
    "source_name": "google",
    "source_query": "Irrigation Equipment",
    "source_country": "RO",
    "country": "Romania",
    "state": "Timiș County",
    "city": "Denta"
  },
  {
    "source_id": "ChIJ5WSJMaJdRUcRDBPN8TlgxKI",
    "name": "Infinitrade-Romania - Piese de schimb pt. mentenanta si echipamente industriale",
    "category": "Infinitrade-Romania - Piese de schimb pt. mentenanta si echipamente industriale",
    "formatted_address": "3,8(12)",
    "phone_number": "+40371232404",
    "source_url": "https://www.google.com/maps/place/Infinitrade-Romania+-+Piese+de+schimb+pt.+mentenanta+si+echipamente+industriale/data=!4m7!3m6!1s0x47455da2318964e5:0xa2c46039f1cd130c!8m2!3d45.7757739!4d21.2999637!16s%2Fg%2F11h9z7l0cp!19sChIJ5WSJMaJdRUcRDBPN8TlgxKI?authuser=0&hl=tr&rclk=1",
    "website_url": "https://infinitrade-romania.ro/",
    "rating_text": "3,8",
    "stars": null,
    "number_of_reviews": null,
    "price_level": "",
    "open_hours": "",
    "extraction_timestamp": "2025-06-07T14:21:43.070Z",
    "source_name": "google",
    "source_query": "Irrigation Equipment",
    "source_country": "RO",
    "country": "Romania",
    "state": "Timiș County",
    "city": "Denta"
  },
  {
    "source_id": "ChIJu3QMYXRdRUcRJ2-T1_nXT6U",
    "name": "Marprest",
    "category": "Marprest",
    "formatted_address": "5,0(1)",
    "phone_number": "+40721795322",
    "source_url": "https://www.google.com/maps/place/Marprest/data=!4m7!3m6!1s0x47455d74610c74bb:0xa54fd7f9d7936f27!8m2!3d45.7291043!4d21.2078843!16s%2Fg%2F11c1vmmqkp!19sChIJu3QMYXRdRUcRJ2-T1_nXT6U?authuser=0&hl=tr&rclk=1",
    "website_url": "http://www.marprest.ro/",
    "rating_text": "5,0",
    "stars": null,
    "number_of_reviews": null,
    "price_level": "",
    "open_hours": "",
    "extraction_timestamp": "2025-06-07T14:21:43.071Z",
    "source_name": "google",
    "source_query": "Irrigation Equipment",
    "source_country": "RO",
    "country": "Romania",
    "state": "Timiș County",
    "city": "Denta"
  },
  {
    "source_id": "ChIJIfnfLTNnRUcRSrDX85TqUB4",
    "name": "Delta Exclusiv s.r.l.",
    "category": "Delta Exclusiv s.r.l.",
    "formatted_address": "5,0(1)",
    "phone_number": "+40744797018",
    "source_url": "https://www.google.com/maps/place/Delta+Exclusiv+s.r.l./data=!4m7!3m6!1s0x474567332ddff921:0x1e50ea94f3d7b04a!8m2!3d45.756904!4d21.239286!16s%2Fg%2F11fkkzwcn_!19sChIJIfnfLTNnRUcRSrDX85TqUB4?authuser=0&hl=tr&rclk=1",
    "website_url": "https://www.deltaexclusiv.ro/",
    "rating_text": "5,0",
    "stars": null,
    "number_of_reviews": null,
    "price_level": "",
    "open_hours": "",
    "extraction_timestamp": "2025-06-07T14:21:43.072Z",
    "source_name": "google",
    "source_query": "Irrigation Equipment",
    "source_country": "RO",
    "country": "Romania",
    "state": "Timiș County",
    "city": "Denta"
  },
  {
    "source_id": "ChIJz5xWSdRgRUcRFaqJMoY0fKs",
    "name": "Romagrotehnica",
    "category": "Romagrotehnica",
    "formatted_address": "5,0(9)",
    "phone_number": "+40724550402",
    "source_url": "https://www.google.com/maps/place/Romagrotehnica/data=!4m7!3m6!1s0x474560d449569ccf:0xab7c34863289aa15!8m2!3d45.7769642!4d21.3081965!16s%2Fg%2F11cmrwbg67!19sChIJz5xWSdRgRUcRFaqJMoY0fKs?authuser=0&hl=tr&rclk=1",
    "website_url": "https://romagrotehnica.ro/",
    "rating_text": "5,0",
    "stars": null,
    "number_of_reviews": null,
    "price_level": "",
    "open_hours": "",
    "extraction_timestamp": "2025-06-07T14:21:43.072Z",
    "source_name": "google",
    "source_query": "Irrigation Equipment",
    "source_country": "RO",
    "country": "Romania",
    "state": "Timiș County",
    "city": "Denta"
  },
  {
    "source_id": "ChIJzzGl8ApeRUcR3xJZHCGgt08",
    "name": "irigatii.ro",
    "category": "irigatii.ro",
    "formatted_address": "4,8(65)",
    "phone_number": "+40724011591",
    "source_url": "https://www.google.com/maps/place/irigatii.ro/data=!4m7!3m6!1s0x47455e0af0a531cf:0x4fb7a0211c5912df!8m2!3d45.7293134!4d21.2700735!16s%2Fg%2F1hc2p_4by!19sChIJzzGl8ApeRUcR3xJZHCGgt08?authuser=0&hl=tr&rclk=1",
    "website_url": "http://www.irigatii.ro/",
    "rating_text": "4,8",
    "stars": null,
    "number_of_reviews": null,
    "price_level": "",
    "open_hours": "",
    "extraction_timestamp": "2025-06-07T14:21:43.073Z",
    "source_name": "google",
    "source_query": "Irrigation Equipment",
    "source_country": "RO",
    "country": "Romania",
    "state": "Timiș County",
    "city": "Denta"
  },
  {
    "source_id": "ChIJMccEz0dEGSIRw9cKYGtMCCs",
    "name": "Hidronic SRL - PL Timisoara",
    "category": "Hidronic SRL - PL Timisoara",
    "formatted_address": "Su Pompası Tedarikçisi · Hala D14, Calea Șagului 235Kapalı ⋅ Açılış zamanı: Pzt 09:00 · +40 753 100 408",
    "phone_number": "+40753100408",
    "source_url": "https://www.google.com/maps/place/Hidronic+SRL+-+PL+Timisoara/data=!4m7!3m6!1s0x22194447cf04c731:0x2b084c6b600ad7c3!8m2!3d45.7031858!4d21.1849949!16s%2Fg%2F11y79y5w3v!19sChIJMccEz0dEGSIRw9cKYGtMCCs?authuser=0&hl=tr&rclk=1",
    "website_url": "https://www.hidronic.ro/",
    "rating_text": "",
    "stars": null,
    "number_of_reviews": null,
    "price_level": "",
    "open_hours": "",
    "extraction_timestamp": "2025-06-07T14:21:43.073Z",
    "source_name": "google",
    "source_query": "Irrigation Equipment",
    "source_country": "RO",
    "country": "Romania",
    "state": "Timiș County",
    "city": "Denta"
  },
  {
    "source_id": "ChIJnUQBrmNcRUcRiYKKcWdU8UE",
    "name": "Datcomp S.R.L.",
    "category": "Datcomp S.R.L.",
    "formatted_address": "4,9(9)",
    "phone_number": "+40729133951",
    "source_url": "https://www.google.com/maps/place/Datcomp+S.R.L./data=!4m7!3m6!1s0x47455c63ae01449d:0x41f15467718a8289!8m2!3d45.696862!4d21.1873457!16s%2Fg%2F1hhmw76h1!19sChIJnUQBrmNcRUcRiYKKcWdU8UE?authuser=0&hl=tr&rclk=1",
    "website_url": "http://www.datcomp.ro/",
    "rating_text": "4,9",
    "stars": null,
    "number_of_reviews": null,
    "price_level": "",
    "open_hours": "",
    "extraction_timestamp": "2025-06-07T14:21:43.074Z",
    "source_name": "google",
    "source_query": "Irrigation Equipment",
    "source_country": "RO",
    "country": "Romania",
    "state": "Timiș County",
    "city": "Denta"
  },
  {
    "source_id": "ChIJcUVxnDaZRUcRUbUn3okKfP4",
    "name": "SC Tehnica Irigatii-Lacuri Decorative SRL",
    "category": "SC Tehnica Irigatii-Lacuri Decorative SRL",
    "formatted_address": "4,9(32)",
    "phone_number": "+40731208755",
    "source_url": "https://www.google.com/maps/place/SC+Tehnica+Irigatii-Lacuri+Decorative+SRL/data=!4m7!3m6!1s0x474599369c714571:0xfe7c0a89de27b551!8m2!3d46.1409626!4d21.3164797!16s%2Fg%2F11c6vbxz0v!19sChIJcUVxnDaZRUcRUbUn3okKfP4?authuser=0&hl=tr&rclk=1",
    "website_url": "https://www.tehnicairigatii.ro/",
    "rating_text": "4,9",
    "stars": null,
    "number_of_reviews": null,
    "price_level": "",
    "open_hours": "",
    "extraction_timestamp": "2025-06-07T14:21:43.075Z",
    "source_name": "google",
    "source_query": "Irrigation Equipment",
    "source_country": "RO",
    "country": "Romania",
    "state": "Timiș County",
    "city": "Denta"
  },
  {
    "source_id": "ChIJMWnr6hJeRUcR1qATsiSFcKk",
    "name": "Irigații-S.C.Badin-sistem S.R.L.",
    "category": "Irigații-S.C.Badin-sistem S.R.L.",
    "formatted_address": "4,7(76)",
    "phone_number": "+40785111698",
    "source_url": "https://www.google.com/maps/place/Iriga%C8%9Bii-S.C.Badin-sistem+S.R.L./data=!4m7!3m6!1s0x47455e12eaeb6931:0xa9708524b213a0d6!8m2!3d45.7351861!4d21.263806!16s%2Fg%2F11c5rmlsvm!19sChIJMWnr6hJeRUcR1qATsiSFcKk?authuser=0&hl=tr&rclk=1",
    "website_url": "http://www.badinsistem.ro/",
    "rating_text": "4,7",
    "stars": null,
    "number_of_reviews": null,
    "price_level": "",
    "open_hours": "",
    "extraction_timestamp": "2025-06-07T14:21:43.076Z",
    "source_name": "google",
    "source_query": "Irrigation Equipment",
    "source_country": "RO",
    "country": "Romania",
    "state": "Timiș County",
    "city": "Denta"
  },
  {
    "source_id": "ChIJaXn2gtFgRUcRWtrH1smIcNI",
    "name": "Professional Irrigation SRL",
    "category": "Professional Irrigation SRL",
    "formatted_address": "5,0(4)",
    "phone_number": "+40742054946",
    "source_url": "https://www.google.com/maps/place/Professional+Irrigation+SRL/data=!4m7!3m6!1s0x474560d182f67969:0xd27088c9d6c7da5a!8m2!3d45.7715327!4d21.3081823!16s%2Fg%2F12qfsp1nj!19sChIJaXn2gtFgRUcRWtrH1smIcNI?authuser=0&hl=tr&rclk=1",
    "website_url": "http://www.irigatii-profesionale.ro/",
    "rating_text": "5,0",
    "stars": null,
    "number_of_reviews": null,
    "price_level": "",
    "open_hours": "",
    "extraction_timestamp": "2025-06-07T14:21:43.076Z",
    "source_name": "google",
    "source_query": "Irrigation Equipment",
    "source_country": "RO",
    "country": "Romania",
    "state": "Timiș County",
    "city": "Denta"
  }
]
