[
  {
    "source_id": "ChIJ590PpUblREcRxqhF1hjwT9M",
    "name": "Ciocani Instal",
    "category": "Ciocani Instal",
    "formatted_address": "4,6(50)",
    "phone_number": "+40740134094",
    "source_url": "https://www.google.com/maps/place/Ciocani+Instal/data=!4m7!3m6!1s0x4744e546a50fdde7:0xd34ff018d645a8c6!8m2!3d46.0435798!4d20.4721242!16s%2Fg%2F11c87bl9kl!19sChIJ590PpUblREcRxqhF1hjwT9M?authuser=0&hl=tr&rclk=1",
    "website_url": "",
    "rating_text": "4,6",
    "stars": null,
    "number_of_reviews": null,
    "price_level": "",
    "open_hours": "",
    "extraction_timestamp": "2025-06-07T14:23:00.982Z",
    "source_name": "google",
    "source_query": "Irrigation Equipment",
    "source_country": "RO",
    "country": "Romania",
    "state": "Timiș County",
    "city": "Dudeştii Vechi"
  },
  {
    "source_id": "ChIJMWnr6hJeRUcR1qATsiSFcKk",
    "name": "Irigații-S.C.Badin-sistem S.R.L.",
    "category": "Irigații-S.C.Badin-sistem S.R.L.",
    "formatted_address": "4,7(76)",
    "phone_number": "+40785111698",
    "source_url": "https://www.google.com/maps/place/Iriga%C8%9Bii-S.C.Badin-sistem+S.R.L./data=!4m7!3m6!1s0x47455e12eaeb6931:0xa9708524b213a0d6!8m2!3d45.7351861!4d21.263806!16s%2Fg%2F11c5rmlsvm!19sChIJMWnr6hJeRUcR1qATsiSFcKk?authuser=0&hl=tr&rclk=1",
    "website_url": "http://www.badinsistem.ro/",
    "rating_text": "4,7",
    "stars": null,
    "number_of_reviews": null,
    "price_level": "",
    "open_hours": "",
    "extraction_timestamp": "2025-06-07T14:23:00.983Z",
    "source_name": "google",
    "source_query": "Irrigation Equipment",
    "source_country": "RO",
    "country": "Romania",
    "state": "Timiș County",
    "city": "Dudeştii Vechi"
  },
  {
    "source_id": "ChIJu9QYiMJdRUcROlyKL-xy3eg",
    "name": "Fluidiqa SRL",
    "category": "Fluidiqa SRL",
    "formatted_address": "5,0(1)",
    "phone_number": "+40756100954",
    "source_url": "https://www.google.com/maps/place/Fluidiqa+SRL/data=!4m7!3m6!1s0x47455dc28818d4bb:0xe8dd72ec2f8a5c3a!8m2!3d45.7038491!4d21.1825258!16s%2Fg%2F11c61qxjzj!19sChIJu9QYiMJdRUcROlyKL-xy3eg?authuser=0&hl=tr&rclk=1",
    "website_url": "http://www.fluidiqa.ro/",
    "rating_text": "5,0",
    "stars": null,
    "number_of_reviews": null,
    "price_level": "",
    "open_hours": "",
    "extraction_timestamp": "2025-06-07T14:23:00.984Z",
    "source_name": "google",
    "source_query": "Irrigation Equipment",
    "source_country": "RO",
    "country": "Romania",
    "state": "Timiș County",
    "city": "Dudeştii Vechi"
  },
  {
    "source_id": "ChIJm2k4OBhnRUcRorlDejzLFj8",
    "name": "INTTECH INDUSTRY - Timis",
    "category": "INTTECH INDUSTRY - Timis",
    "formatted_address": "5,0(30)",
    "phone_number": "+40744323626",
    "source_url": "https://www.google.com/maps/place/INTTECH+INDUSTRY+-+Timis/data=!4m7!3m6!1s0x474567183838699b:0x3f16cb3c7a43b9a2!8m2!3d45.8007315!4d21.249204!16s%2Fg%2F11j3g9f8jq!19sChIJm2k4OBhnRUcRorlDejzLFj8?authuser=0&hl=tr&rclk=1",
    "website_url": "http://www.irrishop.ro/",
    "rating_text": "5,0",
    "stars": null,
    "number_of_reviews": null,
    "price_level": "",
    "open_hours": "",
    "extraction_timestamp": "2025-06-07T14:23:00.985Z",
    "source_name": "google",
    "source_query": "Irrigation Equipment",
    "source_country": "RO",
    "country": "Romania",
    "state": "Timiș County",
    "city": "Dudeştii Vechi"
  },
  {
    "source_id": "ChIJvfIO_CdrRUcRHq6Vx10lbvk",
    "name": "Sc Miron Garden s.r.l",
    "category": "Sc Miron Garden s.r.l",
    "formatted_address": "5,0(6)",
    "phone_number": "+40770366209",
    "source_url": "https://www.google.com/maps/place/Sc+Miron+Garden+s.r.l/data=!4m7!3m6!1s0x47456b27fc0ef2bd:0xf96e255dc795ae1e!8m2!3d45.8398631!4d21.0964328!16s%2Fg%2F11r9vn5y5k!19sChIJvfIO_CdrRUcRHq6Vx10lbvk?authuser=0&hl=tr&rclk=1",
    "website_url": "",
    "rating_text": "5,0",
    "stars": null,
    "number_of_reviews": null,
    "price_level": "",
    "open_hours": "",
    "extraction_timestamp": "2025-06-07T14:23:00.985Z",
    "source_name": "google",
    "source_query": "Irrigation Equipment",
    "source_country": "RO",
    "country": "Romania",
    "state": "Timiș County",
    "city": "Dudeştii Vechi"
  },
  {
    "source_id": "ChIJzzGl8ApeRUcR3xJZHCGgt08",
    "name": "irigatii.ro",
    "category": "irigatii.ro",
    "formatted_address": "4,8(65)",
    "phone_number": "+40724011591",
    "source_url": "https://www.google.com/maps/place/irigatii.ro/data=!4m7!3m6!1s0x47455e0af0a531cf:0x4fb7a0211c5912df!8m2!3d45.7293134!4d21.2700735!16s%2Fg%2F1hc2p_4by!19sChIJzzGl8ApeRUcR3xJZHCGgt08?authuser=0&hl=tr&rclk=1",
    "website_url": "http://www.irigatii.ro/",
    "rating_text": "4,8",
    "stars": null,
    "number_of_reviews": null,
    "price_level": "",
    "open_hours": "",
    "extraction_timestamp": "2025-06-07T14:23:00.986Z",
    "source_name": "google",
    "source_query": "Irrigation Equipment",
    "source_country": "RO",
    "country": "Romania",
    "state": "Timiș County",
    "city": "Dudeştii Vechi"
  },
  {
    "source_id": "ChIJCRrxT0flREcR3NZNFl_E_Dg",
    "name": "Stomi Market",
    "category": "Stomi Market",
    "formatted_address": "4,3(112)",
    "phone_number": "",
    "source_url": "https://www.google.com/maps/place/Stomi+Market/data=!4m7!3m6!1s0x4744e5474ff11a09:0x38fcc45f164dd6dc!8m2!3d46.0424508!4d20.4768983!16s%2Fg%2F1td29320!19sChIJCRrxT0flREcR3NZNFl_E_Dg?authuser=0&hl=tr&rclk=1",
    "website_url": "",
    "rating_text": "4,3",
    "stars": null,
    "number_of_reviews": null,
    "price_level": "",
    "open_hours": "",
    "extraction_timestamp": "2025-06-07T14:23:00.987Z",
    "source_name": "google",
    "source_query": "Irrigation Equipment",
    "source_country": "RO",
    "country": "Romania",
    "state": "Timiș County",
    "city": "Dudeştii Vechi"
  },
  {
    "source_id": "ChIJcUVxnDaZRUcRUbUn3okKfP4",
    "name": "SC Tehnica Irigatii-Lacuri Decorative SRL",
    "category": "SC Tehnica Irigatii-Lacuri Decorative SRL",
    "formatted_address": "4,9(32)",
    "phone_number": "+40731208755",
    "source_url": "https://www.google.com/maps/place/SC+Tehnica+Irigatii-Lacuri+Decorative+SRL/data=!4m7!3m6!1s0x474599369c714571:0xfe7c0a89de27b551!8m2!3d46.1409626!4d21.3164797!16s%2Fg%2F11c6vbxz0v!19sChIJcUVxnDaZRUcRUbUn3okKfP4?authuser=0&hl=tr&rclk=1",
    "website_url": "https://www.tehnicairigatii.ro/",
    "rating_text": "4,9",
    "stars": null,
    "number_of_reviews": null,
    "price_level": "",
    "open_hours": "",
    "extraction_timestamp": "2025-06-07T14:23:00.987Z",
    "source_name": "google",
    "source_query": "Irrigation Equipment",
    "source_country": "RO",
    "country": "Romania",
    "state": "Timiș County",
    "city": "Dudeştii Vechi"
  },
  {
    "source_id": "ChIJHf9ZXt_-sUARDzm2kUTL_KA",
    "name": "MAG-irigatii.ro - Rain Bird Romania Sisteme de Irigatii",
    "category": "MAG-irigatii.ro - Rain Bird Romania Sisteme de Irigatii",
    "formatted_address": "4,8(54)",
    "phone_number": "+40748093097",
    "source_url": "https://www.google.com/maps/place/MAG-irigatii.ro+-+Rain+Bird+Romania+Sisteme+de+Irigatii/data=!4m7!3m6!1s0x40b1fedf5e59ff1d:0xa0fccb4491b6390f!8m2!3d44.3735344!4d26.178023!16s%2Fg%2F11bbw_z176!19sChIJHf9ZXt_-sUARDzm2kUTL_KA?authuser=0&hl=tr&rclk=1",
    "website_url": "https://www.mag-irigatii.ro/",
    "rating_text": "4,8",
    "stars": null,
    "number_of_reviews": null,
    "price_level": "",
    "open_hours": "",
    "extraction_timestamp": "2025-06-07T14:23:00.988Z",
    "source_name": "google",
    "source_query": "Irrigation Equipment",
    "source_country": "RO",
    "country": "Romania",
    "state": "Timiș County",
    "city": "Dudeştii Vechi"
  },
  {
    "source_id": "ChIJh4wnOwP_sUARZ7HMbGTT2so",
    "name": "Röhren Und Pumpenwerk Bauer -Reprezentanţă",
    "category": "Röhren Und Pumpenwerk Bauer -Reprezentanţă",
    "formatted_address": "5,0(2)",
    "phone_number": "+40740202275",
    "source_url": "https://www.google.com/maps/place/R%C3%B6hren+Und+Pumpenwerk+Bauer+-Reprezentan%C5%A3%C4%83/data=!4m7!3m6!1s0x40b1ff033b278c87:0xcadad3646cccb167!8m2!3d44.4155432!4d26.1240004!16s%2Fg%2F1hc508_qm!19sChIJh4wnOwP_sUARZ7HMbGTT2so?authuser=0&hl=tr&rclk=1",
    "website_url": "http://www.bauer-at.com/",
    "rating_text": "5,0",
    "stars": null,
    "number_of_reviews": null,
    "price_level": "",
    "open_hours": "",
    "extraction_timestamp": "2025-06-07T14:23:00.988Z",
    "source_name": "google",
    "source_query": "Irrigation Equipment",
    "source_country": "RO",
    "country": "Romania",
    "state": "Timiș County",
    "city": "Dudeştii Vechi"
  },
  {
    "source_id": "ChIJFS0vxUnlREcRyT6i1lckHAE",
    "name": "Stomi 3 Market",
    "category": "Stomi 3 Market",
    "formatted_address": "4,5(17)",
    "phone_number": "",
    "source_url": "https://www.google.com/maps/place/Stomi+3+Market/data=!4m7!3m6!1s0x4744e549c52f2d15:0x11c2457d6a23ec9!8m2!3d46.0491566!4d20.4818411!16s%2Fg%2F11pz71hkjt!19sChIJFS0vxUnlREcRyT6i1lckHAE?authuser=0&hl=tr&rclk=1",
    "website_url": "",
    "rating_text": "4,5",
    "stars": null,
    "number_of_reviews": null,
    "price_level": "",
    "open_hours": "",
    "extraction_timestamp": "2025-06-07T14:23:00.988Z",
    "source_name": "google",
    "source_query": "Irrigation Equipment",
    "source_country": "RO",
    "country": "Romania",
    "state": "Timiș County",
    "city": "Dudeştii Vechi"
  },
  {
    "source_id": "ChIJIcRzPtxrRUcRfG5K7QvQuzc",
    "name": "Tehnodiesel S.R.L.",
    "category": "Tehnodiesel S.R.L.",
    "formatted_address": "4,6(70)",
    "phone_number": "+40256378003",
    "source_url": "https://www.google.com/maps/place/Tehnodiesel+S.R.L./data=!4m7!3m6!1s0x47456bdc3e73c421:0x37bbd00bed4a6e7c!8m2!3d45.8131822!4d21.1099932!16s%2Fg%2F1hc5c80ly!19sChIJIcRzPtxrRUcRfG5K7QvQuzc?authuser=0&hl=tr&rclk=1",
    "website_url": "http://www.tehnodiesel.com/",
    "rating_text": "4,6",
    "stars": null,
    "number_of_reviews": null,
    "price_level": "",
    "open_hours": "",
    "extraction_timestamp": "2025-06-07T14:23:00.989Z",
    "source_name": "google",
    "source_query": "Irrigation Equipment",
    "source_country": "RO",
    "country": "Romania",
    "state": "Timiș County",
    "city": "Dudeştii Vechi"
  },
  {
    "source_id": "ChIJ0ZNe0MDlREcR-54z5uSEuJM",
    "name": "Profi Loco",
    "category": "Profi Loco",
    "formatted_address": "4,0(106)",
    "phone_number": "+40738994443",
    "source_url": "https://www.google.com/maps/place/Profi+Loco/data=!4m7!3m6!1s0x4744e5c0d05e93d1:0x93b884e4e6339efb!8m2!3d46.0424279!4d20.4747876!16s%2Fg%2F11h0rcs6hg!19sChIJ0ZNe0MDlREcR-54z5uSEuJM?authuser=0&hl=tr&rclk=1",
    "website_url": "https://www.profi.ro/?utm_source=google&utm_medium=organic&utm_campaign=dwf_local_seo",
    "rating_text": "4,0",
    "stars": null,
    "number_of_reviews": null,
    "price_level": "",
    "open_hours": "",
    "extraction_timestamp": "2025-06-07T14:23:00.989Z",
    "source_name": "google",
    "source_query": "Irrigation Equipment",
    "source_country": "RO",
    "country": "Romania",
    "state": "Timiș County",
    "city": "Dudeştii Vechi"
  },
  {
    "source_id": "ChIJCX1arEDlREcRAxlacN7ACqU",
    "name": "Help Net",
    "category": "Help Net",
    "formatted_address": "5,0(3)",
    "phone_number": "+40256374248",
    "source_url": "https://www.google.com/maps/place/Help+Net/data=!4m7!3m6!1s0x4744e540ac5a7d09:0xa50ac0de705a1903!8m2!3d46.0432058!4d20.4775546!16s%2Fg%2F11g6tt_90q!19sChIJCX1arEDlREcRAxlacN7ACqU?authuser=0&hl=tr&rclk=1",
    "website_url": "http://www.helpnet.ro/",
    "rating_text": "5,0",
    "stars": null,
    "number_of_reviews": null,
    "price_level": "",
    "open_hours": "",
    "extraction_timestamp": "2025-06-07T14:23:00.990Z",
    "source_name": "google",
    "source_query": "Irrigation Equipment",
    "source_country": "RO",
    "country": "Romania",
    "state": "Timiș County",
    "city": "Dudeştii Vechi"
  }
]
