[
  {
    "source_id": "ChIJm2k4OBhnRUcRorlDejzLFj8",
    "name": "INTTECH INDUSTRY - Timis",
    "category": "INTTECH INDUSTRY - Timis",
    "formatted_address": "5,0(30)",
    "phone_number": "+40744323626",
    "source_url": "https://www.google.com/maps/place/INTTECH+INDUSTRY+-+Timis/data=!4m7!3m6!1s0x474567183838699b:0x3f16cb3c7a43b9a2!8m2!3d45.8007315!4d21.249204!16s%2Fg%2F11j3g9f8jq!19sChIJm2k4OBhnRUcRorlDejzLFj8?authuser=0&hl=tr&rclk=1",
    "website_url": "",
    "rating_text": "5,0",
    "stars": null,
    "number_of_reviews": null,
    "price_level": "",
    "open_hours": "",
    "extraction_timestamp": "2025-06-07T14:39:07.404Z",
    "source_name": "google",
    "source_query": "Irrigation Equipment",
    "source_country": "RO",
    "country": "Romania",
    "state": "Timiș County",
    "city": "Izvin"
  },
  {
    "source_id": "ChIJD7OM9o1dRUcRRqlJ_yffJcE",
    "name": "Gardensis S.R.L.",
    "category": "Gardensis S.R.L.",
    "formatted_address": "4,6(16)",
    "phone_number": "+40724011591",
    "source_url": "https://www.google.com/maps/place/Gardensis+S.R.L./data=!4m7!3m6!1s0x47455d8df68cb30f:0xc125df27ff49a946!8m2!3d45.7292754!4d21.2698954!16s%2Fg%2F1hc7xr42_!19sChIJD7OM9o1dRUcRRqlJ_yffJcE?authuser=0&hl=tr&rclk=1",
    "website_url": "",
    "rating_text": "4,6",
    "stars": null,
    "number_of_reviews": null,
    "price_level": "",
    "open_hours": "",
    "extraction_timestamp": "2025-06-07T14:39:07.404Z",
    "source_name": "google",
    "source_query": "Irrigation Equipment",
    "source_country": "RO",
    "country": "Romania",
    "state": "Timiș County",
    "city": "Izvin"
  },
  {
    "source_id": "ChIJMWnr6hJeRUcR1qATsiSFcKk",
    "name": "Irigații-S.C.Badin-sistem S.R.L.",
    "category": "Irigații-S.C.Badin-sistem S.R.L.",
    "formatted_address": "4,7(76)",
    "phone_number": "+40785111698",
    "source_url": "https://www.google.com/maps/place/Iriga%C8%9Bii-S.C.Badin-sistem+S.R.L./data=!4m7!3m6!1s0x47455e12eaeb6931:0xa9708524b213a0d6!8m2!3d45.7351861!4d21.263806!16s%2Fg%2F11c5rmlsvm!19sChIJMWnr6hJeRUcR1qATsiSFcKk?authuser=0&hl=tr&rclk=1",
    "website_url": "",
    "rating_text": "4,7",
    "stars": null,
    "number_of_reviews": null,
    "price_level": "",
    "open_hours": "",
    "extraction_timestamp": "2025-06-07T14:39:07.405Z",
    "source_name": "google",
    "source_query": "Irrigation Equipment",
    "source_country": "RO",
    "country": "Romania",
    "state": "Timiș County",
    "city": "Izvin"
  },
  {
    "source_id": "ChIJu9QYiMJdRUcROlyKL-xy3eg",
    "name": "Fluidiqa SRL",
    "category": "Fluidiqa SRL",
    "formatted_address": "5,0(1)",
    "phone_number": "+40756100954",
    "source_url": "https://www.google.com/maps/place/Fluidiqa+SRL/data=!4m7!3m6!1s0x47455dc28818d4bb:0xe8dd72ec2f8a5c3a!8m2!3d45.7038491!4d21.1825258!16s%2Fg%2F11c61qxjzj!19sChIJu9QYiMJdRUcROlyKL-xy3eg?authuser=0&hl=tr&rclk=1",
    "website_url": "",
    "rating_text": "5,0",
    "stars": null,
    "number_of_reviews": null,
    "price_level": "",
    "open_hours": "",
    "extraction_timestamp": "2025-06-07T14:39:07.405Z",
    "source_name": "google",
    "source_query": "Irrigation Equipment",
    "source_country": "RO",
    "country": "Romania",
    "state": "Timiș County",
    "city": "Izvin"
  },
  {
    "source_id": "ChIJzzGl8ApeRUcR3xJZHCGgt08",
    "name": "irigatii.ro",
    "category": "irigatii.ro",
    "formatted_address": "4,8(65)",
    "phone_number": "+40724011591",
    "source_url": "https://www.google.com/maps/place/irigatii.ro/data=!4m7!3m6!1s0x47455e0af0a531cf:0x4fb7a0211c5912df!8m2!3d45.7293134!4d21.2700735!16s%2Fg%2F1hc2p_4by!19sChIJzzGl8ApeRUcR3xJZHCGgt08?authuser=0&hl=tr&rclk=1",
    "website_url": "",
    "rating_text": "4,8",
    "stars": null,
    "number_of_reviews": null,
    "price_level": "",
    "open_hours": "",
    "extraction_timestamp": "2025-06-07T14:39:07.406Z",
    "source_name": "google",
    "source_query": "Irrigation Equipment",
    "source_country": "RO",
    "country": "Romania",
    "state": "Timiș County",
    "city": "Izvin"
  },
  {
    "source_id": "ChIJ3yDqlmL_rUARcUs36P9N1XU",
    "name": "Glissando Izvin",
    "category": "Glissando Izvin",
    "formatted_address": "4,1(35)",
    "phone_number": "+40256332852",
    "source_url": "https://www.google.com/maps/place/Glissando+Izvin/data=!4m7!3m6!1s0x40adff6296ea20df:0x75d54dffe8374b71!8m2!3d45.7996366!4d21.4611142!16s%2Fg%2F11g1xvcjwy!19sChIJ3yDqlmL_rUARcUs36P9N1XU?authuser=0&hl=tr&rclk=1",
    "website_url": "",
    "rating_text": "4,1",
    "stars": null,
    "number_of_reviews": null,
    "price_level": "",
    "open_hours": "",
    "extraction_timestamp": "2025-06-07T14:39:07.407Z",
    "source_name": "google",
    "source_query": "Irrigation Equipment",
    "source_country": "RO",
    "country": "Romania",
    "state": "Timiș County",
    "city": "Izvin"
  },
  {
    "source_id": "ChIJ14Ei-e2JT0cRuOp_wwzeqTI",
    "name": "Dufilin Materiale de Constructii",
    "category": "Dufilin Materiale de Constructii",
    "formatted_address": "4,8(28)",
    "phone_number": "+40740892799",
    "source_url": "https://www.google.com/maps/place/Dufilin+Materiale+de+Constructii/data=!4m7!3m6!1s0x474f89edf92281d7:0x32a9de0cc37feab8!8m2!3d45.7980464!4d21.4545393!16s%2Fg%2F11lgkt9_tn!19sChIJ14Ei-e2JT0cRuOp_wwzeqTI?authuser=0&hl=tr&rclk=1",
    "website_url": "",
    "rating_text": "4,8",
    "stars": null,
    "number_of_reviews": null,
    "price_level": "",
    "open_hours": "",
    "extraction_timestamp": "2025-06-07T14:39:07.407Z",
    "source_name": "google",
    "source_query": "Irrigation Equipment",
    "source_country": "RO",
    "country": "Romania",
    "state": "Timiș County",
    "city": "Izvin"
  },
  {
    "source_id": "ChIJNVF0JZyZRUcROrGIQqRikNo",
    "name": "Sc Irigarden Srl",
    "category": "Sc Irigarden Srl",
    "formatted_address": "4,7(52)",
    "phone_number": "+40744310125",
    "source_url": "https://www.google.com/maps/place/Sc+Irigarden+Srl/data=!4m7!3m6!1s0x4745999c25745135:0xda9062a44288b13a!8m2!3d46.14823!4d21.328789!16s%2Fg%2F1tp0cg5b!19sChIJNVF0JZyZRUcROrGIQqRikNo?authuser=0&hl=tr&rclk=1",
    "website_url": "",
    "rating_text": "4,7",
    "stars": null,
    "number_of_reviews": null,
    "price_level": "",
    "open_hours": "",
    "extraction_timestamp": "2025-06-07T14:39:07.408Z",
    "source_name": "google",
    "source_query": "Irrigation Equipment",
    "source_country": "RO",
    "country": "Romania",
    "state": "Timiș County",
    "city": "Izvin"
  },
  {
    "source_id": "ChIJf9d-kU2JT0cRIdgjsFnJBrg",
    "name": "Marrot Depozit Constructii",
    "category": "Marrot Depozit Constructii",
    "formatted_address": "4,8(8)",
    "phone_number": "+40757031279",
    "source_url": "https://www.google.com/maps/place/Marrot+Depozit+Constructii/data=!4m7!3m6!1s0x474f894d917ed77f:0xb806c959b023d821!8m2!3d45.7993017!4d21.4615373!16s%2Fg%2F11qn60z32l!19sChIJf9d-kU2JT0cRIdgjsFnJBrg?authuser=0&hl=tr&rclk=1",
    "website_url": "",
    "rating_text": "4,8",
    "stars": null,
    "number_of_reviews": null,
    "price_level": "",
    "open_hours": "",
    "extraction_timestamp": "2025-06-07T14:39:07.408Z",
    "source_name": "google",
    "source_query": "Irrigation Equipment",
    "source_country": "RO",
    "country": "Romania",
    "state": "Timiș County",
    "city": "Izvin"
  },
  {
    "source_id": "ChIJ2yyu2u-ZRUcRAentcQp81yg",
    "name": "Fish farm accesorii iaz, pesti, sisteme de irigatii",
    "category": "Fish farm accesorii iaz, pesti, sisteme de irigatii",
    "formatted_address": "Fish farm accesorii iaz, pesti, sisteme de irigatii",
    "phone_number": "+40756060729",
    "source_url": "https://www.google.com/maps/place/Fish+farm+accesorii+iaz,+pesti,+sisteme+de+irigatii/data=!4m7!3m6!1s0x474599efdaae2cdb:0x28d77c0a71ede901!8m2!3d46.1692156!4d21.2834742!16s%2Fg%2F11gr2fbfdv!19sChIJ2yyu2u-ZRUcRAentcQp81yg?authuser=0&hl=tr&rclk=1",
    "website_url": "",
    "rating_text": "2,9",
    "stars": null,
    "number_of_reviews": null,
    "price_level": "",
    "open_hours": "",
    "extraction_timestamp": "2025-06-07T14:39:07.409Z",
    "source_name": "google",
    "source_query": "Irrigation Equipment",
    "source_country": "RO",
    "country": "Romania",
    "state": "Timiș County",
    "city": "Izvin"
  },
  {
    "source_id": "ChIJaXn2gtFgRUcRWtrH1smIcNI",
    "name": "Professional Irrigation SRL",
    "category": "Professional Irrigation SRL",
    "formatted_address": "5,0(4)",
    "phone_number": "+40742054946",
    "source_url": "https://www.google.com/maps/place/Professional+Irrigation+SRL/data=!4m7!3m6!1s0x474560d182f67969:0xd27088c9d6c7da5a!8m2!3d45.7715327!4d21.3081823!16s%2Fg%2F12qfsp1nj!19sChIJaXn2gtFgRUcRWtrH1smIcNI?authuser=0&hl=tr&rclk=1",
    "website_url": "",
    "rating_text": "5,0",
    "stars": null,
    "number_of_reviews": null,
    "price_level": "",
    "open_hours": "",
    "extraction_timestamp": "2025-06-07T14:39:07.410Z",
    "source_name": "google",
    "source_query": "Irrigation Equipment",
    "source_country": "RO",
    "country": "Romania",
    "state": "Timiș County",
    "city": "Izvin"
  }
]
