[
  {
    "source_id": "ChIJgURmzti_T0cRTeWnAxxIKb0",
    "name": "RURAL PLANT SRL",
    "category": "RURAL PLANT SRL",
    "formatted_address": "4,7(39)",
    "phone_number": "+40761231076",
    "source_url": "https://www.google.com/maps/place/RURAL+PLANT+SRL/data=!4m7!3m6!1s0x474fbfd8ce664481:0xbd29481c03a7e54d!8m2!3d45.6838012!4d21.9072438!16s%2Fg%2F11gl20ty7c!19sChIJgURmzti_T0cRTeWnAxxIKb0?authuser=0&hl=tr&rclk=1",
    "website_url": "",
    "rating_text": "4,7",
    "stars": null,
    "number_of_reviews": null,
    "price_level": "",
    "open_hours": "",
    "extraction_timestamp": "2025-06-07T14:42:35.545Z",
    "source_name": "google",
    "source_query": "Irrigation Equipment",
    "source_country": "RO",
    "country": "Romania",
    "state": "Timiș County",
    "city": "Lugoj"
  },
  {
    "source_id": "ChIJQT4bo-y-T0cRmaeeDYSjmQY",
    "name": "Intercom Lugostar S.R.L.",
    "category": "Intercom Lugostar S.R.L.",
    "formatted_address": "4,3(44)",
    "phone_number": "+40722301936",
    "source_url": "https://www.google.com/maps/place/Intercom+Lugostar+S.R.L./data=!4m7!3m6!1s0x474fbeeca31b3e41:0x699a3840d9ea799!8m2!3d45.6808245!4d21.9026932!16s%2Fg%2F1hc5dzbyy!19sChIJQT4bo-y-T0cRmaeeDYSjmQY?authuser=0&hl=tr&rclk=1",
    "website_url": "",
    "rating_text": "4,3",
    "stars": null,
    "number_of_reviews": null,
    "price_level": "",
    "open_hours": "",
    "extraction_timestamp": "2025-06-07T14:42:35.545Z",
    "source_name": "google",
    "source_query": "Irrigation Equipment",
    "source_country": "RO",
    "country": "Romania",
    "state": "Timiș County",
    "city": "Lugoj"
  },
  {
    "source_id": "ChIJNTRTIuS_T0cRQCDPhDYmrOg",
    "name": "D.A. Constantin",
    "category": "D.A. Constantin",
    "formatted_address": "4,5(10)",
    "phone_number": "",
    "source_url": "https://www.google.com/maps/place/D.A.+Constantin/data=!4m7!3m6!1s0x474fbfe422533435:0xe8ac263684cf2040!8m2!3d45.6916909!4d21.9073388!16s%2Fg%2F11hdsrr9h1!19sChIJNTRTIuS_T0cRQCDPhDYmrOg?authuser=0&hl=tr&rclk=1",
    "website_url": "",
    "rating_text": "4,5",
    "stars": null,
    "number_of_reviews": null,
    "price_level": "",
    "open_hours": "",
    "extraction_timestamp": "2025-06-07T14:42:35.546Z",
    "source_name": "google",
    "source_query": "Irrigation Equipment",
    "source_country": "RO",
    "country": "Romania",
    "state": "Timiș County",
    "city": "Lugoj"
  },
  {
    "source_id": "ChIJrcRTqIa-T0cRLJhOhrecjBk",
    "name": "Romstal",
    "category": "Romstal",
    "formatted_address": "4,8(38)",
    "phone_number": "+40372123168",
    "source_url": "https://www.google.com/maps/place/Romstal/data=!4m7!3m6!1s0x474fbe86a853c4ad:0x198c9cb7864e982c!8m2!3d45.6961533!4d21.9001155!16s%2Fg%2F11bvtbq7_d!19sChIJrcRTqIa-T0cRLJhOhrecjBk?authuser=0&hl=tr&rclk=1",
    "website_url": "",
    "rating_text": "4,8",
    "stars": null,
    "number_of_reviews": null,
    "price_level": "",
    "open_hours": "",
    "extraction_timestamp": "2025-06-07T14:42:35.546Z",
    "source_name": "google",
    "source_query": "Irrigation Equipment",
    "source_country": "RO",
    "country": "Romania",
    "state": "Timiș County",
    "city": "Lugoj"
  },
  {
    "source_id": "ChIJLQUf4pa-T0cRgEsI6wQGvAI",
    "name": "Bini Distribution",
    "category": "Bini Distribution",
    "formatted_address": "4,6(25)",
    "phone_number": "",
    "source_url": "https://www.google.com/maps/place/Bini+Distribution/data=!4m7!3m6!1s0x474fbe96e21f052d:0x2bc0604eb084b80!8m2!3d45.6870751!4d21.91013!16s%2Fg%2F11gf5l7qw0!19sChIJLQUf4pa-T0cRgEsI6wQGvAI?authuser=0&hl=tr&rclk=1",
    "website_url": "",
    "rating_text": "4,6",
    "stars": null,
    "number_of_reviews": null,
    "price_level": "",
    "open_hours": "",
    "extraction_timestamp": "2025-06-07T14:42:35.546Z",
    "source_name": "google",
    "source_query": "Irrigation Equipment",
    "source_country": "RO",
    "country": "Romania",
    "state": "Timiș County",
    "city": "Lugoj"
  },
  {
    "source_id": "ChIJFUIF-K6-T0cRjw7QMDf6WYY",
    "name": "Sporea Com Lugoj",
    "category": "Sporea Com Lugoj",
    "formatted_address": "4,0(89)",
    "phone_number": "+40256337733",
    "source_url": "https://www.google.com/maps/place/Sporea+Com+Lugoj/data=!4m7!3m6!1s0x474fbeaef8054215:0x8659fa3730d00e8f!8m2!3d45.6864671!4d21.9345785!16s%2Fg%2F11c60g7q44!19sChIJFUIF-K6-T0cRjw7QMDf6WYY?authuser=0&hl=tr&rclk=1",
    "website_url": "",
    "rating_text": "4,0",
    "stars": null,
    "number_of_reviews": null,
    "price_level": "",
    "open_hours": "",
    "extraction_timestamp": "2025-06-07T14:42:35.546Z",
    "source_name": "google",
    "source_query": "Irrigation Equipment",
    "source_country": "RO",
    "country": "Romania",
    "state": "Timiș County",
    "city": "Lugoj"
  },
  {
    "source_id": "ChIJm2k4OBhnRUcRorlDejzLFj8",
    "name": "INTTECH INDUSTRY - Timis",
    "category": "INTTECH INDUSTRY - Timis",
    "formatted_address": "5,0(30)",
    "phone_number": "+40744323626",
    "source_url": "https://www.google.com/maps/place/INTTECH+INDUSTRY+-+Timis/data=!4m7!3m6!1s0x474567183838699b:0x3f16cb3c7a43b9a2!8m2!3d45.8007315!4d21.249204!16s%2Fg%2F11j3g9f8jq!19sChIJm2k4OBhnRUcRorlDejzLFj8?authuser=0&hl=tr&rclk=1",
    "website_url": "",
    "rating_text": "5,0",
    "stars": null,
    "number_of_reviews": null,
    "price_level": "",
    "open_hours": "",
    "extraction_timestamp": "2025-06-07T14:42:35.547Z",
    "source_name": "google",
    "source_query": "Irrigation Equipment",
    "source_country": "RO",
    "country": "Romania",
    "state": "Timiș County",
    "city": "Lugoj"
  },
  {
    "source_id": "ChIJ-ySAIKu_T0cRd5wWwmjT30Q",
    "name": "Spațiul Meu Verde",
    "category": "Spațiul Meu Verde",
    "formatted_address": "5,0(1)",
    "phone_number": "+40726969550",
    "source_url": "https://www.google.com/maps/place/Spa%C8%9Biul+Meu+Verde/data=!4m7!3m6!1s0x474fbfab208024fb:0x44dfd368c2169c77!8m2!3d45.6902473!4d21.9219814!16s%2Fg%2F11rgrnx0m3!19sChIJ-ySAIKu_T0cRd5wWwmjT30Q?authuser=0&hl=tr&rclk=1",
    "website_url": "",
    "rating_text": "5,0",
    "stars": null,
    "number_of_reviews": null,
    "price_level": "",
    "open_hours": "",
    "extraction_timestamp": "2025-06-07T14:42:35.547Z",
    "source_name": "google",
    "source_query": "Irrigation Equipment",
    "source_country": "RO",
    "country": "Romania",
    "state": "Timiș County",
    "city": "Lugoj"
  },
  {
    "source_id": "ChIJD7OM9o1dRUcRRqlJ_yffJcE",
    "name": "Gardensis S.R.L.",
    "category": "Gardensis S.R.L.",
    "formatted_address": "4,6(16)",
    "phone_number": "+40724011591",
    "source_url": "https://www.google.com/maps/place/Gardensis+S.R.L./data=!4m7!3m6!1s0x47455d8df68cb30f:0xc125df27ff49a946!8m2!3d45.7292754!4d21.2698954!16s%2Fg%2F1hc7xr42_!19sChIJD7OM9o1dRUcRRqlJ_yffJcE?authuser=0&hl=tr&rclk=1",
    "website_url": "",
    "rating_text": "4,6",
    "stars": null,
    "number_of_reviews": null,
    "price_level": "",
    "open_hours": "",
    "extraction_timestamp": "2025-06-07T14:42:35.547Z",
    "source_name": "google",
    "source_query": "Irrigation Equipment",
    "source_country": "RO",
    "country": "Romania",
    "state": "Timiș County",
    "city": "Lugoj"
  },
  {
    "source_id": "ChIJ51za9p2_T0cRPN4dY34nr9E",
    "name": "Colțul Naturii",
    "category": "Colțul Naturii",
    "formatted_address": "5,0(15)",
    "phone_number": "+40741250110",
    "source_url": "https://www.google.com/maps/place/Col%C8%9Bul+Naturii/data=!4m7!3m6!1s0x474fbf9df6da5ce7:0xd1af277e631dde3c!8m2!3d45.68068!4d21.904099!16s%2Fg%2F11lg05bvfr!19sChIJ51za9p2_T0cRPN4dY34nr9E?authuser=0&hl=tr&rclk=1",
    "website_url": "",
    "rating_text": "5,0",
    "stars": null,
    "number_of_reviews": null,
    "price_level": "",
    "open_hours": "",
    "extraction_timestamp": "2025-06-07T14:42:35.548Z",
    "source_name": "google",
    "source_query": "Irrigation Equipment",
    "source_country": "RO",
    "country": "Romania",
    "state": "Timiș County",
    "city": "Lugoj"
  },
  {
    "source_id": "ChIJReVLVIS-T0cRaG583DT28r4",
    "name": "Urban S.A.",
    "category": "Urban S.A.",
    "formatted_address": "",
    "phone_number": "+40256356020",
    "source_url": "https://www.google.com/maps/place/Urban+S.A./data=!4m7!3m6!1s0x474fbe84544be545:0xbef2f634dc7c6e68!8m2!3d45.6939593!4d21.9019872!16s%2Fg%2F1hc6d1jkm!19sChIJReVLVIS-T0cRaG583DT28r4?authuser=0&hl=tr&rclk=1",
    "website_url": "",
    "rating_text": "",
    "stars": null,
    "number_of_reviews": null,
    "price_level": "",
    "open_hours": "",
    "extraction_timestamp": "2025-06-07T14:42:35.548Z",
    "source_name": "google",
    "source_query": "Irrigation Equipment",
    "source_country": "RO",
    "country": "Romania",
    "state": "Timiș County",
    "city": "Lugoj"
  },
  {
    "source_id": "ChIJyVLp9S-_T0cRd_y981iiykE",
    "name": "Dedeman",
    "category": "Dedeman",
    "formatted_address": "4,5(1.188)",
    "phone_number": "+40234525525",
    "source_url": "https://www.google.com/maps/place/Dedeman/data=!4m7!3m6!1s0x474fbf2ff5e952c9:0x41caa258f3bdfc77!8m2!3d45.7035129!4d21.8900733!16s%2Fg%2F11jhxqlvc9!19sChIJyVLp9S-_T0cRd_y981iiykE?authuser=0&hl=tr&rclk=1",
    "website_url": "",
    "rating_text": "4,5",
    "stars": null,
    "number_of_reviews": null,
    "price_level": "",
    "open_hours": "",
    "extraction_timestamp": "2025-06-07T14:42:35.549Z",
    "source_name": "google",
    "source_query": "Irrigation Equipment",
    "source_country": "RO",
    "country": "Romania",
    "state": "Timiș County",
    "city": "Lugoj"
  },
  {
    "source_id": "ChIJmWTGTpG-T0cRhNNjxqpCQVU",
    "name": "Kuhntop",
    "category": "Kuhntop",
    "formatted_address": "4,4(700)",
    "phone_number": "+40256351997",
    "source_url": "https://www.google.com/maps/place/Kuhntop/data=!4m7!3m6!1s0x474fbe914ec66499:0x554142aac663d384!8m2!3d45.6944503!4d21.8802185!16s%2Fg%2F1tfs9mjb!19sChIJmWTGTpG-T0cRhNNjxqpCQVU?authuser=0&hl=tr&rclk=1",
    "website_url": "",
    "rating_text": "4,4",
    "stars": null,
    "number_of_reviews": null,
    "price_level": "",
    "open_hours": "",
    "extraction_timestamp": "2025-06-07T14:42:35.550Z",
    "source_name": "google",
    "source_query": "Irrigation Equipment",
    "source_country": "RO",
    "country": "Romania",
    "state": "Timiș County",
    "city": "Lugoj"
  },
  {
    "source_id": "ChIJ_U8TpX--T0cRteerNG3TWkk",
    "name": "Protagonist Piese Auto",
    "category": "Protagonist Piese Auto",
    "formatted_address": "4,5(71)",
    "phone_number": "+40726369582",
    "source_url": "https://www.google.com/maps/place/Protagonist+Piese+Auto/data=!4m7!3m6!1s0x474fbe7fa5134ffd:0x495ad36d34abe7b5!8m2!3d45.6935941!4d21.902035!16s%2Fg%2F11c5s6q_0b!19sChIJ_U8TpX--T0cRteerNG3TWkk?authuser=0&hl=tr&rclk=1",
    "website_url": "",
    "rating_text": "4,5",
    "stars": null,
    "number_of_reviews": null,
    "price_level": "",
    "open_hours": "",
    "extraction_timestamp": "2025-06-07T14:42:35.550Z",
    "source_name": "google",
    "source_query": "Irrigation Equipment",
    "source_country": "RO",
    "country": "Romania",
    "state": "Timiș County",
    "city": "Lugoj"
  },
  {
    "source_id": "ChIJK_2AtZW-T0cRMeGLXHFe8ns",
    "name": "Piața agroalimentară „Timișul”",
    "category": "Piața agroalimentară „Timișul”",
    "formatted_address": "4,0(748)",
    "phone_number": "+40256354220",
    "source_url": "https://www.google.com/maps/place/Pia%C8%9Ba+agroalimentar%C4%83+%E2%80%9ETimi%C8%99ul%E2%80%9D/data=!4m7!3m6!1s0x474fbe95b580fd2b:0x7bf25e715c8be131!8m2!3d45.6835836!4d21.9086681!16s%2Fg%2F1w8w8t3d!19sChIJK_2AtZW-T0cRMeGLXHFe8ns?authuser=0&hl=tr&rclk=1",
    "website_url": "",
    "rating_text": "4,0",
    "stars": null,
    "number_of_reviews": null,
    "price_level": "",
    "open_hours": "",
    "extraction_timestamp": "2025-06-07T14:42:35.550Z",
    "source_name": "google",
    "source_query": "Irrigation Equipment",
    "source_country": "RO",
    "country": "Romania",
    "state": "Timiș County",
    "city": "Lugoj"
  },
  {
    "source_id": "ChIJYccrRfe_T0cRWaQDNy0aHCI",
    "name": "Flavman Instal Construct",
    "category": "Flavman Instal Construct",
    "formatted_address": "4,7(3)",
    "phone_number": "+40724830140",
    "source_url": "https://www.google.com/maps/place/Flavman+Instal+Construct/data=!4m7!3m6!1s0x474fbff7452bc761:0x221c1a2d3703a459!8m2!3d45.6874022!4d21.9114135!16s%2Fg%2F11fdxg51b_!19sChIJYccrRfe_T0cRWaQDNy0aHCI?authuser=0&hl=tr&rclk=1",
    "website_url": "",
    "rating_text": "4,7",
    "stars": null,
    "number_of_reviews": null,
    "price_level": "",
    "open_hours": "",
    "extraction_timestamp": "2025-06-07T14:42:35.551Z",
    "source_name": "google",
    "source_query": "Irrigation Equipment",
    "source_country": "RO",
    "country": "Romania",
    "state": "Timiș County",
    "city": "Lugoj"
  },
  {
    "source_id": "ChIJLR225im9T0cRS-CsygiiUcs",
    "name": "Rompetrol",
    "category": "Rompetrol",
    "formatted_address": "4,3(535)",
    "phone_number": "+40371478923",
    "source_url": "https://www.google.com/maps/place/Rompetrol/data=!4m7!3m6!1s0x474fbd29e6b61d2d:0xcb51a208caace04b!8m2!3d45.7063171!4d21.9185803!16s%2Fg%2F11q8ycz4vc!19sChIJLR225im9T0cRS-CsygiiUcs?authuser=0&hl=tr&rclk=1",
    "website_url": "",
    "rating_text": "4,3",
    "stars": null,
    "number_of_reviews": null,
    "price_level": "",
    "open_hours": "",
    "extraction_timestamp": "2025-06-07T14:42:35.551Z",
    "source_name": "google",
    "source_query": "Irrigation Equipment",
    "source_country": "RO",
    "country": "Romania",
    "state": "Timiș County",
    "city": "Lugoj"
  },
  {
    "source_id": "ChIJK2l7QfW-T0cRFeG8eeAjztA",
    "name": "Lc Electronic",
    "category": "Lc Electronic",
    "formatted_address": "3,7(3)",
    "phone_number": "+40356411592",
    "source_url": "https://www.google.com/maps/place/Lc+Electronic/data=!4m7!3m6!1s0x474fbef5417b692b:0xd0ce23e079bce115!8m2!3d45.682613!4d21.8832428!16s%2Fg%2F11h_6qkkd3!19sChIJK2l7QfW-T0cRFeG8eeAjztA?authuser=0&hl=tr&rclk=1",
    "website_url": "",
    "rating_text": "3,7",
    "stars": null,
    "number_of_reviews": null,
    "price_level": "",
    "open_hours": "",
    "extraction_timestamp": "2025-06-07T14:42:35.552Z",
    "source_name": "google",
    "source_query": "Irrigation Equipment",
    "source_country": "RO",
    "country": "Romania",
    "state": "Timiș County",
    "city": "Lugoj"
  },
  {
    "source_id": "ChIJK60cPpW-T0cRDiUO7eMKQYI",
    "name": "S.C. LORY S.R.L",
    "category": "S.C. LORY S.R.L",
    "formatted_address": "4,5(29)",
    "phone_number": "",
    "source_url": "https://www.google.com/maps/place/S.C.+LORY+S.R.L/data=!4m7!3m6!1s0x474fbe953e1cad2b:0x82410ae3ed0e250e!8m2!3d45.6812996!4d21.9088975!16s%2Fg%2F11dyxkq55s!19sChIJK60cPpW-T0cRDiUO7eMKQYI?authuser=0&hl=tr&rclk=1",
    "website_url": "",
    "rating_text": "4,5",
    "stars": null,
    "number_of_reviews": null,
    "price_level": "",
    "open_hours": "",
    "extraction_timestamp": "2025-06-07T14:42:35.552Z",
    "source_name": "google",
    "source_query": "Irrigation Equipment",
    "source_country": "RO",
    "country": "Romania",
    "state": "Timiș County",
    "city": "Lugoj"
  },
  {
    "source_id": "ChIJh0rCFDmWT0cR8MtwFOQfDZo",
    "name": "SC Siam Product LLC",
    "category": "SC Siam Product LLC",
    "formatted_address": "4,5(11)",
    "phone_number": "+40745377621",
    "source_url": "https://www.google.com/maps/place/SC+Siam+Product+LLC/data=!4m7!3m6!1s0x474f963914c24a87:0x9a0d1fe41470cbf0!8m2!3d45.7387345!4d21.8438288!16s%2Fg%2F1th1bhkn!19sChIJh0rCFDmWT0cR8MtwFOQfDZo?authuser=0&hl=tr&rclk=1",
    "website_url": "",
    "rating_text": "4,5",
    "stars": null,
    "number_of_reviews": null,
    "price_level": "",
    "open_hours": "",
    "extraction_timestamp": "2025-06-07T14:42:35.552Z",
    "source_name": "google",
    "source_query": "Irrigation Equipment",
    "source_country": "RO",
    "country": "Romania",
    "state": "Timiș County",
    "city": "Lugoj"
  },
  {
    "source_id": "ChIJefZ1BABDRUcRaUMQHlcPupw",
    "name": "Stația de pompare Utvin (mal drept)",
    "category": "Stația de pompare Utvin (mal drept)",
    "formatted_address": "5,0(1)",
    "phone_number": "",
    "source_url": "https://www.google.com/maps/place/Sta%C8%9Bia+de+pompare+Utvin+%28mal+drept%29/data=!4m7!3m6!1s0x474543000475f679:0x9cba0f571e104369!8m2!3d45.717913!4d21.1221141!16s%2Fg%2F11vz4k1pr9!19sChIJefZ1BABDRUcRaUMQHlcPupw?authuser=0&hl=tr&rclk=1",
    "website_url": "",
    "rating_text": "5,0",
    "stars": null,
    "number_of_reviews": null,
    "price_level": "",
    "open_hours": "",
    "extraction_timestamp": "2025-06-07T14:42:35.552Z",
    "source_name": "google",
    "source_query": "Irrigation Equipment",
    "source_country": "RO",
    "country": "Romania",
    "state": "Timiș County",
    "city": "Lugoj"
  },
  {
    "source_id": "ChIJBb4Qb---T0cRn-4rrEBLLaY",
    "name": "I.F. Covaci Magazin Alimentar",
    "category": "I.F. Covaci Magazin Alimentar",
    "formatted_address": "4,8(45)",
    "phone_number": "",
    "source_url": "https://www.google.com/maps/place/I.F.+Covaci+Magazin+Alimentar/data=!4m7!3m6!1s0x474fbeef6f10be05:0xa62d4b40ac2bee9f!8m2!3d45.6736801!4d21.8945063!16s%2Fg%2F11h3c4_tvq!19sChIJBb4Qb---T0cRn-4rrEBLLaY?authuser=0&hl=tr&rclk=1",
    "website_url": "",
    "rating_text": "4,8",
    "stars": null,
    "number_of_reviews": null,
    "price_level": "",
    "open_hours": "",
    "extraction_timestamp": "2025-06-07T14:42:35.552Z",
    "source_name": "google",
    "source_query": "Irrigation Equipment",
    "source_country": "RO",
    "country": "Romania",
    "state": "Timiș County",
    "city": "Lugoj"
  },
  {
    "source_id": "ChIJt2AVP2a_T0cRRun4T0xANR8",
    "name": "Profi Standard",
    "category": "Profi Standard",
    "formatted_address": "3,8(470)",
    "phone_number": "+40737007913",
    "source_url": "https://www.google.com/maps/place/Profi+Standard/data=!4m7!3m6!1s0x474fbf663f1560b7:0x1f35404c4ff8e946!8m2!3d45.6822468!4d21.8996602!16s%2Fg%2F11ry9gfvxz!19sChIJt2AVP2a_T0cRRun4T0xANR8?authuser=0&hl=tr&rclk=1",
    "website_url": "",
    "rating_text": "3,8",
    "stars": null,
    "number_of_reviews": null,
    "price_level": "",
    "open_hours": "",
    "extraction_timestamp": "2025-06-07T14:42:35.560Z",
    "source_name": "google",
    "source_query": "Irrigation Equipment",
    "source_country": "RO",
    "country": "Romania",
    "state": "Timiș County",
    "city": "Lugoj"
  },
  {
    "source_id": "ChIJV4geelu_T0cRkMlkLUG3VDc",
    "name": "Magazin Nonstop",
    "category": "Magazin Nonstop",
    "formatted_address": "4,3(76)",
    "phone_number": "+40356178680",
    "source_url": "https://www.google.com/maps/place/Magazin+Nonstop/data=!4m7!3m6!1s0x474fbf5b7a1e8857:0x3754b7412d64c990!8m2!3d45.6884542!4d21.8996375!16s%2Fg%2F11f6nl0b5m!19sChIJV4geelu_T0cRkMlkLUG3VDc?authuser=0&hl=tr&rclk=1",
    "website_url": "",
    "rating_text": "4,3",
    "stars": null,
    "number_of_reviews": null,
    "price_level": "",
    "open_hours": "",
    "extraction_timestamp": "2025-06-07T14:42:35.561Z",
    "source_name": "google",
    "source_query": "Irrigation Equipment",
    "source_country": "RO",
    "country": "Romania",
    "state": "Timiș County",
    "city": "Lugoj"
  },
  {
    "source_id": "ChIJ8XX1uky_T0cROhZYHoad1eQ",
    "name": "Primavera Novita \"Cabana\"",
    "category": "Primavera Novita \"Cabana\"",
    "formatted_address": "4,5(52)",
    "phone_number": "+40766775520",
    "source_url": "https://www.google.com/maps/place/Primavera+Novita+%22Cabana%22/data=!4m7!3m6!1s0x474fbf4cbaf575f1:0xe4d59d861e58163a!8m2!3d45.6940036!4d21.8945073!16s%2Fg%2F11h7ksg6cl!19sChIJ8XX1uky_T0cROhZYHoad1eQ?authuser=0&hl=tr&rclk=1",
    "website_url": "",
    "rating_text": "4,5",
    "stars": null,
    "number_of_reviews": null,
    "price_level": "",
    "open_hours": "",
    "extraction_timestamp": "2025-06-07T14:42:35.561Z",
    "source_name": "google",
    "source_query": "Irrigation Equipment",
    "source_country": "RO",
    "country": "Romania",
    "state": "Timiș County",
    "city": "Lugoj"
  }
]
