[
  {
    "source_id": "ChIJlcjlgC39REcRRnnfpXA-Et0",
    "name": "Euroinstal",
    "category": "Euroinstal",
    "formatted_address": "4,4(19)",
    "phone_number": "+40731055842",
    "source_url": "https://www.google.com/maps/place/Euroinstal/data=!4m7!3m6!1s0x4744fd2d80e5c895:0xdd123e70a5df7946!8m2!3d46.070198!4d20.631668!16s%2Fg%2F11gmxvccyb!19sChIJlcjlgC39REcRRnnfpXA-Et0?authuser=0&hl=tr&rclk=1",
    "website_url": "",
    "rating_text": "4,4",
    "stars": null,
    "number_of_reviews": null,
    "price_level": "",
    "open_hours": "",
    "extraction_timestamp": "2025-06-07T14:14:21.288Z",
    "source_name": "google",
    "source_query": "Irrigation Equipment",
    "source_country": "RO",
    "country": "Romania",
    "state": "Timiș County",
    "city": "Oraş Sânnicolau Mare"
  },
  {
    "source_id": "ChIJ1wk8f1_8REcRE2L5me1Xf4Q",
    "name": "Sem Tract S.R.L.",
    "category": "Sem Tract S.R.L.",
    "formatted_address": "4,7(44)",
    "phone_number": "+40256372700",
    "source_url": "https://www.google.com/maps/place/Sem+Tract+S.R.L./data=!4m7!3m6!1s0x4744fc5f7f3c09d7:0x847f57ed99f96213!8m2!3d46.0686206!4d20.6190836!16s%2Fg%2F1tmxvcjs!19sChIJ1wk8f1_8REcRE2L5me1Xf4Q?authuser=0&hl=tr&rclk=1",
    "website_url": "",
    "rating_text": "4,7",
    "stars": null,
    "number_of_reviews": null,
    "price_level": "",
    "open_hours": "",
    "extraction_timestamp": "2025-06-07T14:14:21.288Z",
    "source_name": "google",
    "source_query": "Irrigation Equipment",
    "source_country": "RO",
    "country": "Romania",
    "state": "Timiș County",
    "city": "Oraş Sânnicolau Mare"
  },
  {
    "source_id": "ChIJrUIJ3lv8REcRziSstc5QP0w",
    "name": "Casa Ioana",
    "category": "Casa Ioana",
    "formatted_address": "5,0(13)",
    "phone_number": "+40726775398",
    "source_url": "https://www.google.com/maps/place/Casa+Ioana/data=!4m7!3m6!1s0x4744fc5bde0942ad:0x4c3f50ceb5ac24ce!8m2!3d46.0735612!4d20.6278152!16s%2Fg%2F11hcw750q9!19sChIJrUIJ3lv8REcRziSstc5QP0w?authuser=0&hl=tr&rclk=1",
    "website_url": "",
    "rating_text": "5,0",
    "stars": null,
    "number_of_reviews": null,
    "price_level": "",
    "open_hours": "",
    "extraction_timestamp": "2025-06-07T14:14:21.289Z",
    "source_name": "google",
    "source_query": "Irrigation Equipment",
    "source_country": "RO",
    "country": "Romania",
    "state": "Timiș County",
    "city": "Oraş Sânnicolau Mare"
  },
  {
    "source_id": "ChIJBTb5IVn8REcRMxBaK_UqmaQ",
    "name": "Genagricola Romania S.R.L.",
    "category": "Genagricola Romania S.R.L.",
    "formatted_address": "4,8(21)",
    "phone_number": "+40256370458",
    "source_url": "https://www.google.com/maps/place/Genagricola+Romania+S.R.L./data=!4m7!3m6!1s0x4744fc5921f93605:0xa4992af52b5a1033!8m2!3d46.0833627!4d20.6261148!16s%2Fg%2F1hc6p19jg!19sChIJBTb5IVn8REcRMxBaK_UqmaQ?authuser=0&hl=tr&rclk=1",
    "website_url": "",
    "rating_text": "4,8",
    "stars": null,
    "number_of_reviews": null,
    "price_level": "",
    "open_hours": "",
    "extraction_timestamp": "2025-06-07T14:14:21.289Z",
    "source_name": "google",
    "source_query": "Irrigation Equipment",
    "source_country": "RO",
    "country": "Romania",
    "state": "Timiș County",
    "city": "Oraş Sânnicolau Mare"
  },
  {
    "source_id": "ChIJOQEDlnz9REcRPxjLS4UKStE",
    "name": "MAX BAU MATERIALE S.R.L Lenu & Alina",
    "category": "MAX BAU MATERIALE S.R.L Lenu & Alina",
    "formatted_address": "4,6(164)",
    "phone_number": "+40722657453",
    "source_url": "https://www.google.com/maps/place/MAX+BAU+MATERIALE+S.R.L+Lenu+%26+Alina/data=!4m7!3m6!1s0x4744fd7c96030139:0xd14a0a854bcb183f!8m2!3d46.0693208!4d20.6316553!16s%2Fg%2F11gl5tjg4y!19sChIJOQEDlnz9REcRPxjLS4UKStE?authuser=0&hl=tr&rclk=1",
    "website_url": "",
    "rating_text": "4,6",
    "stars": null,
    "number_of_reviews": null,
    "price_level": "",
    "open_hours": "",
    "extraction_timestamp": "2025-06-07T14:14:21.290Z",
    "source_name": "google",
    "source_query": "Irrigation Equipment",
    "source_country": "RO",
    "country": "Romania",
    "state": "Timiș County",
    "city": "Oraş Sânnicolau Mare"
  },
  {
    "source_id": "ChIJEcJbkJL9REcR9055N_KAvs8",
    "name": "Glissando Sânnicolau Mare",
    "category": "Glissando Sânnicolau Mare",
    "formatted_address": "4,6(14)",
    "phone_number": "+40256372545",
    "source_url": "https://www.google.com/maps/place/Glissando+S%C3%A2nnicolau+Mare/data=!4m7!3m6!1s0x4744fd92905bc211:0xcfbe80f237794ef7!8m2!3d46.0656127!4d20.6415583!16s%2Fg%2F11f7k8wzhl!19sChIJEcJbkJL9REcR9055N_KAvs8?authuser=0&hl=tr&rclk=1",
    "website_url": "",
    "rating_text": "4,6",
    "stars": null,
    "number_of_reviews": null,
    "price_level": "",
    "open_hours": "",
    "extraction_timestamp": "2025-06-07T14:14:21.290Z",
    "source_name": "google",
    "source_query": "Irrigation Equipment",
    "source_country": "RO",
    "country": "Romania",
    "state": "Timiș County",
    "city": "Oraş Sânnicolau Mare"
  },
  {
    "source_id": "ChIJ4wl737r9REcRi_gB1k5HKy4",
    "name": "Shop Construct by Rodspectra",
    "category": "Shop Construct by Rodspectra",
    "formatted_address": "4,6(59)",
    "phone_number": "+40729016804",
    "source_url": "https://www.google.com/maps/place/Shop+Construct+by+Rodspectra/data=!4m7!3m6!1s0x4744fdbadf7b09e3:0x2e2b474ed601f88b!8m2!3d46.0661793!4d20.6424567!16s%2Fg%2F11j7ygtj33!19sChIJ4wl737r9REcRi_gB1k5HKy4?authuser=0&hl=tr&rclk=1",
    "website_url": "",
    "rating_text": "4,6",
    "stars": null,
    "number_of_reviews": null,
    "price_level": "",
    "open_hours": "",
    "extraction_timestamp": "2025-06-07T14:14:21.290Z",
    "source_name": "google",
    "source_query": "Irrigation Equipment",
    "source_country": "RO",
    "country": "Romania",
    "state": "Timiș County",
    "city": "Oraş Sânnicolau Mare"
  },
  {
    "source_id": "ChIJNVF0JZyZRUcROrGIQqRikNo",
    "name": "Sc Irigarden Srl",
    "category": "Sc Irigarden Srl",
    "formatted_address": "4,7(52)",
    "phone_number": "+40744310125",
    "source_url": "https://www.google.com/maps/place/Sc+Irigarden+Srl/data=!4m7!3m6!1s0x4745999c25745135:0xda9062a44288b13a!8m2!3d46.14823!4d21.328789!16s%2Fg%2F1tp0cg5b!19sChIJNVF0JZyZRUcROrGIQqRikNo?authuser=0&hl=tr&rclk=1",
    "website_url": "",
    "rating_text": "4,7",
    "stars": null,
    "number_of_reviews": null,
    "price_level": "",
    "open_hours": "",
    "extraction_timestamp": "2025-06-07T14:14:21.291Z",
    "source_name": "google",
    "source_query": "Irrigation Equipment",
    "source_country": "RO",
    "country": "Romania",
    "state": "Timiș County",
    "city": "Oraş Sânnicolau Mare"
  },
  {
    "source_id": "ChIJLZiQikz9REcRQGj3DpIUFO0",
    "name": "Zvezda Market",
    "category": "Zvezda Market",
    "formatted_address": "4,4(108)",
    "phone_number": "+40723626854",
    "source_url": "https://www.google.com/maps/place/Zvezda+Market/data=!4m7!3m6!1s0x4744fd4c8a90982d:0xed1414920ef76840!8m2!3d46.0659399!4d20.6218585!16s%2Fg%2F11gr2ph9n3!19sChIJLZiQikz9REcRQGj3DpIUFO0?authuser=0&hl=tr&rclk=1",
    "website_url": "",
    "rating_text": "4,4",
    "stars": null,
    "number_of_reviews": null,
    "price_level": "",
    "open_hours": "",
    "extraction_timestamp": "2025-06-07T14:14:21.291Z",
    "source_name": "google",
    "source_query": "Irrigation Equipment",
    "source_country": "RO",
    "country": "Romania",
    "state": "Timiș County",
    "city": "Oraş Sânnicolau Mare"
  },
  {
    "source_id": "ChIJ2z85ClL9REcR5dxaVCSfrpQ",
    "name": "AQUA FARM SRL",
    "category": "AQUA FARM SRL",
    "formatted_address": "4,8(62)",
    "phone_number": "+40770335383",
    "source_url": "https://www.google.com/maps/place/AQUA+FARM+SRL/data=!4m7!3m6!1s0x4744fd520a393fdb:0x94ae9f24545adce5!8m2!3d46.07379!4d20.618656!16s%2Fg%2F11gxsbwy75!19sChIJ2z85ClL9REcR5dxaVCSfrpQ?authuser=0&hl=tr&rclk=1",
    "website_url": "",
    "rating_text": "4,8",
    "stars": null,
    "number_of_reviews": null,
    "price_level": "",
    "open_hours": "",
    "extraction_timestamp": "2025-06-07T14:14:21.291Z",
    "source_name": "google",
    "source_query": "Irrigation Equipment",
    "source_country": "RO",
    "country": "Romania",
    "state": "Timiș County",
    "city": "Oraş Sânnicolau Mare"
  },
  {
    "source_id": "ChIJD7OM9o1dRUcRRqlJ_yffJcE",
    "name": "Gardensis S.R.L.",
    "category": "Gardensis S.R.L.",
    "formatted_address": "4,6(16)",
    "phone_number": "+40724011591",
    "source_url": "https://www.google.com/maps/place/Gardensis+S.R.L./data=!4m7!3m6!1s0x47455d8df68cb30f:0xc125df27ff49a946!8m2!3d45.7292754!4d21.2698954!16s%2Fg%2F1hc7xr42_!19sChIJD7OM9o1dRUcRRqlJ_yffJcE?authuser=0&hl=tr&rclk=1",
    "website_url": "",
    "rating_text": "4,6",
    "stars": null,
    "number_of_reviews": null,
    "price_level": "",
    "open_hours": "",
    "extraction_timestamp": "2025-06-07T14:14:21.292Z",
    "source_name": "google",
    "source_query": "Irrigation Equipment",
    "source_country": "RO",
    "country": "Romania",
    "state": "Timiș County",
    "city": "Oraş Sânnicolau Mare"
  },
  {
    "source_id": "ChIJRVSKGez9REcRQZIdikRyntU",
    "name": "Termure Dais",
    "category": "Termure Dais",
    "formatted_address": "4,9(9)",
    "phone_number": "+40762647798",
    "source_url": "https://www.google.com/maps/place/Termure+Dais/data=!4m7!3m6!1s0x4744fdec198a5445:0xd59e72448a1d9241!8m2!3d46.0712007!4d20.6239333!16s%2Fg%2F11gwg8643_!19sChIJRVSKGez9REcRQZIdikRyntU?authuser=0&hl=tr&rclk=1",
    "website_url": "",
    "rating_text": "4,9",
    "stars": null,
    "number_of_reviews": null,
    "price_level": "",
    "open_hours": "",
    "extraction_timestamp": "2025-06-07T14:14:21.292Z",
    "source_name": "google",
    "source_query": "Irrigation Equipment",
    "source_country": "RO",
    "country": "Romania",
    "state": "Timiș County",
    "city": "Oraş Sânnicolau Mare"
  },
  {
    "source_id": "ChIJNRKG_Fv8REcR14Rv-n7QWpg",
    "name": "CBA Atamax Supermarket",
    "category": "CBA Atamax Supermarket",
    "formatted_address": "4,4(340)",
    "phone_number": "+40746508942",
    "source_url": "https://www.google.com/maps/place/CBA+Atamax+Supermarket/data=!4m7!3m6!1s0x4744fc5bfc861235:0x985ad07efa6f84d7!8m2!3d46.0738749!4d20.6266758!16s%2Fg%2F11c4bk3m1m!19sChIJNRKG_Fv8REcR14Rv-n7QWpg?authuser=0&hl=tr&rclk=1",
    "website_url": "",
    "rating_text": "4,4",
    "stars": null,
    "number_of_reviews": null,
    "price_level": "",
    "open_hours": "",
    "extraction_timestamp": "2025-06-07T14:14:21.293Z",
    "source_name": "google",
    "source_query": "Irrigation Equipment",
    "source_country": "RO",
    "country": "Romania",
    "state": "Timiș County",
    "city": "Oraş Sânnicolau Mare"
  },
  {
    "source_id": "ChIJu9QYiMJdRUcROlyKL-xy3eg",
    "name": "Fluidiqa SRL",
    "category": "Fluidiqa SRL",
    "formatted_address": "5,0(1)",
    "phone_number": "+40756100954",
    "source_url": "https://www.google.com/maps/place/Fluidiqa+SRL/data=!4m7!3m6!1s0x47455dc28818d4bb:0xe8dd72ec2f8a5c3a!8m2!3d45.7038491!4d21.1825258!16s%2Fg%2F11c61qxjzj!19sChIJu9QYiMJdRUcROlyKL-xy3eg?authuser=0&hl=tr&rclk=1",
    "website_url": "",
    "rating_text": "5,0",
    "stars": null,
    "number_of_reviews": null,
    "price_level": "",
    "open_hours": "",
    "extraction_timestamp": "2025-06-07T14:14:21.293Z",
    "source_name": "google",
    "source_query": "Irrigation Equipment",
    "source_country": "RO",
    "country": "Romania",
    "state": "Timiș County",
    "city": "Oraş Sânnicolau Mare"
  },
  {
    "source_id": "ChIJox8Y7ub9REcRYY_Rk-Xe-aQ",
    "name": "VandProf -Tamplarie PVC & Jaluzele",
    "category": "VandProf -Tamplarie PVC & Jaluzele",
    "formatted_address": "4,8(29)",
    "phone_number": "+40784400700",
    "source_url": "https://www.google.com/maps/place/VandProf+-Tamplarie+PVC+%26+Jaluzele/data=!4m7!3m6!1s0x4744fde6ee181fa3:0xa4f9dee593d18f61!8m2!3d46.0729716!4d20.623282!16s%2Fg%2F11f614pyql!19sChIJox8Y7ub9REcRYY_Rk-Xe-aQ?authuser=0&hl=tr&rclk=1",
    "website_url": "",
    "rating_text": "4,8",
    "stars": null,
    "number_of_reviews": null,
    "price_level": "",
    "open_hours": "",
    "extraction_timestamp": "2025-06-07T14:14:21.293Z",
    "source_name": "google",
    "source_query": "Irrigation Equipment",
    "source_country": "RO",
    "country": "Romania",
    "state": "Timiș County",
    "city": "Oraş Sânnicolau Mare"
  },
  {
    "source_id": "ChIJMWnr6hJeRUcR1qATsiSFcKk",
    "name": "Irigații-S.C.Badin-sistem S.R.L.",
    "category": "Irigații-S.C.Badin-sistem S.R.L.",
    "formatted_address": "4,7(76)",
    "phone_number": "+40785111698",
    "source_url": "https://www.google.com/maps/place/Iriga%C8%9Bii-S.C.Badin-sistem+S.R.L./data=!4m7!3m6!1s0x47455e12eaeb6931:0xa9708524b213a0d6!8m2!3d45.7351861!4d21.263806!16s%2Fg%2F11c5rmlsvm!19sChIJMWnr6hJeRUcR1qATsiSFcKk?authuser=0&hl=tr&rclk=1",
    "website_url": "",
    "rating_text": "4,7",
    "stars": null,
    "number_of_reviews": null,
    "price_level": "",
    "open_hours": "",
    "extraction_timestamp": "2025-06-07T14:14:21.294Z",
    "source_name": "google",
    "source_query": "Irrigation Equipment",
    "source_country": "RO",
    "country": "Romania",
    "state": "Timiș County",
    "city": "Oraş Sânnicolau Mare"
  },
  {
    "source_id": "ChIJyWsxMl_8REcRJlDT9cO40_c",
    "name": "Profi Standard",
    "category": "Profi Standard",
    "formatted_address": "4,1(700)",
    "phone_number": "+40728285224",
    "source_url": "https://www.google.com/maps/place/Profi+Standard/data=!4m7!3m6!1s0x4744fc5f32316bc9:0xf7d3b8c3f5d35026!8m2!3d46.0708048!4d20.6233312!16s%2Fg%2F1z44c5dny!19sChIJyWsxMl_8REcRJlDT9cO40_c?authuser=0&hl=tr&rclk=1",
    "website_url": "",
    "rating_text": "4,1",
    "stars": null,
    "number_of_reviews": null,
    "price_level": "",
    "open_hours": "",
    "extraction_timestamp": "2025-06-07T14:14:21.294Z",
    "source_name": "google",
    "source_query": "Irrigation Equipment",
    "source_country": "RO",
    "country": "Romania",
    "state": "Timiș County",
    "city": "Oraş Sânnicolau Mare"
  },
  {
    "source_id": "ChIJ45uXbWj8REcRMP2YMUfFncg",
    "name": "ZebraPay",
    "category": "ZebraPay",
    "formatted_address": "4,3(22)",
    "phone_number": "+40372776060",
    "source_url": "https://www.google.com/maps/place/ZebraPay/data=!4m7!3m6!1s0x4744fc686d979be3:0xc89dc5473198fd30!8m2!3d46.0801279!4d20.6213224!16s%2Fg%2F11fxdywklq!19sChIJ45uXbWj8REcRMP2YMUfFncg?authuser=0&hl=tr&rclk=1",
    "website_url": "",
    "rating_text": "4,3",
    "stars": null,
    "number_of_reviews": null,
    "price_level": "",
    "open_hours": "",
    "extraction_timestamp": "2025-06-07T14:14:21.295Z",
    "source_name": "google",
    "source_query": "Irrigation Equipment",
    "source_country": "RO",
    "country": "Romania",
    "state": "Timiș County",
    "city": "Oraş Sânnicolau Mare"
  },
  {
    "source_id": "ChIJW-gsIWz9REcREQBI6Eavn_U",
    "name": "Spălătorie Cu Fise",
    "category": "Spălătorie Cu Fise",
    "formatted_address": "4,7(342)",
    "phone_number": "",
    "source_url": "https://www.google.com/maps/place/Sp%C4%83l%C4%83torie+Cu+Fise/data=!4m7!3m6!1s0x4744fd6c212ce85b:0xf59faf46e8480011!8m2!3d46.0810338!4d20.6296739!16s%2Fg%2F11fcmzpvvj!19sChIJW-gsIWz9REcREQBI6Eavn_U?authuser=0&hl=tr&rclk=1",
    "website_url": "",
    "rating_text": "4,7",
    "stars": null,
    "number_of_reviews": null,
    "price_level": "",
    "open_hours": "",
    "extraction_timestamp": "2025-06-07T14:14:21.295Z",
    "source_name": "google",
    "source_query": "Irrigation Equipment",
    "source_country": "RO",
    "country": "Romania",
    "state": "Timiș County",
    "city": "Oraş Sânnicolau Mare"
  },
  {
    "source_id": "ChIJE-VHF8D9REcRUabxKVM49ek",
    "name": "PALFI TIBERIU - ROBI PFA",
    "category": "PALFI TIBERIU - ROBI PFA",
    "formatted_address": "5,0(14)",
    "phone_number": "+40744781907",
    "source_url": "https://www.google.com/maps/place/PALFI+TIBERIU+-+ROBI+PFA/data=!4m7!3m6!1s0x4744fdc01747e513:0xe9f5385329f1a651!8m2!3d46.0777783!4d20.6095183!16s%2Fg%2F11h1zvxln5!19sChIJE-VHF8D9REcRUabxKVM49ek?authuser=0&hl=tr&rclk=1",
    "website_url": "",
    "rating_text": "5,0",
    "stars": null,
    "number_of_reviews": null,
    "price_level": "",
    "open_hours": "",
    "extraction_timestamp": "2025-06-07T14:14:21.295Z",
    "source_name": "google",
    "source_query": "Irrigation Equipment",
    "source_country": "RO",
    "country": "Romania",
    "state": "Timiș County",
    "city": "Oraş Sânnicolau Mare"
  },
  {
    "source_id": "ChIJmUu2lf5DRUcRs735lW7LIiQ",
    "name": "Palm Garden",
    "category": "Palm Garden",
    "formatted_address": "5,0(51)",
    "phone_number": "+40720294100",
    "source_url": "https://www.google.com/maps/place/Palm+Garden/data=!4m7!3m6!1s0x474543fe95b64b99:0x2422cb6e95f9bdb3!8m2!3d45.7522588!4d21.0999943!16s%2Fg%2F11qqmjm4rs!19sChIJmUu2lf5DRUcRs735lW7LIiQ?authuser=0&hl=tr&rclk=1",
    "website_url": "",
    "rating_text": "5,0",
    "stars": null,
    "number_of_reviews": null,
    "price_level": "",
    "open_hours": "",
    "extraction_timestamp": "2025-06-07T14:14:21.296Z",
    "source_name": "google",
    "source_query": "Irrigation Equipment",
    "source_country": "RO",
    "country": "Romania",
    "state": "Timiș County",
    "city": "Oraş Sânnicolau Mare"
  },
  {
    "source_id": "ChIJj7-7za2ZRUcR6M_jOJcGFjk",
    "name": "Agronomo - motounelte Arad",
    "category": "Agronomo - motounelte Arad",
    "formatted_address": "4,3(146)",
    "phone_number": "+40759927777",
    "source_url": "https://www.google.com/maps/place/Agronomo+-+motounelte+Arad/data=!4m7!3m6!1s0x474599adcdbbbf8f:0x3916069738e3cfe8!8m2!3d46.198694!4d21.3377498!16s%2Fg%2F11mr99fc3s!19sChIJj7-7za2ZRUcR6M_jOJcGFjk?authuser=0&hl=tr&rclk=1",
    "website_url": "",
    "rating_text": "4,3",
    "stars": null,
    "number_of_reviews": null,
    "price_level": "",
    "open_hours": "",
    "extraction_timestamp": "2025-06-07T14:14:21.296Z",
    "source_name": "google",
    "source_query": "Irrigation Equipment",
    "source_country": "RO",
    "country": "Romania",
    "state": "Timiș County",
    "city": "Oraş Sânnicolau Mare"
  },
  {
    "source_id": "ChIJefZ1BABDRUcRaUMQHlcPupw",
    "name": "Stația de pompare Utvin (mal drept)",
    "category": "Stația de pompare Utvin (mal drept)",
    "formatted_address": "5,0(1)",
    "phone_number": "",
    "source_url": "https://www.google.com/maps/place/Sta%C8%9Bia+de+pompare+Utvin+%28mal+drept%29/data=!4m7!3m6!1s0x474543000475f679:0x9cba0f571e104369!8m2!3d45.717913!4d21.1221141!16s%2Fg%2F11vz4k1pr9!19sChIJefZ1BABDRUcRaUMQHlcPupw?authuser=0&hl=tr&rclk=1",
    "website_url": "",
    "rating_text": "5,0",
    "stars": null,
    "number_of_reviews": null,
    "price_level": "",
    "open_hours": "",
    "extraction_timestamp": "2025-06-07T14:14:21.296Z",
    "source_name": "google",
    "source_query": "Irrigation Equipment",
    "source_country": "RO",
    "country": "Romania",
    "state": "Timiș County",
    "city": "Oraş Sânnicolau Mare"
  },
  {
    "source_id": "ChIJrRNEBNJnRUcRMUyGJZE96w0",
    "name": "Badehaus Timisoara",
    "category": "Badehaus Timisoara",
    "formatted_address": "5,0(16)",
    "phone_number": "+40751588641",
    "source_url": "https://www.google.com/maps/place/Badehaus+Timisoara/data=!4m7!3m6!1s0x474567d2044413ad:0xdeb3d9125864c31!8m2!3d45.7361451!4d21.2543419!16s%2Fg%2F11jgj93kdj!19sChIJrRNEBNJnRUcRMUyGJZE96w0?authuser=0&hl=tr&rclk=1",
    "website_url": "",
    "rating_text": "5,0",
    "stars": null,
    "number_of_reviews": null,
    "price_level": "",
    "open_hours": "",
    "extraction_timestamp": "2025-06-07T14:14:21.297Z",
    "source_name": "google",
    "source_query": "Irrigation Equipment",
    "source_country": "RO",
    "country": "Romania",
    "state": "Timiș County",
    "city": "Oraş Sânnicolau Mare"
  },
  {
    "source_id": "ChIJPcU4VpBnRUcRQikVyq_fOYI",
    "name": "Romstal",
    "category": "Romstal",
    "formatted_address": "4,2(248)",
    "phone_number": "+40372123110",
    "source_url": "https://www.google.com/maps/place/Romstal/data=!4m7!3m6!1s0x474567905638c53d:0x8239dfafca152942!8m2!3d45.7685415!4d21.2211134!16s%2Fg%2F1tycvf85!19sChIJPcU4VpBnRUcRQikVyq_fOYI?authuser=0&hl=tr&rclk=1",
    "website_url": "",
    "rating_text": "4,2",
    "stars": null,
    "number_of_reviews": null,
    "price_level": "",
    "open_hours": "",
    "extraction_timestamp": "2025-06-07T14:14:21.297Z",
    "source_name": "google",
    "source_query": "Irrigation Equipment",
    "source_country": "RO",
    "country": "Romania",
    "state": "Timiș County",
    "city": "Oraş Sânnicolau Mare"
  },
  {
    "source_id": "ChIJIfnfLTNnRUcRSrDX85TqUB4",
    "name": "Delta Exclusiv s.r.l.",
    "category": "Delta Exclusiv s.r.l.",
    "formatted_address": "5,0(1)",
    "phone_number": "+40744797018",
    "source_url": "https://www.google.com/maps/place/Delta+Exclusiv+s.r.l./data=!4m7!3m6!1s0x474567332ddff921:0x1e50ea94f3d7b04a!8m2!3d45.756904!4d21.239286!16s%2Fg%2F11fkkzwcn_!19sChIJIfnfLTNnRUcRSrDX85TqUB4?authuser=0&hl=tr&rclk=1",
    "website_url": "",
    "rating_text": "5,0",
    "stars": null,
    "number_of_reviews": null,
    "price_level": "",
    "open_hours": "",
    "extraction_timestamp": "2025-06-07T14:14:21.297Z",
    "source_name": "google",
    "source_query": "Irrigation Equipment",
    "source_country": "RO",
    "country": "Romania",
    "state": "Timiș County",
    "city": "Oraş Sânnicolau Mare"
  }
]
