[
  {
    "source_id": "ChIJm2k4OBhnRUcRorlDejzLFj8",
    "name": "INTTECH INDUSTRY - Timis",
    "category": "INTTECH INDUSTRY - Timis",
    "formatted_address": "5,0(30)",
    "phone_number": "+40744323626",
    "source_url": "https://www.google.com/maps/place/INTTECH+INDUSTRY+-+Timis/data=!4m7!3m6!1s0x474567183838699b:0x3f16cb3c7a43b9a2!8m2!3d45.8007315!4d21.249204!16s%2Fg%2F11j3g9f8jq!19sChIJm2k4OBhnRUcRorlDejzLFj8?authuser=0&hl=tr&rclk=1",
    "website_url": "http://www.irrishop.ro/",
    "rating_text": "5,0",
    "stars": null,
    "number_of_reviews": null,
    "price_level": "",
    "open_hours": "",
    "extraction_timestamp": "2025-06-07T14:17:08.914Z",
    "source_name": "google",
    "source_query": "Irrigation Equipment",
    "source_country": "RO",
    "country": "Romania",
    "state": "Timiș County",
    "city": "Oraş Jimbolia"
  },
  {
    "source_id": "ChIJD7OM9o1dRUcRRqlJ_yffJcE",
    "name": "Gardensis S.R.L.",
    "category": "Gardensis S.R.L.",
    "formatted_address": "4,6(16)",
    "phone_number": "+40724011591",
    "source_url": "https://www.google.com/maps/place/Gardensis+S.R.L./data=!4m7!3m6!1s0x47455d8df68cb30f:0xc125df27ff49a946!8m2!3d45.7292754!4d21.2698954!16s%2Fg%2F1hc7xr42_!19sChIJD7OM9o1dRUcRRqlJ_yffJcE?authuser=0&hl=tr&rclk=1",
    "website_url": "http://www.irigatii.ro/",
    "rating_text": "4,6",
    "stars": null,
    "number_of_reviews": null,
    "price_level": "",
    "open_hours": "",
    "extraction_timestamp": "2025-06-07T14:17:08.915Z",
    "source_name": "google",
    "source_query": "Irrigation Equipment",
    "source_country": "RO",
    "country": "Romania",
    "state": "Timiș County",
    "city": "Oraş Jimbolia"
  },
  {
    "source_id": "ChIJu9QYiMJdRUcROlyKL-xy3eg",
    "name": "Fluidiqa SRL",
    "category": "Fluidiqa SRL",
    "formatted_address": "5,0(1)",
    "phone_number": "+40756100954",
    "source_url": "https://www.google.com/maps/place/Fluidiqa+SRL/data=!4m7!3m6!1s0x47455dc28818d4bb:0xe8dd72ec2f8a5c3a!8m2!3d45.7038491!4d21.1825258!16s%2Fg%2F11c61qxjzj!19sChIJu9QYiMJdRUcROlyKL-xy3eg?authuser=0&hl=tr&rclk=1",
    "website_url": "http://www.fluidiqa.ro/",
    "rating_text": "5,0",
    "stars": null,
    "number_of_reviews": null,
    "price_level": "",
    "open_hours": "",
    "extraction_timestamp": "2025-06-07T14:17:08.915Z",
    "source_name": "google",
    "source_query": "Irrigation Equipment",
    "source_country": "RO",
    "country": "Romania",
    "state": "Timiș County",
    "city": "Oraş Jimbolia"
  },
  {
    "source_id": "ChIJVVVlZjojRUcRFTLajFIVm4c",
    "name": "RICHARD HALM S.R.L.",
    "category": "RICHARD HALM S.R.L.",
    "formatted_address": "4,0(1)",
    "phone_number": "+40305400",
    "source_url": "https://www.google.com/maps/place/RICHARD+HALM+S.R.L./data=!4m7!3m6!1s0x4745233a66655555:0x879b15528cda3215!8m2!3d45.8018722!4d20.7233581!16s%2Fg%2F1tgj7lzk!19sChIJVVVlZjojRUcRFTLajFIVm4c?authuser=0&hl=tr&rclk=1",
    "website_url": "",
    "rating_text": "4,0",
    "stars": null,
    "number_of_reviews": null,
    "price_level": "",
    "open_hours": "",
    "extraction_timestamp": "2025-06-07T14:17:08.916Z",
    "source_name": "google",
    "source_query": "Irrigation Equipment",
    "source_country": "RO",
    "country": "Romania",
    "state": "Timiș County",
    "city": "Oraş Jimbolia"
  },
  {
    "source_id": "ChIJQdJo8S8jRUcRTNFwsrdcPDg",
    "name": "Aquis Systems S.R.L.",
    "category": "Aquis Systems S.R.L.",
    "formatted_address": "4,5(8)",
    "phone_number": "+40256708466",
    "source_url": "https://www.google.com/maps/place/Aquis+Systems+S.R.L./data=!4m7!3m6!1s0x4745232ff168d241:0x383c5cb7b270d14c!8m2!3d45.8028097!4d20.722063!16s%2Fg%2F11c54d07cd!19sChIJQdJo8S8jRUcRTNFwsrdcPDg?authuser=0&hl=tr&rclk=1",
    "website_url": "",
    "rating_text": "4,5",
    "stars": null,
    "number_of_reviews": null,
    "price_level": "",
    "open_hours": "",
    "extraction_timestamp": "2025-06-07T14:17:08.916Z",
    "source_name": "google",
    "source_query": "Irrigation Equipment",
    "source_country": "RO",
    "country": "Romania",
    "state": "Timiș County",
    "city": "Oraş Jimbolia"
  },
  {
    "source_id": "ChIJy9h5HswjRUcRtkwo8-14y38",
    "name": "Glissando Jimbolia",
    "category": "Glissando Jimbolia",
    "formatted_address": "4,4(41)",
    "phone_number": "+40256360237",
    "source_url": "https://www.google.com/maps/place/Glissando+Jimbolia/data=!4m7!3m6!1s0x474523cc1e79d8cb:0x7fcb78edf3284cb6!8m2!3d45.7932729!4d20.7228697!16s%2Fg%2F11gk31xvw0!19sChIJy9h5HswjRUcRtkwo8-14y38?authuser=0&hl=tr&rclk=1",
    "website_url": "http://www.glissando.ro/",
    "rating_text": "4,4",
    "stars": null,
    "number_of_reviews": null,
    "price_level": "",
    "open_hours": "",
    "extraction_timestamp": "2025-06-07T14:17:08.916Z",
    "source_name": "google",
    "source_query": "Irrigation Equipment",
    "source_country": "RO",
    "country": "Romania",
    "state": "Timiș County",
    "city": "Oraş Jimbolia"
  },
  {
    "source_id": "ChIJv2q-1x49RUcRH2mNLbsar2o",
    "name": "Aquatim Jimbolia",
    "category": "Aquatim Jimbolia",
    "formatted_address": "4,1(17)",
    "phone_number": "+40256360490",
    "source_url": "https://www.google.com/maps/place/Aquatim+Jimbolia/data=!4m7!3m6!1s0x47453d1ed7be6abf:0x6aaf1abb2d8d691f!8m2!3d45.7856055!4d20.7318328!16s%2Fg%2F11g_x1t7mc!19sChIJv2q-1x49RUcRH2mNLbsar2o?authuser=0&hl=tr&rclk=1",
    "website_url": "",
    "rating_text": "4,1",
    "stars": null,
    "number_of_reviews": null,
    "price_level": "",
    "open_hours": "",
    "extraction_timestamp": "2025-06-07T14:17:08.917Z",
    "source_name": "google",
    "source_query": "Irrigation Equipment",
    "source_country": "RO",
    "country": "Romania",
    "state": "Timiș County",
    "city": "Oraş Jimbolia"
  },
  {
    "source_id": "ChIJzzGl8ApeRUcR3xJZHCGgt08",
    "name": "irigatii.ro",
    "category": "irigatii.ro",
    "formatted_address": "4,8(65)",
    "phone_number": "+40724011591",
    "source_url": "https://www.google.com/maps/place/irigatii.ro/data=!4m7!3m6!1s0x47455e0af0a531cf:0x4fb7a0211c5912df!8m2!3d45.7293134!4d21.2700735!16s%2Fg%2F1hc2p_4by!19sChIJzzGl8ApeRUcR3xJZHCGgt08?authuser=0&hl=tr&rclk=1",
    "website_url": "http://www.irigatii.ro/",
    "rating_text": "4,8",
    "stars": null,
    "number_of_reviews": null,
    "price_level": "",
    "open_hours": "",
    "extraction_timestamp": "2025-06-07T14:17:08.917Z",
    "source_name": "google",
    "source_query": "Irrigation Equipment",
    "source_country": "RO",
    "country": "Romania",
    "state": "Timiș County",
    "city": "Oraş Jimbolia"
  }
]
