[
  {
    "source_id": "ChIJm2k4OBhnRUcRorlDejzLFj8",
    "name": "INTTECH INDUSTRY - Timis",
    "category": "INTTECH INDUSTRY - Timis",
    "formatted_address": "5,0(30)",
    "phone_number": "+40744323626",
    "source_url": "https://www.google.com/maps/place/INTTECH+INDUSTRY+-+Timis/data=!4m7!3m6!1s0x474567183838699b:0x3f16cb3c7a43b9a2!8m2!3d45.8007315!4d21.249204!16s%2Fg%2F11j3g9f8jq!19sChIJm2k4OBhnRUcRorlDejzLFj8?authuser=0&hl=tr&rclk=1",
    "website_url": "",
    "rating_text": "5,0",
    "stars": null,
    "number_of_reviews": null,
    "price_level": "",
    "open_hours": "",
    "extraction_timestamp": "2025-06-07T14:28:58.523Z",
    "source_name": "google",
    "source_query": "Irrigation Equipment",
    "source_country": "RO",
    "country": "Romania",
    "state": "Timiș County",
    "city": "Oraş Deta"
  },
  {
    "source_id": "ChIJD7OM9o1dRUcRRqlJ_yffJcE",
    "name": "Gardensis S.R.L.",
    "category": "Gardensis S.R.L.",
    "formatted_address": "4,6(16)",
    "phone_number": "+40724011591",
    "source_url": "https://www.google.com/maps/place/Gardensis+S.R.L./data=!4m7!3m6!1s0x47455d8df68cb30f:0xc125df27ff49a946!8m2!3d45.7292754!4d21.2698954!16s%2Fg%2F1hc7xr42_!19sChIJD7OM9o1dRUcRRqlJ_yffJcE?authuser=0&hl=tr&rclk=1",
    "website_url": "",
    "rating_text": "4,6",
    "stars": null,
    "number_of_reviews": null,
    "price_level": "",
    "open_hours": "",
    "extraction_timestamp": "2025-06-07T14:28:58.523Z",
    "source_name": "google",
    "source_query": "Irrigation Equipment",
    "source_country": "RO",
    "country": "Romania",
    "state": "Timiș County",
    "city": "Oraş Deta"
  },
  {
    "source_id": "ChIJu9QYiMJdRUcROlyKL-xy3eg",
    "name": "Fluidiqa SRL",
    "category": "Fluidiqa SRL",
    "formatted_address": "5,0(1)",
    "phone_number": "+40756100954",
    "source_url": "https://www.google.com/maps/place/Fluidiqa+SRL/data=!4m7!3m6!1s0x47455dc28818d4bb:0xe8dd72ec2f8a5c3a!8m2!3d45.7038491!4d21.1825258!16s%2Fg%2F11c61qxjzj!19sChIJu9QYiMJdRUcROlyKL-xy3eg?authuser=0&hl=tr&rclk=1",
    "website_url": "",
    "rating_text": "5,0",
    "stars": null,
    "number_of_reviews": null,
    "price_level": "",
    "open_hours": "",
    "extraction_timestamp": "2025-06-07T14:28:58.524Z",
    "source_name": "google",
    "source_query": "Irrigation Equipment",
    "source_country": "RO",
    "country": "Romania",
    "state": "Timiș County",
    "city": "Oraş Deta"
  },
  {
    "source_id": "ChIJJYzCTJwBUEcRVo2Ot69ODkk",
    "name": "Gyofilex",
    "category": "Gyofilex",
    "formatted_address": "5,0(15)",
    "phone_number": "+40744470198",
    "source_url": "https://www.google.com/maps/place/Gyofilex/data=!4m7!3m6!1s0x4750019c4cc28c25:0x490e4eafb78e8d56!8m2!3d45.3974851!4d21.2259303!16s%2Fg%2F11gh7k5gfx!19sChIJJYzCTJwBUEcRVo2Ot69ODkk?authuser=0&hl=tr&rclk=1",
    "website_url": "",
    "rating_text": "5,0",
    "stars": null,
    "number_of_reviews": null,
    "price_level": "",
    "open_hours": "",
    "extraction_timestamp": "2025-06-07T14:28:58.524Z",
    "source_name": "google",
    "source_query": "Irrigation Equipment",
    "source_country": "RO",
    "country": "Romania",
    "state": "Timiș County",
    "city": "Oraş Deta"
  },
  {
    "source_id": "ChIJY5v1o3YBUEcReUYjtSXfhyw",
    "name": "Banat Tractor Impex Deta S.R.L.",
    "category": "Banat Tractor Impex Deta S.R.L.",
    "formatted_address": "4,1(18)",
    "phone_number": "+40724347997",
    "source_url": "https://www.google.com/maps/place/Banat+Tractor+Impex+Deta+S.R.L./data=!4m7!3m6!1s0x47500176a3f59b63:0x2c87df25b5234679!8m2!3d45.3970219!4d21.2209841!16s%2Fg%2F1hc3dqczq!19sChIJY5v1o3YBUEcReUYjtSXfhyw?authuser=0&hl=tr&rclk=1",
    "website_url": "",
    "rating_text": "4,1",
    "stars": null,
    "number_of_reviews": null,
    "price_level": "",
    "open_hours": "",
    "extraction_timestamp": "2025-06-07T14:28:58.525Z",
    "source_name": "google",
    "source_query": "Irrigation Equipment",
    "source_country": "RO",
    "country": "Romania",
    "state": "Timiș County",
    "city": "Oraş Deta"
  },
  {
    "source_id": "ChIJMWnr6hJeRUcR1qATsiSFcKk",
    "name": "Irigații-S.C.Badin-sistem S.R.L.",
    "category": "Irigații-S.C.Badin-sistem S.R.L.",
    "formatted_address": "4,7(76)",
    "phone_number": "+40785111698",
    "source_url": "https://www.google.com/maps/place/Iriga%C8%9Bii-S.C.Badin-sistem+S.R.L./data=!4m7!3m6!1s0x47455e12eaeb6931:0xa9708524b213a0d6!8m2!3d45.7351861!4d21.263806!16s%2Fg%2F11c5rmlsvm!19sChIJMWnr6hJeRUcR1qATsiSFcKk?authuser=0&hl=tr&rclk=1",
    "website_url": "",
    "rating_text": "4,7",
    "stars": null,
    "number_of_reviews": null,
    "price_level": "",
    "open_hours": "",
    "extraction_timestamp": "2025-06-07T14:28:58.525Z",
    "source_name": "google",
    "source_query": "Irrigation Equipment",
    "source_country": "RO",
    "country": "Romania",
    "state": "Timiș County",
    "city": "Oraş Deta"
  },
  {
    "source_id": "ChIJzzGl8ApeRUcR3xJZHCGgt08",
    "name": "irigatii.ro",
    "category": "irigatii.ro",
    "formatted_address": "4,8(65)",
    "phone_number": "+40724011591",
    "source_url": "https://www.google.com/maps/place/irigatii.ro/data=!4m7!3m6!1s0x47455e0af0a531cf:0x4fb7a0211c5912df!8m2!3d45.7293134!4d21.2700735!16s%2Fg%2F1hc2p_4by!19sChIJzzGl8ApeRUcR3xJZHCGgt08?authuser=0&hl=tr&rclk=1",
    "website_url": "",
    "rating_text": "4,8",
    "stars": null,
    "number_of_reviews": null,
    "price_level": "",
    "open_hours": "",
    "extraction_timestamp": "2025-06-07T14:28:58.526Z",
    "source_name": "google",
    "source_query": "Irrigation Equipment",
    "source_country": "RO",
    "country": "Romania",
    "state": "Timiș County",
    "city": "Oraş Deta"
  },
  {
    "source_id": "ChIJuwtnl4cBUEcRie5gLFJ830k",
    "name": "Glissando Deta",
    "category": "Glissando Deta",
    "formatted_address": "4,5(17)",
    "phone_number": "+40256391184",
    "source_url": "https://www.google.com/maps/place/Glissando+Deta/data=!4m7!3m6!1s0x4750018797670bbb:0x49df7c522c60ee89!8m2!3d45.4015009!4d21.2263523!16s%2Fg%2F11f7k8v719!19sChIJuwtnl4cBUEcRie5gLFJ830k?authuser=0&hl=tr&rclk=1",
    "website_url": "",
    "rating_text": "4,5",
    "stars": null,
    "number_of_reviews": null,
    "price_level": "",
    "open_hours": "",
    "extraction_timestamp": "2025-06-07T14:28:58.526Z",
    "source_name": "google",
    "source_query": "Irrigation Equipment",
    "source_country": "RO",
    "country": "Romania",
    "state": "Timiș County",
    "city": "Oraş Deta"
  },
  {
    "source_id": "ChIJMZNLloUBUEcRbd6TlcYI38c",
    "name": "Sporea Com Deta",
    "category": "Sporea Com Deta",
    "formatted_address": "4,4(7)",
    "phone_number": "+40256391010",
    "source_url": "https://www.google.com/maps/place/Sporea+Com+Deta/data=!4m7!3m6!1s0x47500185964b9331:0xc7df08c69593de6d!8m2!3d45.4018286!4d21.230596!16s%2Fg%2F11mp78t1q4!19sChIJMZNLloUBUEcRbd6TlcYI38c?authuser=0&hl=tr&rclk=1",
    "website_url": "",
    "rating_text": "4,4",
    "stars": null,
    "number_of_reviews": null,
    "price_level": "",
    "open_hours": "",
    "extraction_timestamp": "2025-06-07T14:28:58.526Z",
    "source_name": "google",
    "source_query": "Irrigation Equipment",
    "source_country": "RO",
    "country": "Romania",
    "state": "Timiș County",
    "city": "Oraş Deta"
  },
  {
    "source_id": "ChIJu3QMYXRdRUcRJ2-T1_nXT6U",
    "name": "Marprest",
    "category": "Marprest",
    "formatted_address": "5,0(1)",
    "phone_number": "+40721795322",
    "source_url": "https://www.google.com/maps/place/Marprest/data=!4m7!3m6!1s0x47455d74610c74bb:0xa54fd7f9d7936f27!8m2!3d45.7291043!4d21.2078843!16s%2Fg%2F11c1vmmqkp!19sChIJu3QMYXRdRUcRJ2-T1_nXT6U?authuser=0&hl=tr&rclk=1",
    "website_url": "",
    "rating_text": "5,0",
    "stars": null,
    "number_of_reviews": null,
    "price_level": "",
    "open_hours": "",
    "extraction_timestamp": "2025-06-07T14:28:58.527Z",
    "source_name": "google",
    "source_query": "Irrigation Equipment",
    "source_country": "RO",
    "country": "Romania",
    "state": "Timiș County",
    "city": "Oraş Deta"
  },
  {
    "source_id": "ChIJp2OAcQBTRUcRniu69EXSQRA",
    "name": "Stația de Pompare Gad (Timiș, mal stâng)",
    "category": "Stația de Pompare Gad (Timiș, mal stâng)",
    "formatted_address": "Stația de Pompare Gad (Timiș, mal stâng)",
    "phone_number": "",
    "source_url": "https://www.google.com/maps/place/Sta%C8%9Bia+de+Pompare+Gad+%28Timi%C8%99,+mal+st%C3%A2ng%29/data=!4m7!3m6!1s0x47455300718063a7:0x1041d245f4ba2b9e!8m2!3d45.4876294!4d21.0120564!16s%2Fg%2F11lnw65r19!19sChIJp2OAcQBTRUcRniu69EXSQRA?authuser=0&hl=tr&rclk=1",
    "website_url": "",
    "rating_text": "",
    "stars": null,
    "number_of_reviews": null,
    "price_level": "",
    "open_hours": "",
    "extraction_timestamp": "2025-06-07T14:28:58.527Z",
    "source_name": "google",
    "source_query": "Irrigation Equipment",
    "source_country": "RO",
    "country": "Romania",
    "state": "Timiș County",
    "city": "Oraş Deta"
  },
  {
    "source_id": "ChIJFetcN64DUEcRImaBhBft4N8",
    "name": "Materiale de constructii Giorici",
    "category": "Materiale de constructii Giorici",
    "formatted_address": "5,0(10)",
    "phone_number": "+40757450028",
    "source_url": "https://www.google.com/maps/place/Materiale+de+constructii+Giorici/data=!4m7!3m6!1s0x475003ae375ceb15:0xdfe0ed1784816622!8m2!3d45.3634609!4d21.247307!16s%2Fg%2F11twrllvx0!19sChIJFetcN64DUEcRImaBhBft4N8?authuser=0&hl=tr&rclk=1",
    "website_url": "",
    "rating_text": "5,0",
    "stars": null,
    "number_of_reviews": null,
    "price_level": "",
    "open_hours": "",
    "extraction_timestamp": "2025-06-07T14:28:58.528Z",
    "source_name": "google",
    "source_query": "Irrigation Equipment",
    "source_country": "RO",
    "country": "Romania",
    "state": "Timiș County",
    "city": "Oraş Deta"
  },
  {
    "source_id": "ChIJJ6MUlwxeRUcRnA91koGm7oE",
    "name": "Hesse SRL",
    "category": "Hesse SRL",
    "formatted_address": "4,6(70)",
    "phone_number": "+40753044936",
    "source_url": "https://www.google.com/maps/place/Hesse+SRL/data=!4m7!3m6!1s0x47455e0c9714a327:0x81eea68192750f9c!8m2!3d45.7281249!4d21.2740876!16s%2Fg%2F11c1nj7q6k!19sChIJJ6MUlwxeRUcRnA91koGm7oE?authuser=0&hl=tr&rclk=1",
    "website_url": "",
    "rating_text": "4,6",
    "stars": null,
    "number_of_reviews": null,
    "price_level": "",
    "open_hours": "",
    "extraction_timestamp": "2025-06-07T14:28:58.528Z",
    "source_name": "google",
    "source_query": "Irrigation Equipment",
    "source_country": "RO",
    "country": "Romania",
    "state": "Timiș County",
    "city": "Oraş Deta"
  },
  {
    "source_id": "ChIJnUQBrmNcRUcRiYKKcWdU8UE",
    "name": "Datcomp S.R.L.",
    "category": "Datcomp S.R.L.",
    "formatted_address": "4,9(9)",
    "phone_number": "+40729133951",
    "source_url": "https://www.google.com/maps/place/Datcomp+S.R.L./data=!4m7!3m6!1s0x47455c63ae01449d:0x41f15467718a8289!8m2!3d45.696862!4d21.1873457!16s%2Fg%2F1hhmw76h1!19sChIJnUQBrmNcRUcRiYKKcWdU8UE?authuser=0&hl=tr&rclk=1",
    "website_url": "",
    "rating_text": "4,9",
    "stars": null,
    "number_of_reviews": null,
    "price_level": "",
    "open_hours": "",
    "extraction_timestamp": "2025-06-07T14:28:58.529Z",
    "source_name": "google",
    "source_query": "Irrigation Equipment",
    "source_country": "RO",
    "country": "Romania",
    "state": "Timiș County",
    "city": "Oraş Deta"
  },
  {
    "source_id": "ChIJJYdOL-ABUEcRcCu76OWNg_8",
    "name": "Niadal",
    "category": "Niadal",
    "formatted_address": "3,9(31)",
    "phone_number": "",
    "source_url": "https://www.google.com/maps/place/Niadal/data=!4m7!3m6!1s0x475001e02f4e8725:0xff838de5e8bb2b70!8m2!3d45.4019571!4d21.2254357!16s%2Fg%2F11hz6ttnbp!19sChIJJYdOL-ABUEcRcCu76OWNg_8?authuser=0&hl=tr&rclk=1",
    "website_url": "",
    "rating_text": "3,9",
    "stars": null,
    "number_of_reviews": null,
    "price_level": "",
    "open_hours": "",
    "extraction_timestamp": "2025-06-07T14:28:58.529Z",
    "source_name": "google",
    "source_query": "Irrigation Equipment",
    "source_country": "RO",
    "country": "Romania",
    "state": "Timiș County",
    "city": "Oraş Deta"
  },
  {
    "source_id": "ChIJIfnfLTNnRUcRSrDX85TqUB4",
    "name": "Delta Exclusiv s.r.l.",
    "category": "Delta Exclusiv s.r.l.",
    "formatted_address": "5,0(1)",
    "phone_number": "+40744797018",
    "source_url": "https://www.google.com/maps/place/Delta+Exclusiv+s.r.l./data=!4m7!3m6!1s0x474567332ddff921:0x1e50ea94f3d7b04a!8m2!3d45.756904!4d21.239286!16s%2Fg%2F11fkkzwcn_!19sChIJIfnfLTNnRUcRSrDX85TqUB4?authuser=0&hl=tr&rclk=1",
    "website_url": "",
    "rating_text": "5,0",
    "stars": null,
    "number_of_reviews": null,
    "price_level": "",
    "open_hours": "",
    "extraction_timestamp": "2025-06-07T14:28:58.530Z",
    "source_name": "google",
    "source_query": "Irrigation Equipment",
    "source_country": "RO",
    "country": "Romania",
    "state": "Timiș County",
    "city": "Oraş Deta"
  },
  {
    "source_id": "ChIJ3Zuw_skDUEcR9mBh03kg3Kk",
    "name": "Depozit Flora Ceramich 2009 Srl",
    "category": "Depozit Flora Ceramich 2009 Srl",
    "formatted_address": "Yapı Malzemeleri Mağazası · Denta, nr 221Kapalı ⋅ Açılış zamanı: Pzt 08:00 · +40 755 167 422",
    "phone_number": "+40755167422",
    "source_url": "https://www.google.com/maps/place/Depozit+Flora+Ceramich+2009+Srl/data=!4m7!3m6!1s0x475003c9feb09bdd:0xa9dc2079d36160f6!8m2!3d45.3603476!4d21.2481547!16s%2Fg%2F11wvflgvg4!19sChIJ3Zuw_skDUEcR9mBh03kg3Kk?authuser=0&hl=tr&rclk=1",
    "website_url": "",
    "rating_text": "",
    "stars": null,
    "number_of_reviews": null,
    "price_level": "",
    "open_hours": "",
    "extraction_timestamp": "2025-06-07T14:28:58.530Z",
    "source_name": "google",
    "source_query": "Irrigation Equipment",
    "source_country": "RO",
    "country": "Romania",
    "state": "Timiș County",
    "city": "Oraş Deta"
  },
  {
    "source_id": "ChIJcUVxnDaZRUcRUbUn3okKfP4",
    "name": "SC Tehnica Irigatii-Lacuri Decorative SRL",
    "category": "SC Tehnica Irigatii-Lacuri Decorative SRL",
    "formatted_address": "4,9(32)",
    "phone_number": "+40731208755",
    "source_url": "https://www.google.com/maps/place/SC+Tehnica+Irigatii-Lacuri+Decorative+SRL/data=!4m7!3m6!1s0x474599369c714571:0xfe7c0a89de27b551!8m2!3d46.1409626!4d21.3164797!16s%2Fg%2F11c6vbxz0v!19sChIJcUVxnDaZRUcRUbUn3okKfP4?authuser=0&hl=tr&rclk=1",
    "website_url": "",
    "rating_text": "4,9",
    "stars": null,
    "number_of_reviews": null,
    "price_level": "",
    "open_hours": "",
    "extraction_timestamp": "2025-06-07T14:28:58.530Z",
    "source_name": "google",
    "source_query": "Irrigation Equipment",
    "source_country": "RO",
    "country": "Romania",
    "state": "Timiș County",
    "city": "Oraş Deta"
  },
  {
    "source_id": "ChIJH7DdtKtdRUcRLJXQhLkF7o8",
    "name": "System Install",
    "category": "System Install",
    "formatted_address": "5,0(317)",
    "phone_number": "+40735657575",
    "source_url": "https://www.google.com/maps/place/System+Install/data=!4m7!3m6!1s0x47455dabb4ddb01f:0x8fee05b984d0952c!8m2!3d45.7077619!4d21.2100434!16s%2Fg%2F11hy_mn98z!19sChIJH7DdtKtdRUcRLJXQhLkF7o8?authuser=0&hl=tr&rclk=1",
    "website_url": "",
    "rating_text": "5,0",
    "stars": null,
    "number_of_reviews": null,
    "price_level": "",
    "open_hours": "",
    "extraction_timestamp": "2025-06-07T14:28:58.531Z",
    "source_name": "google",
    "source_query": "Irrigation Equipment",
    "source_country": "RO",
    "country": "Romania",
    "state": "Timiș County",
    "city": "Oraş Deta"
  },
  {
    "source_id": "ChIJIYpADkdnRUcRYhFMyNr5B6Y",
    "name": "Landscape Experts - SC FACULTATIV DEZVOLTARE SRL",
    "category": "Landscape Experts - SC FACULTATIV DEZVOLTARE SRL",
    "formatted_address": "5,0(3)",
    "phone_number": "+40720627264",
    "source_url": "https://www.google.com/maps/place/Landscape+Experts+-+SC+FACULTATIV+DEZVOLTARE+SRL/data=!4m7!3m6!1s0x474567470e408a21:0xa607f9dac84c1162!8m2!3d45.7836652!4d21.2066845!16s%2Fg%2F11ryt3szcr!19sChIJIYpADkdnRUcRYhFMyNr5B6Y?authuser=0&hl=tr&rclk=1",
    "website_url": "",
    "rating_text": "5,0",
    "stars": null,
    "number_of_reviews": null,
    "price_level": "",
    "open_hours": "",
    "extraction_timestamp": "2025-06-07T14:28:58.531Z",
    "source_name": "google",
    "source_query": "Irrigation Equipment",
    "source_country": "RO",
    "country": "Romania",
    "state": "Timiș County",
    "city": "Oraş Deta"
  },
  {
    "source_id": "ChIJ2yZvZb5dRUcRP2CPcc58LgU",
    "name": "Sulfatim SRL Timisoara",
    "category": "Sulfatim SRL Timisoara",
    "formatted_address": "5,0(50)",
    "phone_number": "+40730900200",
    "source_url": "https://www.google.com/maps/place/Sulfatim+SRL+Timisoara/data=!4m7!3m6!1s0x47455dbe656f26db:0x52e7cce718f603f!8m2!3d45.7323311!4d21.2336105!16s%2Fg%2F11c553_r_k!19sChIJ2yZvZb5dRUcRP2CPcc58LgU?authuser=0&hl=tr&rclk=1",
    "website_url": "",
    "rating_text": "5,0",
    "stars": null,
    "number_of_reviews": null,
    "price_level": "",
    "open_hours": "",
    "extraction_timestamp": "2025-06-07T14:28:58.531Z",
    "source_name": "google",
    "source_query": "Irrigation Equipment",
    "source_country": "RO",
    "country": "Romania",
    "state": "Timiș County",
    "city": "Oraş Deta"
  },
  {
    "source_id": "ChIJswFoFGxdRUcR7FncKGqo66Q",
    "name": "Vasi' Gradinaru' - Servicii Gradinarit Timisoara",
    "category": "Vasi' Gradinaru' - Servicii Gradinarit Timisoara",
    "formatted_address": "4,9(53)",
    "phone_number": "+40728688758",
    "source_url": "https://www.google.com/maps/place/Vasi%27+Gradinaru%27+-+Servicii+Gradinarit+Timisoara/data=!4m7!3m6!1s0x47455d6c146801b3:0xa4eba86a28dc59ec!8m2!3d45.7452851!4d21.198661!16s%2Fg%2F11c713wgl6!19sChIJswFoFGxdRUcR7FncKGqo66Q?authuser=0&hl=tr&rclk=1",
    "website_url": "",
    "rating_text": "4,9",
    "stars": null,
    "number_of_reviews": null,
    "price_level": "",
    "open_hours": "",
    "extraction_timestamp": "2025-06-07T14:28:58.532Z",
    "source_name": "google",
    "source_query": "Irrigation Equipment",
    "source_country": "RO",
    "country": "Romania",
    "state": "Timiș County",
    "city": "Oraş Deta"
  },
  {
    "source_id": "ChIJH8WgtL9nRUcRtzTLRiyI53o",
    "name": "Instal Impex",
    "category": "Instal Impex",
    "formatted_address": "4,9(12)",
    "phone_number": "+40356423372",
    "source_url": "https://www.google.com/maps/place/Instal+Impex/data=!4m7!3m6!1s0x474567bfb4a0c51f:0x7ae7882c46cb34b7!8m2!3d45.7360839!4d21.2562389!16s%2Fg%2F11b77wly4x!19sChIJH8WgtL9nRUcRtzTLRiyI53o?authuser=0&hl=tr&rclk=1",
    "website_url": "",
    "rating_text": "4,9",
    "stars": null,
    "number_of_reviews": null,
    "price_level": "",
    "open_hours": "",
    "extraction_timestamp": "2025-06-07T14:28:58.532Z",
    "source_name": "google",
    "source_query": "Irrigation Equipment",
    "source_country": "RO",
    "country": "Romania",
    "state": "Timiș County",
    "city": "Oraş Deta"
  },
  {
    "source_id": "ChIJVw2ETl1dRUcRruHEnh6DBo4",
    "name": "Instalator Timisoara Non Stop - Instalatii Sanitare - Montaj Centrala Termica - Apa - Desfundare Canalizare",
    "category": "Instalator Timisoara Non Stop - Instalatii Sanitare - Montaj Centrala Termica - Apa - Desfundare Canalizare",
    "formatted_address": "5,0(1)",
    "phone_number": "+40376300656",
    "source_url": "https://www.google.com/maps/place/Instalator+Timisoara+Non+Stop+-+Instalatii+Sanitare+-+Montaj+Centrala+Termica+-+Apa+-+Desfundare+Canalizare/data=!4m7!3m6!1s0x47455d5d4e840d57:0x8e06831e9ec4e1ae!8m2!3d45.7551681!4d21.2218989!16s%2Fg%2F11xgnytzbn!19sChIJVw2ETl1dRUcRruHEnh6DBo4?authuser=0&hl=tr&rclk=1",
    "website_url": "",
    "rating_text": "5,0",
    "stars": null,
    "number_of_reviews": null,
    "price_level": "",
    "open_hours": "",
    "extraction_timestamp": "2025-06-07T14:28:58.533Z",
    "source_name": "google",
    "source_query": "Irrigation Equipment",
    "source_country": "RO",
    "country": "Romania",
    "state": "Timiș County",
    "city": "Oraş Deta"
  },
  {
    "source_id": "ChIJQT4bo-y-T0cRmaeeDYSjmQY",
    "name": "Intercom Lugostar S.R.L.",
    "category": "Intercom Lugostar S.R.L.",
    "formatted_address": "4,3(44)",
    "phone_number": "+40722301936",
    "source_url": "https://www.google.com/maps/place/Intercom+Lugostar+S.R.L./data=!4m7!3m6!1s0x474fbeeca31b3e41:0x699a3840d9ea799!8m2!3d45.6808245!4d21.9026932!16s%2Fg%2F1hc5dzbyy!19sChIJQT4bo-y-T0cRmaeeDYSjmQY?authuser=0&hl=tr&rclk=1",
    "website_url": "",
    "rating_text": "4,3",
    "stars": null,
    "number_of_reviews": null,
    "price_level": "",
    "open_hours": "",
    "extraction_timestamp": "2025-06-07T14:28:58.533Z",
    "source_name": "google",
    "source_query": "Irrigation Equipment",
    "source_country": "RO",
    "country": "Romania",
    "state": "Timiș County",
    "city": "Oraş Deta"
  },
  {
    "source_id": "ChIJz5xWSdRgRUcRFaqJMoY0fKs",
    "name": "Romagrotehnica",
    "category": "Romagrotehnica",
    "formatted_address": "5,0(9)",
    "phone_number": "+40724550402",
    "source_url": "https://www.google.com/maps/place/Romagrotehnica/data=!4m7!3m6!1s0x474560d449569ccf:0xab7c34863289aa15!8m2!3d45.7769642!4d21.3081965!16s%2Fg%2F11cmrwbg67!19sChIJz5xWSdRgRUcRFaqJMoY0fKs?authuser=0&hl=tr&rclk=1",
    "website_url": "",
    "rating_text": "5,0",
    "stars": null,
    "number_of_reviews": null,
    "price_level": "",
    "open_hours": "",
    "extraction_timestamp": "2025-06-07T14:28:58.533Z",
    "source_name": "google",
    "source_query": "Irrigation Equipment",
    "source_country": "RO",
    "country": "Romania",
    "state": "Timiș County",
    "city": "Oraş Deta"
  }
]
