[
  {
    "source_id": "ChIJm2k4OBhnRUcRorlDejzLFj8",
    "name": "INTTECH INDUSTRY - Timis",
    "category": "INTTECH INDUSTRY - Timis",
    "formatted_address": "5,0(30)",
    "phone_number": "+40744323626",
    "source_url": "https://www.google.com/maps/place/INTTECH+INDUSTRY+-+Timis/data=!4m7!3m6!1s0x474567183838699b:0x3f16cb3c7a43b9a2!8m2!3d45.8007315!4d21.249204!16s%2Fg%2F11j3g9f8jq!19sChIJm2k4OBhnRUcRorlDejzLFj8?authuser=0&hl=tr&rclk=1",
    "website_url": "http://www.irrishop.ro/",
    "rating_text": "5,0",
    "stars": null,
    "number_of_reviews": null,
    "price_level": "",
    "open_hours": "",
    "extraction_timestamp": "2025-06-07T14:32:01.352Z",
    "source_name": "google",
    "source_query": "Irrigation Equipment",
    "source_country": "RO",
    "country": "Romania",
    "state": "Timiș County",
    "city": "Sculia"
  },
  {
    "source_id": "ChIJD7OM9o1dRUcRRqlJ_yffJcE",
    "name": "Gardensis S.R.L.",
    "category": "Gardensis S.R.L.",
    "formatted_address": "4,6(16)",
    "phone_number": "+40724011591",
    "source_url": "https://www.google.com/maps/place/Gardensis+S.R.L./data=!4m7!3m6!1s0x47455d8df68cb30f:0xc125df27ff49a946!8m2!3d45.7292754!4d21.2698954!16s%2Fg%2F1hc7xr42_!19sChIJD7OM9o1dRUcRRqlJ_yffJcE?authuser=0&hl=tr&rclk=1",
    "website_url": "http://www.irigatii.ro/",
    "rating_text": "4,6",
    "stars": null,
    "number_of_reviews": null,
    "price_level": "",
    "open_hours": "",
    "extraction_timestamp": "2025-06-07T14:32:01.353Z",
    "source_name": "google",
    "source_query": "Irrigation Equipment",
    "source_country": "RO",
    "country": "Romania",
    "state": "Timiș County",
    "city": "Sculia"
  },
  {
    "source_id": "ChIJu9QYiMJdRUcROlyKL-xy3eg",
    "name": "Fluidiqa SRL",
    "category": "Fluidiqa SRL",
    "formatted_address": "5,0(1)",
    "phone_number": "+40756100954",
    "source_url": "https://www.google.com/maps/place/Fluidiqa+SRL/data=!4m7!3m6!1s0x47455dc28818d4bb:0xe8dd72ec2f8a5c3a!8m2!3d45.7038491!4d21.1825258!16s%2Fg%2F11c61qxjzj!19sChIJu9QYiMJdRUcROlyKL-xy3eg?authuser=0&hl=tr&rclk=1",
    "website_url": "http://www.fluidiqa.ro/",
    "rating_text": "5,0",
    "stars": null,
    "number_of_reviews": null,
    "price_level": "",
    "open_hours": "",
    "extraction_timestamp": "2025-06-07T14:32:01.354Z",
    "source_name": "google",
    "source_query": "Irrigation Equipment",
    "source_country": "RO",
    "country": "Romania",
    "state": "Timiș County",
    "city": "Sculia"
  },
  {
    "source_id": "ChIJzzGl8ApeRUcR3xJZHCGgt08",
    "name": "irigatii.ro",
    "category": "irigatii.ro",
    "formatted_address": "4,8(65)",
    "phone_number": "+40724011591",
    "source_url": "https://www.google.com/maps/place/irigatii.ro/data=!4m7!3m6!1s0x47455e0af0a531cf:0x4fb7a0211c5912df!8m2!3d45.7293134!4d21.2700735!16s%2Fg%2F1hc2p_4by!19sChIJzzGl8ApeRUcR3xJZHCGgt08?authuser=0&hl=tr&rclk=1",
    "website_url": "http://www.irigatii.ro/",
    "rating_text": "4,8",
    "stars": null,
    "number_of_reviews": null,
    "price_level": "",
    "open_hours": "",
    "extraction_timestamp": "2025-06-07T14:32:01.355Z",
    "source_name": "google",
    "source_query": "Irrigation Equipment",
    "source_country": "RO",
    "country": "Romania",
    "state": "Timiș County",
    "city": "Sculia"
  },
  {
    "source_id": "ChIJMWnr6hJeRUcR1qATsiSFcKk",
    "name": "Irigații-S.C.Badin-sistem S.R.L.",
    "category": "Irigații-S.C.Badin-sistem S.R.L.",
    "formatted_address": "4,7(76)",
    "phone_number": "+40785111698",
    "source_url": "https://www.google.com/maps/place/Iriga%C8%9Bii-S.C.Badin-sistem+S.R.L./data=!4m7!3m6!1s0x47455e12eaeb6931:0xa9708524b213a0d6!8m2!3d45.7351861!4d21.263806!16s%2Fg%2F11c5rmlsvm!19sChIJMWnr6hJeRUcR1qATsiSFcKk?authuser=0&hl=tr&rclk=1",
    "website_url": "http://www.badinsistem.ro/",
    "rating_text": "4,7",
    "stars": null,
    "number_of_reviews": null,
    "price_level": "",
    "open_hours": "",
    "extraction_timestamp": "2025-06-07T14:32:01.355Z",
    "source_name": "google",
    "source_query": "Irrigation Equipment",
    "source_country": "RO",
    "country": "Romania",
    "state": "Timiș County",
    "city": "Sculia"
  },
  {
    "source_id": "ChIJ5WSJMaJdRUcRDBPN8TlgxKI",
    "name": "Infinitrade-Romania - Piese de schimb pt. mentenanta si echipamente industriale",
    "category": "Infinitrade-Romania - Piese de schimb pt. mentenanta si echipamente industriale",
    "formatted_address": "3,8(12)",
    "phone_number": "+40371232404",
    "source_url": "https://www.google.com/maps/place/Infinitrade-Romania+-+Piese+de+schimb+pt.+mentenanta+si+echipamente+industriale/data=!4m7!3m6!1s0x47455da2318964e5:0xa2c46039f1cd130c!8m2!3d45.7757739!4d21.2999637!16s%2Fg%2F11h9z7l0cp!19sChIJ5WSJMaJdRUcRDBPN8TlgxKI?authuser=0&hl=tr&rclk=1",
    "website_url": "https://infinitrade-romania.ro/",
    "rating_text": "3,8",
    "stars": null,
    "number_of_reviews": null,
    "price_level": "",
    "open_hours": "",
    "extraction_timestamp": "2025-06-07T14:32:01.356Z",
    "source_name": "google",
    "source_query": "Irrigation Equipment",
    "source_country": "RO",
    "country": "Romania",
    "state": "Timiș County",
    "city": "Sculia"
  },
  {
    "source_id": "ChIJJ6MUlwxeRUcRnA91koGm7oE",
    "name": "Hesse SRL",
    "category": "Hesse SRL",
    "formatted_address": "4,6(70)",
    "phone_number": "+40753044936",
    "source_url": "https://www.google.com/maps/place/Hesse+SRL/data=!4m7!3m6!1s0x47455e0c9714a327:0x81eea68192750f9c!8m2!3d45.7281249!4d21.2740876!16s%2Fg%2F11c1nj7q6k!19sChIJJ6MUlwxeRUcRnA91koGm7oE?authuser=0&hl=tr&rclk=1",
    "website_url": "http://www.hesse.ro/",
    "rating_text": "4,6",
    "stars": null,
    "number_of_reviews": null,
    "price_level": "",
    "open_hours": "",
    "extraction_timestamp": "2025-06-07T14:32:01.357Z",
    "source_name": "google",
    "source_query": "Irrigation Equipment",
    "source_country": "RO",
    "country": "Romania",
    "state": "Timiș County",
    "city": "Sculia"
  },
  {
    "source_id": "ChIJu3QMYXRdRUcRJ2-T1_nXT6U",
    "name": "Marprest",
    "category": "Marprest",
    "formatted_address": "5,0(1)",
    "phone_number": "+40721795322",
    "source_url": "https://www.google.com/maps/place/Marprest/data=!4m7!3m6!1s0x47455d74610c74bb:0xa54fd7f9d7936f27!8m2!3d45.7291043!4d21.2078843!16s%2Fg%2F11c1vmmqkp!19sChIJu3QMYXRdRUcRJ2-T1_nXT6U?authuser=0&hl=tr&rclk=1",
    "website_url": "http://www.marprest.ro/",
    "rating_text": "5,0",
    "stars": null,
    "number_of_reviews": null,
    "price_level": "",
    "open_hours": "",
    "extraction_timestamp": "2025-06-07T14:32:01.357Z",
    "source_name": "google",
    "source_query": "Irrigation Equipment",
    "source_country": "RO",
    "country": "Romania",
    "state": "Timiș County",
    "city": "Sculia"
  },
  {
    "source_id": "ChIJxbH83mNnRUcRXCZtZxeQlHA",
    "name": "Potop Company S.R.L",
    "category": "Potop Company S.R.L",
    "formatted_address": "4,5(60)",
    "phone_number": "+40737032555",
    "source_url": "https://www.google.com/maps/place/Potop+Company+S.R.L/data=!4m7!3m6!1s0x47456763defcb1c5:0x70949017676d265c!8m2!3d45.7544149!4d21.2493535!16s%2Fg%2F11c1tm1cdp!19sChIJxbH83mNnRUcRXCZtZxeQlHA?authuser=0&hl=tr&rclk=1",
    "website_url": "",
    "rating_text": "4,5",
    "stars": null,
    "number_of_reviews": null,
    "price_level": "",
    "open_hours": "",
    "extraction_timestamp": "2025-06-07T14:32:01.357Z",
    "source_name": "google",
    "source_query": "Irrigation Equipment",
    "source_country": "RO",
    "country": "Romania",
    "state": "Timiș County",
    "city": "Sculia"
  },
  {
    "source_id": "ChIJnUQBrmNcRUcRiYKKcWdU8UE",
    "name": "Datcomp S.R.L.",
    "category": "Datcomp S.R.L.",
    "formatted_address": "4,9(9)",
    "phone_number": "+40729133951",
    "source_url": "https://www.google.com/maps/place/Datcomp+S.R.L./data=!4m7!3m6!1s0x47455c63ae01449d:0x41f15467718a8289!8m2!3d45.696862!4d21.1873457!16s%2Fg%2F1hhmw76h1!19sChIJnUQBrmNcRUcRiYKKcWdU8UE?authuser=0&hl=tr&rclk=1",
    "website_url": "http://www.datcomp.ro/",
    "rating_text": "4,9",
    "stars": null,
    "number_of_reviews": null,
    "price_level": "",
    "open_hours": "",
    "extraction_timestamp": "2025-06-07T14:32:01.358Z",
    "source_name": "google",
    "source_query": "Irrigation Equipment",
    "source_country": "RO",
    "country": "Romania",
    "state": "Timiș County",
    "city": "Sculia"
  },
  {
    "source_id": "ChIJp2OAcQBTRUcRniu69EXSQRA",
    "name": "Stația de Pompare Gad (Timiș, mal stâng)",
    "category": "Stația de Pompare Gad (Timiș, mal stâng)",
    "formatted_address": "Stația de Pompare Gad (Timiș, mal stâng)",
    "phone_number": "",
    "source_url": "https://www.google.com/maps/place/Sta%C8%9Bia+de+Pompare+Gad+%28Timi%C8%99,+mal+st%C3%A2ng%29/data=!4m7!3m6!1s0x47455300718063a7:0x1041d245f4ba2b9e!8m2!3d45.4876294!4d21.0120564!16s%2Fg%2F11lnw65r19!19sChIJp2OAcQBTRUcRniu69EXSQRA?authuser=0&hl=tr&rclk=1",
    "website_url": "",
    "rating_text": "",
    "stars": null,
    "number_of_reviews": null,
    "price_level": "",
    "open_hours": "",
    "extraction_timestamp": "2025-06-07T14:32:01.359Z",
    "source_name": "google",
    "source_query": "Irrigation Equipment",
    "source_country": "RO",
    "country": "Romania",
    "state": "Timiș County",
    "city": "Sculia"
  }
]
