[
  {
    "source_id": "ChIJm2k4OBhnRUcRorlDejzLFj8",
    "name": "INTTECH INDUSTRY - Timis",
    "category": "INTTECH INDUSTRY - Timis",
    "formatted_address": "5,0(30)",
    "phone_number": "+40744323626",
    "source_url": "https://www.google.com/maps/place/INTTECH+INDUSTRY+-+Timis/data=!4m7!3m6!1s0x474567183838699b:0x3f16cb3c7a43b9a2!8m2!3d45.8007315!4d21.249204!16s%2Fg%2F11j3g9f8jq!19sChIJm2k4OBhnRUcRorlDejzLFj8?authuser=0&hl=tr&rclk=1",
    "website_url": "http://www.irrishop.ro/",
    "rating_text": "5,0",
    "stars": null,
    "number_of_reviews": null,
    "price_level": "",
    "open_hours": "",
    "extraction_timestamp": "2025-06-07T14:35:52.335Z",
    "source_name": "google",
    "source_query": "Irrigation Equipment",
    "source_country": "RO",
    "country": "Romania",
    "state": "Timiș County",
    "city": "Sânandrei"
  },
  {
    "source_id": "ChIJD7OM9o1dRUcRRqlJ_yffJcE",
    "name": "Gardensis S.R.L.",
    "category": "Gardensis S.R.L.",
    "formatted_address": "4,6(16)",
    "phone_number": "+40724011591",
    "source_url": "https://www.google.com/maps/place/Gardensis+S.R.L./data=!4m7!3m6!1s0x47455d8df68cb30f:0xc125df27ff49a946!8m2!3d45.7292754!4d21.2698954!16s%2Fg%2F1hc7xr42_!19sChIJD7OM9o1dRUcRRqlJ_yffJcE?authuser=0&hl=tr&rclk=1",
    "website_url": "http://www.irigatii.ro/",
    "rating_text": "4,6",
    "stars": null,
    "number_of_reviews": null,
    "price_level": "",
    "open_hours": "",
    "extraction_timestamp": "2025-06-07T14:35:52.336Z",
    "source_name": "google",
    "source_query": "Irrigation Equipment",
    "source_country": "RO",
    "country": "Romania",
    "state": "Timiș County",
    "city": "Sânandrei"
  },
  {
    "source_id": "ChIJj_KW7oFdRUcRM8oUP8aWZco",
    "name": "Hidropump S.R.L.",
    "category": "Hidropump S.R.L.",
    "formatted_address": "4,6(22)",
    "phone_number": "+40724519545",
    "source_url": "https://www.google.com/maps/place/Hidropump+S.R.L./data=!4m7!3m6!1s0x47455d81ee96f28f:0xca6596c63f14ca33!8m2!3d45.8116595!4d21.2623818!16s%2Fg%2F1w0p4dfv!19sChIJj_KW7oFdRUcRM8oUP8aWZco?authuser=0&hl=tr&rclk=1",
    "website_url": "https://hidropump.ro/",
    "rating_text": "4,6",
    "stars": null,
    "number_of_reviews": null,
    "price_level": "",
    "open_hours": "",
    "extraction_timestamp": "2025-06-07T14:35:52.336Z",
    "source_name": "google",
    "source_query": "Irrigation Equipment",
    "source_country": "RO",
    "country": "Romania",
    "state": "Timiș County",
    "city": "Sânandrei"
  },
  {
    "source_id": "ChIJu9QYiMJdRUcROlyKL-xy3eg",
    "name": "Fluidiqa SRL",
    "category": "Fluidiqa SRL",
    "formatted_address": "5,0(1)",
    "phone_number": "+40756100954",
    "source_url": "https://www.google.com/maps/place/Fluidiqa+SRL/data=!4m7!3m6!1s0x47455dc28818d4bb:0xe8dd72ec2f8a5c3a!8m2!3d45.7038491!4d21.1825258!16s%2Fg%2F11c61qxjzj!19sChIJu9QYiMJdRUcROlyKL-xy3eg?authuser=0&hl=tr&rclk=1",
    "website_url": "http://www.fluidiqa.ro/",
    "rating_text": "5,0",
    "stars": null,
    "number_of_reviews": null,
    "price_level": "",
    "open_hours": "",
    "extraction_timestamp": "2025-06-07T14:35:52.337Z",
    "source_name": "google",
    "source_query": "Irrigation Equipment",
    "source_country": "RO",
    "country": "Romania",
    "state": "Timiș County",
    "city": "Sânandrei"
  },
  {
    "source_id": "ChIJzzGl8ApeRUcR3xJZHCGgt08",
    "name": "irigatii.ro",
    "category": "irigatii.ro",
    "formatted_address": "4,8(65)",
    "phone_number": "+40724011591",
    "source_url": "https://www.google.com/maps/place/irigatii.ro/data=!4m7!3m6!1s0x47455e0af0a531cf:0x4fb7a0211c5912df!8m2!3d45.7293134!4d21.2700735!16s%2Fg%2F1hc2p_4by!19sChIJzzGl8ApeRUcR3xJZHCGgt08?authuser=0&hl=tr&rclk=1",
    "website_url": "http://www.irigatii.ro/",
    "rating_text": "4,8",
    "stars": null,
    "number_of_reviews": null,
    "price_level": "",
    "open_hours": "",
    "extraction_timestamp": "2025-06-07T14:35:52.338Z",
    "source_name": "google",
    "source_query": "Irrigation Equipment",
    "source_country": "RO",
    "country": "Romania",
    "state": "Timiș County",
    "city": "Sânandrei"
  },
  {
    "source_id": "ChIJu3QMYXRdRUcRJ2-T1_nXT6U",
    "name": "Marprest",
    "category": "Marprest",
    "formatted_address": "5,0(1)",
    "phone_number": "+40721795322",
    "source_url": "https://www.google.com/maps/place/Marprest/data=!4m7!3m6!1s0x47455d74610c74bb:0xa54fd7f9d7936f27!8m2!3d45.7291043!4d21.2078843!16s%2Fg%2F11c1vmmqkp!19sChIJu3QMYXRdRUcRJ2-T1_nXT6U?authuser=0&hl=tr&rclk=1",
    "website_url": "http://www.marprest.ro/",
    "rating_text": "5,0",
    "stars": null,
    "number_of_reviews": null,
    "price_level": "",
    "open_hours": "",
    "extraction_timestamp": "2025-06-07T14:35:52.338Z",
    "source_name": "google",
    "source_query": "Irrigation Equipment",
    "source_country": "RO",
    "country": "Romania",
    "state": "Timiș County",
    "city": "Sânandrei"
  },
  {
    "source_id": "ChIJNVF0JZyZRUcROrGIQqRikNo",
    "name": "Sc Irigarden Srl",
    "category": "Sc Irigarden Srl",
    "formatted_address": "4,7(52)",
    "phone_number": "+40744310125",
    "source_url": "https://www.google.com/maps/place/Sc+Irigarden+Srl/data=!4m7!3m6!1s0x4745999c25745135:0xda9062a44288b13a!8m2!3d46.14823!4d21.328789!16s%2Fg%2F1tp0cg5b!19sChIJNVF0JZyZRUcROrGIQqRikNo?authuser=0&hl=tr&rclk=1",
    "website_url": "https://www.irigarden.ro/",
    "rating_text": "4,7",
    "stars": null,
    "number_of_reviews": null,
    "price_level": "",
    "open_hours": "",
    "extraction_timestamp": "2025-06-07T14:35:52.338Z",
    "source_name": "google",
    "source_query": "Irrigation Equipment",
    "source_country": "RO",
    "country": "Romania",
    "state": "Timiș County",
    "city": "Sânandrei"
  },
  {
    "source_id": "ChIJIfnfLTNnRUcRSrDX85TqUB4",
    "name": "Delta Exclusiv s.r.l.",
    "category": "Delta Exclusiv s.r.l.",
    "formatted_address": "5,0(1)",
    "phone_number": "+40744797018",
    "source_url": "https://www.google.com/maps/place/Delta+Exclusiv+s.r.l./data=!4m7!3m6!1s0x474567332ddff921:0x1e50ea94f3d7b04a!8m2!3d45.756904!4d21.239286!16s%2Fg%2F11fkkzwcn_!19sChIJIfnfLTNnRUcRSrDX85TqUB4?authuser=0&hl=tr&rclk=1",
    "website_url": "https://www.deltaexclusiv.ro/",
    "rating_text": "5,0",
    "stars": null,
    "number_of_reviews": null,
    "price_level": "",
    "open_hours": "",
    "extraction_timestamp": "2025-06-07T14:35:52.339Z",
    "source_name": "google",
    "source_query": "Irrigation Equipment",
    "source_country": "RO",
    "country": "Romania",
    "state": "Timiș County",
    "city": "Sânandrei"
  },
  {
    "source_id": "ChIJC6g01QBnRUcRxXJBepvvwpw",
    "name": "Agri Alianta SRL",
    "category": "Agri Alianta SRL",
    "formatted_address": "4,5(4)",
    "phone_number": "",
    "source_url": "https://www.google.com/maps/place/Agri+Alianta+SRL/data=!4m7!3m6!1s0x47456700d534a80b:0x9cc2ef9b7a4172c5!8m2!3d45.7745832!4d21.2995893!16s%2Fg%2F11hds34hqr!19sChIJC6g01QBnRUcRxXJBepvvwpw?authuser=0&hl=tr&rclk=1",
    "website_url": "",
    "rating_text": "4,5",
    "stars": null,
    "number_of_reviews": null,
    "price_level": "",
    "open_hours": "",
    "extraction_timestamp": "2025-06-07T14:35:52.339Z",
    "source_name": "google",
    "source_query": "Irrigation Equipment",
    "source_country": "RO",
    "country": "Romania",
    "state": "Timiș County",
    "city": "Sânandrei"
  },
  {
    "source_id": "ChIJcUVxnDaZRUcRUbUn3okKfP4",
    "name": "SC Tehnica Irigatii-Lacuri Decorative SRL",
    "category": "SC Tehnica Irigatii-Lacuri Decorative SRL",
    "formatted_address": "4,9(32)",
    "phone_number": "+40731208755",
    "source_url": "https://www.google.com/maps/place/SC+Tehnica+Irigatii-Lacuri+Decorative+SRL/data=!4m7!3m6!1s0x474599369c714571:0xfe7c0a89de27b551!8m2!3d46.1409626!4d21.3164797!16s%2Fg%2F11c6vbxz0v!19sChIJcUVxnDaZRUcRUbUn3okKfP4?authuser=0&hl=tr&rclk=1",
    "website_url": "https://www.tehnicairigatii.ro/",
    "rating_text": "4,9",
    "stars": null,
    "number_of_reviews": null,
    "price_level": "",
    "open_hours": "",
    "extraction_timestamp": "2025-06-07T14:35:52.340Z",
    "source_name": "google",
    "source_query": "Irrigation Equipment",
    "source_country": "RO",
    "country": "Romania",
    "state": "Timiș County",
    "city": "Sânandrei"
  },
  {
    "source_id": "ChIJ2yyu2u-ZRUcRAentcQp81yg",
    "name": "Fish farm accesorii iaz, pesti, sisteme de irigatii",
    "category": "Fish farm accesorii iaz, pesti, sisteme de irigatii",
    "formatted_address": "Fish farm accesorii iaz, pesti, sisteme de irigatii",
    "phone_number": "+40756060729",
    "source_url": "https://www.google.com/maps/place/Fish+farm+accesorii+iaz,+pesti,+sisteme+de+irigatii/data=!4m7!3m6!1s0x474599efdaae2cdb:0x28d77c0a71ede901!8m2!3d46.1692156!4d21.2834742!16s%2Fg%2F11gr2fbfdv!19sChIJ2yyu2u-ZRUcRAentcQp81yg?authuser=0&hl=tr&rclk=1",
    "website_url": "http://www.fish-farm.ro/",
    "rating_text": "2,9",
    "stars": null,
    "number_of_reviews": null,
    "price_level": "",
    "open_hours": "",
    "extraction_timestamp": "2025-06-07T14:35:52.340Z",
    "source_name": "google",
    "source_query": "Irrigation Equipment",
    "source_country": "RO",
    "country": "Romania",
    "state": "Timiș County",
    "city": "Sânandrei"
  },
  {
    "source_id": "ChIJz5xWSdRgRUcRFaqJMoY0fKs",
    "name": "Romagrotehnica",
    "category": "Romagrotehnica",
    "formatted_address": "5,0(9)",
    "phone_number": "+40724550402",
    "source_url": "https://www.google.com/maps/place/Romagrotehnica/data=!4m7!3m6!1s0x474560d449569ccf:0xab7c34863289aa15!8m2!3d45.7769642!4d21.3081965!16s%2Fg%2F11cmrwbg67!19sChIJz5xWSdRgRUcRFaqJMoY0fKs?authuser=0&hl=tr&rclk=1",
    "website_url": "https://romagrotehnica.ro/",
    "rating_text": "5,0",
    "stars": null,
    "number_of_reviews": null,
    "price_level": "",
    "open_hours": "",
    "extraction_timestamp": "2025-06-07T14:35:52.341Z",
    "source_name": "google",
    "source_query": "Irrigation Equipment",
    "source_country": "RO",
    "country": "Romania",
    "state": "Timiș County",
    "city": "Sânandrei"
  },
  {
    "source_id": "ChIJBRg3BGVvRUcRLODRHNAsoQ8",
    "name": "KLUMEA GARDEN SRL",
    "category": "KLUMEA GARDEN SRL",
    "formatted_address": "",
    "phone_number": "+40724293141",
    "source_url": "https://www.google.com/maps/place/KLUMEA+GARDEN+SRL/data=!4m7!3m6!1s0x47456f6504371805:0xfa12cd01cd1e02c!8m2!3d45.8549814!4d21.1660803!16s%2Fg%2F11n32sjp7g!19sChIJBRg3BGVvRUcRLODRHNAsoQ8?authuser=0&hl=tr&rclk=1",
    "website_url": "",
    "rating_text": "",
    "stars": null,
    "number_of_reviews": null,
    "price_level": "",
    "open_hours": "",
    "extraction_timestamp": "2025-06-07T14:35:52.341Z",
    "source_name": "google",
    "source_query": "Irrigation Equipment",
    "source_country": "RO",
    "country": "Romania",
    "state": "Timiș County",
    "city": "Sânandrei"
  },
  {
    "source_id": "ChIJMWnr6hJeRUcR1qATsiSFcKk",
    "name": "Irigații-S.C.Badin-sistem S.R.L.",
    "category": "Irigații-S.C.Badin-sistem S.R.L.",
    "formatted_address": "4,7(76)",
    "phone_number": "+40785111698",
    "source_url": "https://www.google.com/maps/place/Iriga%C8%9Bii-S.C.Badin-sistem+S.R.L./data=!4m7!3m6!1s0x47455e12eaeb6931:0xa9708524b213a0d6!8m2!3d45.7351861!4d21.263806!16s%2Fg%2F11c5rmlsvm!19sChIJMWnr6hJeRUcR1qATsiSFcKk?authuser=0&hl=tr&rclk=1",
    "website_url": "http://www.badinsistem.ro/",
    "rating_text": "4,7",
    "stars": null,
    "number_of_reviews": null,
    "price_level": "",
    "open_hours": "",
    "extraction_timestamp": "2025-06-07T14:35:52.341Z",
    "source_name": "google",
    "source_query": "Irrigation Equipment",
    "source_country": "RO",
    "country": "Romania",
    "state": "Timiș County",
    "city": "Sânandrei"
  },
  {
    "source_id": "ChIJo0DbuQxrRUcRRJWM1n0kEKw",
    "name": "SEE Solution BM - Sisteme de pompare",
    "category": "SEE Solution BM - Sisteme de pompare",
    "formatted_address": "",
    "phone_number": "+40729081215",
    "source_url": "https://www.google.com/maps/place/SEE+Solution+BM+-+Sisteme+de+pompare/data=!4m7!3m6!1s0x47456b0cb9db40a3:0xac10247dd68c9544!8m2!3d45.8364614!4d21.0612403!16s%2Fg%2F11k4swqb9d!19sChIJo0DbuQxrRUcRRJWM1n0kEKw?authuser=0&hl=tr&rclk=1",
    "website_url": "",
    "rating_text": "",
    "stars": null,
    "number_of_reviews": null,
    "price_level": "",
    "open_hours": "",
    "extraction_timestamp": "2025-06-07T14:35:52.342Z",
    "source_name": "google",
    "source_query": "Irrigation Equipment",
    "source_country": "RO",
    "country": "Romania",
    "state": "Timiș County",
    "city": "Sânandrei"
  },
  {
    "source_id": "ChIJ85yFN7ldRUcRCM-S6obemM0",
    "name": "Hidromet S.R.L.",
    "category": "Hidromet S.R.L.",
    "formatted_address": "4,6(17)",
    "phone_number": "+40374200636",
    "source_url": "https://www.google.com/maps/place/Hidromet+S.R.L./data=!4m7!3m6!1s0x47455db937859cf3:0xcd98de86ea92cf08!8m2!3d45.7289414!4d21.2318315!16s%2Fg%2F1hcb5hysh!19sChIJ85yFN7ldRUcRCM-S6obemM0?authuser=0&hl=tr&rclk=1",
    "website_url": "http://hidromet.ro/",
    "rating_text": "4,6",
    "stars": null,
    "number_of_reviews": null,
    "price_level": "",
    "open_hours": "",
    "extraction_timestamp": "2025-06-07T14:35:52.342Z",
    "source_name": "google",
    "source_query": "Irrigation Equipment",
    "source_country": "RO",
    "country": "Romania",
    "state": "Timiș County",
    "city": "Sânandrei"
  },
  {
    "source_id": "ChIJsWtpcedcRUcRlWliCmI627o",
    "name": "AquaFlow SRL",
    "category": "AquaFlow SRL",
    "formatted_address": "5,0(12)",
    "phone_number": "+40753100880",
    "source_url": "https://www.google.com/maps/place/AquaFlow+SRL/data=!4m7!3m6!1s0x47455ce771696bb1:0xbadb3a620a626995!8m2!3d45.719172!4d21.1725477!16s%2Fg%2F11gd1wncz6!19sChIJsWtpcedcRUcRlWliCmI627o?authuser=0&hl=tr&rclk=1",
    "website_url": "http://www.aquaflow.ro/",
    "rating_text": "5,0",
    "stars": null,
    "number_of_reviews": null,
    "price_level": "",
    "open_hours": "",
    "extraction_timestamp": "2025-06-07T14:35:52.343Z",
    "source_name": "google",
    "source_query": "Irrigation Equipment",
    "source_country": "RO",
    "country": "Romania",
    "state": "Timiș County",
    "city": "Sânandrei"
  },
  {
    "source_id": "ChIJMccEz0dEGSIRw9cKYGtMCCs",
    "name": "Hidronic SRL - PL Timisoara",
    "category": "Hidronic SRL - PL Timisoara",
    "formatted_address": "Su Pompası Tedarikçisi · Hala D14, Calea Șagului 235Kapalı ⋅ Açılış zamanı: Pzt 09:00 · +40 753 100 408",
    "phone_number": "+40753100408",
    "source_url": "https://www.google.com/maps/place/Hidronic+SRL+-+PL+Timisoara/data=!4m7!3m6!1s0x22194447cf04c731:0x2b084c6b600ad7c3!8m2!3d45.7031858!4d21.1849949!16s%2Fg%2F11y79y5w3v!19sChIJMccEz0dEGSIRw9cKYGtMCCs?authuser=0&hl=tr&rclk=1",
    "website_url": "https://www.hidronic.ro/",
    "rating_text": "",
    "stars": null,
    "number_of_reviews": null,
    "price_level": "",
    "open_hours": "",
    "extraction_timestamp": "2025-06-07T14:35:52.343Z",
    "source_name": "google",
    "source_query": "Irrigation Equipment",
    "source_country": "RO",
    "country": "Romania",
    "state": "Timiș County",
    "city": "Sânandrei"
  },
  {
    "source_id": "ChIJv_eizuFdRUcRg4yb6UmX30I",
    "name": "MagazinGradina",
    "category": "MagazinGradina",
    "formatted_address": "",
    "phone_number": "+40724011591",
    "source_url": "https://www.google.com/maps/place/MagazinGradina/data=!4m7!3m6!1s0x47455de1cea2f7bf:0x42df9749e99b8c83!8m2!3d45.7293427!4d21.2700876!16s%2Fg%2F11fqptlzbn!19sChIJv_eizuFdRUcRg4yb6UmX30I?authuser=0&hl=tr&rclk=1",
    "website_url": "http://magazingradina.ro/",
    "rating_text": "",
    "stars": null,
    "number_of_reviews": null,
    "price_level": "",
    "open_hours": "",
    "extraction_timestamp": "2025-06-07T14:35:52.343Z",
    "source_name": "google",
    "source_query": "Irrigation Equipment",
    "source_country": "RO",
    "country": "Romania",
    "state": "Timiș County",
    "city": "Sânandrei"
  },
  {
    "source_id": "ChIJ2dsBSx5dRUcRbx08-C5cBGQ",
    "name": "HYDRO JET",
    "category": "HYDRO JET",
    "formatted_address": "5,0(4)",
    "phone_number": "+40732050950",
    "source_url": "https://www.google.com/maps/place/HYDRO+JET/data=!4m7!3m6!1s0x47455d1e4b01dbd9:0x64045c2ef83c1d6f!8m2!3d45.7278068!4d21.2052744!16s%2Fg%2F11wp75zhyl!19sChIJ2dsBSx5dRUcRbx08-C5cBGQ?authuser=0&hl=tr&rclk=1",
    "website_url": "https://hydro-jet.ro/",
    "rating_text": "5,0",
    "stars": null,
    "number_of_reviews": null,
    "price_level": "",
    "open_hours": "",
    "extraction_timestamp": "2025-06-07T14:35:52.344Z",
    "source_name": "google",
    "source_query": "Irrigation Equipment",
    "source_country": "RO",
    "country": "Romania",
    "state": "Timiș County",
    "city": "Sânandrei"
  },
  {
    "source_id": "ChIJj7-7za2ZRUcR6M_jOJcGFjk",
    "name": "Agronomo - motounelte Arad",
    "category": "Agronomo - motounelte Arad",
    "formatted_address": "4,3(146)",
    "phone_number": "+40759927777",
    "source_url": "https://www.google.com/maps/place/Agronomo+-+motounelte+Arad/data=!4m7!3m6!1s0x474599adcdbbbf8f:0x3916069738e3cfe8!8m2!3d46.198694!4d21.3377498!16s%2Fg%2F11mr99fc3s!19sChIJj7-7za2ZRUcR6M_jOJcGFjk?authuser=0&hl=tr&rclk=1",
    "website_url": "http://agronomo.ro/",
    "rating_text": "4,3",
    "stars": null,
    "number_of_reviews": null,
    "price_level": "",
    "open_hours": "",
    "extraction_timestamp": "2025-06-07T14:35:52.344Z",
    "source_name": "google",
    "source_query": "Irrigation Equipment",
    "source_country": "RO",
    "country": "Romania",
    "state": "Timiș County",
    "city": "Sânandrei"
  },
  {
    "source_id": "ChIJP7T5uBlnRUcRPEwfUVWl7Ik",
    "name": "Euroinstal",
    "category": "Euroinstal",
    "formatted_address": "4,5(38)",
    "phone_number": "+40734002114",
    "source_url": "https://www.google.com/maps/place/Euroinstal/data=!4m7!3m6!1s0x47456719b8f9b43f:0x89eca555511f4c3c!8m2!3d45.7649126!4d21.211908!16s%2Fg%2F11h2lp0tj2!19sChIJP7T5uBlnRUcRPEwfUVWl7Ik?authuser=0&hl=tr&rclk=1",
    "website_url": "http://www.euro-instal.ro/",
    "rating_text": "4,5",
    "stars": null,
    "number_of_reviews": null,
    "price_level": "",
    "open_hours": "",
    "extraction_timestamp": "2025-06-07T14:35:52.345Z",
    "source_name": "google",
    "source_query": "Irrigation Equipment",
    "source_country": "RO",
    "country": "Romania",
    "state": "Timiș County",
    "city": "Sânandrei"
  },
  {
    "source_id": "ChIJH8WgtL9nRUcRtzTLRiyI53o",
    "name": "Instal Impex",
    "category": "Instal Impex",
    "formatted_address": "4,9(12)",
    "phone_number": "+40356423372",
    "source_url": "https://www.google.com/maps/place/Instal+Impex/data=!4m7!3m6!1s0x474567bfb4a0c51f:0x7ae7882c46cb34b7!8m2!3d45.7360839!4d21.2562389!16s%2Fg%2F11b77wly4x!19sChIJH8WgtL9nRUcRtzTLRiyI53o?authuser=0&hl=tr&rclk=1",
    "website_url": "http://www.instalimpex.ro/",
    "rating_text": "4,9",
    "stars": null,
    "number_of_reviews": null,
    "price_level": "",
    "open_hours": "",
    "extraction_timestamp": "2025-06-07T14:35:52.345Z",
    "source_name": "google",
    "source_query": "Irrigation Equipment",
    "source_country": "RO",
    "country": "Romania",
    "state": "Timiș County",
    "city": "Sânandrei"
  },
  {
    "source_id": "ChIJw-YksvWYRUcRkVBvDN1DkDU",
    "name": "Bendea",
    "category": "Bendea",
    "formatted_address": "4,3(53)",
    "phone_number": "+40751094705",
    "source_url": "https://www.google.com/maps/place/Bendea/data=!4m7!3m6!1s0x474598f5b224e6c3:0x359043dd0c6f5091!8m2!3d46.1779225!4d21.2955464!16s%2Fg%2F11c1nfbk3c!19sChIJw-YksvWYRUcRkVBvDN1DkDU?authuser=0&hl=tr&rclk=1",
    "website_url": "",
    "rating_text": "4,3",
    "stars": null,
    "number_of_reviews": null,
    "price_level": "",
    "open_hours": "",
    "extraction_timestamp": "2025-06-07T14:35:52.346Z",
    "source_name": "google",
    "source_query": "Irrigation Equipment",
    "source_country": "RO",
    "country": "Romania",
    "state": "Timiș County",
    "city": "Sânandrei"
  },
  {
    "source_id": "ChIJw1khbXRdRUcRlc6pgqLLfVc",
    "name": "Euroinstal",
    "category": "Euroinstal",
    "formatted_address": "4,3(43)",
    "phone_number": "+40728160252",
    "source_url": "https://www.google.com/maps/place/Euroinstal/data=!4m7!3m6!1s0x47455d746d2159c3:0x577dcba282a9ce95!8m2!3d45.7420536!4d21.211796!16s%2Fg%2F11c1tb2m_z!19sChIJw1khbXRdRUcRlc6pgqLLfVc?authuser=0&hl=tr&rclk=1",
    "website_url": "http://euro-instal.ro/",
    "rating_text": "4,3",
    "stars": null,
    "number_of_reviews": null,
    "price_level": "",
    "open_hours": "",
    "extraction_timestamp": "2025-06-07T14:35:52.346Z",
    "source_name": "google",
    "source_query": "Irrigation Equipment",
    "source_country": "RO",
    "country": "Romania",
    "state": "Timiș County",
    "city": "Sânandrei"
  },
  {
    "source_id": "ChIJf0OO15ZnRUcRkmZ-P_zMMlY",
    "name": "Euroinstal",
    "category": "Euroinstal",
    "formatted_address": "4,0(37)",
    "phone_number": "+40728160247",
    "source_url": "https://www.google.com/maps/place/Euroinstal/data=!4m7!3m6!1s0x47456796d78e437f:0x5632ccfc3f7e6692!8m2!3d45.7715149!4d21.2222084!16s%2Fg%2F11c60p45tn!19sChIJf0OO15ZnRUcRkmZ-P_zMMlY?authuser=0&hl=tr&rclk=1",
    "website_url": "http://www.euro-instal.ro/",
    "rating_text": "4,0",
    "stars": null,
    "number_of_reviews": null,
    "price_level": "",
    "open_hours": "",
    "extraction_timestamp": "2025-06-07T14:35:52.346Z",
    "source_name": "google",
    "source_query": "Irrigation Equipment",
    "source_country": "RO",
    "country": "Romania",
    "state": "Timiș County",
    "city": "Sânandrei"
  },
  {
    "source_id": "ChIJlcjlgC39REcRRnnfpXA-Et0",
    "name": "Euroinstal",
    "category": "Euroinstal",
    "formatted_address": "4,4(19)",
    "phone_number": "+40731055842",
    "source_url": "https://www.google.com/maps/place/Euroinstal/data=!4m7!3m6!1s0x4744fd2d80e5c895:0xdd123e70a5df7946!8m2!3d46.070198!4d20.631668!16s%2Fg%2F11gmxvccyb!19sChIJlcjlgC39REcRRnnfpXA-Et0?authuser=0&hl=tr&rclk=1",
    "website_url": "http://euro-instal.ro/",
    "rating_text": "4,4",
    "stars": null,
    "number_of_reviews": null,
    "price_level": "",
    "open_hours": "",
    "extraction_timestamp": "2025-06-07T14:35:52.347Z",
    "source_name": "google",
    "source_query": "Irrigation Equipment",
    "source_country": "RO",
    "country": "Romania",
    "state": "Timiș County",
    "city": "Sânandrei"
  },
  {
    "source_id": "ChIJxWOFFGxDRUcRqeXULRUvmfQ",
    "name": "Windsurf Timisoara",
    "category": "Windsurf Timisoara",
    "formatted_address": "5,0(1)",
    "phone_number": "+40771484077",
    "source_url": "https://www.google.com/maps/place/Windsurf+Timisoara/data=!4m7!3m6!1s0x4745436c148563c5:0xf4992f152dd4e5a9!8m2!3d45.755003!4d21.0982578!16s%2Fg%2F11h0t18wcq!19sChIJxWOFFGxDRUcRqeXULRUvmfQ?authuser=0&hl=tr&rclk=1",
    "website_url": "https://www.windsurftm.com/",
    "rating_text": "5,0",
    "stars": null,
    "number_of_reviews": null,
    "price_level": "",
    "open_hours": "",
    "extraction_timestamp": "2025-06-07T14:35:52.347Z",
    "source_name": "google",
    "source_query": "Irrigation Equipment",
    "source_country": "RO",
    "country": "Romania",
    "state": "Timiș County",
    "city": "Sânandrei"
  },
  {
    "source_id": "ChIJhxenMwBHRUcRsFkQG6V4s6c",
    "name": "Stația de pompare Proletarul (mal drept)",
    "category": "Stația de pompare Proletarul (mal drept)",
    "formatted_address": "5,0(1)",
    "phone_number": "",
    "source_url": "https://www.google.com/maps/place/Sta%C8%9Bia+de+pompare+Proletarul+%28mal+drept%29/data=!4m7!3m6!1s0x4745470033a71787:0xa7b378a51b1059b0!8m2!3d45.6702049!4d20.9801263!16s%2Fg%2F11vx5grzy_!19sChIJhxenMwBHRUcRsFkQG6V4s6c?authuser=0&hl=tr&rclk=1",
    "website_url": "",
    "rating_text": "5,0",
    "stars": null,
    "number_of_reviews": null,
    "price_level": "",
    "open_hours": "",
    "extraction_timestamp": "2025-06-07T14:35:52.348Z",
    "source_name": "google",
    "source_query": "Irrigation Equipment",
    "source_country": "RO",
    "country": "Romania",
    "state": "Timiș County",
    "city": "Sânandrei"
  },
  {
    "source_id": "ChIJYyUjRUVmRUcRZP2wMvLM8qw",
    "name": "Euroinstal",
    "category": "Euroinstal",
    "formatted_address": "4,3(40)",
    "phone_number": "+40728160248",
    "source_url": "https://www.google.com/maps/place/Euroinstal/data=!4m7!3m6!1s0x4745664545232563:0xacf2ccf232b0fd64!8m2!3d45.7920143!4d21.2392745!16s%2Fg%2F11c2pf6kvg!19sChIJYyUjRUVmRUcRZP2wMvLM8qw?authuser=0&hl=tr&rclk=1",
    "website_url": "http://www.euro-instal.ro/",
    "rating_text": "4,3",
    "stars": null,
    "number_of_reviews": null,
    "price_level": "",
    "open_hours": "",
    "extraction_timestamp": "2025-06-07T14:35:52.348Z",
    "source_name": "google",
    "source_query": "Irrigation Equipment",
    "source_country": "RO",
    "country": "Romania",
    "state": "Timiș County",
    "city": "Sânandrei"
  },
  {
    "source_id": "ChIJAQAAdJtnRUcR3QGjkXPt5YM",
    "name": "Brico Depot",
    "category": "Brico Depot",
    "formatted_address": "4,0(1.780)",
    "phone_number": "+40212043434",
    "source_url": "https://www.google.com/maps/place/Brico+Depot/data=!4m7!3m6!1s0x4745679b74000001:0x83e5ed7391a301dd!8m2!3d45.7641825!4d21.2338323!16s%2Fg%2F1vg_bn49!19sChIJAQAAdJtnRUcR3QGjkXPt5YM?authuser=0&hl=tr&rclk=1",
    "website_url": "https://www.bricodepot.ro/",
    "rating_text": "4,0",
    "stars": null,
    "number_of_reviews": null,
    "price_level": "",
    "open_hours": "",
    "extraction_timestamp": "2025-06-07T14:35:52.349Z",
    "source_name": "google",
    "source_query": "Irrigation Equipment",
    "source_country": "RO",
    "country": "Romania",
    "state": "Timiș County",
    "city": "Sânandrei"
  },
  {
    "source_id": "ChIJSbffBqNdRUcRctvkYTzSxPc",
    "name": "Euroinstal",
    "category": "Euroinstal",
    "formatted_address": "4,4(64)",
    "phone_number": "+40728160249",
    "source_url": "https://www.google.com/maps/place/Euroinstal/data=!4m7!3m6!1s0x47455da306dfb749:0xf7c4d23c61e4db72!8m2!3d45.7334142!4d21.2226917!16s%2Fg%2F1ptzy_plm!19sChIJSbffBqNdRUcRctvkYTzSxPc?authuser=0&hl=tr&rclk=1",
    "website_url": "http://www.euro-instal.ro/",
    "rating_text": "4,4",
    "stars": null,
    "number_of_reviews": null,
    "price_level": "",
    "open_hours": "",
    "extraction_timestamp": "2025-06-07T14:35:52.349Z",
    "source_name": "google",
    "source_query": "Irrigation Equipment",
    "source_country": "RO",
    "country": "Romania",
    "state": "Timiș County",
    "city": "Sânandrei"
  },
  {
    "source_id": "ChIJa3qkQ_5cRUcRiDGFULtTr2Q",
    "name": "AVO MOBILE Srl",
    "category": "AVO MOBILE Srl",
    "formatted_address": "5,0(1)",
    "phone_number": "+40762203612",
    "source_url": "https://www.google.com/maps/place/AVO+MOBILE+Srl/data=!4m7!3m6!1s0x47455cfe43a47a6b:0x64af53bb50853188!8m2!3d45.7199701!4d21.1957437!16s%2Fg%2F11h0jpy7b!19sChIJa3qkQ_5cRUcRiDGFULtTr2Q?authuser=0&hl=tr&rclk=1",
    "website_url": "",
    "rating_text": "5,0",
    "stars": null,
    "number_of_reviews": null,
    "price_level": "",
    "open_hours": "",
    "extraction_timestamp": "2025-06-07T14:35:52.349Z",
    "source_name": "google",
    "source_query": "Irrigation Equipment",
    "source_country": "RO",
    "country": "Romania",
    "state": "Timiș County",
    "city": "Sânandrei"
  }
]
