[
  {
    "source_id": "ChIJ85galgoZq0AR960gPuJzhBE",
    "name": "МИРЕН 07 ЕООД",
    "category": "МИРЕН 07 ЕООД",
    "formatted_address": "5,0(9)",
    "phone_number": "+359888007588",
    "source_url": "https://www.google.com/maps/place/%D0%9C%D0%98%D0%A0%D0%95%D0%9D+07+%D0%95%D0%9E%D0%9E%D0%94/data=!4m7!3m6!1s0x40ab190a961a98f3:0x118473e23e20adf7!8m2!3d43.2084473!4d23.5483263!16s%2Fg%2F11lv7gmrf_!19sChIJ85galgoZq0AR960gPuJzhBE?authuser=0&hl=tr&rclk=1",
    "website_url": "",
    "rating_text": "5,0",
    "stars": null,
    "number_of_reviews": null,
    "price_level": "",
    "open_hours": "",
    "extraction_timestamp": "2025-06-07T15:11:52.103Z",
    "source_name": "google",
    "source_query": "Irrigation Equipment",
    "source_country": "BG",
    "country": "Bulgaria",
    "state": "Vratsa Province",
    "city": "Borovan"
  },
  {
    "source_id": "ChIJn24eTuYYq0ARVNV2aGxbi9A",
    "name": "Irrigation Systems",
    "category": "Irrigation Systems",
    "formatted_address": "2,0(3)",
    "phone_number": "+35992653044",
    "source_url": "https://www.google.com/maps/place/Irrigation+Systems/data=!4m7!3m6!1s0x40ab18e64e1e6e9f:0xd08b5b6c6876d554!8m2!3d43.208899!4d23.5464445!16s%2Fg%2F11gz6900p!19sChIJn24eTuYYq0ARVNV2aGxbi9A?authuser=0&hl=tr&rclk=1",
    "website_url": "https://nps.bg/%D0%BA%D0%BB%D0%BE%D0%BD-%D0%BC%D0%B8%D0%B7%D0%B8%D1%8F/",
    "rating_text": "2,0",
    "stars": null,
    "number_of_reviews": null,
    "price_level": "",
    "open_hours": "",
    "extraction_timestamp": "2025-06-07T15:11:52.103Z",
    "source_name": "google",
    "source_query": "Irrigation Equipment",
    "source_country": "BG",
    "country": "Bulgaria",
    "state": "Vratsa Province",
    "city": "Borovan"
  },
  {
    "source_id": "ChIJbbdFm74Zq0AROf38NUPzryQ",
    "name": "Water BG - Сондажи и Хидрогеоложки проучвания Враца",
    "category": "Water BG - Сондажи и Хидрогеоложки проучвания Враца",
    "formatted_address": "5,0(1)",
    "phone_number": "+359876778357",
    "source_url": "https://www.google.com/maps/place/Water+BG+-+%D0%A1%D0%BE%D0%BD%D0%B4%D0%B0%D0%B6%D0%B8+%D0%B8+%D0%A5%D0%B8%D0%B4%D1%80%D0%BE%D0%B3%D0%B5%D0%BE%D0%BB%D0%BE%D0%B6%D0%BA%D0%B8+%D0%BF%D1%80%D0%BE%D1%83%D1%87%D0%B2%D0%B0%D0%BD%D0%B8%D1%8F+%D0%92%D1%80%D0%B0%D1%86%D0%B0/data=!4m7!3m6!1s0x40ab19be9b45b76d:0x24aff34335fcfd39!8m2!3d43.2256122!4d23.5438669!16s%2Fg%2F11qq36y9_1!19sChIJbbdFm74Zq0AROf38NUPzryQ?authuser=0&hl=tr&rclk=1",
    "website_url": "https://waterbg.net/",
    "rating_text": "5,0",
    "stars": null,
    "number_of_reviews": null,
    "price_level": "",
    "open_hours": "",
    "extraction_timestamp": "2025-06-07T15:11:52.104Z",
    "source_name": "google",
    "source_query": "Irrigation Equipment",
    "source_country": "BG",
    "country": "Bulgaria",
    "state": "Vratsa Province",
    "city": "Borovan"
  },
  {
    "source_id": "ChIJlTl-Cx0Zq0ARFZhlJmM_d18",
    "name": "Georadarbg.com - Проучване И Откриване На Вода За Сондаж",
    "category": "Georadarbg.com - Проучване И Откриване На Вода За Сондаж",
    "formatted_address": "5,0(1)",
    "phone_number": "+359877818331",
    "source_url": "https://www.google.com/maps/place/Georadarbg.com+-+%D0%9F%D1%80%D0%BE%D1%83%D1%87%D0%B2%D0%B0%D0%BD%D0%B5+%D0%98+%D0%9E%D1%82%D0%BA%D1%80%D0%B8%D0%B2%D0%B0%D0%BD%D0%B5+%D0%9D%D0%B0+%D0%92%D0%BE%D0%B4%D0%B0+%D0%97%D0%B0+%D0%A1%D0%BE%D0%BD%D0%B4%D0%B0%D0%B6/data=!4m7!3m6!1s0x40ab191d0b7e3995:0x5f773f6326659815!8m2!3d43.2031771!4d23.5492707!16s%2Fg%2F11wn5bdmn2!19sChIJlTl-Cx0Zq0ARFZhlJmM_d18?authuser=0&hl=tr&rclk=1",
    "website_url": "https://georadarbg.com/",
    "rating_text": "5,0",
    "stars": null,
    "number_of_reviews": null,
    "price_level": "",
    "open_hours": "",
    "extraction_timestamp": "2025-06-07T15:11:52.104Z",
    "source_name": "google",
    "source_query": "Irrigation Equipment",
    "source_country": "BG",
    "country": "Bulgaria",
    "state": "Vratsa Province",
    "city": "Borovan"
  },
  {
    "source_id": "ChIJn3chwfoYq0ARqYEZPmbMaZs",
    "name": "Construction of solar systems for hot water and electricity",
    "category": "Construction of solar systems for hot water and electricity",
    "formatted_address": "4,0(5)",
    "phone_number": "+359878686815",
    "source_url": "https://www.google.com/maps/place/Construction+of+solar+systems+for+hot+water+and+electricity/data=!4m7!3m6!1s0x40ab18fac121779f:0x9b69cc663e1981a9!8m2!3d43.2976889!4d23.6617497!16s%2Fg%2F11bt_lwpn3!19sChIJn3chwfoYq0ARqYEZPmbMaZs?authuser=0&hl=tr&rclk=1",
    "website_url": "",
    "rating_text": "4,0",
    "stars": null,
    "number_of_reviews": null,
    "price_level": "",
    "open_hours": "",
    "extraction_timestamp": "2025-06-07T15:11:52.104Z",
    "source_name": "google",
    "source_query": "Irrigation Equipment",
    "source_country": "BG",
    "country": "Bulgaria",
    "state": "Vratsa Province",
    "city": "Borovan"
  }
]
