[
  {
    "source_id": "ChIJHY1D-V5lq0ARGbCkzSkfFpY",
    "name": "TOPLIVO - Warehouse Byala Slatina",
    "category": "TOPLIVO - Warehouse Byala Slatina",
    "formatted_address": "4,4(37)",
    "phone_number": "+359884704997",
    "source_url": "https://www.google.com/maps/place/TOPLIVO+-+Warehouse+Byala+Slatina/data=!4m7!3m6!1s0x40ab655ef9438d1d:0x96161f29cda4b019!8m2!3d43.4812422!4d23.9472751!16s%2Fg%2F11g9f627ct!19sChIJHY1D-V5lq0ARGbCkzSkfFpY?authuser=0&hl=tr&rclk=1",
    "website_url": "",
    "rating_text": "4,4",
    "stars": null,
    "number_of_reviews": null,
    "price_level": "",
    "open_hours": "",
    "extraction_timestamp": "2025-06-07T15:13:42.357Z",
    "source_name": "google",
    "source_query": "Irrigation Equipment",
    "source_country": "BG",
    "country": "Bulgaria",
    "state": "Vratsa Province",
    "city": "Byala Slatina"
  },
  {
    "source_id": "ChIJR-EtktBvq0ARhgxiqYMET4Q",
    "name": "Строителен магазин Брънчев - Строителни материали и инструменти Бяла Слатина",
    "category": "Строителен магазин Брънчев - Строителни материали и инструменти Бяла Слатина",
    "formatted_address": "3,5(2)",
    "phone_number": "+359888336073",
    "source_url": "https://www.google.com/maps/place/%D0%A1%D1%82%D1%80%D0%BE%D0%B8%D1%82%D0%B5%D0%BB%D0%B5%D0%BD+%D0%BC%D0%B0%D0%B3%D0%B0%D0%B7%D0%B8%D0%BD+%D0%91%D1%80%D1%8A%D0%BD%D1%87%D0%B5%D0%B2+-+%D0%A1%D1%82%D1%80%D0%BE%D0%B8%D1%82%D0%B5%D0%BB%D0%BD%D0%B8+%D0%BC%D0%B0%D1%82%D0%B5%D1%80%D0%B8%D0%B0%D0%BB%D0%B8+%D0%B8+%D0%B8%D0%BD%D1%81%D1%82%D1%80%D1%83%D0%BC%D0%B5%D0%BD%D1%82%D0%B8+%D0%91%D1%8F%D0%BB%D0%B0+%D0%A1%D0%BB%D0%B0%D1%82%D0%B8%D0%BD%D0%B0/data=!4m7!3m6!1s0x40ab6fd0922de147:0x844f0483a9620c86!8m2!3d43.471531!4d23.941521!16s%2Fg%2F11khfdclyf!19sChIJR-EtktBvq0ARhgxiqYMET4Q?authuser=0&hl=tr&rclk=1",
    "website_url": "",
    "rating_text": "3,5",
    "stars": null,
    "number_of_reviews": null,
    "price_level": "",
    "open_hours": "",
    "extraction_timestamp": "2025-06-07T15:13:42.358Z",
    "source_name": "google",
    "source_query": "Irrigation Equipment",
    "source_country": "BG",
    "country": "Bulgaria",
    "state": "Vratsa Province",
    "city": "Byala Slatina"
  },
  {
    "source_id": "ChIJA6JrGPBvq0AR7Zll_sAjQfY",
    "name": "Spirits&liquor store St.Nicholas\"",
    "category": "Spirits&liquor store St.Nicholas\"",
    "formatted_address": "4,7(37)",
    "phone_number": "+359882450999",
    "source_url": "https://www.google.com/maps/place/Spirits%26liquor+store+St.Nicholas%22/data=!4m7!3m6!1s0x40ab6ff0186ba203:0xf64123c0fe6599ed!8m2!3d43.4699402!4d23.9463028!16s%2Fg%2F11f2wrj90g!19sChIJA6JrGPBvq0AR7Zll_sAjQfY?authuser=0&hl=tr&rclk=1",
    "website_url": "",
    "rating_text": "4,7",
    "stars": null,
    "number_of_reviews": null,
    "price_level": "",
    "open_hours": "",
    "extraction_timestamp": "2025-06-07T15:13:42.360Z",
    "source_name": "google",
    "source_query": "Irrigation Equipment",
    "source_country": "BG",
    "country": "Bulgaria",
    "state": "Vratsa Province",
    "city": "Byala Slatina"
  },
  {
    "source_id": "ChIJdbeOUYlvq0ARGqtcZ7zTAWY",
    "name": "T MARKET",
    "category": "T MARKET",
    "formatted_address": "4,0(830)",
    "phone_number": "+35970070171",
    "source_url": "https://www.google.com/maps/place/T+MARKET/data=!4m7!3m6!1s0x40ab6f89518eb775:0x6601d3bc675cab1a!8m2!3d43.4776192!4d23.9318507!16s%2Fg%2F11b7rxmv3t!19sChIJdbeOUYlvq0ARGqtcZ7zTAWY?authuser=0&hl=tr&rclk=1",
    "website_url": "",
    "rating_text": "4,0",
    "stars": null,
    "number_of_reviews": null,
    "price_level": "",
    "open_hours": "",
    "extraction_timestamp": "2025-06-07T15:13:42.361Z",
    "source_name": "google",
    "source_query": "Irrigation Equipment",
    "source_country": "BG",
    "country": "Bulgaria",
    "state": "Vratsa Province",
    "city": "Byala Slatina"
  },
  {
    "source_id": "ChIJ-X2B7-9vq0AREa_L5YsYdjA",
    "name": "non stop",
    "category": "non stop",
    "formatted_address": "4,4(48)",
    "phone_number": "",
    "source_url": "https://www.google.com/maps/place/non+stop/data=!4m7!3m6!1s0x40ab6fefef817df9:0x3076188be5cbaf11!8m2!3d43.468845!4d23.9458332!16s%2Fg%2F11b7pzmh7y!19sChIJ-X2B7-9vq0AREa_L5YsYdjA?authuser=0&hl=tr&rclk=1",
    "website_url": "",
    "rating_text": "4,4",
    "stars": null,
    "number_of_reviews": null,
    "price_level": "",
    "open_hours": "",
    "extraction_timestamp": "2025-06-07T15:13:42.363Z",
    "source_name": "google",
    "source_query": "Irrigation Equipment",
    "source_country": "BG",
    "country": "Bulgaria",
    "state": "Vratsa Province",
    "city": "Byala Slatina"
  },
  {
    "source_id": "ChIJbbdFm74Zq0AROf38NUPzryQ",
    "name": "Water BG - Сондажи и Хидрогеоложки проучвания Враца",
    "category": "Water BG - Сондажи и Хидрогеоложки проучвания Враца",
    "formatted_address": "5,0(1)",
    "phone_number": "+359876778357",
    "source_url": "https://www.google.com/maps/place/Water+BG+-+%D0%A1%D0%BE%D0%BD%D0%B4%D0%B0%D0%B6%D0%B8+%D0%B8+%D0%A5%D0%B8%D0%B4%D1%80%D0%BE%D0%B3%D0%B5%D0%BE%D0%BB%D0%BE%D0%B6%D0%BA%D0%B8+%D0%BF%D1%80%D0%BE%D1%83%D1%87%D0%B2%D0%B0%D0%BD%D0%B8%D1%8F+%D0%92%D1%80%D0%B0%D1%86%D0%B0/data=!4m7!3m6!1s0x40ab19be9b45b76d:0x24aff34335fcfd39!8m2!3d43.2256122!4d23.5438669!16s%2Fg%2F11qq36y9_1!19sChIJbbdFm74Zq0AROf38NUPzryQ?authuser=0&hl=tr&rclk=1",
    "website_url": "",
    "rating_text": "5,0",
    "stars": null,
    "number_of_reviews": null,
    "price_level": "",
    "open_hours": "",
    "extraction_timestamp": "2025-06-07T15:13:42.364Z",
    "source_name": "google",
    "source_query": "Irrigation Equipment",
    "source_country": "BG",
    "country": "Bulgaria",
    "state": "Vratsa Province",
    "city": "Byala Slatina"
  }
]
