[
  {
    "source_id": "ChIJVx54CS6jrEAR0Hhjmwfe1OM",
    "name": "Магазин за строителни, ВИК и електро материали - Оряхово",
    "category": "Магазин за строителни, ВИК и електро материали - Оряхово",
    "formatted_address": "Магазин за строителни, ВИК и електро материали - Оряхово",
    "phone_number": "+359878675562",
    "source_url": "https://www.google.com/maps/place/%D0%9C%D0%B0%D0%B3%D0%B0%D0%B7%D0%B8%D0%BD+%D0%B7%D0%B0+%D1%81%D1%82%D1%80%D0%BE%D0%B8%D1%82%D0%B5%D0%BB%D0%BD%D0%B8,+%D0%92%D0%98%D0%9A+%D0%B8+%D0%B5%D0%BB%D0%B5%D0%BA%D1%82%D1%80%D0%BE+%D0%BC%D0%B0%D1%82%D0%B5%D1%80%D0%B8%D0%B0%D0%BB%D0%B8+-+%D0%9E%D1%80%D1%8F%D1%85%D0%BE%D0%B2%D0%BE/data=!4m7!3m6!1s0x40aca32e09781e57:0xe3d4de079b6378d0!8m2!3d43.738186!4d23.9585068!16s%2Fg%2F11q24yhtkx!19sChIJVx54CS6jrEAR0Hhjmwfe1OM?authuser=0&hl=tr&rclk=1",
    "website_url": "https://www.facebook.com/profile.php?id=100077974465963",
    "rating_text": "5,0",
    "stars": null,
    "number_of_reviews": null,
    "price_level": "",
    "open_hours": "",
    "extraction_timestamp": "2025-06-07T15:10:12.985Z",
    "source_name": "google",
    "source_query": "Irrigation Equipment",
    "source_country": "BG",
    "country": "Bulgaria",
    "state": "Vratsa Province",
    "city": "Obshtina Oryahovo"
  },
  {
    "source_id": "ChIJZdl2qXmirEARDwmonjR7ye4",
    "name": "ХРАНИТЕЛЕН МАГАЗИН CVETI COMMERCE",
    "category": "ХРАНИТЕЛЕН МАГАЗИН CVETI COMMERCE",
    "formatted_address": "4,1(161)",
    "phone_number": "+359877036969",
    "source_url": "https://www.google.com/maps/place/%D0%A5%D0%A0%D0%90%D0%9D%D0%98%D0%A2%D0%95%D0%9B%D0%95%D0%9D+%D0%9C%D0%90%D0%93%D0%90%D0%97%D0%98%D0%9D+CVETI+COMMERCE/data=!4m7!3m6!1s0x40aca279a976d965:0xeec97b349ea8090f!8m2!3d43.7358621!4d23.9602821!16s%2Fg%2F11ggs_ym5f!19sChIJZdl2qXmirEARDwmonjR7ye4?authuser=0&hl=tr&rclk=1",
    "website_url": "",
    "rating_text": "4,1",
    "stars": null,
    "number_of_reviews": null,
    "price_level": "",
    "open_hours": "",
    "extraction_timestamp": "2025-06-07T15:10:12.988Z",
    "source_name": "google",
    "source_query": "Irrigation Equipment",
    "source_country": "BG",
    "country": "Bulgaria",
    "state": "Vratsa Province",
    "city": "Obshtina Oryahovo"
  },
  {
    "source_id": "ChIJ85galgoZq0AR960gPuJzhBE",
    "name": "МИРЕН 07 ЕООД",
    "category": "МИРЕН 07 ЕООД",
    "formatted_address": "5,0(9)",
    "phone_number": "+359888007588",
    "source_url": "https://www.google.com/maps/place/%D0%9C%D0%98%D0%A0%D0%95%D0%9D+07+%D0%95%D0%9E%D0%9E%D0%94/data=!4m7!3m6!1s0x40ab190a961a98f3:0x118473e23e20adf7!8m2!3d43.2084473!4d23.5483263!16s%2Fg%2F11lv7gmrf_!19sChIJ85galgoZq0AR960gPuJzhBE?authuser=0&hl=tr&rclk=1",
    "website_url": "",
    "rating_text": "5,0",
    "stars": null,
    "number_of_reviews": null,
    "price_level": "",
    "open_hours": "",
    "extraction_timestamp": "2025-06-07T15:10:12.991Z",
    "source_name": "google",
    "source_query": "Irrigation Equipment",
    "source_country": "BG",
    "country": "Bulgaria",
    "state": "Vratsa Province",
    "city": "Obshtina Oryahovo"
  },
  {
    "source_id": "ChIJceqv6MuEqkAR45AXk38sGOE",
    "name": "Irrigation Systems",
    "category": "Irrigation Systems",
    "formatted_address": "4,4(10)",
    "phone_number": "+35928085001",
    "source_url": "https://www.google.com/maps/place/Irrigation+Systems/data=!4m7!3m6!1s0x40aa84cbe8afea71:0xe1182c7f931790e3!8m2!3d42.6700035!4d23.2681798!16s%2Fg%2F1thtbmsl!19sChIJceqv6MuEqkAR45AXk38sGOE?authuser=0&hl=tr&rclk=1",
    "website_url": "https://nps.bg/",
    "rating_text": "4,4",
    "stars": null,
    "number_of_reviews": null,
    "price_level": "",
    "open_hours": "",
    "extraction_timestamp": "2025-06-07T15:10:12.993Z",
    "source_name": "google",
    "source_query": "Irrigation Equipment",
    "source_country": "BG",
    "country": "Bulgaria",
    "state": "Vratsa Province",
    "city": "Obshtina Oryahovo"
  },
  {
    "source_id": "ChIJLQCyO4qjrEARa8oHgI5VdP8",
    "name": "Хранителен магазин \"Томи\"",
    "category": "Хранителен магазин \"Томи\"",
    "formatted_address": "3,7(3)",
    "phone_number": "+35991712401",
    "source_url": "https://www.google.com/maps/place/%D0%A5%D1%80%D0%B0%D0%BD%D0%B8%D1%82%D0%B5%D0%BB%D0%B5%D0%BD+%D0%BC%D0%B0%D0%B3%D0%B0%D0%B7%D0%B8%D0%BD+%22%D0%A2%D0%BE%D0%BC%D0%B8%22/data=!4m7!3m6!1s0x40aca38a3bb2002d:0xff74558e8007ca6b!8m2!3d43.7295758!4d23.9512004!16s%2Fg%2F11h9pdfsnl!19sChIJLQCyO4qjrEARa8oHgI5VdP8?authuser=0&hl=tr&rclk=1",
    "website_url": "",
    "rating_text": "3,7",
    "stars": null,
    "number_of_reviews": null,
    "price_level": "",
    "open_hours": "",
    "extraction_timestamp": "2025-06-07T15:10:12.995Z",
    "source_name": "google",
    "source_query": "Irrigation Equipment",
    "source_country": "BG",
    "country": "Bulgaria",
    "state": "Vratsa Province",
    "city": "Obshtina Oryahovo"
  },
  {
    "source_id": "ChIJbbdFm74Zq0AROf38NUPzryQ",
    "name": "Water BG - Сондажи и Хидрогеоложки проучвания Враца",
    "category": "Water BG - Сондажи и Хидрогеоложки проучвания Враца",
    "formatted_address": "5,0(1)",
    "phone_number": "+359876778357",
    "source_url": "https://www.google.com/maps/place/Water+BG+-+%D0%A1%D0%BE%D0%BD%D0%B4%D0%B0%D0%B6%D0%B8+%D0%B8+%D0%A5%D0%B8%D0%B4%D1%80%D0%BE%D0%B3%D0%B5%D0%BE%D0%BB%D0%BE%D0%B6%D0%BA%D0%B8+%D0%BF%D1%80%D0%BE%D1%83%D1%87%D0%B2%D0%B0%D0%BD%D0%B8%D1%8F+%D0%92%D1%80%D0%B0%D1%86%D0%B0/data=!4m7!3m6!1s0x40ab19be9b45b76d:0x24aff34335fcfd39!8m2!3d43.2256122!4d23.5438669!16s%2Fg%2F11qq36y9_1!19sChIJbbdFm74Zq0AROf38NUPzryQ?authuser=0&hl=tr&rclk=1",
    "website_url": "https://waterbg.net/",
    "rating_text": "5,0",
    "stars": null,
    "number_of_reviews": null,
    "price_level": "",
    "open_hours": "",
    "extraction_timestamp": "2025-06-07T15:10:12.996Z",
    "source_name": "google",
    "source_query": "Irrigation Equipment",
    "source_country": "BG",
    "country": "Bulgaria",
    "state": "Vratsa Province",
    "city": "Obshtina Oryahovo"
  },
  {
    "source_id": "ChIJFTVLpBRMV0ARHAlXQBgBeuo",
    "name": "Obshtina Oryahovo",
    "category": "Obshtina Oryahovo",
    "formatted_address": "4,7(9)",
    "phone_number": "+35991712131",
    "source_url": "https://www.google.com/maps/place/Obshtina+Oryahovo/data=!4m7!3m6!1s0x40574c14a44b3515:0xea7a01184057091c!8m2!3d43.7368687!4d23.9585397!16s%2Fg%2F11b73k_lqf!19sChIJFTVLpBRMV0ARHAlXQBgBeuo?authuser=0&hl=tr&rclk=1",
    "website_url": "",
    "rating_text": "4,7",
    "stars": null,
    "number_of_reviews": null,
    "price_level": "",
    "open_hours": "",
    "extraction_timestamp": "2025-06-07T15:10:12.998Z",
    "source_name": "google",
    "source_query": "Irrigation Equipment",
    "source_country": "BG",
    "country": "Bulgaria",
    "state": "Vratsa Province",
    "city": "Obshtina Oryahovo"
  },
  {
    "source_id": "ChIJEw2OMYGDqkARxHFSeX0-D_I",
    "name": "RHINE SYSTEMS LTD Shop for irrigation systems, pumping equipment, plumbing and electrical materials",
    "category": "RHINE SYSTEMS LTD Shop for irrigation systems, pumping equipment, plumbing and electrical materials",
    "formatted_address": "RHINE SYSTEMS LTD Shop for irrigation systems, pumping equipment, plumbing and electrical materials",
    "phone_number": "+35924501010",
    "source_url": "https://www.google.com/maps/place/RHINE+SYSTEMS+LTD+Shop+for+irrigation+systems,+pumping+equipment,+plumbing+and+electrical+materials/data=!4m7!3m6!1s0x40aa8381318e0d13:0xf20f3e7d795271c4!8m2!3d42.6376675!4d23.2966491!16s%2Fg%2F11g8p3tdk_!19sChIJEw2OMYGDqkARxHFSeX0-D_I?authuser=0&hl=tr&rclk=1",
    "website_url": "http://rainsystems.eu/",
    "rating_text": "4,3",
    "stars": null,
    "number_of_reviews": null,
    "price_level": "",
    "open_hours": "",
    "extraction_timestamp": "2025-06-07T15:10:12.999Z",
    "source_name": "google",
    "source_query": "Irrigation Equipment",
    "source_country": "BG",
    "country": "Bulgaria",
    "state": "Vratsa Province",
    "city": "Obshtina Oryahovo"
  },
  {
    "source_id": "ChIJn3chwfoYq0ARqYEZPmbMaZs",
    "name": "Construction of solar systems for hot water and electricity",
    "category": "Construction of solar systems for hot water and electricity",
    "formatted_address": "4,0(5)",
    "phone_number": "+359878686815",
    "source_url": "https://www.google.com/maps/place/Construction+of+solar+systems+for+hot+water+and+electricity/data=!4m7!3m6!1s0x40ab18fac121779f:0x9b69cc663e1981a9!8m2!3d43.2976889!4d23.6617497!16s%2Fg%2F11bt_lwpn3!19sChIJn3chwfoYq0ARqYEZPmbMaZs?authuser=0&hl=tr&rclk=1",
    "website_url": "",
    "rating_text": "4,0",
    "stars": null,
    "number_of_reviews": null,
    "price_level": "",
    "open_hours": "",
    "extraction_timestamp": "2025-06-07T15:10:13.001Z",
    "source_name": "google",
    "source_query": "Irrigation Equipment",
    "source_country": "BG",
    "country": "Bulgaria",
    "state": "Vratsa Province",
    "city": "Obshtina Oryahovo"
  }
]
