[
  {
    "source_id": "ChIJn24eTuYYq0ARVNV2aGxbi9A",
    "name": "Irrigation Systems",
    "category": "Irrigation Systems",
    "formatted_address": "2,0(3)",
    "phone_number": "+35992653044",
    "source_url": "https://www.google.com/maps/place/Irrigation+Systems/data=!4m7!3m6!1s0x40ab18e64e1e6e9f:0xd08b5b6c6876d554!8m2!3d43.208899!4d23.5464445!16s%2Fg%2F11gz6900p!19sChIJn24eTuYYq0ARVNV2aGxbi9A?authuser=0&hl=tr&rclk=1",
    "website_url": "https://nps.bg/%D0%BA%D0%BB%D0%BE%D0%BD-%D0%BC%D0%B8%D0%B7%D0%B8%D1%8F/",
    "rating_text": "2,0",
    "stars": null,
    "number_of_reviews": null,
    "price_level": "",
    "open_hours": "",
    "extraction_timestamp": "2025-06-07T15:11:43.618Z",
    "source_name": "google",
    "source_query": "Irrigation Equipment",
    "source_country": "BG",
    "country": "Bulgaria",
    "state": "Vratsa Province",
    "city": "Obshtina Mezdra"
  },
  {
    "source_id": "ChIJR-kxCloDq0ARTDcd9xvHZdA",
    "name": "Железария Тениди",
    "category": "Железария Тениди",
    "formatted_address": "4,4(34)",
    "phone_number": "",
    "source_url": "https://www.google.com/maps/place/%D0%96%D0%B5%D0%BB%D0%B5%D0%B7%D0%B0%D1%80%D0%B8%D1%8F+%D0%A2%D0%B5%D0%BD%D0%B8%D0%B4%D0%B8/data=!4m7!3m6!1s0x40ab035a0a31e947:0xd065c71bf71d374c!8m2!3d43.1422181!4d23.7113673!16s%2Fg%2F11n_wmc730!19sChIJR-kxCloDq0ARTDcd9xvHZdA?authuser=0&hl=tr&rclk=1",
    "website_url": "",
    "rating_text": "4,4",
    "stars": null,
    "number_of_reviews": null,
    "price_level": "",
    "open_hours": "",
    "extraction_timestamp": "2025-06-07T15:11:43.618Z",
    "source_name": "google",
    "source_query": "Irrigation Equipment",
    "source_country": "BG",
    "country": "Bulgaria",
    "state": "Vratsa Province",
    "city": "Obshtina Mezdra"
  },
  {
    "source_id": "ChIJ85galgoZq0AR960gPuJzhBE",
    "name": "МИРЕН 07 ЕООД",
    "category": "МИРЕН 07 ЕООД",
    "formatted_address": "5,0(9)",
    "phone_number": "+359888007588",
    "source_url": "https://www.google.com/maps/place/%D0%9C%D0%98%D0%A0%D0%95%D0%9D+07+%D0%95%D0%9E%D0%9E%D0%94/data=!4m7!3m6!1s0x40ab190a961a98f3:0x118473e23e20adf7!8m2!3d43.2084473!4d23.5483263!16s%2Fg%2F11lv7gmrf_!19sChIJ85galgoZq0AR960gPuJzhBE?authuser=0&hl=tr&rclk=1",
    "website_url": "",
    "rating_text": "5,0",
    "stars": null,
    "number_of_reviews": null,
    "price_level": "",
    "open_hours": "",
    "extraction_timestamp": "2025-06-07T15:11:43.619Z",
    "source_name": "google",
    "source_query": "Irrigation Equipment",
    "source_country": "BG",
    "country": "Bulgaria",
    "state": "Vratsa Province",
    "city": "Obshtina Mezdra"
  },
  {
    "source_id": "ChIJn6KBuFoZq0ARnppIwt9eoQ4",
    "name": "Нелбо АД гр. Враца",
    "category": "Нелбо АД гр. Враца",
    "formatted_address": "4,8(25)",
    "phone_number": "+359882925832",
    "source_url": "https://www.google.com/maps/place/%D0%9D%D0%B5%D0%BB%D0%B1%D0%BE+%D0%90%D0%94+%D0%B3%D1%80.+%D0%92%D1%80%D0%B0%D1%86%D0%B0/data=!4m7!3m6!1s0x40ab195ab881a29f:0xea15edfc2489a9e!8m2!3d43.2035763!4d23.5550292!16s%2Fg%2F11pylk4bwc!19sChIJn6KBuFoZq0ARnppIwt9eoQ4?authuser=0&hl=tr&rclk=1",
    "website_url": "http://www.nelbo.com/",
    "rating_text": "4,8",
    "stars": null,
    "number_of_reviews": null,
    "price_level": "",
    "open_hours": "",
    "extraction_timestamp": "2025-06-07T15:11:43.620Z",
    "source_name": "google",
    "source_query": "Irrigation Equipment",
    "source_country": "BG",
    "country": "Bulgaria",
    "state": "Vratsa Province",
    "city": "Obshtina Mezdra"
  },
  {
    "source_id": "ChIJzxAVmGgDq0ARntcnSmb9n1Y",
    "name": "Supermarket \"Ariel\"",
    "category": "Supermarket \"Ariel\"",
    "formatted_address": "3,8(752)",
    "phone_number": "+359886906997",
    "source_url": "https://www.google.com/maps/place/Supermarket+%22Ariel%22/data=!4m7!3m6!1s0x40ab0368981510cf:0x569ffd664a27d79e!8m2!3d43.1421428!4d23.7067976!16s%2Fg%2F11c59xcxmj!19sChIJzxAVmGgDq0ARntcnSmb9n1Y?authuser=0&hl=tr&rclk=1",
    "website_url": "",
    "rating_text": "3,8",
    "stars": null,
    "number_of_reviews": null,
    "price_level": "",
    "open_hours": "",
    "extraction_timestamp": "2025-06-07T15:11:43.621Z",
    "source_name": "google",
    "source_query": "Irrigation Equipment",
    "source_country": "BG",
    "country": "Bulgaria",
    "state": "Vratsa Province",
    "city": "Obshtina Mezdra"
  },
  {
    "source_id": "ChIJj_ZEE7QZq0AR7OU92WI7bYk",
    "name": "Практикер Враца",
    "category": "Практикер Враца",
    "formatted_address": "4,4(616)",
    "phone_number": "+35992920000",
    "source_url": "https://www.google.com/maps/place/%D0%9F%D1%80%D0%B0%D0%BA%D1%82%D0%B8%D0%BA%D0%B5%D1%80+%D0%92%D1%80%D0%B0%D1%86%D0%B0/data=!4m7!3m6!1s0x40ab19b41344f68f:0x896d3b62d93de5ec!8m2!3d43.187302!4d23.5798365!16s%2Fg%2F11fjvvw0vh!19sChIJj_ZEE7QZq0AR7OU92WI7bYk?authuser=0&hl=tr&rclk=1",
    "website_url": "http://www.praktiker.bg/",
    "rating_text": "4,4",
    "stars": null,
    "number_of_reviews": null,
    "price_level": "",
    "open_hours": "",
    "extraction_timestamp": "2025-06-07T15:11:43.623Z",
    "source_name": "google",
    "source_query": "Irrigation Equipment",
    "source_country": "BG",
    "country": "Bulgaria",
    "state": "Vratsa Province",
    "city": "Obshtina Mezdra"
  },
  {
    "source_id": "ChIJL6_tzjIEq0AR1pG3svksXmg",
    "name": "Biogaz Station",
    "category": "Biogaz Station",
    "formatted_address": "4,5(13)",
    "phone_number": "",
    "source_url": "https://www.google.com/maps/place/Biogaz+Station/data=!4m7!3m6!1s0x40ab0432ceedaf2f:0x685e2cf9b2b791d6!8m2!3d43.1699681!4d23.795864!16s%2Fg%2F11c56bfnhp!19sChIJL6_tzjIEq0AR1pG3svksXmg?authuser=0&hl=tr&rclk=1",
    "website_url": "",
    "rating_text": "4,5",
    "stars": null,
    "number_of_reviews": null,
    "price_level": "",
    "open_hours": "",
    "extraction_timestamp": "2025-06-07T15:11:43.623Z",
    "source_name": "google",
    "source_query": "Irrigation Equipment",
    "source_country": "BG",
    "country": "Bulgaria",
    "state": "Vratsa Province",
    "city": "Obshtina Mezdra"
  },
  {
    "source_id": "ChIJ3yNvfPAYq0AR2vQ9-uxEDbw",
    "name": "Ineks Trade",
    "category": "Ineks Trade",
    "formatted_address": "4,5(225)",
    "phone_number": "+359878111297",
    "source_url": "https://www.google.com/maps/place/Ineks+Trade/data=!4m7!3m6!1s0x40ab18f07c6f23df:0xbc0d44ecfa3df4da!8m2!3d43.1960156!4d23.5735487!16s%2Fg%2F1vn9mlcb!19sChIJ3yNvfPAYq0AR2vQ9-uxEDbw?authuser=0&hl=tr&rclk=1",
    "website_url": "http://www.inex-bg.com/",
    "rating_text": "4,5",
    "stars": null,
    "number_of_reviews": null,
    "price_level": "",
    "open_hours": "",
    "extraction_timestamp": "2025-06-07T15:11:43.625Z",
    "source_name": "google",
    "source_query": "Irrigation Equipment",
    "source_country": "BG",
    "country": "Bulgaria",
    "state": "Vratsa Province",
    "city": "Obshtina Mezdra"
  },
  {
    "source_id": "ChIJ2Z_2mWgDq0ARlyZ0QoYbyr0",
    "name": "Cooperative market",
    "category": "Cooperative market",
    "formatted_address": "4,0(153)",
    "phone_number": "",
    "source_url": "https://www.google.com/maps/place/Cooperative+market/data=!4m7!3m6!1s0x40ab036899f69fd9:0xbdca1b8642742697!8m2!3d43.1427365!4d23.7052071!16s%2Fg%2F11g9q87s19!19sChIJ2Z_2mWgDq0ARlyZ0QoYbyr0?authuser=0&hl=tr&rclk=1",
    "website_url": "",
    "rating_text": "4,0",
    "stars": null,
    "number_of_reviews": null,
    "price_level": "",
    "open_hours": "",
    "extraction_timestamp": "2025-06-07T15:11:43.626Z",
    "source_name": "google",
    "source_query": "Irrigation Equipment",
    "source_country": "BG",
    "country": "Bulgaria",
    "state": "Vratsa Province",
    "city": "Obshtina Mezdra"
  },
  {
    "source_id": "ChIJQUnSkfQYq0ARB2LmFQpclI8",
    "name": "Air would Elite - Irrigation systems",
    "category": "Air would Elite - Irrigation systems",
    "formatted_address": "4,1(12)",
    "phone_number": "+359885501062",
    "source_url": "https://www.google.com/maps/place/Air+would+Elite+-+Irrigation+systems/data=!4m7!3m6!1s0x40ab18f491d24941:0x8f945c0a15e66207!8m2!3d43.221658!4d23.543052!16s%2Fg%2F11b6znk1yh!19sChIJQUnSkfQYq0ARB2LmFQpclI8?authuser=0&hl=tr&rclk=1",
    "website_url": "http://rbvratsa.business.bg/",
    "rating_text": "4,1",
    "stars": null,
    "number_of_reviews": null,
    "price_level": "",
    "open_hours": "",
    "extraction_timestamp": "2025-06-07T15:11:43.627Z",
    "source_name": "google",
    "source_query": "Irrigation Equipment",
    "source_country": "BG",
    "country": "Bulgaria",
    "state": "Vratsa Province",
    "city": "Obshtina Mezdra"
  },
  {
    "source_id": "ChIJp_7C5qUDq0ARF6gw4TLC5x0",
    "name": "Строителен магазин \"Измайстори САМ\"",
    "category": "Строителен магазин \"Измайстори САМ\"",
    "formatted_address": "4,0(4)",
    "phone_number": "+359894787427",
    "source_url": "https://www.google.com/maps/place/%D0%A1%D1%82%D1%80%D0%BE%D0%B8%D1%82%D0%B5%D0%BB%D0%B5%D0%BD+%D0%BC%D0%B0%D0%B3%D0%B0%D0%B7%D0%B8%D0%BD+%22%D0%98%D0%B7%D0%BC%D0%B0%D0%B9%D1%81%D1%82%D0%BE%D1%80%D0%B8+%D0%A1%D0%90%D0%9C%22/data=!4m7!3m6!1s0x40ab03a5e6c2fea7:0x1de7c232e130a817!8m2!3d43.1471645!4d23.7187646!16s%2Fg%2F11spq_k556!19sChIJp_7C5qUDq0ARF6gw4TLC5x0?authuser=0&hl=tr&rclk=1",
    "website_url": "https://monky.bg/listing/magazin-izmaistori-sam-materiali-i-instrumenti-grad-mezdra/",
    "rating_text": "4,0",
    "stars": null,
    "number_of_reviews": null,
    "price_level": "",
    "open_hours": "",
    "extraction_timestamp": "2025-06-07T15:11:43.628Z",
    "source_name": "google",
    "source_query": "Irrigation Equipment",
    "source_country": "BG",
    "country": "Bulgaria",
    "state": "Vratsa Province",
    "city": "Obshtina Mezdra"
  },
  {
    "source_id": "ChIJbbdFm74Zq0AROf38NUPzryQ",
    "name": "Water BG - Сондажи и Хидрогеоложки проучвания Враца",
    "category": "Water BG - Сондажи и Хидрогеоложки проучвания Враца",
    "formatted_address": "5,0(1)",
    "phone_number": "+359876778357",
    "source_url": "https://www.google.com/maps/place/Water+BG+-+%D0%A1%D0%BE%D0%BD%D0%B4%D0%B0%D0%B6%D0%B8+%D0%B8+%D0%A5%D0%B8%D0%B4%D1%80%D0%BE%D0%B3%D0%B5%D0%BE%D0%BB%D0%BE%D0%B6%D0%BA%D0%B8+%D0%BF%D1%80%D0%BE%D1%83%D1%87%D0%B2%D0%B0%D0%BD%D0%B8%D1%8F+%D0%92%D1%80%D0%B0%D1%86%D0%B0/data=!4m7!3m6!1s0x40ab19be9b45b76d:0x24aff34335fcfd39!8m2!3d43.2256122!4d23.5438669!16s%2Fg%2F11qq36y9_1!19sChIJbbdFm74Zq0AROf38NUPzryQ?authuser=0&hl=tr&rclk=1",
    "website_url": "https://waterbg.net/",
    "rating_text": "5,0",
    "stars": null,
    "number_of_reviews": null,
    "price_level": "",
    "open_hours": "",
    "extraction_timestamp": "2025-06-07T15:11:43.629Z",
    "source_name": "google",
    "source_query": "Irrigation Equipment",
    "source_country": "BG",
    "country": "Bulgaria",
    "state": "Vratsa Province",
    "city": "Obshtina Mezdra"
  },
  {
    "source_id": "ChIJuxCfjNgYq0AR8tPYQXT888Q",
    "name": "Sigmaterm Injenering",
    "category": "Sigmaterm Injenering",
    "formatted_address": "4,5(56)",
    "phone_number": "+35992660593",
    "source_url": "https://www.google.com/maps/place/Sigmaterm+Injenering/data=!4m7!3m6!1s0x40ab18d88c9f10bb:0xc4f3fc7441d8d3f2!8m2!3d43.209864!4d23.5670652!16s%2Fg%2F1tdvhp01!19sChIJuxCfjNgYq0AR8tPYQXT888Q?authuser=0&hl=tr&rclk=1",
    "website_url": "http://www.domestico.bg/",
    "rating_text": "4,5",
    "stars": null,
    "number_of_reviews": null,
    "price_level": "",
    "open_hours": "",
    "extraction_timestamp": "2025-06-07T15:11:43.630Z",
    "source_name": "google",
    "source_query": "Irrigation Equipment",
    "source_country": "BG",
    "country": "Bulgaria",
    "state": "Vratsa Province",
    "city": "Obshtina Mezdra"
  },
  {
    "source_id": "ChIJa6oW2-8Yq0AR050NUA1cPtM",
    "name": "Rayski Tsvyat - 91",
    "category": "Rayski Tsvyat - 91",
    "formatted_address": "4,0(58)",
    "phone_number": "+359878503618",
    "source_url": "https://www.google.com/maps/place/Rayski+Tsvyat+-+91/data=!4m7!3m6!1s0x40ab18efdb16aa6b:0xd33e5c0d500d9dd3!8m2!3d43.2146091!4d23.5464462!16s%2Fg%2F1hdzlqbg5!19sChIJa6oW2-8Yq0AR050NUA1cPtM?authuser=0&hl=tr&rclk=1",
    "website_url": "",
    "rating_text": "4,0",
    "stars": null,
    "number_of_reviews": null,
    "price_level": "",
    "open_hours": "",
    "extraction_timestamp": "2025-06-07T15:11:43.631Z",
    "source_name": "google",
    "source_query": "Irrigation Equipment",
    "source_country": "BG",
    "country": "Bulgaria",
    "state": "Vratsa Province",
    "city": "Obshtina Mezdra"
  },
  {
    "source_id": "ChIJkybxTVsZq0ARPRMqfIaDQz8",
    "name": "ХРАНИТЕЛ МАГАЗИН ТИР ПАРКИНГ ВРАЦА",
    "category": "ХРАНИТЕЛ МАГАЗИН ТИР ПАРКИНГ ВРАЦА",
    "formatted_address": "4,5(132)",
    "phone_number": "+359888407350",
    "source_url": "https://www.google.com/maps/place/%D0%A5%D0%A0%D0%90%D0%9D%D0%98%D0%A2%D0%95%D0%9B+%D0%9C%D0%90%D0%93%D0%90%D0%97%D0%98%D0%9D+%D0%A2%D0%98%D0%A0+%D0%9F%D0%90%D0%A0%D0%9A%D0%98%D0%9D%D0%93+%D0%92%D0%A0%D0%90%D0%A6%D0%90/data=!4m7!3m6!1s0x40ab195b4df12693:0x3f4383867c2a133d!8m2!3d43.1877335!4d23.59697!16s%2Fg%2F11q21dv3fz!19sChIJkybxTVsZq0ARPRMqfIaDQz8?authuser=0&hl=tr&rclk=1",
    "website_url": "",
    "rating_text": "4,5",
    "stars": null,
    "number_of_reviews": null,
    "price_level": "",
    "open_hours": "",
    "extraction_timestamp": "2025-06-07T15:11:43.632Z",
    "source_name": "google",
    "source_query": "Irrigation Equipment",
    "source_country": "BG",
    "country": "Bulgaria",
    "state": "Vratsa Province",
    "city": "Obshtina Mezdra"
  },
  {
    "source_id": "ChIJ7xLKxhsZq0ARy5Oq_RuUARM",
    "name": "Топливо АД - склад Враца",
    "category": "Топливо АД - склад Враца",
    "formatted_address": "4,3(26)",
    "phone_number": "+359884704969",
    "source_url": "https://www.google.com/maps/place/%D0%A2%D0%BE%D0%BF%D0%BB%D0%B8%D0%B2%D0%BE+%D0%90%D0%94+-+%D1%81%D0%BA%D0%BB%D0%B0%D0%B4+%D0%92%D1%80%D0%B0%D1%86%D0%B0/data=!4m7!3m6!1s0x40ab191bc6ca12ef:0x1301941bfdaa93cb!8m2!3d43.2073899!4d23.566221!16s%2Fg%2F1q62kkcff!19sChIJ7xLKxhsZq0ARy5Oq_RuUARM?authuser=0&hl=tr&rclk=1",
    "website_url": "https://toplivo.bg/kontakti/Sklad-Vraca",
    "rating_text": "4,3",
    "stars": null,
    "number_of_reviews": null,
    "price_level": "",
    "open_hours": "",
    "extraction_timestamp": "2025-06-07T15:11:43.633Z",
    "source_name": "google",
    "source_query": "Irrigation Equipment",
    "source_country": "BG",
    "country": "Bulgaria",
    "state": "Vratsa Province",
    "city": "Obshtina Mezdra"
  },
  {
    "source_id": "ChIJC3IJ1X0Dq0ARU7evIcx9m9A",
    "name": "Marty-bike",
    "category": "Marty-bike",
    "formatted_address": "5,0(7)",
    "phone_number": "+359876066617",
    "source_url": "https://www.google.com/maps/place/Marty-bike/data=!4m7!3m6!1s0x40ab037dd509720b:0xd09b7dcc21afb753!8m2!3d43.1456889!4d23.7261415!16s%2Fg%2F11c5wjphkl!19sChIJC3IJ1X0Dq0ARU7evIcx9m9A?authuser=0&hl=tr&rclk=1",
    "website_url": "",
    "rating_text": "5,0",
    "stars": null,
    "number_of_reviews": null,
    "price_level": "",
    "open_hours": "",
    "extraction_timestamp": "2025-06-07T15:11:43.634Z",
    "source_name": "google",
    "source_query": "Irrigation Equipment",
    "source_country": "BG",
    "country": "Bulgaria",
    "state": "Vratsa Province",
    "city": "Obshtina Mezdra"
  },
  {
    "source_id": "ChIJn3chwfoYq0ARqYEZPmbMaZs",
    "name": "Construction of solar systems for hot water and electricity",
    "category": "Construction of solar systems for hot water and electricity",
    "formatted_address": "4,0(5)",
    "phone_number": "+359878686815",
    "source_url": "https://www.google.com/maps/place/Construction+of+solar+systems+for+hot+water+and+electricity/data=!4m7!3m6!1s0x40ab18fac121779f:0x9b69cc663e1981a9!8m2!3d43.2976889!4d23.6617497!16s%2Fg%2F11bt_lwpn3!19sChIJn3chwfoYq0ARqYEZPmbMaZs?authuser=0&hl=tr&rclk=1",
    "website_url": "",
    "rating_text": "4,0",
    "stars": null,
    "number_of_reviews": null,
    "price_level": "",
    "open_hours": "",
    "extraction_timestamp": "2025-06-07T15:11:43.635Z",
    "source_name": "google",
    "source_query": "Irrigation Equipment",
    "source_country": "BG",
    "country": "Bulgaria",
    "state": "Vratsa Province",
    "city": "Obshtina Mezdra"
  }
]
