[
  {
    "source_id": "ChIJ6_q5mYujakARHImBZS4MM5U",
    "name": "Aqua Master",
    "category": "Aqua Master",
    "formatted_address": "5,0(3)",
    "phone_number": "+37443826682",
    "source_url": "https://www.google.com/maps/place/Aqua+Master/data=!4m7!3m6!1s0x406aa38b99b9faeb:0x95330c2e6581891c!8m2!3d40.2408716!4d44.5710315!16s%2Fg%2F11l6mbhtpr!19sChIJ6_q5mYujakARHImBZS4MM5U?authuser=0&hl=tr&rclk=1",
    "website_url": "https://www.irrigation.am/",
    "rating_text": "5,0",
    "stars": null,
    "number_of_reviews": null,
    "price_level": "",
    "open_hours": "",
    "extraction_timestamp": "2025-06-07T13:56:37.247Z",
    "source_name": "google",
    "source_query": "Irrigation Equipment",
    "source_country": "AM",
    "country": "Armenia",
    "state": "Kotayk Region",
    "city": "Aramus"
  },
  {
    "source_id": "ChIJ02H1fJm8akARGkCR2BU48us",
    "name": "Iratek LLC",
    "category": "Iratek LLC",
    "formatted_address": "4,7(3)",
    "phone_number": "+37433646646",
    "source_url": "https://www.google.com/maps/place/Iratek+LLC/data=!4m7!3m6!1s0x406abc997cf561d3:0xebf23815d891401a!8m2!3d40.1702145!4d44.5495049!16s%2Fg%2F11b7c2xs5d!19sChIJ02H1fJm8akARGkCR2BU48us?authuser=0&hl=tr&rclk=1",
    "website_url": "http://www.iratek.am/",
    "rating_text": "4,7",
    "stars": null,
    "number_of_reviews": null,
    "price_level": "",
    "open_hours": "",
    "extraction_timestamp": "2025-06-07T13:56:37.248Z",
    "source_name": "google",
    "source_query": "Irrigation Equipment",
    "source_country": "AM",
    "country": "Armenia",
    "state": "Kotayk Region",
    "city": "Aramus"
  },
  {
    "source_id": "ChIJSehc_K69akAR5hWXcDHb1G0",
    "name": "IRRRISAL Irrigation systems",
    "category": "IRRRISAL Irrigation systems",
    "formatted_address": "Sulama Ekipmanları Tedarikçisi · 210/1 Arshakunyats AveKapanmak üzere ⋅ 18:00 ⋅ Açılış zamanı: Paz 10:00 · +374 99 000559",
    "phone_number": "+37499000559",
    "source_url": "https://www.google.com/maps/place/IRRRISAL+Irrigation+systems/data=!4m7!3m6!1s0x406abdaefc5ce849:0x6dd4db31709715e6!8m2!3d40.1428036!4d44.4957727!16s%2Fg%2F11jgmv2bl9!19sChIJSehc_K69akAR5hWXcDHb1G0?authuser=0&hl=tr&rclk=1",
    "website_url": "",
    "rating_text": "",
    "stars": null,
    "number_of_reviews": null,
    "price_level": "",
    "open_hours": "",
    "extraction_timestamp": "2025-06-07T13:56:37.249Z",
    "source_name": "google",
    "source_query": "Irrigation Equipment",
    "source_country": "AM",
    "country": "Armenia",
    "state": "Kotayk Region",
    "city": "Aramus"
  },
  {
    "source_id": "ChIJ1ZycGBOjakARqQ-pKik3MzE",
    "name": "Agrotech LLC",
    "category": "Agrotech LLC",
    "formatted_address": "4,0(2)",
    "phone_number": "+37491206220",
    "source_url": "https://www.google.com/maps/place/Agrotech+LLC/data=!4m7!3m6!1s0x406aa313189c9cd5:0x313337292aa90fa9!8m2!3d40.2579135!4d44.6239412!16s%2Fg%2F11gtzc4byt!19sChIJ1ZycGBOjakARqQ-pKik3MzE?authuser=0&hl=tr&rclk=1",
    "website_url": "http://www.agrotech.am/",
    "rating_text": "4,0",
    "stars": null,
    "number_of_reviews": null,
    "price_level": "",
    "open_hours": "",
    "extraction_timestamp": "2025-06-07T13:56:37.250Z",
    "source_name": "google",
    "source_query": "Irrigation Equipment",
    "source_country": "AM",
    "country": "Armenia",
    "state": "Kotayk Region",
    "city": "Aramus"
  },
  {
    "source_id": "ChIJhxIgSJijakARCzCc9k6qVv4",
    "name": "Իմ այգին",
    "category": "Իմ այգին",
    "formatted_address": "3,7(3)",
    "phone_number": "+37499239697",
    "source_url": "https://www.google.com/maps/place/%D4%BB%D5%B4+%D5%A1%D5%B5%D5%A3%D5%AB%D5%B6/data=!4m7!3m6!1s0x406aa39848201287:0xfe56aa4ef69c300b!8m2!3d40.2391478!4d44.5658917!16s%2Fg%2F11h_4876gt!19sChIJhxIgSJijakARCzCc9k6qVv4?authuser=0&hl=tr&rclk=1",
    "website_url": "https://www.facebook.com/ImAygi/",
    "rating_text": "3,7",
    "stars": null,
    "number_of_reviews": null,
    "price_level": "",
    "open_hours": "",
    "extraction_timestamp": "2025-06-07T13:56:37.250Z",
    "source_name": "google",
    "source_query": "Irrigation Equipment",
    "source_country": "AM",
    "country": "Armenia",
    "state": "Kotayk Region",
    "city": "Aramus"
  },
  {
    "source_id": "ChIJy4VveRC8akARfotxo0e3iVw",
    "name": "Welding Materials, Generators, Power Tools Makita",
    "category": "Welding Materials, Generators, Power Tools Makita",
    "formatted_address": "Welding Materials, Generators, Power Tools Makita",
    "phone_number": "+37410444448",
    "source_url": "https://www.google.com/maps/place/Welding+Materials,+Generators,+Power+Tools+Makita/data=!4m7!3m6!1s0x406abc10796f85cb:0x5c89b747a3718b7e!8m2!3d40.149533!4d44.497557!16s%2Fg%2F1ptvt8hj_!19sChIJy4VveRC8akARfotxo0e3iVw?authuser=0&hl=tr&rclk=1",
    "website_url": "https://www.akar.am/",
    "rating_text": "5,0",
    "stars": null,
    "number_of_reviews": null,
    "price_level": "",
    "open_hours": "",
    "extraction_timestamp": "2025-06-07T13:56:37.251Z",
    "source_name": "google",
    "source_query": "Irrigation Equipment",
    "source_country": "AM",
    "country": "Armenia",
    "state": "Kotayk Region",
    "city": "Aramus"
  },
  {
    "source_id": "ChIJx-5mAOW8akAR4hHamywAWKQ",
    "name": "Ani-Inter Co. Ltd.",
    "category": "Ani-Inter Co. Ltd.",
    "formatted_address": "5,0(1)",
    "phone_number": "+37410568983",
    "source_url": "https://www.google.com/maps/place/Ani-Inter+Co.+Ltd./data=!4m7!3m6!1s0x406abce50066eec7:0xa458002c9bda11e2!8m2!3d40.1817771!4d44.5200133!16s%2Fg%2F1hm2f6s85!19sChIJx-5mAOW8akAR4hHamywAWKQ?authuser=0&hl=tr&rclk=1",
    "website_url": "",
    "rating_text": "5,0",
    "stars": null,
    "number_of_reviews": null,
    "price_level": "",
    "open_hours": "",
    "extraction_timestamp": "2025-06-07T13:56:37.251Z",
    "source_name": "google",
    "source_query": "Irrigation Equipment",
    "source_country": "AM",
    "country": "Armenia",
    "state": "Kotayk Region",
    "city": "Aramus"
  }
]
