[
  {
    "source_id": "ChIJ02H1fJm8akARGkCR2BU48us",
    "name": "Iratek LLC",
    "category": "Iratek LLC",
    "formatted_address": "4,7(3)",
    "phone_number": "+37433646646",
    "source_url": "https://www.google.com/maps/place/Iratek+LLC/data=!4m7!3m6!1s0x406abc997cf561d3:0xebf23815d891401a!8m2!3d40.1702145!4d44.5495049!16s%2Fg%2F11b7c2xs5d!19sChIJ02H1fJm8akARGkCR2BU48us?authuser=0&hl=tr&rclk=1",
    "website_url": "",
    "rating_text": "4,7",
    "stars": null,
    "number_of_reviews": null,
    "price_level": "",
    "open_hours": "",
    "extraction_timestamp": "2025-06-07T13:57:03.947Z",
    "source_name": "google",
    "source_query": "Irrigation Equipment",
    "source_country": "AM",
    "country": "Armenia",
    "state": "Kotayk Region",
    "city": "Tsaghkadzor"
  },
  {
    "source_id": "ChIJ6_q5mYujakARHImBZS4MM5U",
    "name": "Aqua Master",
    "category": "Aqua Master",
    "formatted_address": "5,0(3)",
    "phone_number": "+37443826682",
    "source_url": "https://www.google.com/maps/place/Aqua+Master/data=!4m7!3m6!1s0x406aa38b99b9faeb:0x95330c2e6581891c!8m2!3d40.2408716!4d44.5710315!16s%2Fg%2F11l6mbhtpr!19sChIJ6_q5mYujakARHImBZS4MM5U?authuser=0&hl=tr&rclk=1",
    "website_url": "",
    "rating_text": "5,0",
    "stars": null,
    "number_of_reviews": null,
    "price_level": "",
    "open_hours": "",
    "extraction_timestamp": "2025-06-07T13:57:03.948Z",
    "source_name": "google",
    "source_query": "Irrigation Equipment",
    "source_country": "AM",
    "country": "Armenia",
    "state": "Kotayk Region",
    "city": "Tsaghkadzor"
  },
  {
    "source_id": "ChIJE7-V_D43QEARgS6vVOiTi9M",
    "name": "Seyrani mot",
    "category": "Seyrani mot",
    "formatted_address": "5,0(1)",
    "phone_number": "",
    "source_url": "https://www.google.com/maps/place/Seyrani+mot/data=!4m7!3m6!1s0x4040373efc95bf13:0xd38b93e854af2e81!8m2!3d40.5157284!4d44.7553537!16s%2Fg%2F11rtvp7s2p!19sChIJE7-V_D43QEARgS6vVOiTi9M?authuser=0&hl=tr&rclk=1",
    "website_url": "",
    "rating_text": "5,0",
    "stars": null,
    "number_of_reviews": null,
    "price_level": "",
    "open_hours": "",
    "extraction_timestamp": "2025-06-07T13:57:03.948Z",
    "source_name": "google",
    "source_query": "Irrigation Equipment",
    "source_country": "AM",
    "country": "Armenia",
    "state": "Kotayk Region",
    "city": "Tsaghkadzor"
  },
  {
    "source_id": "ChIJhzkniOg3QEARequ9J2bNriw",
    "name": "Պարտեզ մարկետ",
    "category": "Պարտեզ մարկետ",
    "formatted_address": "4,8(6)",
    "phone_number": "+37477903054",
    "source_url": "https://www.google.com/maps/place/%D5%8A%D5%A1%D6%80%D5%BF%D5%A5%D5%A6+%D5%B4%D5%A1%D6%80%D5%AF%D5%A5%D5%BF/data=!4m7!3m6!1s0x404037e888273987:0x2caecd6627bdab7a!8m2!3d40.5307769!4d44.7245741!16s%2Fg%2F11q9mbrlk0!19sChIJhzkniOg3QEARequ9J2bNriw?authuser=0&hl=tr&rclk=1",
    "website_url": "",
    "rating_text": "4,8",
    "stars": null,
    "number_of_reviews": null,
    "price_level": "",
    "open_hours": "",
    "extraction_timestamp": "2025-06-07T13:57:03.949Z",
    "source_name": "google",
    "source_query": "Irrigation Equipment",
    "source_country": "AM",
    "country": "Armenia",
    "state": "Kotayk Region",
    "city": "Tsaghkadzor"
  },
  {
    "source_id": "ChIJAzliaIw3QEARP4ePlAXgSKc",
    "name": "Wine store - National Drinks and Souvenirs",
    "category": "Wine store - National Drinks and Souvenirs",
    "formatted_address": "5,0(8)",
    "phone_number": "",
    "source_url": "https://www.google.com/maps/place/Wine+store+-+National+Drinks+and+Souvenirs/data=!4m7!3m6!1s0x4040378c68623903:0xa748e005948f873f!8m2!3d40.5327463!4d44.7205276!16s%2Fg%2F11j4y8yhh1!19sChIJAzliaIw3QEARP4ePlAXgSKc?authuser=0&hl=tr&rclk=1",
    "website_url": "",
    "rating_text": "5,0",
    "stars": null,
    "number_of_reviews": null,
    "price_level": "",
    "open_hours": "",
    "extraction_timestamp": "2025-06-07T13:57:03.949Z",
    "source_name": "google",
    "source_query": "Irrigation Equipment",
    "source_country": "AM",
    "country": "Armenia",
    "state": "Kotayk Region",
    "city": "Tsaghkadzor"
  },
  {
    "source_id": "ChIJTabByhk3QEARO7UNUG1uo2s",
    "name": "Market",
    "category": "Market",
    "formatted_address": "4,5(19)",
    "phone_number": "",
    "source_url": "https://www.google.com/maps/place/Market/data=!4m7!3m6!1s0x40403719cac1a64d:0x6ba36e6d500db53b!8m2!3d40.533259!4d44.7189226!16s%2Fg%2F11j1dpqbkb!19sChIJTabByhk3QEARO7UNUG1uo2s?authuser=0&hl=tr&rclk=1",
    "website_url": "",
    "rating_text": "4,5",
    "stars": null,
    "number_of_reviews": null,
    "price_level": "",
    "open_hours": "",
    "extraction_timestamp": "2025-06-07T13:57:03.949Z",
    "source_name": "google",
    "source_query": "Irrigation Equipment",
    "source_country": "AM",
    "country": "Armenia",
    "state": "Kotayk Region",
    "city": "Tsaghkadzor"
  },
  {
    "source_id": "ChIJSehc_K69akAR5hWXcDHb1G0",
    "name": "IRRRISAL Irrigation systems",
    "category": "IRRRISAL Irrigation systems",
    "formatted_address": "Sulama Ekipmanları Tedarikçisi · 210/1 Arshakunyats AveKapanmak üzere ⋅ 18:00 ⋅ Açılış zamanı: Paz 10:00 · +374 99 000559",
    "phone_number": "+37499000559",
    "source_url": "https://www.google.com/maps/place/IRRRISAL+Irrigation+systems/data=!4m7!3m6!1s0x406abdaefc5ce849:0x6dd4db31709715e6!8m2!3d40.1428036!4d44.4957727!16s%2Fg%2F11jgmv2bl9!19sChIJSehc_K69akAR5hWXcDHb1G0?authuser=0&hl=tr&rclk=1",
    "website_url": "",
    "rating_text": "",
    "stars": null,
    "number_of_reviews": null,
    "price_level": "",
    "open_hours": "",
    "extraction_timestamp": "2025-06-07T13:57:03.950Z",
    "source_name": "google",
    "source_query": "Irrigation Equipment",
    "source_country": "AM",
    "country": "Armenia",
    "state": "Kotayk Region",
    "city": "Tsaghkadzor"
  }
]
