[
  {
    "source_id": "ChIJ02H1fJm8akARGkCR2BU48us",
    "name": "Iratek LLC",
    "category": "Iratek LLC",
    "formatted_address": "4,7(3)",
    "phone_number": "+37433646646",
    "source_url": "https://www.google.com/maps/place/Iratek+LLC/data=!4m7!3m6!1s0x406abc997cf561d3:0xebf23815d891401a!8m2!3d40.1702145!4d44.5495049!16s%2Fg%2F11b7c2xs5d!19sChIJ02H1fJm8akARGkCR2BU48us?authuser=0&hl=tr&rclk=1",
    "website_url": "http://www.iratek.am/",
    "rating_text": "4,7",
    "stars": null,
    "number_of_reviews": null,
    "price_level": "",
    "open_hours": "",
    "extraction_timestamp": "2025-06-07T13:52:47.947Z",
    "source_name": "google",
    "source_query": "Irrigation Equipment",
    "source_country": "AM",
    "country": "Armenia",
    "state": "Kotayk Region",
    "city": "Zoravan"
  },
  {
    "source_id": "ChIJ6_q5mYujakARHImBZS4MM5U",
    "name": "Aqua Master",
    "category": "Aqua Master",
    "formatted_address": "5,0(3)",
    "phone_number": "+37443826682",
    "source_url": "https://www.google.com/maps/place/Aqua+Master/data=!4m7!3m6!1s0x406aa38b99b9faeb:0x95330c2e6581891c!8m2!3d40.2408716!4d44.5710315!16s%2Fg%2F11l6mbhtpr!19sChIJ6_q5mYujakARHImBZS4MM5U?authuser=0&hl=tr&rclk=1",
    "website_url": "https://www.irrigation.am/",
    "rating_text": "5,0",
    "stars": null,
    "number_of_reviews": null,
    "price_level": "",
    "open_hours": "",
    "extraction_timestamp": "2025-06-07T13:52:47.948Z",
    "source_name": "google",
    "source_query": "Irrigation Equipment",
    "source_country": "AM",
    "country": "Armenia",
    "state": "Kotayk Region",
    "city": "Zoravan"
  },
  {
    "source_id": "ChIJGWsctIGfakARxTTQwDCbW2c",
    "name": "\"ORWACO\" CJSC",
    "category": "\"ORWACO\" CJSC",
    "formatted_address": "5,0(12)",
    "phone_number": "+37494644073",
    "source_url": "https://www.google.com/maps/place/%22ORWACO%22+CJSC/data=!4m7!3m6!1s0x406a9f81b41c6b19:0x675b9b30c0d034c5!8m2!3d40.2850379!4d44.6220892!16s%2Fg%2F11c1ly1rj1!19sChIJGWsctIGfakARxTTQwDCbW2c?authuser=0&hl=tr&rclk=1",
    "website_url": "http://www.orwaco.am/",
    "rating_text": "5,0",
    "stars": null,
    "number_of_reviews": null,
    "price_level": "",
    "open_hours": "",
    "extraction_timestamp": "2025-06-07T13:52:47.960Z",
    "source_name": "google",
    "source_query": "Irrigation Equipment",
    "source_country": "AM",
    "country": "Armenia",
    "state": "Kotayk Region",
    "city": "Zoravan"
  },
  {
    "source_id": "ChIJj0nom8ifakARL3lCqpZQ7_0",
    "name": "Նուվո Վիլաժ ՍՊԸ",
    "category": "Նուվո Վիլաժ ՍՊԸ",
    "formatted_address": "5,0(1)",
    "phone_number": "+37495339933",
    "source_url": "https://www.google.com/maps/place/%D5%86%D5%B8%D6%82%D5%BE%D5%B8+%D5%8E%D5%AB%D5%AC%D5%A1%D5%AA+%D5%8D%D5%8A%D4%B8/data=!4m7!3m6!1s0x406a9fc89be8498f:0xfdef5096aa42792f!8m2!3d40.3246188!4d44.5434387!16s%2Fg%2F11y9xhtqwt!19sChIJj0nom8ifakARL3lCqpZQ7_0?authuser=0&hl=tr&rclk=1",
    "website_url": "https://nuvovilaj.com/",
    "rating_text": "5,0",
    "stars": null,
    "number_of_reviews": null,
    "price_level": "",
    "open_hours": "",
    "extraction_timestamp": "2025-06-07T13:52:47.961Z",
    "source_name": "google",
    "source_query": "Irrigation Equipment",
    "source_country": "AM",
    "country": "Armenia",
    "state": "Kotayk Region",
    "city": "Zoravan"
  },
  {
    "source_id": "ChIJSehc_K69akAR5hWXcDHb1G0",
    "name": "IRRRISAL Irrigation systems",
    "category": "IRRRISAL Irrigation systems",
    "formatted_address": "Sulama Ekipmanları Tedarikçisi · 210/1 Arshakunyats AveKapanmak üzere ⋅ 18:00 ⋅ Açılış zamanı: Paz 10:00 · +374 99 000559",
    "phone_number": "+37499000559",
    "source_url": "https://www.google.com/maps/place/IRRRISAL+Irrigation+systems/data=!4m7!3m6!1s0x406abdaefc5ce849:0x6dd4db31709715e6!8m2!3d40.1428036!4d44.4957727!16s%2Fg%2F11jgmv2bl9!19sChIJSehc_K69akAR5hWXcDHb1G0?authuser=0&hl=tr&rclk=1",
    "website_url": "",
    "rating_text": "",
    "stars": null,
    "number_of_reviews": null,
    "price_level": "",
    "open_hours": "",
    "extraction_timestamp": "2025-06-07T13:52:47.961Z",
    "source_name": "google",
    "source_query": "Irrigation Equipment",
    "source_country": "AM",
    "country": "Armenia",
    "state": "Kotayk Region",
    "city": "Zoravan"
  },
  {
    "source_id": "ChIJhxIgSJijakARCzCc9k6qVv4",
    "name": "Իմ այգին",
    "category": "Իմ այգին",
    "formatted_address": "3,7(3)",
    "phone_number": "+37499239697",
    "source_url": "https://www.google.com/maps/place/%D4%BB%D5%B4+%D5%A1%D5%B5%D5%A3%D5%AB%D5%B6/data=!4m7!3m6!1s0x406aa39848201287:0xfe56aa4ef69c300b!8m2!3d40.2391478!4d44.5658917!16s%2Fg%2F11h_4876gt!19sChIJhxIgSJijakARCzCc9k6qVv4?authuser=0&hl=tr&rclk=1",
    "website_url": "https://www.facebook.com/ImAygi/",
    "rating_text": "3,7",
    "stars": null,
    "number_of_reviews": null,
    "price_level": "",
    "open_hours": "",
    "extraction_timestamp": "2025-06-07T13:52:47.962Z",
    "source_name": "google",
    "source_query": "Irrigation Equipment",
    "source_country": "AM",
    "country": "Armenia",
    "state": "Kotayk Region",
    "city": "Zoravan"
  },
  {
    "source_id": "ChIJkyH9kO68akARa5tE5REcOjs",
    "name": "Grundfos-Horizon",
    "category": "Grundfos-Horizon",
    "formatted_address": "5,0(3)",
    "phone_number": "+37410570099",
    "source_url": "https://www.google.com/maps/place/Grundfos-Horizon/data=!4m7!3m6!1s0x406abcee90fd2193:0x3b3a1c11e5449b6b!8m2!3d40.1789501!4d44.527791!16s%2Fg%2F11cn2f54py!19sChIJkyH9kO68akARa5tE5REcOjs?authuser=0&hl=tr&rclk=1",
    "website_url": "http://www.horizon-service.am/",
    "rating_text": "5,0",
    "stars": null,
    "number_of_reviews": null,
    "price_level": "",
    "open_hours": "",
    "extraction_timestamp": "2025-06-07T13:52:47.963Z",
    "source_name": "google",
    "source_query": "Irrigation Equipment",
    "source_country": "AM",
    "country": "Armenia",
    "state": "Kotayk Region",
    "city": "Zoravan"
  },
  {
    "source_id": "ChIJx-5mAOW8akAR4hHamywAWKQ",
    "name": "Ani-Inter Co. Ltd.",
    "category": "Ani-Inter Co. Ltd.",
    "formatted_address": "5,0(1)",
    "phone_number": "+37410568983",
    "source_url": "https://www.google.com/maps/place/Ani-Inter+Co.+Ltd./data=!4m7!3m6!1s0x406abce50066eec7:0xa458002c9bda11e2!8m2!3d40.1817771!4d44.5200133!16s%2Fg%2F1hm2f6s85!19sChIJx-5mAOW8akAR4hHamywAWKQ?authuser=0&hl=tr&rclk=1",
    "website_url": "",
    "rating_text": "5,0",
    "stars": null,
    "number_of_reviews": null,
    "price_level": "",
    "open_hours": "",
    "extraction_timestamp": "2025-06-07T13:52:47.963Z",
    "source_name": "google",
    "source_query": "Irrigation Equipment",
    "source_country": "AM",
    "country": "Armenia",
    "state": "Kotayk Region",
    "city": "Zoravan"
  }
]
