[
  {
    "source_id": "ChIJP49lHJArVBMRVqYXEirDzKQ",
    "name": "Garden Centar 4SEASONS",
    "category": "Garden Centar 4SEASONS",
    "formatted_address": "5,0(5)",
    "phone_number": "+38970315446",
    "source_url": "https://www.google.com/maps/place/Garden+Centar+4SEASONS/data=!4m7!3m6!1s0x13542b901c658f3f:0xa4ccc32a1217a656!8m2!3d41.7284399!4d21.7786672!16s%2Fg%2F11jv38xq5b!19sChIJP49lHJArVBMRVqYXEirDzKQ?authuser=0&hl=tr&rclk=1",
    "website_url": "",
    "rating_text": "5,0",
    "stars": null,
    "number_of_reviews": null,
    "price_level": "",
    "open_hours": "",
    "extraction_timestamp": "2025-06-07T13:41:44.746Z",
    "source_name": "google",
    "source_query": "Irrigation Equipment",
    "source_country": "MK",
    "country": "North Macedonia",
    "state": "Veles Municipality",
    "city": "Veles"
  },
  {
    "source_id": "ChIJ81F2FFQpVBMRVd1-6ms0Y3s",
    "name": "Makfert",
    "category": "Makfert",
    "formatted_address": "5,0(2)",
    "phone_number": "+38971310728",
    "source_url": "https://www.google.com/maps/place/Makfert/data=!4m7!3m6!1s0x13542954147651f3:0x7b63346bea7edd55!8m2!3d41.7416036!4d21.7577133!16s%2Fg%2F11f6320s3_!19sChIJ81F2FFQpVBMRVd1-6ms0Y3s?authuser=0&hl=tr&rclk=1",
    "website_url": "",
    "rating_text": "5,0",
    "stars": null,
    "number_of_reviews": null,
    "price_level": "",
    "open_hours": "",
    "extraction_timestamp": "2025-06-07T13:41:44.746Z",
    "source_name": "google",
    "source_query": "Irrigation Equipment",
    "source_country": "MK",
    "country": "North Macedonia",
    "state": "Veles Municipality",
    "city": "Veles"
  },
  {
    "source_id": "ChIJUWGYkrcrVBMRwJNHWJaik8o",
    "name": "LUKOIL",
    "category": "LUKOIL",
    "formatted_address": "4,6(207)",
    "phone_number": "+38972257608",
    "source_url": "https://www.google.com/maps/place/LUKOIL/data=!4m7!3m6!1s0x13542bb792986151:0xca93a296584793c0!8m2!3d41.7219341!4d21.7875282!16s%2Fg%2F1tfs83jy!19sChIJUWGYkrcrVBMRwJNHWJaik8o?authuser=0&hl=tr&rclk=1",
    "website_url": "",
    "rating_text": "4,6",
    "stars": null,
    "number_of_reviews": null,
    "price_level": "",
    "open_hours": "",
    "extraction_timestamp": "2025-06-07T13:41:44.746Z",
    "source_name": "google",
    "source_query": "Irrigation Equipment",
    "source_country": "MK",
    "country": "North Macedonia",
    "state": "Veles Municipality",
    "city": "Veles"
  },
  {
    "source_id": "ChIJuU5O-dArVBMRTaNLmL9bCaw",
    "name": "Dimeks Keramika i Sanitarija",
    "category": "Dimeks Keramika i Sanitarija",
    "formatted_address": "5,0(2)",
    "phone_number": "+38970315707",
    "source_url": "https://www.google.com/maps/place/Dimeks+Keramika+i+Sanitarija/data=!4m7!3m6!1s0x13542bd0f94e4eb9:0xac095bbf984ba34d!8m2!3d41.7321176!4d21.7655098!16s%2Fg%2F11hz4t_ymh!19sChIJuU5O-dArVBMRTaNLmL9bCaw?authuser=0&hl=tr&rclk=1",
    "website_url": "",
    "rating_text": "5,0",
    "stars": null,
    "number_of_reviews": null,
    "price_level": "",
    "open_hours": "",
    "extraction_timestamp": "2025-06-07T13:41:44.747Z",
    "source_name": "google",
    "source_query": "Irrigation Equipment",
    "source_country": "MK",
    "country": "North Macedonia",
    "state": "Veles Municipality",
    "city": "Veles"
  },
  {
    "source_id": "ChIJF2YUPNErVBMREO0bV69swZI",
    "name": "Leov Company",
    "category": "Leov Company",
    "formatted_address": "3,7(42)",
    "phone_number": "+38943231530",
    "source_url": "https://www.google.com/maps/place/Leov+Company/data=!4m7!3m6!1s0x13542bd13c146617:0x92c16caf571bed10!8m2!3d41.7229408!4d21.7687324!16s%2Fg%2F12j8h6r6h!19sChIJF2YUPNErVBMREO0bV69swZI?authuser=0&hl=tr&rclk=1",
    "website_url": "",
    "rating_text": "3,7",
    "stars": null,
    "number_of_reviews": null,
    "price_level": "",
    "open_hours": "",
    "extraction_timestamp": "2025-06-07T13:41:44.747Z",
    "source_name": "google",
    "source_query": "Irrigation Equipment",
    "source_country": "MK",
    "country": "North Macedonia",
    "state": "Veles Municipality",
    "city": "Veles"
  },
  {
    "source_id": "ChIJIeHqtyoqVBMREuKqJ9EaLM0",
    "name": "Super Kit-Go",
    "category": "Super Kit-Go",
    "formatted_address": "4,4(494)",
    "phone_number": "+38943551801",
    "source_url": "https://www.google.com/maps/place/Super+Kit-Go/data=!4m7!3m6!1s0x13542a2ab7eae121:0xcd2c1ad127aae212!8m2!3d41.717476!4d21.762017!16s%2Fg%2F1hf3l9p6w!19sChIJIeHqtyoqVBMREuKqJ9EaLM0?authuser=0&hl=tr&rclk=1",
    "website_url": "",
    "rating_text": "4,4",
    "stars": null,
    "number_of_reviews": null,
    "price_level": "",
    "open_hours": "",
    "extraction_timestamp": "2025-06-07T13:41:44.747Z",
    "source_name": "google",
    "source_query": "Irrigation Equipment",
    "source_country": "MK",
    "country": "North Macedonia",
    "state": "Veles Municipality",
    "city": "Veles"
  },
  {
    "source_id": "ChIJlzOT-tErVBMR_Ws1RE4-IYA",
    "name": "P.E. \"Derven\" - Veles",
    "category": "P.E. \"Derven\" - Veles",
    "formatted_address": "2,3(15)",
    "phone_number": "+38943231011",
    "source_url": "https://www.google.com/maps/place/P.E.+%22Derven%22+-+Veles/data=!4m7!3m6!1s0x13542bd1fa933397:0x80213e4e44356bfd!8m2!3d41.7209729!4d21.7728569!16s%2Fg%2F11c1rtbxy2!19sChIJlzOT-tErVBMR_Ws1RE4-IYA?authuser=0&hl=tr&rclk=1",
    "website_url": "",
    "rating_text": "2,3",
    "stars": null,
    "number_of_reviews": null,
    "price_level": "",
    "open_hours": "",
    "extraction_timestamp": "2025-06-07T13:41:44.747Z",
    "source_name": "google",
    "source_query": "Irrigation Equipment",
    "source_country": "MK",
    "country": "North Macedonia",
    "state": "Veles Municipality",
    "city": "Veles"
  },
  {
    "source_id": "ChIJ50YQeScrVBMRjyEm_KPXIk8",
    "name": "Jkp Derven Filterna stanica",
    "category": "Jkp Derven Filterna stanica",
    "formatted_address": "",
    "phone_number": "+38976308038",
    "source_url": "https://www.google.com/maps/place/Jkp+Derven+Filterna+stanica/data=!4m7!3m6!1s0x13542b27791046e7:0x4f22d7a3fc26218f!8m2!3d41.7052144!4d21.7637844!16s%2Fg%2F11sx202s3y!19sChIJ50YQeScrVBMRjyEm_KPXIk8?authuser=0&hl=tr&rclk=1",
    "website_url": "",
    "rating_text": "",
    "stars": null,
    "number_of_reviews": null,
    "price_level": "",
    "open_hours": "",
    "extraction_timestamp": "2025-06-07T13:41:44.747Z",
    "source_name": "google",
    "source_query": "Irrigation Equipment",
    "source_country": "MK",
    "country": "North Macedonia",
    "state": "Veles Municipality",
    "city": "Veles"
  },
  {
    "source_id": "ChIJ79y4YcorVBMRDKCXRJ6IHEM",
    "name": "Setec Veles",
    "category": "Setec Veles",
    "formatted_address": "4,2(153)",
    "phone_number": "+38976314271",
    "source_url": "https://www.google.com/maps/place/Setec+Veles/data=!4m7!3m6!1s0x13542bca61b8dcef:0x431c889e4497a00c!8m2!3d41.7158757!4d21.7843114!16s%2Fg%2F11b8z_7yr3!19sChIJ79y4YcorVBMRDKCXRJ6IHEM?authuser=0&hl=tr&rclk=1",
    "website_url": "",
    "rating_text": "4,2",
    "stars": null,
    "number_of_reviews": null,
    "price_level": "",
    "open_hours": "",
    "extraction_timestamp": "2025-06-07T13:41:44.748Z",
    "source_name": "google",
    "source_query": "Irrigation Equipment",
    "source_country": "MK",
    "country": "North Macedonia",
    "state": "Veles Municipality",
    "city": "Veles"
  },
  {
    "source_id": "ChIJwySz4LYVVBMR5ZphfwP5y-g",
    "name": "Neptun",
    "category": "Neptun",
    "formatted_address": "4,3(177)",
    "phone_number": "+38925514777",
    "source_url": "https://www.google.com/maps/place/Neptun/data=!4m7!3m6!1s0x135415b6e0b324c3:0xe8cbf9037f619ae5!8m2!3d41.7132433!4d21.7869632!16s%2Fg%2F119tgvmtr!19sChIJwySz4LYVVBMR5ZphfwP5y-g?authuser=0&hl=tr&rclk=1",
    "website_url": "",
    "rating_text": "4,3",
    "stars": null,
    "number_of_reviews": null,
    "price_level": "",
    "open_hours": "",
    "extraction_timestamp": "2025-06-07T13:41:44.748Z",
    "source_name": "google",
    "source_query": "Irrigation Equipment",
    "source_country": "MK",
    "country": "North Macedonia",
    "state": "Veles Municipality",
    "city": "Veles"
  },
  {
    "source_id": "ChIJhWjwfsIVVBMRRLnszbZbxUk",
    "name": "Irrigationpro",
    "category": "Irrigationpro",
    "formatted_address": "5,0(1)",
    "phone_number": "+38970401147",
    "source_url": "https://www.google.com/maps/place/Irrigationpro/data=!4m7!3m6!1s0x135415c27ef06885:0x49c55bb6cdecb944!8m2!3d41.9907145!4d21.4371336!16s%2Fg%2F11h27mkf2n!19sChIJhWjwfsIVVBMRRLnszbZbxUk?authuser=0&hl=tr&rclk=1",
    "website_url": "",
    "rating_text": "5,0",
    "stars": null,
    "number_of_reviews": null,
    "price_level": "",
    "open_hours": "",
    "extraction_timestamp": "2025-06-07T13:41:44.748Z",
    "source_name": "google",
    "source_query": "Irrigation Equipment",
    "source_country": "MK",
    "country": "North Macedonia",
    "state": "Veles Municipality",
    "city": "Veles"
  },
  {
    "source_id": "ChIJdxYwDgUrVBMRVDTSs7RH9HA",
    "name": "Stokomak - Veles",
    "category": "Stokomak - Veles",
    "formatted_address": "4,4(367)",
    "phone_number": "+38976206268",
    "source_url": "https://www.google.com/maps/place/Stokomak+-+Veles/data=!4m7!3m6!1s0x13542b050e301677:0x70f447b4b3d23454!8m2!3d41.7221107!4d21.7697715!16s%2Fg%2F11gpnhpf3r!19sChIJdxYwDgUrVBMRVDTSs7RH9HA?authuser=0&hl=tr&rclk=1",
    "website_url": "",
    "rating_text": "4,4",
    "stars": null,
    "number_of_reviews": null,
    "price_level": "",
    "open_hours": "",
    "extraction_timestamp": "2025-06-07T13:41:44.748Z",
    "source_name": "google",
    "source_query": "Irrigation Equipment",
    "source_country": "MK",
    "country": "North Macedonia",
    "state": "Veles Municipality",
    "city": "Veles"
  },
  {
    "source_id": "ChIJ7UJCF5ArVBMRjQkWxfiMIug",
    "name": "Elita-tri",
    "category": "Elita-tri",
    "formatted_address": "4,6(5)",
    "phone_number": "+38943617326",
    "source_url": "https://www.google.com/maps/place/Elita-tri/data=!4m7!3m6!1s0x13542b90174242ed:0xe8228cf8c516098d!8m2!3d41.7089747!4d21.7708059!16s%2Fg%2F11g0nchw31!19sChIJ7UJCF5ArVBMRjQkWxfiMIug?authuser=0&hl=tr&rclk=1",
    "website_url": "",
    "rating_text": "4,6",
    "stars": null,
    "number_of_reviews": null,
    "price_level": "",
    "open_hours": "",
    "extraction_timestamp": "2025-06-07T13:41:44.748Z",
    "source_name": "google",
    "source_query": "Irrigation Equipment",
    "source_country": "MK",
    "country": "North Macedonia",
    "state": "Veles Municipality",
    "city": "Veles"
  },
  {
    "source_id": "ChIJX3_qEysqVBMRAeKqgNDlD1k",
    "name": "Energometal",
    "category": "Energometal",
    "formatted_address": "4,3(24)",
    "phone_number": "+38978315596",
    "source_url": "https://www.google.com/maps/place/Energometal/data=!4m7!3m6!1s0x13542a2b13ea7f5f:0x590fe5d080aae201!8m2!3d41.7182076!4d21.7790208!16s%2Fg%2F1tds3_4x!19sChIJX3_qEysqVBMRAeKqgNDlD1k?authuser=0&hl=tr&rclk=1",
    "website_url": "",
    "rating_text": "4,3",
    "stars": null,
    "number_of_reviews": null,
    "price_level": "",
    "open_hours": "",
    "extraction_timestamp": "2025-06-07T13:41:44.749Z",
    "source_name": "google",
    "source_query": "Irrigation Equipment",
    "source_country": "MK",
    "country": "North Macedonia",
    "state": "Veles Municipality",
    "city": "Veles"
  },
  {
    "source_id": "ChIJo-yWDcwrVBMRMlotM5kDvgE",
    "name": "Avtoluks gedakom",
    "category": "Avtoluks gedakom",
    "formatted_address": "4,8(28)",
    "phone_number": "+38978306603",
    "source_url": "https://www.google.com/maps/place/Avtoluks+gedakom/data=!4m7!3m6!1s0x13542bcc0d96eca3:0x1be0399332d5a32!8m2!3d41.7182499!4d21.7788293!16s%2Fg%2F11fzb0zkcw!19sChIJo-yWDcwrVBMRMlotM5kDvgE?authuser=0&hl=tr&rclk=1",
    "website_url": "",
    "rating_text": "4,8",
    "stars": null,
    "number_of_reviews": null,
    "price_level": "",
    "open_hours": "",
    "extraction_timestamp": "2025-06-07T13:41:44.749Z",
    "source_name": "google",
    "source_query": "Irrigation Equipment",
    "source_country": "MK",
    "country": "North Macedonia",
    "state": "Veles Municipality",
    "city": "Veles"
  },
  {
    "source_id": "ChIJqQ4RcIkpVBMRdy1McApXl1E",
    "name": "Zito Marketi",
    "category": "Zito Marketi",
    "formatted_address": "4,5(308)",
    "phone_number": "+38943226990",
    "source_url": "https://www.google.com/maps/place/Zito+Marketi/data=!4m7!3m6!1s0x1354298970110ea9:0x5197570a704c2d77!8m2!3d41.710618!4d21.7634649!16s%2Fg%2F11hcks0nfz!19sChIJqQ4RcIkpVBMRdy1McApXl1E?authuser=0&hl=tr&rclk=1",
    "website_url": "",
    "rating_text": "4,5",
    "stars": null,
    "number_of_reviews": null,
    "price_level": "",
    "open_hours": "",
    "extraction_timestamp": "2025-06-07T13:41:44.749Z",
    "source_name": "google",
    "source_query": "Irrigation Equipment",
    "source_country": "MK",
    "country": "North Macedonia",
    "state": "Veles Municipality",
    "city": "Veles"
  },
  {
    "source_id": "ChIJ4e-bnvsrVBMRGWRr2igOue8",
    "name": "Enmon",
    "category": "Enmon",
    "formatted_address": "4,5(88)",
    "phone_number": "+38971220855",
    "source_url": "https://www.google.com/maps/place/Enmon/data=!4m7!3m6!1s0x13542bfb9e9befe1:0xefb90e28da6b6419!8m2!3d41.7477682!4d21.7684656!16s%2Fg%2F11g9mcbfs3!19sChIJ4e-bnvsrVBMRGWRr2igOue8?authuser=0&hl=tr&rclk=1",
    "website_url": "",
    "rating_text": "4,5",
    "stars": null,
    "number_of_reviews": null,
    "price_level": "",
    "open_hours": "",
    "extraction_timestamp": "2025-06-07T13:41:44.749Z",
    "source_name": "google",
    "source_query": "Irrigation Equipment",
    "source_country": "MK",
    "country": "North Macedonia",
    "state": "Veles Municipality",
    "city": "Veles"
  },
  {
    "source_id": "ChIJRWvRsikqVBMR0v-YgQdjdy0",
    "name": "ТП ПЕПИДА МАРКЕТ",
    "category": "ТП ПЕПИДА МАРКЕТ",
    "formatted_address": "4,3(44)",
    "phone_number": "+38978401113",
    "source_url": "https://www.google.com/maps/place/%D0%A2%D0%9F+%D0%9F%D0%95%D0%9F%D0%98%D0%94%D0%90+%D0%9C%D0%90%D0%A0%D0%9A%D0%95%D0%A2/data=!4m7!3m6!1s0x13542a29b2d16b45:0x2d7763078198ffd2!8m2!3d41.7099128!4d21.7607986!16s%2Fg%2F11g6zjfwjl!19sChIJRWvRsikqVBMR0v-YgQdjdy0?authuser=0&hl=tr&rclk=1",
    "website_url": "",
    "rating_text": "4,3",
    "stars": null,
    "number_of_reviews": null,
    "price_level": "",
    "open_hours": "",
    "extraction_timestamp": "2025-06-07T13:41:44.749Z",
    "source_name": "google",
    "source_query": "Irrigation Equipment",
    "source_country": "MK",
    "country": "North Macedonia",
    "state": "Veles Municipality",
    "city": "Veles"
  },
  {
    "source_id": "ChIJfcBGEtMrVBMRgh_1ugemkoU",
    "name": "Alfa 4",
    "category": "Alfa 4",
    "formatted_address": "4,0(113)",
    "phone_number": "",
    "source_url": "https://www.google.com/maps/place/Alfa+4/data=!4m7!3m6!1s0x13542bd31246c07d:0x8592a607baf51f82!8m2!3d41.7181513!4d21.7691809!16s%2Fg%2F11clsjs917!19sChIJfcBGEtMrVBMRgh_1ugemkoU?authuser=0&hl=tr&rclk=1",
    "website_url": "",
    "rating_text": "4,0",
    "stars": null,
    "number_of_reviews": null,
    "price_level": "",
    "open_hours": "",
    "extraction_timestamp": "2025-06-07T13:41:44.750Z",
    "source_name": "google",
    "source_query": "Irrigation Equipment",
    "source_country": "MK",
    "country": "North Macedonia",
    "state": "Veles Municipality",
    "city": "Veles"
  },
  {
    "source_id": "ChIJ2aGwlcorVBMRhfELB5a59go",
    "name": "Градски Саат",
    "category": "Градски Саат",
    "formatted_address": "4,3(204)",
    "phone_number": "+38943226990",
    "source_url": "https://www.google.com/maps/place/%D0%93%D1%80%D0%B0%D0%B4%D1%81%D0%BA%D0%B8+%D0%A1%D0%B0%D0%B0%D1%82/data=!4m7!3m6!1s0x13542bca95b0a1d9:0xaf6b996070bf185!8m2!3d41.714807!4d21.7840326!16s%2Fg%2F11gz_lc62!19sChIJ2aGwlcorVBMRhfELB5a59go?authuser=0&hl=tr&rclk=1",
    "website_url": "",
    "rating_text": "4,3",
    "stars": null,
    "number_of_reviews": null,
    "price_level": "",
    "open_hours": "",
    "extraction_timestamp": "2025-06-07T13:41:44.750Z",
    "source_name": "google",
    "source_query": "Irrigation Equipment",
    "source_country": "MK",
    "country": "North Macedonia",
    "state": "Veles Municipality",
    "city": "Veles"
  },
  {
    "source_id": "ChIJN3xM2qQVVBMRO6JUTOFp-eU",
    "name": "Envolve",
    "category": "Envolve",
    "formatted_address": "5,0(2)",
    "phone_number": "+38975947800",
    "source_url": "https://www.google.com/maps/place/Envolve/data=!4m7!3m6!1s0x135415a4da4c7c37:0xe5f969e14c54a23b!8m2!3d41.9801789!4d21.4466615!16s%2Fg%2F11jp77hr93!19sChIJN3xM2qQVVBMRO6JUTOFp-eU?authuser=0&hl=tr&rclk=1",
    "website_url": "",
    "rating_text": "5,0",
    "stars": null,
    "number_of_reviews": null,
    "price_level": "",
    "open_hours": "",
    "extraction_timestamp": "2025-06-07T13:41:44.750Z",
    "source_name": "google",
    "source_query": "Irrigation Equipment",
    "source_country": "MK",
    "country": "North Macedonia",
    "state": "Veles Municipality",
    "city": "Veles"
  },
  {
    "source_id": "ChIJbYSIxxErVBMRfi8XBp931xI",
    "name": "Kipper",
    "category": "Kipper",
    "formatted_address": "3,9(93)",
    "phone_number": "",
    "source_url": "https://www.google.com/maps/place/Kipper/data=!4m7!3m6!1s0x13542b11c788846d:0x12d7779f06172f7e!8m2!3d41.7119401!4d21.7636212!16s%2Fg%2F11q9rzjcl7!19sChIJbYSIxxErVBMRfi8XBp931xI?authuser=0&hl=tr&rclk=1",
    "website_url": "",
    "rating_text": "3,9",
    "stars": null,
    "number_of_reviews": null,
    "price_level": "",
    "open_hours": "",
    "extraction_timestamp": "2025-06-07T13:41:44.750Z",
    "source_name": "google",
    "source_query": "Irrigation Equipment",
    "source_country": "MK",
    "country": "North Macedonia",
    "state": "Veles Municipality",
    "city": "Veles"
  },
  {
    "source_id": "ChIJi6WmObUrVBMR8TP2lOPNZj8",
    "name": "Жито Маркети Центар",
    "category": "Жито Маркети Центар",
    "formatted_address": "4,2(321)",
    "phone_number": "+38943226990",
    "source_url": "https://www.google.com/maps/place/%D0%96%D0%B8%D1%82%D0%BE+%D0%9C%D0%B0%D1%80%D0%BA%D0%B5%D1%82%D0%B8+%D0%A6%D0%B5%D0%BD%D1%82%D0%B0%D1%80/data=!4m7!3m6!1s0x13542bb539a6a58b:0x3f66cde394f633f1!8m2!3d41.7164563!4d21.7722966!16s%2Fg%2F1tfhw7yz!19sChIJi6WmObUrVBMR8TP2lOPNZj8?authuser=0&hl=tr&rclk=1",
    "website_url": "",
    "rating_text": "4,2",
    "stars": null,
    "number_of_reviews": null,
    "price_level": "",
    "open_hours": "",
    "extraction_timestamp": "2025-06-07T13:41:44.750Z",
    "source_name": "google",
    "source_query": "Irrigation Equipment",
    "source_country": "MK",
    "country": "North Macedonia",
    "state": "Veles Municipality",
    "city": "Veles"
  },
  {
    "source_id": "ChIJpYYbc5grVBMRzrOb6sDODn4",
    "name": "STOKOMAK",
    "category": "STOKOMAK",
    "formatted_address": "4,6(31)",
    "phone_number": "",
    "source_url": "https://www.google.com/maps/place/STOKOMAK/data=!4m7!3m6!1s0x13542b98731b86a5:0x7e0ecec0ea9bb3ce!8m2!3d41.7114907!4d21.7624973!16s%2Fg%2F11kj0dn9w0!19sChIJpYYbc5grVBMRzrOb6sDODn4?authuser=0&hl=tr&rclk=1",
    "website_url": "",
    "rating_text": "4,6",
    "stars": null,
    "number_of_reviews": null,
    "price_level": "",
    "open_hours": "",
    "extraction_timestamp": "2025-06-07T13:41:44.751Z",
    "source_name": "google",
    "source_query": "Irrigation Equipment",
    "source_country": "MK",
    "country": "North Macedonia",
    "state": "Veles Municipality",
    "city": "Veles"
  },
  {
    "source_id": "ChIJt5Sn0EW8VRMRwe1MrDj2D7g",
    "name": "Public Enterprise Hydrosystem \"Zletovica\"",
    "category": "Public Enterprise Hydrosystem \"Zletovica\"",
    "formatted_address": "4,4(5)",
    "phone_number": "+38932481520",
    "source_url": "https://www.google.com/maps/place/Public+Enterprise+Hydrosystem+%22Zletovica%22/data=!4m7!3m6!1s0x1355bc45d0a794b7:0xb80ff638ac4cedc1!8m2!3d41.9997771!4d22.176595!16s%2Fg%2F11f50x307m!19sChIJt5Sn0EW8VRMRwe1MrDj2D7g?authuser=0&hl=tr&rclk=1",
    "website_url": "http://www.hszletovica.com.mk/",
    "rating_text": "4,4",
    "stars": null,
    "number_of_reviews": null,
    "price_level": "",
    "open_hours": "",
    "extraction_timestamp": "2025-06-07T17:11:39.043Z",
    "source_name": "google",
    "source_query": "Irrigation Equipment",
    "source_country": "MK",
    "country": "North Macedonia",
    "state": "Češinovo-Obleševo Municipality",
    "city": "Češinovo"
  },
  {
    "source_id": "ChIJ7f3YhRj_qRQRepBfgUmSdO8",
    "name": "drip irrigation system",
    "category": "drip irrigation system",
    "formatted_address": "",
    "phone_number": "+38970214420",
    "source_url": "https://www.google.com/maps/place/drip+irrigation+system/data=!4m7!3m6!1s0x14a9ff1885d8fded:0xef749249815f907a!8m2!3d41.4376826!4d22.6444234!16s%2Fg%2F11tjjvc857!19sChIJ7f3YhRj_qRQRepBfgUmSdO8?authuser=0&hl=tr&rclk=1",
    "website_url": "http://pronexhem.mk/",
    "rating_text": "",
    "stars": null,
    "number_of_reviews": null,
    "price_level": "",
    "open_hours": "",
    "extraction_timestamp": "2025-06-07T17:11:39.043Z",
    "source_name": "google",
    "source_query": "Irrigation Equipment",
    "source_country": "MK",
    "country": "North Macedonia",
    "state": "Češinovo-Obleševo Municipality",
    "city": "Češinovo"
  },
  {
    "source_id": "ChIJQd0KVKeUVRMRn47sCkiphJQ",
    "name": "Zhito Marketi",
    "category": "Zhito Marketi",
    "formatted_address": "4,0(100)",
    "phone_number": "+38943226990",
    "source_url": "https://www.google.com/maps/place/Zhito+Marketi/data=!4m7!3m6!1s0x135594a7540add41:0x9484a9480aec8e9f!8m2!3d41.8822947!4d22.3334134!16s%2Fg%2F11bycfk3lm!19sChIJQd0KVKeUVRMRn47sCkiphJQ?authuser=0&hl=tr&rclk=1",
    "website_url": "http://zito.com.mk/",
    "rating_text": "4,0",
    "stars": null,
    "number_of_reviews": null,
    "price_level": "",
    "open_hours": "",
    "extraction_timestamp": "2025-06-07T17:11:47.359Z",
    "source_name": "google",
    "source_query": "Irrigation Equipment",
    "source_country": "MK",
    "country": "North Macedonia",
    "state": "Češinovo-Obleševo Municipality",
    "city": "Oblesevo"
  }
]
