[
  {
    "source_id": "ChIJBYwaxDHhBkARM8NqWPtQxls",
    "name": "JUNGLE",
    "category": "JUNGLE",
    "formatted_address": "5,0(2)",
    "phone_number": "+9647512771001",
    "source_url": "https://www.google.com/maps/place/JUNGLE/data=!4m7!3m6!1s0x4006e131c41a8c05:0x5bc650fb586ac333!8m2!3d36.3024533!4d44.022644!16s%2Fg%2F11vqpbp9_k!19sChIJBYwaxDHhBkARM8NqWPtQxls?authuser=0&hl=tr&rclk=1",
    "website_url": "",
    "rating_text": "5,0",
    "stars": null,
    "number_of_reviews": null,
    "price_level": "",
    "open_hours": "",
    "extraction_timestamp": "2025-06-07T13:41:17.436Z",
    "source_name": "google",
    "source_query": "Irrigation Equipment",
    "source_country": "IR",
    "country": "Iran",
    "state": "Kurdistan",
    "city": "Armardeh"
  },
  {
    "source_id": "ChIJ20aFXPU5_j8RZbfAQyPRVzk",
    "name": "بەڕێوەبەرایەتی ئاودێرى گەرمیان",
    "category": "بەڕێوەبەرایەتی ئاودێرى گەرمیان",
    "formatted_address": "5,0(1)",
    "phone_number": "+9647709559011",
    "source_url": "https://www.google.com/maps/place/%D8%A8%DB%95%DA%95%DB%8E%D9%88%DB%95%D8%A8%DB%95%D8%B1%D8%A7%DB%8C%DB%95%D8%AA%DB%8C+%D8%A6%D8%A7%D9%88%D8%AF%DB%8E%D8%B1%D9%89+%DA%AF%DB%95%D8%B1%D9%85%DB%8C%D8%A7%D9%86%E2%80%AD/data=!4m7!3m6!1s0x3ffe39f55c8546db:0x3957d12343c0b765!8m2!3d34.6373218!4d45.292369!16s%2Fg%2F11vbjf41g6!19sChIJ20aFXPU5_j8RZbfAQyPRVzk?authuser=0&hl=tr&rclk=1",
    "website_url": "",
    "rating_text": "5,0",
    "stars": null,
    "number_of_reviews": null,
    "price_level": "",
    "open_hours": "",
    "extraction_timestamp": "2025-06-07T13:41:17.437Z",
    "source_name": "google",
    "source_query": "Irrigation Equipment",
    "source_country": "IR",
    "country": "Iran",
    "state": "Kurdistan",
    "city": "Armardeh"
  },
  {
    "source_id": "ChIJqcRwPwA__j8RSkgckMBTYBg",
    "name": "هیوا پلاستیک",
    "category": "هیوا پلاستیک",
    "formatted_address": "5,0(2)",
    "phone_number": "+9647708162013",
    "source_url": "https://www.google.com/maps/place/%D9%87%DB%8C%D9%88%D8%A7+%D9%BE%D9%84%D8%A7%D8%B3%D8%AA%DB%8C%DA%A9%E2%80%AD/data=!4m7!3m6!1s0x3ffe3f003f70c4a9:0x186053c0901c484a!8m2!3d34.596848!4d45.2987307!16s%2Fg%2F11yc0bfpx_!19sChIJqcRwPwA__j8RSkgckMBTYBg?authuser=0&hl=tr&rclk=1",
    "website_url": "",
    "rating_text": "5,0",
    "stars": null,
    "number_of_reviews": null,
    "price_level": "",
    "open_hours": "",
    "extraction_timestamp": "2025-06-07T13:41:17.437Z",
    "source_name": "google",
    "source_query": "Irrigation Equipment",
    "source_country": "IR",
    "country": "Iran",
    "state": "Kurdistan",
    "city": "Armardeh"
  },
  {
    "source_id": "ChIJ5ZsarodJB0ARpqoHHnxcH00",
    "name": "Serwan Saady company",
    "category": "Serwan Saady company",
    "formatted_address": "5,0(2)",
    "phone_number": "+9647504478054",
    "source_url": "https://www.google.com/maps/place/Serwan+Saady+company/data=!4m7!3m6!1s0x40074987ae1a9be5:0x4d1f5c7c1e07aaa6!8m2!3d36.0373773!4d43.9317342!16s%2Fg%2F11v3fqbl1p!19sChIJ5ZsarodJB0ARpqoHHnxcH00?authuser=0&hl=tr&rclk=1",
    "website_url": "",
    "rating_text": "5,0",
    "stars": null,
    "number_of_reviews": null,
    "price_level": "",
    "open_hours": "",
    "extraction_timestamp": "2025-06-07T13:41:17.438Z",
    "source_name": "google",
    "source_query": "Irrigation Equipment",
    "source_country": "IR",
    "country": "Iran",
    "state": "Kurdistan",
    "city": "Armardeh"
  },
  {
    "source_id": "ChIJU-KvKAAtAEARCDFh0SgATfM",
    "name": "Awezan Company",
    "category": "Awezan Company",
    "formatted_address": "5,0(1)",
    "phone_number": "+9647701045656",
    "source_url": "https://www.google.com/maps/place/Awezan+Company/data=!4m7!3m6!1s0x40002d0028afe253:0xf34d0028d1613108!8m2!3d35.5815895!4d45.4186514!16s%2Fg%2F11v0tkdg3k!19sChIJU-KvKAAtAEARCDFh0SgATfM?authuser=0&hl=tr&rclk=1",
    "website_url": "http://www.awezanco.com/",
    "rating_text": "5,0",
    "stars": null,
    "number_of_reviews": null,
    "price_level": "",
    "open_hours": "",
    "extraction_timestamp": "2025-06-07T13:41:17.438Z",
    "source_name": "google",
    "source_query": "Irrigation Equipment",
    "source_country": "IR",
    "country": "Iran",
    "state": "Kurdistan",
    "city": "Armardeh"
  },
  {
    "source_id": "ChIJS7-osl0Bjj8R84DcdIl7k_8",
    "name": "Irrigation and Farming Company Aria Tib",
    "category": "Irrigation and Farming Company Aria Tib",
    "formatted_address": "4,7(7)",
    "phone_number": "+982188845454",
    "source_url": "https://www.google.com/maps/place/Irrigation+and+Farming+Company+Aria+Tib/data=!4m7!3m6!1s0x3f8e015db2a8bf4b:0xff937b8974dc80f3!8m2!3d35.7232298!4d51.4237588!16s%2Fg%2F11f0kvhyt6!19sChIJS7-osl0Bjj8R84DcdIl7k_8?authuser=0&hl=tr&rclk=1",
    "website_url": "",
    "rating_text": "4,7",
    "stars": null,
    "number_of_reviews": null,
    "price_level": "",
    "open_hours": "",
    "extraction_timestamp": "2025-06-07T13:41:17.439Z",
    "source_name": "google",
    "source_query": "Irrigation Equipment",
    "source_country": "IR",
    "country": "Iran",
    "state": "Kurdistan",
    "city": "Armardeh"
  },
  {
    "source_id": "ChIJJ_9gekRRAkARS2uR8_iBiho",
    "name": "کارخانه نهرین لوله آریا",
    "category": "کارخانه نهرین لوله آریا",
    "formatted_address": "5,0(1)",
    "phone_number": "+989182471508",
    "source_url": "https://www.google.com/maps/place/%DA%A9%D8%A7%D8%B1%D8%AE%D8%A7%D9%86%D9%87+%D9%86%D9%87%D8%B1%DB%8C%D9%86+%D9%84%D9%88%D9%84%D9%87+%D8%A2%D8%B1%DB%8C%D8%A7%E2%80%AD/data=!4m7!3m6!1s0x400251447a60ff27:0x1a8a81f8f3916b4b!8m2!3d36.3090145!4d46.2536666!16s%2Fg%2F11h80f6nrp!19sChIJJ_9gekRRAkARS2uR8_iBiho?authuser=0&hl=tr&rclk=1",
    "website_url": "",
    "rating_text": "5,0",
    "stars": null,
    "number_of_reviews": null,
    "price_level": "",
    "open_hours": "",
    "extraction_timestamp": "2025-06-07T13:41:17.440Z",
    "source_name": "google",
    "source_query": "Irrigation Equipment",
    "source_country": "IR",
    "country": "Iran",
    "state": "Kurdistan",
    "city": "Armardeh"
  },
  {
    "source_id": "ChIJM14qyZQGjj8REzFOag3oADM",
    "name": "kamco",
    "category": "kamco",
    "formatted_address": "5,0(1)",
    "phone_number": "+982188225302",
    "source_url": "https://www.google.com/maps/place/kamco/data=!4m7!3m6!1s0x3f8e0694c92a5e33:0x3300e80d6a4e3113!8m2!3d35.7235012!4d51.4019769!16s%2Fg%2F11b6d0knrt!19sChIJM14qyZQGjj8REzFOag3oADM?authuser=0&hl=tr&rclk=1",
    "website_url": "",
    "rating_text": "5,0",
    "stars": null,
    "number_of_reviews": null,
    "price_level": "",
    "open_hours": "",
    "extraction_timestamp": "2025-06-07T13:41:17.440Z",
    "source_name": "google",
    "source_query": "Irrigation Equipment",
    "source_country": "IR",
    "country": "Iran",
    "state": "Kurdistan",
    "city": "Armardeh"
  },
  {
    "source_id": "ChIJTZcRj3_zBEAR8XzogL7QSrA",
    "name": "تجهیزات آبیاری سید صلاح",
    "category": "تجهیزات آبیاری سید صلاح",
    "formatted_address": "5,0(1)",
    "phone_number": "+989144488768",
    "source_url": "https://www.google.com/maps/place/%D8%AA%D8%AC%D9%87%DB%8C%D8%B2%D8%A7%D8%AA+%D8%A2%D8%A8%DB%8C%D8%A7%D8%B1%DB%8C+%D8%B3%DB%8C%D8%AF+%D8%B5%D9%84%D8%A7%D8%AD%E2%80%AD/data=!4m7!3m6!1s0x4004f37f8f11974d:0xb04ad0be80e87cf1!8m2!3d36.9526169!4d45.3800755!16s%2Fg%2F11t6nn7z94!19sChIJTZcRj3_zBEAR8XzogL7QSrA?authuser=0&hl=tr&rclk=1",
    "website_url": "",
    "rating_text": "5,0",
    "stars": null,
    "number_of_reviews": null,
    "price_level": "",
    "open_hours": "",
    "extraction_timestamp": "2025-06-07T13:41:17.441Z",
    "source_name": "google",
    "source_query": "Irrigation Equipment",
    "source_country": "IR",
    "country": "Iran",
    "state": "Kurdistan",
    "city": "Armardeh"
  },
  {
    "source_id": "ChIJj9RDG_SZjT8RDjffnfnE7O4",
    "name": "شرکت آرسیس قطران",
    "category": "شرکت آرسیس قطران",
    "formatted_address": "5,0(8)",
    "phone_number": "+989120953243",
    "source_url": "https://www.google.com/maps/place/%D8%B4%D8%B1%DA%A9%D8%AA+%D8%A2%D8%B1%D8%B3%DB%8C%D8%B3+%D9%82%D8%B7%D8%B1%D8%A7%D9%86%E2%80%AD/data=!4m7!3m6!1s0x3f8d99f41b43d48f:0xeeecc4f99ddf370e!8m2!3d35.6874063!4d50.8287973!16s%2Fg%2F11spqwtkx2!19sChIJj9RDG_SZjT8RDjffnfnE7O4?authuser=0&hl=tr&rclk=1",
    "website_url": "",
    "rating_text": "5,0",
    "stars": null,
    "number_of_reviews": null,
    "price_level": "",
    "open_hours": "",
    "extraction_timestamp": "2025-06-07T13:41:17.441Z",
    "source_name": "google",
    "source_query": "Irrigation Equipment",
    "source_country": "IR",
    "country": "Iran",
    "state": "Kurdistan",
    "city": "Armardeh"
  },
  {
    "source_id": "ChIJNS8FGphTBUARkgj0RJ_JewY",
    "name": "شرکت تجارت سبز سولدوز",
    "category": "شرکت تجارت سبز سولدوز",
    "formatted_address": "Sulama Ekipmanları Tedarikçisi · Hasani St, G2VQ+JV8Kapanmak üzere ⋅ 18:00 ⋅ Açılış zamanı: Paz 08:00 · +98 44 3322 4777",
    "phone_number": "+984433224777",
    "source_url": "https://www.google.com/maps/place/%D8%B4%D8%B1%DA%A9%D8%AA+%D8%AA%D8%AC%D8%A7%D8%B1%D8%AA+%D8%B3%D8%A8%D8%B2+%D8%B3%D9%88%D9%84%D8%AF%D9%88%D8%B2%E2%80%AD/data=!4m7!3m6!1s0x400553981a052f35:0x67bc99f44f40892!8m2!3d37.5440486!4d45.0396968!16s%2Fg%2F11d_d0k8xk!19sChIJNS8FGphTBUARkgj0RJ_JewY?authuser=0&hl=tr&rclk=1",
    "website_url": "",
    "rating_text": "",
    "stars": null,
    "number_of_reviews": null,
    "price_level": "",
    "open_hours": "",
    "extraction_timestamp": "2025-06-07T13:41:17.442Z",
    "source_name": "google",
    "source_query": "Irrigation Equipment",
    "source_country": "IR",
    "country": "Iran",
    "state": "Kurdistan",
    "city": "Armardeh"
  },
  {
    "source_id": "ChIJ_fLPRAABjj8RSeosiGuijm8",
    "name": "هانترسل",
    "category": "هانترسل",
    "formatted_address": "5,0(2)",
    "phone_number": "+982155808909",
    "source_url": "https://www.google.com/maps/place/%D9%87%D8%A7%D9%86%D8%AA%D8%B1%D8%B3%D9%84%E2%80%AD/data=!4m7!3m6!1s0x3f8e010044cff2fd:0x6f8ea26b882cea49!8m2!3d35.6811685!4d51.4107418!16s%2Fg%2F11vwx4_tj0!19sChIJ_fLPRAABjj8RSeosiGuijm8?authuser=0&hl=tr&rclk=1",
    "website_url": "",
    "rating_text": "5,0",
    "stars": null,
    "number_of_reviews": null,
    "price_level": "",
    "open_hours": "",
    "extraction_timestamp": "2025-06-07T13:41:17.442Z",
    "source_name": "google",
    "source_query": "Irrigation Equipment",
    "source_country": "IR",
    "country": "Iran",
    "state": "Kurdistan",
    "city": "Armardeh"
  },
  {
    "source_id": "ChIJoTsSQQsBjj8Re4yPgbYBMnk",
    "name": "Movahedin",
    "category": "Movahedin",
    "formatted_address": "Sulama Ekipmanları Tedarikçisi · Shahriar, PC25+5GXKapalı ⋅ Açılış zamanı: Paz 08:00 · +98 21 6670 5096",
    "phone_number": "+982166705096",
    "source_url": "https://www.google.com/maps/place/Movahedin/data=!4m7!3m6!1s0x3f8e010b41123ba1:0x793201b6818f8c7b!8m2!3d35.7004879!4d51.4088729!16s%2Fg%2F1tjrng36!19sChIJoTsSQQsBjj8Re4yPgbYBMnk?authuser=0&hl=tr&rclk=1",
    "website_url": "http://www.movahedin.com/",
    "rating_text": "",
    "stars": null,
    "number_of_reviews": null,
    "price_level": "",
    "open_hours": "",
    "extraction_timestamp": "2025-06-07T13:41:17.443Z",
    "source_name": "google",
    "source_query": "Irrigation Equipment",
    "source_country": "IR",
    "country": "Iran",
    "state": "Kurdistan",
    "city": "Armardeh"
  },
  {
    "source_id": "ChIJWRz6IgSX-T8Rtgylr_yW3Zc",
    "name": "کنترل گستر کهربا | سیموتو | تولید کننده تجهیزات شهربازی و شبیه ساز واقعیت مجازی",
    "category": "کنترل گستر کهربا | سیموتو | تولید کننده تجهیزات شهربازی و شبیه ساز واقعیت مجازی",
    "formatted_address": "",
    "phone_number": "+989120798870",
    "source_url": "https://www.google.com/maps/place/%DA%A9%D9%86%D8%AA%D8%B1%D9%84+%DA%AF%D8%B3%D8%AA%D8%B1+%DA%A9%D9%87%D8%B1%D8%A8%D8%A7+%7C+%D8%B3%DB%8C%D9%85%D9%88%D8%AA%D9%88+%7C+%D8%AA%D9%88%D9%84%DB%8C%D8%AF+%DA%A9%D9%86%D9%86%D8%AF%D9%87+%D8%AA%D8%AC%D9%87%DB%8C%D8%B2%D8%A7%D8%AA+%D8%B4%D9%87%D8%B1%D8%A8%D8%A7%D8%B2%DB%8C+%D9%88+%D8%B4%D8%A8%DB%8C%D9%87+%D8%B3%D8%A7%D8%B2+%D9%88%D8%A7%D9%82%D8%B9%DB%8C%D8%AA+%D9%85%D8%AC%D8%A7%D8%B2%DB%8C%E2%80%AD/data=!4m7!3m6!1s0x3ff9970422fa1c59:0x97dd96fcafa50cb6!8m2!3d35.3047137!4d47.0435804!16s%2Fg%2F11td33_w3k!19sChIJWRz6IgSX-T8Rtgylr_yW3Zc?authuser=0&hl=tr&rclk=1",
    "website_url": "https://simotovr.com/",
    "rating_text": "",
    "stars": null,
    "number_of_reviews": null,
    "price_level": "",
    "open_hours": "",
    "extraction_timestamp": "2025-06-07T13:41:17.443Z",
    "source_name": "google",
    "source_query": "Irrigation Equipment",
    "source_country": "IR",
    "country": "Iran",
    "state": "Kurdistan",
    "city": "Armardeh"
  },
  {
    "source_id": "ChIJBfzHSwub-T8Rc09plUE6w7I",
    "name": "Ariami Hydro House",
    "category": "Ariami Hydro House",
    "formatted_address": "5,0(1)",
    "phone_number": "",
    "source_url": "https://www.google.com/maps/place/Ariami+Hydro+House/data=!4m7!3m6!1s0x3ff99b0b4bc7fc05:0xb2c33a4195694f73!8m2!3d35.1776593!4d46.9790035!16s%2Fg%2F11rnjggw9p!19sChIJBfzHSwub-T8Rc09plUE6w7I?authuser=0&hl=tr&rclk=1",
    "website_url": "https://www.instagram.com/ariami_hydro_house/",
    "rating_text": "5,0",
    "stars": null,
    "number_of_reviews": null,
    "price_level": "",
    "open_hours": "",
    "extraction_timestamp": "2025-06-07T13:41:17.443Z",
    "source_name": "google",
    "source_query": "Irrigation Equipment",
    "source_country": "IR",
    "country": "Iran",
    "state": "Kurdistan",
    "city": "Armardeh"
  },
  {
    "source_id": "ChIJizl-dpqvjT8RXq6XcP8moqA",
    "name": "فروشگاه لوازم آبياري قطره اي",
    "category": "فروشگاه لوازم آبياري قطره اي",
    "formatted_address": "",
    "phone_number": "+989123036918",
    "source_url": "https://www.google.com/maps/place/%D9%81%D8%B1%D9%88%D8%B4%DA%AF%D8%A7%D9%87+%D9%84%D9%88%D8%A7%D8%B2%D9%85+%D8%A2%D8%A8%D9%8A%D8%A7%D8%B1%D9%8A+%D9%82%D8%B7%D8%B1%D9%87+%D8%A7%D9%8A%E2%80%AD/data=!4m7!3m6!1s0x3f8daf9a767e398b:0xa0a226ff7097ae5e!8m2!3d35.8951408!4d50.8035316!16s%2Fg%2F11jff8bpsc!19sChIJizl-dpqvjT8RXq6XcP8moqA?authuser=0&hl=tr&rclk=1",
    "website_url": "",
    "rating_text": "",
    "stars": null,
    "number_of_reviews": null,
    "price_level": "",
    "open_hours": "",
    "extraction_timestamp": "2025-06-07T13:41:17.444Z",
    "source_name": "google",
    "source_query": "Irrigation Equipment",
    "source_country": "IR",
    "country": "Iran",
    "state": "Kurdistan",
    "city": "Armardeh"
  },
  {
    "source_id": "ChIJCSluMXYFA0ARwBafcfBNgI8",
    "name": "Poultry and greenhouse equipment",
    "category": "Poultry and greenhouse equipment",
    "formatted_address": "",
    "phone_number": "+989104101272",
    "source_url": "https://www.google.com/maps/place/Poultry+and+greenhouse+equipment/data=!4m7!3m6!1s0x40030576316e2909:0x8f804df0719f16c0!8m2!3d36.5295998!4d46.2073717!16s%2Fg%2F11rvfx8blp!19sChIJCSluMXYFA0ARwBafcfBNgI8?authuser=0&hl=tr&rclk=1",
    "website_url": "",
    "rating_text": "",
    "stars": null,
    "number_of_reviews": null,
    "price_level": "",
    "open_hours": "",
    "extraction_timestamp": "2025-06-07T13:41:17.445Z",
    "source_name": "google",
    "source_query": "Irrigation Equipment",
    "source_country": "IR",
    "country": "Iran",
    "state": "Kurdistan",
    "city": "Armardeh"
  },
  {
    "source_id": "ChIJj2AkVz6_jD8RTDkLDVcwOVE",
    "name": "Baran saz Giah Machine - باران ساز گیاه ماشین",
    "category": "Baran saz Giah Machine - باران ساز گیاه ماشین",
    "formatted_address": "",
    "phone_number": "+982832848674",
    "source_url": "https://www.google.com/maps/place/Baran+saz+Giah+Machine+-+%D8%A8%D8%A7%D8%B1%D8%A7%D9%86+%D8%B3%D8%A7%D8%B2+%DA%AF%DB%8C%D8%A7%D9%87+%D9%85%D8%A7%D8%B4%DB%8C%D9%86%E2%80%AD/data=!4m7!3m6!1s0x3f8cbf3e5724608f:0x513930570d0b394c!8m2!3d36.1834772!4d50.2922959!16s%2Fg%2F11j2w7_0yx!19sChIJj2AkVz6_jD8RTDkLDVcwOVE?authuser=0&hl=tr&rclk=1",
    "website_url": "http://giahmachine.com/",
    "rating_text": "",
    "stars": null,
    "number_of_reviews": null,
    "price_level": "",
    "open_hours": "",
    "extraction_timestamp": "2025-06-07T13:41:17.445Z",
    "source_name": "google",
    "source_query": "Irrigation Equipment",
    "source_country": "IR",
    "country": "Iran",
    "state": "Kurdistan",
    "city": "Armardeh"
  },
  {
    "source_id": "ChIJyxtOyfQgAkARoFpFI_dMJqI",
    "name": "Shahrak Supermarket",
    "category": "Shahrak Supermarket",
    "formatted_address": "4,8(6)",
    "phone_number": "+988734234047",
    "source_url": "https://www.google.com/maps/place/Shahrak+Supermarket/data=!4m7!3m6!1s0x400220f4c94e1bcb:0xa2264cf723455aa0!8m2!3d36.0009234!4d45.8885605!16s%2Fg%2F11cnt965sf!19sChIJyxtOyfQgAkARoFpFI_dMJqI?authuser=0&hl=tr&rclk=1",
    "website_url": "",
    "rating_text": "4,8",
    "stars": null,
    "number_of_reviews": null,
    "price_level": "",
    "open_hours": "",
    "extraction_timestamp": "2025-06-07T13:41:17.446Z",
    "source_name": "google",
    "source_query": "Irrigation Equipment",
    "source_country": "IR",
    "country": "Iran",
    "state": "Kurdistan",
    "city": "Armardeh"
  },
  {
    "source_id": "ChIJtUt6kI0gAkAR7TQQXbyXiVc",
    "name": "بازار بانه",
    "category": "بازار بانه",
    "formatted_address": "4,1(171)",
    "phone_number": "+989186656440",
    "source_url": "https://www.google.com/maps/place/%D8%A8%D8%A7%D8%B2%D8%A7%D8%B1+%D8%A8%D8%A7%D9%86%D9%87%E2%80%AD/data=!4m7!3m6!1s0x4002208d907a4bb5:0x578997bc5d1034ed!8m2!3d35.9921852!4d45.8850002!16s%2Fg%2F11cmbbrnys!19sChIJtUt6kI0gAkAR7TQQXbyXiVc?authuser=0&hl=tr&rclk=1",
    "website_url": "http://www.bazarbaneh.com/",
    "rating_text": "4,1",
    "stars": null,
    "number_of_reviews": null,
    "price_level": "",
    "open_hours": "",
    "extraction_timestamp": "2025-06-07T13:41:17.446Z",
    "source_name": "google",
    "source_query": "Irrigation Equipment",
    "source_country": "IR",
    "country": "Iran",
    "state": "Kurdistan",
    "city": "Armardeh"
  },
  {
    "source_id": "ChIJxb2dQgAhAkARtF3BvNk5yKc",
    "name": "خوراكي خارجي مولودي",
    "category": "خوراكي خارجي مولودي",
    "formatted_address": "5,0(1)",
    "phone_number": "+989186492060",
    "source_url": "https://www.google.com/maps/place/%D8%AE%D9%88%D8%B1%D8%A7%D9%83%D9%8A+%D8%AE%D8%A7%D8%B1%D8%AC%D9%8A+%D9%85%D9%88%D9%84%D9%88%D8%AF%D9%8A%E2%80%AD/data=!4m7!3m6!1s0x40022100429dbdc5:0xa7c839d9bcc15db4!8m2!3d35.9970353!4d45.8831198!16s%2Fg%2F11yb_1fq3z!19sChIJxb2dQgAhAkARtF3BvNk5yKc?authuser=0&hl=tr&rclk=1",
    "website_url": "",
    "rating_text": "5,0",
    "stars": null,
    "number_of_reviews": null,
    "price_level": "",
    "open_hours": "",
    "extraction_timestamp": "2025-06-07T13:41:17.447Z",
    "source_name": "google",
    "source_query": "Irrigation Equipment",
    "source_country": "IR",
    "country": "Iran",
    "state": "Kurdistan",
    "city": "Armardeh"
  },
  {
    "source_id": "ChIJbbwFSWggAkARIGNHa34mGYI",
    "name": "Supermarket's",
    "category": "Supermarket's",
    "formatted_address": "5,0(1)",
    "phone_number": "+989217215849",
    "source_url": "https://www.google.com/maps/place/Supermarket%27s/data=!4m7!3m6!1s0x400220684905bc6d:0x8219267e6b476320!8m2!3d35.9929325!4d45.901527!16s%2Fg%2F11cjj6mj4w!19sChIJbbwFSWggAkARIGNHa34mGYI?authuser=0&hl=tr&rclk=1",
    "website_url": "",
    "rating_text": "5,0",
    "stars": null,
    "number_of_reviews": null,
    "price_level": "",
    "open_hours": "",
    "extraction_timestamp": "2025-06-07T13:41:17.448Z",
    "source_name": "google",
    "source_query": "Irrigation Equipment",
    "source_country": "IR",
    "country": "Iran",
    "state": "Kurdistan",
    "city": "Armardeh"
  },
  {
    "source_id": "ChIJ3xA5Nvn1AUARXwiQ61-cjvk",
    "name": "فروشگاه مواد غذایی هیمن",
    "category": "فروشگاه مواد غذایی هیمن",
    "formatted_address": "5,0(3)",
    "phone_number": "+989637",
    "source_url": "https://www.google.com/maps/place/%D9%81%D8%B1%D9%88%D8%B4%DA%AF%D8%A7%D9%87+%D9%85%D9%88%D8%A7%D8%AF+%D8%BA%D8%B0%D8%A7%DB%8C%DB%8C+%D9%87%DB%8C%D9%85%D9%86%E2%80%AD/data=!4m7!3m6!1s0x4001f5f9363910df:0xf98e9c5feb90085f!8m2!3d35.9397343!4d45.9381932!16s%2Fg%2F11g25hysz8!19sChIJ3xA5Nvn1AUARXwiQ61-cjvk?authuser=0&hl=tr&rclk=1",
    "website_url": "",
    "rating_text": "5,0",
    "stars": null,
    "number_of_reviews": null,
    "price_level": "",
    "open_hours": "",
    "extraction_timestamp": "2025-06-07T13:41:17.449Z",
    "source_name": "google",
    "source_query": "Irrigation Equipment",
    "source_country": "IR",
    "country": "Iran",
    "state": "Kurdistan",
    "city": "Armardeh"
  },
  {
    "source_id": "ChIJt-QOHIwgAkARz_uP9RuSu4o",
    "name": "فروشگاه دوزین",
    "category": "فروشگاه دوزین",
    "formatted_address": "5,0(2)",
    "phone_number": "",
    "source_url": "https://www.google.com/maps/place/%D9%81%D8%B1%D9%88%D8%B4%DA%AF%D8%A7%D9%87+%D8%AF%D9%88%D8%B2%DB%8C%D9%86%E2%80%AD/data=!4m7!3m6!1s0x4002208c1c0ee4b7:0x8abb921bf58ffbcf!8m2!3d35.9997522!4d45.8815295!16s%2Fg%2F11gz_q4z2!19sChIJt-QOHIwgAkARz_uP9RuSu4o?authuser=0&hl=tr&rclk=1",
    "website_url": "",
    "rating_text": "5,0",
    "stars": null,
    "number_of_reviews": null,
    "price_level": "",
    "open_hours": "",
    "extraction_timestamp": "2025-06-07T13:41:17.449Z",
    "source_name": "google",
    "source_query": "Irrigation Equipment",
    "source_country": "IR",
    "country": "Iran",
    "state": "Kurdistan",
    "city": "Armardeh"
  },
  {
    "source_id": "ChIJVYwXW4kgAkARPaNZAYZoWcY",
    "name": "فروشگاه سلامت (محصولات غذایی ارگانیک)",
    "category": "فروشگاه سلامت (محصولات غذایی ارگانیک)",
    "formatted_address": "2,7(3)",
    "phone_number": "+989141492388",
    "source_url": "https://www.google.com/maps/place/%D9%81%D8%B1%D9%88%D8%B4%DA%AF%D8%A7%D9%87+%D8%B3%D9%84%D8%A7%D9%85%D8%AA+%28%D9%85%D8%AD%D8%B5%D9%88%D9%84%D8%A7%D8%AA+%D8%BA%D8%B0%D8%A7%DB%8C%DB%8C+%D8%A7%D8%B1%DA%AF%D8%A7%D9%86%DB%8C%DA%A9%29%E2%80%AD/data=!4m7!3m6!1s0x400220895b178c55:0xc65968860159a33d!8m2!3d35.9985999!4d45.8823428!16s%2Fg%2F11c5_4n2w2!19sChIJVYwXW4kgAkARPaNZAYZoWcY?authuser=0&hl=tr&rclk=1",
    "website_url": "",
    "rating_text": "2,7",
    "stars": null,
    "number_of_reviews": null,
    "price_level": "",
    "open_hours": "",
    "extraction_timestamp": "2025-06-07T13:41:17.450Z",
    "source_name": "google",
    "source_query": "Irrigation Equipment",
    "source_country": "IR",
    "country": "Iran",
    "state": "Kurdistan",
    "city": "Armardeh"
  },
  {
    "source_id": "ChIJ61y6O1EhAkARUHRD4dUQZL8",
    "name": "ارزانسرای گوهری",
    "category": "ارزانسرای گوهری",
    "formatted_address": "5,0(1)",
    "phone_number": "+989189857515",
    "source_url": "https://www.google.com/maps/place/%D8%A7%D8%B1%D8%B2%D8%A7%D9%86%D8%B3%D8%B1%D8%A7%DB%8C+%DA%AF%D9%88%D9%87%D8%B1%DB%8C%E2%80%AD/data=!4m7!3m6!1s0x400221513bba5ceb:0xbf6410d5e1437450!8m2!3d35.9953454!4d45.894975!16s%2Fg%2F11hkrjsgx0!19sChIJ61y6O1EhAkARUHRD4dUQZL8?authuser=0&hl=tr&rclk=1",
    "website_url": "",
    "rating_text": "5,0",
    "stars": null,
    "number_of_reviews": null,
    "price_level": "",
    "open_hours": "",
    "extraction_timestamp": "2025-06-07T13:41:17.450Z",
    "source_name": "google",
    "source_query": "Irrigation Equipment",
    "source_country": "IR",
    "country": "Iran",
    "state": "Kurdistan",
    "city": "Armardeh"
  },
  {
    "source_id": "ChIJ8TMKZnEtAEARLfQr23hYT-8",
    "name": "Suli Store",
    "category": "Suli Store",
    "formatted_address": "5,0(2)",
    "phone_number": "+9647729579938",
    "source_url": "https://www.google.com/maps/place/Suli+Store/data=!4m7!3m6!1s0x40002d71660a33f1:0xef4f5878db2bf42d!8m2!3d35.5574268!4d45.4364621!16s%2Fg%2F11lgp4k3bn!19sChIJ8TMKZnEtAEARLfQr23hYT-8?authuser=0&hl=tr&rclk=1",
    "website_url": "",
    "rating_text": "5,0",
    "stars": null,
    "number_of_reviews": null,
    "price_level": "",
    "open_hours": "",
    "extraction_timestamp": "2025-06-07T13:41:17.451Z",
    "source_name": "google",
    "source_query": "Irrigation Equipment",
    "source_country": "IR",
    "country": "Iran",
    "state": "Kurdistan",
    "city": "Armardeh"
  },
  {
    "source_id": "ChIJ-wooWAAhAkARH680KzcQuMs",
    "name": "shafayar",
    "category": "shafayar",
    "formatted_address": "",
    "phone_number": "+989904556763",
    "source_url": "https://www.google.com/maps/place/shafayar/data=!4m7!3m6!1s0x4002210058280afb:0xcbb810372b34af1f!8m2!3d36.0016158!4d45.8882838!16s%2Fg%2F11wv58fwx6!19sChIJ-wooWAAhAkARH680KzcQuMs?authuser=0&hl=tr&rclk=1",
    "website_url": "http://www.shafayar.com/",
    "rating_text": "",
    "stars": null,
    "number_of_reviews": null,
    "price_level": "",
    "open_hours": "",
    "extraction_timestamp": "2025-06-07T13:41:17.452Z",
    "source_name": "google",
    "source_query": "Irrigation Equipment",
    "source_country": "IR",
    "country": "Iran",
    "state": "Kurdistan",
    "city": "Armardeh"
  },
  {
    "source_id": "ChIJ447Y7XYhAkARAoBjqz7OAIQ",
    "name": "لوازم کوهنوردی اورست",
    "category": "لوازم کوهنوردی اورست",
    "formatted_address": "5,0(1)",
    "phone_number": "+989360775008",
    "source_url": "https://www.google.com/maps/place/%D9%84%D9%88%D8%A7%D8%B2%D9%85+%DA%A9%D9%88%D9%87%D9%86%D9%88%D8%B1%D8%AF%DB%8C+%D8%A7%D9%88%D8%B1%D8%B3%D8%AA%E2%80%AD/data=!4m7!3m6!1s0x40022176edd88ee3:0x8400ce3eab638002!8m2!3d35.9985999!4d45.8823428!16s%2Fg%2F11rw94qp67!19sChIJ447Y7XYhAkARAoBjqz7OAIQ?authuser=0&hl=tr&rclk=1",
    "website_url": "",
    "rating_text": "5,0",
    "stars": null,
    "number_of_reviews": null,
    "price_level": "",
    "open_hours": "",
    "extraction_timestamp": "2025-06-07T13:41:17.453Z",
    "source_name": "google",
    "source_query": "Irrigation Equipment",
    "source_country": "IR",
    "country": "Iran",
    "state": "Kurdistan",
    "city": "Armardeh"
  }
]
