[
  {
    "source_id": "ChIJ3xA5Nvn1AUARXwiQ61-cjvk",
    "name": "فروشگاه مواد غذایی هیمن",
    "category": "فروشگاه مواد غذایی هیمن",
    "formatted_address": "5,0(3)",
    "phone_number": "+989637",
    "source_url": "https://www.google.com/maps/place/%D9%81%D8%B1%D9%88%D8%B4%DA%AF%D8%A7%D9%87+%D9%85%D9%88%D8%A7%D8%AF+%D8%BA%D8%B0%D8%A7%DB%8C%DB%8C+%D9%87%DB%8C%D9%85%D9%86%E2%80%AD/data=!4m7!3m6!1s0x4001f5f9363910df:0xf98e9c5feb90085f!8m2!3d35.9397343!4d45.9381932!16s%2Fg%2F11g25hysz8!19sChIJ3xA5Nvn1AUARXwiQ61-cjvk?authuser=0&hl=tr&rclk=1",
    "website_url": "",
    "rating_text": "5,0",
    "stars": null,
    "number_of_reviews": null,
    "price_level": "",
    "open_hours": "",
    "extraction_timestamp": "2025-06-07T13:40:36.480Z",
    "source_name": "google",
    "source_query": "Irrigation Equipment",
    "source_country": "IR",
    "country": "Iran",
    "state": "Kurdistan",
    "city": "Boeen-e-Sofla"
  },
  {
    "source_id": "ChIJ20aFXPU5_j8RZbfAQyPRVzk",
    "name": "بەڕێوەبەرایەتی ئاودێرى گەرمیان",
    "category": "بەڕێوەبەرایەتی ئاودێرى گەرمیان",
    "formatted_address": "5,0(1)",
    "phone_number": "+9647709559011",
    "source_url": "https://www.google.com/maps/place/%D8%A8%DB%95%DA%95%DB%8E%D9%88%DB%95%D8%A8%DB%95%D8%B1%D8%A7%DB%8C%DB%95%D8%AA%DB%8C+%D8%A6%D8%A7%D9%88%D8%AF%DB%8E%D8%B1%D9%89+%DA%AF%DB%95%D8%B1%D9%85%DB%8C%D8%A7%D9%86%E2%80%AD/data=!4m7!3m6!1s0x3ffe39f55c8546db:0x3957d12343c0b765!8m2!3d34.6373218!4d45.292369!16s%2Fg%2F11vbjf41g6!19sChIJ20aFXPU5_j8RZbfAQyPRVzk?authuser=0&hl=tr&rclk=1",
    "website_url": "",
    "rating_text": "5,0",
    "stars": null,
    "number_of_reviews": null,
    "price_level": "",
    "open_hours": "",
    "extraction_timestamp": "2025-06-07T13:40:36.480Z",
    "source_name": "google",
    "source_query": "Irrigation Equipment",
    "source_country": "IR",
    "country": "Iran",
    "state": "Kurdistan",
    "city": "Boeen-e-Sofla"
  },
  {
    "source_id": "ChIJWdlPBgL1AUARbNRe9nAWJFQ",
    "name": "فروشگاه مواد غذایی رسولی",
    "category": "فروشگاه مواد غذایی رسولی",
    "formatted_address": "5,0(1)",
    "phone_number": "+989182077952",
    "source_url": "https://www.google.com/maps/place/%D9%81%D8%B1%D9%88%D8%B4%DA%AF%D8%A7%D9%87+%D9%85%D9%88%D8%A7%D8%AF+%D8%BA%D8%B0%D8%A7%DB%8C%DB%8C+%D8%B1%D8%B3%D9%88%D9%84%DB%8C%E2%80%AD/data=!4m7!3m6!1s0x4001f502064fd959:0x54241670f65ed46c!8m2!3d35.9400386!4d45.9404019!16s%2Fg%2F11sx2cmh2n!19sChIJWdlPBgL1AUARbNRe9nAWJFQ?authuser=0&hl=tr&rclk=1",
    "website_url": "",
    "rating_text": "5,0",
    "stars": null,
    "number_of_reviews": null,
    "price_level": "",
    "open_hours": "",
    "extraction_timestamp": "2025-06-07T13:40:36.481Z",
    "source_name": "google",
    "source_query": "Irrigation Equipment",
    "source_country": "IR",
    "country": "Iran",
    "state": "Kurdistan",
    "city": "Boeen-e-Sofla"
  },
  {
    "source_id": "ChIJqcRwPwA__j8RSkgckMBTYBg",
    "name": "هیوا پلاستیک",
    "category": "هیوا پلاستیک",
    "formatted_address": "5,0(2)",
    "phone_number": "+9647708162013",
    "source_url": "https://www.google.com/maps/place/%D9%87%DB%8C%D9%88%D8%A7+%D9%BE%D9%84%D8%A7%D8%B3%D8%AA%DB%8C%DA%A9%E2%80%AD/data=!4m7!3m6!1s0x3ffe3f003f70c4a9:0x186053c0901c484a!8m2!3d34.596848!4d45.2987307!16s%2Fg%2F11yc0bfpx_!19sChIJqcRwPwA__j8RSkgckMBTYBg?authuser=0&hl=tr&rclk=1",
    "website_url": "",
    "rating_text": "5,0",
    "stars": null,
    "number_of_reviews": null,
    "price_level": "",
    "open_hours": "",
    "extraction_timestamp": "2025-06-07T13:40:36.482Z",
    "source_name": "google",
    "source_query": "Irrigation Equipment",
    "source_country": "IR",
    "country": "Iran",
    "state": "Kurdistan",
    "city": "Boeen-e-Sofla"
  },
  {
    "source_id": "ChIJ5ZsarodJB0ARpqoHHnxcH00",
    "name": "Serwan Saady company",
    "category": "Serwan Saady company",
    "formatted_address": "5,0(2)",
    "phone_number": "+9647504478054",
    "source_url": "https://www.google.com/maps/place/Serwan+Saady+company/data=!4m7!3m6!1s0x40074987ae1a9be5:0x4d1f5c7c1e07aaa6!8m2!3d36.0373773!4d43.9317342!16s%2Fg%2F11v3fqbl1p!19sChIJ5ZsarodJB0ARpqoHHnxcH00?authuser=0&hl=tr&rclk=1",
    "website_url": "",
    "rating_text": "5,0",
    "stars": null,
    "number_of_reviews": null,
    "price_level": "",
    "open_hours": "",
    "extraction_timestamp": "2025-06-07T13:40:36.482Z",
    "source_name": "google",
    "source_query": "Irrigation Equipment",
    "source_country": "IR",
    "country": "Iran",
    "state": "Kurdistan",
    "city": "Boeen-e-Sofla"
  },
  {
    "source_id": "ChIJf_jBwg1VAkARYZGlzavsC3I",
    "name": "Bioran Organic Fertilizerشرکت بیوران کود",
    "category": "Bioran Organic Fertilizerشرکت بیوران کود",
    "formatted_address": "Gübre Tedarikçisi · 21, 9685+37JKapalı ⋅ Açılış zamanı: Paz 08:00 · +98 87 3634 7351",
    "phone_number": "+989685",
    "source_url": "https://www.google.com/maps/place/Bioran+Organic+Fertilizer%D8%B4%D8%B1%DA%A9%D8%AA+%D8%A8%DB%8C%D9%88%D8%B1%D8%A7%D9%86+%DA%A9%D9%88%D8%AF%E2%80%AD/data=!4m7!3m6!1s0x4002550dc2c1f87f:0x720becabcda59161!8m2!3d36.3652227!4d46.2081363!16s%2Fg%2F11fwdljv_0!19sChIJf_jBwg1VAkARYZGlzavsC3I?authuser=0&hl=tr&rclk=1",
    "website_url": "http://www.bioran.ir/",
    "rating_text": "",
    "stars": null,
    "number_of_reviews": null,
    "price_level": "",
    "open_hours": "",
    "extraction_timestamp": "2025-06-07T13:40:36.484Z",
    "source_name": "google",
    "source_query": "Irrigation Equipment",
    "source_country": "IR",
    "country": "Iran",
    "state": "Kurdistan",
    "city": "Boeen-e-Sofla"
  },
  {
    "source_id": "ChIJ738sMPdHkD8RIjKgw5AOnGQ",
    "name": "فروشگاه مهندس بیدل",
    "category": "فروشگاه مهندس بیدل",
    "formatted_address": "5,0(1)",
    "phone_number": "",
    "source_url": "https://www.google.com/maps/place/%D9%81%D8%B1%D9%88%D8%B4%DA%AF%D8%A7%D9%87+%D9%85%D9%87%D9%86%D8%AF%D8%B3+%D8%A8%DB%8C%D8%AF%D9%84%E2%80%AD/data=!4m7!3m6!1s0x3f9047f7302c7fef:0x649c0e90c3a03222!8m2!3d35.6423438!4d52.2392442!16s%2Fg%2F11lt426fkq!19sChIJ738sMPdHkD8RIjKgw5AOnGQ?authuser=0&hl=tr&rclk=1",
    "website_url": "",
    "rating_text": "5,0",
    "stars": null,
    "number_of_reviews": null,
    "price_level": "",
    "open_hours": "",
    "extraction_timestamp": "2025-06-07T13:40:36.485Z",
    "source_name": "google",
    "source_query": "Irrigation Equipment",
    "source_country": "IR",
    "country": "Iran",
    "state": "Kurdistan",
    "city": "Boeen-e-Sofla"
  },
  {
    "source_id": "ChIJS7-osl0Bjj8R84DcdIl7k_8",
    "name": "Irrigation and Farming Company Aria Tib",
    "category": "Irrigation and Farming Company Aria Tib",
    "formatted_address": "4,7(7)",
    "phone_number": "+982188845454",
    "source_url": "https://www.google.com/maps/place/Irrigation+and+Farming+Company+Aria+Tib/data=!4m7!3m6!1s0x3f8e015db2a8bf4b:0xff937b8974dc80f3!8m2!3d35.7232298!4d51.4237588!16s%2Fg%2F11f0kvhyt6!19sChIJS7-osl0Bjj8R84DcdIl7k_8?authuser=0&hl=tr&rclk=1",
    "website_url": "",
    "rating_text": "4,7",
    "stars": null,
    "number_of_reviews": null,
    "price_level": "",
    "open_hours": "",
    "extraction_timestamp": "2025-06-07T13:40:36.486Z",
    "source_name": "google",
    "source_query": "Irrigation Equipment",
    "source_country": "IR",
    "country": "Iran",
    "state": "Kurdistan",
    "city": "Boeen-e-Sofla"
  }
]
