[
  {
    "source_id": "ChIJ20aFXPU5_j8RZbfAQyPRVzk",
    "name": "بەڕێوەبەرایەتی ئاودێرى گەرمیان",
    "category": "بەڕێوەبەرایەتی ئاودێرى گەرمیان",
    "formatted_address": "5,0(1)",
    "phone_number": "+9647709559011",
    "source_url": "https://www.google.com/maps/place/%D8%A8%DB%95%DA%95%DB%8E%D9%88%DB%95%D8%A8%DB%95%D8%B1%D8%A7%DB%8C%DB%95%D8%AA%DB%8C+%D8%A6%D8%A7%D9%88%D8%AF%DB%8E%D8%B1%D9%89+%DA%AF%DB%95%D8%B1%D9%85%DB%8C%D8%A7%D9%86%E2%80%AD/data=!4m7!3m6!1s0x3ffe39f55c8546db:0x3957d12343c0b765!8m2!3d34.6373218!4d45.292369!16s%2Fg%2F11vbjf41g6!19sChIJ20aFXPU5_j8RZbfAQyPRVzk?authuser=0&hl=tr&rclk=1",
    "website_url": "",
    "rating_text": "5,0",
    "stars": null,
    "number_of_reviews": null,
    "price_level": "",
    "open_hours": "",
    "extraction_timestamp": "2025-06-07T13:39:59.728Z",
    "source_name": "google",
    "source_query": "Irrigation Equipment",
    "source_country": "IR",
    "country": "Iran",
    "state": "Kurdistan",
    "city": "Chnare"
  },
  {
    "source_id": "ChIJ5ZsarodJB0ARpqoHHnxcH00",
    "name": "Serwan Saady company",
    "category": "Serwan Saady company",
    "formatted_address": "5,0(2)",
    "phone_number": "+9647504478054",
    "source_url": "https://www.google.com/maps/place/Serwan+Saady+company/data=!4m7!3m6!1s0x40074987ae1a9be5:0x4d1f5c7c1e07aaa6!8m2!3d36.0373773!4d43.9317342!16s%2Fg%2F11v3fqbl1p!19sChIJ5ZsarodJB0ARpqoHHnxcH00?authuser=0&hl=tr&rclk=1",
    "website_url": "",
    "rating_text": "5,0",
    "stars": null,
    "number_of_reviews": null,
    "price_level": "",
    "open_hours": "",
    "extraction_timestamp": "2025-06-07T13:39:59.730Z",
    "source_name": "google",
    "source_query": "Irrigation Equipment",
    "source_country": "IR",
    "country": "Iran",
    "state": "Kurdistan",
    "city": "Chnare"
  },
  {
    "source_id": "ChIJqcRwPwA__j8RSkgckMBTYBg",
    "name": "هیوا پلاستیک",
    "category": "هیوا پلاستیک",
    "formatted_address": "5,0(2)",
    "phone_number": "+9647708162013",
    "source_url": "https://www.google.com/maps/place/%D9%87%DB%8C%D9%88%D8%A7+%D9%BE%D9%84%D8%A7%D8%B3%D8%AA%DB%8C%DA%A9%E2%80%AD/data=!4m7!3m6!1s0x3ffe3f003f70c4a9:0x186053c0901c484a!8m2!3d34.596848!4d45.2987307!16s%2Fg%2F11yc0bfpx_!19sChIJqcRwPwA__j8RSkgckMBTYBg?authuser=0&hl=tr&rclk=1",
    "website_url": "",
    "rating_text": "5,0",
    "stars": null,
    "number_of_reviews": null,
    "price_level": "",
    "open_hours": "",
    "extraction_timestamp": "2025-06-07T13:39:59.732Z",
    "source_name": "google",
    "source_query": "Irrigation Equipment",
    "source_country": "IR",
    "country": "Iran",
    "state": "Kurdistan",
    "city": "Chnare"
  },
  {
    "source_id": "ChIJU-KvKAAtAEARCDFh0SgATfM",
    "name": "Awezan Company",
    "category": "Awezan Company",
    "formatted_address": "5,0(1)",
    "phone_number": "+9647701045656",
    "source_url": "https://www.google.com/maps/place/Awezan+Company/data=!4m7!3m6!1s0x40002d0028afe253:0xf34d0028d1613108!8m2!3d35.5815895!4d45.4186514!16s%2Fg%2F11v0tkdg3k!19sChIJU-KvKAAtAEARCDFh0SgATfM?authuser=0&hl=tr&rclk=1",
    "website_url": "http://www.awezanco.com/",
    "rating_text": "5,0",
    "stars": null,
    "number_of_reviews": null,
    "price_level": "",
    "open_hours": "",
    "extraction_timestamp": "2025-06-07T13:39:59.734Z",
    "source_name": "google",
    "source_query": "Irrigation Equipment",
    "source_country": "IR",
    "country": "Iran",
    "state": "Kurdistan",
    "city": "Chnare"
  },
  {
    "source_id": "ChIJS7-osl0Bjj8R84DcdIl7k_8",
    "name": "Irrigation and Farming Company Aria Tib",
    "category": "Irrigation and Farming Company Aria Tib",
    "formatted_address": "4,7(7)",
    "phone_number": "+982188845454",
    "source_url": "https://www.google.com/maps/place/Irrigation+and+Farming+Company+Aria+Tib/data=!4m7!3m6!1s0x3f8e015db2a8bf4b:0xff937b8974dc80f3!8m2!3d35.7232298!4d51.4237588!16s%2Fg%2F11f0kvhyt6!19sChIJS7-osl0Bjj8R84DcdIl7k_8?authuser=0&hl=tr&rclk=1",
    "website_url": "",
    "rating_text": "4,7",
    "stars": null,
    "number_of_reviews": null,
    "price_level": "",
    "open_hours": "",
    "extraction_timestamp": "2025-06-07T13:39:59.736Z",
    "source_name": "google",
    "source_query": "Irrigation Equipment",
    "source_country": "IR",
    "country": "Iran",
    "state": "Kurdistan",
    "city": "Chnare"
  },
  {
    "source_id": "ChIJ_fLPRAABjj8RSeosiGuijm8",
    "name": "هانترسل",
    "category": "هانترسل",
    "formatted_address": "5,0(2)",
    "phone_number": "+982155808909",
    "source_url": "https://www.google.com/maps/place/%D9%87%D8%A7%D9%86%D8%AA%D8%B1%D8%B3%D9%84%E2%80%AD/data=!4m7!3m6!1s0x3f8e010044cff2fd:0x6f8ea26b882cea49!8m2!3d35.6811685!4d51.4107418!16s%2Fg%2F11vwx4_tj0!19sChIJ_fLPRAABjj8RSeosiGuijm8?authuser=0&hl=tr&rclk=1",
    "website_url": "",
    "rating_text": "5,0",
    "stars": null,
    "number_of_reviews": null,
    "price_level": "",
    "open_hours": "",
    "extraction_timestamp": "2025-06-07T13:39:59.737Z",
    "source_name": "google",
    "source_query": "Irrigation Equipment",
    "source_country": "IR",
    "country": "Iran",
    "state": "Kurdistan",
    "city": "Chnare"
  },
  {
    "source_id": "ChIJTZcRj3_zBEAR8XzogL7QSrA",
    "name": "تجهیزات آبیاری سید صلاح",
    "category": "تجهیزات آبیاری سید صلاح",
    "formatted_address": "5,0(1)",
    "phone_number": "+989144488768",
    "source_url": "https://www.google.com/maps/place/%D8%AA%D8%AC%D9%87%DB%8C%D8%B2%D8%A7%D8%AA+%D8%A2%D8%A8%DB%8C%D8%A7%D8%B1%DB%8C+%D8%B3%DB%8C%D8%AF+%D8%B5%D9%84%D8%A7%D8%AD%E2%80%AD/data=!4m7!3m6!1s0x4004f37f8f11974d:0xb04ad0be80e87cf1!8m2!3d36.9526169!4d45.3800755!16s%2Fg%2F11t6nn7z94!19sChIJTZcRj3_zBEAR8XzogL7QSrA?authuser=0&hl=tr&rclk=1",
    "website_url": "",
    "rating_text": "5,0",
    "stars": null,
    "number_of_reviews": null,
    "price_level": "",
    "open_hours": "",
    "extraction_timestamp": "2025-06-07T13:39:59.739Z",
    "source_name": "google",
    "source_query": "Irrigation Equipment",
    "source_country": "IR",
    "country": "Iran",
    "state": "Kurdistan",
    "city": "Chnare"
  },
  {
    "source_id": "ChIJj9RDG_SZjT8RDjffnfnE7O4",
    "name": "شرکت آرسیس قطران",
    "category": "شرکت آرسیس قطران",
    "formatted_address": "5,0(8)",
    "phone_number": "+989120953243",
    "source_url": "https://www.google.com/maps/place/%D8%B4%D8%B1%DA%A9%D8%AA+%D8%A2%D8%B1%D8%B3%DB%8C%D8%B3+%D9%82%D8%B7%D8%B1%D8%A7%D9%86%E2%80%AD/data=!4m7!3m6!1s0x3f8d99f41b43d48f:0xeeecc4f99ddf370e!8m2!3d35.6874063!4d50.8287973!16s%2Fg%2F11spqwtkx2!19sChIJj9RDG_SZjT8RDjffnfnE7O4?authuser=0&hl=tr&rclk=1",
    "website_url": "",
    "rating_text": "5,0",
    "stars": null,
    "number_of_reviews": null,
    "price_level": "",
    "open_hours": "",
    "extraction_timestamp": "2025-06-07T13:39:59.740Z",
    "source_name": "google",
    "source_query": "Irrigation Equipment",
    "source_country": "IR",
    "country": "Iran",
    "state": "Kurdistan",
    "city": "Chnare"
  },
  {
    "source_id": "ChIJM14qyZQGjj8REzFOag3oADM",
    "name": "kamco",
    "category": "kamco",
    "formatted_address": "5,0(1)",
    "phone_number": "+982188225302",
    "source_url": "https://www.google.com/maps/place/kamco/data=!4m7!3m6!1s0x3f8e0694c92a5e33:0x3300e80d6a4e3113!8m2!3d35.7235012!4d51.4019769!16s%2Fg%2F11b6d0knrt!19sChIJM14qyZQGjj8REzFOag3oADM?authuser=0&hl=tr&rclk=1",
    "website_url": "",
    "rating_text": "5,0",
    "stars": null,
    "number_of_reviews": null,
    "price_level": "",
    "open_hours": "",
    "extraction_timestamp": "2025-06-07T13:39:59.742Z",
    "source_name": "google",
    "source_query": "Irrigation Equipment",
    "source_country": "IR",
    "country": "Iran",
    "state": "Kurdistan",
    "city": "Chnare"
  },
  {
    "source_id": "ChIJE7eK8rA8B0ARBNNi-vqlg8o",
    "name": "Clear Trading Co. ٲمیر زیدو للتجارة",
    "category": "Clear Trading Co. ٲمیر زیدو للتجارة",
    "formatted_address": "5,0(3)",
    "phone_number": "+9647501491504",
    "source_url": "https://www.google.com/maps/place/Clear+Trading+Co.+%D9%B2%D9%85%DB%8C%D8%B1+%D8%B2%DB%8C%D8%AF%D9%88+%D9%84%D9%84%D8%AA%D8%AC%D8%A7%D8%B1%D8%A9%E2%80%AD/data=!4m7!3m6!1s0x40073cb0f28ab713:0xca83a5fafa62d304!8m2!3d36.1536238!4d43.9894667!16s%2Fg%2F11g0204pf0!19sChIJE7eK8rA8B0ARBNNi-vqlg8o?authuser=0&hl=tr&rclk=1",
    "website_url": "",
    "rating_text": "5,0",
    "stars": null,
    "number_of_reviews": null,
    "price_level": "",
    "open_hours": "",
    "extraction_timestamp": "2025-06-07T13:39:59.744Z",
    "source_name": "google",
    "source_query": "Irrigation Equipment",
    "source_country": "IR",
    "country": "Iran",
    "state": "Kurdistan",
    "city": "Chnare"
  },
  {
    "source_id": "ChIJf_jBwg1VAkARYZGlzavsC3I",
    "name": "Bioran Organic Fertilizerشرکت بیوران کود",
    "category": "Bioran Organic Fertilizerشرکت بیوران کود",
    "formatted_address": "Gübre Tedarikçisi · 21, 9685+37JKapalı ⋅ Açılış zamanı: Paz 08:00 · +98 87 3634 7351",
    "phone_number": "+989685",
    "source_url": "https://www.google.com/maps/place/Bioran+Organic+Fertilizer%D8%B4%D8%B1%DA%A9%D8%AA+%D8%A8%DB%8C%D9%88%D8%B1%D8%A7%D9%86+%DA%A9%D9%88%D8%AF%E2%80%AD/data=!4m7!3m6!1s0x4002550dc2c1f87f:0x720becabcda59161!8m2!3d36.3652227!4d46.2081363!16s%2Fg%2F11fwdljv_0!19sChIJf_jBwg1VAkARYZGlzavsC3I?authuser=0&hl=tr&rclk=1",
    "website_url": "http://www.bioran.ir/",
    "rating_text": "",
    "stars": null,
    "number_of_reviews": null,
    "price_level": "",
    "open_hours": "",
    "extraction_timestamp": "2025-06-07T13:39:59.746Z",
    "source_name": "google",
    "source_query": "Irrigation Equipment",
    "source_country": "IR",
    "country": "Iran",
    "state": "Kurdistan",
    "city": "Chnare"
  },
  {
    "source_id": "ChIJ_SOko4wFGkARvrTug8x8oNU",
    "name": "شرکت شایسته سهند،طراح و مجری سیستم های نوین آبیاری",
    "category": "شرکت شایسته سهند،طراح و مجری سیستم های نوین آبیاری",
    "formatted_address": "",
    "phone_number": "+989144129071",
    "source_url": "https://www.google.com/maps/place/%D8%B4%D8%B1%DA%A9%D8%AA+%D8%B4%D8%A7%DB%8C%D8%B3%D8%AA%D9%87+%D8%B3%D9%87%D9%86%D8%AF%D8%8C%D8%B7%D8%B1%D8%A7%D8%AD+%D9%88+%D9%85%D8%AC%D8%B1%DB%8C+%D8%B3%DB%8C%D8%B3%D8%AA%D9%85+%D9%87%D8%A7%DB%8C+%D9%86%D9%88%DB%8C%D9%86+%D8%A2%D8%A8%DB%8C%D8%A7%D8%B1%DB%8C%E2%80%AD/data=!4m7!3m6!1s0x401a058ca3a423fd:0xd5a07ccc83eeb4be!8m2!3d38.0652271!4d46.2582001!16s%2Fg%2F11g0wgswxs!19sChIJ_SOko4wFGkARvrTug8x8oNU?authuser=0&hl=tr&rclk=1",
    "website_url": "",
    "rating_text": "",
    "stars": null,
    "number_of_reviews": null,
    "price_level": "",
    "open_hours": "",
    "extraction_timestamp": "2025-06-07T13:39:59.748Z",
    "source_name": "google",
    "source_query": "Irrigation Equipment",
    "source_country": "IR",
    "country": "Iran",
    "state": "Kurdistan",
    "city": "Chnare"
  },
  {
    "source_id": "ChIJv6jv6vAZkj8RQqunRNeLkPQ",
    "name": "شرکت تکنوژاله",
    "category": "شرکت تکنوژاله",
    "formatted_address": "4,5(2)",
    "phone_number": "+989125801150",
    "source_url": "https://www.google.com/maps/place/%D8%B4%D8%B1%DA%A9%D8%AA+%D8%AA%DA%A9%D9%86%D9%88%DA%98%D8%A7%D9%84%D9%87%E2%80%AD/data=!4m7!3m6!1s0x3f9219f0eaefa8bf:0xf4908bd744a7ab42!8m2!3d35.3734371!4d51.2511171!16s%2Fg%2F11jgsfs1g6!19sChIJv6jv6vAZkj8RQqunRNeLkPQ?authuser=0&hl=tr&rclk=1",
    "website_url": "http://technojaleh.com/",
    "rating_text": "4,5",
    "stars": null,
    "number_of_reviews": null,
    "price_level": "",
    "open_hours": "",
    "extraction_timestamp": "2025-06-07T13:39:59.749Z",
    "source_name": "google",
    "source_query": "Irrigation Equipment",
    "source_country": "IR",
    "country": "Iran",
    "state": "Kurdistan",
    "city": "Chnare"
  },
  {
    "source_id": "ChIJJ_9gekRRAkARS2uR8_iBiho",
    "name": "کارخانه نهرین لوله آریا",
    "category": "کارخانه نهرین لوله آریا",
    "formatted_address": "5,0(1)",
    "phone_number": "+989182471508",
    "source_url": "https://www.google.com/maps/place/%DA%A9%D8%A7%D8%B1%D8%AE%D8%A7%D9%86%D9%87+%D9%86%D9%87%D8%B1%DB%8C%D9%86+%D9%84%D9%88%D9%84%D9%87+%D8%A2%D8%B1%DB%8C%D8%A7%E2%80%AD/data=!4m7!3m6!1s0x400251447a60ff27:0x1a8a81f8f3916b4b!8m2!3d36.3090145!4d46.2536666!16s%2Fg%2F11h80f6nrp!19sChIJJ_9gekRRAkARS2uR8_iBiho?authuser=0&hl=tr&rclk=1",
    "website_url": "",
    "rating_text": "5,0",
    "stars": null,
    "number_of_reviews": null,
    "price_level": "",
    "open_hours": "",
    "extraction_timestamp": "2025-06-07T13:39:59.751Z",
    "source_name": "google",
    "source_query": "Irrigation Equipment",
    "source_country": "IR",
    "country": "Iran",
    "state": "Kurdistan",
    "city": "Chnare"
  },
  {
    "source_id": "ChIJBfzHSwub-T8Rc09plUE6w7I",
    "name": "Ariami Hydro House",
    "category": "Ariami Hydro House",
    "formatted_address": "5,0(1)",
    "phone_number": "",
    "source_url": "https://www.google.com/maps/place/Ariami+Hydro+House/data=!4m7!3m6!1s0x3ff99b0b4bc7fc05:0xb2c33a4195694f73!8m2!3d35.1776593!4d46.9790035!16s%2Fg%2F11rnjggw9p!19sChIJBfzHSwub-T8Rc09plUE6w7I?authuser=0&hl=tr&rclk=1",
    "website_url": "https://www.instagram.com/ariami_hydro_house/",
    "rating_text": "5,0",
    "stars": null,
    "number_of_reviews": null,
    "price_level": "",
    "open_hours": "",
    "extraction_timestamp": "2025-06-07T13:39:59.751Z",
    "source_name": "google",
    "source_query": "Irrigation Equipment",
    "source_country": "IR",
    "country": "Iran",
    "state": "Kurdistan",
    "city": "Chnare"
  },
  {
    "source_id": "ChIJdxaplRepBEARWIMSPvBML4k",
    "name": "نمایندگی افشانه آبیاری زیرسطحیhvb - میاندوآب",
    "category": "نمایندگی افشانه آبیاری زیرسطحیhvb - میاندوآب",
    "formatted_address": "Sulama Ekipmanları Tedarikçisi · شهدا, X4C2+2HM24 saat açık · +98 913 994 6632",
    "phone_number": "+989139946632",
    "source_url": "https://www.google.com/maps/place/%D9%86%D9%85%D8%A7%DB%8C%D9%86%D8%AF%DA%AF%DB%8C+%D8%A7%D9%81%D8%B4%D8%A7%D9%86%D9%87+%D8%A2%D8%A8%DB%8C%D8%A7%D8%B1%DB%8C+%D8%B2%DB%8C%D8%B1%D8%B3%D8%B7%D8%AD%DB%8Chvb+-+%D9%85%DB%8C%D8%A7%D9%86%D8%AF%D9%88%D8%A2%D8%A8%E2%80%AD/data=!4m7!3m6!1s0x4004a91795a91677:0x892f4cf03e128358!8m2!3d36.9700869!4d46.1014277!16s%2Fg%2F11p0gj415b!19sChIJdxaplRepBEARWIMSPvBML4k?authuser=0&hl=tr&rclk=1",
    "website_url": "http://www.hvbsystem.ir/",
    "rating_text": "",
    "stars": null,
    "number_of_reviews": null,
    "price_level": "",
    "open_hours": "",
    "extraction_timestamp": "2025-06-07T13:39:59.752Z",
    "source_name": "google",
    "source_query": "Irrigation Equipment",
    "source_country": "IR",
    "country": "Iran",
    "state": "Kurdistan",
    "city": "Chnare"
  },
  {
    "source_id": "ChIJCSluMXYFA0ARwBafcfBNgI8",
    "name": "Poultry and greenhouse equipment",
    "category": "Poultry and greenhouse equipment",
    "formatted_address": "",
    "phone_number": "+989104101272",
    "source_url": "https://www.google.com/maps/place/Poultry+and+greenhouse+equipment/data=!4m7!3m6!1s0x40030576316e2909:0x8f804df0719f16c0!8m2!3d36.5295998!4d46.2073717!16s%2Fg%2F11rvfx8blp!19sChIJCSluMXYFA0ARwBafcfBNgI8?authuser=0&hl=tr&rclk=1",
    "website_url": "",
    "rating_text": "",
    "stars": null,
    "number_of_reviews": null,
    "price_level": "",
    "open_hours": "",
    "extraction_timestamp": "2025-06-07T13:39:59.753Z",
    "source_name": "google",
    "source_query": "Irrigation Equipment",
    "source_country": "IR",
    "country": "Iran",
    "state": "Kurdistan",
    "city": "Chnare"
  },
  {
    "source_id": "ChIJoTsSQQsBjj8Re4yPgbYBMnk",
    "name": "Movahedin",
    "category": "Movahedin",
    "formatted_address": "Sulama Ekipmanları Tedarikçisi · Shahriar, PC25+5GXKapalı ⋅ Açılış zamanı: Paz 08:00 · +98 21 6670 5096",
    "phone_number": "+982166705096",
    "source_url": "https://www.google.com/maps/place/Movahedin/data=!4m7!3m6!1s0x3f8e010b41123ba1:0x793201b6818f8c7b!8m2!3d35.7004879!4d51.4088729!16s%2Fg%2F1tjrng36!19sChIJoTsSQQsBjj8Re4yPgbYBMnk?authuser=0&hl=tr&rclk=1",
    "website_url": "http://www.movahedin.com/",
    "rating_text": "",
    "stars": null,
    "number_of_reviews": null,
    "price_level": "",
    "open_hours": "",
    "extraction_timestamp": "2025-06-07T13:39:59.754Z",
    "source_name": "google",
    "source_query": "Irrigation Equipment",
    "source_country": "IR",
    "country": "Iran",
    "state": "Kurdistan",
    "city": "Chnare"
  },
  {
    "source_id": "ChIJNS8FGphTBUARkgj0RJ_JewY",
    "name": "شرکت تجارت سبز سولدوز",
    "category": "شرکت تجارت سبز سولدوز",
    "formatted_address": "Sulama Ekipmanları Tedarikçisi · Hasani St, G2VQ+JV8Kapanmak üzere ⋅ 18:00 ⋅ Açılış zamanı: Paz 08:00 · +98 44 3322 4777",
    "phone_number": "+984433224777",
    "source_url": "https://www.google.com/maps/place/%D8%B4%D8%B1%DA%A9%D8%AA+%D8%AA%D8%AC%D8%A7%D8%B1%D8%AA+%D8%B3%D8%A8%D8%B2+%D8%B3%D9%88%D9%84%D8%AF%D9%88%D8%B2%E2%80%AD/data=!4m7!3m6!1s0x400553981a052f35:0x67bc99f44f40892!8m2!3d37.5440486!4d45.0396968!16s%2Fg%2F11d_d0k8xk!19sChIJNS8FGphTBUARkgj0RJ_JewY?authuser=0&hl=tr&rclk=1",
    "website_url": "",
    "rating_text": "",
    "stars": null,
    "number_of_reviews": null,
    "price_level": "",
    "open_hours": "",
    "extraction_timestamp": "2025-06-07T13:39:59.756Z",
    "source_name": "google",
    "source_query": "Irrigation Equipment",
    "source_country": "IR",
    "country": "Iran",
    "state": "Kurdistan",
    "city": "Chnare"
  },
  {
    "source_id": "ChIJWRz6IgSX-T8Rtgylr_yW3Zc",
    "name": "کنترل گستر کهربا | سیموتو | تولید کننده تجهیزات شهربازی و شبیه ساز واقعیت مجازی",
    "category": "کنترل گستر کهربا | سیموتو | تولید کننده تجهیزات شهربازی و شبیه ساز واقعیت مجازی",
    "formatted_address": "",
    "phone_number": "+989120798870",
    "source_url": "https://www.google.com/maps/place/%DA%A9%D9%86%D8%AA%D8%B1%D9%84+%DA%AF%D8%B3%D8%AA%D8%B1+%DA%A9%D9%87%D8%B1%D8%A8%D8%A7+%7C+%D8%B3%DB%8C%D9%85%D9%88%D8%AA%D9%88+%7C+%D8%AA%D9%88%D9%84%DB%8C%D8%AF+%DA%A9%D9%86%D9%86%D8%AF%D9%87+%D8%AA%D8%AC%D9%87%DB%8C%D8%B2%D8%A7%D8%AA+%D8%B4%D9%87%D8%B1%D8%A8%D8%A7%D8%B2%DB%8C+%D9%88+%D8%B4%D8%A8%DB%8C%D9%87+%D8%B3%D8%A7%D8%B2+%D9%88%D8%A7%D9%82%D8%B9%DB%8C%D8%AA+%D9%85%D8%AC%D8%A7%D8%B2%DB%8C%E2%80%AD/data=!4m7!3m6!1s0x3ff9970422fa1c59:0x97dd96fcafa50cb6!8m2!3d35.3047137!4d47.0435804!16s%2Fg%2F11td33_w3k!19sChIJWRz6IgSX-T8Rtgylr_yW3Zc?authuser=0&hl=tr&rclk=1",
    "website_url": "https://simotovr.com/",
    "rating_text": "",
    "stars": null,
    "number_of_reviews": null,
    "price_level": "",
    "open_hours": "",
    "extraction_timestamp": "2025-06-07T13:39:59.757Z",
    "source_name": "google",
    "source_query": "Irrigation Equipment",
    "source_country": "IR",
    "country": "Iran",
    "state": "Kurdistan",
    "city": "Chnare"
  }
]
