[
  {
    "source_id": "ChIJR-svbr3l8D8RR3y9BDnC-JA",
    "name": "فرشگاه اترک",
    "category": "فرشگاه اترک",
    "formatted_address": "4,0(1)",
    "phone_number": "",
    "source_url": "https://www.google.com/maps/place/%D9%81%D8%B1%D8%B4%DA%AF%D8%A7%D9%87+%D8%A7%D8%AA%D8%B1%DA%A9%E2%80%AD/data=!4m7!3m6!1s0x3ff0e5bd6e2feb47:0x90f8c23904bd7c47!8m2!3d35.0629344!4d47.9649943!16s%2Fg%2F11k71qf4d1!19sChIJR-svbr3l8D8RR3y9BDnC-JA?authuser=0&hl=tr&rclk=1",
    "website_url": "",
    "rating_text": "4,0",
    "stars": null,
    "number_of_reviews": null,
    "price_level": "",
    "open_hours": "",
    "extraction_timestamp": "2025-06-07T13:40:32.049Z",
    "source_name": "google",
    "source_query": "Irrigation Equipment",
    "source_country": "IR",
    "country": "Iran",
    "state": "Kurdistan",
    "city": "Dezej"
  },
  {
    "source_id": "ChIJS7-osl0Bjj8R84DcdIl7k_8",
    "name": "Irrigation and Farming Company Aria Tib",
    "category": "Irrigation and Farming Company Aria Tib",
    "formatted_address": "4,7(7)",
    "phone_number": "+982188845454",
    "source_url": "https://www.google.com/maps/place/Irrigation+and+Farming+Company+Aria+Tib/data=!4m7!3m6!1s0x3f8e015db2a8bf4b:0xff937b8974dc80f3!8m2!3d35.7232298!4d51.4237588!16s%2Fg%2F11f0kvhyt6!19sChIJS7-osl0Bjj8R84DcdIl7k_8?authuser=0&hl=tr&rclk=1",
    "website_url": "",
    "rating_text": "4,7",
    "stars": null,
    "number_of_reviews": null,
    "price_level": "",
    "open_hours": "",
    "extraction_timestamp": "2025-06-07T13:40:32.050Z",
    "source_name": "google",
    "source_query": "Irrigation Equipment",
    "source_country": "IR",
    "country": "Iran",
    "state": "Kurdistan",
    "city": "Dezej"
  },
  {
    "source_id": "ChIJ738sMPdHkD8RIjKgw5AOnGQ",
    "name": "فروشگاه مهندس بیدل",
    "category": "فروشگاه مهندس بیدل",
    "formatted_address": "5,0(1)",
    "phone_number": "",
    "source_url": "https://www.google.com/maps/place/%D9%81%D8%B1%D9%88%D8%B4%DA%AF%D8%A7%D9%87+%D9%85%D9%87%D9%86%D8%AF%D8%B3+%D8%A8%DB%8C%D8%AF%D9%84%E2%80%AD/data=!4m7!3m6!1s0x3f9047f7302c7fef:0x649c0e90c3a03222!8m2!3d35.6423438!4d52.2392442!16s%2Fg%2F11lt426fkq!19sChIJ738sMPdHkD8RIjKgw5AOnGQ?authuser=0&hl=tr&rclk=1",
    "website_url": "",
    "rating_text": "5,0",
    "stars": null,
    "number_of_reviews": null,
    "price_level": "",
    "open_hours": "",
    "extraction_timestamp": "2025-06-07T13:40:32.050Z",
    "source_name": "google",
    "source_query": "Irrigation Equipment",
    "source_country": "IR",
    "country": "Iran",
    "state": "Kurdistan",
    "city": "Dezej"
  },
  {
    "source_id": "ChIJqcRwPwA__j8RSkgckMBTYBg",
    "name": "هیوا پلاستیک",
    "category": "هیوا پلاستیک",
    "formatted_address": "5,0(2)",
    "phone_number": "+9647708162013",
    "source_url": "https://www.google.com/maps/place/%D9%87%DB%8C%D9%88%D8%A7+%D9%BE%D9%84%D8%A7%D8%B3%D8%AA%DB%8C%DA%A9%E2%80%AD/data=!4m7!3m6!1s0x3ffe3f003f70c4a9:0x186053c0901c484a!8m2!3d34.596848!4d45.2987307!16s%2Fg%2F11yc0bfpx_!19sChIJqcRwPwA__j8RSkgckMBTYBg?authuser=0&hl=tr&rclk=1",
    "website_url": "",
    "rating_text": "5,0",
    "stars": null,
    "number_of_reviews": null,
    "price_level": "",
    "open_hours": "",
    "extraction_timestamp": "2025-06-07T13:40:32.051Z",
    "source_name": "google",
    "source_query": "Irrigation Equipment",
    "source_country": "IR",
    "country": "Iran",
    "state": "Kurdistan",
    "city": "Dezej"
  },
  {
    "source_id": "ChIJ_fLPRAABjj8RSeosiGuijm8",
    "name": "هانترسل",
    "category": "هانترسل",
    "formatted_address": "5,0(2)",
    "phone_number": "+982155808909",
    "source_url": "https://www.google.com/maps/place/%D9%87%D8%A7%D9%86%D8%AA%D8%B1%D8%B3%D9%84%E2%80%AD/data=!4m7!3m6!1s0x3f8e010044cff2fd:0x6f8ea26b882cea49!8m2!3d35.6811685!4d51.4107418!16s%2Fg%2F11vwx4_tj0!19sChIJ_fLPRAABjj8RSeosiGuijm8?authuser=0&hl=tr&rclk=1",
    "website_url": "",
    "rating_text": "5,0",
    "stars": null,
    "number_of_reviews": null,
    "price_level": "",
    "open_hours": "",
    "extraction_timestamp": "2025-06-07T13:40:32.054Z",
    "source_name": "google",
    "source_query": "Irrigation Equipment",
    "source_country": "IR",
    "country": "Iran",
    "state": "Kurdistan",
    "city": "Dezej"
  },
  {
    "source_id": "ChIJj9RDG_SZjT8RDjffnfnE7O4",
    "name": "شرکت آرسیس قطران",
    "category": "شرکت آرسیس قطران",
    "formatted_address": "5,0(8)",
    "phone_number": "+989120953243",
    "source_url": "https://www.google.com/maps/place/%D8%B4%D8%B1%DA%A9%D8%AA+%D8%A2%D8%B1%D8%B3%DB%8C%D8%B3+%D9%82%D8%B7%D8%B1%D8%A7%D9%86%E2%80%AD/data=!4m7!3m6!1s0x3f8d99f41b43d48f:0xeeecc4f99ddf370e!8m2!3d35.6874063!4d50.8287973!16s%2Fg%2F11spqwtkx2!19sChIJj9RDG_SZjT8RDjffnfnE7O4?authuser=0&hl=tr&rclk=1",
    "website_url": "",
    "rating_text": "5,0",
    "stars": null,
    "number_of_reviews": null,
    "price_level": "",
    "open_hours": "",
    "extraction_timestamp": "2025-06-07T13:40:32.056Z",
    "source_name": "google",
    "source_query": "Irrigation Equipment",
    "source_country": "IR",
    "country": "Iran",
    "state": "Kurdistan",
    "city": "Dezej"
  },
  {
    "source_id": "ChIJTZcRj3_zBEAR8XzogL7QSrA",
    "name": "تجهیزات آبیاری سید صلاح",
    "category": "تجهیزات آبیاری سید صلاح",
    "formatted_address": "5,0(1)",
    "phone_number": "+989144488768",
    "source_url": "https://www.google.com/maps/place/%D8%AA%D8%AC%D9%87%DB%8C%D8%B2%D8%A7%D8%AA+%D8%A2%D8%A8%DB%8C%D8%A7%D8%B1%DB%8C+%D8%B3%DB%8C%D8%AF+%D8%B5%D9%84%D8%A7%D8%AD%E2%80%AD/data=!4m7!3m6!1s0x4004f37f8f11974d:0xb04ad0be80e87cf1!8m2!3d36.9526169!4d45.3800755!16s%2Fg%2F11t6nn7z94!19sChIJTZcRj3_zBEAR8XzogL7QSrA?authuser=0&hl=tr&rclk=1",
    "website_url": "",
    "rating_text": "5,0",
    "stars": null,
    "number_of_reviews": null,
    "price_level": "",
    "open_hours": "",
    "extraction_timestamp": "2025-06-07T13:40:32.058Z",
    "source_name": "google",
    "source_query": "Irrigation Equipment",
    "source_country": "IR",
    "country": "Iran",
    "state": "Kurdistan",
    "city": "Dezej"
  }
]
