[
  {
    "source_id": "ChIJ4f36fFA1_z8RiClK1fXAdcM",
    "name": "خدمات فنی پکیج",
    "category": "خدمات فنی پکیج",
    "formatted_address": "5,0(2)",
    "phone_number": "+989187828217",
    "source_url": "https://www.google.com/maps/place/%D8%AE%D8%AF%D9%85%D8%A7%D8%AA+%D9%81%D9%86%DB%8C+%D9%BE%DA%A9%DB%8C%D8%AC%E2%80%AD/data=!4m7!3m6!1s0x3fff35507cfafde1:0xc375c0f5d54a2988!8m2!3d35.5220873!4d46.176159!16s%2Fg%2F11scfs7l5g!19sChIJ4f36fFA1_z8RiClK1fXAdcM?authuser=0&hl=tr&rclk=1",
    "website_url": "",
    "rating_text": "5,0",
    "stars": null,
    "number_of_reviews": null,
    "price_level": "",
    "open_hours": "",
    "extraction_timestamp": "2025-06-07T13:41:19.984Z",
    "source_name": "google",
    "source_query": "Irrigation Equipment",
    "source_country": "IR",
    "country": "Iran",
    "state": "Kurdistan",
    "city": "Marivan"
  },
  {
    "source_id": "ChIJE_AIUn5K_z8R7cu87NFcBYc",
    "name": "Hoseyni Water Installations",
    "category": "Hoseyni Water Installations",
    "formatted_address": "",
    "phone_number": "+989188763068",
    "source_url": "https://www.google.com/maps/place/Hoseyni+Water+Installations/data=!4m7!3m6!1s0x3fff4a7e5208f013:0x87055cd1ecbccbed!8m2!3d35.5250056!4d46.1690975!16s%2Fg%2F11b8_tw6v6!19sChIJE_AIUn5K_z8R7cu87NFcBYc?authuser=0&hl=tr&rclk=1",
    "website_url": "",
    "rating_text": "",
    "stars": null,
    "number_of_reviews": null,
    "price_level": "",
    "open_hours": "",
    "extraction_timestamp": "2025-06-07T13:41:19.984Z",
    "source_name": "google",
    "source_query": "Irrigation Equipment",
    "source_country": "IR",
    "country": "Iran",
    "state": "Kurdistan",
    "city": "Marivan"
  },
  {
    "source_id": "ChIJT9PNA2Y1_z8RUbd0_eXbY0Y",
    "name": "City Food Store",
    "category": "City Food Store",
    "formatted_address": "5,0(1)",
    "phone_number": "+989185764116",
    "source_url": "https://www.google.com/maps/place/City+Food+Store/data=!4m7!3m6!1s0x3fff356603cdd34f:0x4663dbe5fd74b751!8m2!3d35.5212214!4d46.1855832!16s%2Fg%2F11f30r3hjb!19sChIJT9PNA2Y1_z8RUbd0_eXbY0Y?authuser=0&hl=tr&rclk=1",
    "website_url": "",
    "rating_text": "5,0",
    "stars": null,
    "number_of_reviews": null,
    "price_level": "",
    "open_hours": "",
    "extraction_timestamp": "2025-06-07T13:41:19.984Z",
    "source_name": "google",
    "source_query": "Irrigation Equipment",
    "source_country": "IR",
    "country": "Iran",
    "state": "Kurdistan",
    "city": "Marivan"
  },
  {
    "source_id": "ChIJEc58RkE1_z8R7aulVSBQgts",
    "name": "Erxewancoffee1",
    "category": "Erxewancoffee1",
    "formatted_address": "4,9(33)",
    "phone_number": "+989120618870",
    "source_url": "https://www.google.com/maps/place/Erxewancoffee1/data=!4m7!3m6!1s0x3fff3541467cce11:0xdb82502055a5abed!8m2!3d35.5142119!4d46.194049!16s%2Fg%2F11c6_wjwj4!19sChIJEc58RkE1_z8R7aulVSBQgts?authuser=0&hl=tr&rclk=1",
    "website_url": "",
    "rating_text": "4,9",
    "stars": null,
    "number_of_reviews": null,
    "price_level": "",
    "open_hours": "",
    "extraction_timestamp": "2025-06-07T13:41:19.984Z",
    "source_name": "google",
    "source_query": "Irrigation Equipment",
    "source_country": "IR",
    "country": "Iran",
    "state": "Kurdistan",
    "city": "Marivan"
  },
  {
    "source_id": "ChIJsyMn8x01_z8R3p-vq6Ki3p4",
    "name": "فروشگاه واران",
    "category": "فروشگاه واران",
    "formatted_address": "5,0(1)",
    "phone_number": "+989189860744",
    "source_url": "https://www.google.com/maps/place/%D9%81%D8%B1%D9%88%D8%B4%DA%AF%D8%A7%D9%87+%D9%88%D8%A7%D8%B1%D8%A7%D9%86%E2%80%AD/data=!4m7!3m6!1s0x3fff351df32723b3:0x9edea2a2abaf9fde!8m2!3d35.5210311!4d46.2007518!16s%2Fg%2F11ftkh_9hp!19sChIJsyMn8x01_z8R3p-vq6Ki3p4?authuser=0&hl=tr&rclk=1",
    "website_url": "",
    "rating_text": "5,0",
    "stars": null,
    "number_of_reviews": null,
    "price_level": "",
    "open_hours": "",
    "extraction_timestamp": "2025-06-07T13:41:19.985Z",
    "source_name": "google",
    "source_query": "Irrigation Equipment",
    "source_country": "IR",
    "country": "Iran",
    "state": "Kurdistan",
    "city": "Marivan"
  },
  {
    "source_id": "ChIJ2VfWTAU1_z8Rjsw6niKgyrM",
    "name": "نمایندگی مجتمع پلاستیک طبرستان - دیهیم",
    "category": "نمایندگی مجتمع پلاستیک طبرستان - دیهیم",
    "formatted_address": "Nalbur · بلوار بسیج, No. روبروی, گلزار شهدا مصالح ساختمانی اب و فاضلاب دیهیمKapanmak üzere ⋅ 18:00 ⋅ Açılış zamanı: Paz 02:00",
    "phone_number": "",
    "source_url": "https://www.google.com/maps/place/%D9%86%D9%85%D8%A7%DB%8C%D9%86%D8%AF%DA%AF%DB%8C+%D9%85%D8%AC%D8%AA%D9%85%D8%B9+%D9%BE%D9%84%D8%A7%D8%B3%D8%AA%DB%8C%DA%A9+%D8%B7%D8%A8%D8%B1%D8%B3%D8%AA%D8%A7%D9%86+-+%D8%AF%DB%8C%D9%87%DB%8C%D9%85%E2%80%AD/data=!4m7!3m6!1s0x3fff35054cd657d9:0xb3caa0229e3acc8e!8m2!3d35.5084055!4d46.1719735!16s%2Fg%2F11vjpvn3ly!19sChIJ2VfWTAU1_z8Rjsw6niKgyrM?authuser=0&hl=tr&rclk=1",
    "website_url": "",
    "rating_text": "",
    "stars": null,
    "number_of_reviews": null,
    "price_level": "",
    "open_hours": "",
    "extraction_timestamp": "2025-06-07T13:41:19.985Z",
    "source_name": "google",
    "source_query": "Irrigation Equipment",
    "source_country": "IR",
    "country": "Iran",
    "state": "Kurdistan",
    "city": "Marivan"
  },
  {
    "source_id": "ChIJF05PdCxL_z8RuFSV3EKsBi0",
    "name": "Rzgar supermarket",
    "category": "Rzgar supermarket",
    "formatted_address": "5,0(2)",
    "phone_number": "+989187755626",
    "source_url": "https://www.google.com/maps/place/Rzgar+supermarket/data=!4m7!3m6!1s0x3fff4b2c744f4e17:0x2d06ac42dc9554b8!8m2!3d35.5289733!4d46.1727149!16s%2Fg%2F11gy4t3gcm!19sChIJF05PdCxL_z8RuFSV3EKsBi0?authuser=0&hl=tr&rclk=1",
    "website_url": "",
    "rating_text": "5,0",
    "stars": null,
    "number_of_reviews": null,
    "price_level": "",
    "open_hours": "",
    "extraction_timestamp": "2025-06-07T13:41:19.985Z",
    "source_name": "google",
    "source_query": "Irrigation Equipment",
    "source_country": "IR",
    "country": "Iran",
    "state": "Kurdistan",
    "city": "Marivan"
  },
  {
    "source_id": "ChIJqb3rYAA1_z8RUwMeA2t-81s",
    "name": "فروشگاه قندیل",
    "category": "فروشگاه قندیل",
    "formatted_address": "5,0(1)",
    "phone_number": "+989188758490",
    "source_url": "https://www.google.com/maps/place/%D9%81%D8%B1%D9%88%D8%B4%DA%AF%D8%A7%D9%87+%D9%82%D9%86%D8%AF%DB%8C%D9%84%E2%80%AD/data=!4m7!3m6!1s0x3fff350060ebbda9:0x5bf37e6b031e0353!8m2!3d35.5232822!4d46.1870894!16s%2Fg%2F11x7t63rgf!19sChIJqb3rYAA1_z8RUwMeA2t-81s?authuser=0&hl=tr&rclk=1",
    "website_url": "",
    "rating_text": "5,0",
    "stars": null,
    "number_of_reviews": null,
    "price_level": "",
    "open_hours": "",
    "extraction_timestamp": "2025-06-07T13:41:19.985Z",
    "source_name": "google",
    "source_query": "Irrigation Equipment",
    "source_country": "IR",
    "country": "Iran",
    "state": "Kurdistan",
    "city": "Marivan"
  },
  {
    "source_id": "ChIJV9Ep32Q1_z8Ryz1k0InC2c4",
    "name": "Karo Grocery Store",
    "category": "Karo Grocery Store",
    "formatted_address": "5,0(1)",
    "phone_number": "+989109108628",
    "source_url": "https://www.google.com/maps/place/Karo+Grocery+Store/data=!4m7!3m6!1s0x3fff3564df29d157:0xced9c289d0643dcb!8m2!3d35.5216318!4d46.1813035!16s%2Fg%2F11c6cdbf1x!19sChIJV9Ep32Q1_z8Ryz1k0InC2c4?authuser=0&hl=tr&rclk=1",
    "website_url": "",
    "rating_text": "5,0",
    "stars": null,
    "number_of_reviews": null,
    "price_level": "",
    "open_hours": "",
    "extraction_timestamp": "2025-06-07T13:41:19.985Z",
    "source_name": "google",
    "source_query": "Irrigation Equipment",
    "source_country": "IR",
    "country": "Iran",
    "state": "Kurdistan",
    "city": "Marivan"
  },
  {
    "source_id": "ChIJL18e2H01_z8RpH9uQiyJ5IM",
    "name": "بازی های فکری و آموزشی فرزند خلاق",
    "category": "بازی های فکری و آموزشی فرزند خلاق",
    "formatted_address": "5,0(2)",
    "phone_number": "+989350724872",
    "source_url": "https://www.google.com/maps/place/%D8%A8%D8%A7%D8%B2%DB%8C+%D9%87%D8%A7%DB%8C+%D9%81%DA%A9%D8%B1%DB%8C+%D9%88+%D8%A2%D9%85%D9%88%D8%B2%D8%B4%DB%8C+%D9%81%D8%B1%D8%B2%D9%86%D8%AF+%D8%AE%D9%84%D8%A7%D9%82%E2%80%AD/data=!4m7!3m6!1s0x3fff357dd81e5f2f:0x83e4892c426e7fa4!8m2!3d35.52391!4d46.175743!16s%2Fg%2F11c2pphkb1!19sChIJL18e2H01_z8RpH9uQiyJ5IM?authuser=0&hl=tr&rclk=1",
    "website_url": "",
    "rating_text": "5,0",
    "stars": null,
    "number_of_reviews": null,
    "price_level": "",
    "open_hours": "",
    "extraction_timestamp": "2025-06-07T13:41:19.985Z",
    "source_name": "google",
    "source_query": "Irrigation Equipment",
    "source_country": "IR",
    "country": "Iran",
    "state": "Kurdistan",
    "city": "Marivan"
  },
  {
    "source_id": "ChIJ07l2cok1_z8RJ-IqnLoCzn4",
    "name": "فروشگاه افق کوروش بهاران",
    "category": "فروشگاه افق کوروش بهاران",
    "formatted_address": "5,0(2)",
    "phone_number": "+989108091478",
    "source_url": "https://www.google.com/maps/place/%D9%81%D8%B1%D9%88%D8%B4%DA%AF%D8%A7%D9%87+%D8%A7%D9%81%D9%82+%DA%A9%D9%88%D8%B1%D9%88%D8%B4+%D8%A8%D9%87%D8%A7%D8%B1%D8%A7%D9%86%E2%80%AD/data=!4m7!3m6!1s0x3fff35897276b9d3:0x7ece02ba9c2ae227!8m2!3d35.5138875!4d46.1856094!16s%2Fg%2F11t6smzsll!19sChIJ07l2cok1_z8RJ-IqnLoCzn4?authuser=0&hl=tr&rclk=1",
    "website_url": "",
    "rating_text": "5,0",
    "stars": null,
    "number_of_reviews": null,
    "price_level": "",
    "open_hours": "",
    "extraction_timestamp": "2025-06-07T13:41:19.986Z",
    "source_name": "google",
    "source_query": "Irrigation Equipment",
    "source_country": "IR",
    "country": "Iran",
    "state": "Kurdistan",
    "city": "Marivan"
  },
  {
    "source_id": "ChIJG0wnIgA1_z8R97evGQgpP5Q",
    "name": "محصولات طبیعی بهارات",
    "category": "محصولات طبیعی بهارات",
    "formatted_address": "4,5(2)",
    "phone_number": "+989186677805",
    "source_url": "https://www.google.com/maps/place/%D9%85%D8%AD%D8%B5%D9%88%D9%84%D8%A7%D8%AA+%D8%B7%D8%A8%DB%8C%D8%B9%DB%8C+%D8%A8%D9%87%D8%A7%D8%B1%D8%A7%D8%AA%E2%80%AD/data=!4m7!3m6!1s0x3fff350022274c1b:0x943f290819afb7f7!8m2!3d35.5233037!4d46.1871263!16s%2Fg%2F11wqgd8v4l!19sChIJG0wnIgA1_z8R97evGQgpP5Q?authuser=0&hl=tr&rclk=1",
    "website_url": "",
    "rating_text": "4,5",
    "stars": null,
    "number_of_reviews": null,
    "price_level": "",
    "open_hours": "",
    "extraction_timestamp": "2025-06-07T13:41:19.986Z",
    "source_name": "google",
    "source_query": "Irrigation Equipment",
    "source_country": "IR",
    "country": "Iran",
    "state": "Kurdistan",
    "city": "Marivan"
  },
  {
    "source_id": "ChIJXSQ0KEM1_z8RTQu9XQLlxkA",
    "name": "Bita Pastry Shop",
    "category": "Bita Pastry Shop",
    "formatted_address": "5,0(5)",
    "phone_number": "+989188761474",
    "source_url": "https://www.google.com/maps/place/Bita+Pastry+Shop/data=!4m7!3m6!1s0x3fff35432834245d:0x40c6e5025dbd0b4d!8m2!3d35.5238487!4d46.1924773!16s%2Fg%2F11dymwvvk7!19sChIJXSQ0KEM1_z8RTQu9XQLlxkA?authuser=0&hl=tr&rclk=1",
    "website_url": "",
    "rating_text": "5,0",
    "stars": null,
    "number_of_reviews": null,
    "price_level": "",
    "open_hours": "",
    "extraction_timestamp": "2025-06-07T13:41:19.986Z",
    "source_name": "google",
    "source_query": "Irrigation Equipment",
    "source_country": "IR",
    "country": "Iran",
    "state": "Kurdistan",
    "city": "Marivan"
  },
  {
    "source_id": "ChIJexFiXd9L_z8R1OdCK3zsJ4s",
    "name": "خرما فروشی بهروز اداک",
    "category": "خرما فروشی بهروز اداک",
    "formatted_address": "5,0(1)",
    "phone_number": "+989128942367",
    "source_url": "https://www.google.com/maps/place/%D8%AE%D8%B1%D9%85%D8%A7+%D9%81%D8%B1%D9%88%D8%B4%DB%8C+%D8%A8%D9%87%D8%B1%D9%88%D8%B2+%D8%A7%D8%AF%D8%A7%DA%A9%E2%80%AD/data=!4m7!3m6!1s0x3fff4bdf5d62117b:0x8b27ec7c2b42e7d4!8m2!3d35.5232885!4d46.16901!16s%2Fg%2F11fqzxnkb5!19sChIJexFiXd9L_z8R1OdCK3zsJ4s?authuser=0&hl=tr&rclk=1",
    "website_url": "",
    "rating_text": "5,0",
    "stars": null,
    "number_of_reviews": null,
    "price_level": "",
    "open_hours": "",
    "extraction_timestamp": "2025-06-07T13:41:19.986Z",
    "source_name": "google",
    "source_query": "Irrigation Equipment",
    "source_country": "IR",
    "country": "Iran",
    "state": "Kurdistan",
    "city": "Marivan"
  },
  {
    "source_id": "ChIJ1cmUL4dK_z8RxnsfIeYYWzY",
    "name": "Supermarket 90",
    "category": "Supermarket 90",
    "formatted_address": "5,0(2)",
    "phone_number": "+988734523778",
    "source_url": "https://www.google.com/maps/place/Supermarket+90/data=!4m7!3m6!1s0x3fff4a872f94c9d5:0x365b18e6211f7bc6!8m2!3d35.5291509!4d46.1727905!16s%2Fg%2F11c1sjyjr4!19sChIJ1cmUL4dK_z8RxnsfIeYYWzY?authuser=0&hl=tr&rclk=1",
    "website_url": "",
    "rating_text": "5,0",
    "stars": null,
    "number_of_reviews": null,
    "price_level": "",
    "open_hours": "",
    "extraction_timestamp": "2025-06-07T13:41:19.986Z",
    "source_name": "google",
    "source_query": "Irrigation Equipment",
    "source_country": "IR",
    "country": "Iran",
    "state": "Kurdistan",
    "city": "Marivan"
  },
  {
    "source_id": "ChIJPbZCOkJL_z8Rr2-7gJMXpcs",
    "name": "سوپرمارکت ٩٠",
    "category": "سوپرمارکت ٩٠",
    "formatted_address": "5,0(3)",
    "phone_number": "",
    "source_url": "https://www.google.com/maps/place/%D8%B3%D9%88%D9%BE%D8%B1%D9%85%D8%A7%D8%B1%DA%A9%D8%AA+%D9%A9%D9%A0%E2%80%AD/data=!4m7!3m6!1s0x3fff4b423a42b63d:0xcba5179380bb6faf!8m2!3d35.5291414!4d46.1728291!16s%2Fg%2F11v9kklv6j!19sChIJPbZCOkJL_z8Rr2-7gJMXpcs?authuser=0&hl=tr&rclk=1",
    "website_url": "",
    "rating_text": "5,0",
    "stars": null,
    "number_of_reviews": null,
    "price_level": "",
    "open_hours": "",
    "extraction_timestamp": "2025-06-07T13:41:19.987Z",
    "source_name": "google",
    "source_query": "Irrigation Equipment",
    "source_country": "IR",
    "country": "Iran",
    "state": "Kurdistan",
    "city": "Marivan"
  },
  {
    "source_id": "ChIJS7-osl0Bjj8R84DcdIl7k_8",
    "name": "Irrigation and Farming Company Aria Tib",
    "category": "Irrigation and Farming Company Aria Tib",
    "formatted_address": "4,7(7)",
    "phone_number": "+982188845454",
    "source_url": "https://www.google.com/maps/place/Irrigation+and+Farming+Company+Aria+Tib/data=!4m7!3m6!1s0x3f8e015db2a8bf4b:0xff937b8974dc80f3!8m2!3d35.7232298!4d51.4237588!16s%2Fg%2F11f0kvhyt6!19sChIJS7-osl0Bjj8R84DcdIl7k_8?authuser=0&hl=tr&rclk=1",
    "website_url": "",
    "rating_text": "4,7",
    "stars": null,
    "number_of_reviews": null,
    "price_level": "",
    "open_hours": "",
    "extraction_timestamp": "2025-06-07T13:41:19.993Z",
    "source_name": "google",
    "source_query": "Irrigation Equipment",
    "source_country": "IR",
    "country": "Iran",
    "state": "Kurdistan",
    "city": "Marivan"
  },
  {
    "source_id": "ChIJ1RAMYABL_z8RBbH5mpsAo5Q",
    "name": "سوپر مارکت ژینگه",
    "category": "سوپر مارکت ژینگه",
    "formatted_address": "5,0(1)",
    "phone_number": "+989188766025",
    "source_url": "https://www.google.com/maps/place/%D8%B3%D9%88%D9%BE%D8%B1+%D9%85%D8%A7%D8%B1%DA%A9%D8%AA+%DA%98%DB%8C%D9%86%DA%AF%D9%87%E2%80%AD/data=!4m7!3m6!1s0x3fff4b00600c10d5:0x94a3009b9af9b105!8m2!3d35.5245778!4d46.163339!16s%2Fg%2F11xfdy0m3n!19sChIJ1RAMYABL_z8RBbH5mpsAo5Q?authuser=0&hl=tr&rclk=1",
    "website_url": "",
    "rating_text": "5,0",
    "stars": null,
    "number_of_reviews": null,
    "price_level": "",
    "open_hours": "",
    "extraction_timestamp": "2025-06-07T13:41:19.993Z",
    "source_name": "google",
    "source_query": "Irrigation Equipment",
    "source_country": "IR",
    "country": "Iran",
    "state": "Kurdistan",
    "city": "Marivan"
  },
  {
    "source_id": "ChIJlYBbtjg1_z8RUZw8X-qoofw",
    "name": "فروشگاه معراج",
    "category": "فروشگاه معراج",
    "formatted_address": "5,0(2)",
    "phone_number": "",
    "source_url": "https://www.google.com/maps/place/%D9%81%D8%B1%D9%88%D8%B4%DA%AF%D8%A7%D9%87+%D9%85%D8%B9%D8%B1%D8%A7%D8%AC%E2%80%AD/data=!4m7!3m6!1s0x3fff3538b65b8095:0xfca1a8ea5f3c9c51!8m2!3d35.5291572!4d46.1899593!16s%2Fg%2F11flvyy95p!19sChIJlYBbtjg1_z8RUZw8X-qoofw?authuser=0&hl=tr&rclk=1",
    "website_url": "",
    "rating_text": "5,0",
    "stars": null,
    "number_of_reviews": null,
    "price_level": "",
    "open_hours": "",
    "extraction_timestamp": "2025-06-07T13:41:19.994Z",
    "source_name": "google",
    "source_query": "Irrigation Equipment",
    "source_country": "IR",
    "country": "Iran",
    "state": "Kurdistan",
    "city": "Marivan"
  },
  {
    "source_id": "ChIJoTsSQQsBjj8Re4yPgbYBMnk",
    "name": "Movahedin",
    "category": "Movahedin",
    "formatted_address": "Sulama Ekipmanları Tedarikçisi · Shahriar, PC25+5GXKapalı ⋅ Açılış zamanı: Paz 08:00 · +98 21 6670 5096",
    "phone_number": "+982166705096",
    "source_url": "https://www.google.com/maps/place/Movahedin/data=!4m7!3m6!1s0x3f8e010b41123ba1:0x793201b6818f8c7b!8m2!3d35.7004879!4d51.4088729!16s%2Fg%2F1tjrng36!19sChIJoTsSQQsBjj8Re4yPgbYBMnk?authuser=0&hl=tr&rclk=1",
    "website_url": "",
    "rating_text": "",
    "stars": null,
    "number_of_reviews": null,
    "price_level": "",
    "open_hours": "",
    "extraction_timestamp": "2025-06-07T13:41:19.994Z",
    "source_name": "google",
    "source_query": "Irrigation Equipment",
    "source_country": "IR",
    "country": "Iran",
    "state": "Kurdistan",
    "city": "Marivan"
  },
  {
    "source_id": "ChIJoUpSA-g1_z8Rzz0DaC7wLb0",
    "name": "کافه کلمبیا_coffe.colombiia",
    "category": "کافه کلمبیا_coffe.colombiia",
    "formatted_address": "5,0(2)",
    "phone_number": "+989145996243",
    "source_url": "https://www.google.com/maps/place/%DA%A9%D8%A7%D9%81%D9%87+%DA%A9%D9%84%D9%85%D8%A8%DB%8C%D8%A7_coffe.colombiia%E2%80%AD/data=!4m7!3m6!1s0x3fff35e803524aa1:0xbd2df02e68033dcf!8m2!3d35.5194981!4d46.1945825!16s%2Fg%2F11srynn7cc!19sChIJoUpSA-g1_z8Rzz0DaC7wLb0?authuser=0&hl=tr&rclk=1",
    "website_url": "",
    "rating_text": "5,0",
    "stars": null,
    "number_of_reviews": null,
    "price_level": "",
    "open_hours": "",
    "extraction_timestamp": "2025-06-07T13:41:19.994Z",
    "source_name": "google",
    "source_query": "Irrigation Equipment",
    "source_country": "IR",
    "country": "Iran",
    "state": "Kurdistan",
    "city": "Marivan"
  },
  {
    "source_id": "ChIJk4C-xyE1_z8Rw9rA0EcxGaY",
    "name": "toranj",
    "category": "toranj",
    "formatted_address": "3,6(7)",
    "phone_number": "+988734521067",
    "source_url": "https://www.google.com/maps/place/toranj/data=!4m7!3m6!1s0x3fff3521c7be8093:0xa6193147d0c0dac3!8m2!3d35.52475!4d46.1752035!16s%2Fg%2F11t53kkxfy!19sChIJk4C-xyE1_z8Rw9rA0EcxGaY?authuser=0&hl=tr&rclk=1",
    "website_url": "",
    "rating_text": "3,6",
    "stars": null,
    "number_of_reviews": null,
    "price_level": "",
    "open_hours": "",
    "extraction_timestamp": "2025-06-07T13:41:19.994Z",
    "source_name": "google",
    "source_query": "Irrigation Equipment",
    "source_country": "IR",
    "country": "Iran",
    "state": "Kurdistan",
    "city": "Marivan"
  },
  {
    "source_id": "ChIJPUlkBaJL_z8RBFld_rnC8i0",
    "name": "چایخانە شەعب",
    "category": "چایخانە شەعب",
    "formatted_address": "5,0(2)",
    "phone_number": "",
    "source_url": "https://www.google.com/maps/place/%DA%86%D8%A7%DB%8C%D8%AE%D8%A7%D9%86%DB%95+%D8%B4%DB%95%D8%B9%D8%A8%E2%80%AD/data=!4m7!3m6!1s0x3fff4ba20564493d:0x2df2c2b9fe5d5904!8m2!3d35.5247022!4d46.1727919!16s%2Fg%2F11v78whjf1!19sChIJPUlkBaJL_z8RBFld_rnC8i0?authuser=0&hl=tr&rclk=1",
    "website_url": "",
    "rating_text": "5,0",
    "stars": null,
    "number_of_reviews": null,
    "price_level": "",
    "open_hours": "",
    "extraction_timestamp": "2025-06-07T13:41:19.994Z",
    "source_name": "google",
    "source_query": "Irrigation Equipment",
    "source_country": "IR",
    "country": "Iran",
    "state": "Kurdistan",
    "city": "Marivan"
  },
  {
    "source_id": "ChIJ5YvFHwA1_z8Rgq92-Acc4Yk",
    "name": "نیشتمان مارکت شعبه ۴",
    "category": "نیشتمان مارکت شعبه ۴",
    "formatted_address": "5,0(1)",
    "phone_number": "+989185228975",
    "source_url": "https://www.google.com/maps/place/%D9%86%DB%8C%D8%B4%D8%AA%D9%85%D8%A7%D9%86+%D9%85%D8%A7%D8%B1%DA%A9%D8%AA+%D8%B4%D8%B9%D8%A8%D9%87+%DB%B4%E2%80%AD/data=!4m7!3m6!1s0x3fff35001fc58be5:0x89e11c07f876af82!8m2!3d35.5116875!4d46.1878243!16s%2Fg%2F11x2d2cyd8!19sChIJ5YvFHwA1_z8Rgq92-Acc4Yk?authuser=0&hl=tr&rclk=1",
    "website_url": "",
    "rating_text": "5,0",
    "stars": null,
    "number_of_reviews": null,
    "price_level": "",
    "open_hours": "",
    "extraction_timestamp": "2025-06-07T13:41:19.994Z",
    "source_name": "google",
    "source_query": "Irrigation Equipment",
    "source_country": "IR",
    "country": "Iran",
    "state": "Kurdistan",
    "city": "Marivan"
  },
  {
    "source_id": "ChIJhwrXo2c1_z8RbdXXv0vD6Ws",
    "name": "فروشگاه آزاد",
    "category": "فروشگاه آزاد",
    "formatted_address": "5,0(1)",
    "phone_number": "+989187889162",
    "source_url": "https://www.google.com/maps/place/%D9%81%D8%B1%D9%88%D8%B4%DA%AF%D8%A7%D9%87+%D8%A2%D8%B2%D8%A7%D8%AF%E2%80%AD/data=!4m7!3m6!1s0x3fff3567a3d70a87:0x6be9c34bbfd7d56d!8m2!3d35.5236989!4d46.1966806!16s%2Fg%2F11lq3hpwsb!19sChIJhwrXo2c1_z8RbdXXv0vD6Ws?authuser=0&hl=tr&rclk=1",
    "website_url": "",
    "rating_text": "5,0",
    "stars": null,
    "number_of_reviews": null,
    "price_level": "",
    "open_hours": "",
    "extraction_timestamp": "2025-06-07T13:41:19.995Z",
    "source_name": "google",
    "source_query": "Irrigation Equipment",
    "source_country": "IR",
    "country": "Iran",
    "state": "Kurdistan",
    "city": "Marivan"
  },
  {
    "source_id": "ChIJW8gPRAA1_z8RRGOmUo1FpL4",
    "name": "نیشتمان مارکت شعبه 3",
    "category": "نیشتمان مارکت شعبه 3",
    "formatted_address": "5,0(1)",
    "phone_number": "+989185228975",
    "source_url": "https://www.google.com/maps/place/%D9%86%DB%8C%D8%B4%D8%AA%D9%85%D8%A7%D9%86+%D9%85%D8%A7%D8%B1%DA%A9%D8%AA+%D8%B4%D8%B9%D8%A8%D9%87+3%E2%80%AD/data=!4m7!3m6!1s0x3fff3500440fc85b:0xbea4458d52a66344!8m2!3d35.5219685!4d46.1801666!16s%2Fg%2F11wjfdd4_l!19sChIJW8gPRAA1_z8RRGOmUo1FpL4?authuser=0&hl=tr&rclk=1",
    "website_url": "",
    "rating_text": "5,0",
    "stars": null,
    "number_of_reviews": null,
    "price_level": "",
    "open_hours": "",
    "extraction_timestamp": "2025-06-07T13:41:19.995Z",
    "source_name": "google",
    "source_query": "Irrigation Equipment",
    "source_country": "IR",
    "country": "Iran",
    "state": "Kurdistan",
    "city": "Marivan"
  },
  {
    "source_id": "ChIJnZ8SDgA1_z8RVomSE-2my7k",
    "name": "کافه بستنی کازیوه",
    "category": "کافه بستنی کازیوه",
    "formatted_address": "5,0(4)",
    "phone_number": "",
    "source_url": "https://www.google.com/maps/place/%DA%A9%D8%A7%D9%81%D9%87+%D8%A8%D8%B3%D8%AA%D9%86%DB%8C+%DA%A9%D8%A7%D8%B2%DB%8C%D9%88%D9%87%E2%80%AD/data=!4m7!3m6!1s0x3fff35000e129f9d:0xb9cba6ed13928956!8m2!3d35.50498!4d46.1870589!16s%2Fg%2F11xdmt8cy9!19sChIJnZ8SDgA1_z8RVomSE-2my7k?authuser=0&hl=tr&rclk=1",
    "website_url": "",
    "rating_text": "5,0",
    "stars": null,
    "number_of_reviews": null,
    "price_level": "",
    "open_hours": "",
    "extraction_timestamp": "2025-06-07T13:41:19.995Z",
    "source_name": "google",
    "source_query": "Irrigation Equipment",
    "source_country": "IR",
    "country": "Iran",
    "state": "Kurdistan",
    "city": "Marivan"
  }
]
