[
  {
    "source_id": "ChIJ2RsjRAAf-j8RXV3CYlufyTc",
    "name": "بستنی مسلم",
    "category": "بستنی مسلم",
    "formatted_address": "5,0(1)",
    "phone_number": "+989184510650",
    "source_url": "https://www.google.com/maps/place/%D8%A8%D8%B3%D8%AA%D9%86%DB%8C+%D9%85%D8%B3%D9%84%D9%85%E2%80%AD/data=!4m7!3m6!1s0x3ffa1f0044231bd9:0x37c99f5b62c25d5d!8m2!3d35.0567801!4d47.1520637!16s%2Fg%2F11lnjn8db0!19sChIJ2RsjRAAf-j8RXV3CYlufyTc?authuser=0&hl=tr&rclk=1",
    "website_url": "",
    "rating_text": "5,0",
    "stars": null,
    "number_of_reviews": null,
    "price_level": "",
    "open_hours": "",
    "extraction_timestamp": "2025-06-07T13:40:02.987Z",
    "source_name": "google",
    "source_query": "Irrigation Equipment",
    "source_country": "IR",
    "country": "Iran",
    "state": "Kurdistan",
    "city": "Muchesh"
  },
  {
    "source_id": "ChIJIR8kc7wf-j8RdKUoeQmagVo",
    "name": "سوپرمارکت ژیار",
    "category": "سوپرمارکت ژیار",
    "formatted_address": "",
    "phone_number": "+988735654035",
    "source_url": "https://www.google.com/maps/place/%D8%B3%D9%88%D9%BE%D8%B1%D9%85%D8%A7%D8%B1%DA%A9%D8%AA+%DA%98%DB%8C%D8%A7%D8%B1%E2%80%AD/data=!4m7!3m6!1s0x3ffa1fbc73241f21:0x5a819a097928a574!8m2!3d35.0570493!4d47.1517459!16s%2Fg%2F11h4zkfwpc!19sChIJIR8kc7wf-j8RdKUoeQmagVo?authuser=0&hl=tr&rclk=1",
    "website_url": "",
    "rating_text": "",
    "stars": null,
    "number_of_reviews": null,
    "price_level": "",
    "open_hours": "",
    "extraction_timestamp": "2025-06-07T13:40:02.989Z",
    "source_name": "google",
    "source_query": "Irrigation Equipment",
    "source_country": "IR",
    "country": "Iran",
    "state": "Kurdistan",
    "city": "Muchesh"
  },
  {
    "source_id": "ChIJxdqVq2Ef-j8RT_Knh_furIY",
    "name": "AREZ Hypermarket",
    "category": "AREZ Hypermarket",
    "formatted_address": "",
    "phone_number": "+989187819629",
    "source_url": "https://www.google.com/maps/place/AREZ+Hypermarket/data=!4m7!3m6!1s0x3ffa1f61ab95dac5:0x86aceef787a7f24f!8m2!3d35.0571279!4d47.1532697!16s%2Fg%2F11ft0rdv_b!19sChIJxdqVq2Ef-j8RT_Knh_furIY?authuser=0&hl=tr&rclk=1",
    "website_url": "",
    "rating_text": "",
    "stars": null,
    "number_of_reviews": null,
    "price_level": "",
    "open_hours": "",
    "extraction_timestamp": "2025-06-07T13:40:02.990Z",
    "source_name": "google",
    "source_query": "Irrigation Equipment",
    "source_country": "IR",
    "country": "Iran",
    "state": "Kurdistan",
    "city": "Muchesh"
  },
  {
    "source_id": "ChIJqcRwPwA__j8RSkgckMBTYBg",
    "name": "هیوا پلاستیک",
    "category": "هیوا پلاستیک",
    "formatted_address": "5,0(2)",
    "phone_number": "+9647708162013",
    "source_url": "https://www.google.com/maps/place/%D9%87%DB%8C%D9%88%D8%A7+%D9%BE%D9%84%D8%A7%D8%B3%D8%AA%DB%8C%DA%A9%E2%80%AD/data=!4m7!3m6!1s0x3ffe3f003f70c4a9:0x186053c0901c484a!8m2!3d34.596848!4d45.2987307!16s%2Fg%2F11yc0bfpx_!19sChIJqcRwPwA__j8RSkgckMBTYBg?authuser=0&hl=tr&rclk=1",
    "website_url": "",
    "rating_text": "5,0",
    "stars": null,
    "number_of_reviews": null,
    "price_level": "",
    "open_hours": "",
    "extraction_timestamp": "2025-06-07T13:40:02.993Z",
    "source_name": "google",
    "source_query": "Irrigation Equipment",
    "source_country": "IR",
    "country": "Iran",
    "state": "Kurdistan",
    "city": "Muchesh"
  },
  {
    "source_id": "ChIJ1Yz1h-wf-j8RBETeJNTIaXI",
    "name": "سوپرمارکت ساعدموچشی",
    "category": "سوپرمارکت ساعدموچشی",
    "formatted_address": "5,0(1)",
    "phone_number": "+989189697727",
    "source_url": "https://www.google.com/maps/place/%D8%B3%D9%88%D9%BE%D8%B1%D9%85%D8%A7%D8%B1%DA%A9%D8%AA+%D8%B3%D8%A7%D8%B9%D8%AF%D9%85%D9%88%DA%86%D8%B4%DB%8C%E2%80%AD/data=!4m7!3m6!1s0x3ffa1fec87f58cd5:0x7269c8d424de4404!8m2!3d35.0559161!4d47.1495934!16s%2Fg%2F11fn2w6r8t!19sChIJ1Yz1h-wf-j8RBETeJNTIaXI?authuser=0&hl=tr&rclk=1",
    "website_url": "",
    "rating_text": "5,0",
    "stars": null,
    "number_of_reviews": null,
    "price_level": "",
    "open_hours": "",
    "extraction_timestamp": "2025-06-07T13:40:02.997Z",
    "source_name": "google",
    "source_query": "Irrigation Equipment",
    "source_country": "IR",
    "country": "Iran",
    "state": "Kurdistan",
    "city": "Muchesh"
  }
]
