[
  {
    "source_id": "ChIJ20aFXPU5_j8RZbfAQyPRVzk",
    "name": "بەڕێوەبەرایەتی ئاودێرى گەرمیان",
    "category": "بەڕێوەبەرایەتی ئاودێرى گەرمیان",
    "formatted_address": "5,0(1)",
    "phone_number": "+9647709559011",
    "source_url": "https://www.google.com/maps/place/%D8%A8%DB%95%DA%95%DB%8E%D9%88%DB%95%D8%A8%DB%95%D8%B1%D8%A7%DB%8C%DB%95%D8%AA%DB%8C+%D8%A6%D8%A7%D9%88%D8%AF%DB%8E%D8%B1%D9%89+%DA%AF%DB%95%D8%B1%D9%85%DB%8C%D8%A7%D9%86%E2%80%AD/data=!4m7!3m6!1s0x3ffe39f55c8546db:0x3957d12343c0b765!8m2!3d34.6373218!4d45.292369!16s%2Fg%2F11vbjf41g6!19sChIJ20aFXPU5_j8RZbfAQyPRVzk?authuser=0&hl=tr&rclk=1",
    "website_url": "",
    "rating_text": "5,0",
    "stars": null,
    "number_of_reviews": null,
    "price_level": "",
    "open_hours": "",
    "extraction_timestamp": "2025-06-07T13:41:13.812Z",
    "source_name": "google",
    "source_query": "Irrigation Equipment",
    "source_country": "IR",
    "country": "Iran",
    "state": "Kurdistan",
    "city": "Pir Taj"
  },
  {
    "source_id": "ChIJS7-osl0Bjj8R84DcdIl7k_8",
    "name": "Irrigation and Farming Company Aria Tib",
    "category": "Irrigation and Farming Company Aria Tib",
    "formatted_address": "4,7(7)",
    "phone_number": "+982188845454",
    "source_url": "https://www.google.com/maps/place/Irrigation+and+Farming+Company+Aria+Tib/data=!4m7!3m6!1s0x3f8e015db2a8bf4b:0xff937b8974dc80f3!8m2!3d35.7232298!4d51.4237588!16s%2Fg%2F11f0kvhyt6!19sChIJS7-osl0Bjj8R84DcdIl7k_8?authuser=0&hl=tr&rclk=1",
    "website_url": "",
    "rating_text": "4,7",
    "stars": null,
    "number_of_reviews": null,
    "price_level": "",
    "open_hours": "",
    "extraction_timestamp": "2025-06-07T13:41:13.813Z",
    "source_name": "google",
    "source_query": "Irrigation Equipment",
    "source_country": "IR",
    "country": "Iran",
    "state": "Kurdistan",
    "city": "Pir Taj"
  },
  {
    "source_id": "ChIJqcRwPwA__j8RSkgckMBTYBg",
    "name": "هیوا پلاستیک",
    "category": "هیوا پلاستیک",
    "formatted_address": "5,0(2)",
    "phone_number": "+9647708162013",
    "source_url": "https://www.google.com/maps/place/%D9%87%DB%8C%D9%88%D8%A7+%D9%BE%D9%84%D8%A7%D8%B3%D8%AA%DB%8C%DA%A9%E2%80%AD/data=!4m7!3m6!1s0x3ffe3f003f70c4a9:0x186053c0901c484a!8m2!3d34.596848!4d45.2987307!16s%2Fg%2F11yc0bfpx_!19sChIJqcRwPwA__j8RSkgckMBTYBg?authuser=0&hl=tr&rclk=1",
    "website_url": "",
    "rating_text": "5,0",
    "stars": null,
    "number_of_reviews": null,
    "price_level": "",
    "open_hours": "",
    "extraction_timestamp": "2025-06-07T13:41:13.815Z",
    "source_name": "google",
    "source_query": "Irrigation Equipment",
    "source_country": "IR",
    "country": "Iran",
    "state": "Kurdistan",
    "city": "Pir Taj"
  },
  {
    "source_id": "ChIJlwbWV6rf9j8R3hf-0quU9wY",
    "name": "سوپر مارکت مهربانی",
    "category": "سوپر مارکت مهربانی",
    "formatted_address": "",
    "phone_number": "+989197725481",
    "source_url": "https://www.google.com/maps/place/%D8%B3%D9%88%D9%BE%D8%B1+%D9%85%D8%A7%D8%B1%DA%A9%D8%AA+%D9%85%D9%87%D8%B1%D8%A8%D8%A7%D9%86%DB%8C%E2%80%AD/data=!4m7!3m6!1s0x3ff6dfaa57d60697:0x6f794abd2fe17de!8m2!3d35.7719378!4d48.1175644!16s%2Fg%2F11c1p5vfbg!19sChIJlwbWV6rf9j8R3hf-0quU9wY?authuser=0&hl=tr&rclk=1",
    "website_url": "",
    "rating_text": "",
    "stars": null,
    "number_of_reviews": null,
    "price_level": "",
    "open_hours": "",
    "extraction_timestamp": "2025-06-07T13:41:13.817Z",
    "source_name": "google",
    "source_query": "Irrigation Equipment",
    "source_country": "IR",
    "country": "Iran",
    "state": "Kurdistan",
    "city": "Pir Taj"
  }
]
