[
  {
    "source_id": "ChIJF-1cJjLB8D8RoUA11JwFV_Q",
    "name": "Saeid",
    "category": "Saeid",
    "formatted_address": "3,5(2)",
    "phone_number": "+989510",
    "source_url": "https://www.google.com/maps/place/Saeid/data=!4m7!3m6!1s0x3ff0c132265ced17:0xf457059cd43540a1!8m2!3d35.1663592!4d47.8147407!16s%2Fg%2F11cnc48s89!19sChIJF-1cJjLB8D8RoUA11JwFV_Q?authuser=0&hl=tr&rclk=1",
    "website_url": "",
    "rating_text": "3,5",
    "stars": null,
    "number_of_reviews": null,
    "price_level": "",
    "open_hours": "",
    "extraction_timestamp": "2025-06-07T13:40:03.252Z",
    "source_name": "google",
    "source_query": "Irrigation Equipment",
    "source_country": "IR",
    "country": "Iran",
    "state": "Kurdistan",
    "city": "Qorveh"
  },
  {
    "source_id": "ChIJjX4Tyz3H8D8RWO7NEfRmAFE",
    "name": "فروشگاه خالدیان",
    "category": "فروشگاه خالدیان",
    "formatted_address": "4,6(5)",
    "phone_number": "+988735231580",
    "source_url": "https://www.google.com/maps/place/%D9%81%D8%B1%D9%88%D8%B4%DA%AF%D8%A7%D9%87+%D8%AE%D8%A7%D9%84%D8%AF%DB%8C%D8%A7%D9%86%E2%80%AD/data=!4m7!3m6!1s0x3ff0c73dcb137e8d:0x510066f411cdee58!8m2!3d35.1757707!4d47.7893474!16s%2Fg%2F11c6dg27f4!19sChIJjX4Tyz3H8D8RWO7NEfRmAFE?authuser=0&hl=tr&rclk=1",
    "website_url": "",
    "rating_text": "4,6",
    "stars": null,
    "number_of_reviews": null,
    "price_level": "",
    "open_hours": "",
    "extraction_timestamp": "2025-06-07T13:40:03.255Z",
    "source_name": "google",
    "source_query": "Irrigation Equipment",
    "source_country": "IR",
    "country": "Iran",
    "state": "Kurdistan",
    "city": "Qorveh"
  },
  {
    "source_id": "ChIJE9fyyCvH8D8RmaC1QR48WG4",
    "name": "Nader sadeghi Grocery",
    "category": "Nader sadeghi Grocery",
    "formatted_address": "5,0(1)",
    "phone_number": "+988735225553",
    "source_url": "https://www.google.com/maps/place/Nader+sadeghi+Grocery/data=!4m7!3m6!1s0x3ff0c72bc8f2d713:0x6e583c1e41b5a099!8m2!3d35.1680307!4d47.8002315!16s%2Fg%2F11bxfyw9k5!19sChIJE9fyyCvH8D8RmaC1QR48WG4?authuser=0&hl=tr&rclk=1",
    "website_url": "",
    "rating_text": "5,0",
    "stars": null,
    "number_of_reviews": null,
    "price_level": "",
    "open_hours": "",
    "extraction_timestamp": "2025-06-07T13:40:03.259Z",
    "source_name": "google",
    "source_query": "Irrigation Equipment",
    "source_country": "IR",
    "country": "Iran",
    "state": "Kurdistan",
    "city": "Qorveh"
  },
  {
    "source_id": "ChIJA-JhbjvH8D8Ro4KFipVNBmU",
    "name": "Persepolis store",
    "category": "Persepolis store",
    "formatted_address": "2,8(5)",
    "phone_number": "+989187855872",
    "source_url": "https://www.google.com/maps/place/Persepolis+store/data=!4m7!3m6!1s0x3ff0c73b6e61e203:0x65064d958a8582a3!8m2!3d35.173706!4d47.7912751!16s%2Fg%2F11c42y2jhh!19sChIJA-JhbjvH8D8Ro4KFipVNBmU?authuser=0&hl=tr&rclk=1",
    "website_url": "",
    "rating_text": "2,8",
    "stars": null,
    "number_of_reviews": null,
    "price_level": "",
    "open_hours": "",
    "extraction_timestamp": "2025-06-07T13:40:03.261Z",
    "source_name": "google",
    "source_query": "Irrigation Equipment",
    "source_country": "IR",
    "country": "Iran",
    "state": "Kurdistan",
    "city": "Qorveh"
  },
  {
    "source_id": "ChIJOad9oifH8D8RPVtcfCaE3gM",
    "name": "فروشگاه مواد غذایی شهرک",
    "category": "فروشگاه مواد غذایی شهرک",
    "formatted_address": "3,5(4)",
    "phone_number": "+988735252730",
    "source_url": "https://www.google.com/maps/place/%D9%81%D8%B1%D9%88%D8%B4%DA%AF%D8%A7%D9%87+%D9%85%D9%88%D8%A7%D8%AF+%D8%BA%D8%B0%D8%A7%DB%8C%DB%8C+%D8%B4%D9%87%D8%B1%DA%A9%E2%80%AD/data=!4m7!3m6!1s0x3ff0c727a27da739:0x3de84267c5c5b3d!8m2!3d35.1762063!4d47.8018369!16s%2Fg%2F11cnwpgyct!19sChIJOad9oifH8D8RPVtcfCaE3gM?authuser=0&hl=tr&rclk=1",
    "website_url": "",
    "rating_text": "3,5",
    "stars": null,
    "number_of_reviews": null,
    "price_level": "",
    "open_hours": "",
    "extraction_timestamp": "2025-06-07T13:40:03.263Z",
    "source_name": "google",
    "source_query": "Irrigation Equipment",
    "source_country": "IR",
    "country": "Iran",
    "state": "Kurdistan",
    "city": "Qorveh"
  },
  {
    "source_id": "ChIJ19p_nTvH8D8ReAtKTwkdCko",
    "name": "سوپرمارکت فرجاد",
    "category": "سوپرمارکت فرجاد",
    "formatted_address": "1,0(1)",
    "phone_number": "",
    "source_url": "https://www.google.com/maps/place/%D8%B3%D9%88%D9%BE%D8%B1%D9%85%D8%A7%D8%B1%DA%A9%D8%AA+%D9%81%D8%B1%D8%AC%D8%A7%D8%AF%E2%80%AD/data=!4m7!3m6!1s0x3ff0c73b9d7fdad7:0x4a0a1d094f4a0b78!8m2!3d35.1716583!4d47.7979962!16s%2Fg%2F11r97yysbm!19sChIJ19p_nTvH8D8ReAtKTwkdCko?authuser=0&hl=tr&rclk=1",
    "website_url": "",
    "rating_text": "1,0",
    "stars": null,
    "number_of_reviews": null,
    "price_level": "",
    "open_hours": "",
    "extraction_timestamp": "2025-06-07T13:40:03.265Z",
    "source_name": "google",
    "source_query": "Irrigation Equipment",
    "source_country": "IR",
    "country": "Iran",
    "state": "Kurdistan",
    "city": "Qorveh"
  },
  {
    "source_id": "ChIJIQY1aQDH8D8RB3LRvY7ly_4",
    "name": "فروشگاه تخفیفی بهترین",
    "category": "فروشگاه تخفیفی بهترین",
    "formatted_address": "5,0(2)",
    "phone_number": "+989127950830",
    "source_url": "https://www.google.com/maps/place/%D9%81%D8%B1%D9%88%D8%B4%DA%AF%D8%A7%D9%87+%D8%AA%D8%AE%D9%81%DB%8C%D9%81%DB%8C+%D8%A8%D9%87%D8%AA%D8%B1%DB%8C%D9%86%E2%80%AD/data=!4m7!3m6!1s0x3ff0c70069350621:0xfecbe58ebdd17207!8m2!3d35.1772467!4d47.7911247!16s%2Fg%2F11y47gz94l!19sChIJIQY1aQDH8D8RB3LRvY7ly_4?authuser=0&hl=tr&rclk=1",
    "website_url": "",
    "rating_text": "5,0",
    "stars": null,
    "number_of_reviews": null,
    "price_level": "",
    "open_hours": "",
    "extraction_timestamp": "2025-06-07T13:40:03.268Z",
    "source_name": "google",
    "source_query": "Irrigation Equipment",
    "source_country": "IR",
    "country": "Iran",
    "state": "Kurdistan",
    "city": "Qorveh"
  },
  {
    "source_id": "ChIJeTngdADH8D8Ruj7a9z6Ig5g",
    "name": "قهوه +",
    "category": "قهوه +",
    "formatted_address": "5,0(2)",
    "phone_number": "+989353428223",
    "source_url": "https://www.google.com/maps/place/%D9%82%D9%87%D9%88%D9%87+%2B%E2%80%AD/data=!4m7!3m6!1s0x3ff0c70074e03979:0x9883883ef7da3eba!8m2!3d35.1763677!4d47.8018329!16s%2Fg%2F11vyw0978b!19sChIJeTngdADH8D8Ruj7a9z6Ig5g?authuser=0&hl=tr&rclk=1",
    "website_url": "",
    "rating_text": "5,0",
    "stars": null,
    "number_of_reviews": null,
    "price_level": "",
    "open_hours": "",
    "extraction_timestamp": "2025-06-07T13:40:03.270Z",
    "source_name": "google",
    "source_query": "Irrigation Equipment",
    "source_country": "IR",
    "country": "Iran",
    "state": "Kurdistan",
    "city": "Qorveh"
  },
  {
    "source_id": "ChIJ4xTk9oXB8D8RC3-0ZA978Ic",
    "name": "هایپرمارکت ایران کالا",
    "category": "هایپرمارکت ایران کالا",
    "formatted_address": "Süpermarket · Kurdistan Province, Qorveh، Fazanegan, 5R27+PXP",
    "phone_number": "",
    "source_url": "https://www.google.com/maps/place/%D9%87%D8%A7%DB%8C%D9%BE%D8%B1%D9%85%D8%A7%D8%B1%DA%A9%D8%AA+%D8%A7%DB%8C%D8%B1%D8%A7%D9%86+%DA%A9%D8%A7%D9%84%D8%A7%E2%80%AD/data=!4m7!3m6!1s0x3ff0c185f6e414e3:0x87f07b0f64b47f0b!8m2!3d35.1518474!4d47.8149648!16s%2Fg%2F11sw0lbnxz!19sChIJ4xTk9oXB8D8RC3-0ZA978Ic?authuser=0&hl=tr&rclk=1",
    "website_url": "",
    "rating_text": "",
    "stars": null,
    "number_of_reviews": null,
    "price_level": "",
    "open_hours": "",
    "extraction_timestamp": "2025-06-07T13:40:03.271Z",
    "source_name": "google",
    "source_query": "Irrigation Equipment",
    "source_country": "IR",
    "country": "Iran",
    "state": "Kurdistan",
    "city": "Qorveh"
  },
  {
    "source_id": "ChIJ31ZqOCTB8D8R0ulymv60QxA",
    "name": "وین مارکت قروه",
    "category": "وین مارکت قروه",
    "formatted_address": "5,0(1)",
    "phone_number": "",
    "source_url": "https://www.google.com/maps/place/%D9%88%DB%8C%D9%86+%D9%85%D8%A7%D8%B1%DA%A9%D8%AA+%D9%82%D8%B1%D9%88%D9%87%E2%80%AD/data=!4m7!3m6!1s0x3ff0c124386a56df:0x1043b4fe9a72e9d2!8m2!3d35.1652575!4d47.8109368!16s%2Fg%2F11mvvfdpy3!19sChIJ31ZqOCTB8D8R0ulymv60QxA?authuser=0&hl=tr&rclk=1",
    "website_url": "",
    "rating_text": "5,0",
    "stars": null,
    "number_of_reviews": null,
    "price_level": "",
    "open_hours": "",
    "extraction_timestamp": "2025-06-07T13:40:03.272Z",
    "source_name": "google",
    "source_query": "Irrigation Equipment",
    "source_country": "IR",
    "country": "Iran",
    "state": "Kurdistan",
    "city": "Qorveh"
  },
  {
    "source_id": "ChIJCSwJetXG8D8RdvOzwhtnDkI",
    "name": "سوپرمارکت کوهپایه",
    "category": "سوپرمارکت کوهپایه",
    "formatted_address": "",
    "phone_number": "+989183775581",
    "source_url": "https://www.google.com/maps/place/%D8%B3%D9%88%D9%BE%D8%B1%D9%85%D8%A7%D8%B1%DA%A9%D8%AA+%DA%A9%D9%88%D9%87%D9%BE%D8%A7%DB%8C%D9%87%E2%80%AD/data=!4m7!3m6!1s0x3ff0c6d57a092c09:0x420e671bc2b3f376!8m2!3d35.1678934!4d47.8038272!16s%2Fg%2F11c1p88kmf!19sChIJCSwJetXG8D8RdvOzwhtnDkI?authuser=0&hl=tr&rclk=1",
    "website_url": "",
    "rating_text": "",
    "stars": null,
    "number_of_reviews": null,
    "price_level": "",
    "open_hours": "",
    "extraction_timestamp": "2025-06-07T13:40:03.277Z",
    "source_name": "google",
    "source_query": "Irrigation Equipment",
    "source_country": "IR",
    "country": "Iran",
    "state": "Kurdistan",
    "city": "Qorveh"
  },
  {
    "source_id": "ChIJbxOrVBjH8D8RKnp9Gh7EkP8",
    "name": "فروشگاه خرمشهر شاپ",
    "category": "فروشگاه خرمشهر شاپ",
    "formatted_address": "5,0(1)",
    "phone_number": "+989164987880",
    "source_url": "https://www.google.com/maps/place/%D9%81%D8%B1%D9%88%D8%B4%DA%AF%D8%A7%D9%87+%D8%AE%D8%B1%D9%85%D8%B4%D9%87%D8%B1+%D8%B4%D8%A7%D9%BE%E2%80%AD/data=!4m7!3m6!1s0x3ff0c71854ab136f:0xff90c41e1a7d7a2a!8m2!3d35.1672917!4d47.8063651!16s%2Fg%2F11gr4ffx8k!19sChIJbxOrVBjH8D8RKnp9Gh7EkP8?authuser=0&hl=tr&rclk=1",
    "website_url": "",
    "rating_text": "5,0",
    "stars": null,
    "number_of_reviews": null,
    "price_level": "",
    "open_hours": "",
    "extraction_timestamp": "2025-06-07T13:40:03.280Z",
    "source_name": "google",
    "source_query": "Irrigation Equipment",
    "source_country": "IR",
    "country": "Iran",
    "state": "Kurdistan",
    "city": "Qorveh"
  },
  {
    "source_id": "ChIJ11w2gxzB8D8RzMUVsi__MYU",
    "name": "سوپرکلوندی",
    "category": "سوپرکلوندی",
    "formatted_address": "5,0(1)",
    "phone_number": "+989014412173",
    "source_url": "https://www.google.com/maps/place/%D8%B3%D9%88%D9%BE%D8%B1%DA%A9%D9%84%D9%88%D9%86%D8%AF%DB%8C%E2%80%AD/data=!4m7!3m6!1s0x3ff0c11c83365cd7:0x8531ff2fb215c5cc!8m2!3d35.1634448!4d47.8061314!16s%2Fg%2F11qp23g5ml!19sChIJ11w2gxzB8D8RzMUVsi__MYU?authuser=0&hl=tr&rclk=1",
    "website_url": "",
    "rating_text": "5,0",
    "stars": null,
    "number_of_reviews": null,
    "price_level": "",
    "open_hours": "",
    "extraction_timestamp": "2025-06-07T13:40:03.283Z",
    "source_name": "google",
    "source_query": "Irrigation Equipment",
    "source_country": "IR",
    "country": "Iran",
    "state": "Kurdistan",
    "city": "Qorveh"
  },
  {
    "source_id": "ChIJRXwVeDvH8D8RYdt64NrccKU",
    "name": "MOSTAFAEI BIG STORE",
    "category": "MOSTAFAEI BIG STORE",
    "formatted_address": "5,0(5)",
    "phone_number": "+988735241892",
    "source_url": "https://www.google.com/maps/place/MOSTAFAEI+BIG+STORE/data=!4m7!3m6!1s0x3ff0c73b78157c45:0xa570dcdae07adb61!8m2!3d35.173404!4d47.7915548!16s%2Fg%2F11btwqjczn!19sChIJRXwVeDvH8D8RYdt64NrccKU?authuser=0&hl=tr&rclk=1",
    "website_url": "",
    "rating_text": "5,0",
    "stars": null,
    "number_of_reviews": null,
    "price_level": "",
    "open_hours": "",
    "extraction_timestamp": "2025-06-07T13:40:03.285Z",
    "source_name": "google",
    "source_query": "Irrigation Equipment",
    "source_country": "IR",
    "country": "Iran",
    "state": "Kurdistan",
    "city": "Qorveh"
  },
  {
    "source_id": "ChIJwc4uKQDB8D8RfD9xqfNN5fQ",
    "name": "کافه هشت بهشت",
    "category": "کافه هشت بهشت",
    "formatted_address": "5,0(1)",
    "phone_number": "+989926528459",
    "source_url": "https://www.google.com/maps/place/%DA%A9%D8%A7%D9%81%D9%87+%D9%87%D8%B4%D8%AA+%D8%A8%D9%87%D8%B4%D8%AA%E2%80%AD/data=!4m7!3m6!1s0x3ff0c100292ecec1:0xf4e54df3a9713f7c!8m2!3d35.1619493!4d47.8174789!16s%2Fg%2F11xcflsj72!19sChIJwc4uKQDB8D8RfD9xqfNN5fQ?authuser=0&hl=tr&rclk=1",
    "website_url": "",
    "rating_text": "5,0",
    "stars": null,
    "number_of_reviews": null,
    "price_level": "",
    "open_hours": "",
    "extraction_timestamp": "2025-06-07T13:40:03.287Z",
    "source_name": "google",
    "source_query": "Irrigation Equipment",
    "source_country": "IR",
    "country": "Iran",
    "state": "Kurdistan",
    "city": "Qorveh"
  }
]
