[
  {
    "source_id": "ChIJ20aFXPU5_j8RZbfAQyPRVzk",
    "name": "بەڕێوەبەرایەتی ئاودێرى گەرمیان",
    "category": "بەڕێوەبەرایەتی ئاودێرى گەرمیان",
    "formatted_address": "5,0(1)",
    "phone_number": "+9647709559011",
    "source_url": "https://www.google.com/maps/place/%D8%A8%DB%95%DA%95%DB%8E%D9%88%DB%95%D8%A8%DB%95%D8%B1%D8%A7%DB%8C%DB%95%D8%AA%DB%8C+%D8%A6%D8%A7%D9%88%D8%AF%DB%8E%D8%B1%D9%89+%DA%AF%DB%95%D8%B1%D9%85%DB%8C%D8%A7%D9%86%E2%80%AD/data=!4m7!3m6!1s0x3ffe39f55c8546db:0x3957d12343c0b765!8m2!3d34.6373218!4d45.292369!16s%2Fg%2F11vbjf41g6!19sChIJ20aFXPU5_j8RZbfAQyPRVzk?authuser=0&hl=tr&rclk=1",
    "website_url": "",
    "rating_text": "5,0",
    "stars": null,
    "number_of_reviews": null,
    "price_level": "",
    "open_hours": "",
    "extraction_timestamp": "2025-06-07T13:40:06.931Z",
    "source_name": "google",
    "source_query": "Irrigation Equipment",
    "source_country": "IR",
    "country": "Iran",
    "state": "Kurdistan",
    "city": "Saheb"
  },
  {
    "source_id": "ChIJ5ZsarodJB0ARpqoHHnxcH00",
    "name": "Serwan Saady company",
    "category": "Serwan Saady company",
    "formatted_address": "5,0(2)",
    "phone_number": "+9647504478054",
    "source_url": "https://www.google.com/maps/place/Serwan+Saady+company/data=!4m7!3m6!1s0x40074987ae1a9be5:0x4d1f5c7c1e07aaa6!8m2!3d36.0373773!4d43.9317342!16s%2Fg%2F11v3fqbl1p!19sChIJ5ZsarodJB0ARpqoHHnxcH00?authuser=0&hl=tr&rclk=1",
    "website_url": "",
    "rating_text": "5,0",
    "stars": null,
    "number_of_reviews": null,
    "price_level": "",
    "open_hours": "",
    "extraction_timestamp": "2025-06-07T13:40:06.934Z",
    "source_name": "google",
    "source_query": "Irrigation Equipment",
    "source_country": "IR",
    "country": "Iran",
    "state": "Kurdistan",
    "city": "Saheb"
  },
  {
    "source_id": "ChIJqcRwPwA__j8RSkgckMBTYBg",
    "name": "هیوا پلاستیک",
    "category": "هیوا پلاستیک",
    "formatted_address": "5,0(2)",
    "phone_number": "+9647708162013",
    "source_url": "https://www.google.com/maps/place/%D9%87%DB%8C%D9%88%D8%A7+%D9%BE%D9%84%D8%A7%D8%B3%D8%AA%DB%8C%DA%A9%E2%80%AD/data=!4m7!3m6!1s0x3ffe3f003f70c4a9:0x186053c0901c484a!8m2!3d34.596848!4d45.2987307!16s%2Fg%2F11yc0bfpx_!19sChIJqcRwPwA__j8RSkgckMBTYBg?authuser=0&hl=tr&rclk=1",
    "website_url": "",
    "rating_text": "5,0",
    "stars": null,
    "number_of_reviews": null,
    "price_level": "",
    "open_hours": "",
    "extraction_timestamp": "2025-06-07T13:40:06.937Z",
    "source_name": "google",
    "source_query": "Irrigation Equipment",
    "source_country": "IR",
    "country": "Iran",
    "state": "Kurdistan",
    "city": "Saheb"
  },
  {
    "source_id": "ChIJMa3SWxJnAkARLX1pNVaK-WM",
    "name": "Sity coffee farhad",
    "category": "Sity coffee farhad",
    "formatted_address": "5,0(1)",
    "phone_number": "+989126405748",
    "source_url": "https://www.google.com/maps/place/Sity+coffee+farhad/data=!4m7!3m6!1s0x400267125bd2ad31:0x63f98a5635697d2d!8m2!3d36.1997175!4d46.4589856!16s%2Fg%2F11txpckb4b!19sChIJMa3SWxJnAkARLX1pNVaK-WM?authuser=0&hl=tr&rclk=1",
    "website_url": "",
    "rating_text": "5,0",
    "stars": null,
    "number_of_reviews": null,
    "price_level": "",
    "open_hours": "",
    "extraction_timestamp": "2025-06-07T13:40:06.939Z",
    "source_name": "google",
    "source_query": "Irrigation Equipment",
    "source_country": "IR",
    "country": "Iran",
    "state": "Kurdistan",
    "city": "Saheb"
  },
  {
    "source_id": "ChIJS7-osl0Bjj8R84DcdIl7k_8",
    "name": "Irrigation and Farming Company Aria Tib",
    "category": "Irrigation and Farming Company Aria Tib",
    "formatted_address": "4,7(7)",
    "phone_number": "+982188845454",
    "source_url": "https://www.google.com/maps/place/Irrigation+and+Farming+Company+Aria+Tib/data=!4m7!3m6!1s0x3f8e015db2a8bf4b:0xff937b8974dc80f3!8m2!3d35.7232298!4d51.4237588!16s%2Fg%2F11f0kvhyt6!19sChIJS7-osl0Bjj8R84DcdIl7k_8?authuser=0&hl=tr&rclk=1",
    "website_url": "",
    "rating_text": "4,7",
    "stars": null,
    "number_of_reviews": null,
    "price_level": "",
    "open_hours": "",
    "extraction_timestamp": "2025-06-07T13:40:06.942Z",
    "source_name": "google",
    "source_query": "Irrigation Equipment",
    "source_country": "IR",
    "country": "Iran",
    "state": "Kurdistan",
    "city": "Saheb"
  },
  {
    "source_id": "ChIJ0x-97e1nAkARocrKpGExVnY",
    "name": "وین مارکت صاحب",
    "category": "وین مارکت صاحب",
    "formatted_address": "İndirim Supermarketi · Divandareh - Saqqez Road, 6F25+8R9",
    "phone_number": "",
    "source_url": "https://www.google.com/maps/place/%D9%88%DB%8C%D9%86+%D9%85%D8%A7%D8%B1%DA%A9%D8%AA+%D8%B5%D8%A7%D8%AD%D8%A8%E2%80%AD/data=!4m7!3m6!1s0x400267ededbd1fd3:0x76563161a4cacaa1!8m2!3d36.2007753!4d46.4596198!16s%2Fg%2F11k7ry2321!19sChIJ0x-97e1nAkARocrKpGExVnY?authuser=0&hl=tr&rclk=1",
    "website_url": "",
    "rating_text": "",
    "stars": null,
    "number_of_reviews": null,
    "price_level": "",
    "open_hours": "",
    "extraction_timestamp": "2025-06-07T13:40:06.945Z",
    "source_name": "google",
    "source_query": "Irrigation Equipment",
    "source_country": "IR",
    "country": "Iran",
    "state": "Kurdistan",
    "city": "Saheb"
  },
  {
    "source_id": "ChIJTZcRj3_zBEAR8XzogL7QSrA",
    "name": "تجهیزات آبیاری سید صلاح",
    "category": "تجهیزات آبیاری سید صلاح",
    "formatted_address": "5,0(1)",
    "phone_number": "+989144488768",
    "source_url": "https://www.google.com/maps/place/%D8%AA%D8%AC%D9%87%DB%8C%D8%B2%D8%A7%D8%AA+%D8%A2%D8%A8%DB%8C%D8%A7%D8%B1%DB%8C+%D8%B3%DB%8C%D8%AF+%D8%B5%D9%84%D8%A7%D8%AD%E2%80%AD/data=!4m7!3m6!1s0x4004f37f8f11974d:0xb04ad0be80e87cf1!8m2!3d36.9526169!4d45.3800755!16s%2Fg%2F11t6nn7z94!19sChIJTZcRj3_zBEAR8XzogL7QSrA?authuser=0&hl=tr&rclk=1",
    "website_url": "",
    "rating_text": "5,0",
    "stars": null,
    "number_of_reviews": null,
    "price_level": "",
    "open_hours": "",
    "extraction_timestamp": "2025-06-07T13:40:06.947Z",
    "source_name": "google",
    "source_query": "Irrigation Equipment",
    "source_country": "IR",
    "country": "Iran",
    "state": "Kurdistan",
    "city": "Saheb"
  },
  {
    "source_id": "ChIJ_fLPRAABjj8RSeosiGuijm8",
    "name": "هانترسل",
    "category": "هانترسل",
    "formatted_address": "5,0(2)",
    "phone_number": "+982155808909",
    "source_url": "https://www.google.com/maps/place/%D9%87%D8%A7%D9%86%D8%AA%D8%B1%D8%B3%D9%84%E2%80%AD/data=!4m7!3m6!1s0x3f8e010044cff2fd:0x6f8ea26b882cea49!8m2!3d35.6811685!4d51.4107418!16s%2Fg%2F11vwx4_tj0!19sChIJ_fLPRAABjj8RSeosiGuijm8?authuser=0&hl=tr&rclk=1",
    "website_url": "",
    "rating_text": "5,0",
    "stars": null,
    "number_of_reviews": null,
    "price_level": "",
    "open_hours": "",
    "extraction_timestamp": "2025-06-07T13:40:06.948Z",
    "source_name": "google",
    "source_query": "Irrigation Equipment",
    "source_country": "IR",
    "country": "Iran",
    "state": "Kurdistan",
    "city": "Saheb"
  },
  {
    "source_id": "ChIJId-lhNJnAkARk96MtM5K4dU",
    "name": "سوپرمارکت تک",
    "category": "سوپرمارکت تک",
    "formatted_address": "",
    "phone_number": "+989188841504",
    "source_url": "https://www.google.com/maps/place/%D8%B3%D9%88%D9%BE%D8%B1%D9%85%D8%A7%D8%B1%DA%A9%D8%AA+%D8%AA%DA%A9%E2%80%AD/data=!4m7!3m6!1s0x400267d284a5df21:0xd5e14aceb48cde93!8m2!3d36.2002973!4d46.4592465!16s%2Fg%2F11m9n7bqk0!19sChIJId-lhNJnAkARk96MtM5K4dU?authuser=0&hl=tr&rclk=1",
    "website_url": "",
    "rating_text": "",
    "stars": null,
    "number_of_reviews": null,
    "price_level": "",
    "open_hours": "",
    "extraction_timestamp": "2025-06-07T13:40:06.950Z",
    "source_name": "google",
    "source_query": "Irrigation Equipment",
    "source_country": "IR",
    "country": "Iran",
    "state": "Kurdistan",
    "city": "Saheb"
  },
  {
    "source_id": "ChIJj9RDG_SZjT8RDjffnfnE7O4",
    "name": "شرکت آرسیس قطران",
    "category": "شرکت آرسیس قطران",
    "formatted_address": "5,0(8)",
    "phone_number": "+989120953243",
    "source_url": "https://www.google.com/maps/place/%D8%B4%D8%B1%DA%A9%D8%AA+%D8%A2%D8%B1%D8%B3%DB%8C%D8%B3+%D9%82%D8%B7%D8%B1%D8%A7%D9%86%E2%80%AD/data=!4m7!3m6!1s0x3f8d99f41b43d48f:0xeeecc4f99ddf370e!8m2!3d35.6874063!4d50.8287973!16s%2Fg%2F11spqwtkx2!19sChIJj9RDG_SZjT8RDjffnfnE7O4?authuser=0&hl=tr&rclk=1",
    "website_url": "",
    "rating_text": "5,0",
    "stars": null,
    "number_of_reviews": null,
    "price_level": "",
    "open_hours": "",
    "extraction_timestamp": "2025-06-07T13:40:06.951Z",
    "source_name": "google",
    "source_query": "Irrigation Equipment",
    "source_country": "IR",
    "country": "Iran",
    "state": "Kurdistan",
    "city": "Saheb"
  },
  {
    "source_id": "ChIJU-KvKAAtAEARCDFh0SgATfM",
    "name": "Awezan Company",
    "category": "Awezan Company",
    "formatted_address": "5,0(1)",
    "phone_number": "+9647701045656",
    "source_url": "https://www.google.com/maps/place/Awezan+Company/data=!4m7!3m6!1s0x40002d0028afe253:0xf34d0028d1613108!8m2!3d35.5815895!4d45.4186514!16s%2Fg%2F11v0tkdg3k!19sChIJU-KvKAAtAEARCDFh0SgATfM?authuser=0&hl=tr&rclk=1",
    "website_url": "http://www.awezanco.com/",
    "rating_text": "5,0",
    "stars": null,
    "number_of_reviews": null,
    "price_level": "",
    "open_hours": "",
    "extraction_timestamp": "2025-06-07T13:40:06.953Z",
    "source_name": "google",
    "source_query": "Irrigation Equipment",
    "source_country": "IR",
    "country": "Iran",
    "state": "Kurdistan",
    "city": "Saheb"
  },
  {
    "source_id": "ChIJCSluMXYFA0ARwBafcfBNgI8",
    "name": "Poultry and greenhouse equipment",
    "category": "Poultry and greenhouse equipment",
    "formatted_address": "",
    "phone_number": "+989104101272",
    "source_url": "https://www.google.com/maps/place/Poultry+and+greenhouse+equipment/data=!4m7!3m6!1s0x40030576316e2909:0x8f804df0719f16c0!8m2!3d36.5295998!4d46.2073717!16s%2Fg%2F11rvfx8blp!19sChIJCSluMXYFA0ARwBafcfBNgI8?authuser=0&hl=tr&rclk=1",
    "website_url": "",
    "rating_text": "",
    "stars": null,
    "number_of_reviews": null,
    "price_level": "",
    "open_hours": "",
    "extraction_timestamp": "2025-06-07T13:40:06.955Z",
    "source_name": "google",
    "source_query": "Irrigation Equipment",
    "source_country": "IR",
    "country": "Iran",
    "state": "Kurdistan",
    "city": "Saheb"
  },
  {
    "source_id": "ChIJ_SOko4wFGkARvrTug8x8oNU",
    "name": "شرکت شایسته سهند،طراح و مجری سیستم های نوین آبیاری",
    "category": "شرکت شایسته سهند،طراح و مجری سیستم های نوین آبیاری",
    "formatted_address": "",
    "phone_number": "+989144129071",
    "source_url": "https://www.google.com/maps/place/%D8%B4%D8%B1%DA%A9%D8%AA+%D8%B4%D8%A7%DB%8C%D8%B3%D8%AA%D9%87+%D8%B3%D9%87%D9%86%D8%AF%D8%8C%D8%B7%D8%B1%D8%A7%D8%AD+%D9%88+%D9%85%D8%AC%D8%B1%DB%8C+%D8%B3%DB%8C%D8%B3%D8%AA%D9%85+%D9%87%D8%A7%DB%8C+%D9%86%D9%88%DB%8C%D9%86+%D8%A2%D8%A8%DB%8C%D8%A7%D8%B1%DB%8C%E2%80%AD/data=!4m7!3m6!1s0x401a058ca3a423fd:0xd5a07ccc83eeb4be!8m2!3d38.0652271!4d46.2582001!16s%2Fg%2F11g0wgswxs!19sChIJ_SOko4wFGkARvrTug8x8oNU?authuser=0&hl=tr&rclk=1",
    "website_url": "",
    "rating_text": "",
    "stars": null,
    "number_of_reviews": null,
    "price_level": "",
    "open_hours": "",
    "extraction_timestamp": "2025-06-07T13:40:06.956Z",
    "source_name": "google",
    "source_query": "Irrigation Equipment",
    "source_country": "IR",
    "country": "Iran",
    "state": "Kurdistan",
    "city": "Saheb"
  },
  {
    "source_id": "ChIJv6jv6vAZkj8RQqunRNeLkPQ",
    "name": "شرکت تکنوژاله",
    "category": "شرکت تکنوژاله",
    "formatted_address": "4,5(2)",
    "phone_number": "+989125801150",
    "source_url": "https://www.google.com/maps/place/%D8%B4%D8%B1%DA%A9%D8%AA+%D8%AA%DA%A9%D9%86%D9%88%DA%98%D8%A7%D9%84%D9%87%E2%80%AD/data=!4m7!3m6!1s0x3f9219f0eaefa8bf:0xf4908bd744a7ab42!8m2!3d35.3734371!4d51.2511171!16s%2Fg%2F11jgsfs1g6!19sChIJv6jv6vAZkj8RQqunRNeLkPQ?authuser=0&hl=tr&rclk=1",
    "website_url": "http://technojaleh.com/",
    "rating_text": "4,5",
    "stars": null,
    "number_of_reviews": null,
    "price_level": "",
    "open_hours": "",
    "extraction_timestamp": "2025-06-07T13:40:06.958Z",
    "source_name": "google",
    "source_query": "Irrigation Equipment",
    "source_country": "IR",
    "country": "Iran",
    "state": "Kurdistan",
    "city": "Saheb"
  },
  {
    "source_id": "ChIJE7eK8rA8B0ARBNNi-vqlg8o",
    "name": "Clear Trading Co. ٲمیر زیدو للتجارة",
    "category": "Clear Trading Co. ٲمیر زیدو للتجارة",
    "formatted_address": "5,0(3)",
    "phone_number": "+9647501491504",
    "source_url": "https://www.google.com/maps/place/Clear+Trading+Co.+%D9%B2%D9%85%DB%8C%D8%B1+%D8%B2%DB%8C%D8%AF%D9%88+%D9%84%D9%84%D8%AA%D8%AC%D8%A7%D8%B1%D8%A9%E2%80%AD/data=!4m7!3m6!1s0x40073cb0f28ab713:0xca83a5fafa62d304!8m2!3d36.1536238!4d43.9894667!16s%2Fg%2F11g0204pf0!19sChIJE7eK8rA8B0ARBNNi-vqlg8o?authuser=0&hl=tr&rclk=1",
    "website_url": "",
    "rating_text": "5,0",
    "stars": null,
    "number_of_reviews": null,
    "price_level": "",
    "open_hours": "",
    "extraction_timestamp": "2025-06-07T13:40:06.967Z",
    "source_name": "google",
    "source_query": "Irrigation Equipment",
    "source_country": "IR",
    "country": "Iran",
    "state": "Kurdistan",
    "city": "Saheb"
  },
  {
    "source_id": "ChIJ2YWx7T5nAkARspxpBy9IlOo",
    "name": "نیکا مارکت",
    "category": "نیکا مارکت",
    "formatted_address": "",
    "phone_number": "+989189244630",
    "source_url": "https://www.google.com/maps/place/%D9%86%DB%8C%DA%A9%D8%A7+%D9%85%D8%A7%D8%B1%DA%A9%D8%AA%E2%80%AD/data=!4m7!3m6!1s0x4002673eedb185d9:0xea94482f07699cb2!8m2!3d36.1997564!4d46.4564513!16s%2Fg%2F11vlvp66gw!19sChIJ2YWx7T5nAkARspxpBy9IlOo?authuser=0&hl=tr&rclk=1",
    "website_url": "",
    "rating_text": "",
    "stars": null,
    "number_of_reviews": null,
    "price_level": "",
    "open_hours": "",
    "extraction_timestamp": "2025-06-07T13:40:06.968Z",
    "source_name": "google",
    "source_query": "Irrigation Equipment",
    "source_country": "IR",
    "country": "Iran",
    "state": "Kurdistan",
    "city": "Saheb"
  },
  {
    "source_id": "ChIJoTsSQQsBjj8Re4yPgbYBMnk",
    "name": "Movahedin",
    "category": "Movahedin",
    "formatted_address": "Sulama Ekipmanları Tedarikçisi · Shahriar, PC25+5GXKapalı ⋅ Açılış zamanı: Paz 08:00 · +98 21 6670 5096",
    "phone_number": "+982166705096",
    "source_url": "https://www.google.com/maps/place/Movahedin/data=!4m7!3m6!1s0x3f8e010b41123ba1:0x793201b6818f8c7b!8m2!3d35.7004879!4d51.4088729!16s%2Fg%2F1tjrng36!19sChIJoTsSQQsBjj8Re4yPgbYBMnk?authuser=0&hl=tr&rclk=1",
    "website_url": "http://www.movahedin.com/",
    "rating_text": "",
    "stars": null,
    "number_of_reviews": null,
    "price_level": "",
    "open_hours": "",
    "extraction_timestamp": "2025-06-07T13:40:06.970Z",
    "source_name": "google",
    "source_query": "Irrigation Equipment",
    "source_country": "IR",
    "country": "Iran",
    "state": "Kurdistan",
    "city": "Saheb"
  },
  {
    "source_id": "ChIJNS8FGphTBUARkgj0RJ_JewY",
    "name": "شرکت تجارت سبز سولدوز",
    "category": "شرکت تجارت سبز سولدوز",
    "formatted_address": "Sulama Ekipmanları Tedarikçisi · Hasani St, G2VQ+JV8Kapanmak üzere ⋅ 18:00 ⋅ Açılış zamanı: Paz 08:00 · +98 44 3322 4777",
    "phone_number": "+984433224777",
    "source_url": "https://www.google.com/maps/place/%D8%B4%D8%B1%DA%A9%D8%AA+%D8%AA%D8%AC%D8%A7%D8%B1%D8%AA+%D8%B3%D8%A8%D8%B2+%D8%B3%D9%88%D9%84%D8%AF%D9%88%D8%B2%E2%80%AD/data=!4m7!3m6!1s0x400553981a052f35:0x67bc99f44f40892!8m2!3d37.5440486!4d45.0396968!16s%2Fg%2F11d_d0k8xk!19sChIJNS8FGphTBUARkgj0RJ_JewY?authuser=0&hl=tr&rclk=1",
    "website_url": "",
    "rating_text": "",
    "stars": null,
    "number_of_reviews": null,
    "price_level": "",
    "open_hours": "",
    "extraction_timestamp": "2025-06-07T13:40:06.971Z",
    "source_name": "google",
    "source_query": "Irrigation Equipment",
    "source_country": "IR",
    "country": "Iran",
    "state": "Kurdistan",
    "city": "Saheb"
  },
  {
    "source_id": "ChIJt5Zy5C5bAkARIj-V7azBwKU",
    "name": "بازرگانی تیموری مواد غذایی",
    "category": "بازرگانی تیموری مواد غذایی",
    "formatted_address": "5,0(1)",
    "phone_number": "+988736227376",
    "source_url": "https://www.google.com/maps/place/%D8%A8%D8%A7%D8%B2%D8%B1%DA%AF%D8%A7%D9%86%DB%8C+%D8%AA%DB%8C%D9%85%D9%88%D8%B1%DB%8C+%D9%85%D9%88%D8%A7%D8%AF+%D8%BA%D8%B0%D8%A7%DB%8C%DB%8C%E2%80%AD/data=!4m7!3m6!1s0x40025b2ee47296b7:0xa5c0c1aced953f22!8m2!3d36.2391996!4d46.2721003!16s%2Fg%2F11bzq0r5d1!19sChIJt5Zy5C5bAkARIj-V7azBwKU?authuser=0&hl=tr&rclk=1",
    "website_url": "",
    "rating_text": "5,0",
    "stars": null,
    "number_of_reviews": null,
    "price_level": "",
    "open_hours": "",
    "extraction_timestamp": "2025-06-07T13:40:06.973Z",
    "source_name": "google",
    "source_query": "Irrigation Equipment",
    "source_country": "IR",
    "country": "Iran",
    "state": "Kurdistan",
    "city": "Saheb"
  },
  {
    "source_id": "ChIJVdziXwBbAkAR7ju6rXXNpso",
    "name": "مرکز خرید حاجی آباد سعید جهانی",
    "category": "مرکز خرید حاجی آباد سعید جهانی",
    "formatted_address": "5,0(1)",
    "phone_number": "",
    "source_url": "https://www.google.com/maps/place/%D9%85%D8%B1%DA%A9%D8%B2+%D8%AE%D8%B1%DB%8C%D8%AF+%D8%AD%D8%A7%D8%AC%DB%8C+%D8%A2%D8%A8%D8%A7%D8%AF+%D8%B3%D8%B9%DB%8C%D8%AF+%D8%AC%D9%87%D8%A7%D9%86%DB%8C%E2%80%AD/data=!4m7!3m6!1s0x40025b005fe2dc55:0xcaa6cd75adba3bee!8m2!3d36.2559648!4d46.2792885!16s%2Fg%2F11y37ns2tl!19sChIJVdziXwBbAkAR7ju6rXXNpso?authuser=0&hl=tr&rclk=1",
    "website_url": "",
    "rating_text": "5,0",
    "stars": null,
    "number_of_reviews": null,
    "price_level": "",
    "open_hours": "",
    "extraction_timestamp": "2025-06-07T13:40:06.973Z",
    "source_name": "google",
    "source_query": "Irrigation Equipment",
    "source_country": "IR",
    "country": "Iran",
    "state": "Kurdistan",
    "city": "Saheb"
  },
  {
    "source_id": "ChIJE03yCs9EAkARtxcwtlNCURI",
    "name": "سوپرماركت اكرامي",
    "category": "سوپرماركت اكرامي",
    "formatted_address": "5,0(1)",
    "phone_number": "+989187746318",
    "source_url": "https://www.google.com/maps/place/%D8%B3%D9%88%D9%BE%D8%B1%D9%85%D8%A7%D8%B1%D9%83%D8%AA+%D8%A7%D9%83%D8%B1%D8%A7%D9%85%D9%8A%E2%80%AD/data=!4m7!3m6!1s0x400244cf0af24d13:0x12514253b63017b7!8m2!3d36.2295227!4d46.2624075!16s%2Fg%2F11c7076l5w!19sChIJE03yCs9EAkARtxcwtlNCURI?authuser=0&hl=tr&rclk=1",
    "website_url": "",
    "rating_text": "5,0",
    "stars": null,
    "number_of_reviews": null,
    "price_level": "",
    "open_hours": "",
    "extraction_timestamp": "2025-06-07T13:40:06.981Z",
    "source_name": "google",
    "source_query": "Irrigation Equipment",
    "source_country": "IR",
    "country": "Iran",
    "state": "Kurdistan",
    "city": "Saheb"
  },
  {
    "source_id": "ChIJSUy8YbdbAkARFYvMM61WBoU",
    "name": "سورنا",
    "category": "سورنا",
    "formatted_address": "5,0(1)",
    "phone_number": "",
    "source_url": "https://www.google.com/maps/place/%D8%B3%D9%88%D8%B1%D9%86%D8%A7%E2%80%AD/data=!4m7!3m6!1s0x40025bb761bc4c49:0x850656ad33cc8b15!8m2!3d36.2556003!4d46.2844486!16s%2Fg%2F11trpbn7rd!19sChIJSUy8YbdbAkARFYvMM61WBoU?authuser=0&hl=tr&rclk=1",
    "website_url": "",
    "rating_text": "5,0",
    "stars": null,
    "number_of_reviews": null,
    "price_level": "",
    "open_hours": "",
    "extraction_timestamp": "2025-06-07T13:40:06.984Z",
    "source_name": "google",
    "source_query": "Irrigation Equipment",
    "source_country": "IR",
    "country": "Iran",
    "state": "Kurdistan",
    "city": "Saheb"
  },
  {
    "source_id": "ChIJr1ul4gZbAkARhXVyq4dR-bc",
    "name": "مجتمع فرهنگی تجاری کرد مال",
    "category": "مجتمع فرهنگی تجاری کرد مال",
    "formatted_address": "4,5(14)",
    "phone_number": "",
    "source_url": "https://www.google.com/maps/place/%D9%85%D8%AC%D8%AA%D9%85%D8%B9+%D9%81%D8%B1%D9%87%D9%86%DA%AF%DB%8C+%D8%AA%D8%AC%D8%A7%D8%B1%DB%8C+%DA%A9%D8%B1%D8%AF+%D9%85%D8%A7%D9%84%E2%80%AD/data=!4m7!3m6!1s0x40025b06e2a55baf:0xb7f95187ab727585!8m2!3d36.2368398!4d46.2755339!16s%2Fg%2F11rckz133f!19sChIJr1ul4gZbAkARhXVyq4dR-bc?authuser=0&hl=tr&rclk=1",
    "website_url": "",
    "rating_text": "4,5",
    "stars": null,
    "number_of_reviews": null,
    "price_level": "",
    "open_hours": "",
    "extraction_timestamp": "2025-06-07T13:40:06.989Z",
    "source_name": "google",
    "source_query": "Irrigation Equipment",
    "source_country": "IR",
    "country": "Iran",
    "state": "Kurdistan",
    "city": "Saheb"
  },
  {
    "source_id": "ChIJb2dnxt5bAkARbXCq9U9FPK0",
    "name": "آکواریوم مهران",
    "category": "آکواریوم مهران",
    "formatted_address": "5,0(1)",
    "phone_number": "+989211965083",
    "source_url": "https://www.google.com/maps/place/%D8%A2%DA%A9%D9%88%D8%A7%D8%B1%DB%8C%D9%88%D9%85+%D9%85%D9%87%D8%B1%D8%A7%D9%86%E2%80%AD/data=!4m7!3m6!1s0x40025bdec667676f:0xad3c454ff5aa706d!8m2!3d36.23771!4d46.268238!16s%2Fg%2F11frs7sy6n!19sChIJb2dnxt5bAkARbXCq9U9FPK0?authuser=0&hl=tr&rclk=1",
    "website_url": "",
    "rating_text": "5,0",
    "stars": null,
    "number_of_reviews": null,
    "price_level": "",
    "open_hours": "",
    "extraction_timestamp": "2025-06-07T13:40:07.001Z",
    "source_name": "google",
    "source_query": "Irrigation Equipment",
    "source_country": "IR",
    "country": "Iran",
    "state": "Kurdistan",
    "city": "Saheb"
  },
  {
    "source_id": "ChIJCSLJx8xbAkAR1Y-8pPrebys",
    "name": "Yek & Yek supermarket",
    "category": "Yek & Yek supermarket",
    "formatted_address": "4,5(2)",
    "phone_number": "+988736248837",
    "source_url": "https://www.google.com/maps/place/Yek+%26+Yek+supermarket/data=!4m7!3m6!1s0x40025bccc7c92209:0x2b6fdefaa4bc8fd5!8m2!3d36.2287!4d46.2819826!16s%2Fg%2F11gy3gy32r!19sChIJCSLJx8xbAkAR1Y-8pPrebys?authuser=0&hl=tr&rclk=1",
    "website_url": "",
    "rating_text": "4,5",
    "stars": null,
    "number_of_reviews": null,
    "price_level": "",
    "open_hours": "",
    "extraction_timestamp": "2025-06-07T13:40:07.002Z",
    "source_name": "google",
    "source_query": "Irrigation Equipment",
    "source_country": "IR",
    "country": "Iran",
    "state": "Kurdistan",
    "city": "Saheb"
  },
  {
    "source_id": "ChIJJ7IxLiFbAkARsQx1ww1xB2k",
    "name": "ARKAN Supermarket",
    "category": "ARKAN Supermarket",
    "formatted_address": "5,0(4)",
    "phone_number": "+988736225165",
    "source_url": "https://www.google.com/maps/place/ARKAN+Supermarket/data=!4m7!3m6!1s0x40025b212e31b227:0x6907710dc3750cb1!8m2!3d36.2445863!4d46.2767245!16s%2Fg%2F11f1jwy5km!19sChIJJ7IxLiFbAkARsQx1ww1xB2k?authuser=0&hl=tr&rclk=1",
    "website_url": "",
    "rating_text": "5,0",
    "stars": null,
    "number_of_reviews": null,
    "price_level": "",
    "open_hours": "",
    "extraction_timestamp": "2025-06-07T13:40:07.003Z",
    "source_name": "google",
    "source_query": "Irrigation Equipment",
    "source_country": "IR",
    "country": "Iran",
    "state": "Kurdistan",
    "city": "Saheb"
  },
  {
    "source_id": "ChIJKV-pfW0jB0ARNZrDRZ2P8qY",
    "name": "S.Q.K Company for general trading, Electricial & Chemical Materials",
    "category": "S.Q.K Company for general trading, Electricial & Chemical Materials",
    "formatted_address": "S.Q.K Company for general trading, Electricial & Chemical Materials",
    "phone_number": "+9647504489949",
    "source_url": "https://www.google.com/maps/place/S.Q.K+Company+for+general+trading,+Electricial+%26+Chemical+Materials/data=!4m7!3m6!1s0x4007236d7da95f29:0xa6f28f9d45c39a35!8m2!3d36.1652943!4d44.0299667!16s%2Fg%2F11qbkr7d90!19sChIJKV-pfW0jB0ARNZrDRZ2P8qY?authuser=0&hl=tr&rclk=1",
    "website_url": "",
    "rating_text": "3,0",
    "stars": null,
    "number_of_reviews": null,
    "price_level": "",
    "open_hours": "",
    "extraction_timestamp": "2025-06-07T13:40:07.016Z",
    "source_name": "google",
    "source_query": "Irrigation Equipment",
    "source_country": "IR",
    "country": "Iran",
    "state": "Kurdistan",
    "city": "Saheb"
  },
  {
    "source_id": "ChIJfyZbxORaAkAR0xSN6GhKg8k",
    "name": "Sedaghat Grocery Store",
    "category": "Sedaghat Grocery Store",
    "formatted_address": "5,0(1)",
    "phone_number": "+989016719593",
    "source_url": "https://www.google.com/maps/place/Sedaghat+Grocery+Store/data=!4m7!3m6!1s0x40025ae4c45b267f:0xc9834a68e88d14d3!8m2!3d36.2552622!4d46.2808627!16s%2Fg%2F11df0rkjnt!19sChIJfyZbxORaAkAR0xSN6GhKg8k?authuser=0&hl=tr&rclk=1",
    "website_url": "",
    "rating_text": "5,0",
    "stars": null,
    "number_of_reviews": null,
    "price_level": "",
    "open_hours": "",
    "extraction_timestamp": "2025-06-07T13:40:07.032Z",
    "source_name": "google",
    "source_query": "Irrigation Equipment",
    "source_country": "IR",
    "country": "Iran",
    "state": "Kurdistan",
    "city": "Saheb"
  },
  {
    "source_id": "ChIJOyXiHr5bAkARPwqGnHP9M0k",
    "name": "فروشگاه زانکو دره زیارت",
    "category": "فروشگاه زانکو دره زیارت",
    "formatted_address": "4,8(12)",
    "phone_number": "",
    "source_url": "https://www.google.com/maps/place/%D9%81%D8%B1%D9%88%D8%B4%DA%AF%D8%A7%D9%87+%D8%B2%D8%A7%D9%86%DA%A9%D9%88+%D8%AF%D8%B1%D9%87+%D8%B2%DB%8C%D8%A7%D8%B1%D8%AA%E2%80%AD/data=!4m7!3m6!1s0x40025bbe1ee2253b:0x4933fd739c860a3f!8m2!3d36.2377606!4d46.3007235!16s%2Fg%2F11t_rlyhh3!19sChIJOyXiHr5bAkARPwqGnHP9M0k?authuser=0&hl=tr&rclk=1",
    "website_url": "",
    "rating_text": "4,8",
    "stars": null,
    "number_of_reviews": null,
    "price_level": "",
    "open_hours": "",
    "extraction_timestamp": "2025-06-07T13:40:07.033Z",
    "source_name": "google",
    "source_query": "Irrigation Equipment",
    "source_country": "IR",
    "country": "Iran",
    "state": "Kurdistan",
    "city": "Saheb"
  },
  {
    "source_id": "ChIJoVZTHw5bAkAROcfHiHm5mHo",
    "name": "فروشگاه تک شعبه ۲",
    "category": "فروشگاه تک شعبه ۲",
    "formatted_address": "4,0(1)",
    "phone_number": "+989183743973",
    "source_url": "https://www.google.com/maps/place/%D9%81%D8%B1%D9%88%D8%B4%DA%AF%D8%A7%D9%87+%D8%AA%DA%A9+%D8%B4%D8%B9%D8%A8%D9%87+%DB%B2%E2%80%AD/data=!4m7!3m6!1s0x40025b0e1f5356a1:0x7a98b97988c7c739!8m2!3d36.2283708!4d46.2824607!16s%2Fg%2F11v19s8_m4!19sChIJoVZTHw5bAkAROcfHiHm5mHo?authuser=0&hl=tr&rclk=1",
    "website_url": "",
    "rating_text": "4,0",
    "stars": null,
    "number_of_reviews": null,
    "price_level": "",
    "open_hours": "",
    "extraction_timestamp": "2025-06-07T13:40:07.035Z",
    "source_name": "google",
    "source_query": "Irrigation Equipment",
    "source_country": "IR",
    "country": "Iran",
    "state": "Kurdistan",
    "city": "Saheb"
  },
  {
    "source_id": "ChIJWRz6IgSX-T8Rtgylr_yW3Zc",
    "name": "کنترل گستر کهربا | سیموتو | تولید کننده تجهیزات شهربازی و شبیه ساز واقعیت مجازی",
    "category": "کنترل گستر کهربا | سیموتو | تولید کننده تجهیزات شهربازی و شبیه ساز واقعیت مجازی",
    "formatted_address": "",
    "phone_number": "+989120798870",
    "source_url": "https://www.google.com/maps/place/%DA%A9%D9%86%D8%AA%D8%B1%D9%84+%DA%AF%D8%B3%D8%AA%D8%B1+%DA%A9%D9%87%D8%B1%D8%A8%D8%A7+%7C+%D8%B3%DB%8C%D9%85%D9%88%D8%AA%D9%88+%7C+%D8%AA%D9%88%D9%84%DB%8C%D8%AF+%DA%A9%D9%86%D9%86%D8%AF%D9%87+%D8%AA%D8%AC%D9%87%DB%8C%D8%B2%D8%A7%D8%AA+%D8%B4%D9%87%D8%B1%D8%A8%D8%A7%D8%B2%DB%8C+%D9%88+%D8%B4%D8%A8%DB%8C%D9%87+%D8%B3%D8%A7%D8%B2+%D9%88%D8%A7%D9%82%D8%B9%DB%8C%D8%AA+%D9%85%D8%AC%D8%A7%D8%B2%DB%8C%E2%80%AD/data=!4m7!3m6!1s0x3ff9970422fa1c59:0x97dd96fcafa50cb6!8m2!3d35.3047137!4d47.0435804!16s%2Fg%2F11td33_w3k!19sChIJWRz6IgSX-T8Rtgylr_yW3Zc?authuser=0&hl=tr&rclk=1",
    "website_url": "https://simotovr.com/",
    "rating_text": "",
    "stars": null,
    "number_of_reviews": null,
    "price_level": "",
    "open_hours": "",
    "extraction_timestamp": "2025-06-07T13:40:07.036Z",
    "source_name": "google",
    "source_query": "Irrigation Equipment",
    "source_country": "IR",
    "country": "Iran",
    "state": "Kurdistan",
    "city": "Saheb"
  },
  {
    "source_id": "ChIJyWKuPdFbAkARJr4PvGicJMU",
    "name": "Koohnamad",
    "category": "Koohnamad",
    "formatted_address": "Kamp Malzemeleri Mağazası · Azadi Ave, 67QF+C6HKapalı ⋅ Açılış zamanı: Paz 09:00 · +98 87 3629 8263",
    "phone_number": "+988736298263",
    "source_url": "https://www.google.com/maps/place/Koohnamad/data=!4m7!3m6!1s0x40025bd13dae62c9:0xc5249c68bc0fbe26!8m2!3d36.2385552!4d46.2730955!16s%2Fg%2F11fsp2b4jt!19sChIJyWKuPdFbAkARJr4PvGicJMU?authuser=0&hl=tr&rclk=1",
    "website_url": "",
    "rating_text": "",
    "stars": null,
    "number_of_reviews": null,
    "price_level": "",
    "open_hours": "",
    "extraction_timestamp": "2025-06-07T13:40:07.038Z",
    "source_name": "google",
    "source_query": "Irrigation Equipment",
    "source_country": "IR",
    "country": "Iran",
    "state": "Kurdistan",
    "city": "Saheb"
  },
  {
    "source_id": "ChIJ87kbQtxbAkARfRuU3nqrYIA",
    "name": "رایان مارکت( شعبه ۱)",
    "category": "رایان مارکت( شعبه ۱)",
    "formatted_address": "5,0(1)",
    "phone_number": "+989308088002",
    "source_url": "https://www.google.com/maps/place/%D8%B1%D8%A7%DB%8C%D8%A7%D9%86+%D9%85%D8%A7%D8%B1%DA%A9%D8%AA%28+%D8%B4%D8%B9%D8%A8%D9%87+%DB%B1%29%E2%80%AD/data=!4m7!3m6!1s0x40025bdc421bb9f3:0x8060ab7ade941b7d!8m2!3d36.2408545!4d46.2706586!16s%2Fg%2F11l6t15__f!19sChIJ87kbQtxbAkARfRuU3nqrYIA?authuser=0&hl=tr&rclk=1",
    "website_url": "",
    "rating_text": "5,0",
    "stars": null,
    "number_of_reviews": null,
    "price_level": "",
    "open_hours": "",
    "extraction_timestamp": "2025-06-07T13:40:07.039Z",
    "source_name": "google",
    "source_query": "Irrigation Equipment",
    "source_country": "IR",
    "country": "Iran",
    "state": "Kurdistan",
    "city": "Saheb"
  }
]
