[
  {
    "source_id": "ChIJARB5xkK9-T8RA4CwOW7mM3s",
    "name": "Recreation and irrigation pipes and fittings",
    "category": "Recreation and irrigation pipes and fittings",
    "formatted_address": "3,5(2)",
    "phone_number": "+988733163851",
    "source_url": "https://www.google.com/maps/place/Recreation+and+irrigation+pipes+and+fittings/data=!4m7!3m6!1s0x3ff9bd42c6791001:0x7b33e66e39b08003!8m2!3d35.3293874!4d47.0069642!16s%2Fg%2F11fxf1zt6h!19sChIJARB5xkK9-T8RA4CwOW7mM3s?authuser=0&hl=tr&rclk=1",
    "website_url": "",
    "rating_text": "3,5",
    "stars": null,
    "number_of_reviews": null,
    "price_level": "",
    "open_hours": "",
    "extraction_timestamp": "2025-06-07T13:41:02.076Z",
    "source_name": "google",
    "source_query": "Irrigation Equipment",
    "source_country": "IR",
    "country": "Iran",
    "state": "Kurdistan",
    "city": "Sanandaj"
  },
  {
    "source_id": "ChIJryGV3Ke9-T8RSwAxpKL9-d4",
    "name": "Water Treatment Sanandaj",
    "category": "Water Treatment Sanandaj",
    "formatted_address": "5,0(1)",
    "phone_number": "+988733180252",
    "source_url": "https://www.google.com/maps/place/Water+Treatment+Sanandaj/data=!4m7!3m6!1s0x3ff9bda7dc9521af:0xdef9fda2a431004b!8m2!3d35.3582412!4d47.020839!16s%2Fg%2F11dzvv5xb6!19sChIJryGV3Ke9-T8RSwAxpKL9-d4?authuser=0&hl=tr&rclk=1",
    "website_url": "",
    "rating_text": "5,0",
    "stars": null,
    "number_of_reviews": null,
    "price_level": "",
    "open_hours": "",
    "extraction_timestamp": "2025-06-07T13:41:02.077Z",
    "source_name": "google",
    "source_query": "Irrigation Equipment",
    "source_country": "IR",
    "country": "Iran",
    "state": "Kurdistan",
    "city": "Sanandaj"
  },
  {
    "source_id": "ChIJjfb7CA-X-T8RdtR6oTsD-sI",
    "name": "شرکت آب منطقه ای کردستان",
    "category": "شرکت آب منطقه ای کردستان",
    "formatted_address": "3,3(3)",
    "phone_number": "+988733622950",
    "source_url": "https://www.google.com/maps/place/%D8%B4%D8%B1%DA%A9%D8%AA+%D8%A2%D8%A8+%D9%85%D9%86%D8%B7%D9%82%D9%87+%D8%A7%DB%8C+%DA%A9%D8%B1%D8%AF%D8%B3%D8%AA%D8%A7%D9%86%E2%80%AD/data=!4m7!3m6!1s0x3ff9970f08fbf68d:0xc2fa033ba17ad476!8m2!3d35.2919348!4d47.0040128!16s%2Fg%2F11glqknjwq!19sChIJjfb7CA-X-T8RdtR6oTsD-sI?authuser=0&hl=tr&rclk=1",
    "website_url": "http://www.kdrw.ir/",
    "rating_text": "3,3",
    "stars": null,
    "number_of_reviews": null,
    "price_level": "",
    "open_hours": "",
    "extraction_timestamp": "2025-06-07T13:41:02.079Z",
    "source_name": "google",
    "source_query": "Irrigation Equipment",
    "source_country": "IR",
    "country": "Iran",
    "state": "Kurdistan",
    "city": "Sanandaj"
  },
  {
    "source_id": "ChIJrcvC1JKQ-T8R6p00VnMky2g",
    "name": "Wastewater Treatment of Sanandaj",
    "category": "Wastewater Treatment of Sanandaj",
    "formatted_address": "5,0(1)",
    "phone_number": "",
    "source_url": "https://www.google.com/maps/place/Wastewater+Treatment+of+Sanandaj/data=!4m7!3m6!1s0x3ff99092d4c2cbad:0x68cb247356349dea!8m2!3d35.2258845!4d46.9998765!16s%2Fg%2F1hhvwzss2!19sChIJrcvC1JKQ-T8R6p00VnMky2g?authuser=0&hl=tr&rclk=1",
    "website_url": "",
    "rating_text": "5,0",
    "stars": null,
    "number_of_reviews": null,
    "price_level": "",
    "open_hours": "",
    "extraction_timestamp": "2025-06-07T13:41:02.080Z",
    "source_name": "google",
    "source_query": "Irrigation Equipment",
    "source_country": "IR",
    "country": "Iran",
    "state": "Kurdistan",
    "city": "Sanandaj"
  },
  {
    "source_id": "ChIJTRl4RFG9-T8RsNOUiSs9vsU",
    "name": "Sanandaj city wastewater treatment plant",
    "category": "Sanandaj city wastewater treatment plant",
    "formatted_address": "5,0(1)",
    "phone_number": "",
    "source_url": "https://www.google.com/maps/place/Sanandaj+city+wastewater+treatment+plant/data=!4m7!3m6!1s0x3ff9bd514478194d:0xc5be3d2b8994d3b0!8m2!3d35.3218748!4d46.9861647!16s%2Fg%2F11csr5wl56!19sChIJTRl4RFG9-T8RsNOUiSs9vsU?authuser=0&hl=tr&rclk=1",
    "website_url": "",
    "rating_text": "5,0",
    "stars": null,
    "number_of_reviews": null,
    "price_level": "",
    "open_hours": "",
    "extraction_timestamp": "2025-06-07T13:41:02.106Z",
    "source_name": "google",
    "source_query": "Irrigation Equipment",
    "source_country": "IR",
    "country": "Iran",
    "state": "Kurdistan",
    "city": "Sanandaj"
  },
  {
    "source_id": "ChIJFe-j8ZaX-T8RwcLWUWWrug8",
    "name": "تصفیه آب کانی شفا",
    "category": "تصفیه آب کانی شفا",
    "formatted_address": "4,0(3)",
    "phone_number": "+989183733374",
    "source_url": "https://www.google.com/maps/place/%D8%AA%D8%B5%D9%81%DB%8C%D9%87+%D8%A2%D8%A8+%DA%A9%D8%A7%D9%86%DB%8C+%D8%B4%D9%81%D8%A7%E2%80%AD/data=!4m7!3m6!1s0x3ff99796f1a3ef15:0xfbaab6551d6c2c1!8m2!3d35.2973529!4d46.9970343!16s%2Fg%2F11cjkvvtt0!19sChIJFe-j8ZaX-T8RwcLWUWWrug8?authuser=0&hl=tr&rclk=1",
    "website_url": "",
    "rating_text": "4,0",
    "stars": null,
    "number_of_reviews": null,
    "price_level": "",
    "open_hours": "",
    "extraction_timestamp": "2025-06-07T13:41:02.107Z",
    "source_name": "google",
    "source_query": "Irrigation Equipment",
    "source_country": "IR",
    "country": "Iran",
    "state": "Kurdistan",
    "city": "Sanandaj"
  },
  {
    "source_id": "ChIJe6qGUoO9-T8RzNeM2ecjTn4",
    "name": "تصفیه آب ژیوار نمایندگی آکواجوی در سنندج",
    "category": "تصفیه آب ژیوار نمایندگی آکواجوی در سنندج",
    "formatted_address": "5,0(1)",
    "phone_number": "+989185755513",
    "source_url": "https://www.google.com/maps/place/%D8%AA%D8%B5%D9%81%DB%8C%D9%87+%D8%A2%D8%A8+%DA%98%DB%8C%D9%88%D8%A7%D8%B1+%D9%86%D9%85%D8%A7%DB%8C%D9%86%D8%AF%DA%AF%DB%8C+%D8%A2%DA%A9%D9%88%D8%A7%D8%AC%D9%88%DB%8C+%D8%AF%D8%B1+%D8%B3%D9%86%D9%86%D8%AF%D8%AC%E2%80%AD/data=!4m7!3m6!1s0x3ff9bd835286aa7b:0x7e4e23e7d98cd7cc!8m2!3d35.3181549!4d46.9887388!16s%2Fg%2F11rdcxkcm4!19sChIJe6qGUoO9-T8RzNeM2ecjTn4?authuser=0&hl=tr&rclk=1",
    "website_url": "",
    "rating_text": "5,0",
    "stars": null,
    "number_of_reviews": null,
    "price_level": "",
    "open_hours": "",
    "extraction_timestamp": "2025-06-07T13:41:02.109Z",
    "source_name": "google",
    "source_query": "Irrigation Equipment",
    "source_country": "IR",
    "country": "Iran",
    "state": "Kurdistan",
    "city": "Sanandaj"
  },
  {
    "source_id": "ChIJgzI4fgC9-T8Ro1juu_lnFXw",
    "name": "لوله و اتصالات آبسان",
    "category": "لوله و اتصالات آبسان",
    "formatted_address": "Boru Tedarikçisi · Taleghani St, 82G3+QRH24 saat açık · +98 918 171 1660",
    "phone_number": "+989181711660",
    "source_url": "https://www.google.com/maps/place/%D9%84%D9%88%D9%84%D9%87+%D9%88+%D8%A7%D8%AA%D8%B5%D8%A7%D9%84%D8%A7%D8%AA+%D8%A2%D8%A8%D8%B3%D8%A7%D9%86%E2%80%AD/data=!4m7!3m6!1s0x3ff9bd007e383283:0x7c1567f9bbee58a3!8m2!3d35.3269329!4d47.0046066!16s%2Fg%2F11w2rr4k_b!19sChIJgzI4fgC9-T8Ro1juu_lnFXw?authuser=0&hl=tr&rclk=1",
    "website_url": "",
    "rating_text": "",
    "stars": null,
    "number_of_reviews": null,
    "price_level": "",
    "open_hours": "",
    "extraction_timestamp": "2025-06-07T13:41:02.112Z",
    "source_name": "google",
    "source_query": "Irrigation Equipment",
    "source_country": "IR",
    "country": "Iran",
    "state": "Kurdistan",
    "city": "Sanandaj"
  },
  {
    "source_id": "ChIJCclLrpGW-T8RRP9Z6MTyGXo",
    "name": "لوله کشی ارشیا",
    "category": "لوله کشی ارشیا",
    "formatted_address": "",
    "phone_number": "+989392903954",
    "source_url": "https://www.google.com/maps/place/%D9%84%D9%88%D9%84%D9%87+%DA%A9%D8%B4%DB%8C+%D8%A7%D8%B1%D8%B4%DB%8C%D8%A7%E2%80%AD/data=!4m7!3m6!1s0x3ff99691ae4bc909:0x7a19f2c4e859ff44!8m2!3d35.2961227!4d47.045608!16s%2Fg%2F11cs1s6kj8!19sChIJCclLrpGW-T8RRP9Z6MTyGXo?authuser=0&hl=tr&rclk=1",
    "website_url": "",
    "rating_text": "",
    "stars": null,
    "number_of_reviews": null,
    "price_level": "",
    "open_hours": "",
    "extraction_timestamp": "2025-06-07T13:41:02.114Z",
    "source_name": "google",
    "source_query": "Irrigation Equipment",
    "source_country": "IR",
    "country": "Iran",
    "state": "Kurdistan",
    "city": "Sanandaj"
  }
]
