[
  {
    "source_id": "ChIJ-_Rp60lbAkARcTD8scooznQ",
    "name": "سقز",
    "category": "سقز",
    "formatted_address": "5,0(5)",
    "phone_number": "+989054798838",
    "source_url": "https://www.google.com/maps/place/%D8%B3%D9%82%D8%B2%E2%80%AD/data=!4m7!3m6!1s0x40025b49eb69f4fb:0x74ce28cab1fc3071!8m2!3d36.2463261!4d46.2668606!16s%2Fg%2F11t6_54tww!19sChIJ-_Rp60lbAkARcTD8scooznQ?authuser=0&hl=tr&rclk=1",
    "website_url": "http://instagram.com/tasfiye_ab_central",
    "rating_text": "5,0",
    "stars": null,
    "number_of_reviews": null,
    "price_level": "",
    "open_hours": "",
    "extraction_timestamp": "2025-06-07T13:41:18.718Z",
    "source_name": "google",
    "source_query": "Irrigation Equipment",
    "source_country": "IR",
    "country": "Iran",
    "state": "Kurdistan",
    "city": "Saqqez"
  },
  {
    "source_id": "ChIJE03yCs9EAkARtxcwtlNCURI",
    "name": "سوپرماركت اكرامي",
    "category": "سوپرماركت اكرامي",
    "formatted_address": "5,0(1)",
    "phone_number": "+989187746318",
    "source_url": "https://www.google.com/maps/place/%D8%B3%D9%88%D9%BE%D8%B1%D9%85%D8%A7%D8%B1%D9%83%D8%AA+%D8%A7%D9%83%D8%B1%D8%A7%D9%85%D9%8A%E2%80%AD/data=!4m7!3m6!1s0x400244cf0af24d13:0x12514253b63017b7!8m2!3d36.2295227!4d46.2624075!16s%2Fg%2F11c7076l5w!19sChIJE03yCs9EAkARtxcwtlNCURI?authuser=0&hl=tr&rclk=1",
    "website_url": "",
    "rating_text": "5,0",
    "stars": null,
    "number_of_reviews": null,
    "price_level": "",
    "open_hours": "",
    "extraction_timestamp": "2025-06-07T13:41:18.719Z",
    "source_name": "google",
    "source_query": "Irrigation Equipment",
    "source_country": "IR",
    "country": "Iran",
    "state": "Kurdistan",
    "city": "Saqqez"
  },
  {
    "source_id": "ChIJr1ul4gZbAkARhXVyq4dR-bc",
    "name": "مجتمع فرهنگی تجاری کرد مال",
    "category": "مجتمع فرهنگی تجاری کرد مال",
    "formatted_address": "4,5(14)",
    "phone_number": "",
    "source_url": "https://www.google.com/maps/place/%D9%85%D8%AC%D8%AA%D9%85%D8%B9+%D9%81%D8%B1%D9%87%D9%86%DA%AF%DB%8C+%D8%AA%D8%AC%D8%A7%D8%B1%DB%8C+%DA%A9%D8%B1%D8%AF+%D9%85%D8%A7%D9%84%E2%80%AD/data=!4m7!3m6!1s0x40025b06e2a55baf:0xb7f95187ab727585!8m2!3d36.2368398!4d46.2755339!16s%2Fg%2F11rckz133f!19sChIJr1ul4gZbAkARhXVyq4dR-bc?authuser=0&hl=tr&rclk=1",
    "website_url": "",
    "rating_text": "4,5",
    "stars": null,
    "number_of_reviews": null,
    "price_level": "",
    "open_hours": "",
    "extraction_timestamp": "2025-06-07T13:41:18.720Z",
    "source_name": "google",
    "source_query": "Irrigation Equipment",
    "source_country": "IR",
    "country": "Iran",
    "state": "Kurdistan",
    "city": "Saqqez"
  },
  {
    "source_id": "ChIJsWrk_sREAkARAwnsQw_7Rms",
    "name": "Baran Grocery",
    "category": "Baran Grocery",
    "formatted_address": "5,0(3)",
    "phone_number": "",
    "source_url": "https://www.google.com/maps/place/Baran+Grocery/data=!4m7!3m6!1s0x400244c4fee46ab1:0x6b46fb0f43ec0903!8m2!3d36.2278484!4d46.2582045!16s%2Fg%2F11c2khp5mc!19sChIJsWrk_sREAkARAwnsQw_7Rms?authuser=0&hl=tr&rclk=1",
    "website_url": "",
    "rating_text": "5,0",
    "stars": null,
    "number_of_reviews": null,
    "price_level": "",
    "open_hours": "",
    "extraction_timestamp": "2025-06-07T13:41:18.720Z",
    "source_name": "google",
    "source_query": "Irrigation Equipment",
    "source_country": "IR",
    "country": "Iran",
    "state": "Kurdistan",
    "city": "Saqqez"
  },
  {
    "source_id": "ChIJoVZTHw5bAkAROcfHiHm5mHo",
    "name": "فروشگاه تک شعبه ۲",
    "category": "فروشگاه تک شعبه ۲",
    "formatted_address": "4,0(1)",
    "phone_number": "+989183743973",
    "source_url": "https://www.google.com/maps/place/%D9%81%D8%B1%D9%88%D8%B4%DA%AF%D8%A7%D9%87+%D8%AA%DA%A9+%D8%B4%D8%B9%D8%A8%D9%87+%DB%B2%E2%80%AD/data=!4m7!3m6!1s0x40025b0e1f5356a1:0x7a98b97988c7c739!8m2!3d36.2283708!4d46.2824607!16s%2Fg%2F11v19s8_m4!19sChIJoVZTHw5bAkAROcfHiHm5mHo?authuser=0&hl=tr&rclk=1",
    "website_url": "",
    "rating_text": "4,0",
    "stars": null,
    "number_of_reviews": null,
    "price_level": "",
    "open_hours": "",
    "extraction_timestamp": "2025-06-07T13:41:18.721Z",
    "source_name": "google",
    "source_query": "Irrigation Equipment",
    "source_country": "IR",
    "country": "Iran",
    "state": "Kurdistan",
    "city": "Saqqez"
  },
  {
    "source_id": "ChIJhZ_KZgBbAkARZAHBhQ24920",
    "name": "کارگاه شاسی کشی سقز",
    "category": "کارگاه شاسی کشی سقز",
    "formatted_address": "",
    "phone_number": "+989184485890",
    "source_url": "https://www.google.com/maps/place/%DA%A9%D8%A7%D8%B1%DA%AF%D8%A7%D9%87+%D8%B4%D8%A7%D8%B3%DB%8C+%DA%A9%D8%B4%DB%8C+%D8%B3%D9%82%D8%B2%E2%80%AD/data=!4m7!3m6!1s0x40025b0066ca9f85:0x6df7b80d85c10164!8m2!3d36.2660219!4d46.2730788!16s%2Fg%2F11x1nshzst!19sChIJhZ_KZgBbAkARZAHBhQ24920?authuser=0&hl=tr&rclk=1",
    "website_url": "",
    "rating_text": "",
    "stars": null,
    "number_of_reviews": null,
    "price_level": "",
    "open_hours": "",
    "extraction_timestamp": "2025-06-07T13:41:18.721Z",
    "source_name": "google",
    "source_query": "Irrigation Equipment",
    "source_country": "IR",
    "country": "Iran",
    "state": "Kurdistan",
    "city": "Saqqez"
  },
  {
    "source_id": "ChIJJ7IxLiFbAkARsQx1ww1xB2k",
    "name": "ARKAN Supermarket",
    "category": "ARKAN Supermarket",
    "formatted_address": "5,0(4)",
    "phone_number": "+988736225165",
    "source_url": "https://www.google.com/maps/place/ARKAN+Supermarket/data=!4m7!3m6!1s0x40025b212e31b227:0x6907710dc3750cb1!8m2!3d36.2445863!4d46.2767245!16s%2Fg%2F11f1jwy5km!19sChIJJ7IxLiFbAkARsQx1ww1xB2k?authuser=0&hl=tr&rclk=1",
    "website_url": "",
    "rating_text": "5,0",
    "stars": null,
    "number_of_reviews": null,
    "price_level": "",
    "open_hours": "",
    "extraction_timestamp": "2025-06-07T13:41:18.721Z",
    "source_name": "google",
    "source_query": "Irrigation Equipment",
    "source_country": "IR",
    "country": "Iran",
    "state": "Kurdistan",
    "city": "Saqqez"
  },
  {
    "source_id": "ChIJRcllQQBbAkAR1hBYSYziRDg",
    "name": "کافه فست فود کوالا",
    "category": "کافه فست فود کوالا",
    "formatted_address": "5,0(2)",
    "phone_number": "",
    "source_url": "https://www.google.com/maps/place/%DA%A9%D8%A7%D9%81%D9%87+%D9%81%D8%B3%D8%AA+%D9%81%D9%88%D8%AF+%DA%A9%D9%88%D8%A7%D9%84%D8%A7%E2%80%AD/data=!4m7!3m6!1s0x40025b004165c945:0x3844e28c495810d6!8m2!3d36.2488841!4d46.2566833!16s%2Fg%2F11x6xpcstd!19sChIJRcllQQBbAkAR1hBYSYziRDg?authuser=0&hl=tr&rclk=1",
    "website_url": "",
    "rating_text": "5,0",
    "stars": null,
    "number_of_reviews": null,
    "price_level": "",
    "open_hours": "",
    "extraction_timestamp": "2025-06-07T13:41:18.722Z",
    "source_name": "google",
    "source_query": "Irrigation Equipment",
    "source_country": "IR",
    "country": "Iran",
    "state": "Kurdistan",
    "city": "Saqqez"
  },
  {
    "source_id": "ChIJCSLJx8xbAkAR1Y-8pPrebys",
    "name": "Yek & Yek supermarket",
    "category": "Yek & Yek supermarket",
    "formatted_address": "4,5(2)",
    "phone_number": "+988736248837",
    "source_url": "https://www.google.com/maps/place/Yek+%26+Yek+supermarket/data=!4m7!3m6!1s0x40025bccc7c92209:0x2b6fdefaa4bc8fd5!8m2!3d36.2287!4d46.2819826!16s%2Fg%2F11gy3gy32r!19sChIJCSLJx8xbAkAR1Y-8pPrebys?authuser=0&hl=tr&rclk=1",
    "website_url": "",
    "rating_text": "4,5",
    "stars": null,
    "number_of_reviews": null,
    "price_level": "",
    "open_hours": "",
    "extraction_timestamp": "2025-06-07T13:41:18.722Z",
    "source_name": "google",
    "source_query": "Irrigation Equipment",
    "source_country": "IR",
    "country": "Iran",
    "state": "Kurdistan",
    "city": "Saqqez"
  },
  {
    "source_id": "ChIJleAIYjBbAkARXKTTmjTkEzE",
    "name": "Saywan Supermarket",
    "category": "Saywan Supermarket",
    "formatted_address": "5,0(1)",
    "phone_number": "+988736245577",
    "source_url": "https://www.google.com/maps/place/Saywan+Supermarket/data=!4m7!3m6!1s0x40025b306208e095:0x3113e4349ad3a45c!8m2!3d36.2282638!4d46.2827032!16s%2Fg%2F11j4wykk1x!19sChIJleAIYjBbAkARXKTTmjTkEzE?authuser=0&hl=tr&rclk=1",
    "website_url": "",
    "rating_text": "5,0",
    "stars": null,
    "number_of_reviews": null,
    "price_level": "",
    "open_hours": "",
    "extraction_timestamp": "2025-06-07T13:41:18.723Z",
    "source_name": "google",
    "source_query": "Irrigation Equipment",
    "source_country": "IR",
    "country": "Iran",
    "state": "Kurdistan",
    "city": "Saqqez"
  },
  {
    "source_id": "ChIJS7idReBaAkARFQSX3yCd_I8",
    "name": "سوپر مارکت کردستان",
    "category": "سوپر مارکت کردستان",
    "formatted_address": "4,5(4)",
    "phone_number": "+989185775110",
    "source_url": "https://www.google.com/maps/place/%D8%B3%D9%88%D9%BE%D8%B1+%D9%85%D8%A7%D8%B1%DA%A9%D8%AA+%DA%A9%D8%B1%D8%AF%D8%B3%D8%AA%D8%A7%D9%86%E2%80%AD/data=!4m7!3m6!1s0x40025ae0459db84b:0x8ffc9d20df970415!8m2!3d36.2496637!4d46.2784041!16s%2Fg%2F11fxwbr1g2!19sChIJS7idReBaAkARFQSX3yCd_I8?authuser=0&hl=tr&rclk=1",
    "website_url": "http://t.me/k0rd_shop",
    "rating_text": "4,5",
    "stars": null,
    "number_of_reviews": null,
    "price_level": "",
    "open_hours": "",
    "extraction_timestamp": "2025-06-07T13:41:18.723Z",
    "source_name": "google",
    "source_query": "Irrigation Equipment",
    "source_country": "IR",
    "country": "Iran",
    "state": "Kurdistan",
    "city": "Saqqez"
  },
  {
    "source_id": "ChIJ_-VMSn9FAkARh2xxYMqwCV8",
    "name": "Shayan Supermarket",
    "category": "Shayan Supermarket",
    "formatted_address": "3,0(1)",
    "phone_number": "",
    "source_url": "https://www.google.com/maps/place/Shayan+Supermarket/data=!4m7!3m6!1s0x4002457f4a4ce5ff:0x5f09b0ca60716c87!8m2!3d36.2232747!4d46.2839263!16s%2Fg%2F11hzphfxm6!19sChIJ_-VMSn9FAkARh2xxYMqwCV8?authuser=0&hl=tr&rclk=1",
    "website_url": "",
    "rating_text": "3,0",
    "stars": null,
    "number_of_reviews": null,
    "price_level": "",
    "open_hours": "",
    "extraction_timestamp": "2025-06-07T13:41:18.723Z",
    "source_name": "google",
    "source_query": "Irrigation Equipment",
    "source_country": "IR",
    "country": "Iran",
    "state": "Kurdistan",
    "city": "Saqqez"
  },
  {
    "source_id": "ChIJoS8BmBFbAkARKwDq7-ga5yI",
    "name": "Peyman SuperMarket",
    "category": "Peyman SuperMarket",
    "formatted_address": "4,0(1)",
    "phone_number": "",
    "source_url": "https://www.google.com/maps/place/Peyman+SuperMarket/data=!4m7!3m6!1s0x40025b1198012fa1:0x22e71ae8efea002b!8m2!3d36.2473541!4d46.2651688!16s%2Fg%2F11gk8wzpnl!19sChIJoS8BmBFbAkARKwDq7-ga5yI?authuser=0&hl=tr&rclk=1",
    "website_url": "",
    "rating_text": "4,0",
    "stars": null,
    "number_of_reviews": null,
    "price_level": "",
    "open_hours": "",
    "extraction_timestamp": "2025-06-07T13:41:18.724Z",
    "source_name": "google",
    "source_query": "Irrigation Equipment",
    "source_country": "IR",
    "country": "Iran",
    "state": "Kurdistan",
    "city": "Saqqez"
  },
  {
    "source_id": "ChIJOyXiHr5bAkARPwqGnHP9M0k",
    "name": "فروشگاه زانکو دره زیارت",
    "category": "فروشگاه زانکو دره زیارت",
    "formatted_address": "4,8(12)",
    "phone_number": "",
    "source_url": "https://www.google.com/maps/place/%D9%81%D8%B1%D9%88%D8%B4%DA%AF%D8%A7%D9%87+%D8%B2%D8%A7%D9%86%DA%A9%D9%88+%D8%AF%D8%B1%D9%87+%D8%B2%DB%8C%D8%A7%D8%B1%D8%AA%E2%80%AD/data=!4m7!3m6!1s0x40025bbe1ee2253b:0x4933fd739c860a3f!8m2!3d36.2377606!4d46.3007235!16s%2Fg%2F11t_rlyhh3!19sChIJOyXiHr5bAkARPwqGnHP9M0k?authuser=0&hl=tr&rclk=1",
    "website_url": "",
    "rating_text": "4,8",
    "stars": null,
    "number_of_reviews": null,
    "price_level": "",
    "open_hours": "",
    "extraction_timestamp": "2025-06-07T13:41:18.724Z",
    "source_name": "google",
    "source_query": "Irrigation Equipment",
    "source_country": "IR",
    "country": "Iran",
    "state": "Kurdistan",
    "city": "Saqqez"
  },
  {
    "source_id": "ChIJt5Zy5C5bAkARIj-V7azBwKU",
    "name": "بازرگانی تیموری مواد غذایی",
    "category": "بازرگانی تیموری مواد غذایی",
    "formatted_address": "5,0(1)",
    "phone_number": "+988736227376",
    "source_url": "https://www.google.com/maps/place/%D8%A8%D8%A7%D8%B2%D8%B1%DA%AF%D8%A7%D9%86%DB%8C+%D8%AA%DB%8C%D9%85%D9%88%D8%B1%DB%8C+%D9%85%D9%88%D8%A7%D8%AF+%D8%BA%D8%B0%D8%A7%DB%8C%DB%8C%E2%80%AD/data=!4m7!3m6!1s0x40025b2ee47296b7:0xa5c0c1aced953f22!8m2!3d36.2391996!4d46.2721003!16s%2Fg%2F11bzq0r5d1!19sChIJt5Zy5C5bAkARIj-V7azBwKU?authuser=0&hl=tr&rclk=1",
    "website_url": "",
    "rating_text": "5,0",
    "stars": null,
    "number_of_reviews": null,
    "price_level": "",
    "open_hours": "",
    "extraction_timestamp": "2025-06-07T13:41:18.724Z",
    "source_name": "google",
    "source_query": "Irrigation Equipment",
    "source_country": "IR",
    "country": "Iran",
    "state": "Kurdistan",
    "city": "Saqqez"
  },
  {
    "source_id": "ChIJycdvf7JbAkARLm_l1RAQ3L8",
    "name": "فروشگاە زاگرس",
    "category": "فروشگاە زاگرس",
    "formatted_address": "3,8(4)",
    "phone_number": "+989139",
    "source_url": "https://www.google.com/maps/place/%D9%81%D8%B1%D9%88%D8%B4%DA%AF%D8%A7%DB%95+%D8%B2%D8%A7%DA%AF%D8%B1%D8%B3%E2%80%AD/data=!4m7!3m6!1s0x40025bb27f6fc7c9:0xbfdc1010d5e56f2e!8m2!3d36.2399929!4d46.2880247!16s%2Fg%2F11jlfpm76k!19sChIJycdvf7JbAkARLm_l1RAQ3L8?authuser=0&hl=tr&rclk=1",
    "website_url": "",
    "rating_text": "3,8",
    "stars": null,
    "number_of_reviews": null,
    "price_level": "",
    "open_hours": "",
    "extraction_timestamp": "2025-06-07T13:41:18.725Z",
    "source_name": "google",
    "source_query": "Irrigation Equipment",
    "source_country": "IR",
    "country": "Iran",
    "state": "Kurdistan",
    "city": "Saqqez"
  },
  {
    "source_id": "ChIJyWKuPdFbAkARJr4PvGicJMU",
    "name": "Koohnamad",
    "category": "Koohnamad",
    "formatted_address": "Kamp Malzemeleri Mağazası · Azadi Ave, 67QF+C6HKapalı ⋅ Açılış zamanı: Paz 09:00 · +98 87 3629 8263",
    "phone_number": "+988736298263",
    "source_url": "https://www.google.com/maps/place/Koohnamad/data=!4m7!3m6!1s0x40025bd13dae62c9:0xc5249c68bc0fbe26!8m2!3d36.2385552!4d46.2730955!16s%2Fg%2F11fsp2b4jt!19sChIJyWKuPdFbAkARJr4PvGicJMU?authuser=0&hl=tr&rclk=1",
    "website_url": "",
    "rating_text": "",
    "stars": null,
    "number_of_reviews": null,
    "price_level": "",
    "open_hours": "",
    "extraction_timestamp": "2025-06-07T13:41:18.725Z",
    "source_name": "google",
    "source_query": "Irrigation Equipment",
    "source_country": "IR",
    "country": "Iran",
    "state": "Kurdistan",
    "city": "Saqqez"
  },
  {
    "source_id": "ChIJkZ7cJCdbAkARHBzAY7Z_M-Q",
    "name": "فروشگاه لوازم خانگی غرب",
    "category": "فروشگاه لوازم خانگی غرب",
    "formatted_address": "5,0(1)",
    "phone_number": "",
    "source_url": "https://www.google.com/maps/place/%D9%81%D8%B1%D9%88%D8%B4%DA%AF%D8%A7%D9%87+%D9%84%D9%88%D8%A7%D8%B2%D9%85+%D8%AE%D8%A7%D9%86%DA%AF%DB%8C+%D8%BA%D8%B1%D8%A8%E2%80%AD/data=!4m7!3m6!1s0x40025b2724dc9e91:0xe4337fb663c01c1c!8m2!3d36.2413823!4d46.2661197!16s%2Fg%2F11khk1mcrn!19sChIJkZ7cJCdbAkARHBzAY7Z_M-Q?authuser=0&hl=tr&rclk=1",
    "website_url": "",
    "rating_text": "5,0",
    "stars": null,
    "number_of_reviews": null,
    "price_level": "",
    "open_hours": "",
    "extraction_timestamp": "2025-06-07T13:41:18.726Z",
    "source_name": "google",
    "source_query": "Irrigation Equipment",
    "source_country": "IR",
    "country": "Iran",
    "state": "Kurdistan",
    "city": "Saqqez"
  },
  {
    "source_id": "ChIJlZeec8VaAkARr1fOI5X02RU",
    "name": "Zar Macaron Store No 2",
    "category": "Zar Macaron Store No 2",
    "formatted_address": "3,5(2)",
    "phone_number": "+988736216656",
    "source_url": "https://www.google.com/maps/place/Zar+Macaron+Store+No+2/data=!4m7!3m6!1s0x40025ac5739e9795:0x15d9f49523ce57af!8m2!3d36.2499044!4d46.2582239!16s%2Fg%2F11fy9yn4g5!19sChIJlZeec8VaAkARr1fOI5X02RU?authuser=0&hl=tr&rclk=1",
    "website_url": "",
    "rating_text": "3,5",
    "stars": null,
    "number_of_reviews": null,
    "price_level": "",
    "open_hours": "",
    "extraction_timestamp": "2025-06-07T13:41:18.726Z",
    "source_name": "google",
    "source_query": "Irrigation Equipment",
    "source_country": "IR",
    "country": "Iran",
    "state": "Kurdistan",
    "city": "Saqqez"
  },
  {
    "source_id": "ChIJMckK_sVEAkARUTwIyiif9r8",
    "name": "Saye Coffee Shop",
    "category": "Saye Coffee Shop",
    "formatted_address": "3,8(4)",
    "phone_number": "",
    "source_url": "https://www.google.com/maps/place/Saye+Coffee+Shop/data=!4m7!3m6!1s0x400244c5fe0ac931:0xbff69f28ca083c51!8m2!3d36.2305597!4d46.2659151!16s%2Fg%2F11cry08zl9!19sChIJMckK_sVEAkARUTwIyiif9r8?authuser=0&hl=tr&rclk=1",
    "website_url": "",
    "rating_text": "3,8",
    "stars": null,
    "number_of_reviews": null,
    "price_level": "",
    "open_hours": "",
    "extraction_timestamp": "2025-06-07T13:41:18.726Z",
    "source_name": "google",
    "source_query": "Irrigation Equipment",
    "source_country": "IR",
    "country": "Iran",
    "state": "Kurdistan",
    "city": "Saqqez"
  },
  {
    "source_id": "ChIJVdziXwBbAkAR7ju6rXXNpso",
    "name": "مرکز خرید حاجی آباد سعید جهانی",
    "category": "مرکز خرید حاجی آباد سعید جهانی",
    "formatted_address": "5,0(1)",
    "phone_number": "",
    "source_url": "https://www.google.com/maps/place/%D9%85%D8%B1%DA%A9%D8%B2+%D8%AE%D8%B1%DB%8C%D8%AF+%D8%AD%D8%A7%D8%AC%DB%8C+%D8%A2%D8%A8%D8%A7%D8%AF+%D8%B3%D8%B9%DB%8C%D8%AF+%D8%AC%D9%87%D8%A7%D9%86%DB%8C%E2%80%AD/data=!4m7!3m6!1s0x40025b005fe2dc55:0xcaa6cd75adba3bee!8m2!3d36.2559648!4d46.2792885!16s%2Fg%2F11y37ns2tl!19sChIJVdziXwBbAkAR7ju6rXXNpso?authuser=0&hl=tr&rclk=1",
    "website_url": "",
    "rating_text": "5,0",
    "stars": null,
    "number_of_reviews": null,
    "price_level": "",
    "open_hours": "",
    "extraction_timestamp": "2025-06-07T13:41:18.727Z",
    "source_name": "google",
    "source_query": "Irrigation Equipment",
    "source_country": "IR",
    "country": "Iran",
    "state": "Kurdistan",
    "city": "Saqqez"
  },
  {
    "source_id": "ChIJ-wdcRatFAkARfbGRWuJRcTg",
    "name": "سقز بلوارانقلاب",
    "category": "سقز بلوارانقلاب",
    "formatted_address": "4,5(4)",
    "phone_number": "+989183765671",
    "source_url": "https://www.google.com/maps/place/%D8%B3%D9%82%D8%B2+%D8%A8%D9%84%D9%88%D8%A7%D8%B1%D8%A7%D9%86%D9%82%D9%84%D8%A7%D8%A8%E2%80%AD/data=!4m7!3m6!1s0x400245ab455c07fb:0x387151e25a91b17d!8m2!3d36.2290505!4d46.2582136!16s%2Fg%2F11q3ygdd30!19sChIJ-wdcRatFAkARfbGRWuJRcTg?authuser=0&hl=tr&rclk=1",
    "website_url": "",
    "rating_text": "4,5",
    "stars": null,
    "number_of_reviews": null,
    "price_level": "",
    "open_hours": "",
    "extraction_timestamp": "2025-06-07T13:41:18.727Z",
    "source_name": "google",
    "source_query": "Irrigation Equipment",
    "source_country": "IR",
    "country": "Iran",
    "state": "Kurdistan",
    "city": "Saqqez"
  },
  {
    "source_id": "ChIJl2GBKKBbAkARO5NKcWEvU_k",
    "name": "فروشگاه مواد غذایی کوردستان \"کوگای پیویستی کوردستان\"",
    "category": "فروشگاه مواد غذایی کوردستان \"کوگای پیویستی کوردستان\"",
    "formatted_address": "5,0(1)",
    "phone_number": "+988736243357",
    "source_url": "https://www.google.com/maps/place/%D9%81%D8%B1%D9%88%D8%B4%DA%AF%D8%A7%D9%87+%D9%85%D9%88%D8%A7%D8%AF+%D8%BA%D8%B0%D8%A7%DB%8C%DB%8C+%DA%A9%D9%88%D8%B1%D8%AF%D8%B3%D8%AA%D8%A7%D9%86+%22%DA%A9%D9%88%DA%AF%D8%A7%DB%8C+%D9%BE%DB%8C%D9%88%DB%8C%D8%B3%D8%AA%DB%8C+%DA%A9%D9%88%D8%B1%D8%AF%D8%B3%D8%AA%D8%A7%D9%86%22%E2%80%AD/data=!4m7!3m6!1s0x40025ba028816197:0xf9532f61714a933b!8m2!3d36.238058!4d46.2874094!16s%2Fg%2F11j0qpt68w!19sChIJl2GBKKBbAkARO5NKcWEvU_k?authuser=0&hl=tr&rclk=1",
    "website_url": "",
    "rating_text": "5,0",
    "stars": null,
    "number_of_reviews": null,
    "price_level": "",
    "open_hours": "",
    "extraction_timestamp": "2025-06-07T13:41:18.727Z",
    "source_name": "google",
    "source_query": "Irrigation Equipment",
    "source_country": "IR",
    "country": "Iran",
    "state": "Kurdistan",
    "city": "Saqqez"
  },
  {
    "source_id": "ChIJueqxZ0tbAkARCR-QJBqirnI",
    "name": "کافە شوپا",
    "category": "کافە شوپا",
    "formatted_address": "5,0(1)",
    "phone_number": "+989029439929",
    "source_url": "https://www.google.com/maps/place/%DA%A9%D8%A7%D9%81%DB%95+%D8%B4%D9%88%D9%BE%D8%A7%E2%80%AD/data=!4m7!3m6!1s0x40025b4b67b1eab9:0x72aea21a24901f09!8m2!3d36.2355777!4d46.2718686!16s%2Fg%2F11n5l2b6b_!19sChIJueqxZ0tbAkARCR-QJBqirnI?authuser=0&hl=tr&rclk=1",
    "website_url": "",
    "rating_text": "5,0",
    "stars": null,
    "number_of_reviews": null,
    "price_level": "",
    "open_hours": "",
    "extraction_timestamp": "2025-06-07T13:41:18.728Z",
    "source_name": "google",
    "source_query": "Irrigation Equipment",
    "source_country": "IR",
    "country": "Iran",
    "state": "Kurdistan",
    "city": "Saqqez"
  },
  {
    "source_id": "ChIJb2dnxt5bAkARbXCq9U9FPK0",
    "name": "آکواریوم مهران",
    "category": "آکواریوم مهران",
    "formatted_address": "5,0(1)",
    "phone_number": "+989211965083",
    "source_url": "https://www.google.com/maps/place/%D8%A2%DA%A9%D9%88%D8%A7%D8%B1%DB%8C%D9%88%D9%85+%D9%85%D9%87%D8%B1%D8%A7%D9%86%E2%80%AD/data=!4m7!3m6!1s0x40025bdec667676f:0xad3c454ff5aa706d!8m2!3d36.23771!4d46.268238!16s%2Fg%2F11frs7sy6n!19sChIJb2dnxt5bAkARbXCq9U9FPK0?authuser=0&hl=tr&rclk=1",
    "website_url": "",
    "rating_text": "5,0",
    "stars": null,
    "number_of_reviews": null,
    "price_level": "",
    "open_hours": "",
    "extraction_timestamp": "2025-06-07T13:41:18.728Z",
    "source_name": "google",
    "source_query": "Irrigation Equipment",
    "source_country": "IR",
    "country": "Iran",
    "state": "Kurdistan",
    "city": "Saqqez"
  },
  {
    "source_id": "ChIJp2wm4vJbAkARXTbSDuWVx8k",
    "name": "Shagham Store",
    "category": "Shagham Store",
    "formatted_address": "5,0(1)",
    "phone_number": "+989183768982",
    "source_url": "https://www.google.com/maps/place/Shagham+Store/data=!4m7!3m6!1s0x40025bf2e2266ca7:0xc9c795e50ed2365d!8m2!3d36.2537872!4d46.2606798!16s%2Fg%2F11gk8mwppy!19sChIJp2wm4vJbAkARXTbSDuWVx8k?authuser=0&hl=tr&rclk=1",
    "website_url": "",
    "rating_text": "5,0",
    "stars": null,
    "number_of_reviews": null,
    "price_level": "",
    "open_hours": "",
    "extraction_timestamp": "2025-06-07T13:41:18.729Z",
    "source_name": "google",
    "source_query": "Irrigation Equipment",
    "source_country": "IR",
    "country": "Iran",
    "state": "Kurdistan",
    "city": "Saqqez"
  },
  {
    "source_id": "ChIJQ5ibbepaAkARpKGz86mbc9I",
    "name": "توی طلایی گولان",
    "category": "توی طلایی گولان",
    "formatted_address": "5,0(1)",
    "phone_number": "",
    "source_url": "https://www.google.com/maps/place/%D8%AA%D9%88%DB%8C+%D8%B7%D9%84%D8%A7%DB%8C%DB%8C+%DA%AF%D9%88%D9%84%D8%A7%D9%86%E2%80%AD/data=!4m7!3m6!1s0x40025aea6d9b9843:0xd2739ba9f3b3a1a4!8m2!3d36.2560385!4d46.2634432!16s%2Fg%2F11c6f12kd0!19sChIJQ5ibbepaAkARpKGz86mbc9I?authuser=0&hl=tr&rclk=1",
    "website_url": "",
    "rating_text": "5,0",
    "stars": null,
    "number_of_reviews": null,
    "price_level": "",
    "open_hours": "",
    "extraction_timestamp": "2025-06-07T13:41:18.729Z",
    "source_name": "google",
    "source_query": "Irrigation Equipment",
    "source_country": "IR",
    "country": "Iran",
    "state": "Kurdistan",
    "city": "Saqqez"
  },
  {
    "source_id": "ChIJ8UbuMNNEAkARHx4SKz6XUMk",
    "name": "Ofoq Kourosh",
    "category": "Ofoq Kourosh",
    "formatted_address": "4,0(5)",
    "phone_number": "",
    "source_url": "https://www.google.com/maps/place/Ofoq+Kourosh/data=!4m7!3m6!1s0x400244d330ee46f1:0xc950973e2b121e1f!8m2!3d36.2358687!4d46.2647497!16s%2Fg%2F11bw_5l42p!19sChIJ8UbuMNNEAkARHx4SKz6XUMk?authuser=0&hl=tr&rclk=1",
    "website_url": "",
    "rating_text": "4,0",
    "stars": null,
    "number_of_reviews": null,
    "price_level": "",
    "open_hours": "",
    "extraction_timestamp": "2025-06-07T13:41:18.729Z",
    "source_name": "google",
    "source_query": "Irrigation Equipment",
    "source_country": "IR",
    "country": "Iran",
    "state": "Kurdistan",
    "city": "Saqqez"
  },
  {
    "source_id": "ChIJvduKReBbAkAR0yq310ZqzxI",
    "name": "فروشگاه مواد غذایی بهداشتی ستاره شهر",
    "category": "فروشگاه مواد غذایی بهداشتی ستاره شهر",
    "formatted_address": "5,0(2)",
    "phone_number": "+988736263221",
    "source_url": "https://www.google.com/maps/place/%D9%81%D8%B1%D9%88%D8%B4%DA%AF%D8%A7%D9%87+%D9%85%D9%88%D8%A7%D8%AF+%D8%BA%D8%B0%D8%A7%DB%8C%DB%8C+%D8%A8%D9%87%D8%AF%D8%A7%D8%B4%D8%AA%DB%8C+%D8%B3%D8%AA%D8%A7%D8%B1%D9%87+%D8%B4%D9%87%D8%B1%E2%80%AD/data=!4m7!3m6!1s0x40025be0458adbbd:0x12cf6a46d7b72ad3!8m2!3d36.2418979!4d46.258318!16s%2Fg%2F11j8gk2qsc!19sChIJvduKReBbAkAR0yq310ZqzxI?authuser=0&hl=tr&rclk=1",
    "website_url": "",
    "rating_text": "5,0",
    "stars": null,
    "number_of_reviews": null,
    "price_level": "",
    "open_hours": "",
    "extraction_timestamp": "2025-06-07T13:41:18.730Z",
    "source_name": "google",
    "source_query": "Irrigation Equipment",
    "source_country": "IR",
    "country": "Iran",
    "state": "Kurdistan",
    "city": "Saqqez"
  },
  {
    "source_id": "ChIJ87kbQtxbAkARfRuU3nqrYIA",
    "name": "رایان مارکت( شعبه ۱)",
    "category": "رایان مارکت( شعبه ۱)",
    "formatted_address": "5,0(1)",
    "phone_number": "+989308088002",
    "source_url": "https://www.google.com/maps/place/%D8%B1%D8%A7%DB%8C%D8%A7%D9%86+%D9%85%D8%A7%D8%B1%DA%A9%D8%AA%28+%D8%B4%D8%B9%D8%A8%D9%87+%DB%B1%29%E2%80%AD/data=!4m7!3m6!1s0x40025bdc421bb9f3:0x8060ab7ade941b7d!8m2!3d36.2408545!4d46.2706586!16s%2Fg%2F11l6t15__f!19sChIJ87kbQtxbAkARfRuU3nqrYIA?authuser=0&hl=tr&rclk=1",
    "website_url": "",
    "rating_text": "5,0",
    "stars": null,
    "number_of_reviews": null,
    "price_level": "",
    "open_hours": "",
    "extraction_timestamp": "2025-06-07T13:41:18.731Z",
    "source_name": "google",
    "source_query": "Irrigation Equipment",
    "source_country": "IR",
    "country": "Iran",
    "state": "Kurdistan",
    "city": "Saqqez"
  },
  {
    "source_id": "ChIJk9lsfrdFAkARZvxEJV2Qw6o",
    "name": "کافه تاج گل",
    "category": "کافه تاج گل",
    "formatted_address": "5,0(5)",
    "phone_number": "+989187736520",
    "source_url": "https://www.google.com/maps/place/%DA%A9%D8%A7%D9%81%D9%87+%D8%AA%D8%A7%D8%AC+%DA%AF%D9%84%E2%80%AD/data=!4m7!3m6!1s0x400245b77e6cd993:0xaac3905d2544fc66!8m2!3d36.2275552!4d46.2629319!16s%2Fg%2F11svs8bmgj!19sChIJk9lsfrdFAkARZvxEJV2Qw6o?authuser=0&hl=tr&rclk=1",
    "website_url": "",
    "rating_text": "5,0",
    "stars": null,
    "number_of_reviews": null,
    "price_level": "",
    "open_hours": "",
    "extraction_timestamp": "2025-06-07T13:41:18.731Z",
    "source_name": "google",
    "source_query": "Irrigation Equipment",
    "source_country": "IR",
    "country": "Iran",
    "state": "Kurdistan",
    "city": "Saqqez"
  },
  {
    "source_id": "ChIJNcfHz8oFA0AR7SG9gNq2joc",
    "name": "https://t.me/mostafazadeeh",
    "category": "https://t.me/mostafazadeeh",
    "formatted_address": "4,4(7)",
    "phone_number": "+989144892029",
    "source_url": "https://www.google.com/maps/place/https:%2F%2Ft.me%2Fmostafazadeeh/data=!4m7!3m6!1s0x400305cacfc7c735:0x878eb6da80bd21ed!8m2!3d36.5043216!4d46.2067101!16s%2Fg%2F11cs1vhfhq!19sChIJNcfHz8oFA0AR7SG9gNq2joc?authuser=0&hl=tr&rclk=1",
    "website_url": "",
    "rating_text": "4,4",
    "stars": null,
    "number_of_reviews": null,
    "price_level": "",
    "open_hours": "",
    "extraction_timestamp": "2025-06-07T13:41:18.732Z",
    "source_name": "google",
    "source_query": "Irrigation Equipment",
    "source_country": "IR",
    "country": "Iran",
    "state": "Kurdistan",
    "city": "Saqqez"
  },
  {
    "source_id": "ChIJZShclG9FAkARNZZ9aADroR8",
    "name": "فروشگاه زنجیره ای وین مارکت سقز کردستان",
    "category": "فروشگاه زنجیره ای وین مارکت سقز کردستان",
    "formatted_address": "5,0(2)",
    "phone_number": "",
    "source_url": "https://www.google.com/maps/place/%D9%81%D8%B1%D9%88%D8%B4%DA%AF%D8%A7%D9%87+%D8%B2%D9%86%D8%AC%DB%8C%D8%B1%D9%87+%D8%A7%DB%8C+%D9%88%DB%8C%D9%86+%D9%85%D8%A7%D8%B1%DA%A9%D8%AA+%D8%B3%D9%82%D8%B2+%DA%A9%D8%B1%D8%AF%D8%B3%D8%AA%D8%A7%D9%86%E2%80%AD/data=!4m7!3m6!1s0x4002456f945c2865:0x1fa1eb00687d9635!8m2!3d36.2265608!4d46.2692956!16s%2Fg%2F11fp36r2xx!19sChIJZShclG9FAkARNZZ9aADroR8?authuser=0&hl=tr&rclk=1",
    "website_url": "",
    "rating_text": "5,0",
    "stars": null,
    "number_of_reviews": null,
    "price_level": "",
    "open_hours": "",
    "extraction_timestamp": "2025-06-07T13:41:18.732Z",
    "source_name": "google",
    "source_query": "Irrigation Equipment",
    "source_country": "IR",
    "country": "Iran",
    "state": "Kurdistan",
    "city": "Saqqez"
  }
]
