[
  {
    "source_id": "ChIJEceLCUUq-T8ReGRrdy79pyE",
    "name": "Iran Gas Company of Uraman",
    "category": "Iran Gas Company of Uraman",
    "formatted_address": "3,2(6)",
    "phone_number": "+988753883387",
    "source_url": "https://www.google.com/maps/place/Iran+Gas+Company+of+Uraman/data=!4m7!3m6!1s0x3ff92a45098bc711:0x21a7fd2e776b6478!8m2!3d35.253452!4d46.2593186!16s%2Fg%2F1q69vf5hm!19sChIJEceLCUUq-T8ReGRrdy79pyE?authuser=0&hl=tr&rclk=1",
    "website_url": "",
    "rating_text": "3,2",
    "stars": null,
    "number_of_reviews": null,
    "price_level": "",
    "open_hours": "",
    "extraction_timestamp": "2025-06-07T13:41:16.307Z",
    "source_name": "google",
    "source_query": "Irrigation Equipment",
    "source_country": "IR",
    "country": "Iran",
    "state": "Kurdistan",
    "city": "Uraman Takht"
  },
  {
    "source_id": "ChIJVVVVRU8q-T8R_OcvApMqhws",
    "name": "Hawraman system",
    "category": "Hawraman system",
    "formatted_address": "4,8(11)",
    "phone_number": "+989188769606",
    "source_url": "https://www.google.com/maps/place/Hawraman+system/data=!4m7!3m6!1s0x3ff92a4f45555555:0xb872a93022fe7fc!8m2!3d35.252294!4d46.2611706!16s%2Fg%2F11fxvy1ryb!19sChIJVVVVRU8q-T8R_OcvApMqhws?authuser=0&hl=tr&rclk=1",
    "website_url": "",
    "rating_text": "4,8",
    "stars": null,
    "number_of_reviews": null,
    "price_level": "",
    "open_hours": "",
    "extraction_timestamp": "2025-06-07T13:41:16.307Z",
    "source_name": "google",
    "source_query": "Irrigation Equipment",
    "source_country": "IR",
    "country": "Iran",
    "state": "Kurdistan",
    "city": "Uraman Takht"
  },
  {
    "source_id": "ChIJx-8nMwYr-T8RYRn63i4sGUQ",
    "name": "سوپرمارکت چه م وه ش",
    "category": "سوپرمارکت چه م وه ش",
    "formatted_address": "5,0(1)",
    "phone_number": "+989187849563",
    "source_url": "https://www.google.com/maps/place/%D8%B3%D9%88%D9%BE%D8%B1%D9%85%D8%A7%D8%B1%DA%A9%D8%AA+%DA%86%D9%87+%D9%85+%D9%88%D9%87+%D8%B4%E2%80%AD/data=!4m7!3m6!1s0x3ff92b063327efc7:0x44192c2edefa1961!8m2!3d35.2496924!4d46.2629211!16s%2Fg%2F11j3w0pwv8!19sChIJx-8nMwYr-T8RYRn63i4sGUQ?authuser=0&hl=tr&rclk=1",
    "website_url": "",
    "rating_text": "5,0",
    "stars": null,
    "number_of_reviews": null,
    "price_level": "",
    "open_hours": "",
    "extraction_timestamp": "2025-06-07T13:41:16.308Z",
    "source_name": "google",
    "source_query": "Irrigation Equipment",
    "source_country": "IR",
    "country": "Iran",
    "state": "Kurdistan",
    "city": "Uraman Takht"
  },
  {
    "source_id": "ChIJCdWo-MYr-T8RTGB6bF6sVyo",
    "name": "سوپر مارکت ابراهیمی",
    "category": "سوپر مارکت ابراهیمی",
    "formatted_address": "5,0(2)",
    "phone_number": "",
    "source_url": "https://www.google.com/maps/place/%D8%B3%D9%88%D9%BE%D8%B1+%D9%85%D8%A7%D8%B1%DA%A9%D8%AA+%D8%A7%D8%A8%D8%B1%D8%A7%D9%87%DB%8C%D9%85%DB%8C%E2%80%AD/data=!4m7!3m6!1s0x3ff92bc6f8a8d509:0x2a57ac5e6c7a604c!8m2!3d35.2531183!4d46.262493!16s%2Fg%2F11sdwhnf50!19sChIJCdWo-MYr-T8RTGB6bF6sVyo?authuser=0&hl=tr&rclk=1",
    "website_url": "",
    "rating_text": "5,0",
    "stars": null,
    "number_of_reviews": null,
    "price_level": "",
    "open_hours": "",
    "extraction_timestamp": "2025-06-07T13:41:16.309Z",
    "source_name": "google",
    "source_query": "Irrigation Equipment",
    "source_country": "IR",
    "country": "Iran",
    "state": "Kurdistan",
    "city": "Uraman Takht"
  },
  {
    "source_id": "ChIJGQ8I9DIr-T8RxwD2HdF568w",
    "name": "سوپرمارکت هه وار",
    "category": "سوپرمارکت هه وار",
    "formatted_address": "4,5(2)",
    "phone_number": "",
    "source_url": "https://www.google.com/maps/place/%D8%B3%D9%88%D9%BE%D8%B1%D9%85%D8%A7%D8%B1%DA%A9%D8%AA+%D9%87%D9%87+%D9%88%D8%A7%D8%B1%E2%80%AD/data=!4m7!3m6!1s0x3ff92b32f4080f19:0xcceb79d11df600c7!8m2!3d35.2557389!4d46.2547364!16s%2Fg%2F11kkx7l58x!19sChIJGQ8I9DIr-T8RxwD2HdF568w?authuser=0&hl=tr&rclk=1",
    "website_url": "",
    "rating_text": "4,5",
    "stars": null,
    "number_of_reviews": null,
    "price_level": "",
    "open_hours": "",
    "extraction_timestamp": "2025-06-07T13:41:16.309Z",
    "source_name": "google",
    "source_query": "Irrigation Equipment",
    "source_country": "IR",
    "country": "Iran",
    "state": "Kurdistan",
    "city": "Uraman Takht"
  },
  {
    "source_id": "ChIJKRrHNAAr-T8RsASY9bsdzEs",
    "name": "کافە ئە ەوه ن",
    "category": "کافە ئە ەوه ن",
    "formatted_address": "",
    "phone_number": "+989904525118",
    "source_url": "https://www.google.com/maps/place/%DA%A9%D8%A7%D9%81%DB%95+%D8%A6%DB%95+%DB%95%D9%88%D9%87+%D9%86%E2%80%AD/data=!4m7!3m6!1s0x3ff92b0034c71a29:0x4bcc1dbbf59804b0!8m2!3d35.2515588!4d46.2609431!16s%2Fg%2F11x5t9pylz!19sChIJKRrHNAAr-T8RsASY9bsdzEs?authuser=0&hl=tr&rclk=1",
    "website_url": "",
    "rating_text": "",
    "stars": null,
    "number_of_reviews": null,
    "price_level": "",
    "open_hours": "",
    "extraction_timestamp": "2025-06-07T13:41:16.310Z",
    "source_name": "google",
    "source_query": "Irrigation Equipment",
    "source_country": "IR",
    "country": "Iran",
    "state": "Kurdistan",
    "city": "Uraman Takht"
  },
  {
    "source_id": "ChIJS2LID1cr-T8R4N2DzNWBARI",
    "name": "فروشگاه یادگار اورامان",
    "category": "فروشگاه یادگار اورامان",
    "formatted_address": "5,0(2)",
    "phone_number": "+989182723269",
    "source_url": "https://www.google.com/maps/place/%D9%81%D8%B1%D9%88%D8%B4%DA%AF%D8%A7%D9%87+%DB%8C%D8%A7%D8%AF%DA%AF%D8%A7%D8%B1+%D8%A7%D9%88%D8%B1%D8%A7%D9%85%D8%A7%D9%86%E2%80%AD/data=!4m7!3m6!1s0x3ff92b570fc8624b:0x120181d5cc83dde0!8m2!3d35.2520125!4d46.2601406!16s%2Fg%2F11rc73530x!19sChIJS2LID1cr-T8R4N2DzNWBARI?authuser=0&hl=tr&rclk=1",
    "website_url": "",
    "rating_text": "5,0",
    "stars": null,
    "number_of_reviews": null,
    "price_level": "",
    "open_hours": "",
    "extraction_timestamp": "2025-06-07T13:41:16.311Z",
    "source_name": "google",
    "source_query": "Irrigation Equipment",
    "source_country": "IR",
    "country": "Iran",
    "state": "Kurdistan",
    "city": "Uraman Takht"
  },
  {
    "source_id": "ChIJvQNEhWAr-T8RqUQAW6b0ksQ",
    "name": "فروشگاه هورامان",
    "category": "فروشگاه هورامان",
    "formatted_address": "5,0(3)",
    "phone_number": "+989217762875",
    "source_url": "https://www.google.com/maps/place/%D9%81%D8%B1%D9%88%D8%B4%DA%AF%D8%A7%D9%87+%D9%87%D9%88%D8%B1%D8%A7%D9%85%D8%A7%D9%86%E2%80%AD/data=!4m7!3m6!1s0x3ff92b60854403bd:0xc492f4a65b0044a9!8m2!3d35.2500271!4d46.2627186!16s%2Fg%2F11t0n7l8h_!19sChIJvQNEhWAr-T8RqUQAW6b0ksQ?authuser=0&hl=tr&rclk=1",
    "website_url": "",
    "rating_text": "5,0",
    "stars": null,
    "number_of_reviews": null,
    "price_level": "",
    "open_hours": "",
    "extraction_timestamp": "2025-06-07T13:41:16.311Z",
    "source_name": "google",
    "source_query": "Irrigation Equipment",
    "source_country": "IR",
    "country": "Iran",
    "state": "Kurdistan",
    "city": "Uraman Takht"
  },
  {
    "source_id": "ChIJ7WVw3Jwr-T8RAPoxZ5cwjUY",
    "name": "سوپرمارکت سێ غەفوور",
    "category": "سوپرمارکت سێ غەفوور",
    "formatted_address": "5,0(2)",
    "phone_number": "",
    "source_url": "https://www.google.com/maps/place/%D8%B3%D9%88%D9%BE%D8%B1%D9%85%D8%A7%D8%B1%DA%A9%D8%AA+%D8%B3%DB%8E+%D8%BA%DB%95%D9%81%D9%88%D9%88%D8%B1%E2%80%AD/data=!4m7!3m6!1s0x3ff92b9cdc7065ed:0x468d30976731fa00!8m2!3d35.2533447!4d46.2654414!16s%2Fg%2F11nnlndh15!19sChIJ7WVw3Jwr-T8RAPoxZ5cwjUY?authuser=0&hl=tr&rclk=1",
    "website_url": "",
    "rating_text": "5,0",
    "stars": null,
    "number_of_reviews": null,
    "price_level": "",
    "open_hours": "",
    "extraction_timestamp": "2025-06-07T13:41:16.312Z",
    "source_name": "google",
    "source_query": "Irrigation Equipment",
    "source_country": "IR",
    "country": "Iran",
    "state": "Kurdistan",
    "city": "Uraman Takht"
  },
  {
    "source_id": "ChIJpW-HgbMr-T8RvZrihBnh9hc",
    "name": "کافه ئەهوەن",
    "category": "کافه ئەهوەن",
    "formatted_address": "5,0(1)",
    "phone_number": "",
    "source_url": "https://www.google.com/maps/place/%DA%A9%D8%A7%D9%81%D9%87+%D8%A6%DB%95%D9%87%D9%88%DB%95%D9%86%E2%80%AD/data=!4m7!3m6!1s0x3ff92bb381876fa5:0x17f6e11984e29abd!8m2!3d35.2473085!4d46.2640406!16s%2Fg%2F11l27q2fmw!19sChIJpW-HgbMr-T8RvZrihBnh9hc?authuser=0&hl=tr&rclk=1",
    "website_url": "",
    "rating_text": "5,0",
    "stars": null,
    "number_of_reviews": null,
    "price_level": "",
    "open_hours": "",
    "extraction_timestamp": "2025-06-07T13:41:16.312Z",
    "source_name": "google",
    "source_query": "Irrigation Equipment",
    "source_country": "IR",
    "country": "Iran",
    "state": "Kurdistan",
    "city": "Uraman Takht"
  }
]
