[
  {
    "source_id": "ChIJV_uh1PsLXUARPjjl5cleQDY",
    "name": "ველო სერვისი ოზურგეთი",
    "category": "ველო სერვისი ოზურგეთი",
    "formatted_address": "5,0(1)",
    "phone_number": "+995593184308",
    "source_url": "https://www.google.com/maps/place/%E1%83%95%E1%83%94%E1%83%9A%E1%83%9D+%E1%83%A1%E1%83%94%E1%83%A0%E1%83%95%E1%83%98%E1%83%A1%E1%83%98+%E1%83%9D%E1%83%96%E1%83%A3%E1%83%A0%E1%83%92%E1%83%94%E1%83%97%E1%83%98/data=!4m7!3m6!1s0x405d0bfbd4a1fb57:0x36405ec9e5e5383e!8m2!3d41.9223173!4d42.0015945!16s%2Fg%2F11jjlpf0hr!19sChIJV_uh1PsLXUARPjjl5cleQDY?authuser=0&hl=tr&rclk=1",
    "website_url": "",
    "rating_text": "5,0",
    "stars": null,
    "number_of_reviews": null,
    "price_level": "",
    "open_hours": "",
    "extraction_timestamp": "2025-06-07T14:01:04.897Z",
    "source_name": "google",
    "source_query": "Irrigation Equipment",
    "source_country": "GE",
    "country": "Georgia",
    "state": "Guria",
    "city": "Ozurgeti"
  },
  {
    "source_id": "ChIJ8-ce5X8LXUAR2erUXsIYZoo",
    "name": "Modern",
    "category": "Modern",
    "formatted_address": "4,4(455)",
    "phone_number": "+995551646477",
    "source_url": "https://www.google.com/maps/place/Modern/data=!4m7!3m6!1s0x405d0b7fe51ee7f3:0x8a6618c25ed4ead9!8m2!3d41.9209905!4d42.0026703!16s%2Fg%2F11b6bmwn6m!19sChIJ8-ce5X8LXUAR2erUXsIYZoo?authuser=0&hl=tr&rclk=1",
    "website_url": "",
    "rating_text": "4,4",
    "stars": null,
    "number_of_reviews": null,
    "price_level": "",
    "open_hours": "",
    "extraction_timestamp": "2025-06-07T14:01:04.898Z",
    "source_name": "google",
    "source_query": "Irrigation Equipment",
    "source_country": "GE",
    "country": "Georgia",
    "state": "Guria",
    "city": "Ozurgeti"
  },
  {
    "source_id": "ChIJWUqOap8LXUARLlyz9KKTKZ0",
    "name": "მარკეტი \"თო-რე\"",
    "category": "მარკეტი \"თო-რე\"",
    "formatted_address": "3,5(15)",
    "phone_number": "",
    "source_url": "https://www.google.com/maps/place/%E1%83%9B%E1%83%90%E1%83%A0%E1%83%99%E1%83%94%E1%83%A2%E1%83%98+%22%E1%83%97%E1%83%9D-%E1%83%A0%E1%83%94%22/data=!4m7!3m6!1s0x405d0b9f6a8e4a59:0x9d2993a2f4b35c2e!8m2!3d41.9328347!4d41.9866925!16s%2Fg%2F11c57l9pnz!19sChIJWUqOap8LXUARLlyz9KKTKZ0?authuser=0&hl=tr&rclk=1",
    "website_url": "",
    "rating_text": "3,5",
    "stars": null,
    "number_of_reviews": null,
    "price_level": "",
    "open_hours": "",
    "extraction_timestamp": "2025-06-07T14:01:04.899Z",
    "source_name": "google",
    "source_query": "Irrigation Equipment",
    "source_country": "GE",
    "country": "Georgia",
    "state": "Guria",
    "city": "Ozurgeti"
  },
  {
    "source_id": "ChIJaW6RNmkLXUARbj2QcJS2vL4",
    "name": "ოზურგეთი",
    "category": "ოზურგეთი",
    "formatted_address": "4,9(15)",
    "phone_number": "",
    "source_url": "https://www.google.com/maps/place/%E1%83%9D%E1%83%96%E1%83%A3%E1%83%A0%E1%83%92%E1%83%94%E1%83%97%E1%83%98/data=!4m7!3m6!1s0x405d0b6936916e69:0xbebcb69470903d6e!8m2!3d41.9208048!4d41.9931328!16s%2Fg%2F11s56m7nhx!19sChIJaW6RNmkLXUARbj2QcJS2vL4?authuser=0&hl=tr&rclk=1",
    "website_url": "",
    "rating_text": "4,9",
    "stars": null,
    "number_of_reviews": null,
    "price_level": "",
    "open_hours": "",
    "extraction_timestamp": "2025-06-07T14:01:04.899Z",
    "source_name": "google",
    "source_query": "Irrigation Equipment",
    "source_country": "GE",
    "country": "Georgia",
    "state": "Guria",
    "city": "Ozurgeti"
  },
  {
    "source_id": "ChIJPz3f-JALXUARjkW5_EWkFC0",
    "name": "მაგნიტი Magniti",
    "category": "მაგნიტი Magniti",
    "formatted_address": "4,2(12)",
    "phone_number": "",
    "source_url": "https://www.google.com/maps/place/%E1%83%9B%E1%83%90%E1%83%92%E1%83%9C%E1%83%98%E1%83%A2%E1%83%98+Magniti/data=!4m7!3m6!1s0x405d0b90f8df3d3f:0x2d14a445fcb9458e!8m2!3d41.9219266!4d42.0021413!16s%2Fg%2F11qn96vr7q!19sChIJPz3f-JALXUARjkW5_EWkFC0?authuser=0&hl=tr&rclk=1",
    "website_url": "",
    "rating_text": "4,2",
    "stars": null,
    "number_of_reviews": null,
    "price_level": "",
    "open_hours": "",
    "extraction_timestamp": "2025-06-07T14:01:04.900Z",
    "source_name": "google",
    "source_query": "Irrigation Equipment",
    "source_country": "GE",
    "country": "Georgia",
    "state": "Guria",
    "city": "Ozurgeti"
  },
  {
    "source_id": "ChIJhfKome4NXUARnkznstlVPvs",
    "name": "ჯიბე ქეშ & ქერი",
    "category": "ჯიბე ქეშ & ქერი",
    "formatted_address": "4,5(78)",
    "phone_number": "",
    "source_url": "https://www.google.com/maps/place/%E1%83%AF%E1%83%98%E1%83%91%E1%83%94+%E1%83%A5%E1%83%94%E1%83%A8+%26+%E1%83%A5%E1%83%94%E1%83%A0%E1%83%98/data=!4m7!3m6!1s0x405d0dee99a8f285:0xfb3e55d9b2e74c9e!8m2!3d41.9179066!4d42.0008498!16s%2Fg%2F11j61swp91!19sChIJhfKome4NXUARnkznstlVPvs?authuser=0&hl=tr&rclk=1",
    "website_url": "",
    "rating_text": "4,5",
    "stars": null,
    "number_of_reviews": null,
    "price_level": "",
    "open_hours": "",
    "extraction_timestamp": "2025-06-07T14:01:04.900Z",
    "source_name": "google",
    "source_query": "Irrigation Equipment",
    "source_country": "GE",
    "country": "Georgia",
    "state": "Guria",
    "city": "Ozurgeti"
  },
  {
    "source_id": "ChIJq1P2ZH8LXUARVIcRHlCc5Zw",
    "name": "My Market",
    "category": "My Market",
    "formatted_address": "4,6(591)",
    "phone_number": "",
    "source_url": "https://www.google.com/maps/place/My+Market/data=!4m7!3m6!1s0x405d0b7f64f653ab:0x9ce59c501e118754!8m2!3d41.9225845!4d41.9998554!16s%2Fg%2F11bbydnv7s!19sChIJq1P2ZH8LXUARVIcRHlCc5Zw?authuser=0&hl=tr&rclk=1",
    "website_url": "",
    "rating_text": "4,6",
    "stars": null,
    "number_of_reviews": null,
    "price_level": "",
    "open_hours": "",
    "extraction_timestamp": "2025-06-07T14:01:04.901Z",
    "source_name": "google",
    "source_query": "Irrigation Equipment",
    "source_country": "GE",
    "country": "Georgia",
    "state": "Guria",
    "city": "Ozurgeti"
  },
  {
    "source_id": "ChIJL0-aVYELXUARmithiDmMoqk",
    "name": "Elit Electronics",
    "category": "Elit Electronics",
    "formatted_address": "4,3(63)",
    "phone_number": "+995322484848",
    "source_url": "https://www.google.com/maps/place/Elit+Electronics/data=!4m7!3m6!1s0x405d0b81559a4f2f:0xa9a28c3988612b9a!8m2!3d41.9226663!4d42.003251!16s%2Fg%2F11b6lnk_gl!19sChIJL0-aVYELXUARmithiDmMoqk?authuser=0&hl=tr&rclk=1",
    "website_url": "http://ee.ge/",
    "rating_text": "4,3",
    "stars": null,
    "number_of_reviews": null,
    "price_level": "",
    "open_hours": "",
    "extraction_timestamp": "2025-06-07T14:01:04.901Z",
    "source_name": "google",
    "source_query": "Irrigation Equipment",
    "source_country": "GE",
    "country": "Georgia",
    "state": "Guria",
    "city": "Ozurgeti"
  },
  {
    "source_id": "ChIJBVKtFIwLXUARKukpDk_2x7E",
    "name": "Coffee In Ozurgeti -",
    "category": "Coffee In Ozurgeti -",
    "formatted_address": "4,7(60) · ₾1–10",
    "phone_number": "",
    "source_url": "https://www.google.com/maps/place/Coffee+In+Ozurgeti+-/data=!4m7!3m6!1s0x405d0b8c14ad5205:0xb1c7f64f0e29e92a!8m2!3d41.9237608!4d42.0054164!16s%2Fg%2F11fm425h73!19sChIJBVKtFIwLXUARKukpDk_2x7E?authuser=0&hl=tr&rclk=1",
    "website_url": "",
    "rating_text": "4,7",
    "stars": null,
    "number_of_reviews": null,
    "price_level": "",
    "open_hours": "",
    "extraction_timestamp": "2025-06-07T14:01:04.902Z",
    "source_name": "google",
    "source_query": "Irrigation Equipment",
    "source_country": "GE",
    "country": "Georgia",
    "state": "Guria",
    "city": "Ozurgeti"
  },
  {
    "source_id": "ChIJHzxVX4ALXUARJE9GJ3OIBI4",
    "name": "ჭადრების ბაღი",
    "category": "ჭადრების ბაღი",
    "formatted_address": "4,5(26)",
    "phone_number": "",
    "source_url": "https://www.google.com/maps/place/%E1%83%AD%E1%83%90%E1%83%93%E1%83%A0%E1%83%94%E1%83%91%E1%83%98%E1%83%A1+%E1%83%91%E1%83%90%E1%83%A6%E1%83%98/data=!4m7!3m6!1s0x405d0b805f553c1f:0x8e04887327464f24!8m2!3d41.9234071!4d42.0048211!16s%2Fg%2F11d_ynh8tf!19sChIJHzxVX4ALXUARJE9GJ3OIBI4?authuser=0&hl=tr&rclk=1",
    "website_url": "",
    "rating_text": "4,5",
    "stars": null,
    "number_of_reviews": null,
    "price_level": "",
    "open_hours": "",
    "extraction_timestamp": "2025-06-07T14:01:04.902Z",
    "source_name": "google",
    "source_query": "Irrigation Equipment",
    "source_country": "GE",
    "country": "Georgia",
    "state": "Guria",
    "city": "Ozurgeti"
  },
  {
    "source_id": "ChIJ-QwF0VYLXUARvZTAJNCyd50",
    "name": "ლიბრე",
    "category": "ლიბრე",
    "formatted_address": "",
    "phone_number": "+995322303131",
    "source_url": "https://www.google.com/maps/place/%E1%83%9A%E1%83%98%E1%83%91%E1%83%A0%E1%83%94/data=!4m7!3m6!1s0x405d0b56d1050cf9:0x9d77b2d024c094bd!8m2!3d41.922272!4d42.003922!16s%2Fg%2F11xccq09wg!19sChIJ-QwF0VYLXUARvZTAJNCyd50?authuser=0&hl=tr&rclk=1",
    "website_url": "https://libre.ge/",
    "rating_text": "",
    "stars": null,
    "number_of_reviews": null,
    "price_level": "",
    "open_hours": "",
    "extraction_timestamp": "2025-06-07T14:01:04.910Z",
    "source_name": "google",
    "source_query": "Irrigation Equipment",
    "source_country": "GE",
    "country": "Georgia",
    "state": "Guria",
    "city": "Ozurgeti"
  },
  {
    "source_id": "ChIJbRu9OOsNXUAR-YrRcE6aCYg",
    "name": "Good Market",
    "category": "Good Market",
    "formatted_address": "4,8(65)",
    "phone_number": "+995551477933",
    "source_url": "https://www.google.com/maps/place/Good+Market/data=!4m7!3m6!1s0x405d0deb38bd1b6d:0x88099a4e70d18af9!8m2!3d41.929003!4d42.034756!16s%2Fg%2F11py9r61_2!19sChIJbRu9OOsNXUAR-YrRcE6aCYg?authuser=0&hl=tr&rclk=1",
    "website_url": "",
    "rating_text": "4,8",
    "stars": null,
    "number_of_reviews": null,
    "price_level": "",
    "open_hours": "",
    "extraction_timestamp": "2025-06-07T14:01:04.910Z",
    "source_name": "google",
    "source_query": "Irrigation Equipment",
    "source_country": "GE",
    "country": "Georgia",
    "state": "Guria",
    "city": "Ozurgeti"
  },
  {
    "source_id": "ChIJ8U_F5c0LXUARkYCVlGHCIzg",
    "name": "2 steps",
    "category": "2 steps",
    "formatted_address": "2 steps",
    "phone_number": "",
    "source_url": "https://www.google.com/maps/place/2+steps/data=!4m7!3m6!1s0x405d0bcde5c54ff1:0x3823c26194958091!8m2!3d41.9230241!4d42.0031034!16s%2Fg%2F11r6bfzcqv!19sChIJ8U_F5c0LXUARkYCVlGHCIzg?authuser=0&hl=tr&rclk=1",
    "website_url": "",
    "rating_text": "4,3",
    "stars": null,
    "number_of_reviews": null,
    "price_level": "",
    "open_hours": "",
    "extraction_timestamp": "2025-06-07T14:01:04.911Z",
    "source_name": "google",
    "source_query": "Irrigation Equipment",
    "source_country": "GE",
    "country": "Georgia",
    "state": "Guria",
    "city": "Ozurgeti"
  },
  {
    "source_id": "ChIJvbo78X8MXUARVe-_sXh3FTk",
    "name": "PSP Pharmacy",
    "category": "PSP Pharmacy",
    "formatted_address": "5,0(1)",
    "phone_number": "+995322402020",
    "source_url": "https://www.google.com/maps/place/PSP+Pharmacy/data=!4m7!3m6!1s0x405d0c7ff13bbabd:0x39157778b1bfef55!8m2!3d41.9214868!4d42.0050843!16s%2Fg%2F11g9qcm5kn!19sChIJvbo78X8MXUARVe-_sXh3FTk?authuser=0&hl=tr&rclk=1",
    "website_url": "http://psp.ge/",
    "rating_text": "5,0",
    "stars": null,
    "number_of_reviews": null,
    "price_level": "",
    "open_hours": "",
    "extraction_timestamp": "2025-06-07T14:01:04.911Z",
    "source_name": "google",
    "source_query": "Irrigation Equipment",
    "source_country": "GE",
    "country": "Georgia",
    "state": "Guria",
    "city": "Ozurgeti"
  },
  {
    "source_id": "ChIJG0vA-DULXUAR3p2UtzRynqk",
    "name": "Nikora Supermarket",
    "category": "Nikora Supermarket",
    "formatted_address": "5,0(1)",
    "phone_number": "+995322303333",
    "source_url": "https://www.google.com/maps/place/Nikora+Supermarket/data=!4m7!3m6!1s0x405d0b35f8c04b1b:0xa99e7234b7949dde!8m2!3d41.922249!4d41.999246!16s%2Fg%2F11vs8v7_mz!19sChIJG0vA-DULXUAR3p2UtzRynqk?authuser=0&hl=tr&rclk=1",
    "website_url": "https://nikorasupermarket.ge/",
    "rating_text": "5,0",
    "stars": null,
    "number_of_reviews": null,
    "price_level": "",
    "open_hours": "",
    "extraction_timestamp": "2025-06-07T14:01:04.912Z",
    "source_name": "google",
    "source_query": "Irrigation Equipment",
    "source_country": "GE",
    "country": "Georgia",
    "state": "Guria",
    "city": "Ozurgeti"
  },
  {
    "source_id": "ChIJgVyvBBgNREARfeNzdmg1bSY",
    "name": "Proagro LLC, Georgia",
    "category": "Proagro LLC, Georgia",
    "formatted_address": "Proagro LLC, Georgia",
    "phone_number": "+995599991151",
    "source_url": "https://www.google.com/maps/place/Proagro+LLC,+Georgia/data=!4m7!3m6!1s0x40440d1804af5c81:0x266d35687673e37d!8m2!3d41.712974!4d44.7477435!16s%2Fg%2F11jyyybt_h!19sChIJgVyvBBgNREARfeNzdmg1bSY?authuser=0&hl=tr&rclk=1",
    "website_url": "http://www.proagro.online/",
    "rating_text": "3,7",
    "stars": null,
    "number_of_reviews": null,
    "price_level": "",
    "open_hours": "",
    "extraction_timestamp": "2025-06-07T14:01:04.912Z",
    "source_name": "google",
    "source_query": "Irrigation Equipment",
    "source_country": "GE",
    "country": "Georgia",
    "state": "Guria",
    "city": "Ozurgeti"
  },
  {
    "source_id": "ChIJPfpR1NgLXUARgnSGj1PjY7Y",
    "name": "მარკეტი ვაგუ",
    "category": "მარკეტი ვაგუ",
    "formatted_address": "4,4(21)",
    "phone_number": "",
    "source_url": "https://www.google.com/maps/place/%E1%83%9B%E1%83%90%E1%83%A0%E1%83%99%E1%83%94%E1%83%A2%E1%83%98+%E1%83%95%E1%83%90%E1%83%92%E1%83%A3/data=!4m7!3m6!1s0x405d0bd8d451fa3d:0xb663e3538f867482!8m2!3d41.9385294!4d41.9784674!16s%2Fg%2F11fqpwcjlg!19sChIJPfpR1NgLXUARgnSGj1PjY7Y?authuser=0&hl=tr&rclk=1",
    "website_url": "",
    "rating_text": "4,4",
    "stars": null,
    "number_of_reviews": null,
    "price_level": "",
    "open_hours": "",
    "extraction_timestamp": "2025-06-07T14:01:04.912Z",
    "source_name": "google",
    "source_query": "Irrigation Equipment",
    "source_country": "GE",
    "country": "Georgia",
    "state": "Guria",
    "city": "Ozurgeti"
  },
  {
    "source_id": "ChIJCzNfyIYLXUARlQ--efZd-cs",
    "name": "ჭანუყვაძეების Marketi ნეპტუნი",
    "category": "ჭანუყვაძეების Marketi ნეპტუნი",
    "formatted_address": "4,8(73)",
    "phone_number": "",
    "source_url": "https://www.google.com/maps/place/%E1%83%AD%E1%83%90%E1%83%9C%E1%83%A3%E1%83%A7%E1%83%95%E1%83%90%E1%83%AB%E1%83%94%E1%83%94%E1%83%91%E1%83%98%E1%83%A1+Marketi+%E1%83%9C%E1%83%94%E1%83%9E%E1%83%A2%E1%83%A3%E1%83%9C%E1%83%98/data=!4m7!3m6!1s0x405d0b86c85f330b:0xcbf95df679be0f95!8m2!3d41.926102!4d42.0056766!16s%2Fg%2F11c2pkthr1!19sChIJCzNfyIYLXUARlQ--efZd-cs?authuser=0&hl=tr&rclk=1",
    "website_url": "",
    "rating_text": "4,8",
    "stars": null,
    "number_of_reviews": null,
    "price_level": "",
    "open_hours": "",
    "extraction_timestamp": "2025-06-07T14:01:04.913Z",
    "source_name": "google",
    "source_query": "Irrigation Equipment",
    "source_country": "GE",
    "country": "Georgia",
    "state": "Guria",
    "city": "Ozurgeti"
  },
  {
    "source_id": "ChIJGbf-5IgLXUARf3kCNFXUYrc",
    "name": "Aversi Ozurgeti 3",
    "category": "Aversi Ozurgeti 3",
    "formatted_address": "1,0(1)",
    "phone_number": "+995496276867",
    "source_url": "https://www.google.com/maps/place/Aversi+Ozurgeti+3/data=!4m7!3m6!1s0x405d0b88e4feb719:0xb762d4553402797f!8m2!3d41.9219544!4d42.0015642!16s%2Fg%2F11fmt2473s!19sChIJGbf-5IgLXUARf3kCNFXUYrc?authuser=0&hl=tr&rclk=1",
    "website_url": "https://www.aversi.ge/ka/apothecas/171/",
    "rating_text": "1,0",
    "stars": null,
    "number_of_reviews": null,
    "price_level": "",
    "open_hours": "",
    "extraction_timestamp": "2025-06-07T14:01:04.913Z",
    "source_name": "google",
    "source_query": "Irrigation Equipment",
    "source_country": "GE",
    "country": "Georgia",
    "state": "Guria",
    "city": "Ozurgeti"
  },
  {
    "source_id": "ChIJX6FK56QRREARYN8v2gebtWE",
    "name": "Shimge Water Pump Georgia",
    "category": "Shimge Water Pump Georgia",
    "formatted_address": "5,0(1)",
    "phone_number": "+995595797104",
    "source_url": "https://www.google.com/maps/place/Shimge+Water+Pump+Georgia/data=!4m7!3m6!1s0x404411a4e74aa15f:0x61b59b07da2fdf60!8m2!3d41.693303!4d45.0003375!16s%2Fg%2F11f7shlq75!19sChIJX6FK56QRREARYN8v2gebtWE?authuser=0&hl=tr&rclk=1",
    "website_url": "http://facebook.com/shimgegeorgia/",
    "rating_text": "5,0",
    "stars": null,
    "number_of_reviews": null,
    "price_level": "",
    "open_hours": "",
    "extraction_timestamp": "2025-06-07T15:14:56.978Z",
    "source_name": "google",
    "source_query": "Irrigation Equipment",
    "source_country": "GE",
    "country": "Georgia",
    "state": "Kvemo Kartli",
    "city": "Didi Lilo"
  },
  {
    "source_id": "ChIJa_e9WgBtREAR4uEZ4KOYLB4",
    "name": "LCC Water Technologies",
    "category": "LCC Water Technologies",
    "formatted_address": "5,0(1)",
    "phone_number": "+995595890770",
    "source_url": "https://www.google.com/maps/place/LCC+Water+Technologies/data=!4m7!3m6!1s0x40446d005abdf76b:0x1e2c98a3e019e1e2!8m2!3d41.7641193!4d44.78055!16s%2Fg%2F11lcgsvg8v!19sChIJa_e9WgBtREAR4uEZ4KOYLB4?authuser=0&hl=tr&rclk=1",
    "website_url": "http://www.water-tech.ge/",
    "rating_text": "5,0",
    "stars": null,
    "number_of_reviews": null,
    "price_level": "",
    "open_hours": "",
    "extraction_timestamp": "2025-06-07T15:14:56.979Z",
    "source_name": "google",
    "source_query": "Irrigation Equipment",
    "source_country": "GE",
    "country": "Georgia",
    "state": "Kvemo Kartli",
    "city": "Didi Lilo"
  },
  {
    "source_id": "ChIJaWTbpWIPREAR45JMg8eqmOk",
    "name": "Turko",
    "category": "Turko",
    "formatted_address": "4,8(15)",
    "phone_number": "+995551648800",
    "source_url": "https://www.google.com/maps/place/Turko/data=!4m7!3m6!1s0x40440f62a5db6469:0xe998aac7834c92e3!8m2!3d41.6687209!4d44.8845735!16s%2Fg%2F11h6r1cvf1!19sChIJaWTbpWIPREAR45JMg8eqmOk?authuser=0&hl=tr&rclk=1",
    "website_url": "http://www.turko.ge/",
    "rating_text": "4,8",
    "stars": null,
    "number_of_reviews": null,
    "price_level": "",
    "open_hours": "",
    "extraction_timestamp": "2025-06-07T15:14:56.979Z",
    "source_name": "google",
    "source_query": "Irrigation Equipment",
    "source_country": "GE",
    "country": "Georgia",
    "state": "Kvemo Kartli",
    "city": "Didi Lilo"
  },
  {
    "source_id": "ChIJgWMjlHIOREAR3EkifjlPjv0",
    "name": "Gardi",
    "category": "Gardi",
    "formatted_address": "5,0(4)",
    "phone_number": "+995322424600",
    "source_url": "https://www.google.com/maps/place/Gardi/data=!4m7!3m6!1s0x40440e7294236381:0xfd8e4f397e2249dc!8m2!3d41.6960247!4d44.9519235!16s%2Fg%2F11dyb9qvhw!19sChIJgWMjlHIOREAR3EkifjlPjv0?authuser=0&hl=tr&rclk=1",
    "website_url": "http://www.gardis.ge/",
    "rating_text": "5,0",
    "stars": null,
    "number_of_reviews": null,
    "price_level": "",
    "open_hours": "",
    "extraction_timestamp": "2025-06-07T15:14:56.990Z",
    "source_name": "google",
    "source_query": "Irrigation Equipment",
    "source_country": "GE",
    "country": "Georgia",
    "state": "Kvemo Kartli",
    "city": "Didi Lilo"
  },
  {
    "source_id": "ChIJSa9TvLsRREARdKVcNqF3v1I",
    "name": "HydroLine - ჰიდროლაინი",
    "category": "HydroLine - ჰიდროლაინი",
    "formatted_address": "Sulama Ekipmanları Tedarikçisi · ლოჭინის ხიდის მიმდებარედ, Kakheti HwyKapalı ⋅ Açılış zamanı: Pzt 09:30 · +995 595 39 00 06",
    "phone_number": "+995595390006",
    "source_url": "https://www.google.com/maps/place/HydroLine+-+%E1%83%B0%E1%83%98%E1%83%93%E1%83%A0%E1%83%9D%E1%83%9A%E1%83%90%E1%83%98%E1%83%9C%E1%83%98/data=!4m7!3m6!1s0x404411bbbc53af49:0x52bf77a1365ca574!8m2!3d41.6894486!4d45.0112949!16s%2Fg%2F11x2srbq32!19sChIJSa9TvLsRREARdKVcNqF3v1I?authuser=0&hl=tr&rclk=1",
    "website_url": "https://www.hydroline.ge/",
    "rating_text": "",
    "stars": null,
    "number_of_reviews": null,
    "price_level": "",
    "open_hours": "",
    "extraction_timestamp": "2025-06-07T15:14:56.991Z",
    "source_name": "google",
    "source_query": "Irrigation Equipment",
    "source_country": "GE",
    "country": "Georgia",
    "state": "Kvemo Kartli",
    "city": "Didi Lilo"
  },
  {
    "source_id": "ChIJb6M3SFVzREARlHBJkz3apvc",
    "name": "Agrow",
    "category": "Agrow",
    "formatted_address": "5,0(4)",
    "phone_number": "+995558797722",
    "source_url": "https://www.google.com/maps/place/Agrow/data=!4m7!3m6!1s0x404473554837a36f:0xf7a6da3d93497094!8m2!3d41.7332144!4d44.7892222!16s%2Fg%2F11qb3j0ry8!19sChIJb6M3SFVzREARlHBJkz3apvc?authuser=0&hl=tr&rclk=1",
    "website_url": "http://agrow.ge/",
    "rating_text": "5,0",
    "stars": null,
    "number_of_reviews": null,
    "price_level": "",
    "open_hours": "",
    "extraction_timestamp": "2025-06-07T15:14:56.991Z",
    "source_name": "google",
    "source_query": "Irrigation Equipment",
    "source_country": "GE",
    "country": "Georgia",
    "state": "Kvemo Kartli",
    "city": "Didi Lilo"
  },
  {
    "source_id": "ChIJ56VKvQgRREARe92l7yL2aY4",
    "name": "GARDI SYSTEMS",
    "category": "GARDI SYSTEMS",
    "formatted_address": "",
    "phone_number": "+995322424600",
    "source_url": "https://www.google.com/maps/place/GARDI+SYSTEMS/data=!4m7!3m6!1s0x40441108bd4aa5e7:0x8e69f622efa5dd7b!8m2!3d41.6922508!4d44.9824749!16s%2Fg%2F11trj9cyth!19sChIJ56VKvQgRREARe92l7yL2aY4?authuser=0&hl=tr&rclk=1",
    "website_url": "http://gardis.ge/",
    "rating_text": "",
    "stars": null,
    "number_of_reviews": null,
    "price_level": "",
    "open_hours": "",
    "extraction_timestamp": "2025-06-07T15:14:56.992Z",
    "source_name": "google",
    "source_query": "Irrigation Equipment",
    "source_country": "GE",
    "country": "Georgia",
    "state": "Kvemo Kartli",
    "city": "Didi Lilo"
  },
  {
    "source_id": "ChIJPxeCtdpzREARAqxYNKKp5HI",
    "name": "შპს ტუმბო Tumbo LLC",
    "category": "შპს ტუმბო Tumbo LLC",
    "formatted_address": "4,8(14)",
    "phone_number": "+995322437437",
    "source_url": "https://www.google.com/maps/place/%E1%83%A8%E1%83%9E%E1%83%A1+%E1%83%A2%E1%83%A3%E1%83%9B%E1%83%91%E1%83%9D+Tumbo+LLC/data=!4m7!3m6!1s0x404473dab582173f:0x72e4a9a23458ac02!8m2!3d41.7593013!4d44.7804116!16s%2Fg%2F11kyw_h2b_!19sChIJPxeCtdpzREARAqxYNKKp5HI?authuser=0&hl=tr&rclk=1",
    "website_url": "http://www.tumbo.ge/",
    "rating_text": "4,8",
    "stars": null,
    "number_of_reviews": null,
    "price_level": "",
    "open_hours": "",
    "extraction_timestamp": "2025-06-07T15:14:56.993Z",
    "source_name": "google",
    "source_query": "Irrigation Equipment",
    "source_country": "GE",
    "country": "Georgia",
    "state": "Kvemo Kartli",
    "city": "Didi Lilo"
  },
  {
    "source_id": "ChIJ59vwKJF0REARPlC4SbtpDVY",
    "name": "Netafim",
    "category": "Netafim",
    "formatted_address": "Sulama Ekipmanları Tedarikçisi · 23 Lado Asatiani St+995 32 298 31 22",
    "phone_number": "+995322983122",
    "source_url": "https://www.google.com/maps/place/Netafim/data=!4m7!3m6!1s0x4044749128f0dbe7:0x560d69bb49b8503e!8m2!3d41.6892018!4d44.8017637!16s%2Fg%2F11hf047rr1!19sChIJ59vwKJF0REARPlC4SbtpDVY?authuser=0&hl=tr&rclk=1",
    "website_url": "",
    "rating_text": "",
    "stars": null,
    "number_of_reviews": null,
    "price_level": "",
    "open_hours": "",
    "extraction_timestamp": "2025-06-07T15:14:56.993Z",
    "source_name": "google",
    "source_query": "Irrigation Equipment",
    "source_country": "GE",
    "country": "Georgia",
    "state": "Kvemo Kartli",
    "city": "Didi Lilo"
  },
  {
    "source_id": "ChIJ_____876Q0ARTxjlGXLPOAk",
    "name": "SPS AGROPLAST",
    "category": "SPS AGROPLAST",
    "formatted_address": "5,0(1)",
    "phone_number": "+995514111119",
    "source_url": "https://www.google.com/maps/place/SPS+AGROPLAST/data=!4m7!3m6!1s0x4043faceffffffff:0x938cf7219e5184f!8m2!3d41.4686607!4d44.6937383!16s%2Fg%2F11f524wch5!19sChIJ_____876Q0ARTxjlGXLPOAk?authuser=0&hl=tr&rclk=1",
    "website_url": "",
    "rating_text": "5,0",
    "stars": null,
    "number_of_reviews": null,
    "price_level": "",
    "open_hours": "",
    "extraction_timestamp": "2025-06-07T15:15:33.100Z",
    "source_name": "google",
    "source_query": "Irrigation Equipment",
    "source_country": "GE",
    "country": "Georgia",
    "state": "Kvemo Kartli",
    "city": "Marneulis Munitsip’alit’et’i"
  },
  {
    "source_id": "ChIJYSRXs4MJREAR58-5dUMvUpk",
    "name": "Agromarket",
    "category": "Agromarket",
    "formatted_address": "5,0(1)",
    "phone_number": "+995593211211",
    "source_url": "https://www.google.com/maps/place/Agromarket/data=!4m7!3m6!1s0x40440983b3572461:0x99522f4375b9cfe7!8m2!3d41.591999!4d44.7799375!16s%2Fg%2F11rfb0jr6k!19sChIJYSRXs4MJREAR58-5dUMvUpk?authuser=0&hl=tr&rclk=1",
    "website_url": "http://www.tarsa.ge/",
    "rating_text": "5,0",
    "stars": null,
    "number_of_reviews": null,
    "price_level": "",
    "open_hours": "",
    "extraction_timestamp": "2025-06-07T15:15:33.101Z",
    "source_name": "google",
    "source_query": "Irrigation Equipment",
    "source_country": "GE",
    "country": "Georgia",
    "state": "Kvemo Kartli",
    "city": "Marneulis Munitsip’alit’et’i"
  },
  {
    "source_id": "ChIJt_lqdLX5Q0ARXM1Yu5VeQUs",
    "name": "Süleymanlı Agro Georgia",
    "category": "Süleymanlı Agro Georgia",
    "formatted_address": "5,0(1)",
    "phone_number": "+995558939031",
    "source_url": "https://www.google.com/maps/place/S%C3%BCleymanl%C4%B1+Agro+Georgia/data=!4m7!3m6!1s0x4043f9b5746af9b7:0x4b415e95bb58cd5c!8m2!3d41.5099122!4d44.7937043!16s%2Fg%2F11hz7fbhq4!19sChIJt_lqdLX5Q0ARXM1Yu5VeQUs?authuser=0&hl=tr&rclk=1",
    "website_url": "http://www.suleymanliagro.com/",
    "rating_text": "5,0",
    "stars": null,
    "number_of_reviews": null,
    "price_level": "",
    "open_hours": "",
    "extraction_timestamp": "2025-06-07T15:15:33.103Z",
    "source_name": "google",
    "source_query": "Irrigation Equipment",
    "source_country": "GE",
    "country": "Georgia",
    "state": "Kvemo Kartli",
    "city": "Marneulis Munitsip’alit’et’i"
  },
  {
    "source_id": "ChIJWU7YjTD7Q0ARyOgzpvHbf8s",
    "name": "Alim Market",
    "category": "Alim Market",
    "formatted_address": "4,5(71)",
    "phone_number": "",
    "source_url": "https://www.google.com/maps/place/Alim+Market/data=!4m7!3m6!1s0x4043fb308dd84e59:0xcb7fdbf1a633e8c8!8m2!3d41.4796399!4d44.7750601!16s%2Fg%2F11hzpyd72_!19sChIJWU7YjTD7Q0ARyOgzpvHbf8s?authuser=0&hl=tr&rclk=1",
    "website_url": "",
    "rating_text": "4,5",
    "stars": null,
    "number_of_reviews": null,
    "price_level": "",
    "open_hours": "",
    "extraction_timestamp": "2025-06-07T15:15:33.105Z",
    "source_name": "google",
    "source_query": "Irrigation Equipment",
    "source_country": "GE",
    "country": "Georgia",
    "state": "Kvemo Kartli",
    "city": "Marneulis Munitsip’alit’et’i"
  },
  {
    "source_id": "ChIJm4xjc8j5Q0ARZqhAKRsyFl0",
    "name": "ნოვა • NOVA (მარნეული)",
    "category": "ნოვა • NOVA (მარნეული)",
    "formatted_address": "4,4(68)",
    "phone_number": "+995322003333",
    "source_url": "https://www.google.com/maps/place/%E1%83%9C%E1%83%9D%E1%83%95%E1%83%90+%E2%80%A2+NOVA+%28%E1%83%9B%E1%83%90%E1%83%A0%E1%83%9C%E1%83%94%E1%83%A3%E1%83%9A%E1%83%98%29/data=!4m7!3m6!1s0x4043f9c873638c9b:0x5d16321b2940a866!8m2!3d41.5079918!4d44.7949049!16s%2Fg%2F11t0q5prjk!19sChIJm4xjc8j5Q0ARZqhAKRsyFl0?authuser=0&hl=tr&rclk=1",
    "website_url": "http://www.nova.ge/",
    "rating_text": "4,4",
    "stars": null,
    "number_of_reviews": null,
    "price_level": "",
    "open_hours": "",
    "extraction_timestamp": "2025-06-07T15:15:33.109Z",
    "source_name": "google",
    "source_query": "Irrigation Equipment",
    "source_country": "GE",
    "country": "Georgia",
    "state": "Kvemo Kartli",
    "city": "Marneulis Munitsip’alit’et’i"
  },
  {
    "source_id": "ChIJ85H7ekv9Q0ARkydMkivvuOQ",
    "name": "Sunar",
    "category": "Sunar",
    "formatted_address": "4,5(64)",
    "phone_number": "",
    "source_url": "https://www.google.com/maps/place/Sunar/data=!4m7!3m6!1s0x4043fd4b7afb91f3:0xe4b8ef2b924c2793!8m2!3d41.4540752!4d44.8121336!16s%2Fg%2F11h5vm0wfk!19sChIJ85H7ekv9Q0ARkydMkivvuOQ?authuser=0&hl=tr&rclk=1",
    "website_url": "",
    "rating_text": "4,5",
    "stars": null,
    "number_of_reviews": null,
    "price_level": "",
    "open_hours": "",
    "extraction_timestamp": "2025-06-07T15:15:33.109Z",
    "source_name": "google",
    "source_query": "Irrigation Equipment",
    "source_country": "GE",
    "country": "Georgia",
    "state": "Kvemo Kartli",
    "city": "Marneulis Munitsip’alit’et’i"
  },
  {
    "source_id": "ChIJtaFBYlURREARgnwAJwWiu08",
    "name": "MYSOIL.GE",
    "category": "MYSOIL.GE",
    "formatted_address": "5,0(10)",
    "phone_number": "+995593538983",
    "source_url": "https://www.google.com/maps/place/MYSOIL.GE/data=!4m7!3m6!1s0x404411556241a1b5:0x4fbba20527007c82!8m2!3d41.7168843!4d44.9857315!16s%2Fg%2F11sdqrpf9c!19sChIJtaFBYlURREARgnwAJwWiu08?authuser=0&hl=tr&rclk=1",
    "website_url": "http://mysoil.ge/",
    "rating_text": "5,0",
    "stars": null,
    "number_of_reviews": null,
    "price_level": "",
    "open_hours": "",
    "extraction_timestamp": "2025-06-07T15:15:33.111Z",
    "source_name": "google",
    "source_query": "Irrigation Equipment",
    "source_country": "GE",
    "country": "Georgia",
    "state": "Kvemo Kartli",
    "city": "Marneulis Munitsip’alit’et’i"
  },
  {
    "source_id": "ChIJsbvgUGr9Q0ARpSXtCKrzKzA",
    "name": "GDM Motors LLC Marneuli",
    "category": "GDM Motors LLC Marneuli",
    "formatted_address": "4,8(21)",
    "phone_number": "+995595057017",
    "source_url": "https://www.google.com/maps/place/GDM+Motors+LLC+Marneuli/data=!4m7!3m6!1s0x4043fd6a50e0bbb1:0x302bf3aa08ed25a5!8m2!3d41.4605059!4d44.8108058!16s%2Fg%2F11fjt04nn7!19sChIJsbvgUGr9Q0ARpSXtCKrzKzA?authuser=0&hl=tr&rclk=1",
    "website_url": "https://www.facebook.com/GDMmotorsllc",
    "rating_text": "4,8",
    "stars": null,
    "number_of_reviews": null,
    "price_level": "",
    "open_hours": "",
    "extraction_timestamp": "2025-06-07T15:15:33.114Z",
    "source_name": "google",
    "source_query": "Irrigation Equipment",
    "source_country": "GE",
    "country": "Georgia",
    "state": "Kvemo Kartli",
    "city": "Marneulis Munitsip’alit’et’i"
  },
  {
    "source_id": "ChIJpXI3-8NyREARVphtt2Rd0Uc",
    "name": "Mzachitili tbilisi",
    "category": "Mzachitili tbilisi",
    "formatted_address": "2,0(2)",
    "phone_number": "+995577680088",
    "source_url": "https://www.google.com/maps/place/Mzachitili+tbilisi/data=!4m7!3m6!1s0x404472c3fb3772a5:0x47d15d64b76d9856!8m2!3d41.4179651!4d44.947113!16s%2Fg%2F11gfnvqv2t!19sChIJpXI3-8NyREARVphtt2Rd0Uc?authuser=0&hl=tr&rclk=1",
    "website_url": "http://www.mzachitili.com/",
    "rating_text": "2,0",
    "stars": null,
    "number_of_reviews": null,
    "price_level": "",
    "open_hours": "",
    "extraction_timestamp": "2025-06-07T15:15:33.116Z",
    "source_name": "google",
    "source_query": "Irrigation Equipment",
    "source_country": "GE",
    "country": "Georgia",
    "state": "Kvemo Kartli",
    "city": "Marneulis Munitsip’alit’et’i"
  },
  {
    "source_id": "ChIJuVjcD8QNREARhrY0aDm3YHY",
    "name": "გრადუსი•Gradusi",
    "category": "გრადუსი•Gradusi",
    "formatted_address": "5,0(16)",
    "phone_number": "+995593393938",
    "source_url": "https://www.google.com/maps/place/%E1%83%92%E1%83%A0%E1%83%90%E1%83%93%E1%83%A3%E1%83%A1%E1%83%98%E2%80%A2Gradusi/data=!4m7!3m6!1s0x40440dc40fdc58b9:0x7660b7396834b686!8m2!3d41.6876137!4d44.8703405!16s%2Fg%2F11ggvyjp8b!19sChIJuVjcD8QNREARhrY0aDm3YHY?authuser=0&hl=tr&rclk=1",
    "website_url": "http://gradusiheating.ge/",
    "rating_text": "5,0",
    "stars": null,
    "number_of_reviews": null,
    "price_level": "",
    "open_hours": "",
    "extraction_timestamp": "2025-06-07T15:15:33.117Z",
    "source_name": "google",
    "source_query": "Irrigation Equipment",
    "source_country": "GE",
    "country": "Georgia",
    "state": "Kvemo Kartli",
    "city": "Marneulis Munitsip’alit’et’i"
  },
  {
    "source_id": "ChIJ56T6JQkOREARmHSnGCiXZ34",
    "name": "შპს ქართული მილი GEORGIAN PIPE LTD",
    "category": "შპს ქართული მილი GEORGIAN PIPE LTD",
    "formatted_address": "4,9(15)",
    "phone_number": "+995551030303",
    "source_url": "https://www.google.com/maps/place/%E1%83%A8%E1%83%9E%E1%83%A1+%E1%83%A5%E1%83%90%E1%83%A0%E1%83%97%E1%83%A3%E1%83%9A%E1%83%98+%E1%83%9B%E1%83%98%E1%83%9A%E1%83%98+GEORGIAN+PIPE+LTD/data=!4m7!3m6!1s0x40440e0925faa4e7:0x7e67972818a77498!8m2!3d41.6843906!4d44.9038368!16s%2Fg%2F11cs1wqxl1!19sChIJ56T6JQkOREARmHSnGCiXZ34?authuser=0&hl=tr&rclk=1",
    "website_url": "http://www.geopipe.ge/",
    "rating_text": "4,9",
    "stars": null,
    "number_of_reviews": null,
    "price_level": "",
    "open_hours": "",
    "extraction_timestamp": "2025-06-07T15:15:33.118Z",
    "source_name": "google",
    "source_query": "Irrigation Equipment",
    "source_country": "GE",
    "country": "Georgia",
    "state": "Kvemo Kartli",
    "city": "Marneulis Munitsip’alit’et’i"
  },
  {
    "source_id": "ChIJWSisnof9Q0AROyjwG9gxGCA",
    "name": "Auto Service Kurban.",
    "category": "Auto Service Kurban.",
    "formatted_address": "5,0(16)",
    "phone_number": "+995599148017",
    "source_url": "https://www.google.com/maps/place/Auto+Service+Kurban./data=!4m7!3m6!1s0x4043fd879eac2859:0x201831d81bf0283b!8m2!3d41.4653281!4d44.830499!16s%2Fg%2F11fnqcnhlh!19sChIJWSisnof9Q0AROyjwG9gxGCA?authuser=0&hl=tr&rclk=1",
    "website_url": "https://www.tiktok.com/@emilmamedov1978_?_t=8pKcaXaLhOK&_r=1",
    "rating_text": "5,0",
    "stars": null,
    "number_of_reviews": null,
    "price_level": "",
    "open_hours": "",
    "extraction_timestamp": "2025-06-07T15:15:33.120Z",
    "source_name": "google",
    "source_query": "Irrigation Equipment",
    "source_country": "GE",
    "country": "Georgia",
    "state": "Kvemo Kartli",
    "city": "Marneulis Munitsip’alit’et’i"
  },
  {
    "source_id": "ChIJiQelPmz7Q0ARjXXmwwLbeTU",
    "name": "Mm market",
    "category": "Mm market",
    "formatted_address": "4,8(30)",
    "phone_number": "",
    "source_url": "https://www.google.com/maps/place/Mm+market/data=!4m7!3m6!1s0x4043fb6c3ea50789:0x3579db02c3e6758d!8m2!3d41.4828193!4d44.7907042!16s%2Fg%2F11s57g7vxp!19sChIJiQelPmz7Q0ARjXXmwwLbeTU?authuser=0&hl=tr&rclk=1",
    "website_url": "",
    "rating_text": "4,8",
    "stars": null,
    "number_of_reviews": null,
    "price_level": "",
    "open_hours": "",
    "extraction_timestamp": "2025-06-07T15:15:33.120Z",
    "source_name": "google",
    "source_query": "Irrigation Equipment",
    "source_country": "GE",
    "country": "Georgia",
    "state": "Kvemo Kartli",
    "city": "Marneulis Munitsip’alit’et’i"
  },
  {
    "source_id": "ChIJ2XFLKeX7Q0ARq8xpqeL3uO8",
    "name": "Marneuli Bazarı",
    "category": "Marneuli Bazarı",
    "formatted_address": "3,9(1.552)",
    "phone_number": "",
    "source_url": "https://www.google.com/maps/place/Marneuli+Bazar%C4%B1/data=!4m7!3m6!1s0x4043fbe5294b71d9:0xefb8f7e2a969ccab!8m2!3d41.4810319!4d44.8084738!16s%2Fg%2F11c6rrxgjb!19sChIJ2XFLKeX7Q0ARq8xpqeL3uO8?authuser=0&hl=tr&rclk=1",
    "website_url": "",
    "rating_text": "3,9",
    "stars": null,
    "number_of_reviews": null,
    "price_level": "",
    "open_hours": "",
    "extraction_timestamp": "2025-06-07T15:15:33.122Z",
    "source_name": "google",
    "source_query": "Irrigation Equipment",
    "source_country": "GE",
    "country": "Georgia",
    "state": "Kvemo Kartli",
    "city": "Marneulis Munitsip’alit’et’i"
  },
  {
    "source_id": "ChIJQ7SM48NyREARDx_B2eRs2AU",
    "name": "wgtechno water and gas technologies ltd",
    "category": "wgtechno water and gas technologies ltd",
    "formatted_address": "4,3(61)",
    "phone_number": "+995322309890",
    "source_url": "https://www.google.com/maps/place/wgtechno+water+and+gas+technologies+ltd/data=!4m7!3m6!1s0x404472c3e38cb443:0x5d86ce4d9c11f0f!8m2!3d41.7330554!4d44.7883981!16s%2Fg%2F11c3yshlcd!19sChIJQ7SM48NyREARDx_B2eRs2AU?authuser=0&hl=tr&rclk=1",
    "website_url": "http://www.wgtechno.com/",
    "rating_text": "4,3",
    "stars": null,
    "number_of_reviews": null,
    "price_level": "",
    "open_hours": "",
    "extraction_timestamp": "2025-06-07T15:15:41.815Z",
    "source_name": "google",
    "source_query": "Irrigation Equipment",
    "source_country": "GE",
    "country": "Georgia",
    "state": "Kvemo Kartli",
    "city": "T’et’ri Tsqaro"
  },
  {
    "source_id": "ChIJSUZUDLrObW0RemVwzs8fTNg",
    "name": "greenvalley",
    "category": "greenvalley",
    "formatted_address": "",
    "phone_number": "+995595766655",
    "source_url": "https://www.google.com/maps/place/greenvalley/data=!4m7!3m6!1s0x6d6dceba0c544649:0xd84c1fcfce70657a!8m2!3d42.3208914!4d43.3576595!16s%2Fg%2F11rcqv7ykt!19sChIJSUZUDLrObW0RemVwzs8fTNg?authuser=0&hl=tr&rclk=1",
    "website_url": "",
    "rating_text": "",
    "stars": null,
    "number_of_reviews": null,
    "price_level": "",
    "open_hours": "",
    "extraction_timestamp": "2025-06-07T15:15:41.817Z",
    "source_name": "google",
    "source_query": "Irrigation Equipment",
    "source_country": "GE",
    "country": "Georgia",
    "state": "Kvemo Kartli",
    "city": "T’et’ri Tsqaro"
  },
  {
    "source_id": "ChIJ3dkmPJdzREARyuUU8v3PWbk",
    "name": "GMS Group • სარწყავი სისტემები",
    "category": "GMS Group • სარწყავი სისტემები",
    "formatted_address": "",
    "phone_number": "+995322309890",
    "source_url": "https://www.google.com/maps/place/GMS+Group+%E2%80%A2+%E1%83%A1%E1%83%90%E1%83%A0%E1%83%AC%E1%83%A7%E1%83%90%E1%83%95%E1%83%98+%E1%83%A1%E1%83%98%E1%83%A1%E1%83%A2%E1%83%94%E1%83%9B%E1%83%94%E1%83%91%E1%83%98/data=!4m7!3m6!1s0x404473973c26d9dd:0xb959cffdf214e5ca!8m2!3d41.734152!4d44.7876293!16s%2Fg%2F11xf076bxb!19sChIJ3dkmPJdzREARyuUU8v3PWbk?authuser=0&hl=tr&rclk=1",
    "website_url": "https://gmsgroup.com.ge/",
    "rating_text": "",
    "stars": null,
    "number_of_reviews": null,
    "price_level": "",
    "open_hours": "",
    "extraction_timestamp": "2025-06-07T15:15:50.513Z",
    "source_name": "google",
    "source_query": "Irrigation Equipment",
    "source_country": "GE",
    "country": "Georgia",
    "state": "Kvemo Kartli",
    "city": "Gardabnis Munitsip’alit’et’i"
  },
  {
    "source_id": "ChIJAQCwmDdzREARRhOqXPR7VAg",
    "name": "გრინ სოლუშენს",
    "category": "გრინ სოლუშენს",
    "formatted_address": "5,0(4)",
    "phone_number": "+995570101015",
    "source_url": "https://www.google.com/maps/place/%E1%83%92%E1%83%A0%E1%83%98%E1%83%9C+%E1%83%A1%E1%83%9D%E1%83%9A%E1%83%A3%E1%83%A8%E1%83%94%E1%83%9C%E1%83%A1/data=!4m7!3m6!1s0x4044733798b00001:0x8547bf45caa1346!8m2!3d41.7076191!4d44.7651735!16s%2Fg%2F11j48hgb5s!19sChIJAQCwmDdzREARRhOqXPR7VAg?authuser=0&hl=tr&rclk=1",
    "website_url": "http://www.green.com.ge/",
    "rating_text": "5,0",
    "stars": null,
    "number_of_reviews": null,
    "price_level": "",
    "open_hours": "",
    "extraction_timestamp": "2025-06-07T15:15:50.520Z",
    "source_name": "google",
    "source_query": "Irrigation Equipment",
    "source_country": "GE",
    "country": "Georgia",
    "state": "Kvemo Kartli",
    "city": "Gardabnis Munitsip’alit’et’i"
  },
  {
    "source_id": "ChIJZU8DVlFzREAResPbvT5zDtI",
    "name": "Headshop Tbilisi — Water Pipes, Vaporizers, Seeds & 420 Smoking Accessories",
    "category": "Headshop Tbilisi — Water Pipes, Vaporizers, Seeds & 420 Smoking Accessories",
    "formatted_address": "Headshop Tbilisi — Water Pipes, Vaporizers, Seeds & 420 Smoking Accessories",
    "phone_number": "+995505050420",
    "source_url": "https://www.google.com/maps/place/Headshop+Tbilisi+%E2%80%94+Water+Pipes,+Vaporizers,+Seeds+%26+420+Smoking+Accessories/data=!4m7!3m6!1s0x4044735156034f65:0xd20e733ebddbc37a!8m2!3d41.7088889!4d44.770308!16s%2Fg%2F11l1q7t4s9!19sChIJZU8DVlFzREAResPbvT5zDtI?authuser=0&hl=tr&rclk=1",
    "website_url": "https://headshop.ge/",
    "rating_text": "5,0",
    "stars": null,
    "number_of_reviews": null,
    "price_level": "",
    "open_hours": "",
    "extraction_timestamp": "2025-06-07T15:15:50.523Z",
    "source_name": "google",
    "source_query": "Irrigation Equipment",
    "source_country": "GE",
    "country": "Georgia",
    "state": "Kvemo Kartli",
    "city": "Gardabnis Munitsip’alit’et’i"
  },
  {
    "source_id": "ChIJ0zbrAupzREARGm_PnUVYtqo",
    "name": "SWEED",
    "category": "SWEED",
    "formatted_address": "4,8(16)",
    "phone_number": "+995574200612",
    "source_url": "https://www.google.com/maps/place/SWEED/data=!4m7!3m6!1s0x404473ea02eb36d3:0xaab658459dcf6f1a!8m2!3d41.7151959!4d44.7769316!16s%2Fg%2F11m_jflggn!19sChIJ0zbrAupzREARGm_PnUVYtqo?authuser=0&hl=tr&rclk=1",
    "website_url": "https://sweed.ge/",
    "rating_text": "4,8",
    "stars": null,
    "number_of_reviews": null,
    "price_level": "",
    "open_hours": "",
    "extraction_timestamp": "2025-06-07T15:15:50.527Z",
    "source_name": "google",
    "source_query": "Irrigation Equipment",
    "source_country": "GE",
    "country": "Georgia",
    "state": "Kvemo Kartli",
    "city": "Gardabnis Munitsip’alit’et’i"
  },
  {
    "source_id": "ChIJGRBcQYurRkARP6T2G_CQuFM",
    "name": "Mini Market",
    "category": "Mini Market",
    "formatted_address": "4,4(22)",
    "phone_number": "",
    "source_url": "https://www.google.com/maps/place/Mini+Market/data=!4m7!3m6!1s0x4046ab8b415c1019:0x53b890f01bf6a43f!8m2!3d41.457863!4d45.0996847!16s%2Fg%2F11jqczc1nm!19sChIJGRBcQYurRkARP6T2G_CQuFM?authuser=0&hl=tr&rclk=1",
    "website_url": "",
    "rating_text": "4,4",
    "stars": null,
    "number_of_reviews": null,
    "price_level": "",
    "open_hours": "",
    "extraction_timestamp": "2025-06-07T15:16:00.791Z",
    "source_name": "google",
    "source_query": "Irrigation Equipment",
    "source_country": "GE",
    "country": "Georgia",
    "state": "Kvemo Kartli",
    "city": "Gardabani"
  },
  {
    "source_id": "ChIJVVVVVWqrRkARKFPFXU662DM",
    "name": "Gardabani WWTP",
    "category": "Gardabani WWTP",
    "formatted_address": "1,0(1)",
    "phone_number": "",
    "source_url": "https://www.google.com/maps/place/Gardabani+WWTP/data=!4m7!3m6!1s0x4046ab6a55555555:0x33d8ba4e5dc55328!8m2!3d41.4585031!4d45.0913484!16s%2Fg%2F11g9jjknxm!19sChIJVVVVVWqrRkARKFPFXU662DM?authuser=0&hl=tr&rclk=1",
    "website_url": "",
    "rating_text": "1,0",
    "stars": null,
    "number_of_reviews": null,
    "price_level": "",
    "open_hours": "",
    "extraction_timestamp": "2025-06-07T15:16:00.793Z",
    "source_name": "google",
    "source_query": "Irrigation Equipment",
    "source_country": "GE",
    "country": "Georgia",
    "state": "Kvemo Kartli",
    "city": "Gardabani"
  },
  {
    "source_id": "ChIJC1qssIyrRkARLoEwRvRyHj0",
    "name": "ROMAN MARKET",
    "category": "ROMAN MARKET",
    "formatted_address": "4,4(12)",
    "phone_number": "",
    "source_url": "https://www.google.com/maps/place/ROMAN+MARKET/data=!4m7!3m6!1s0x4046ab8cb0ac5a0b:0x3d1e72f44630812e!8m2!3d41.4452326!4d45.1005181!16s%2Fg%2F11t6n7gf8b!19sChIJC1qssIyrRkARLoEwRvRyHj0?authuser=0&hl=tr&rclk=1",
    "website_url": "",
    "rating_text": "4,4",
    "stars": null,
    "number_of_reviews": null,
    "price_level": "",
    "open_hours": "",
    "extraction_timestamp": "2025-06-07T15:16:00.795Z",
    "source_name": "google",
    "source_query": "Irrigation Equipment",
    "source_country": "GE",
    "country": "Georgia",
    "state": "Kvemo Kartli",
    "city": "Gardabani"
  },
  {
    "source_id": "ChIJlZlDYVSrRkARXBFQdZDykkU",
    "name": "ორი ნაბიჯი",
    "category": "ორი ნაბიჯი",
    "formatted_address": "3,2(6)",
    "phone_number": "",
    "source_url": "https://www.google.com/maps/place/%E1%83%9D%E1%83%A0%E1%83%98+%E1%83%9C%E1%83%90%E1%83%91%E1%83%98%E1%83%AF%E1%83%98/data=!4m7!3m6!1s0x4046ab5461439995:0x4592f2907550115c!8m2!3d41.4712228!4d45.0818966!16s%2Fg%2F11ll0r5gfq!19sChIJlZlDYVSrRkARXBFQdZDykkU?authuser=0&hl=tr&rclk=1",
    "website_url": "",
    "rating_text": "3,2",
    "stars": null,
    "number_of_reviews": null,
    "price_level": "",
    "open_hours": "",
    "extraction_timestamp": "2025-06-07T15:16:00.798Z",
    "source_name": "google",
    "source_query": "Irrigation Equipment",
    "source_country": "GE",
    "country": "Georgia",
    "state": "Kvemo Kartli",
    "city": "Gardabani"
  },
  {
    "source_id": "ChIJZ5MS-H6rRkAREhxpHI87_2k",
    "name": "Hereti",
    "category": "Hereti",
    "formatted_address": "4,5(110)",
    "phone_number": "",
    "source_url": "https://www.google.com/maps/place/Hereti/data=!4m7!3m6!1s0x4046ab7ef8129367:0x69ff3b8f1c691c12!8m2!3d41.4671653!4d45.087127!16s%2Fg%2F11mwkc9r44!19sChIJZ5MS-H6rRkAREhxpHI87_2k?authuser=0&hl=tr&rclk=1",
    "website_url": "",
    "rating_text": "4,5",
    "stars": null,
    "number_of_reviews": null,
    "price_level": "",
    "open_hours": "",
    "extraction_timestamp": "2025-06-07T15:16:00.799Z",
    "source_name": "google",
    "source_query": "Irrigation Equipment",
    "source_country": "GE",
    "country": "Georgia",
    "state": "Kvemo Kartli",
    "city": "Gardabani"
  },
  {
    "source_id": "ChIJu4cVumyrRkARvMEbg-g1JTM",
    "name": "Agricultural marketplace of Gardabani",
    "category": "Agricultural marketplace of Gardabani",
    "formatted_address": "4,4(31)",
    "phone_number": "",
    "source_url": "https://www.google.com/maps/place/Agricultural+marketplace+of+Gardabani/data=!4m7!3m6!1s0x4046ab6cba1587bb:0x332535e8831bc1bc!8m2!3d41.4618137!4d45.0940195!16s%2Fg%2F11g9nfcjwt!19sChIJu4cVumyrRkARvMEbg-g1JTM?authuser=0&hl=tr&rclk=1",
    "website_url": "",
    "rating_text": "4,4",
    "stars": null,
    "number_of_reviews": null,
    "price_level": "",
    "open_hours": "",
    "extraction_timestamp": "2025-06-07T15:16:00.800Z",
    "source_name": "google",
    "source_query": "Irrigation Equipment",
    "source_country": "GE",
    "country": "Georgia",
    "state": "Kvemo Kartli",
    "city": "Gardabani"
  },
  {
    "source_id": "ChIJQ_hQrRurRkARNqVrMxiR9q8",
    "name": "Merve",
    "category": "Merve",
    "formatted_address": "4,4(20)",
    "phone_number": "",
    "source_url": "https://www.google.com/maps/place/Merve/data=!4m7!3m6!1s0x4046ab1bad50f843:0xaff69118336ba536!8m2!3d41.4660953!4d45.0873354!16s%2Fg%2F11tbvxtfzd!19sChIJQ_hQrRurRkARNqVrMxiR9q8?authuser=0&hl=tr&rclk=1",
    "website_url": "",
    "rating_text": "4,4",
    "stars": null,
    "number_of_reviews": null,
    "price_level": "",
    "open_hours": "",
    "extraction_timestamp": "2025-06-07T15:16:00.801Z",
    "source_name": "google",
    "source_query": "Irrigation Equipment",
    "source_country": "GE",
    "country": "Georgia",
    "state": "Kvemo Kartli",
    "city": "Gardabani"
  },
  {
    "source_id": "ChIJ-7vZ3ZsNREARiQshYbE455U",
    "name": "Agrotechno",
    "category": "Agrotechno",
    "formatted_address": "5,0(12)",
    "phone_number": "+995322721100",
    "source_url": "https://www.google.com/maps/place/Agrotechno/data=!4m7!3m6!1s0x40440d9bddd9bbfb:0x95e738b161210b89!8m2!3d41.6932134!4d44.9660218!16s%2Fg%2F11k2hx5vtc!19sChIJ-7vZ3ZsNREARiQshYbE455U?authuser=0&hl=tr&rclk=1",
    "website_url": "https://agrotechno.ge/",
    "rating_text": "5,0",
    "stars": null,
    "number_of_reviews": null,
    "price_level": "",
    "open_hours": "",
    "extraction_timestamp": "2025-06-07T15:16:00.801Z",
    "source_name": "google",
    "source_query": "Irrigation Equipment",
    "source_country": "GE",
    "country": "Georgia",
    "state": "Kvemo Kartli",
    "city": "Gardabani"
  },
  {
    "source_id": "ChIJtYusdn0BREARQJHnNkI7TwI",
    "name": "თერმოპანელი",
    "category": "თერმოპანელი",
    "formatted_address": "4,5(21)",
    "phone_number": "+995322209900",
    "source_url": "https://www.google.com/maps/place/%E1%83%97%E1%83%94%E1%83%A0%E1%83%9B%E1%83%9D%E1%83%9E%E1%83%90%E1%83%9C%E1%83%94%E1%83%9A%E1%83%98/data=!4m7!3m6!1s0x4044017d76ac8bb5:0x24f3b4236e79140!8m2!3d41.547613!4d45.0336769!16s%2Fg%2F11bw46ly6f!19sChIJtYusdn0BREARQJHnNkI7TwI?authuser=0&hl=tr&rclk=1",
    "website_url": "http://www.thermopanel.ge/",
    "rating_text": "4,5",
    "stars": null,
    "number_of_reviews": null,
    "price_level": "",
    "open_hours": "",
    "extraction_timestamp": "2025-06-07T15:16:11.245Z",
    "source_name": "google",
    "source_query": "Irrigation Equipment",
    "source_country": "GE",
    "country": "Georgia",
    "state": "Kvemo Kartli",
    "city": "Rust’avi"
  },
  {
    "source_id": "ChIJ7_9AGP8HREAReRWtN1vnq9w",
    "name": "MZE Supermarket",
    "category": "MZE Supermarket",
    "formatted_address": "4,6(19)",
    "phone_number": "+995596111163",
    "source_url": "https://www.google.com/maps/place/MZE+Supermarket/data=!4m7!3m6!1s0x404407ff1840ffef:0xdcabe75b37ad1579!8m2!3d41.5691439!4d44.982001!16s%2Fg%2F11n611f4qp!19sChIJ7_9AGP8HREAReRWtN1vnq9w?authuser=0&hl=tr&rclk=1",
    "website_url": "",
    "rating_text": "4,6",
    "stars": null,
    "number_of_reviews": null,
    "price_level": "",
    "open_hours": "",
    "extraction_timestamp": "2025-06-07T15:16:11.249Z",
    "source_name": "google",
    "source_query": "Irrigation Equipment",
    "source_country": "GE",
    "country": "Georgia",
    "state": "Kvemo Kartli",
    "city": "Rust’avi"
  },
  {
    "source_id": "ChIJC1zFSR4EREARes4lbbDnWcU",
    "name": "Madagoni",
    "category": "Madagoni",
    "formatted_address": "4,5(1.132)",
    "phone_number": "+995341228128",
    "source_url": "https://www.google.com/maps/place/Madagoni/data=!4m7!3m6!1s0x4044041e49c55c0b:0xc559e7b06d25ce7a!8m2!3d41.5751114!4d44.9830611!16s%2Fg%2F11c1s3mbzp!19sChIJC1zFSR4EREARes4lbbDnWcU?authuser=0&hl=tr&rclk=1",
    "website_url": "http://madagoni.ge/",
    "rating_text": "4,5",
    "stars": null,
    "number_of_reviews": null,
    "price_level": "",
    "open_hours": "",
    "extraction_timestamp": "2025-06-07T15:16:11.251Z",
    "source_name": "google",
    "source_query": "Irrigation Equipment",
    "source_country": "GE",
    "country": "Georgia",
    "state": "Kvemo Kartli",
    "city": "Rust’avi"
  },
  {
    "source_id": "ChIJx-tqFB0EREARQTZJ1HYCv48",
    "name": "auto service, სედ ავტო, oil change, brake pads ...",
    "category": "auto service, სედ ავტო, oil change, brake pads ...",
    "formatted_address": "auto service, სედ ავტო, oil change, brake pads ...",
    "phone_number": "+995551236373",
    "source_url": "https://www.google.com/maps/place/auto+service,+%E1%83%A1%E1%83%94%E1%83%93+%E1%83%90%E1%83%95%E1%83%A2%E1%83%9D,+oil+change,+brake+pads+.../data=!4m7!3m6!1s0x4044041d146aebc7:0x8fbf0276d4493641!8m2!3d41.5722837!4d44.9892412!16s%2Fg%2F11fxxydzrb!19sChIJx-tqFB0EREARQTZJ1HYCv48?authuser=0&hl=tr&rclk=1",
    "website_url": "https://www.facebook.com/RoadSide-204018043699416",
    "rating_text": "4,8",
    "stars": null,
    "number_of_reviews": null,
    "price_level": "",
    "open_hours": "",
    "extraction_timestamp": "2025-06-07T15:16:11.253Z",
    "source_name": "google",
    "source_query": "Irrigation Equipment",
    "source_country": "GE",
    "country": "Georgia",
    "state": "Kvemo Kartli",
    "city": "Rust’avi"
  },
  {
    "source_id": "ChIJn0I9iZABREARCBpNFrOLljI",
    "name": "DMG Auto",
    "category": "DMG Auto",
    "formatted_address": "5,0(12)",
    "phone_number": "+995571770550",
    "source_url": "https://www.google.com/maps/place/DMG+Auto/data=!4m7!3m6!1s0x40440190893d429f:0x32968bb3164d1a08!8m2!3d41.5490679!4d44.9922244!16s%2Fg%2F11y91tk9gz!19sChIJn0I9iZABREARCBpNFrOLljI?authuser=0&hl=tr&rclk=1",
    "website_url": "",
    "rating_text": "5,0",
    "stars": null,
    "number_of_reviews": null,
    "price_level": "",
    "open_hours": "",
    "extraction_timestamp": "2025-06-07T15:16:11.254Z",
    "source_name": "google",
    "source_query": "Irrigation Equipment",
    "source_country": "GE",
    "country": "Georgia",
    "state": "Kvemo Kartli",
    "city": "Rust’avi"
  },
  {
    "source_id": "ChIJMZEeTbkGREAR7uN1gUtfero",
    "name": "მცირე მეწარმე ინგული მჭედლიშვილი",
    "category": "მცირე მეწარმე ინგული მჭედლიშვილი",
    "formatted_address": "4,1(55)",
    "phone_number": "",
    "source_url": "https://www.google.com/maps/place/%E1%83%9B%E1%83%AA%E1%83%98%E1%83%A0%E1%83%94+%E1%83%9B%E1%83%94%E1%83%AC%E1%83%90%E1%83%A0%E1%83%9B%E1%83%94+%E1%83%98%E1%83%9C%E1%83%92%E1%83%A3%E1%83%9A%E1%83%98+%E1%83%9B%E1%83%AD%E1%83%94%E1%83%93%E1%83%9A%E1%83%98%E1%83%A8%E1%83%95%E1%83%98%E1%83%9A%E1%83%98/data=!4m7!3m6!1s0x404406b94d1e9131:0xba7a5f4b8175e3ee!8m2!3d41.5648376!4d44.9670081!16s%2Fg%2F11gdtkkhxn!19sChIJMZEeTbkGREAR7uN1gUtfero?authuser=0&hl=tr&rclk=1",
    "website_url": "",
    "rating_text": "4,1",
    "stars": null,
    "number_of_reviews": null,
    "price_level": "",
    "open_hours": "",
    "extraction_timestamp": "2025-06-07T15:16:11.254Z",
    "source_name": "google",
    "source_query": "Irrigation Equipment",
    "source_country": "GE",
    "country": "Georgia",
    "state": "Kvemo Kartli",
    "city": "Rust’avi"
  },
  {
    "source_id": "ChIJF9_bqaQHREAR9pf8MgKMHwA",
    "name": "Beer Market \"Beer Georgia\" Rustavi ლუდის მაღაზია \"ბიარ ჯორჯია\" რუსთავში",
    "category": "Beer Market \"Beer Georgia\" Rustavi ლუდის მაღაზია \"ბიარ ჯორჯია\" რუსთავში",
    "formatted_address": "5,0(24)",
    "phone_number": "+995568977668",
    "source_url": "https://www.google.com/maps/place/Beer+Market+%22Beer+Georgia%22+Rustavi+%E1%83%9A%E1%83%A3%E1%83%93%E1%83%98%E1%83%A1+%E1%83%9B%E1%83%90%E1%83%A6%E1%83%90%E1%83%96%E1%83%98%E1%83%90+%22%E1%83%91%E1%83%98%E1%83%90%E1%83%A0+%E1%83%AF%E1%83%9D%E1%83%A0%E1%83%AF%E1%83%98%E1%83%90%22+%E1%83%A0%E1%83%A3%E1%83%A1%E1%83%97%E1%83%90%E1%83%95%E1%83%A8%E1%83%98/data=!4m7!3m6!1s0x404407a4a9dbdf17:0x1f8c0232fc97f6!8m2!3d41.5690432!4d44.9642676!16s%2Fg%2F11t2877yqn!19sChIJF9_bqaQHREAR9pf8MgKMHwA?authuser=0&hl=tr&rclk=1",
    "website_url": "https://www.facebook.com/profile.php?id=100082695394268",
    "rating_text": "5,0",
    "stars": null,
    "number_of_reviews": null,
    "price_level": "",
    "open_hours": "",
    "extraction_timestamp": "2025-06-07T15:16:11.256Z",
    "source_name": "google",
    "source_query": "Irrigation Equipment",
    "source_country": "GE",
    "country": "Georgia",
    "state": "Kvemo Kartli",
    "city": "Rust’avi"
  },
  {
    "source_id": "ChIJO9MkRqEHREARsNE-i1sj-Wg",
    "name": "VIKO • ვიკო",
    "category": "VIKO • ვიკო",
    "formatted_address": "5,0(6)",
    "phone_number": "+995599691031",
    "source_url": "https://www.google.com/maps/place/VIKO+%E2%80%A2+%E1%83%95%E1%83%98%E1%83%99%E1%83%9D/data=!4m7!3m6!1s0x404407a14624d33b:0x68f9235b8b3ed1b0!8m2!3d41.5681848!4d44.9854132!16s%2Fg%2F11svg1bvzb!19sChIJO9MkRqEHREARsNE-i1sj-Wg?authuser=0&hl=tr&rclk=1",
    "website_url": "https://www.facebook.com/VIKO-VIKO-109497290801116",
    "rating_text": "5,0",
    "stars": null,
    "number_of_reviews": null,
    "price_level": "",
    "open_hours": "",
    "extraction_timestamp": "2025-06-07T15:16:11.257Z",
    "source_name": "google",
    "source_query": "Irrigation Equipment",
    "source_country": "GE",
    "country": "Georgia",
    "state": "Kvemo Kartli",
    "city": "Rust’avi"
  },
  {
    "source_id": "ChIJAQAAHKYGREARoSMmb6cYPqQ",
    "name": "სტამბული",
    "category": "სტამბული",
    "formatted_address": "4,4(159)",
    "phone_number": "",
    "source_url": "https://www.google.com/maps/place/%E1%83%A1%E1%83%A2%E1%83%90%E1%83%9B%E1%83%91%E1%83%A3%E1%83%9A%E1%83%98/data=!4m7!3m6!1s0x404406a61c000001:0xa43e18a76f2623a1!8m2!3d41.5686571!4d44.9845174!16s%2Fg%2F11txv22b7k!19sChIJAQAAHKYGREARoSMmb6cYPqQ?authuser=0&hl=tr&rclk=1",
    "website_url": "",
    "rating_text": "4,4",
    "stars": null,
    "number_of_reviews": null,
    "price_level": "",
    "open_hours": "",
    "extraction_timestamp": "2025-06-07T15:16:11.257Z",
    "source_name": "google",
    "source_query": "Irrigation Equipment",
    "source_country": "GE",
    "country": "Georgia",
    "state": "Kvemo Kartli",
    "city": "Rust’avi"
  },
  {
    "source_id": "ChIJy-a5HMADREARpBtlTAMqmho",
    "name": "Market",
    "category": "Market",
    "formatted_address": "4,5(33)",
    "phone_number": "",
    "source_url": "https://www.google.com/maps/place/Market/data=!4m7!3m6!1s0x404403c01cb9e6cb:0x1a9a2a034c651ba4!8m2!3d41.561329!4d45.0295619!16s%2Fg%2F1tkslvh4!19sChIJy-a5HMADREARpBtlTAMqmho?authuser=0&hl=tr&rclk=1",
    "website_url": "",
    "rating_text": "4,5",
    "stars": null,
    "number_of_reviews": null,
    "price_level": "",
    "open_hours": "",
    "extraction_timestamp": "2025-06-07T15:16:11.258Z",
    "source_name": "google",
    "source_query": "Irrigation Equipment",
    "source_country": "GE",
    "country": "Georgia",
    "state": "Kvemo Kartli",
    "city": "Rust’avi"
  },
  {
    "source_id": "ChIJy5A7p3cBREAR2z9OpCYo4X0",
    "name": "Ori Nabiji",
    "category": "Ori Nabiji",
    "formatted_address": "4,7(20)",
    "phone_number": "",
    "source_url": "https://www.google.com/maps/place/Ori+Nabiji/data=!4m7!3m6!1s0x40440177a73b90cb:0x7de12826a44e3fdb!8m2!3d41.5508811!4d45.0154987!16s%2Fg%2F11fl87bb5p!19sChIJy5A7p3cBREAR2z9OpCYo4X0?authuser=0&hl=tr&rclk=1",
    "website_url": "https://orinabiji.ge/",
    "rating_text": "4,7",
    "stars": null,
    "number_of_reviews": null,
    "price_level": "",
    "open_hours": "",
    "extraction_timestamp": "2025-06-07T15:16:11.260Z",
    "source_name": "google",
    "source_query": "Irrigation Equipment",
    "source_country": "GE",
    "country": "Georgia",
    "state": "Kvemo Kartli",
    "city": "Rust’avi"
  },
  {
    "source_id": "ChIJ9yr8ZZgNREAROQwqWBj12lo",
    "name": "Supta.ge - \"სუფთა\" - ბიზნესის მომარაგების პლატფორმა",
    "category": "Supta.ge - \"სუფთა\" - ბიზნესის მომარაგების პლატფორმა",
    "formatted_address": "4,7(44)",
    "phone_number": "+995322110626",
    "source_url": "https://www.google.com/maps/place/Supta.ge+-+%22%E1%83%A1%E1%83%A3%E1%83%A4%E1%83%97%E1%83%90%22+-+%E1%83%91%E1%83%98%E1%83%96%E1%83%9C%E1%83%94%E1%83%A1%E1%83%98%E1%83%A1+%E1%83%9B%E1%83%9D%E1%83%9B%E1%83%90%E1%83%A0%E1%83%90%E1%83%92%E1%83%94%E1%83%91%E1%83%98%E1%83%A1+%E1%83%9E%E1%83%9A%E1%83%90%E1%83%A2%E1%83%A4%E1%83%9D%E1%83%A0%E1%83%9B%E1%83%90/data=!4m7!3m6!1s0x40440d9865fc2af7:0x5adaf518582a0c39!8m2!3d41.7182077!4d44.7939903!16s%2Fg%2F11jcbvnm1b!19sChIJ9yr8ZZgNREAROQwqWBj12lo?authuser=0&hl=tr&rclk=1",
    "website_url": "https://supta.ge/",
    "rating_text": "4,7",
    "stars": null,
    "number_of_reviews": null,
    "price_level": "",
    "open_hours": "",
    "extraction_timestamp": "2025-06-07T15:16:11.284Z",
    "source_name": "google",
    "source_query": "Irrigation Equipment",
    "source_country": "GE",
    "country": "Georgia",
    "state": "Kvemo Kartli",
    "city": "Rust’avi"
  },
  {
    "source_id": "ChIJ0bzaAl0HREARIN6Wq8QZDeg",
    "name": "SHIMGE წყლის ტუმბოები",
    "category": "SHIMGE წყლის ტუმბოები",
    "formatted_address": "5,0(3)",
    "phone_number": "+995595797104",
    "source_url": "https://www.google.com/maps/place/SHIMGE+%E1%83%AC%E1%83%A7%E1%83%9A%E1%83%98%E1%83%A1+%E1%83%A2%E1%83%A3%E1%83%9B%E1%83%91%E1%83%9D%E1%83%94%E1%83%91%E1%83%98/data=!4m7!3m6!1s0x4044075d02dabcd1:0xe80d19c4ab96de20!8m2!3d41.7284845!4d44.7805436!16s%2Fg%2F11rhqx2zxt!19sChIJ0bzaAl0HREARIN6Wq8QZDeg?authuser=0&hl=tr&rclk=1",
    "website_url": "http://www.facebook.com/shimgegeorgia/",
    "rating_text": "5,0",
    "stars": null,
    "number_of_reviews": null,
    "price_level": "",
    "open_hours": "",
    "extraction_timestamp": "2025-06-07T15:16:11.286Z",
    "source_name": "google",
    "source_query": "Irrigation Equipment",
    "source_country": "GE",
    "country": "Georgia",
    "state": "Kvemo Kartli",
    "city": "Rust’avi"
  },
  {
    "source_id": "ChIJJQL5ydYNREARFdfjP9IVZL0",
    "name": "Roqi",
    "category": "Roqi",
    "formatted_address": "4,7(41)",
    "phone_number": "+995597704588",
    "source_url": "https://www.google.com/maps/place/Roqi/data=!4m7!3m6!1s0x40440dd6c9f90225:0xbd6415d23fe3d715!8m2!3d41.6856102!4d44.8502816!16s%2Fg%2F11jgctmqbq!19sChIJJQL5ydYNREARFdfjP9IVZL0?authuser=0&hl=tr&rclk=1",
    "website_url": "https://roqi.ge/",
    "rating_text": "4,7",
    "stars": null,
    "number_of_reviews": null,
    "price_level": "",
    "open_hours": "",
    "extraction_timestamp": "2025-06-07T15:16:11.287Z",
    "source_name": "google",
    "source_query": "Irrigation Equipment",
    "source_country": "GE",
    "country": "Georgia",
    "state": "Kvemo Kartli",
    "city": "Rust’avi"
  },
  {
    "source_id": "ChIJw14IxzQNREARf3Q9kJgAl40",
    "name": "smartplumber.ge",
    "category": "smartplumber.ge",
    "formatted_address": "5,0(23)",
    "phone_number": "+995571112671",
    "source_url": "https://www.google.com/maps/place/smartplumber.ge/data=!4m7!3m6!1s0x40440d34c7085ec3:0x8d970098903d747f!8m2!3d41.6742793!4d44.832889!16s%2Fg%2F11wqqhnq9d!19sChIJw14IxzQNREARf3Q9kJgAl40?authuser=0&hl=tr&rclk=1",
    "website_url": "https://www.smartplumber.ge/",
    "rating_text": "5,0",
    "stars": null,
    "number_of_reviews": null,
    "price_level": "",
    "open_hours": "",
    "extraction_timestamp": "2025-06-07T15:16:11.289Z",
    "source_name": "google",
    "source_query": "Irrigation Equipment",
    "source_country": "GE",
    "country": "Georgia",
    "state": "Kvemo Kartli",
    "city": "Rust’avi"
  },
  {
    "source_id": "ChIJOcaW4gsBREARTmql9gZz7m4",
    "name": "Rustavi Water Company",
    "category": "Rustavi Water Company",
    "formatted_address": "1,4(34)",
    "phone_number": "+995341220011",
    "source_url": "https://www.google.com/maps/place/Rustavi+Water+Company/data=!4m7!3m6!1s0x4044010be296c639:0x6eee7306f6a56a4e!8m2!3d41.532803!4d45.0115752!16s%2Fg%2F1vg6s6n3!19sChIJOcaW4gsBREARTmql9gZz7m4?authuser=0&hl=tr&rclk=1",
    "website_url": "http://www.gwp.ge/",
    "rating_text": "1,4",
    "stars": null,
    "number_of_reviews": null,
    "price_level": "",
    "open_hours": "",
    "extraction_timestamp": "2025-06-07T15:16:11.289Z",
    "source_name": "google",
    "source_query": "Irrigation Equipment",
    "source_country": "GE",
    "country": "Georgia",
    "state": "Kvemo Kartli",
    "city": "Rust’avi"
  },
  {
    "source_id": "ChIJs2ovNDEMREAR2gLSxbGhtFg",
    "name": "GT Group LLC",
    "category": "GT Group LLC",
    "formatted_address": "4,8(20)",
    "phone_number": "+995322740440",
    "source_url": "https://www.google.com/maps/place/GT+Group+LLC/data=!4m7!3m6!1s0x40440c31342f6ab3:0x58b4a1b1c5d202da!8m2!3d41.7959386!4d44.7696265!16s%2Fg%2F1hm3md2bf!19sChIJs2ovNDEMREAR2gLSxbGhtFg?authuser=0&hl=tr&rclk=1",
    "website_url": "http://www.gtgroup.ge/",
    "rating_text": "4,8",
    "stars": null,
    "number_of_reviews": null,
    "price_level": "",
    "open_hours": "",
    "extraction_timestamp": "2025-06-07T15:16:11.290Z",
    "source_name": "google",
    "source_query": "Irrigation Equipment",
    "source_country": "GE",
    "country": "Georgia",
    "state": "Kvemo Kartli",
    "city": "Rust’avi"
  },
  {
    "source_id": "ChIJV949hb9zREAR-1janJZxn8Y",
    "name": "Nano Filter - წყლის ფილტრები",
    "category": "Nano Filter - წყლის ფილტრები",
    "formatted_address": "4,6(11)",
    "phone_number": "+995577901100",
    "source_url": "https://www.google.com/maps/place/Nano+Filter+-+%E1%83%AC%E1%83%A7%E1%83%9A%E1%83%98%E1%83%A1+%E1%83%A4%E1%83%98%E1%83%9A%E1%83%A2%E1%83%A0%E1%83%94%E1%83%91%E1%83%98/data=!4m7!3m6!1s0x404473bf853dde57:0xc69f71969cda58fb!8m2!3d41.7195881!4d44.7675411!16s%2Fg%2F11kc3vtfzs!19sChIJV949hb9zREAR-1janJZxn8Y?authuser=0&hl=tr&rclk=1",
    "website_url": "https://nanofilter.ge/",
    "rating_text": "4,6",
    "stars": null,
    "number_of_reviews": null,
    "price_level": "",
    "open_hours": "",
    "extraction_timestamp": "2025-06-07T15:16:11.291Z",
    "source_name": "google",
    "source_query": "Irrigation Equipment",
    "source_country": "GE",
    "country": "Georgia",
    "state": "Kvemo Kartli",
    "city": "Rust’avi"
  },
  {
    "source_id": "ChIJMaDIQjsMREARekX6PG6uCMk",
    "name": "კანალიზაციის გაწმენდა",
    "category": "კანალიზაციის გაწმენდა",
    "formatted_address": "4,1(10)",
    "phone_number": "+995597337764",
    "source_url": "https://www.google.com/maps/place/%E1%83%99%E1%83%90%E1%83%9C%E1%83%90%E1%83%9A%E1%83%98%E1%83%96%E1%83%90%E1%83%AA%E1%83%98%E1%83%98%E1%83%A1+%E1%83%92%E1%83%90%E1%83%AC%E1%83%9B%E1%83%94%E1%83%9C%E1%83%93%E1%83%90/data=!4m7!3m6!1s0x40440c3b42c8a031:0xc908ae6e3cfa457a!8m2!3d41.670546!4d44.842932!16s%2Fg%2F11c48wp10f!19sChIJMaDIQjsMREARekX6PG6uCMk?authuser=0&hl=tr&rclk=1",
    "website_url": "http://ostati.ge/index.php?page=ful_info&c_id=2317",
    "rating_text": "4,1",
    "stars": null,
    "number_of_reviews": null,
    "price_level": "",
    "open_hours": "",
    "extraction_timestamp": "2025-06-07T15:16:11.292Z",
    "source_name": "google",
    "source_query": "Irrigation Equipment",
    "source_country": "GE",
    "country": "Georgia",
    "state": "Kvemo Kartli",
    "city": "Rust’avi"
  },
  {
    "source_id": "ChIJ26GF52sBREAR5D1kE0dCTEc",
    "name": "Racha Market",
    "category": "Racha Market",
    "formatted_address": "4,5(155)",
    "phone_number": "",
    "source_url": "https://www.google.com/maps/place/Racha+Market/data=!4m7!3m6!1s0x4044016be785a1db:0x474c424713643de4!8m2!3d41.5519516!4d45.0196959!16s%2Fg%2F1v7tjvr9!19sChIJ26GF52sBREAR5D1kE0dCTEc?authuser=0&hl=tr&rclk=1",
    "website_url": "",
    "rating_text": "4,5",
    "stars": null,
    "number_of_reviews": null,
    "price_level": "",
    "open_hours": "",
    "extraction_timestamp": "2025-06-07T15:16:11.293Z",
    "source_name": "google",
    "source_query": "Irrigation Equipment",
    "source_country": "GE",
    "country": "Georgia",
    "state": "Kvemo Kartli",
    "city": "Rust’avi"
  },
  {
    "source_id": "ChIJJ6k9wIZtREAR9BOLP6tXJBY",
    "name": "GREEN LAB Dighomi GROW SHOP",
    "category": "GREEN LAB Dighomi GROW SHOP",
    "formatted_address": "5,0(33)",
    "phone_number": "+995322060840",
    "source_url": "https://www.google.com/maps/place/GREEN+LAB+Dighomi+GROW+SHOP/data=!4m7!3m6!1s0x40446d86c03da927:0x162457ab3f8b13f4!8m2!3d41.7888432!4d44.766026!16s%2Fg%2F11k47nr3_5!19sChIJJ6k9wIZtREAR9BOLP6tXJBY?authuser=0&hl=tr&rclk=1",
    "website_url": "http://greenlab.ge/",
    "rating_text": "5,0",
    "stars": null,
    "number_of_reviews": null,
    "price_level": "",
    "open_hours": "",
    "extraction_timestamp": "2025-06-07T15:16:11.294Z",
    "source_name": "google",
    "source_query": "Irrigation Equipment",
    "source_country": "GE",
    "country": "Georgia",
    "state": "Kvemo Kartli",
    "city": "Rust’avi"
  },
  {
    "source_id": "ChIJUxrgROQXnYMRSTOERyMOifQ",
    "name": "ჰიდროვეი Hydroway",
    "category": "ჰიდროვეი Hydroway",
    "formatted_address": "5,0(12)",
    "phone_number": "+995544444041",
    "source_url": "https://www.google.com/maps/place/%E1%83%B0%E1%83%98%E1%83%93%E1%83%A0%E1%83%9D%E1%83%95%E1%83%94%E1%83%98+Hydroway/data=!4m7!3m6!1s0x839d17e444e01a53:0xf4890e2347843349!8m2!3d41.7554038!4d44.7770917!16s%2Fg%2F11kb8cchmr!19sChIJUxrgROQXnYMRSTOERyMOifQ?authuser=0&hl=tr&rclk=1",
    "website_url": "",
    "rating_text": "5,0",
    "stars": null,
    "number_of_reviews": null,
    "price_level": "",
    "open_hours": "",
    "extraction_timestamp": "2025-06-07T15:16:11.295Z",
    "source_name": "google",
    "source_query": "Irrigation Equipment",
    "source_country": "GE",
    "country": "Georgia",
    "state": "Kvemo Kartli",
    "city": "Rust’avi"
  },
  {
    "source_id": "ChIJi1R-NN4MREARswY_NiJTo2k",
    "name": "CleanPark",
    "category": "CleanPark",
    "formatted_address": "5,0(1)",
    "phone_number": "+995322969968",
    "source_url": "https://www.google.com/maps/place/CleanPark/data=!4m7!3m6!1s0x40440cde347e548b:0x69a35322363f06b3!8m2!3d41.7034479!4d44.8014991!16s%2Fg%2F11dfh5kqrb!19sChIJi1R-NN4MREARswY_NiJTo2k?authuser=0&hl=tr&rclk=1",
    "website_url": "https://cleanparkshop.ge/",
    "rating_text": "5,0",
    "stars": null,
    "number_of_reviews": null,
    "price_level": "",
    "open_hours": "",
    "extraction_timestamp": "2025-06-07T15:16:11.296Z",
    "source_name": "google",
    "source_query": "Irrigation Equipment",
    "source_country": "GE",
    "country": "Georgia",
    "state": "Kvemo Kartli",
    "city": "Rust’avi"
  },
  {
    "source_id": "ChIJmRDHAxgNREARM4kWIlGbaG8",
    "name": "სანტექნიკი",
    "category": "სანტექნიკი",
    "formatted_address": "5,0(7)",
    "phone_number": "+995599133508",
    "source_url": "https://www.google.com/maps/place/%E1%83%A1%E1%83%90%E1%83%9C%E1%83%A2%E1%83%94%E1%83%A5%E1%83%9C%E1%83%98%E1%83%99%E1%83%98/data=!4m7!3m6!1s0x40440d1803c71099:0x6f689b5122168933!8m2!3d41.70639!4d44.787188!16s%2Fg%2F11y3vf2v41!19sChIJmRDHAxgNREARM4kWIlGbaG8?authuser=0&hl=tr&rclk=1",
    "website_url": "",
    "rating_text": "5,0",
    "stars": null,
    "number_of_reviews": null,
    "price_level": "",
    "open_hours": "",
    "extraction_timestamp": "2025-06-07T15:16:11.298Z",
    "source_name": "google",
    "source_query": "Irrigation Equipment",
    "source_country": "GE",
    "country": "Georgia",
    "state": "Kvemo Kartli",
    "city": "Rust’avi"
  },
  {
    "source_id": "ChIJN1jw2ovDQ0ARULg9AzU5cXg",
    "name": "Magniti",
    "category": "Magniti",
    "formatted_address": "4,7(18)",
    "phone_number": "",
    "source_url": "https://www.google.com/maps/place/Magniti/data=!4m7!3m6!1s0x4043c38bdaf05837:0x78713935033db850!8m2!3d41.3854831!4d44.4160898!16s%2Fg%2F11fsk07738!19sChIJN1jw2ovDQ0ARULg9AzU5cXg?authuser=0&hl=tr&rclk=1",
    "website_url": "",
    "rating_text": "4,7",
    "stars": null,
    "number_of_reviews": null,
    "price_level": "",
    "open_hours": "",
    "extraction_timestamp": "2025-06-07T15:16:28.532Z",
    "source_name": "google",
    "source_query": "Irrigation Equipment",
    "source_country": "GE",
    "country": "Georgia",
    "state": "Kvemo Kartli",
    "city": "Dmanisis Munitsip’alit’et’i"
  },
  {
    "source_id": "ChIJaWSqSj_PQ0ARy9UV10mtF4U",
    "name": "Spar Market",
    "category": "Spar Market",
    "formatted_address": "4,5(19)",
    "phone_number": "",
    "source_url": "https://www.google.com/maps/place/Spar+Market/data=!4m7!3m6!1s0x4043cf3f4aaa6469:0x8517ad49d715d5cb!8m2!3d41.3310908!4d44.2053496!16s%2Fg%2F11rplcclwl!19sChIJaWSqSj_PQ0ARy9UV10mtF4U?authuser=0&hl=tr&rclk=1",
    "website_url": "http://spar.com/",
    "rating_text": "4,5",
    "stars": null,
    "number_of_reviews": null,
    "price_level": "",
    "open_hours": "",
    "extraction_timestamp": "2025-06-07T15:16:28.532Z",
    "source_name": "google",
    "source_query": "Irrigation Equipment",
    "source_country": "GE",
    "country": "Georgia",
    "state": "Kvemo Kartli",
    "city": "Dmanisis Munitsip’alit’et’i"
  },
  {
    "source_id": "ChIJk9JrDLbDQ0ARcAnKkvno2MU",
    "name": "Spar",
    "category": "Spar",
    "formatted_address": "4,5(15)",
    "phone_number": "+995322302030",
    "source_url": "https://www.google.com/maps/place/Spar/data=!4m7!3m6!1s0x4043c3b60c6bd293:0xc5d8e8f992ca0970!8m2!3d41.3871289!4d44.4188567!16s%2Fg%2F11rvg4n_mn!19sChIJk9JrDLbDQ0ARcAnKkvno2MU?authuser=0&hl=tr&rclk=1",
    "website_url": "http://www.spargeorgia.com/",
    "rating_text": "4,5",
    "stars": null,
    "number_of_reviews": null,
    "price_level": "",
    "open_hours": "",
    "extraction_timestamp": "2025-06-07T15:16:28.532Z",
    "source_name": "google",
    "source_query": "Irrigation Equipment",
    "source_country": "GE",
    "country": "Georgia",
    "state": "Kvemo Kartli",
    "city": "Dmanisis Munitsip’alit’et’i"
  },
  {
    "source_id": "ChIJVyVVFjGZQ0AR8_U3VN2Dwp0",
    "name": "მარკეტი რუსო",
    "category": "მარკეტი რუსო",
    "formatted_address": "5,0(1)",
    "phone_number": "+995591268565",
    "source_url": "https://www.google.com/maps/place/%E1%83%9B%E1%83%90%E1%83%A0%E1%83%99%E1%83%94%E1%83%A2%E1%83%98+%E1%83%A0%E1%83%A3%E1%83%A1%E1%83%9D/data=!4m7!3m6!1s0x4043993116552557:0x9dc283dd5437f5f3!8m2!3d41.5978123!4d44.0910246!16s%2Fg%2F11q21f7dqt!19sChIJVyVVFjGZQ0AR8_U3VN2Dwp0?authuser=0&hl=tr&rclk=1",
    "website_url": "",
    "rating_text": "5,0",
    "stars": null,
    "number_of_reviews": null,
    "price_level": "",
    "open_hours": "",
    "extraction_timestamp": "2025-06-07T15:16:37.307Z",
    "source_name": "google",
    "source_query": "Irrigation Equipment",
    "source_country": "GE",
    "country": "Georgia",
    "state": "Kvemo Kartli",
    "city": "Ts’alk’is Munitsip’alit’et’i"
  },
  {
    "source_id": "ChIJGyzs9jiZQ0ARf4bfGvMa99Q",
    "name": "Drive",
    "category": "Drive",
    "formatted_address": "4,5(8)",
    "phone_number": "",
    "source_url": "https://www.google.com/maps/place/Drive/data=!4m7!3m6!1s0x40439938f6ec2c1b:0xd4f71af31adf867f!8m2!3d41.6007203!4d44.094289!16s%2Fg%2F11rycrhk_r!19sChIJGyzs9jiZQ0ARf4bfGvMa99Q?authuser=0&hl=tr&rclk=1",
    "website_url": "",
    "rating_text": "4,5",
    "stars": null,
    "number_of_reviews": null,
    "price_level": "",
    "open_hours": "",
    "extraction_timestamp": "2025-06-07T15:16:37.313Z",
    "source_name": "google",
    "source_query": "Irrigation Equipment",
    "source_country": "GE",
    "country": "Georgia",
    "state": "Kvemo Kartli",
    "city": "Ts’alk’is Munitsip’alit’et’i"
  },
  {
    "source_id": "ChIJ0b_p701zREARXQ5PLzlsHEc",
    "name": "ბიო ტუალეტების გაქირავება და მომსახურება ლაიმი",
    "category": "ბიო ტუალეტების გაქირავება და მომსახურება ლაიმი",
    "formatted_address": "4,7(15)",
    "phone_number": "+995599149149",
    "source_url": "https://www.google.com/maps/place/%E1%83%91%E1%83%98%E1%83%9D+%E1%83%A2%E1%83%A3%E1%83%90%E1%83%9A%E1%83%94%E1%83%A2%E1%83%94%E1%83%91%E1%83%98%E1%83%A1+%E1%83%92%E1%83%90%E1%83%A5%E1%83%98%E1%83%A0%E1%83%90%E1%83%95%E1%83%94%E1%83%91%E1%83%90+%E1%83%93%E1%83%90+%E1%83%9B%E1%83%9D%E1%83%9B%E1%83%A1%E1%83%90%E1%83%AE%E1%83%A3%E1%83%A0%E1%83%94%E1%83%91%E1%83%90+%E1%83%9A%E1%83%90%E1%83%98%E1%83%9B%E1%83%98/data=!4m7!3m6!1s0x4044734defe9bfd1:0x471c6c392f4f0e5d!8m2!3d41.7201266!4d44.7408853!16s%2Fg%2F11snllxzv9!19sChIJ0b_p701zREARXQ5PLzlsHEc?authuser=0&hl=tr&rclk=1",
    "website_url": "https://www.limegeorgia.ge/",
    "rating_text": "4,7",
    "stars": null,
    "number_of_reviews": null,
    "price_level": "",
    "open_hours": "",
    "extraction_timestamp": "2025-06-07T15:16:47.534Z",
    "source_name": "google",
    "source_query": "Irrigation Equipment",
    "source_country": "GE",
    "country": "Georgia",
    "state": "Kvemo Kartli",
    "city": "Tetrits’q’alos Munitsip’alit’et’i"
  },
  {
    "source_id": "ChIJDdOL7uwNREARANH6AJSjoG0",
    "name": "TBT Company",
    "category": "TBT Company",
    "formatted_address": "4,9(92)",
    "phone_number": "+995322112134",
    "source_url": "https://www.google.com/maps/place/TBT+Company/data=!4m7!3m6!1s0x40440decee8bd30d:0x6da0a39400fad100!8m2!3d41.7139531!4d44.798727!16s%2Fg%2F11h6bzz820!19sChIJDdOL7uwNREARANH6AJSjoG0?authuser=0&hl=tr&rclk=1",
    "website_url": "https://www.facebook.com/share/1EGPhjkC5a/",
    "rating_text": "4,9",
    "stars": null,
    "number_of_reviews": null,
    "price_level": "",
    "open_hours": "",
    "extraction_timestamp": "2025-06-07T15:16:47.540Z",
    "source_name": "google",
    "source_query": "Irrigation Equipment",
    "source_country": "GE",
    "country": "Georgia",
    "state": "Kvemo Kartli",
    "city": "Tetrits’q’alos Munitsip’alit’et’i"
  },
  {
    "source_id": "ChIJ2z4mm0MNREARqj4WPD0yO7Y",
    "name": "Vinissimo wine bar & shop",
    "category": "Vinissimo wine bar & shop",
    "formatted_address": "4,8(83)",
    "phone_number": "+995591940411",
    "source_url": "https://www.google.com/maps/place/Vinissimo+wine+bar+%26+shop/data=!4m7!3m6!1s0x40440d439b263edb:0xb63b323d3c163eaa!8m2!3d41.695054!4d44.8067112!16s%2Fg%2F11q9563m4w!19sChIJ2z4mm0MNREARqj4WPD0yO7Y?authuser=0&hl=tr&rclk=1",
    "website_url": "",
    "rating_text": "4,8",
    "stars": null,
    "number_of_reviews": null,
    "price_level": "",
    "open_hours": "",
    "extraction_timestamp": "2025-06-07T15:16:47.570Z",
    "source_name": "google",
    "source_query": "Irrigation Equipment",
    "source_country": "GE",
    "country": "Georgia",
    "state": "Kvemo Kartli",
    "city": "Tetrits’q’alos Munitsip’alit’et’i"
  },
  {
    "source_id": "ChIJw42F7T4NREARqyaeTTJIdbU",
    "name": "Artisan",
    "category": "Artisan",
    "formatted_address": "4,4(196) · ₾20–30",
    "phone_number": "+995322244304",
    "source_url": "https://www.google.com/maps/place/Artisan/data=!4m7!3m6!1s0x40440d3eed858dc3:0xb57548324d9e26ab!8m2!3d41.7221831!4d44.7712726!16s%2Fg%2F11hn5_9cdz!19sChIJw42F7T4NREARqyaeTTJIdbU?authuser=0&hl=tr&rclk=1",
    "website_url": "https://www.facebook.com/ArtisanChocolaterieandmore/",
    "rating_text": "4,4",
    "stars": null,
    "number_of_reviews": null,
    "price_level": "",
    "open_hours": "",
    "extraction_timestamp": "2025-06-07T15:16:47.572Z",
    "source_name": "google",
    "source_query": "Irrigation Equipment",
    "source_country": "GE",
    "country": "Georgia",
    "state": "Kvemo Kartli",
    "city": "Tetrits’q’alos Munitsip’alit’et’i"
  },
  {
    "source_id": "ChIJwYWDAAANREAR3NgOynYx6fA",
    "name": "Friendly corner",
    "category": "Friendly corner",
    "formatted_address": "4,9(242) · ₾10–20",
    "phone_number": "+995597484947",
    "source_url": "https://www.google.com/maps/place/Friendly+corner/data=!4m7!3m6!1s0x40440d00008385c1:0xf0e93176ca0ed8dc!8m2!3d41.6912161!4d44.8060295!16s%2Fg%2F11w1cpqbq7!19sChIJwYWDAAANREAR3NgOynYx6fA?authuser=0&hl=tr&rclk=1",
    "website_url": "https://friendly-corner.erbut.me/",
    "rating_text": "4,9",
    "stars": null,
    "number_of_reviews": null,
    "price_level": "",
    "open_hours": "",
    "extraction_timestamp": "2025-06-07T15:16:47.573Z",
    "source_name": "google",
    "source_query": "Irrigation Equipment",
    "source_country": "GE",
    "country": "Georgia",
    "state": "Kvemo Kartli",
    "city": "Tetrits’q’alos Munitsip’alit’et’i"
  },
  {
    "source_id": "ChIJce4p2N4NREARcq-2I6M2s1c",
    "name": "Chemi Pelmeni",
    "category": "Chemi Pelmeni",
    "formatted_address": "4,8(328)",
    "phone_number": "+995577444741",
    "source_url": "https://www.google.com/maps/place/Chemi+Pelmeni/data=!4m7!3m6!1s0x40440dded829ee71:0x57b336a323b6af72!8m2!3d41.702147!4d44.7926425!16s%2Fg%2F11h3thx6xj!19sChIJce4p2N4NREARcq-2I6M2s1c?authuser=0&hl=tr&rclk=1",
    "website_url": "",
    "rating_text": "4,8",
    "stars": null,
    "number_of_reviews": null,
    "price_level": "",
    "open_hours": "",
    "extraction_timestamp": "2025-06-07T15:16:47.574Z",
    "source_name": "google",
    "source_query": "Irrigation Equipment",
    "source_country": "GE",
    "country": "Georgia",
    "state": "Kvemo Kartli",
    "city": "Tetrits’q’alos Munitsip’alit’et’i"
  },
  {
    "source_id": "ChIJp5wdY1YNREARpwt-rofWVZE",
    "name": "Old Café",
    "category": "Old Café",
    "formatted_address": "4,3(139)",
    "phone_number": "+995595797376",
    "source_url": "https://www.google.com/maps/place/Old+Caf%C3%A9/data=!4m7!3m6!1s0x40440d56631d9ca7:0x9155d687ae7e0ba7!8m2!3d41.6907858!4d44.8071878!16s%2Fg%2F11t84_sk95!19sChIJp5wdY1YNREARpwt-rofWVZE?authuser=0&hl=tr&rclk=1",
    "website_url": "https://www.facebook.com/OldCafeTbilisi",
    "rating_text": "4,3",
    "stars": null,
    "number_of_reviews": null,
    "price_level": "",
    "open_hours": "",
    "extraction_timestamp": "2025-06-07T15:16:47.575Z",
    "source_name": "google",
    "source_query": "Irrigation Equipment",
    "source_country": "GE",
    "country": "Georgia",
    "state": "Kvemo Kartli",
    "city": "Tetrits’q’alos Munitsip’alit’et’i"
  },
  {
    "source_id": "ChIJoXA9RgDtQ0ARdIu8u_Ds41k",
    "name": "Jojo's local shop",
    "category": "Jojo's local shop",
    "formatted_address": "5,0(2)",
    "phone_number": "",
    "source_url": "https://www.google.com/maps/place/Jojo%27s+local+shop/data=!4m7!3m6!1s0x4043ed00463d70a1:0x59e3ecf0bbbc8b74!8m2!3d41.5401228!4d44.4632176!16s%2Fg%2F11w7cc9t87!19sChIJoXA9RgDtQ0ARdIu8u_Ds41k?authuser=0&hl=tr&rclk=1",
    "website_url": "",
    "rating_text": "5,0",
    "stars": null,
    "number_of_reviews": null,
    "price_level": "",
    "open_hours": "",
    "extraction_timestamp": "2025-06-07T15:16:47.578Z",
    "source_name": "google",
    "source_query": "Irrigation Equipment",
    "source_country": "GE",
    "country": "Georgia",
    "state": "Kvemo Kartli",
    "city": "Tetrits’q’alos Munitsip’alit’et’i"
  },
  {
    "source_id": "ChIJpdHI0ZgNREARFJAxBWRJuV0",
    "name": "Flash Shawarma",
    "category": "Flash Shawarma",
    "formatted_address": "4,4(221) · ₾10–20",
    "phone_number": "+995557036600",
    "source_url": "https://www.google.com/maps/place/Flash+Shawarma/data=!4m7!3m6!1s0x40440d98d1c8d1a5:0x5db9496405319014!8m2!3d41.7114568!4d44.7929571!16s%2Fg%2F11h778rrwn!19sChIJpdHI0ZgNREARFJAxBWRJuV0?authuser=0&hl=tr&rclk=1",
    "website_url": "https://www.facebook.com/flashshawarma/",
    "rating_text": "4,4",
    "stars": null,
    "number_of_reviews": null,
    "price_level": "",
    "open_hours": "",
    "extraction_timestamp": "2025-06-07T15:16:47.579Z",
    "source_name": "google",
    "source_query": "Irrigation Equipment",
    "source_country": "GE",
    "country": "Georgia",
    "state": "Kvemo Kartli",
    "city": "Tetrits’q’alos Munitsip’alit’et’i"
  },
  {
    "source_id": "ChIJtfBNl4JzREARZAFlwH08nU8",
    "name": "NUR",
    "category": "NUR",
    "formatted_address": "4,9(208) · ₾10–20",
    "phone_number": "",
    "source_url": "https://www.google.com/maps/place/NUR/data=!4m7!3m6!1s0x40447382974df0b5:0x4f9d3c7dc0650164!8m2!3d41.708787!4d44.761431!16s%2Fg%2F11gmj54dxs!19sChIJtfBNl4JzREARZAFlwH08nU8?authuser=0&hl=tr&rclk=1",
    "website_url": "https://instagram.com/nur_coffeeshop",
    "rating_text": "4,9",
    "stars": null,
    "number_of_reviews": null,
    "price_level": "",
    "open_hours": "",
    "extraction_timestamp": "2025-06-07T15:16:47.582Z",
    "source_name": "google",
    "source_query": "Irrigation Equipment",
    "source_country": "GE",
    "country": "Georgia",
    "state": "Kvemo Kartli",
    "city": "Tetrits’q’alos Munitsip’alit’et’i"
  },
  {
    "source_id": "ChIJf_aHCNsMREARb_A6HD_mfcw",
    "name": "Shota Rustaveli Monument",
    "category": "Shota Rustaveli Monument",
    "formatted_address": "4,6(75)",
    "phone_number": "+995322304080",
    "source_url": "https://www.google.com/maps/place/Shota+Rustaveli+Monument/data=!4m7!3m6!1s0x40440cdb0887f67f:0xcc7de63f1c3af06f!8m2!3d41.7038815!4d44.7898714!16s%2Fg%2F11c76k91gq!19sChIJf_aHCNsMREARb_A6HD_mfcw?authuser=0&hl=tr&rclk=1",
    "website_url": "",
    "rating_text": "4,6",
    "stars": null,
    "number_of_reviews": null,
    "price_level": "",
    "open_hours": "",
    "extraction_timestamp": "2025-06-07T15:16:47.584Z",
    "source_name": "google",
    "source_query": "Irrigation Equipment",
    "source_country": "GE",
    "country": "Georgia",
    "state": "Kvemo Kartli",
    "city": "Tetrits’q’alos Munitsip’alit’et’i"
  },
  {
    "source_id": "ChIJPfStlQQNREARP3DyC9F_w98",
    "name": "Palace kitchen",
    "category": "Palace kitchen",
    "formatted_address": "4,3(297) · ₾10–20",
    "phone_number": "+995500702611",
    "source_url": "https://www.google.com/maps/place/Palace+kitchen/data=!4m7!3m6!1s0x40440d0495adf43d:0xdfc37fd10bf2703f!8m2!3d41.6881219!4d44.8243551!16s%2Fg%2F11v6fy6lm_!19sChIJPfStlQQNREARP3DyC9F_w98?authuser=0&hl=tr&rclk=1",
    "website_url": "",
    "rating_text": "4,3",
    "stars": null,
    "number_of_reviews": null,
    "price_level": "",
    "open_hours": "",
    "extraction_timestamp": "2025-06-07T15:16:47.585Z",
    "source_name": "google",
    "source_query": "Irrigation Equipment",
    "source_country": "GE",
    "country": "Georgia",
    "state": "Kvemo Kartli",
    "city": "Tetrits’q’alos Munitsip’alit’et’i"
  },
  {
    "source_id": "ChIJ9cG9Mtb7Q0AR2vYky0YvbZA",
    "name": "Dükkan",
    "category": "Dükkan",
    "formatted_address": "4,9(8)",
    "phone_number": "+995599991088",
    "source_url": "https://www.google.com/maps/place/D%C3%BCkkan/data=!4m7!3m6!1s0x4043fbd632bdc1f5:0x906d2f46cb24f6da!8m2!3d41.4808237!4d44.7964026!16s%2Fg%2F11ff0wvxtp!19sChIJ9cG9Mtb7Q0AR2vYky0YvbZA?authuser=0&hl=tr&rclk=1",
    "website_url": "",
    "rating_text": "4,9",
    "stars": null,
    "number_of_reviews": null,
    "price_level": "",
    "open_hours": "",
    "extraction_timestamp": "2025-06-07T15:17:34.191Z",
    "source_name": "google",
    "source_query": "Irrigation Equipment",
    "source_country": "GE",
    "country": "Georgia",
    "state": "Kvemo Kartli",
    "city": "Marneuli"
  },
  {
    "source_id": "ChIJaxhWrBj7Q0ARNJv3ViYlL58",
    "name": "Kral",
    "category": "Kral",
    "formatted_address": "4,5(132)",
    "phone_number": "",
    "source_url": "https://www.google.com/maps/place/Kral/data=!4m7!3m6!1s0x4043fb18ac56186b:0x9f2f252656f79b34!8m2!3d41.4854767!4d44.7964327!16s%2Fg%2F11fm1x_gth!19sChIJaxhWrBj7Q0ARNJv3ViYlL58?authuser=0&hl=tr&rclk=1",
    "website_url": "",
    "rating_text": "4,5",
    "stars": null,
    "number_of_reviews": null,
    "price_level": "",
    "open_hours": "",
    "extraction_timestamp": "2025-06-07T15:17:34.191Z",
    "source_name": "google",
    "source_query": "Irrigation Equipment",
    "source_country": "GE",
    "country": "Georgia",
    "state": "Kvemo Kartli",
    "city": "Marneuli"
  },
  {
    "source_id": "ChIJDSUeBQD9Q0ARnYCare_tmdI",
    "name": "LTD JAFA",
    "category": "LTD JAFA",
    "formatted_address": "Mağaza · FR77+F6Q, Samet vurgun+995 599 98 92 99",
    "phone_number": "+995599989299",
    "source_url": "https://www.google.com/maps/place/LTD+JAFA/data=!4m7!3m6!1s0x4043fd00051e250d:0xd299edefad9a809d!8m2!3d41.4637453!4d44.8132062!16s%2Fg%2F11x6xp6bvs!19sChIJDSUeBQD9Q0ARnYCare_tmdI?authuser=0&hl=tr&rclk=1",
    "website_url": "",
    "rating_text": "",
    "stars": null,
    "number_of_reviews": null,
    "price_level": "",
    "open_hours": "",
    "extraction_timestamp": "2025-06-07T15:17:34.192Z",
    "source_name": "google",
    "source_query": "Irrigation Equipment",
    "source_country": "GE",
    "country": "Georgia",
    "state": "Kvemo Kartli",
    "city": "Marneuli"
  },
  {
    "source_id": "ChIJ1fTc_df9Q0ARMwdyhc1cIR8",
    "name": "IBSO Motor's",
    "category": "IBSO Motor's",
    "formatted_address": "5,0(8)",
    "phone_number": "",
    "source_url": "https://www.google.com/maps/place/IBSO+Motor%27s/data=!4m7!3m6!1s0x4043fdd7fddcf4d5:0x1f215ccd85720733!8m2!3d41.4592747!4d44.8096745!16s%2Fg%2F11ty2y7jh8!19sChIJ1fTc_df9Q0ARMwdyhc1cIR8?authuser=0&hl=tr&rclk=1",
    "website_url": "https://instagram.com/ibso_motors?igshid=MTIyMzRjYmRlZg==",
    "rating_text": "5,0",
    "stars": null,
    "number_of_reviews": null,
    "price_level": "",
    "open_hours": "",
    "extraction_timestamp": "2025-06-07T15:17:34.193Z",
    "source_name": "google",
    "source_query": "Irrigation Equipment",
    "source_country": "GE",
    "country": "Georgia",
    "state": "Kvemo Kartli",
    "city": "Marneuli"
  }
]
