[
  {
    "source_id": "ChIJl1vIctfw1EARz_qdFqdgKyY",
    "name": "Ukrayinsʹka Ovocheva Kompaniya, Tov",
    "category": "Ukrayinsʹka Ovocheva Kompaniya, Tov",
    "formatted_address": "Ukrayinsʹka Ovocheva Kompaniya, Tov",
    "phone_number": "+380445865256",
    "source_url": "https://www.google.com/maps/place/Ukrayins%CA%B9ka+Ovocheva+Kompaniya,+Tov/data=!4m7!3m6!1s0x40d4f0d772c85b97:0x262b60a7169dfacf!8m2!3d50.2594112!4d31.1803821!16s%2Fg%2F11xdpj24g!19sChIJl1vIctfw1EARz_qdFqdgKyY?authuser=0&hl=tr&rclk=1",
    "website_url": "",
    "rating_text": "4,6",
    "stars": null,
    "number_of_reviews": null,
    "price_level": "",
    "open_hours": "",
    "extraction_timestamp": "2025-06-08T03:29:42.590Z",
    "source_name": "google",
    "source_query": "Irrigation Equipment",
    "source_country": "UA",
    "country": "Ukraine",
    "state": "Kyivska oblast",
    "city": "Baryshivs’kyy Rayon"
  },
  {
    "source_id": "ChIJRfOfMlFU1EARJ8f-UwGFBgs",
    "name": "Vto \"Monolit\"",
    "category": "Vto \"Monolit\"",
    "formatted_address": "4,1(67)",
    "phone_number": "+380502302436",
    "source_url": "https://www.google.com/maps/place/Vto+%22Monolit%22/data=!4m7!3m6!1s0x40d45451329ff345:0xb06850153fec727!8m2!3d50.3268053!4d31.5126237!16s%2Fg%2F11f_kmp1l6!19sChIJRfOfMlFU1EARJ8f-UwGFBgs?authuser=0&hl=tr&rclk=1",
    "website_url": "",
    "rating_text": "4,1",
    "stars": null,
    "number_of_reviews": null,
    "price_level": "",
    "open_hours": "",
    "extraction_timestamp": "2025-06-08T03:29:42.591Z",
    "source_name": "google",
    "source_query": "Irrigation Equipment",
    "source_country": "UA",
    "country": "Ukraine",
    "state": "Kyivska oblast",
    "city": "Baryshivs’kyy Rayon"
  },
  {
    "source_id": "ChIJKSw9-qn-1EARYBYDtb5qZ0I",
    "name": "Максі - Будівельний супермаркет",
    "category": "Максі - Будівельний супермаркет",
    "formatted_address": "4,6(255)",
    "phone_number": "+380987000726",
    "source_url": "https://www.google.com/maps/place/%D0%9C%D0%B0%D0%BA%D1%81%D1%96+-+%D0%91%D1%83%D0%B4%D1%96%D0%B2%D0%B5%D0%BB%D1%8C%D0%BD%D0%B8%D0%B9+%D1%81%D1%83%D0%BF%D0%B5%D1%80%D0%BC%D0%B0%D1%80%D0%BA%D0%B5%D1%82/data=!4m7!3m6!1s0x40d4fea9fa3d2c29:0x42676abeb5031660!8m2!3d50.3572666!4d31.2981873!16s%2Fg%2F11dymw5wn7!19sChIJKSw9-qn-1EARYBYDtb5qZ0I?authuser=0&hl=tr&rclk=1",
    "website_url": "",
    "rating_text": "4,6",
    "stars": null,
    "number_of_reviews": null,
    "price_level": "",
    "open_hours": "",
    "extraction_timestamp": "2025-06-08T03:29:42.593Z",
    "source_name": "google",
    "source_query": "Irrigation Equipment",
    "source_country": "UA",
    "country": "Ukraine",
    "state": "Kyivska oblast",
    "city": "Baryshivs’kyy Rayon"
  },
  {
    "source_id": "ChIJ2-XZxrL-1EARaxNHU7H50xI",
    "name": "Будмайстер",
    "category": "Будмайстер",
    "formatted_address": "4,4(134)",
    "phone_number": "+380457654127",
    "source_url": "https://www.google.com/maps/place/%D0%91%D1%83%D0%B4%D0%BC%D0%B0%D0%B9%D1%81%D1%82%D0%B5%D1%80/data=!4m7!3m6!1s0x40d4feb2c6d9e5db:0x12d3f9b15347136b!8m2!3d50.3492524!4d31.3100755!16s%2Fg%2F11cjj3hncp!19sChIJ2-XZxrL-1EARaxNHU7H50xI?authuser=0&hl=tr&rclk=1",
    "website_url": "",
    "rating_text": "4,4",
    "stars": null,
    "number_of_reviews": null,
    "price_level": "",
    "open_hours": "",
    "extraction_timestamp": "2025-06-08T03:29:42.594Z",
    "source_name": "google",
    "source_query": "Irrigation Equipment",
    "source_country": "UA",
    "country": "Ukraine",
    "state": "Kyivska oblast",
    "city": "Baryshivs’kyy Rayon"
  },
  {
    "source_id": "ChIJjflqRcn_1EAR6fSbGLrWnjc",
    "name": "Центр видачі замовлень ЕПІЦЕНТР.ua",
    "category": "Центр видачі замовлень ЕПІЦЕНТР.ua",
    "formatted_address": "5,0(2)",
    "phone_number": "+380800202727",
    "source_url": "https://www.google.com/maps/place/%D0%A6%D0%B5%D0%BD%D1%82%D1%80+%D0%B2%D0%B8%D0%B4%D0%B0%D1%87%D1%96+%D0%B7%D0%B0%D0%BC%D0%BE%D0%B2%D0%BB%D0%B5%D0%BD%D1%8C+%D0%95%D0%9F%D0%86%D0%A6%D0%95%D0%9D%D0%A2%D0%A0.ua/data=!4m7!3m6!1s0x40d4ffc9456af98d:0x379ed6ba189bf4e9!8m2!3d50.36658!4d31.3295721!16s%2Fg%2F11w3l2hv0g!19sChIJjflqRcn_1EAR6fSbGLrWnjc?authuser=0&hl=tr&rclk=1",
    "website_url": "",
    "rating_text": "5,0",
    "stars": null,
    "number_of_reviews": null,
    "price_level": "",
    "open_hours": "",
    "extraction_timestamp": "2025-06-08T03:29:42.594Z",
    "source_name": "google",
    "source_query": "Irrigation Equipment",
    "source_country": "UA",
    "country": "Ukraine",
    "state": "Kyivska oblast",
    "city": "Baryshivs’kyy Rayon"
  },
  {
    "source_id": "ChIJ3QprLNJV1EARbJ6H06juGYY",
    "name": "Hospodar",
    "category": "Hospodar",
    "formatted_address": "4,6(300)",
    "phone_number": "+380972243536",
    "source_url": "https://www.google.com/maps/place/Hospodar/data=!4m7!3m6!1s0x40d455d22c6b0add:0x8619eea8d3879e6c!8m2!3d50.3091472!4d31.4675806!16s%2Fg%2F11cs5wpnts!19sChIJ3QprLNJV1EARbJ6H06juGYY?authuser=0&hl=tr&rclk=1",
    "website_url": "",
    "rating_text": "4,6",
    "stars": null,
    "number_of_reviews": null,
    "price_level": "",
    "open_hours": "",
    "extraction_timestamp": "2025-06-08T03:29:42.596Z",
    "source_name": "google",
    "source_query": "Irrigation Equipment",
    "source_country": "UA",
    "country": "Ukraine",
    "state": "Kyivska oblast",
    "city": "Baryshivs’kyy Rayon"
  },
  {
    "source_id": "ChIJb4Yt8gP_1EARw1I2z0Kpklc",
    "name": "Базель",
    "category": "Базель",
    "formatted_address": "5,0(12)",
    "phone_number": "+380968569623",
    "source_url": "https://www.google.com/maps/place/%D0%91%D0%B0%D0%B7%D0%B5%D0%BB%D1%8C/data=!4m7!3m6!1s0x40d4ff03f22d866f:0x5792a942cf3652c3!8m2!3d50.3569918!4d31.3093379!16s%2Fg%2F11sq8f9dtn!19sChIJb4Yt8gP_1EARw1I2z0Kpklc?authuser=0&hl=tr&rclk=1",
    "website_url": "",
    "rating_text": "5,0",
    "stars": null,
    "number_of_reviews": null,
    "price_level": "",
    "open_hours": "",
    "extraction_timestamp": "2025-06-08T03:29:42.596Z",
    "source_name": "google",
    "source_query": "Irrigation Equipment",
    "source_country": "UA",
    "country": "Ukraine",
    "state": "Kyivska oblast",
    "city": "Baryshivs’kyy Rayon"
  },
  {
    "source_id": "ChIJrZ9g8NtV1EARnAD5ymcowYc",
    "name": "Магазин електрики \"Енкор\"",
    "category": "Магазин електрики \"Енкор\"",
    "formatted_address": "5,0(1)",
    "phone_number": "",
    "source_url": "https://www.google.com/maps/place/%D0%9C%D0%B0%D0%B3%D0%B0%D0%B7%D0%B8%D0%BD+%D0%B5%D0%BB%D0%B5%D0%BA%D1%82%D1%80%D0%B8%D0%BA%D0%B8+%22%D0%95%D0%BD%D0%BA%D0%BE%D1%80%22/data=!4m7!3m6!1s0x40d455dbf0609fad:0x87c12867caf9009c!8m2!3d50.3079964!4d31.4699259!16s%2Fg%2F11pb_hq_bh!19sChIJrZ9g8NtV1EARnAD5ymcowYc?authuser=0&hl=tr&rclk=1",
    "website_url": "",
    "rating_text": "5,0",
    "stars": null,
    "number_of_reviews": null,
    "price_level": "",
    "open_hours": "",
    "extraction_timestamp": "2025-06-08T03:29:42.597Z",
    "source_name": "google",
    "source_query": "Irrigation Equipment",
    "source_country": "UA",
    "country": "Ukraine",
    "state": "Kyivska oblast",
    "city": "Baryshivs’kyy Rayon"
  },
  {
    "source_id": "ChIJ152cZtPn1EARTTwsvaVUuVM",
    "name": "ЭЛЕГАНТ-БОРИСПОЛЬ ЧП",
    "category": "ЭЛЕГАНТ-БОРИСПОЛЬ ЧП",
    "formatted_address": "4,6(53)",
    "phone_number": "+380459553330",
    "source_url": "https://www.google.com/maps/place/%D0%AD%D0%9B%D0%95%D0%93%D0%90%D0%9D%D0%A2-%D0%91%D0%9E%D0%A0%D0%98%D0%A1%D0%9F%D0%9E%D0%9B%D0%AC+%D0%A7%D0%9F/data=!4m7!3m6!1s0x40d4e7d3669c9dd7:0x53b954a5bd2c3c4d!8m2!3d50.3764415!4d30.9434215!16s%2Fg%2F11xc97rry!19sChIJ152cZtPn1EARTTwsvaVUuVM?authuser=0&hl=tr&rclk=1",
    "website_url": "",
    "rating_text": "4,6",
    "stars": null,
    "number_of_reviews": null,
    "price_level": "",
    "open_hours": "",
    "extraction_timestamp": "2025-06-08T03:29:42.598Z",
    "source_name": "google",
    "source_query": "Irrigation Equipment",
    "source_country": "UA",
    "country": "Ukraine",
    "state": "Kyivska oblast",
    "city": "Baryshivs’kyy Rayon"
  },
  {
    "source_id": "ChIJuUQzWAD_1EARCbHQmOCSOik",
    "name": "Svit Vody",
    "category": "Svit Vody",
    "formatted_address": "1,0(1)",
    "phone_number": "",
    "source_url": "https://www.google.com/maps/place/Svit+Vody/data=!4m7!3m6!1s0x40d4ff00583344b9:0x293a92e098d0b109!8m2!3d50.3527418!4d31.3177416!16s%2Fg%2F11ldbl9_d4!19sChIJuUQzWAD_1EARCbHQmOCSOik?authuser=0&hl=tr&rclk=1",
    "website_url": "",
    "rating_text": "1,0",
    "stars": null,
    "number_of_reviews": null,
    "price_level": "",
    "open_hours": "",
    "extraction_timestamp": "2025-06-08T03:29:42.599Z",
    "source_name": "google",
    "source_query": "Irrigation Equipment",
    "source_country": "UA",
    "country": "Ukraine",
    "state": "Kyivska oblast",
    "city": "Baryshivs’kyy Rayon"
  },
  {
    "source_id": "ChIJs6WFS7b91EAR5W2-KmauQHs",
    "name": "Tov Neptun",
    "category": "Tov Neptun",
    "formatted_address": "3,7(10)",
    "phone_number": "+380447628248",
    "source_url": "https://www.google.com/maps/place/Tov+Neptun/data=!4m7!3m6!1s0x40d4fdb64b85a5b3:0x7b40ae662abe6de5!8m2!3d50.4018697!4d31.3094345!16s%2Fg%2F11b6df_n7n!19sChIJs6WFS7b91EAR5W2-KmauQHs?authuser=0&hl=tr&rclk=1",
    "website_url": "",
    "rating_text": "3,7",
    "stars": null,
    "number_of_reviews": null,
    "price_level": "",
    "open_hours": "",
    "extraction_timestamp": "2025-06-08T03:29:42.600Z",
    "source_name": "google",
    "source_query": "Irrigation Equipment",
    "source_country": "UA",
    "country": "Ukraine",
    "state": "Kyivska oblast",
    "city": "Baryshivs’kyy Rayon"
  },
  {
    "source_id": "ChIJ2bjvbLod1UARXGsZ2XOEZTc",
    "name": "Профіт Центр",
    "category": "Профіт Центр",
    "formatted_address": "4,2(57)",
    "phone_number": "",
    "source_url": "https://www.google.com/maps/place/%D0%9F%D1%80%D0%BE%D1%84%D1%96%D1%82+%D0%A6%D0%B5%D0%BD%D1%82%D1%80/data=!4m7!3m6!1s0x40d51dba6cefb8d9:0x37658473d9196b5c!8m2!3d50.4947099!4d31.1620405!16s%2Fg%2F11ghpmy2zl!19sChIJ2bjvbLod1UARXGsZ2XOEZTc?authuser=0&hl=tr&rclk=1",
    "website_url": "",
    "rating_text": "4,2",
    "stars": null,
    "number_of_reviews": null,
    "price_level": "",
    "open_hours": "",
    "extraction_timestamp": "2025-06-08T03:29:42.601Z",
    "source_name": "google",
    "source_query": "Irrigation Equipment",
    "source_country": "UA",
    "country": "Ukraine",
    "state": "Kyivska oblast",
    "city": "Baryshivs’kyy Rayon"
  },
  {
    "source_id": "ChIJeWyrsR8d1UARlGTci-6uhyA",
    "name": "магазин Хуторок",
    "category": "магазин Хуторок",
    "formatted_address": "4,3(96)",
    "phone_number": "+380665363961",
    "source_url": "https://www.google.com/maps/place/%D0%BC%D0%B0%D0%B3%D0%B0%D0%B7%D0%B8%D0%BD+%D0%A5%D1%83%D1%82%D0%BE%D1%80%D0%BE%D0%BA/data=!4m7!3m6!1s0x40d51d1fb1ab6c79:0x2087aeee8bdc6494!8m2!3d50.49635!4d31.265437!16s%2Fg%2F11b7yr1vkd!19sChIJeWyrsR8d1UARlGTci-6uhyA?authuser=0&hl=tr&rclk=1",
    "website_url": "",
    "rating_text": "4,3",
    "stars": null,
    "number_of_reviews": null,
    "price_level": "",
    "open_hours": "",
    "extraction_timestamp": "2025-06-08T03:29:42.602Z",
    "source_name": "google",
    "source_query": "Irrigation Equipment",
    "source_country": "UA",
    "country": "Ukraine",
    "state": "Kyivska oblast",
    "city": "Baryshivs’kyy Rayon"
  },
  {
    "source_id": "ChIJrSy5HhCm1UARfrAVIaJyJV0",
    "name": "Sadovyy Mini-Market",
    "category": "Sadovyy Mini-Market",
    "formatted_address": "4,7(28)",
    "phone_number": "+380939098623",
    "source_url": "https://www.google.com/maps/place/Sadovyy+Mini-Market/data=!4m7!3m6!1s0x40d5a6101eb92cad:0x5d2572a22115b07e!8m2!3d50.4964448!4d31.7715562!16s%2Fg%2F11dzsqm2nm!19sChIJrSy5HhCm1UARfrAVIaJyJV0?authuser=0&hl=tr&rclk=1",
    "website_url": "",
    "rating_text": "4,7",
    "stars": null,
    "number_of_reviews": null,
    "price_level": "",
    "open_hours": "",
    "extraction_timestamp": "2025-06-08T03:29:42.602Z",
    "source_name": "google",
    "source_query": "Irrigation Equipment",
    "source_country": "UA",
    "country": "Ukraine",
    "state": "Kyivska oblast",
    "city": "Baryshivs’kyy Rayon"
  },
  {
    "source_id": "ChIJQ-r4VbH-1EARLaG7WrIG3gw",
    "name": "Evrobud",
    "category": "Evrobud",
    "formatted_address": "4,1(107)",
    "phone_number": "+380960222228",
    "source_url": "https://www.google.com/maps/place/Evrobud/data=!4m7!3m6!1s0x40d4feb155f8ea43:0xcde06b25abba12d!8m2!3d50.3506856!4d31.3189802!16s%2Fg%2F11c5rrt9tv!19sChIJQ-r4VbH-1EARLaG7WrIG3gw?authuser=0&hl=tr&rclk=1",
    "website_url": "",
    "rating_text": "4,1",
    "stars": null,
    "number_of_reviews": null,
    "price_level": "",
    "open_hours": "",
    "extraction_timestamp": "2025-06-08T03:29:42.603Z",
    "source_name": "google",
    "source_query": "Irrigation Equipment",
    "source_country": "UA",
    "country": "Ukraine",
    "state": "Kyivska oblast",
    "city": "Baryshivs’kyy Rayon"
  },
  {
    "source_id": "ChIJ6bXv26D-1EARn5Rs6m8wYsM",
    "name": "Pidkova",
    "category": "Pidkova",
    "formatted_address": "4,3(93)",
    "phone_number": "",
    "source_url": "https://www.google.com/maps/place/Pidkova/data=!4m7!3m6!1s0x40d4fea0dbefb5e9:0xc362306fea6c949f!8m2!3d50.3654597!4d31.3114755!16s%2Fg%2F11ckrczbwz!19sChIJ6bXv26D-1EARn5Rs6m8wYsM?authuser=0&hl=tr&rclk=1",
    "website_url": "",
    "rating_text": "4,3",
    "stars": null,
    "number_of_reviews": null,
    "price_level": "",
    "open_hours": "",
    "extraction_timestamp": "2025-06-08T03:29:42.604Z",
    "source_name": "google",
    "source_query": "Irrigation Equipment",
    "source_country": "UA",
    "country": "Ukraine",
    "state": "Kyivska oblast",
    "city": "Baryshivs’kyy Rayon"
  },
  {
    "source_id": "ChIJa8nrBwj_1EARIvVfnKkeWBs",
    "name": "ROZETKA",
    "category": "ROZETKA",
    "formatted_address": "4,6(8)",
    "phone_number": "",
    "source_url": "https://www.google.com/maps/place/ROZETKA/data=!4m7!3m6!1s0x40d4ff0807ebc96b:0x1b581ea99c5ff522!8m2!3d50.3666634!4d31.3295554!16s%2Fg%2F11vbkd46xh!19sChIJa8nrBwj_1EARIvVfnKkeWBs?authuser=0&hl=tr&rclk=1",
    "website_url": "",
    "rating_text": "4,6",
    "stars": null,
    "number_of_reviews": null,
    "price_level": "",
    "open_hours": "",
    "extraction_timestamp": "2025-06-08T03:29:42.604Z",
    "source_name": "google",
    "source_query": "Irrigation Equipment",
    "source_country": "UA",
    "country": "Ukraine",
    "state": "Kyivska oblast",
    "city": "Baryshivs’kyy Rayon"
  },
  {
    "source_id": "ChIJ3f__pRX_1EARgW5HNieOxr0",
    "name": "Pytna Voda",
    "category": "Pytna Voda",
    "formatted_address": "5,0(3)",
    "phone_number": "+380970055040",
    "source_url": "https://www.google.com/maps/place/Pytna+Voda/data=!4m7!3m6!1s0x40d4ff15a5ffffdd:0xbdc68e2736476e81!8m2!3d50.3626964!4d31.3276085!16s%2Fg%2F11l6s4p149!19sChIJ3f__pRX_1EARgW5HNieOxr0?authuser=0&hl=tr&rclk=1",
    "website_url": "",
    "rating_text": "5,0",
    "stars": null,
    "number_of_reviews": null,
    "price_level": "",
    "open_hours": "",
    "extraction_timestamp": "2025-06-08T03:29:42.606Z",
    "source_name": "google",
    "source_query": "Irrigation Equipment",
    "source_country": "UA",
    "country": "Ukraine",
    "state": "Kyivska oblast",
    "city": "Baryshivs’kyy Rayon"
  },
  {
    "source_id": "ChIJ6TjEm6D71EARx9Uvem2PZsM",
    "name": "Пп Лазаренко",
    "category": "Пп Лазаренко",
    "formatted_address": "4,4(39)",
    "phone_number": "",
    "source_url": "https://www.google.com/maps/place/%D0%9F%D0%BF+%D0%9B%D0%B0%D0%B7%D0%B0%D1%80%D0%B5%D0%BD%D0%BA%D0%BE/data=!4m7!3m6!1s0x40d4fba09bc438e9:0xc3668f6d7a2fd5c7!8m2!3d50.3506939!4d31.2100712!16s%2Fg%2F11c5swt2kc!19sChIJ6TjEm6D71EARx9Uvem2PZsM?authuser=0&hl=tr&rclk=1",
    "website_url": "",
    "rating_text": "4,4",
    "stars": null,
    "number_of_reviews": null,
    "price_level": "",
    "open_hours": "",
    "extraction_timestamp": "2025-06-08T03:29:42.606Z",
    "source_name": "google",
    "source_query": "Irrigation Equipment",
    "source_country": "UA",
    "country": "Ukraine",
    "state": "Kyivska oblast",
    "city": "Baryshivs’kyy Rayon"
  },
  {
    "source_id": "ChIJv0cJ6bT-1EAR1_o761-JVtM",
    "name": "Stop Store",
    "category": "Stop Store",
    "formatted_address": "4,1(147)",
    "phone_number": "",
    "source_url": "https://www.google.com/maps/place/Stop+Store/data=!4m7!3m6!1s0x40d4feb4e90947bf:0xd356895feb3bfad7!8m2!3d50.3469948!4d31.3176159!16s%2Fg%2F11c58q789d!19sChIJv0cJ6bT-1EAR1_o761-JVtM?authuser=0&hl=tr&rclk=1",
    "website_url": "",
    "rating_text": "4,1",
    "stars": null,
    "number_of_reviews": null,
    "price_level": "",
    "open_hours": "",
    "extraction_timestamp": "2025-06-08T03:29:42.607Z",
    "source_name": "google",
    "source_query": "Irrigation Equipment",
    "source_country": "UA",
    "country": "Ukraine",
    "state": "Kyivska oblast",
    "city": "Baryshivs’kyy Rayon"
  },
  {
    "source_id": "ChIJ3d6k1vbv1EARvTBvFhVEhy4",
    "name": "Теплохот - котлы, радиаторы, канализация, теплый пол, трубы и фитинги, запорная арматура",
    "category": "Теплохот - котлы, радиаторы, канализация, теплый пол, трубы и фитинги, запорная арматура",
    "formatted_address": "Теплохот - котлы, радиаторы, канализация, теплый пол, трубы и фитинги, запорная арматура",
    "phone_number": "+380633439199",
    "source_url": "https://www.google.com/maps/place/%D0%A2%D0%B5%D0%BF%D0%BB%D0%BE%D1%85%D0%BE%D1%82+-+%D0%BA%D0%BE%D1%82%D0%BB%D1%8B,+%D1%80%D0%B0%D0%B4%D0%B8%D0%B0%D1%82%D0%BE%D1%80%D1%8B,+%D0%BA%D0%B0%D0%BD%D0%B0%D0%BB%D0%B8%D0%B7%D0%B0%D1%86%D0%B8%D1%8F,+%D1%82%D0%B5%D0%BF%D0%BB%D1%8B%D0%B9+%D0%BF%D0%BE%D0%BB,+%D1%82%D1%80%D1%83%D0%B1%D1%8B+%D0%B8+%D1%84%D0%B8%D1%82%D0%B8%D0%BD%D0%B3%D0%B8,+%D0%B7%D0%B0%D0%BF%D0%BE%D1%80%D0%BD%D0%B0%D1%8F+%D0%B0%D1%80%D0%BC%D0%B0%D1%82%D1%83%D1%80%D0%B0/data=!4m7!3m6!1s0x40d4eff6d6a4dedd:0x2e874415166f30bd!8m2!3d50.3427456!4d30.9649025!16s%2Fg%2F11hyl4sn4l!19sChIJ3d6k1vbv1EARvTBvFhVEhy4?authuser=0&hl=tr&rclk=1",
    "website_url": "",
    "rating_text": "5,0",
    "stars": null,
    "number_of_reviews": null,
    "price_level": "",
    "open_hours": "",
    "extraction_timestamp": "2025-06-08T03:29:42.608Z",
    "source_name": "google",
    "source_query": "Irrigation Equipment",
    "source_country": "UA",
    "country": "Ukraine",
    "state": "Kyivska oblast",
    "city": "Baryshivs’kyy Rayon"
  },
  {
    "source_id": "ChIJ54yZgEPB1EARFNOdIi_FAJ4",
    "name": "Beshtor",
    "category": "Beshtor",
    "formatted_address": "2,0(1)",
    "phone_number": "+380635316556",
    "source_url": "https://www.google.com/maps/place/Beshtor/data=!4m7!3m6!1s0x40d4c14380998ce7:0x9e00c52f229dd314!8m2!3d50.448501!4d30.515775!16s%2Fg%2F11h64qhl6p!19sChIJ54yZgEPB1EARFNOdIi_FAJ4?authuser=0&hl=tr&rclk=1",
    "website_url": "",
    "rating_text": "2,0",
    "stars": null,
    "number_of_reviews": null,
    "price_level": "",
    "open_hours": "",
    "extraction_timestamp": "2025-06-08T03:29:42.609Z",
    "source_name": "google",
    "source_query": "Irrigation Equipment",
    "source_country": "UA",
    "country": "Ukraine",
    "state": "Kyivska oblast",
    "city": "Baryshivs’kyy Rayon"
  },
  {
    "source_id": "ChIJGzolVifF1EAR8i1ltF579hE",
    "name": "Nicegarden - все для саду, будинку, дачі та городу",
    "category": "Nicegarden - все для саду, будинку, дачі та городу",
    "formatted_address": "Nicegarden - все для саду, будинку, дачі та городу",
    "phone_number": "+380980767477",
    "source_url": "https://www.google.com/maps/place/Nicegarden+-+%D0%B2%D1%81%D0%B5+%D0%B4%D0%BB%D1%8F+%D1%81%D0%B0%D0%B4%D1%83,+%D0%B1%D1%83%D0%B4%D0%B8%D0%BD%D0%BA%D1%83,+%D0%B4%D0%B0%D1%87%D1%96+%D1%82%D0%B0+%D0%B3%D0%BE%D1%80%D0%BE%D0%B4%D1%83/data=!4m7!3m6!1s0x40d4c52756253a1b:0x11f67b5eb4652df2!8m2!3d50.4281879!4d30.67256!16s%2Fg%2F11df0qngj6!19sChIJGzolVifF1EAR8i1ltF579hE?authuser=0&hl=tr&rclk=1",
    "website_url": "",
    "rating_text": "4,3",
    "stars": null,
    "number_of_reviews": null,
    "price_level": "",
    "open_hours": "",
    "extraction_timestamp": "2025-06-08T03:29:42.610Z",
    "source_name": "google",
    "source_query": "Irrigation Equipment",
    "source_country": "UA",
    "country": "Ukraine",
    "state": "Kyivska oblast",
    "city": "Baryshivs’kyy Rayon"
  },
  {
    "source_id": "ChIJ8dsRixjR1EARoXe2z7DsZeY",
    "name": "Ukladka Hazona Pod Klyuch Y Avtopolyv Hazona V Kyeve - Vydenflora",
    "category": "Ukladka Hazona Pod Klyuch Y Avtopolyv Hazona V Kyeve - Vydenflora",
    "formatted_address": "5,0(2)",
    "phone_number": "+380984505511",
    "source_url": "https://www.google.com/maps/place/Ukladka+Hazona+Pod+Klyuch+Y+Avtopolyv+Hazona+V+Kyeve+-+Vydenflora/data=!4m7!3m6!1s0x40d4d1188b11dbf1:0xe665ecb0cfb677a1!8m2!3d50.4285014!4d30.6698685!16s%2Fg%2F1pyqm5xpx!19sChIJ8dsRixjR1EARoXe2z7DsZeY?authuser=0&hl=tr&rclk=1",
    "website_url": "",
    "rating_text": "5,0",
    "stars": null,
    "number_of_reviews": null,
    "price_level": "",
    "open_hours": "",
    "extraction_timestamp": "2025-06-08T03:29:42.611Z",
    "source_name": "google",
    "source_query": "Irrigation Equipment",
    "source_country": "UA",
    "country": "Ukraine",
    "state": "Kyivska oblast",
    "city": "Baryshivs’kyy Rayon"
  },
  {
    "source_id": "ChIJHYQk8jvZ1EARTyehGRwTk7E",
    "name": "Kyyivhuma",
    "category": "Kyyivhuma",
    "formatted_address": "4,5(39)",
    "phone_number": "+380443645670",
    "source_url": "https://www.google.com/maps/place/Kyyivhuma/data=!4m7!3m6!1s0x40d4d93bf224841d:0xb193131c19a1274f!8m2!3d50.5196346!4d30.8292838!16s%2Fg%2F11b6ql__1p!19sChIJHYQk8jvZ1EARTyehGRwTk7E?authuser=0&hl=tr&rclk=1",
    "website_url": "",
    "rating_text": "4,5",
    "stars": null,
    "number_of_reviews": null,
    "price_level": "",
    "open_hours": "",
    "extraction_timestamp": "2025-06-08T03:29:42.611Z",
    "source_name": "google",
    "source_query": "Irrigation Equipment",
    "source_country": "UA",
    "country": "Ukraine",
    "state": "Kyivska oblast",
    "city": "Baryshivs’kyy Rayon"
  },
  {
    "source_id": "ChIJYyU9lq_N1EARqoG8SYko8go",
    "name": "Лайф Гарден",
    "category": "Лайф Гарден",
    "formatted_address": "3,9(7)",
    "phone_number": "+380503719090",
    "source_url": "https://www.google.com/maps/place/%D0%9B%D0%B0%D0%B9%D1%84+%D0%93%D0%B0%D1%80%D0%B4%D0%B5%D0%BD/data=!4m7!3m6!1s0x40d4cdaf963d2563:0xaf2288949bc81aa!8m2!3d50.45748!4d30.3824706!16s%2Fg%2F11gr60b225!19sChIJYyU9lq_N1EARqoG8SYko8go?authuser=0&hl=tr&rclk=1",
    "website_url": "",
    "rating_text": "3,9",
    "stars": null,
    "number_of_reviews": null,
    "price_level": "",
    "open_hours": "",
    "extraction_timestamp": "2025-06-08T03:29:42.612Z",
    "source_name": "google",
    "source_query": "Irrigation Equipment",
    "source_country": "UA",
    "country": "Ukraine",
    "state": "Kyivska oblast",
    "city": "Baryshivs’kyy Rayon"
  },
  {
    "source_id": "ChIJKdnk1rjR1EARSbWKAVjIPSQ",
    "name": "TEXHA",
    "category": "TEXHA",
    "formatted_address": "5,0(3)",
    "phone_number": "+380638453357",
    "source_url": "https://www.google.com/maps/place/TEXHA/data=!4m7!3m6!1s0x40d4d1b8d6e4d929:0x243dc858018ab549!8m2!3d50.4812321!4d30.5913779!16s%2Fg%2F11rj4mh0cm!19sChIJKdnk1rjR1EARSbWKAVjIPSQ?authuser=0&hl=tr&rclk=1",
    "website_url": "",
    "rating_text": "5,0",
    "stars": null,
    "number_of_reviews": null,
    "price_level": "",
    "open_hours": "",
    "extraction_timestamp": "2025-06-08T03:29:42.613Z",
    "source_name": "google",
    "source_query": "Irrigation Equipment",
    "source_country": "UA",
    "country": "Ukraine",
    "state": "Kyivska oblast",
    "city": "Baryshivs’kyy Rayon"
  },
  {
    "source_id": "ChIJxc5Vc-LZ1EARD76oyxa9f3Q",
    "name": "Склад-Магазин Білояр Бровари Торгмаш",
    "category": "Склад-Магазин Білояр Бровари Торгмаш",
    "formatted_address": "4,8(9)",
    "phone_number": "+380684584545",
    "source_url": "https://www.google.com/maps/place/%D0%A1%D0%BA%D0%BB%D0%B0%D0%B4-%D0%9C%D0%B0%D0%B3%D0%B0%D0%B7%D0%B8%D0%BD+%D0%91%D1%96%D0%BB%D0%BE%D1%8F%D1%80+%D0%91%D1%80%D0%BE%D0%B2%D0%B0%D1%80%D0%B8+%D0%A2%D0%BE%D1%80%D0%B3%D0%BC%D0%B0%D1%88/data=!4m7!3m6!1s0x40d4d9e27355cec5:0x747fbd16cba8be0f!8m2!3d50.5058672!4d30.8244893!16s%2Fg%2F11fmvk0zgj!19sChIJxc5Vc-LZ1EARD76oyxa9f3Q?authuser=0&hl=tr&rclk=1",
    "website_url": "",
    "rating_text": "4,8",
    "stars": null,
    "number_of_reviews": null,
    "price_level": "",
    "open_hours": "",
    "extraction_timestamp": "2025-06-08T03:29:42.614Z",
    "source_name": "google",
    "source_query": "Irrigation Equipment",
    "source_country": "UA",
    "country": "Ukraine",
    "state": "Kyivska oblast",
    "city": "Baryshivs’kyy Rayon"
  },
  {
    "source_id": "ChIJldALKLv-1EARhwooby4jPt0",
    "name": "Kooperator Store",
    "category": "Kooperator Store",
    "formatted_address": "3,8(66)",
    "phone_number": "+380677650505",
    "source_url": "https://www.google.com/maps/place/Kooperator+Store/data=!4m7!3m6!1s0x40d4febb280bd095:0xdd3e232e6f280a87!8m2!3d50.3589454!4d31.3203594!16s%2Fg%2F11cs61y0rx!19sChIJldALKLv-1EARhwooby4jPt0?authuser=0&hl=tr&rclk=1",
    "website_url": "",
    "rating_text": "3,8",
    "stars": null,
    "number_of_reviews": null,
    "price_level": "",
    "open_hours": "",
    "extraction_timestamp": "2025-06-08T03:29:42.615Z",
    "source_name": "google",
    "source_query": "Irrigation Equipment",
    "source_country": "UA",
    "country": "Ukraine",
    "state": "Kyivska oblast",
    "city": "Baryshivs’kyy Rayon"
  },
  {
    "source_id": "ChIJDWCFKLv-1EARWkCe-p6HG7A",
    "name": "Недільний ринок",
    "category": "Недільний ринок",
    "formatted_address": "3,6(209)",
    "phone_number": "",
    "source_url": "https://www.google.com/maps/place/%D0%9D%D0%B5%D0%B4%D1%96%D0%BB%D1%8C%D0%BD%D0%B8%D0%B9+%D1%80%D0%B8%D0%BD%D0%BE%D0%BA/data=!4m7!3m6!1s0x40d4febb2885600d:0xb01b879efa9e405a!8m2!3d50.3585355!4d31.320798!16s%2Fg%2F12vtf72yj!19sChIJDWCFKLv-1EARWkCe-p6HG7A?authuser=0&hl=tr&rclk=1",
    "website_url": "",
    "rating_text": "3,6",
    "stars": null,
    "number_of_reviews": null,
    "price_level": "",
    "open_hours": "",
    "extraction_timestamp": "2025-06-08T03:29:42.615Z",
    "source_name": "google",
    "source_query": "Irrigation Equipment",
    "source_country": "UA",
    "country": "Ukraine",
    "state": "Kyivska oblast",
    "city": "Baryshivs’kyy Rayon"
  }
]
