[
  {
    "source_id": "ChIJKSw9-qn-1EARYBYDtb5qZ0I",
    "name": "Максі - Будівельний супермаркет",
    "category": "Максі - Будівельний супермаркет",
    "formatted_address": "4,6(255)",
    "phone_number": "+380987000726",
    "source_url": "https://www.google.com/maps/place/%D0%9C%D0%B0%D0%BA%D1%81%D1%96+-+%D0%91%D1%83%D0%B4%D1%96%D0%B2%D0%B5%D0%BB%D1%8C%D0%BD%D0%B8%D0%B9+%D1%81%D1%83%D0%BF%D0%B5%D1%80%D0%BC%D0%B0%D1%80%D0%BA%D0%B5%D1%82/data=!4m7!3m6!1s0x40d4fea9fa3d2c29:0x42676abeb5031660!8m2!3d50.3572666!4d31.2981873!16s%2Fg%2F11dymw5wn7!19sChIJKSw9-qn-1EARYBYDtb5qZ0I?authuser=0&hl=tr&rclk=1",
    "website_url": "",
    "rating_text": "4,6",
    "stars": null,
    "number_of_reviews": null,
    "price_level": "",
    "open_hours": "",
    "extraction_timestamp": "2025-06-08T03:30:48.921Z",
    "source_name": "google",
    "source_query": "Irrigation Equipment",
    "source_country": "UA",
    "country": "Ukraine",
    "state": "Kyivska oblast",
    "city": "Baryshivka"
  },
  {
    "source_id": "ChIJjflqRcn_1EAR6fSbGLrWnjc",
    "name": "Центр видачі замовлень ЕПІЦЕНТР.ua",
    "category": "Центр видачі замовлень ЕПІЦЕНТР.ua",
    "formatted_address": "5,0(2)",
    "phone_number": "+380800202727",
    "source_url": "https://www.google.com/maps/place/%D0%A6%D0%B5%D0%BD%D1%82%D1%80+%D0%B2%D0%B8%D0%B4%D0%B0%D1%87%D1%96+%D0%B7%D0%B0%D0%BC%D0%BE%D0%B2%D0%BB%D0%B5%D0%BD%D1%8C+%D0%95%D0%9F%D0%86%D0%A6%D0%95%D0%9D%D0%A2%D0%A0.ua/data=!4m7!3m6!1s0x40d4ffc9456af98d:0x379ed6ba189bf4e9!8m2!3d50.36658!4d31.3295721!16s%2Fg%2F11w3l2hv0g!19sChIJjflqRcn_1EAR6fSbGLrWnjc?authuser=0&hl=tr&rclk=1",
    "website_url": "",
    "rating_text": "5,0",
    "stars": null,
    "number_of_reviews": null,
    "price_level": "",
    "open_hours": "",
    "extraction_timestamp": "2025-06-08T03:30:48.921Z",
    "source_name": "google",
    "source_query": "Irrigation Equipment",
    "source_country": "UA",
    "country": "Ukraine",
    "state": "Kyivska oblast",
    "city": "Baryshivka"
  },
  {
    "source_id": "ChIJ2-XZxrL-1EARaxNHU7H50xI",
    "name": "Будмайстер",
    "category": "Будмайстер",
    "formatted_address": "4,4(134)",
    "phone_number": "+380457654127",
    "source_url": "https://www.google.com/maps/place/%D0%91%D1%83%D0%B4%D0%BC%D0%B0%D0%B9%D1%81%D1%82%D0%B5%D1%80/data=!4m7!3m6!1s0x40d4feb2c6d9e5db:0x12d3f9b15347136b!8m2!3d50.3492524!4d31.3100755!16s%2Fg%2F11cjj3hncp!19sChIJ2-XZxrL-1EARaxNHU7H50xI?authuser=0&hl=tr&rclk=1",
    "website_url": "",
    "rating_text": "4,4",
    "stars": null,
    "number_of_reviews": null,
    "price_level": "",
    "open_hours": "",
    "extraction_timestamp": "2025-06-08T03:30:48.922Z",
    "source_name": "google",
    "source_query": "Irrigation Equipment",
    "source_country": "UA",
    "country": "Ukraine",
    "state": "Kyivska oblast",
    "city": "Baryshivka"
  },
  {
    "source_id": "ChIJb4Yt8gP_1EARw1I2z0Kpklc",
    "name": "Базель",
    "category": "Базель",
    "formatted_address": "5,0(12)",
    "phone_number": "+380968569623",
    "source_url": "https://www.google.com/maps/place/%D0%91%D0%B0%D0%B7%D0%B5%D0%BB%D1%8C/data=!4m7!3m6!1s0x40d4ff03f22d866f:0x5792a942cf3652c3!8m2!3d50.3569918!4d31.3093379!16s%2Fg%2F11sq8f9dtn!19sChIJb4Yt8gP_1EARw1I2z0Kpklc?authuser=0&hl=tr&rclk=1",
    "website_url": "",
    "rating_text": "5,0",
    "stars": null,
    "number_of_reviews": null,
    "price_level": "",
    "open_hours": "",
    "extraction_timestamp": "2025-06-08T03:30:48.922Z",
    "source_name": "google",
    "source_query": "Irrigation Equipment",
    "source_country": "UA",
    "country": "Ukraine",
    "state": "Kyivska oblast",
    "city": "Baryshivka"
  },
  {
    "source_id": "ChIJuUQzWAD_1EARCbHQmOCSOik",
    "name": "Svit Vody",
    "category": "Svit Vody",
    "formatted_address": "1,0(1)",
    "phone_number": "",
    "source_url": "https://www.google.com/maps/place/Svit+Vody/data=!4m7!3m6!1s0x40d4ff00583344b9:0x293a92e098d0b109!8m2!3d50.3527418!4d31.3177416!16s%2Fg%2F11ldbl9_d4!19sChIJuUQzWAD_1EARCbHQmOCSOik?authuser=0&hl=tr&rclk=1",
    "website_url": "",
    "rating_text": "1,0",
    "stars": null,
    "number_of_reviews": null,
    "price_level": "",
    "open_hours": "",
    "extraction_timestamp": "2025-06-08T03:30:48.923Z",
    "source_name": "google",
    "source_query": "Irrigation Equipment",
    "source_country": "UA",
    "country": "Ukraine",
    "state": "Kyivska oblast",
    "city": "Baryshivka"
  },
  {
    "source_id": "ChIJldALKLv-1EARhwooby4jPt0",
    "name": "Kooperator Store",
    "category": "Kooperator Store",
    "formatted_address": "3,8(66)",
    "phone_number": "+380677650505",
    "source_url": "https://www.google.com/maps/place/Kooperator+Store/data=!4m7!3m6!1s0x40d4febb280bd095:0xdd3e232e6f280a87!8m2!3d50.3589454!4d31.3203594!16s%2Fg%2F11cs61y0rx!19sChIJldALKLv-1EARhwooby4jPt0?authuser=0&hl=tr&rclk=1",
    "website_url": "",
    "rating_text": "3,8",
    "stars": null,
    "number_of_reviews": null,
    "price_level": "",
    "open_hours": "",
    "extraction_timestamp": "2025-06-08T03:30:48.924Z",
    "source_name": "google",
    "source_query": "Irrigation Equipment",
    "source_country": "UA",
    "country": "Ukraine",
    "state": "Kyivska oblast",
    "city": "Baryshivka"
  },
  {
    "source_id": "ChIJa8nrBwj_1EARIvVfnKkeWBs",
    "name": "ROZETKA",
    "category": "ROZETKA",
    "formatted_address": "4,6(8)",
    "phone_number": "",
    "source_url": "https://www.google.com/maps/place/ROZETKA/data=!4m7!3m6!1s0x40d4ff0807ebc96b:0x1b581ea99c5ff522!8m2!3d50.3666634!4d31.3295554!16s%2Fg%2F11vbkd46xh!19sChIJa8nrBwj_1EARIvVfnKkeWBs?authuser=0&hl=tr&rclk=1",
    "website_url": "",
    "rating_text": "4,6",
    "stars": null,
    "number_of_reviews": null,
    "price_level": "",
    "open_hours": "",
    "extraction_timestamp": "2025-06-08T03:30:48.925Z",
    "source_name": "google",
    "source_query": "Irrigation Equipment",
    "source_country": "UA",
    "country": "Ukraine",
    "state": "Kyivska oblast",
    "city": "Baryshivka"
  },
  {
    "source_id": "ChIJ3f__pRX_1EARgW5HNieOxr0",
    "name": "Pytna Voda",
    "category": "Pytna Voda",
    "formatted_address": "5,0(3)",
    "phone_number": "+380970055040",
    "source_url": "https://www.google.com/maps/place/Pytna+Voda/data=!4m7!3m6!1s0x40d4ff15a5ffffdd:0xbdc68e2736476e81!8m2!3d50.3626964!4d31.3276085!16s%2Fg%2F11l6s4p149!19sChIJ3f__pRX_1EARgW5HNieOxr0?authuser=0&hl=tr&rclk=1",
    "website_url": "",
    "rating_text": "5,0",
    "stars": null,
    "number_of_reviews": null,
    "price_level": "",
    "open_hours": "",
    "extraction_timestamp": "2025-06-08T03:30:48.925Z",
    "source_name": "google",
    "source_query": "Irrigation Equipment",
    "source_country": "UA",
    "country": "Ukraine",
    "state": "Kyivska oblast",
    "city": "Baryshivka"
  },
  {
    "source_id": "ChIJDWCFKLv-1EARWkCe-p6HG7A",
    "name": "Недільний ринок",
    "category": "Недільний ринок",
    "formatted_address": "3,6(209)",
    "phone_number": "",
    "source_url": "https://www.google.com/maps/place/%D0%9D%D0%B5%D0%B4%D1%96%D0%BB%D1%8C%D0%BD%D0%B8%D0%B9+%D1%80%D0%B8%D0%BD%D0%BE%D0%BA/data=!4m7!3m6!1s0x40d4febb2885600d:0xb01b879efa9e405a!8m2!3d50.3585355!4d31.320798!16s%2Fg%2F12vtf72yj!19sChIJDWCFKLv-1EARWkCe-p6HG7A?authuser=0&hl=tr&rclk=1",
    "website_url": "",
    "rating_text": "3,6",
    "stars": null,
    "number_of_reviews": null,
    "price_level": "",
    "open_hours": "",
    "extraction_timestamp": "2025-06-08T03:30:48.926Z",
    "source_name": "google",
    "source_query": "Irrigation Equipment",
    "source_country": "UA",
    "country": "Ukraine",
    "state": "Kyivska oblast",
    "city": "Baryshivka"
  },
  {
    "source_id": "ChIJv0cJ6bT-1EAR1_o761-JVtM",
    "name": "Stop Store",
    "category": "Stop Store",
    "formatted_address": "4,1(147)",
    "phone_number": "",
    "source_url": "https://www.google.com/maps/place/Stop+Store/data=!4m7!3m6!1s0x40d4feb4e90947bf:0xd356895feb3bfad7!8m2!3d50.3469948!4d31.3176159!16s%2Fg%2F11c58q789d!19sChIJv0cJ6bT-1EAR1_o761-JVtM?authuser=0&hl=tr&rclk=1",
    "website_url": "",
    "rating_text": "4,1",
    "stars": null,
    "number_of_reviews": null,
    "price_level": "",
    "open_hours": "",
    "extraction_timestamp": "2025-06-08T03:30:48.926Z",
    "source_name": "google",
    "source_query": "Irrigation Equipment",
    "source_country": "UA",
    "country": "Ukraine",
    "state": "Kyivska oblast",
    "city": "Baryshivka"
  },
  {
    "source_id": "ChIJ6bXv26D-1EARn5Rs6m8wYsM",
    "name": "Pidkova",
    "category": "Pidkova",
    "formatted_address": "4,3(93)",
    "phone_number": "",
    "source_url": "https://www.google.com/maps/place/Pidkova/data=!4m7!3m6!1s0x40d4fea0dbefb5e9:0xc362306fea6c949f!8m2!3d50.3654597!4d31.3114755!16s%2Fg%2F11ckrczbwz!19sChIJ6bXv26D-1EARn5Rs6m8wYsM?authuser=0&hl=tr&rclk=1",
    "website_url": "",
    "rating_text": "4,3",
    "stars": null,
    "number_of_reviews": null,
    "price_level": "",
    "open_hours": "",
    "extraction_timestamp": "2025-06-08T03:30:48.927Z",
    "source_name": "google",
    "source_query": "Irrigation Equipment",
    "source_country": "UA",
    "country": "Ukraine",
    "state": "Kyivska oblast",
    "city": "Baryshivka"
  },
  {
    "source_id": "ChIJMxPrzan-1EARauFv4KO6fz8",
    "name": "Mahazyn \"Lasunya\"",
    "category": "Mahazyn \"Lasunya\"",
    "formatted_address": "3,9(48)",
    "phone_number": "+380457641535",
    "source_url": "https://www.google.com/maps/place/Mahazyn+%22Lasunya%22/data=!4m7!3m6!1s0x40d4fea9cdeb1333:0x3f7fbaa3e06fe16a!8m2!3d50.3588078!4d31.3003729!16s%2Fg%2F11cm4cv7cl!19sChIJMxPrzan-1EARauFv4KO6fz8?authuser=0&hl=tr&rclk=1",
    "website_url": "",
    "rating_text": "3,9",
    "stars": null,
    "number_of_reviews": null,
    "price_level": "",
    "open_hours": "",
    "extraction_timestamp": "2025-06-08T03:30:48.928Z",
    "source_name": "google",
    "source_query": "Irrigation Equipment",
    "source_country": "UA",
    "country": "Ukraine",
    "state": "Kyivska oblast",
    "city": "Baryshivka"
  },
  {
    "source_id": "ChIJQ-r4VbH-1EARLaG7WrIG3gw",
    "name": "Evrobud",
    "category": "Evrobud",
    "formatted_address": "4,1(107)",
    "phone_number": "+380960222228",
    "source_url": "https://www.google.com/maps/place/Evrobud/data=!4m7!3m6!1s0x40d4feb155f8ea43:0xcde06b25abba12d!8m2!3d50.3506856!4d31.3189802!16s%2Fg%2F11c5rrt9tv!19sChIJQ-r4VbH-1EARLaG7WrIG3gw?authuser=0&hl=tr&rclk=1",
    "website_url": "",
    "rating_text": "4,1",
    "stars": null,
    "number_of_reviews": null,
    "price_level": "",
    "open_hours": "",
    "extraction_timestamp": "2025-06-08T03:30:48.928Z",
    "source_name": "google",
    "source_query": "Irrigation Equipment",
    "source_country": "UA",
    "country": "Ukraine",
    "state": "Kyivska oblast",
    "city": "Baryshivka"
  },
  {
    "source_id": "ChIJIRUqHaj-1EARfz2_BG7eeZY",
    "name": "Nash Kraj",
    "category": "Nash Kraj",
    "formatted_address": "3,4(263)",
    "phone_number": "+380800501418",
    "source_url": "https://www.google.com/maps/place/Nash+Kraj/data=!4m7!3m6!1s0x40d4fea81d2a1521:0x9679de6e04bf3d7f!8m2!3d50.3607528!4d31.3017904!16s%2Fg%2F11c0w555kb!19sChIJIRUqHaj-1EARfz2_BG7eeZY?authuser=0&hl=tr&rclk=1",
    "website_url": "",
    "rating_text": "3,4",
    "stars": null,
    "number_of_reviews": null,
    "price_level": "",
    "open_hours": "",
    "extraction_timestamp": "2025-06-08T03:30:48.929Z",
    "source_name": "google",
    "source_query": "Irrigation Equipment",
    "source_country": "UA",
    "country": "Ukraine",
    "state": "Kyivska oblast",
    "city": "Baryshivka"
  },
  {
    "source_id": "ChIJxTZfEaH-1EARt0VV1m4T8BY",
    "name": "U Kuma",
    "category": "U Kuma",
    "formatted_address": "4,1(168)",
    "phone_number": "",
    "source_url": "https://www.google.com/maps/place/U+Kuma/data=!4m7!3m6!1s0x40d4fea1115f36c5:0x16f0136ed65545b7!8m2!3d50.3654994!4d31.3141381!16s%2Fg%2F11c2lg_rr1!19sChIJxTZfEaH-1EARt0VV1m4T8BY?authuser=0&hl=tr&rclk=1",
    "website_url": "",
    "rating_text": "4,1",
    "stars": null,
    "number_of_reviews": null,
    "price_level": "",
    "open_hours": "",
    "extraction_timestamp": "2025-06-08T03:30:48.929Z",
    "source_name": "google",
    "source_query": "Irrigation Equipment",
    "source_country": "UA",
    "country": "Ukraine",
    "state": "Kyivska oblast",
    "city": "Baryshivka"
  },
  {
    "source_id": "ChIJR2D8N6j-1EAR-CFEuk8hNOw",
    "name": "\"Lyudmyla\"",
    "category": "\"Lyudmyla\"",
    "formatted_address": "4,0(106)",
    "phone_number": "",
    "source_url": "https://www.google.com/maps/place/%22Lyudmyla%22/data=!4m7!3m6!1s0x40d4fea837fc6047:0xec34214fba4421f8!8m2!3d50.3592801!4d31.302022!16s%2Fg%2F11c60dhqwt!19sChIJR2D8N6j-1EAR-CFEuk8hNOw?authuser=0&hl=tr&rclk=1",
    "website_url": "",
    "rating_text": "4,0",
    "stars": null,
    "number_of_reviews": null,
    "price_level": "",
    "open_hours": "",
    "extraction_timestamp": "2025-06-08T03:30:48.930Z",
    "source_name": "google",
    "source_query": "Irrigation Equipment",
    "source_country": "UA",
    "country": "Ukraine",
    "state": "Kyivska oblast",
    "city": "Baryshivka"
  },
  {
    "source_id": "ChIJD4sJfaX-1EARn3OUuZosG_8",
    "name": "Мандарин",
    "category": "Мандарин",
    "formatted_address": "4,4(118)",
    "phone_number": "",
    "source_url": "https://www.google.com/maps/place/%D0%9C%D0%B0%D0%BD%D0%B4%D0%B0%D1%80%D0%B8%D0%BD/data=!4m7!3m6!1s0x40d4fea57d098b0f:0xff1b2c9ab994739f!8m2!3d50.3580183!4d31.313935!16s%2Fg%2F11cnm65bpt!19sChIJD4sJfaX-1EARn3OUuZosG_8?authuser=0&hl=tr&rclk=1",
    "website_url": "",
    "rating_text": "4,4",
    "stars": null,
    "number_of_reviews": null,
    "price_level": "",
    "open_hours": "",
    "extraction_timestamp": "2025-06-08T03:30:48.930Z",
    "source_name": "google",
    "source_query": "Irrigation Equipment",
    "source_country": "UA",
    "country": "Ukraine",
    "state": "Kyivska oblast",
    "city": "Baryshivka"
  },
  {
    "source_id": "ChIJrXbV2Jf-1EARS7nxg5TnS_k",
    "name": "Shop Center",
    "category": "Shop Center",
    "formatted_address": "3,8(173)",
    "phone_number": "",
    "source_url": "https://www.google.com/maps/place/Shop+Center/data=!4m7!3m6!1s0x40d4fe97d8d576ad:0xf94be79483f1b94b!8m2!3d50.364847!4d31.3295694!16s%2Fg%2F11cr__r0my!19sChIJrXbV2Jf-1EARS7nxg5TnS_k?authuser=0&hl=tr&rclk=1",
    "website_url": "",
    "rating_text": "3,8",
    "stars": null,
    "number_of_reviews": null,
    "price_level": "",
    "open_hours": "",
    "extraction_timestamp": "2025-06-08T03:30:48.931Z",
    "source_name": "google",
    "source_query": "Irrigation Equipment",
    "source_country": "UA",
    "country": "Ukraine",
    "state": "Kyivska oblast",
    "city": "Baryshivka"
  },
  {
    "source_id": "ChIJ9RPjUZb-1EARd21Kp2itG0o",
    "name": "Shop \"Household Goods\"",
    "category": "Shop \"Household Goods\"",
    "formatted_address": "4,2(5)",
    "phone_number": "",
    "source_url": "https://www.google.com/maps/place/Shop+%22Household+Goods%22/data=!4m7!3m6!1s0x40d4fe9651e313f5:0x4a1bad68a74a6d77!8m2!3d50.3656081!4d31.3332767!16s%2Fg%2F1pp2vbbc3!19sChIJ9RPjUZb-1EARd21Kp2itG0o?authuser=0&hl=tr&rclk=1",
    "website_url": "",
    "rating_text": "4,2",
    "stars": null,
    "number_of_reviews": null,
    "price_level": "",
    "open_hours": "",
    "extraction_timestamp": "2025-06-08T03:30:48.931Z",
    "source_name": "google",
    "source_query": "Irrigation Equipment",
    "source_country": "UA",
    "country": "Ukraine",
    "state": "Kyivska oblast",
    "city": "Baryshivka"
  },
  {
    "source_id": "ChIJ-QIotGn_1EARLuWUEl-LIeM",
    "name": "Магазин AvtoBoss",
    "category": "Магазин AvtoBoss",
    "formatted_address": "5,0(12)",
    "phone_number": "+380687772183",
    "source_url": "https://www.google.com/maps/place/%D0%9C%D0%B0%D0%B3%D0%B0%D0%B7%D0%B8%D0%BD+AvtoBoss/data=!4m7!3m6!1s0x40d4ff69b42802f9:0xe3218b5f1294e52e!8m2!3d50.3674682!4d31.3283213!16s%2Fg%2F11rqh6y_hq!19sChIJ-QIotGn_1EARLuWUEl-LIeM?authuser=0&hl=tr&rclk=1",
    "website_url": "",
    "rating_text": "5,0",
    "stars": null,
    "number_of_reviews": null,
    "price_level": "",
    "open_hours": "",
    "extraction_timestamp": "2025-06-08T03:30:48.932Z",
    "source_name": "google",
    "source_query": "Irrigation Equipment",
    "source_country": "UA",
    "country": "Ukraine",
    "state": "Kyivska oblast",
    "city": "Baryshivka"
  },
  {
    "source_id": "ChIJ44WAkjX_1EARv-pp65KgQIk",
    "name": "Hrona",
    "category": "Hrona",
    "formatted_address": "5,0(1)",
    "phone_number": "",
    "source_url": "https://www.google.com/maps/place/Hrona/data=!4m7!3m6!1s0x40d4ff35928085e3:0x8940a092eb69eabf!8m2!3d50.3668849!4d31.3282745!16s%2Fg%2F11fl_jmtg1!19sChIJ44WAkjX_1EARv-pp65KgQIk?authuser=0&hl=tr&rclk=1",
    "website_url": "",
    "rating_text": "5,0",
    "stars": null,
    "number_of_reviews": null,
    "price_level": "",
    "open_hours": "",
    "extraction_timestamp": "2025-06-08T03:30:48.932Z",
    "source_name": "google",
    "source_query": "Irrigation Equipment",
    "source_country": "UA",
    "country": "Ukraine",
    "state": "Kyivska oblast",
    "city": "Baryshivka"
  },
  {
    "source_id": "ChIJzbVU1Jf-1EAR4hPBTSGwYzM",
    "name": "ONcoffee Баришівка",
    "category": "ONcoffee Баришівка",
    "formatted_address": "4,5(118)",
    "phone_number": "",
    "source_url": "https://www.google.com/maps/place/ONcoffee+%D0%91%D0%B0%D1%80%D0%B8%D1%88%D1%96%D0%B2%D0%BA%D0%B0/data=!4m7!3m6!1s0x40d4fe97d454b5cd:0x3363b0214dc113e2!8m2!3d50.3646832!4d31.331166!16s%2Fg%2F11bzt3mnbs!19sChIJzbVU1Jf-1EAR4hPBTSGwYzM?authuser=0&hl=tr&rclk=1",
    "website_url": "",
    "rating_text": "4,5",
    "stars": null,
    "number_of_reviews": null,
    "price_level": "",
    "open_hours": "",
    "extraction_timestamp": "2025-06-08T03:30:48.933Z",
    "source_name": "google",
    "source_query": "Irrigation Equipment",
    "source_country": "UA",
    "country": "Ukraine",
    "state": "Kyivska oblast",
    "city": "Baryshivka"
  },
  {
    "source_id": "ChIJo6zv4Zf-1EARg8I6loTy1rk",
    "name": "Pyatachok",
    "category": "Pyatachok",
    "formatted_address": "4,3(33)",
    "phone_number": "",
    "source_url": "https://www.google.com/maps/place/Pyatachok/data=!4m7!3m6!1s0x40d4fe97e1efaca3:0xb9d6f284963ac283!8m2!3d50.365042!4d31.3285992!16s%2Fg%2F11d_8xsrxj!19sChIJo6zv4Zf-1EARg8I6loTy1rk?authuser=0&hl=tr&rclk=1",
    "website_url": "",
    "rating_text": "4,3",
    "stars": null,
    "number_of_reviews": null,
    "price_level": "",
    "open_hours": "",
    "extraction_timestamp": "2025-06-08T03:30:48.933Z",
    "source_name": "google",
    "source_query": "Irrigation Equipment",
    "source_country": "UA",
    "country": "Ukraine",
    "state": "Kyivska oblast",
    "city": "Baryshivka"
  },
  {
    "source_id": "ChIJJ2OCNJb-1EARKjMjBzwJlI0",
    "name": "Grocery Store \"Stop\"",
    "category": "Grocery Store \"Stop\"",
    "formatted_address": "4,6(34)",
    "phone_number": "",
    "source_url": "https://www.google.com/maps/place/Grocery+Store+%22Stop%22/data=!4m7!3m6!1s0x40d4fe9634826327:0x8d94093c0723332a!8m2!3d50.3649154!4d31.3317616!16s%2Fg%2F11c74kvc9s!19sChIJJ2OCNJb-1EARKjMjBzwJlI0?authuser=0&hl=tr&rclk=1",
    "website_url": "",
    "rating_text": "4,6",
    "stars": null,
    "number_of_reviews": null,
    "price_level": "",
    "open_hours": "",
    "extraction_timestamp": "2025-06-08T03:30:48.934Z",
    "source_name": "google",
    "source_query": "Irrigation Equipment",
    "source_country": "UA",
    "country": "Ukraine",
    "state": "Kyivska oblast",
    "city": "Baryshivka"
  },
  {
    "source_id": "ChIJP4CRAwD_1EARvThn1woyyY4",
    "name": "Mahazyn \"Hospodarochka\"",
    "category": "Mahazyn \"Hospodarochka\"",
    "formatted_address": "5,0(3)",
    "phone_number": "",
    "source_url": "https://www.google.com/maps/place/Mahazyn+%22Hospodarochka%22/data=!4m7!3m6!1s0x40d4ff000391803f:0x8ec9320ad76738bd!8m2!3d50.3647984!4d31.3307879!16s%2Fg%2F11lzfs5gfy!19sChIJP4CRAwD_1EARvThn1woyyY4?authuser=0&hl=tr&rclk=1",
    "website_url": "",
    "rating_text": "5,0",
    "stars": null,
    "number_of_reviews": null,
    "price_level": "",
    "open_hours": "",
    "extraction_timestamp": "2025-06-08T03:30:48.934Z",
    "source_name": "google",
    "source_query": "Irrigation Equipment",
    "source_country": "UA",
    "country": "Ukraine",
    "state": "Kyivska oblast",
    "city": "Baryshivka"
  },
  {
    "source_id": "ChIJTVIv0Zf-1EARTcyhDR9lA8E",
    "name": "Market \"Youth\"",
    "category": "Market \"Youth\"",
    "formatted_address": "3,4(14)",
    "phone_number": "",
    "source_url": "https://www.google.com/maps/place/Market+%22Youth%22/data=!4m7!3m6!1s0x40d4fe97d12f524d:0xc103651f0da1cc4d!8m2!3d50.3646106!4d31.3306337!16s%2Fg%2F11g7z4cf34!19sChIJTVIv0Zf-1EARTcyhDR9lA8E?authuser=0&hl=tr&rclk=1",
    "website_url": "",
    "rating_text": "3,4",
    "stars": null,
    "number_of_reviews": null,
    "price_level": "",
    "open_hours": "",
    "extraction_timestamp": "2025-06-08T03:30:48.935Z",
    "source_name": "google",
    "source_query": "Irrigation Equipment",
    "source_country": "UA",
    "country": "Ukraine",
    "state": "Kyivska oblast",
    "city": "Baryshivka"
  },
  {
    "source_id": "ChIJvTRcvxb_1EARlwJNQleTxm0",
    "name": "Аптека «Бажаємо здоров'я»",
    "category": "Аптека «Бажаємо здоров'я»",
    "formatted_address": "4,8(4)",
    "phone_number": "+380734302967",
    "source_url": "https://www.google.com/maps/place/%D0%90%D0%BF%D1%82%D0%B5%D0%BA%D0%B0+%C2%AB%D0%91%D0%B0%D0%B6%D0%B0%D1%94%D0%BC%D0%BE+%D0%B7%D0%B4%D0%BE%D1%80%D0%BE%D0%B2%27%D1%8F%C2%BB/data=!4m7!3m6!1s0x40d4ff16bf5c34bd:0x6dc69357424d0297!8m2!3d50.365662!4d31.3295299!16s%2Fg%2F11vt66sf9d!19sChIJvTRcvxb_1EARlwJNQleTxm0?authuser=0&hl=tr&rclk=1",
    "website_url": "",
    "rating_text": "4,8",
    "stars": null,
    "number_of_reviews": null,
    "price_level": "",
    "open_hours": "",
    "extraction_timestamp": "2025-06-08T03:30:48.936Z",
    "source_name": "google",
    "source_query": "Irrigation Equipment",
    "source_country": "UA",
    "country": "Ukraine",
    "state": "Kyivska oblast",
    "city": "Baryshivka"
  },
  {
    "source_id": "ChIJC_7IsZf-1EARfVhqycRHb5c",
    "name": "Municipal market",
    "category": "Municipal market",
    "formatted_address": "3,0(3)",
    "phone_number": "",
    "source_url": "https://www.google.com/maps/place/Municipal+market/data=!4m7!3m6!1s0x40d4fe97b1c8fe0b:0x976f47c4c96a587d!8m2!3d50.3660155!4d31.3319946!16s%2Fg%2F11d__02q3k!19sChIJC_7IsZf-1EARfVhqycRHb5c?authuser=0&hl=tr&rclk=1",
    "website_url": "",
    "rating_text": "3,0",
    "stars": null,
    "number_of_reviews": null,
    "price_level": "",
    "open_hours": "",
    "extraction_timestamp": "2025-06-08T03:30:48.937Z",
    "source_name": "google",
    "source_query": "Irrigation Equipment",
    "source_country": "UA",
    "country": "Ukraine",
    "state": "Kyivska oblast",
    "city": "Baryshivka"
  },
  {
    "source_id": "ChIJn4Ey9iv_1EARXsGxZEVSULE",
    "name": "Yevrokoshyk",
    "category": "Yevrokoshyk",
    "formatted_address": "4,8(5)",
    "phone_number": "",
    "source_url": "https://www.google.com/maps/place/Yevrokoshyk/data=!4m7!3m6!1s0x40d4ff2bf632819f:0xb150524564b1c15e!8m2!3d50.3658434!4d31.3325349!16s%2Fg%2F11vm4yyq0_!19sChIJn4Ey9iv_1EARXsGxZEVSULE?authuser=0&hl=tr&rclk=1",
    "website_url": "",
    "rating_text": "4,8",
    "stars": null,
    "number_of_reviews": null,
    "price_level": "",
    "open_hours": "",
    "extraction_timestamp": "2025-06-08T03:30:48.937Z",
    "source_name": "google",
    "source_query": "Irrigation Equipment",
    "source_country": "UA",
    "country": "Ukraine",
    "state": "Kyivska oblast",
    "city": "Baryshivka"
  },
  {
    "source_id": "ChIJsejIAcr_1EAR-pHkVbEGTMU",
    "name": "Vivent",
    "category": "Vivent",
    "formatted_address": "4,6(16)",
    "phone_number": "",
    "source_url": "https://www.google.com/maps/place/Vivent/data=!4m7!3m6!1s0x40d4ffca01c8e8b1:0xc54c06b155e491fa!8m2!3d50.3652599!4d31.3320694!16s%2Fg%2F11fd6n56pp!19sChIJsejIAcr_1EAR-pHkVbEGTMU?authuser=0&hl=tr&rclk=1",
    "website_url": "",
    "rating_text": "4,6",
    "stars": null,
    "number_of_reviews": null,
    "price_level": "",
    "open_hours": "",
    "extraction_timestamp": "2025-06-08T03:30:48.937Z",
    "source_name": "google",
    "source_query": "Irrigation Equipment",
    "source_country": "UA",
    "country": "Ukraine",
    "state": "Kyivska oblast",
    "city": "Baryshivka"
  }
]
