[
  {
    "source_id": "ChIJaVq6nI2W00ARXptiz1nSjdk",
    "name": "Viktoriya-Bud",
    "category": "Viktoriya-Bud",
    "formatted_address": "4,6(183)",
    "phone_number": "+380669944473",
    "source_url": "https://www.google.com/maps/place/Viktoriya-Bud/data=!4m7!3m6!1s0x40d3968d9cba5a69:0xd98dd259cf629b5e!8m2!3d49.5328159!4d30.882485!16s%2Fg%2F11gb3shwpw!19sChIJaVq6nI2W00ARXptiz1nSjdk?authuser=0&hl=tr&rclk=1",
    "website_url": "",
    "rating_text": "4,6",
    "stars": null,
    "number_of_reviews": null,
    "price_level": "",
    "open_hours": "",
    "extraction_timestamp": "2025-06-08T03:34:51.076Z",
    "source_name": "google",
    "source_query": "Irrigation Equipment",
    "source_country": "UA",
    "country": "Ukraine",
    "state": "Kyivska oblast",
    "city": "Bohuslav"
  },
  {
    "source_id": "ChIJW_kz_s6X00AReS_Xfy7Kgkw",
    "name": "Santekhsvit",
    "category": "Santekhsvit",
    "formatted_address": "5,0(2)",
    "phone_number": "+380983604298",
    "source_url": "https://www.google.com/maps/place/Santekhsvit/data=!4m7!3m6!1s0x40d397cefe33f95b:0x4c82ca2e7fd72f79!8m2!3d49.5406304!4d30.8684573!16s%2Fg%2F11vxjscmbs!19sChIJW_kz_s6X00AReS_Xfy7Kgkw?authuser=0&hl=tr&rclk=1",
    "website_url": "",
    "rating_text": "5,0",
    "stars": null,
    "number_of_reviews": null,
    "price_level": "",
    "open_hours": "",
    "extraction_timestamp": "2025-06-08T03:34:51.077Z",
    "source_name": "google",
    "source_query": "Irrigation Equipment",
    "source_country": "UA",
    "country": "Ukraine",
    "state": "Kyivska oblast",
    "city": "Bohuslav"
  },
  {
    "source_id": "ChIJ9Y9NLLuX00AR41LBw9W_PSk",
    "name": "ROZETKA",
    "category": "ROZETKA",
    "formatted_address": "5,0(11)",
    "phone_number": "",
    "source_url": "https://www.google.com/maps/place/ROZETKA/data=!4m7!3m6!1s0x40d397bb2c4d8ff5:0x293dbfd5c3c152e3!8m2!3d49.5411982!4d30.8661386!16s%2Fg%2F11vm963ndp!19sChIJ9Y9NLLuX00AR41LBw9W_PSk?authuser=0&hl=tr&rclk=1",
    "website_url": "",
    "rating_text": "5,0",
    "stars": null,
    "number_of_reviews": null,
    "price_level": "",
    "open_hours": "",
    "extraction_timestamp": "2025-06-08T03:34:51.101Z",
    "source_name": "google",
    "source_query": "Irrigation Equipment",
    "source_country": "UA",
    "country": "Ukraine",
    "state": "Kyivska oblast",
    "city": "Bohuslav"
  },
  {
    "source_id": "ChIJr0eYWoWW00ARKvBKeSB7JL0",
    "name": "Metalotsentr",
    "category": "Metalotsentr",
    "formatted_address": "3,8(17)",
    "phone_number": "+380976464646",
    "source_url": "https://www.google.com/maps/place/Metalotsentr/data=!4m7!3m6!1s0x40d396855a9847af:0xbd247b20794af02a!8m2!3d49.529338!4d30.8937049!16s%2Fg%2F11b7hm1fmv!19sChIJr0eYWoWW00ARKvBKeSB7JL0?authuser=0&hl=tr&rclk=1",
    "website_url": "",
    "rating_text": "3,8",
    "stars": null,
    "number_of_reviews": null,
    "price_level": "",
    "open_hours": "",
    "extraction_timestamp": "2025-06-08T03:34:51.102Z",
    "source_name": "google",
    "source_query": "Irrigation Equipment",
    "source_country": "UA",
    "country": "Ukraine",
    "state": "Kyivska oblast",
    "city": "Bohuslav"
  },
  {
    "source_id": "ChIJ330Gnu-W00ARHSdB7ewmm7Q",
    "name": "Miks",
    "category": "Miks",
    "formatted_address": "4,3(112)",
    "phone_number": "",
    "source_url": "https://www.google.com/maps/place/Miks/data=!4m7!3m6!1s0x40d396ef9e067ddf:0xb49b26eced41271d!8m2!3d49.5401654!4d30.8688036!16s%2Fg%2F11fyx75xr_!19sChIJ330Gnu-W00ARHSdB7ewmm7Q?authuser=0&hl=tr&rclk=1",
    "website_url": "",
    "rating_text": "4,3",
    "stars": null,
    "number_of_reviews": null,
    "price_level": "",
    "open_hours": "",
    "extraction_timestamp": "2025-06-08T03:34:51.103Z",
    "source_name": "google",
    "source_query": "Irrigation Equipment",
    "source_country": "UA",
    "country": "Ukraine",
    "state": "Kyivska oblast",
    "city": "Bohuslav"
  },
  {
    "source_id": "ChIJC-U3UC2X00ARygE-SVmwNaQ",
    "name": "«Уют» Будівельно-господарчий магазин",
    "category": "«Уют» Будівельно-господарчий магазин",
    "formatted_address": "5,0(8)",
    "phone_number": "+380679710014",
    "source_url": "https://www.google.com/maps/place/%C2%AB%D0%A3%D1%8E%D1%82%C2%BB+%D0%91%D1%83%D0%B4%D1%96%D0%B2%D0%B5%D0%BB%D1%8C%D0%BD%D0%BE-%D0%B3%D0%BE%D1%81%D0%BF%D0%BE%D0%B4%D0%B0%D1%80%D1%87%D0%B8%D0%B9+%D0%BC%D0%B0%D0%B3%D0%B0%D0%B7%D0%B8%D0%BD/data=!4m7!3m6!1s0x40d3972d5037e50b:0xa435b059493e01ca!8m2!3d49.5451174!4d30.8505733!16s%2Fg%2F11np7r_hk_!19sChIJC-U3UC2X00ARygE-SVmwNaQ?authuser=0&hl=tr&rclk=1",
    "website_url": "",
    "rating_text": "5,0",
    "stars": null,
    "number_of_reviews": null,
    "price_level": "",
    "open_hours": "",
    "extraction_timestamp": "2025-06-08T03:34:51.104Z",
    "source_name": "google",
    "source_query": "Irrigation Equipment",
    "source_country": "UA",
    "country": "Ukraine",
    "state": "Kyivska oblast",
    "city": "Bohuslav"
  },
  {
    "source_id": "ChIJU1USJ_KW00ARit56pJ4Dr0A",
    "name": "Shchedryy Kray - Mini-Market",
    "category": "Shchedryy Kray - Mini-Market",
    "formatted_address": "4,4(185)",
    "phone_number": "",
    "source_url": "https://www.google.com/maps/place/Shchedryy+Kray+-+Mini-Market/data=!4m7!3m6!1s0x40d396f227125553:0x40af039ea47ade8a!8m2!3d49.5350359!4d30.8706432!16s%2Fg%2F11g9vlmlj8!19sChIJU1USJ_KW00ARit56pJ4Dr0A?authuser=0&hl=tr&rclk=1",
    "website_url": "",
    "rating_text": "4,4",
    "stars": null,
    "number_of_reviews": null,
    "price_level": "",
    "open_hours": "",
    "extraction_timestamp": "2025-06-08T03:34:51.104Z",
    "source_name": "google",
    "source_query": "Irrigation Equipment",
    "source_country": "UA",
    "country": "Ukraine",
    "state": "Kyivska oblast",
    "city": "Bohuslav"
  },
  {
    "source_id": "ChIJhXSgq0-X00ARUp6J7KtDDSo",
    "name": "Центуріон",
    "category": "Центуріон",
    "formatted_address": "4,0(4)",
    "phone_number": "+380965441004",
    "source_url": "https://www.google.com/maps/place/%D0%A6%D0%B5%D0%BD%D1%82%D1%83%D1%80%D1%96%D0%BE%D0%BD/data=!4m7!3m6!1s0x40d3974faba07485:0x2a0d43abec899e52!8m2!3d49.5287265!4d30.889792!16s%2Fg%2F11q95h8zgl!19sChIJhXSgq0-X00ARUp6J7KtDDSo?authuser=0&hl=tr&rclk=1",
    "website_url": "",
    "rating_text": "4,0",
    "stars": null,
    "number_of_reviews": null,
    "price_level": "",
    "open_hours": "",
    "extraction_timestamp": "2025-06-08T03:34:51.105Z",
    "source_name": "google",
    "source_query": "Irrigation Equipment",
    "source_country": "UA",
    "country": "Ukraine",
    "state": "Kyivska oblast",
    "city": "Bohuslav"
  },
  {
    "source_id": "ChIJFdqkN0WX00ARezt6RkWEzZw",
    "name": "Tereveni",
    "category": "Tereveni",
    "formatted_address": "4,4(20)",
    "phone_number": "+380975609013",
    "source_url": "https://www.google.com/maps/place/Tereveni/data=!4m7!3m6!1s0x40d3974537a4da15:0x9ccd8445467a3b7b!8m2!3d49.5562662!4d30.8772928!16s%2Fg%2F11fk3zll4q!19sChIJFdqkN0WX00ARezt6RkWEzZw?authuser=0&hl=tr&rclk=1",
    "website_url": "",
    "rating_text": "4,4",
    "stars": null,
    "number_of_reviews": null,
    "price_level": "",
    "open_hours": "",
    "extraction_timestamp": "2025-06-08T03:34:51.106Z",
    "source_name": "google",
    "source_query": "Irrigation Equipment",
    "source_country": "UA",
    "country": "Ukraine",
    "state": "Kyivska oblast",
    "city": "Bohuslav"
  },
  {
    "source_id": "ChIJH-ZMv-WW00ARXXoB6ya-JkM",
    "name": "Мій Світ Дитячих Мрій",
    "category": "Мій Світ Дитячих Мрій",
    "formatted_address": "4,6(14)",
    "phone_number": "+380638112103",
    "source_url": "https://www.google.com/maps/place/%D0%9C%D1%96%D0%B9+%D0%A1%D0%B2%D1%96%D1%82+%D0%94%D0%B8%D1%82%D1%8F%D1%87%D0%B8%D1%85+%D0%9C%D1%80%D1%96%D0%B9/data=!4m7!3m6!1s0x40d396e5bf4ce61f:0x4326be26eb017a5d!8m2!3d49.5407921!4d30.8672515!16s%2Fg%2F11f3vnxg86!19sChIJH-ZMv-WW00ARXXoB6ya-JkM?authuser=0&hl=tr&rclk=1",
    "website_url": "",
    "rating_text": "4,6",
    "stars": null,
    "number_of_reviews": null,
    "price_level": "",
    "open_hours": "",
    "extraction_timestamp": "2025-06-08T03:34:51.107Z",
    "source_name": "google",
    "source_query": "Irrigation Equipment",
    "source_country": "UA",
    "country": "Ukraine",
    "state": "Kyivska oblast",
    "city": "Bohuslav"
  },
  {
    "source_id": "ChIJ-yQWVIOX00ARIigxJQUftY8",
    "name": "Hospodarsʹkyy",
    "category": "Hospodarsʹkyy",
    "formatted_address": "5,0(1)",
    "phone_number": "+380985585442",
    "source_url": "https://www.google.com/maps/place/Hospodars%CA%B9kyy/data=!4m7!3m6!1s0x40d39783541624fb:0x8fb51f0525312822!8m2!3d49.5315256!4d30.8844989!16s%2Fg%2F11rk8drcxf!19sChIJ-yQWVIOX00ARIigxJQUftY8?authuser=0&hl=tr&rclk=1",
    "website_url": "",
    "rating_text": "5,0",
    "stars": null,
    "number_of_reviews": null,
    "price_level": "",
    "open_hours": "",
    "extraction_timestamp": "2025-06-08T03:34:51.107Z",
    "source_name": "google",
    "source_query": "Irrigation Equipment",
    "source_country": "UA",
    "country": "Ukraine",
    "state": "Kyivska oblast",
    "city": "Bohuslav"
  },
  {
    "source_id": "ChIJ20FCLM6X00ARzPfz6PnkuTc",
    "name": "Файно маркет №94",
    "category": "Файно маркет №94",
    "formatted_address": "5,0(1)",
    "phone_number": "+380800309686",
    "source_url": "https://www.google.com/maps/place/%D0%A4%D0%B0%D0%B9%D0%BD%D0%BE+%D0%BC%D0%B0%D1%80%D0%BA%D0%B5%D1%82+%E2%84%9694/data=!4m7!3m6!1s0x40d397ce2c4241db:0x37b9e4f9e8f3f7cc!8m2!3d49.5488681!4d30.8740042!16s%2Fg%2F11xgftzsnk!19sChIJ20FCLM6X00ARzPfz6PnkuTc?authuser=0&hl=tr&rclk=1",
    "website_url": "",
    "rating_text": "5,0",
    "stars": null,
    "number_of_reviews": null,
    "price_level": "",
    "open_hours": "",
    "extraction_timestamp": "2025-06-08T03:34:51.108Z",
    "source_name": "google",
    "source_query": "Irrigation Equipment",
    "source_country": "UA",
    "country": "Ukraine",
    "state": "Kyivska oblast",
    "city": "Bohuslav"
  },
  {
    "source_id": "ChIJYbEcfOKW00ARZdwRh6ZfyPo",
    "name": "Fabrychnyy",
    "category": "Fabrychnyy",
    "formatted_address": "4,0(43)",
    "phone_number": "",
    "source_url": "https://www.google.com/maps/place/Fabrychnyy/data=!4m7!3m6!1s0x40d396e27c1cb161:0xfac85fa68711dc65!8m2!3d49.544904!4d30.8540098!16s%2Fg%2F11cryfsrbl!19sChIJYbEcfOKW00ARZdwRh6ZfyPo?authuser=0&hl=tr&rclk=1",
    "website_url": "",
    "rating_text": "4,0",
    "stars": null,
    "number_of_reviews": null,
    "price_level": "",
    "open_hours": "",
    "extraction_timestamp": "2025-06-08T03:34:51.109Z",
    "source_name": "google",
    "source_query": "Irrigation Equipment",
    "source_country": "UA",
    "country": "Ukraine",
    "state": "Kyivska oblast",
    "city": "Bohuslav"
  },
  {
    "source_id": "ChIJmS8cWwCX00ARf5kHCQG4064",
    "name": "Datsenko",
    "category": "Datsenko",
    "formatted_address": "Yapı Malzemeleri Mağazası · Mykolaivska St, 132",
    "phone_number": "",
    "source_url": "https://www.google.com/maps/place/Datsenko/data=!4m7!3m6!1s0x40d397005b1c2f99:0xaed3b8010907997f!8m2!3d49.5319986!4d30.8843725!16s%2Fg%2F11w3bm_plr!19sChIJmS8cWwCX00ARf5kHCQG4064?authuser=0&hl=tr&rclk=1",
    "website_url": "",
    "rating_text": "",
    "stars": null,
    "number_of_reviews": null,
    "price_level": "",
    "open_hours": "",
    "extraction_timestamp": "2025-06-08T03:34:51.109Z",
    "source_name": "google",
    "source_query": "Irrigation Equipment",
    "source_country": "UA",
    "country": "Ukraine",
    "state": "Kyivska oblast",
    "city": "Bohuslav"
  },
  {
    "source_id": "ChIJMR5wogGX00ARjlGZ-FjqEys",
    "name": "Продовольчий магазин \"Міні-ціна\"",
    "category": "Продовольчий магазин \"Міні-ціна\"",
    "formatted_address": "3,8(41)",
    "phone_number": "",
    "source_url": "https://www.google.com/maps/place/%D0%9F%D1%80%D0%BE%D0%B4%D0%BE%D0%B2%D0%BE%D0%BB%D1%8C%D1%87%D0%B8%D0%B9+%D0%BC%D0%B0%D0%B3%D0%B0%D0%B7%D0%B8%D0%BD+%22%D0%9C%D1%96%D0%BD%D1%96-%D1%86%D1%96%D0%BD%D0%B0%22/data=!4m7!3m6!1s0x40d39701a2701e31:0x2b13ea58f899518e!8m2!3d49.5339958!4d30.8702544!16s%2Fg%2F11gzrkng1g!19sChIJMR5wogGX00ARjlGZ-FjqEys?authuser=0&hl=tr&rclk=1",
    "website_url": "",
    "rating_text": "3,8",
    "stars": null,
    "number_of_reviews": null,
    "price_level": "",
    "open_hours": "",
    "extraction_timestamp": "2025-06-08T03:34:51.109Z",
    "source_name": "google",
    "source_query": "Irrigation Equipment",
    "source_country": "UA",
    "country": "Ukraine",
    "state": "Kyivska oblast",
    "city": "Bohuslav"
  },
  {
    "source_id": "ChIJ02ZmIvKW00ARclqcikKIdaQ",
    "name": "Smak",
    "category": "Smak",
    "formatted_address": "4,3(122)",
    "phone_number": "",
    "source_url": "https://www.google.com/maps/place/Smak/data=!4m7!3m6!1s0x40d396f2226666d3:0xa47588428a9c5a72!8m2!3d49.5349007!4d30.8714701!16s%2Fg%2F11c7t2s7dx!19sChIJ02ZmIvKW00ARclqcikKIdaQ?authuser=0&hl=tr&rclk=1",
    "website_url": "",
    "rating_text": "4,3",
    "stars": null,
    "number_of_reviews": null,
    "price_level": "",
    "open_hours": "",
    "extraction_timestamp": "2025-06-08T03:34:51.110Z",
    "source_name": "google",
    "source_query": "Irrigation Equipment",
    "source_country": "UA",
    "country": "Ukraine",
    "state": "Kyivska oblast",
    "city": "Bohuslav"
  },
  {
    "source_id": "ChIJT1mifQCX00ARUP8XVTybaZs",
    "name": "Green.Ka market",
    "category": "Green.Ka market",
    "formatted_address": "4,8(17)",
    "phone_number": "+380676672280",
    "source_url": "https://www.google.com/maps/place/Green.Ka+market/data=!4m7!3m6!1s0x40d397007da2594f:0x9b699b3c5517ff50!8m2!3d49.5347902!4d30.8704428!16s%2Fg%2F11vmb4yd9g!19sChIJT1mifQCX00ARUP8XVTybaZs?authuser=0&hl=tr&rclk=1",
    "website_url": "",
    "rating_text": "4,8",
    "stars": null,
    "number_of_reviews": null,
    "price_level": "",
    "open_hours": "",
    "extraction_timestamp": "2025-06-08T03:34:51.111Z",
    "source_name": "google",
    "source_query": "Irrigation Equipment",
    "source_country": "UA",
    "country": "Ukraine",
    "state": "Kyivska oblast",
    "city": "Bohuslav"
  },
  {
    "source_id": "ChIJ60XEpQbQ1EARVLf9IomIVYg",
    "name": "Poliv UA",
    "category": "Poliv UA",
    "formatted_address": "4,8(64)",
    "phone_number": "+380443379900",
    "source_url": "https://www.google.com/maps/place/Poliv+UA/data=!4m7!3m6!1s0x40d4d006a5c445eb:0x8855888922fdb754!8m2!3d50.4646434!4d30.6255633!16s%2Fg%2F11clsyjy7n!19sChIJ60XEpQbQ1EARVLf9IomIVYg?authuser=0&hl=tr&rclk=1",
    "website_url": "",
    "rating_text": "4,8",
    "stars": null,
    "number_of_reviews": null,
    "price_level": "",
    "open_hours": "",
    "extraction_timestamp": "2025-06-08T03:34:51.112Z",
    "source_name": "google",
    "source_query": "Irrigation Equipment",
    "source_country": "UA",
    "country": "Ukraine",
    "state": "Kyivska oblast",
    "city": "Bohuslav"
  },
  {
    "source_id": "ChIJZbikoNiX00ARa12cqpgyNt4",
    "name": "Okolytsya",
    "category": "Okolytsya",
    "formatted_address": "4,0(71)",
    "phone_number": "",
    "source_url": "https://www.google.com/maps/place/Okolytsya/data=!4m7!3m6!1s0x40d397d8a0a4b865:0xde363298aa9c5d6b!8m2!3d49.5328427!4d30.863541!16s%2Fg%2F11gv14q302!19sChIJZbikoNiX00ARa12cqpgyNt4?authuser=0&hl=tr&rclk=1",
    "website_url": "",
    "rating_text": "4,0",
    "stars": null,
    "number_of_reviews": null,
    "price_level": "",
    "open_hours": "",
    "extraction_timestamp": "2025-06-08T03:34:51.113Z",
    "source_name": "google",
    "source_query": "Irrigation Equipment",
    "source_country": "UA",
    "country": "Ukraine",
    "state": "Kyivska oblast",
    "city": "Bohuslav"
  },
  {
    "source_id": "ChIJqW5wVuWW00AR5bM72K5H7V0",
    "name": "Domashniy",
    "category": "Domashniy",
    "formatted_address": "4,6(26)",
    "phone_number": "+380676843819",
    "source_url": "https://www.google.com/maps/place/Domashniy/data=!4m7!3m6!1s0x40d396e556706ea9:0x5ded47aed83bb3e5!8m2!3d49.539378!4d30.8656565!16s%2Fg%2F11c1r1d1v5!19sChIJqW5wVuWW00AR5bM72K5H7V0?authuser=0&hl=tr&rclk=1",
    "website_url": "",
    "rating_text": "4,6",
    "stars": null,
    "number_of_reviews": null,
    "price_level": "",
    "open_hours": "",
    "extraction_timestamp": "2025-06-08T03:34:51.114Z",
    "source_name": "google",
    "source_query": "Irrigation Equipment",
    "source_country": "UA",
    "country": "Ukraine",
    "state": "Kyivska oblast",
    "city": "Bohuslav"
  },
  {
    "source_id": "ChIJLSWTE07E1EAR7y2QpmxfDRE",
    "name": "Tov \"Masterhaz\"",
    "category": "Tov \"Masterhaz\"",
    "formatted_address": "4,4(5.607)",
    "phone_number": "+380445852241",
    "source_url": "https://www.google.com/maps/place/Tov+%22Masterhaz%22/data=!4m7!3m6!1s0x40d4c44e1393252d:0x110d5f6ca6902def!8m2!3d50.395227!4d30.641546!16s%2Fg%2F11btxgh2m_!19sChIJLSWTE07E1EAR7y2QpmxfDRE?authuser=0&hl=tr&rclk=1",
    "website_url": "",
    "rating_text": "4,4",
    "stars": null,
    "number_of_reviews": null,
    "price_level": "",
    "open_hours": "",
    "extraction_timestamp": "2025-06-08T03:34:51.116Z",
    "source_name": "google",
    "source_query": "Irrigation Equipment",
    "source_country": "UA",
    "country": "Ukraine",
    "state": "Kyivska oblast",
    "city": "Bohuslav"
  },
  {
    "source_id": "ChIJi4Qz-Pfb1EAR_HYNsM1EFVE",
    "name": "GreenEra ГрінЕра - Інтернет-магазин ємностей та резервуарів, каналізаційних системи в Києві та Україні",
    "category": "GreenEra ГрінЕра - Інтернет-магазин ємностей та резервуарів, каналізаційних системи в Києві та Україні",
    "formatted_address": "GreenEra ГрінЕра - Інтернет-магазин ємностей та резервуарів, каналізаційних системи в Києві та Україні",
    "phone_number": "+380980894808",
    "source_url": "https://www.google.com/maps/place/GreenEra+%D0%93%D1%80%D1%96%D0%BD%D0%95%D1%80%D0%B0+-+%D0%86%D0%BD%D1%82%D0%B5%D1%80%D0%BD%D0%B5%D1%82-%D0%BC%D0%B0%D0%B3%D0%B0%D0%B7%D0%B8%D0%BD+%D1%94%D0%BC%D0%BD%D0%BE%D1%81%D1%82%D0%B5%D0%B9+%D1%82%D0%B0+%D1%80%D0%B5%D0%B7%D0%B5%D1%80%D0%B2%D1%83%D0%B0%D1%80%D1%96%D0%B2,+%D0%BA%D0%B0%D0%BD%D0%B0%D0%BB%D1%96%D0%B7%D0%B0%D1%86%D1%96%D0%B9%D0%BD%D0%B8%D1%85+%D1%81%D0%B8%D1%81%D1%82%D0%B5%D0%BC%D0%B8+%D0%B2+%D0%9A%D0%B8%D1%94%D0%B2%D1%96+%D1%82%D0%B0+%D0%A3%D0%BA%D1%80%D0%B0%D1%97%D0%BD%D1%96/data=!4m7!3m6!1s0x40d4dbf7f833848b:0x511544cdb00d76fc!8m2!3d50.1495746!4d30.7492831!16s%2Fg%2F11j59q0b66!19sChIJi4Qz-Pfb1EAR_HYNsM1EFVE?authuser=0&hl=tr&rclk=1",
    "website_url": "",
    "rating_text": "5,0",
    "stars": null,
    "number_of_reviews": null,
    "price_level": "",
    "open_hours": "",
    "extraction_timestamp": "2025-06-08T03:34:51.117Z",
    "source_name": "google",
    "source_query": "Irrigation Equipment",
    "source_country": "UA",
    "country": "Ukraine",
    "state": "Kyivska oblast",
    "city": "Bohuslav"
  },
  {
    "source_id": "ChIJz29ug2_J1EARzaZ7tmeMv4s",
    "name": "Інтернет-магазин LETO Сад від А до Я",
    "category": "Інтернет-магазин LETO Сад від А до Я",
    "formatted_address": "4,7(218)",
    "phone_number": "+380442291160",
    "source_url": "https://www.google.com/maps/place/%D0%86%D0%BD%D1%82%D0%B5%D1%80%D0%BD%D0%B5%D1%82-%D0%BC%D0%B0%D0%B3%D0%B0%D0%B7%D0%B8%D0%BD+LETO+%D0%A1%D0%B0%D0%B4+%D0%B2%D1%96%D0%B4+%D0%90+%D0%B4%D0%BE+%D0%AF/data=!4m7!3m6!1s0x40d4c96f836e6fcf:0x8bbf8c67b67ba6cd!8m2!3d50.396095!4d30.4154559!16s%2Fg%2F1vtzfr1m!19sChIJz29ug2_J1EARzaZ7tmeMv4s?authuser=0&hl=tr&rclk=1",
    "website_url": "",
    "rating_text": "4,7",
    "stars": null,
    "number_of_reviews": null,
    "price_level": "",
    "open_hours": "",
    "extraction_timestamp": "2025-06-08T03:34:51.118Z",
    "source_name": "google",
    "source_query": "Irrigation Equipment",
    "source_country": "UA",
    "country": "Ukraine",
    "state": "Kyivska oblast",
    "city": "Bohuslav"
  },
  {
    "source_id": "ChIJM6VAOVjI1EARInyqFZ8ENUU",
    "name": "Hazon Mayster",
    "category": "Hazon Mayster",
    "formatted_address": "5,0(13)",
    "phone_number": "+380503588967",
    "source_url": "https://www.google.com/maps/place/Hazon+Mayster/data=!4m7!3m6!1s0x40d4c8583940a533:0x4535049f15aa7c22!8m2!3d50.3744949!4d30.4632499!16s%2Fg%2F1hhwqhx1t!19sChIJM6VAOVjI1EARInyqFZ8ENUU?authuser=0&hl=tr&rclk=1",
    "website_url": "",
    "rating_text": "5,0",
    "stars": null,
    "number_of_reviews": null,
    "price_level": "",
    "open_hours": "",
    "extraction_timestamp": "2025-06-08T03:34:51.118Z",
    "source_name": "google",
    "source_query": "Irrigation Equipment",
    "source_country": "UA",
    "country": "Ukraine",
    "state": "Kyivska oblast",
    "city": "Bohuslav"
  },
  {
    "source_id": "ChIJV0bSyhax1EARONB5tYNuvf0",
    "name": "Kombikorm Tm Ahroprohres",
    "category": "Kombikorm Tm Ahroprohres",
    "formatted_address": "4,6(16)",
    "phone_number": "+380991845958",
    "source_url": "https://www.google.com/maps/place/Kombikorm+Tm+Ahroprohres/data=!4m7!3m6!1s0x40d4b116cad24657:0xfdbd6e83b579d038!8m2!3d50.2267846!4d30.2296107!16s%2Fg%2F11g2xds5j0!19sChIJV0bSyhax1EARONB5tYNuvf0?authuser=0&hl=tr&rclk=1",
    "website_url": "",
    "rating_text": "4,6",
    "stars": null,
    "number_of_reviews": null,
    "price_level": "",
    "open_hours": "",
    "extraction_timestamp": "2025-06-08T03:34:51.118Z",
    "source_name": "google",
    "source_query": "Irrigation Equipment",
    "source_country": "UA",
    "country": "Ukraine",
    "state": "Kyivska oblast",
    "city": "Bohuslav"
  },
  {
    "source_id": "ChIJw2WQ26nN1EARR4PP1yU0__Y",
    "name": "Садовий Центр Пісардi",
    "category": "Садовий Центр Пісардi",
    "formatted_address": "4,7(294)",
    "phone_number": "+380989255556",
    "source_url": "https://www.google.com/maps/place/%D0%A1%D0%B0%D0%B4%D0%BE%D0%B2%D0%B8%D0%B9+%D0%A6%D0%B5%D0%BD%D1%82%D1%80+%D0%9F%D1%96%D1%81%D0%B0%D1%80%D0%B4i/data=!4m7!3m6!1s0x40d4cda9db9065c3:0xf6ff3425d7cf8347!8m2!3d50.504339!4d30.1888321!16s%2Fg%2F11c575jgrm!19sChIJw2WQ26nN1EARR4PP1yU0__Y?authuser=0&hl=tr&rclk=1",
    "website_url": "",
    "rating_text": "4,7",
    "stars": null,
    "number_of_reviews": null,
    "price_level": "",
    "open_hours": "",
    "extraction_timestamp": "2025-06-08T03:34:51.119Z",
    "source_name": "google",
    "source_query": "Irrigation Equipment",
    "source_country": "UA",
    "country": "Ukraine",
    "state": "Kyivska oblast",
    "city": "Bohuslav"
  },
  {
    "source_id": "ChIJpXddJlLI1EARvX2Niu0cQ7Q",
    "name": "ПАНДА групп обладнання для нафтобаз, насоси вибухозахісні АТЕХ",
    "category": "ПАНДА групп обладнання для нафтобаз, насоси вибухозахісні АТЕХ",
    "formatted_address": "ПАНДА групп обладнання для нафтобаз, насоси вибухозахісні АТЕХ",
    "phone_number": "+380957941719",
    "source_url": "https://www.google.com/maps/place/%D0%9F%D0%90%D0%9D%D0%94%D0%90+%D0%B3%D1%80%D1%83%D0%BF%D0%BF+%D0%BE%D0%B1%D0%BB%D0%B0%D0%B4%D0%BD%D0%B0%D0%BD%D0%BD%D1%8F+%D0%B4%D0%BB%D1%8F+%D0%BD%D0%B0%D1%84%D1%82%D0%BE%D0%B1%D0%B0%D0%B7,+%D0%BD%D0%B0%D1%81%D0%BE%D1%81%D0%B8+%D0%B2%D0%B8%D0%B1%D1%83%D1%85%D0%BE%D0%B7%D0%B0%D1%85%D1%96%D1%81%D0%BD%D1%96+%D0%90%D0%A2%D0%95%D0%A5/data=!4m7!3m6!1s0x40d4c852265d77a5:0xb4431ced8a8d7dbd!8m2!3d50.3035813!4d30.3702163!16s%2Fg%2F1hm3p15g1!19sChIJpXddJlLI1EARvX2Niu0cQ7Q?authuser=0&hl=tr&rclk=1",
    "website_url": "",
    "rating_text": "",
    "stars": null,
    "number_of_reviews": null,
    "price_level": "",
    "open_hours": "",
    "extraction_timestamp": "2025-06-08T03:34:51.120Z",
    "source_name": "google",
    "source_query": "Irrigation Equipment",
    "source_country": "UA",
    "country": "Ukraine",
    "state": "Kyivska oblast",
    "city": "Bohuslav"
  },
  {
    "source_id": "ChIJf4jHN1LM1EARBkfaDZQGDTw",
    "name": "Dr. Sprinkler",
    "category": "Dr. Sprinkler",
    "formatted_address": "4,8(4)",
    "phone_number": "+380965335353",
    "source_url": "https://www.google.com/maps/place/Dr.+Sprinkler/data=!4m7!3m6!1s0x40d4cc5237c7887f:0x3c0d06940dda4706!8m2!3d50.4105845!4d30.558873!16s%2Fg%2F1q6j9h1m6!19sChIJf4jHN1LM1EARBkfaDZQGDTw?authuser=0&hl=tr&rclk=1",
    "website_url": "",
    "rating_text": "4,8",
    "stars": null,
    "number_of_reviews": null,
    "price_level": "",
    "open_hours": "",
    "extraction_timestamp": "2025-06-08T03:34:51.121Z",
    "source_name": "google",
    "source_query": "Irrigation Equipment",
    "source_country": "UA",
    "country": "Ukraine",
    "state": "Kyivska oblast",
    "city": "Bohuslav"
  },
  {
    "source_id": "ChIJn-d47iNV00ARU9xVc3Jn5kw",
    "name": "Агросвіт магазин насіння, добрив та засобів захисту рослин у Юнака",
    "category": "Агросвіт магазин насіння, добрив та засобів захисту рослин у Юнака",
    "formatted_address": "Агросвіт магазин насіння, добрив та засобів захисту рослин у Юнака",
    "phone_number": "+380972391155",
    "source_url": "https://www.google.com/maps/place/%D0%90%D0%B3%D1%80%D0%BE%D1%81%D0%B2%D1%96%D1%82+%D0%BC%D0%B0%D0%B3%D0%B0%D0%B7%D0%B8%D0%BD+%D0%BD%D0%B0%D1%81%D1%96%D0%BD%D0%BD%D1%8F,+%D0%B4%D0%BE%D0%B1%D1%80%D0%B8%D0%B2+%D1%82%D0%B0+%D0%B7%D0%B0%D1%81%D0%BE%D0%B1%D1%96%D0%B2+%D0%B7%D0%B0%D1%85%D0%B8%D1%81%D1%82%D1%83+%D1%80%D0%BE%D1%81%D0%BB%D0%B8%D0%BD+%D1%83+%D0%AE%D0%BD%D0%B0%D0%BA%D0%B0/data=!4m7!3m6!1s0x40d35523ee78e79f:0x4ce667727355dc53!8m2!3d50.0778089!4d29.911051!16s%2Fg%2F11rcfdp11k!19sChIJn-d47iNV00ARU9xVc3Jn5kw?authuser=0&hl=tr&rclk=1",
    "website_url": "",
    "rating_text": "5,0",
    "stars": null,
    "number_of_reviews": null,
    "price_level": "",
    "open_hours": "",
    "extraction_timestamp": "2025-06-08T03:34:51.122Z",
    "source_name": "google",
    "source_query": "Irrigation Equipment",
    "source_country": "UA",
    "country": "Ukraine",
    "state": "Kyivska oblast",
    "city": "Bohuslav"
  },
  {
    "source_id": "ChIJj9B1EqHP1EARDZgdszuCvLs",
    "name": "Системы полива",
    "category": "Системы полива",
    "formatted_address": "Sulama Ekipmanları Tedarikçisi · Lavrska St, 7а / 19Kapalı ⋅ Açılış zamanı: Pzt 09:00 · +380 99 343 8777",
    "phone_number": "+380993438777",
    "source_url": "https://www.google.com/maps/place/%D0%A1%D0%B8%D1%81%D1%82%D0%B5%D0%BC%D1%8B+%D0%BF%D0%BE%D0%BB%D0%B8%D0%B2%D0%B0/data=!4m7!3m6!1s0x40d4cfa11275d08f:0xbbbc823bb31d980d!8m2!3d50.4368044!4d30.5554264!16s%2Fg%2F11qh89rj21!19sChIJj9B1EqHP1EARDZgdszuCvLs?authuser=0&hl=tr&rclk=1",
    "website_url": "",
    "rating_text": "",
    "stars": null,
    "number_of_reviews": null,
    "price_level": "",
    "open_hours": "",
    "extraction_timestamp": "2025-06-08T03:34:51.123Z",
    "source_name": "google",
    "source_query": "Irrigation Equipment",
    "source_country": "UA",
    "country": "Ukraine",
    "state": "Kyivska oblast",
    "city": "Bohuslav"
  },
  {
    "source_id": "ChIJsd996IrL1EARUOgDcqy_-_8",
    "name": "Hidropro Inzhynirynh",
    "category": "Hidropro Inzhynirynh",
    "formatted_address": "5,0(7)",
    "phone_number": "+380443320475",
    "source_url": "https://www.google.com/maps/place/Hidropro+Inzhynirynh/data=!4m7!3m6!1s0x40d4cb8ae87ddfb1:0xfffbbfac7203e850!8m2!3d50.4479966!4d30.3572576!16s%2Fg%2F11xf0c1hx!19sChIJsd996IrL1EARUOgDcqy_-_8?authuser=0&hl=tr&rclk=1",
    "website_url": "",
    "rating_text": "5,0",
    "stars": null,
    "number_of_reviews": null,
    "price_level": "",
    "open_hours": "",
    "extraction_timestamp": "2025-06-08T03:34:51.124Z",
    "source_name": "google",
    "source_query": "Irrigation Equipment",
    "source_country": "UA",
    "country": "Ukraine",
    "state": "Kyivska oblast",
    "city": "Bohuslav"
  }
]
