[
  {
    "source_id": "ChIJP77fSVo9K0cRilYmv0mWv78",
    "name": "Mahazyn \"Budmaterialy\"",
    "category": "Mahazyn \"Budmaterialy\"",
    "formatted_address": "4,7(52)",
    "phone_number": "+380734426822",
    "source_url": "https://www.google.com/maps/place/Mahazyn+%22Budmaterialy%22/data=!4m7!3m6!1s0x472b3d5a49dfbe3f:0xbfbf9649bf26568a!8m2!3d50.6464807!4d29.9194841!16s%2Fg%2F11dxd20hxh!19sChIJP77fSVo9K0cRilYmv0mWv78?authuser=0&hl=tr&rclk=1",
    "website_url": "",
    "rating_text": "4,7",
    "stars": null,
    "number_of_reviews": null,
    "price_level": "",
    "open_hours": "",
    "extraction_timestamp": "2025-06-08T03:37:55.464Z",
    "source_name": "google",
    "source_query": "Irrigation Equipment",
    "source_country": "UA",
    "country": "Ukraine",
    "state": "Kyivska oblast",
    "city": "Borodianka"
  },
  {
    "source_id": "ChIJe0InNkQ9K0cRhnajOLmOqDM",
    "name": "Shpalery Ta Suputni Tovary",
    "category": "Shpalery Ta Suputni Tovary",
    "formatted_address": "4,6(5)",
    "phone_number": "+380631276223",
    "source_url": "https://www.google.com/maps/place/Shpalery+Ta+Suputni+Tovary/data=!4m7!3m6!1s0x472b3d443627427b:0x33a88eb938a37686!8m2!3d50.6428777!4d29.9295219!16s%2Fg%2F11c0rgw9y6!19sChIJe0InNkQ9K0cRhnajOLmOqDM?authuser=0&hl=tr&rclk=1",
    "website_url": "",
    "rating_text": "4,6",
    "stars": null,
    "number_of_reviews": null,
    "price_level": "",
    "open_hours": "",
    "extraction_timestamp": "2025-06-08T03:37:55.465Z",
    "source_name": "google",
    "source_query": "Irrigation Equipment",
    "source_country": "UA",
    "country": "Ukraine",
    "state": "Kyivska oblast",
    "city": "Borodianka"
  },
  {
    "source_id": "ChIJg8rKJEQ9K0cRdw8XtySawFM",
    "name": "Mahazyn Santekhnika Ta Opalennya",
    "category": "Mahazyn Santekhnika Ta Opalennya",
    "formatted_address": "3,9(19)",
    "phone_number": "+380638585091",
    "source_url": "https://www.google.com/maps/place/Mahazyn+Santekhnika+Ta+Opalennya/data=!4m7!3m6!1s0x472b3d4424caca83:0x53c09a24b7170f77!8m2!3d50.6424591!4d29.9298705!16s%2Fg%2F11c604hrpn!19sChIJg8rKJEQ9K0cRdw8XtySawFM?authuser=0&hl=tr&rclk=1",
    "website_url": "",
    "rating_text": "3,9",
    "stars": null,
    "number_of_reviews": null,
    "price_level": "",
    "open_hours": "",
    "extraction_timestamp": "2025-06-08T03:37:55.465Z",
    "source_name": "google",
    "source_query": "Irrigation Equipment",
    "source_country": "UA",
    "country": "Ukraine",
    "state": "Kyivska oblast",
    "city": "Borodianka"
  },
  {
    "source_id": "ChIJf4jHN1LM1EARBkfaDZQGDTw",
    "name": "Dr. Sprinkler",
    "category": "Dr. Sprinkler",
    "formatted_address": "4,8(4)",
    "phone_number": "+380965335353",
    "source_url": "https://www.google.com/maps/place/Dr.+Sprinkler/data=!4m7!3m6!1s0x40d4cc5237c7887f:0x3c0d06940dda4706!8m2!3d50.4105845!4d30.558873!16s%2Fg%2F1q6j9h1m6!19sChIJf4jHN1LM1EARBkfaDZQGDTw?authuser=0&hl=tr&rclk=1",
    "website_url": "",
    "rating_text": "4,8",
    "stars": null,
    "number_of_reviews": null,
    "price_level": "",
    "open_hours": "",
    "extraction_timestamp": "2025-06-08T03:37:55.465Z",
    "source_name": "google",
    "source_query": "Irrigation Equipment",
    "source_country": "UA",
    "country": "Ukraine",
    "state": "Kyivska oblast",
    "city": "Borodianka"
  },
  {
    "source_id": "ChIJDe30JsI9K0cRyrGECskC88M",
    "name": "Центр видачі замовлень ЕПІЦЕНТР.ua",
    "category": "Центр видачі замовлень ЕПІЦЕНТР.ua",
    "formatted_address": "5,0(2)",
    "phone_number": "+380800202727",
    "source_url": "https://www.google.com/maps/place/%D0%A6%D0%B5%D0%BD%D1%82%D1%80+%D0%B2%D0%B8%D0%B4%D0%B0%D1%87%D1%96+%D0%B7%D0%B0%D0%BC%D0%BE%D0%B2%D0%BB%D0%B5%D0%BD%D1%8C+%D0%95%D0%9F%D0%86%D0%A6%D0%95%D0%9D%D0%A2%D0%A0.ua/data=!4m7!3m6!1s0x472b3dc226f4ed0d:0xc3f302c90a84b1ca!8m2!3d50.644368!4d29.934162!16s%2Fg%2F11y30pyzg9!19sChIJDe30JsI9K0cRyrGECskC88M?authuser=0&hl=tr&rclk=1",
    "website_url": "",
    "rating_text": "5,0",
    "stars": null,
    "number_of_reviews": null,
    "price_level": "",
    "open_hours": "",
    "extraction_timestamp": "2025-06-08T03:37:55.465Z",
    "source_name": "google",
    "source_query": "Irrigation Equipment",
    "source_country": "UA",
    "country": "Ukraine",
    "state": "Kyivska oblast",
    "city": "Borodianka"
  },
  {
    "source_id": "ChIJSZ3_eU3J1EARWC1roU472OQ",
    "name": "АкваБуд",
    "category": "АкваБуд",
    "formatted_address": "4,0(3)",
    "phone_number": "+380957730953",
    "source_url": "https://www.google.com/maps/place/%D0%90%D0%BA%D0%B2%D0%B0%D0%91%D1%83%D0%B4/data=!4m7!3m6!1s0x40d4c94d79ff9d49:0xe4d83b4ea16b2d58!8m2!3d50.417683!4d30.441472!16s%2Fg%2F11cm0gbf3d!19sChIJSZ3_eU3J1EARWC1roU472OQ?authuser=0&hl=tr&rclk=1",
    "website_url": "",
    "rating_text": "4,0",
    "stars": null,
    "number_of_reviews": null,
    "price_level": "",
    "open_hours": "",
    "extraction_timestamp": "2025-06-08T03:37:55.466Z",
    "source_name": "google",
    "source_query": "Irrigation Equipment",
    "source_country": "UA",
    "country": "Ukraine",
    "state": "Kyivska oblast",
    "city": "Borodianka"
  },
  {
    "source_id": "ChIJG9s8zywWK0cRWO8Qxujw0qY",
    "name": "Tov Beton",
    "category": "Tov Beton",
    "formatted_address": "3,8(70)",
    "phone_number": "+380674090767",
    "source_url": "https://www.google.com/maps/place/Tov+Beton/data=!4m7!3m6!1s0x472b162ccf3cdb1b:0xa6d2f0e8c610ef58!8m2!3d50.6274291!4d29.871973!16s%2Fg%2F11b6d2bv8k!19sChIJG9s8zywWK0cRWO8Qxujw0qY?authuser=0&hl=tr&rclk=1",
    "website_url": "",
    "rating_text": "3,8",
    "stars": null,
    "number_of_reviews": null,
    "price_level": "",
    "open_hours": "",
    "extraction_timestamp": "2025-06-08T03:37:55.466Z",
    "source_name": "google",
    "source_query": "Irrigation Equipment",
    "source_country": "UA",
    "country": "Ukraine",
    "state": "Kyivska oblast",
    "city": "Borodianka"
  },
  {
    "source_id": "ChIJtY64Xs8iK0cRmi8U7kJWtfk",
    "name": "Карповая Рыбалка",
    "category": "Карповая Рыбалка",
    "formatted_address": "4,4(60)",
    "phone_number": "+380506814201",
    "source_url": "https://www.google.com/maps/place/%D0%9A%D0%B0%D1%80%D0%BF%D0%BE%D0%B2%D0%B0%D1%8F+%D0%A0%D1%8B%D0%B1%D0%B0%D0%BB%D0%BA%D0%B0/data=!4m7!3m6!1s0x472b22cf5eb88eb5:0xf9b55642ee142f9a!8m2!3d50.6569582!4d29.9703782!16s%2Fg%2F11b7r_qjpq!19sChIJtY64Xs8iK0cRmi8U7kJWtfk?authuser=0&hl=tr&rclk=1",
    "website_url": "",
    "rating_text": "4,4",
    "stars": null,
    "number_of_reviews": null,
    "price_level": "",
    "open_hours": "",
    "extraction_timestamp": "2025-06-08T03:37:55.466Z",
    "source_name": "google",
    "source_query": "Irrigation Equipment",
    "source_country": "UA",
    "country": "Ukraine",
    "state": "Kyivska oblast",
    "city": "Borodianka"
  },
  {
    "source_id": "ChIJq1OAQEXF1EARIAyoFByGrW4",
    "name": "Ahrarna Industrialʹna Kompaniya",
    "category": "Ahrarna Industrialʹna Kompaniya",
    "formatted_address": "4,8(12)",
    "phone_number": "+380504444184",
    "source_url": "https://www.google.com/maps/place/Ahrarna+Industrial%CA%B9na+Kompaniya/data=!4m7!3m6!1s0x40d4c545408053ab:0x6ead861c14a80c20!8m2!3d50.4090678!4d30.6121652!16s%2Fg%2F1tdk3pn4!19sChIJq1OAQEXF1EARIAyoFByGrW4?authuser=0&hl=tr&rclk=1",
    "website_url": "",
    "rating_text": "4,8",
    "stars": null,
    "number_of_reviews": null,
    "price_level": "",
    "open_hours": "",
    "extraction_timestamp": "2025-06-08T03:37:55.467Z",
    "source_name": "google",
    "source_query": "Irrigation Equipment",
    "source_country": "UA",
    "country": "Ukraine",
    "state": "Kyivska oblast",
    "city": "Borodianka"
  },
  {
    "source_id": "ChIJpTnsVgA9K0cRSie4NVqJxqE",
    "name": "Shpalery",
    "category": "Shpalery",
    "formatted_address": "Yapı Malzemeleri Mağazası · Central St, 397Kapalı ⋅ Açılış saati: 09:30 · +380 63 127 6223",
    "phone_number": "+380631276223",
    "source_url": "https://www.google.com/maps/place/Shpalery/data=!4m7!3m6!1s0x472b3d0056ec39a5:0xa1c6895a35b8274a!8m2!3d50.6414688!4d29.9251304!16s%2Fg%2F11xffmr8k3!19sChIJpTnsVgA9K0cRSie4NVqJxqE?authuser=0&hl=tr&rclk=1",
    "website_url": "",
    "rating_text": "",
    "stars": null,
    "number_of_reviews": null,
    "price_level": "",
    "open_hours": "",
    "extraction_timestamp": "2025-06-08T03:37:55.467Z",
    "source_name": "google",
    "source_query": "Irrigation Equipment",
    "source_country": "UA",
    "country": "Ukraine",
    "state": "Kyivska oblast",
    "city": "Borodianka"
  },
  {
    "source_id": "ChIJMb7n5VI9K0cRmLBeLp7cMHI",
    "name": "Mahazyn Okolytsya",
    "category": "Mahazyn Okolytsya",
    "formatted_address": "4,2(111)",
    "phone_number": "",
    "source_url": "https://www.google.com/maps/place/Mahazyn+Okolytsya/data=!4m7!3m6!1s0x472b3d52e5e7be31:0x7230dc9e2e5eb098!8m2!3d50.6546898!4d29.9326009!16s%2Fg%2F11c595314m!19sChIJMb7n5VI9K0cRmLBeLp7cMHI?authuser=0&hl=tr&rclk=1",
    "website_url": "",
    "rating_text": "4,2",
    "stars": null,
    "number_of_reviews": null,
    "price_level": "",
    "open_hours": "",
    "extraction_timestamp": "2025-06-08T03:37:55.467Z",
    "source_name": "google",
    "source_query": "Irrigation Equipment",
    "source_country": "UA",
    "country": "Ukraine",
    "state": "Kyivska oblast",
    "city": "Borodianka"
  },
  {
    "source_id": "ChIJteWhfkU9K0cRQ8R4kHwXsr4",
    "name": "\"Kupava\" Produktovyy Mahazyn",
    "category": "\"Kupava\" Produktovyy Mahazyn",
    "formatted_address": "3,8(26)",
    "phone_number": "",
    "source_url": "https://www.google.com/maps/place/%22Kupava%22+Produktovyy+Mahazyn/data=!4m7!3m6!1s0x472b3d457ea1e5b5:0xbeb2177c9078c443!8m2!3d50.6455872!4d29.9300076!16s%2Fg%2F11c206nr2c!19sChIJteWhfkU9K0cRQ8R4kHwXsr4?authuser=0&hl=tr&rclk=1",
    "website_url": "",
    "rating_text": "3,8",
    "stars": null,
    "number_of_reviews": null,
    "price_level": "",
    "open_hours": "",
    "extraction_timestamp": "2025-06-08T03:37:55.467Z",
    "source_name": "google",
    "source_query": "Irrigation Equipment",
    "source_country": "UA",
    "country": "Ukraine",
    "state": "Kyivska oblast",
    "city": "Borodianka"
  },
  {
    "source_id": "ChIJEyB3tv49K0cRE0cGOETp5hQ",
    "name": "Магазин \"АвтоАптека\"",
    "category": "Магазин \"АвтоАптека\"",
    "formatted_address": "4,6(10)",
    "phone_number": "+380671822444",
    "source_url": "https://www.google.com/maps/place/%D0%9C%D0%B0%D0%B3%D0%B0%D0%B7%D0%B8%D0%BD+%22%D0%90%D0%B2%D1%82%D0%BE%D0%90%D0%BF%D1%82%D0%B5%D0%BA%D0%B0%22/data=!4m7!3m6!1s0x472b3dfeb6772013:0x14e6e94438064713!8m2!3d50.6441273!4d29.91291!16s%2Fg%2F11pw1nj4tg!19sChIJEyB3tv49K0cRE0cGOETp5hQ?authuser=0&hl=tr&rclk=1",
    "website_url": "",
    "rating_text": "4,6",
    "stars": null,
    "number_of_reviews": null,
    "price_level": "",
    "open_hours": "",
    "extraction_timestamp": "2025-06-08T03:37:55.467Z",
    "source_name": "google",
    "source_query": "Irrigation Equipment",
    "source_country": "UA",
    "country": "Ukraine",
    "state": "Kyivska oblast",
    "city": "Borodianka"
  },
  {
    "source_id": "ChIJaSDzokg9K0cRpPcx8bVazZw",
    "name": "Фора",
    "category": "Фора",
    "formatted_address": "3,9(609)",
    "phone_number": "+380800301230",
    "source_url": "https://www.google.com/maps/place/%D0%A4%D0%BE%D1%80%D0%B0/data=!4m7!3m6!1s0x472b3d48a2f32069:0x9ccd5ab5f131f7a4!8m2!3d50.6444449!4d29.9368778!16s%2Fg%2F1pp2tzntt!19sChIJaSDzokg9K0cRpPcx8bVazZw?authuser=0&hl=tr&rclk=1",
    "website_url": "",
    "rating_text": "3,9",
    "stars": null,
    "number_of_reviews": null,
    "price_level": "",
    "open_hours": "",
    "extraction_timestamp": "2025-06-08T03:37:55.468Z",
    "source_name": "google",
    "source_query": "Irrigation Equipment",
    "source_country": "UA",
    "country": "Ukraine",
    "state": "Kyivska oblast",
    "city": "Borodianka"
  },
  {
    "source_id": "ChIJQeRxyH09K0cRzm6W1eNz3sM",
    "name": "Mahazyn Budivelʹnykh Materialiv",
    "category": "Mahazyn Budivelʹnykh Materialiv",
    "formatted_address": "3,0(3)",
    "phone_number": "",
    "source_url": "https://www.google.com/maps/place/Mahazyn+Budivel%CA%B9nykh+Materialiv/data=!4m7!3m6!1s0x472b3d7dc871e441:0xc3de73e3d5966ece!8m2!3d50.6296728!4d29.8912972!16s%2Fg%2F11f_0t6dd6!19sChIJQeRxyH09K0cRzm6W1eNz3sM?authuser=0&hl=tr&rclk=1",
    "website_url": "",
    "rating_text": "3,0",
    "stars": null,
    "number_of_reviews": null,
    "price_level": "",
    "open_hours": "",
    "extraction_timestamp": "2025-06-08T03:37:55.468Z",
    "source_name": "google",
    "source_query": "Irrigation Equipment",
    "source_country": "UA",
    "country": "Ukraine",
    "state": "Kyivska oblast",
    "city": "Borodianka"
  },
  {
    "source_id": "ChIJkQaXp0U9K0cRkmaRS3nsFgE",
    "name": "Fora",
    "category": "Fora",
    "formatted_address": "4,2(179)",
    "phone_number": "+380800301230",
    "source_url": "https://www.google.com/maps/place/Fora/data=!4m7!3m6!1s0x472b3d45a7970691:0x116ec794b916692!8m2!3d50.6443988!4d29.9289343!16s%2Fg%2F11f3bvxkz5!19sChIJkQaXp0U9K0cRkmaRS3nsFgE?authuser=0&hl=tr&rclk=1",
    "website_url": "",
    "rating_text": "4,2",
    "stars": null,
    "number_of_reviews": null,
    "price_level": "",
    "open_hours": "",
    "extraction_timestamp": "2025-06-08T03:37:55.468Z",
    "source_name": "google",
    "source_query": "Irrigation Equipment",
    "source_country": "UA",
    "country": "Ukraine",
    "state": "Kyivska oblast",
    "city": "Borodianka"
  },
  {
    "source_id": "ChIJKyjYi309K0cR2bDlk-s2GvI",
    "name": "Торговий центр \"Вокзальний\"",
    "category": "Торговий центр \"Вокзальний\"",
    "formatted_address": "3,6(318)",
    "phone_number": "+380979238844",
    "source_url": "https://www.google.com/maps/place/%D0%A2%D0%BE%D1%80%D0%B3%D0%BE%D0%B2%D0%B8%D0%B9+%D1%86%D0%B5%D0%BD%D1%82%D1%80+%22%D0%92%D0%BE%D0%BA%D0%B7%D0%B0%D0%BB%D1%8C%D0%BD%D0%B8%D0%B9%22/data=!4m7!3m6!1s0x472b3d7d8bd8282b:0xf21a36eb93e5b0d9!8m2!3d50.6307176!4d29.8890603!16s%2Fg%2F11c3104xf2!19sChIJKyjYi309K0cR2bDlk-s2GvI?authuser=0&hl=tr&rclk=1",
    "website_url": "",
    "rating_text": "3,6",
    "stars": null,
    "number_of_reviews": null,
    "price_level": "",
    "open_hours": "",
    "extraction_timestamp": "2025-06-08T03:37:55.468Z",
    "source_name": "google",
    "source_query": "Irrigation Equipment",
    "source_country": "UA",
    "country": "Ukraine",
    "state": "Kyivska oblast",
    "city": "Borodianka"
  },
  {
    "source_id": "ChIJ6YDi3UU9K0cRg0p7iHTpBnk",
    "name": "Chervonyy Market",
    "category": "Chervonyy Market",
    "formatted_address": "4,1(302)",
    "phone_number": "+380800750135",
    "source_url": "https://www.google.com/maps/place/Chervonyy+Market/data=!4m7!3m6!1s0x472b3d45dde280e9:0x7906e974887b4a83!8m2!3d50.6427535!4d29.930183!16s%2Fg%2F11f2y43g1z!19sChIJ6YDi3UU9K0cRg0p7iHTpBnk?authuser=0&hl=tr&rclk=1",
    "website_url": "",
    "rating_text": "4,1",
    "stars": null,
    "number_of_reviews": null,
    "price_level": "",
    "open_hours": "",
    "extraction_timestamp": "2025-06-08T03:37:55.469Z",
    "source_name": "google",
    "source_query": "Irrigation Equipment",
    "source_country": "UA",
    "country": "Ukraine",
    "state": "Kyivska oblast",
    "city": "Borodianka"
  },
  {
    "source_id": "ChIJ9YRkFHw9K0cRzZsBXM51tZ8",
    "name": "Tov Silʹsʹkohospodarsʹke Pidpryyemstvo Ahroprommash",
    "category": "Tov Silʹsʹkohospodarsʹke Pidpryyemstvo Ahroprommash",
    "formatted_address": "",
    "phone_number": "+380973575591",
    "source_url": "https://www.google.com/maps/place/Tov+Sil%CA%B9s%CA%B9kohospodars%CA%B9ke+Pidpryyemstvo+Ahroprommash/data=!4m7!3m6!1s0x472b3d7c146484f5:0x9fb575ce5c019bcd!8m2!3d50.628722!4d29.894194!16s%2Fg%2F11b6dcx4dk!19sChIJ9YRkFHw9K0cRzZsBXM51tZ8?authuser=0&hl=tr&rclk=1",
    "website_url": "",
    "rating_text": "",
    "stars": null,
    "number_of_reviews": null,
    "price_level": "",
    "open_hours": "",
    "extraction_timestamp": "2025-06-08T03:37:55.469Z",
    "source_name": "google",
    "source_query": "Irrigation Equipment",
    "source_country": "UA",
    "country": "Ukraine",
    "state": "Kyivska oblast",
    "city": "Borodianka"
  },
  {
    "source_id": "ChIJuZngKEM9K0cR1zljo6Eaow8",
    "name": "Магазин \"Здвиж\"",
    "category": "Магазин \"Здвиж\"",
    "formatted_address": "3,0(91)",
    "phone_number": "",
    "source_url": "https://www.google.com/maps/place/%D0%9C%D0%B0%D0%B3%D0%B0%D0%B7%D0%B8%D0%BD+%22%D0%97%D0%B4%D0%B2%D0%B8%D0%B6%22/data=!4m7!3m6!1s0x472b3d4328e099b9:0xfa31aa1a36339d7!8m2!3d50.6402884!4d29.9204173!16s%2Fg%2F11d_2ft9q2!19sChIJuZngKEM9K0cR1zljo6Eaow8?authuser=0&hl=tr&rclk=1",
    "website_url": "",
    "rating_text": "3,0",
    "stars": null,
    "number_of_reviews": null,
    "price_level": "",
    "open_hours": "",
    "extraction_timestamp": "2025-06-08T03:37:55.469Z",
    "source_name": "google",
    "source_query": "Irrigation Equipment",
    "source_country": "UA",
    "country": "Ukraine",
    "state": "Kyivska oblast",
    "city": "Borodianka"
  },
  {
    "source_id": "ChIJP7sPX_0zK0cR99pBo-ZnivM",
    "name": "Офіційний дилер Husqvarna. Фірмовий магазин Хускварна. Бензиновий та акумуляторний інструмент, садова техніка.",
    "category": "Офіційний дилер Husqvarna. Фірмовий магазин Хускварна. Бензиновий та акумуляторний інструмент, садова техніка.",
    "formatted_address": "Офіційний дилер Husqvarna. Фірмовий магазин Хускварна. Бензиновий та акумуляторний інструмент, садова техніка.",
    "phone_number": "+380669985854",
    "source_url": "https://www.google.com/maps/place/%D0%9E%D1%84%D1%96%D1%86%D1%96%D0%B9%D0%BD%D0%B8%D0%B9+%D0%B4%D0%B8%D0%BB%D0%B5%D1%80+Husqvarna.+%D0%A4%D1%96%D1%80%D0%BC%D0%BE%D0%B2%D0%B8%D0%B9+%D0%BC%D0%B0%D0%B3%D0%B0%D0%B7%D0%B8%D0%BD+%D0%A5%D1%83%D1%81%D0%BA%D0%B2%D0%B0%D1%80%D0%BD%D0%B0.+%D0%91%D0%B5%D0%BD%D0%B7%D0%B8%D0%BD%D0%BE%D0%B2%D0%B8%D0%B9+%D1%82%D0%B0+%D0%B0%D0%BA%D1%83%D0%BC%D1%83%D0%BB%D1%8F%D1%82%D0%BE%D1%80%D0%BD%D0%B8%D0%B9+%D1%96%D0%BD%D1%81%D1%82%D1%80%D1%83%D0%BC%D0%B5%D0%BD%D1%82,+%D1%81%D0%B0%D0%B4%D0%BE%D0%B2%D0%B0+%D1%82%D0%B5%D1%85%D0%BD%D1%96%D0%BA%D0%B0./data=!4m7!3m6!1s0x472b33fd5f0fbb3f:0xf38a67e6a341daf7!8m2!3d50.5215973!4d30.2468443!16s%2Fg%2F11vbcq7m0p!19sChIJP7sPX_0zK0cR99pBo-ZnivM?authuser=0&hl=tr&rclk=1",
    "website_url": "",
    "rating_text": "4,7",
    "stars": null,
    "number_of_reviews": null,
    "price_level": "",
    "open_hours": "",
    "extraction_timestamp": "2025-06-08T03:37:55.469Z",
    "source_name": "google",
    "source_query": "Irrigation Equipment",
    "source_country": "UA",
    "country": "Ukraine",
    "state": "Kyivska oblast",
    "city": "Borodianka"
  },
  {
    "source_id": "ChIJIRWBgmPM1EARTsCTjS_16ZA",
    "name": "Родон-Агро",
    "category": "Родон-Агро",
    "formatted_address": "4,5(46)",
    "phone_number": "+380993086438",
    "source_url": "https://www.google.com/maps/place/%D0%A0%D0%BE%D0%B4%D0%BE%D0%BD-%D0%90%D0%B3%D1%80%D0%BE/data=!4m7!3m6!1s0x40d4cc6382811521:0x90e9f52f8d93c04e!8m2!3d50.4501333!4d30.3888885!16s%2Fg%2F11dxd2jhz2!19sChIJIRWBgmPM1EARTsCTjS_16ZA?authuser=0&hl=tr&rclk=1",
    "website_url": "",
    "rating_text": "4,5",
    "stars": null,
    "number_of_reviews": null,
    "price_level": "",
    "open_hours": "",
    "extraction_timestamp": "2025-06-08T03:37:55.470Z",
    "source_name": "google",
    "source_query": "Irrigation Equipment",
    "source_country": "UA",
    "country": "Ukraine",
    "state": "Kyivska oblast",
    "city": "Borodianka"
  },
  {
    "source_id": "ChIJb_7hK_3J1EARF_q8OVgIOkI",
    "name": "Prof-poliv",
    "category": "Prof-poliv",
    "formatted_address": "",
    "phone_number": "+380679563562",
    "source_url": "https://www.google.com/maps/place/Prof-poliv/data=!4m7!3m6!1s0x40d4c9fd2be1fe6f:0x423a085839bcfa17!8m2!3d48.7673154!4d31.1824374!16s%2Fg%2F11ngth6kgd!19sChIJb_7hK_3J1EARF_q8OVgIOkI?authuser=0&hl=tr&rclk=1",
    "website_url": "",
    "rating_text": "",
    "stars": null,
    "number_of_reviews": null,
    "price_level": "",
    "open_hours": "",
    "extraction_timestamp": "2025-06-08T03:37:55.470Z",
    "source_name": "google",
    "source_query": "Irrigation Equipment",
    "source_country": "UA",
    "country": "Ukraine",
    "state": "Kyivska oblast",
    "city": "Borodianka"
  },
  {
    "source_id": "ChIJ6e9f0lzX1EARNNVH7YcWBps",
    "name": "Green House",
    "category": "Green House",
    "formatted_address": "4,9(16)",
    "phone_number": "+380987770699",
    "source_url": "https://www.google.com/maps/place/Green+House/data=!4m7!3m6!1s0x40d4d75cd25fefe9:0x9b061687ed47d534!8m2!3d50.5525814!4d30.666319!16s%2Fg%2F11fn9fcj_3!19sChIJ6e9f0lzX1EARNNVH7YcWBps?authuser=0&hl=tr&rclk=1",
    "website_url": "",
    "rating_text": "4,9",
    "stars": null,
    "number_of_reviews": null,
    "price_level": "",
    "open_hours": "",
    "extraction_timestamp": "2025-06-08T03:37:55.470Z",
    "source_name": "google",
    "source_query": "Irrigation Equipment",
    "source_country": "UA",
    "country": "Ukraine",
    "state": "Kyivska oblast",
    "city": "Borodianka"
  },
  {
    "source_id": "ChIJj9B1EqHP1EARDZgdszuCvLs",
    "name": "Системы полива",
    "category": "Системы полива",
    "formatted_address": "Sulama Ekipmanları Tedarikçisi · Lavrska St, 7а / 19Kapalı ⋅ Açılış zamanı: Pzt 09:00 · +380 99 343 8777",
    "phone_number": "+380993438777",
    "source_url": "https://www.google.com/maps/place/%D0%A1%D0%B8%D1%81%D1%82%D0%B5%D0%BC%D1%8B+%D0%BF%D0%BE%D0%BB%D0%B8%D0%B2%D0%B0/data=!4m7!3m6!1s0x40d4cfa11275d08f:0xbbbc823bb31d980d!8m2!3d50.4368044!4d30.5554264!16s%2Fg%2F11qh89rj21!19sChIJj9B1EqHP1EARDZgdszuCvLs?authuser=0&hl=tr&rclk=1",
    "website_url": "",
    "rating_text": "",
    "stars": null,
    "number_of_reviews": null,
    "price_level": "",
    "open_hours": "",
    "extraction_timestamp": "2025-06-08T03:37:55.470Z",
    "source_name": "google",
    "source_query": "Irrigation Equipment",
    "source_country": "UA",
    "country": "Ukraine",
    "state": "Kyivska oblast",
    "city": "Borodianka"
  },
  {
    "source_id": "ChIJW-xBMdUzK0cRXhxho4oNdOQ",
    "name": "Ahroplast",
    "category": "Ahroplast",
    "formatted_address": "4,9(31)",
    "phone_number": "+380955052806",
    "source_url": "https://www.google.com/maps/place/Ahroplast/data=!4m7!3m6!1s0x472b33d53141ec5b:0xe4740d8aa3611c5e!8m2!3d50.5234205!4d30.2475011!16s%2Fg%2F11cn9yjx5j!19sChIJW-xBMdUzK0cRXhxho4oNdOQ?authuser=0&hl=tr&rclk=1",
    "website_url": "",
    "rating_text": "4,9",
    "stars": null,
    "number_of_reviews": null,
    "price_level": "",
    "open_hours": "",
    "extraction_timestamp": "2025-06-08T03:37:55.471Z",
    "source_name": "google",
    "source_query": "Irrigation Equipment",
    "source_country": "UA",
    "country": "Ukraine",
    "state": "Kyivska oblast",
    "city": "Borodianka"
  },
  {
    "source_id": "ChIJQc9Vni5D1EARPRtaHp6r8R4",
    "name": "Магазин ТВОЄ",
    "category": "Магазин ТВОЄ",
    "formatted_address": "5,0(114)",
    "phone_number": "+380930267856",
    "source_url": "https://www.google.com/maps/place/%D0%9C%D0%B0%D0%B3%D0%B0%D0%B7%D0%B8%D0%BD+%D0%A2%D0%92%D0%9E%D0%84/data=!4m7!3m6!1s0x40d4432e9e55cf41:0x1ef1ab9e1e5a1b3d!8m2!3d50.5058242!4d30.2347029!16s%2Fg%2F11rgzm4l66!19sChIJQc9Vni5D1EARPRtaHp6r8R4?authuser=0&hl=tr&rclk=1",
    "website_url": "",
    "rating_text": "5,0",
    "stars": null,
    "number_of_reviews": null,
    "price_level": "",
    "open_hours": "",
    "extraction_timestamp": "2025-06-08T03:37:55.471Z",
    "source_name": "google",
    "source_query": "Irrigation Equipment",
    "source_country": "UA",
    "country": "Ukraine",
    "state": "Kyivska oblast",
    "city": "Borodianka"
  },
  {
    "source_id": "ChIJDfv0zywyK0cRLdgAAOk7MRo",
    "name": "Pehas",
    "category": "Pehas",
    "formatted_address": "4,6(38)",
    "phone_number": "+380681881818",
    "source_url": "https://www.google.com/maps/place/Pehas/data=!4m7!3m6!1s0x472b322ccff4fb0d:0x1a313be90000d82d!8m2!3d50.5251564!4d30.2458395!16s%2Fg%2F11b5vpqqtk!19sChIJDfv0zywyK0cRLdgAAOk7MRo?authuser=0&hl=tr&rclk=1",
    "website_url": "",
    "rating_text": "4,6",
    "stars": null,
    "number_of_reviews": null,
    "price_level": "",
    "open_hours": "",
    "extraction_timestamp": "2025-06-08T03:37:55.471Z",
    "source_name": "google",
    "source_query": "Irrigation Equipment",
    "source_country": "UA",
    "country": "Ukraine",
    "state": "Kyivska oblast",
    "city": "Borodianka"
  },
  {
    "source_id": "ChIJn_NREAiw1EARYG4FYJY4u-o",
    "name": "Project VP (Інженерні системи)",
    "category": "Project VP (Інженерні системи)",
    "formatted_address": "5,0(5)",
    "phone_number": "+380958553045",
    "source_url": "https://www.google.com/maps/place/Project+VP+%28%D0%86%D0%BD%D0%B6%D0%B5%D0%BD%D0%B5%D1%80%D0%BD%D1%96+%D1%81%D0%B8%D1%81%D1%82%D0%B5%D0%BC%D0%B8%29/data=!4m7!3m6!1s0x40d4b0081051f39f:0xeabb389660056e60!8m2!3d50.5019263!4d30.2483802!16s%2Fg%2F11g6bg1x35!19sChIJn_NREAiw1EARYG4FYJY4u-o?authuser=0&hl=tr&rclk=1",
    "website_url": "",
    "rating_text": "5,0",
    "stars": null,
    "number_of_reviews": null,
    "price_level": "",
    "open_hours": "",
    "extraction_timestamp": "2025-06-08T03:37:55.471Z",
    "source_name": "google",
    "source_query": "Irrigation Equipment",
    "source_country": "UA",
    "country": "Ukraine",
    "state": "Kyivska oblast",
    "city": "Borodianka"
  },
  {
    "source_id": "ChIJuXdaApwj1UAR6rJ6f4SGl9Q",
    "name": "Kyiv Home",
    "category": "Kyiv Home",
    "formatted_address": "4,5(23)",
    "phone_number": "+380972333007",
    "source_url": "https://www.google.com/maps/place/Kyiv+Home/data=!4m7!3m6!1s0x40d5239c025a77b9:0xd49786847f7ab2ea!8m2!3d50.4901858!4d30.5773563!16s%2Fg%2F11c3x9gl35!19sChIJuXdaApwj1UAR6rJ6f4SGl9Q?authuser=0&hl=tr&rclk=1",
    "website_url": "",
    "rating_text": "4,5",
    "stars": null,
    "number_of_reviews": null,
    "price_level": "",
    "open_hours": "",
    "extraction_timestamp": "2025-06-08T03:37:55.472Z",
    "source_name": "google",
    "source_query": "Irrigation Equipment",
    "source_country": "UA",
    "country": "Ukraine",
    "state": "Kyivska oblast",
    "city": "Borodianka"
  },
  {
    "source_id": "ChIJw2WQ26nN1EARR4PP1yU0__Y",
    "name": "Садовий Центр Пісардi",
    "category": "Садовий Центр Пісардi",
    "formatted_address": "4,7(294)",
    "phone_number": "+380989255556",
    "source_url": "https://www.google.com/maps/place/%D0%A1%D0%B0%D0%B4%D0%BE%D0%B2%D0%B8%D0%B9+%D0%A6%D0%B5%D0%BD%D1%82%D1%80+%D0%9F%D1%96%D1%81%D0%B0%D1%80%D0%B4i/data=!4m7!3m6!1s0x40d4cda9db9065c3:0xf6ff3425d7cf8347!8m2!3d50.504339!4d30.1888321!16s%2Fg%2F11c575jgrm!19sChIJw2WQ26nN1EARR4PP1yU0__Y?authuser=0&hl=tr&rclk=1",
    "website_url": "",
    "rating_text": "4,7",
    "stars": null,
    "number_of_reviews": null,
    "price_level": "",
    "open_hours": "",
    "extraction_timestamp": "2025-06-08T03:37:55.472Z",
    "source_name": "google",
    "source_query": "Irrigation Equipment",
    "source_country": "UA",
    "country": "Ukraine",
    "state": "Kyivska oblast",
    "city": "Borodianka"
  }
]
