[
  {
    "source_id": "ChIJY4GCuT6s1EARfJ-_k62Eqic",
    "name": "Струмок",
    "category": "Струмок",
    "formatted_address": "4,4(25)",
    "phone_number": "+380633530106",
    "source_url": "https://www.google.com/maps/place/%D0%A1%D1%82%D1%80%D1%83%D0%BC%D0%BE%D0%BA/data=!4m7!3m6!1s0x40d4ac3eb9828163:0x27aa84ad93bf9f7c!8m2!3d50.1802947!4d30.1077458!16s%2Fg%2F11g9q8dmnw!19sChIJY4GCuT6s1EARfJ-_k62Eqic?authuser=0&hl=tr&rclk=1",
    "website_url": "",
    "rating_text": "4,4",
    "stars": null,
    "number_of_reviews": null,
    "price_level": "",
    "open_hours": "",
    "extraction_timestamp": "2025-06-08T03:27:53.895Z",
    "source_name": "google",
    "source_query": "Irrigation Equipment",
    "source_country": "UA",
    "country": "Ukraine",
    "state": "Kyivska oblast",
    "city": "Borova"
  },
  {
    "source_id": "ChIJO2FDFACt1EARw_3uOUDv9hI",
    "name": "Тепла Оселя",
    "category": "Тепла Оселя",
    "formatted_address": "5,0(1)",
    "phone_number": "",
    "source_url": "https://www.google.com/maps/place/%D0%A2%D0%B5%D0%BF%D0%BB%D0%B0+%D0%9E%D1%81%D0%B5%D0%BB%D1%8F/data=!4m7!3m6!1s0x40d4ad001443613b:0x12f6ef4039eefdc3!8m2!3d50.173816!4d30.0854682!16s%2Fg%2F11x7s70xtw!19sChIJO2FDFACt1EARw_3uOUDv9hI?authuser=0&hl=tr&rclk=1",
    "website_url": "",
    "rating_text": "5,0",
    "stars": null,
    "number_of_reviews": null,
    "price_level": "",
    "open_hours": "",
    "extraction_timestamp": "2025-06-08T03:27:53.895Z",
    "source_name": "google",
    "source_query": "Irrigation Equipment",
    "source_country": "UA",
    "country": "Ukraine",
    "state": "Kyivska oblast",
    "city": "Borova"
  },
  {
    "source_id": "ChIJK1y-15iu1EARbaOlfXu0B7g",
    "name": "Магазин \"Стройка\"",
    "category": "Магазин \"Стройка\"",
    "formatted_address": "4,6(112)",
    "phone_number": "+380956801131",
    "source_url": "https://www.google.com/maps/place/%D0%9C%D0%B0%D0%B3%D0%B0%D0%B7%D0%B8%D0%BD+%22%D0%A1%D1%82%D1%80%D0%BE%D0%B9%D0%BA%D0%B0%22/data=!4m7!3m6!1s0x40d4ae98d7be5c2b:0xb807b47b7da5a36d!8m2!3d50.1698317!4d30.137056!16s%2Fg%2F11c20bdbl9!19sChIJK1y-15iu1EARbaOlfXu0B7g?authuser=0&hl=tr&rclk=1",
    "website_url": "",
    "rating_text": "4,6",
    "stars": null,
    "number_of_reviews": null,
    "price_level": "",
    "open_hours": "",
    "extraction_timestamp": "2025-06-08T03:27:53.895Z",
    "source_name": "google",
    "source_query": "Irrigation Equipment",
    "source_country": "UA",
    "country": "Ukraine",
    "state": "Kyivska oblast",
    "city": "Borova"
  },
  {
    "source_id": "ChIJT2OCVmus1EAR4RATl9WjLhw",
    "name": "Borivchanka",
    "category": "Borivchanka",
    "formatted_address": "3,6(116)",
    "phone_number": "",
    "source_url": "https://www.google.com/maps/place/Borivchanka/data=!4m7!3m6!1s0x40d4ac6b5682634f:0x1c2ea3d5971310e1!8m2!3d50.1745132!4d30.0922206!16s%2Fg%2F11cs9y7szb!19sChIJT2OCVmus1EAR4RATl9WjLhw?authuser=0&hl=tr&rclk=1",
    "website_url": "",
    "rating_text": "3,6",
    "stars": null,
    "number_of_reviews": null,
    "price_level": "",
    "open_hours": "",
    "extraction_timestamp": "2025-06-08T03:27:53.895Z",
    "source_name": "google",
    "source_query": "Irrigation Equipment",
    "source_country": "UA",
    "country": "Ukraine",
    "state": "Kyivska oblast",
    "city": "Borova"
  },
  {
    "source_id": "ChIJPfx-YRqt1EAR9bNT0Od-Iis",
    "name": "Мережа маркетів «Бадьорий»",
    "category": "Мережа маркетів «Бадьорий»",
    "formatted_address": "5,0(1)",
    "phone_number": "",
    "source_url": "https://www.google.com/maps/place/%D0%9C%D0%B5%D1%80%D0%B5%D0%B6%D0%B0+%D0%BC%D0%B0%D1%80%D0%BA%D0%B5%D1%82%D1%96%D0%B2+%C2%AB%D0%91%D0%B0%D0%B4%D1%8C%D0%BE%D1%80%D0%B8%D0%B9%C2%BB/data=!4m7!3m6!1s0x40d4ad1a617efc3d:0x2b227ee7d053b3f5!8m2!3d50.1797511!4d30.108568!16s%2Fg%2F11y43273sd!19sChIJPfx-YRqt1EAR9bNT0Od-Iis?authuser=0&hl=tr&rclk=1",
    "website_url": "",
    "rating_text": "5,0",
    "stars": null,
    "number_of_reviews": null,
    "price_level": "",
    "open_hours": "",
    "extraction_timestamp": "2025-06-08T03:27:53.896Z",
    "source_name": "google",
    "source_query": "Irrigation Equipment",
    "source_country": "UA",
    "country": "Ukraine",
    "state": "Kyivska oblast",
    "city": "Borova"
  },
  {
    "source_id": "ChIJ9V_8xj6s1EARGy96aKGmNgg",
    "name": "Univermah",
    "category": "Univermah",
    "formatted_address": "4,2(179)",
    "phone_number": "",
    "source_url": "https://www.google.com/maps/place/Univermah/data=!4m7!3m6!1s0x40d4ac3ec6fc5ff5:0x836a6a1687a2f1b!8m2!3d50.1803565!4d30.1069274!16s%2Fg%2F11c57ngbmn!19sChIJ9V_8xj6s1EARGy96aKGmNgg?authuser=0&hl=tr&rclk=1",
    "website_url": "",
    "rating_text": "4,2",
    "stars": null,
    "number_of_reviews": null,
    "price_level": "",
    "open_hours": "",
    "extraction_timestamp": "2025-06-08T03:27:53.896Z",
    "source_name": "google",
    "source_query": "Irrigation Equipment",
    "source_country": "UA",
    "country": "Ukraine",
    "state": "Kyivska oblast",
    "city": "Borova"
  },
  {
    "source_id": "ChIJrQEktj6s1EARyWekRPAr0jc",
    "name": "Fora",
    "category": "Fora",
    "formatted_address": "3,6(582)",
    "phone_number": "+380800301230",
    "source_url": "https://www.google.com/maps/place/Fora/data=!4m7!3m6!1s0x40d4ac3eb62401ad:0x37d22bf044a467c9!8m2!3d50.1808215!4d30.1076103!16s%2Fg%2F1pp2tzc55!19sChIJrQEktj6s1EARyWekRPAr0jc?authuser=0&hl=tr&rclk=1",
    "website_url": "",
    "rating_text": "3,6",
    "stars": null,
    "number_of_reviews": null,
    "price_level": "",
    "open_hours": "",
    "extraction_timestamp": "2025-06-08T03:27:53.896Z",
    "source_name": "google",
    "source_query": "Irrigation Equipment",
    "source_country": "UA",
    "country": "Ukraine",
    "state": "Kyivska oblast",
    "city": "Borova"
  },
  {
    "source_id": "ChIJkVXpKN6t1EARoBVLWT2nOoE",
    "name": "Pp. Tretyak",
    "category": "Pp. Tretyak",
    "formatted_address": "5,0(2)",
    "phone_number": "",
    "source_url": "https://www.google.com/maps/place/Pp.+Tretyak/data=!4m7!3m6!1s0x40d4adde28e95591:0x813aa73d594b15a0!8m2!3d50.1793278!4d30.1141389!16s%2Fg%2F11sg74qyy5!19sChIJkVXpKN6t1EARoBVLWT2nOoE?authuser=0&hl=tr&rclk=1",
    "website_url": "",
    "rating_text": "5,0",
    "stars": null,
    "number_of_reviews": null,
    "price_level": "",
    "open_hours": "",
    "extraction_timestamp": "2025-06-08T03:27:53.896Z",
    "source_name": "google",
    "source_query": "Irrigation Equipment",
    "source_country": "UA",
    "country": "Ukraine",
    "state": "Kyivska oblast",
    "city": "Borova"
  },
  {
    "source_id": "ChIJHcKgmBWs1EAR3bTL0-MYpbs",
    "name": "Produktovyy Mahazyn",
    "category": "Produktovyy Mahazyn",
    "formatted_address": "4,1(73)",
    "phone_number": "",
    "source_url": "https://www.google.com/maps/place/Produktovyy+Mahazyn/data=!4m7!3m6!1s0x40d4ac1598a0c21d:0xbba518e3d3cbb4dd!8m2!3d50.1762434!4d30.1004287!16s%2Fg%2F11cr_gyjfq!19sChIJHcKgmBWs1EAR3bTL0-MYpbs?authuser=0&hl=tr&rclk=1",
    "website_url": "",
    "rating_text": "4,1",
    "stars": null,
    "number_of_reviews": null,
    "price_level": "",
    "open_hours": "",
    "extraction_timestamp": "2025-06-08T03:27:53.905Z",
    "source_name": "google",
    "source_query": "Irrigation Equipment",
    "source_country": "UA",
    "country": "Ukraine",
    "state": "Kyivska oblast",
    "city": "Borova"
  },
  {
    "source_id": "ChIJ89xF-Mit1EARI3njSS5WK7E",
    "name": "Строительные материалы",
    "category": "Строительные материалы",
    "formatted_address": "Nalbur · Vulytsya Myru, 31",
    "phone_number": "",
    "source_url": "https://www.google.com/maps/place/%D0%A1%D1%82%D1%80%D0%BE%D0%B8%D1%82%D0%B5%D0%BB%D1%8C%D0%BD%D1%8B%D0%B5+%D0%BC%D0%B0%D1%82%D0%B5%D1%80%D0%B8%D0%B0%D0%BB%D1%8B/data=!4m7!3m6!1s0x40d4adc8f845dcf3:0xb12b562e49e37923!8m2!3d50.1811728!4d30.1078909!16s%2Fg%2F11ngj50gcl!19sChIJ89xF-Mit1EARI3njSS5WK7E?authuser=0&hl=tr&rclk=1",
    "website_url": "",
    "rating_text": "",
    "stars": null,
    "number_of_reviews": null,
    "price_level": "",
    "open_hours": "",
    "extraction_timestamp": "2025-06-08T03:27:53.905Z",
    "source_name": "google",
    "source_query": "Irrigation Equipment",
    "source_country": "UA",
    "country": "Ukraine",
    "state": "Kyivska oblast",
    "city": "Borova"
  },
  {
    "source_id": "ChIJtVRlLj-s1EARxT_LVIed2-k",
    "name": "Автомагазин",
    "category": "Автомагазин",
    "formatted_address": "4,8(52)",
    "phone_number": "+380677877256",
    "source_url": "https://www.google.com/maps/place/%D0%90%D0%B2%D1%82%D0%BE%D0%BC%D0%B0%D0%B3%D0%B0%D0%B7%D0%B8%D0%BD/data=!4m7!3m6!1s0x40d4ac3f2e6554b5:0xe9db9d8754cb3fc5!8m2!3d50.1815143!4d30.1050109!16s%2Fg%2F11g6bf3pvt!19sChIJtVRlLj-s1EARxT_LVIed2-k?authuser=0&hl=tr&rclk=1",
    "website_url": "",
    "rating_text": "4,8",
    "stars": null,
    "number_of_reviews": null,
    "price_level": "",
    "open_hours": "",
    "extraction_timestamp": "2025-06-08T03:27:53.906Z",
    "source_name": "google",
    "source_query": "Irrigation Equipment",
    "source_country": "UA",
    "country": "Ukraine",
    "state": "Kyivska oblast",
    "city": "Borova"
  },
  {
    "source_id": "ChIJWxt4AlHO1EARIhiDVwPGmbM",
    "name": "Eridon",
    "category": "Eridon",
    "formatted_address": "4,4(96)",
    "phone_number": "+380800408700",
    "source_url": "https://www.google.com/maps/place/Eridon/data=!4m7!3m6!1s0x40d4ce5102781b5b:0xb399c60357831822!8m2!3d50.3907885!4d30.4151779!16s%2Fg%2F1tf_rd2m!19sChIJWxt4AlHO1EARIhiDVwPGmbM?authuser=0&hl=tr&rclk=1",
    "website_url": "",
    "rating_text": "4,4",
    "stars": null,
    "number_of_reviews": null,
    "price_level": "",
    "open_hours": "",
    "extraction_timestamp": "2025-06-08T03:27:53.906Z",
    "source_name": "google",
    "source_query": "Irrigation Equipment",
    "source_country": "UA",
    "country": "Ukraine",
    "state": "Kyivska oblast",
    "city": "Borova"
  },
  {
    "source_id": "ChIJmSaXmJOt1EARI-pPbnz0cIc",
    "name": "Магазин М’ясний",
    "category": "Магазин М’ясний",
    "formatted_address": "5,0(1)",
    "phone_number": "+380635476708",
    "source_url": "https://www.google.com/maps/place/%D0%9C%D0%B0%D0%B3%D0%B0%D0%B7%D0%B8%D0%BD+%D0%9C%E2%80%99%D1%8F%D1%81%D0%BD%D0%B8%D0%B9/data=!4m7!3m6!1s0x40d4ad9398972699:0x8770f47c6e4fea23!8m2!3d50.1694427!4d30.0847749!16s%2Fg%2F11l204351q!19sChIJmSaXmJOt1EARI-pPbnz0cIc?authuser=0&hl=tr&rclk=1",
    "website_url": "",
    "rating_text": "5,0",
    "stars": null,
    "number_of_reviews": null,
    "price_level": "",
    "open_hours": "",
    "extraction_timestamp": "2025-06-08T03:27:53.907Z",
    "source_name": "google",
    "source_query": "Irrigation Equipment",
    "source_country": "UA",
    "country": "Ukraine",
    "state": "Kyivska oblast",
    "city": "Borova"
  },
  {
    "source_id": "ChIJq1OAQEXF1EARIAyoFByGrW4",
    "name": "Ahrarna Industrialʹna Kompaniya",
    "category": "Ahrarna Industrialʹna Kompaniya",
    "formatted_address": "4,8(12)",
    "phone_number": "+380504444184",
    "source_url": "https://www.google.com/maps/place/Ahrarna+Industrial%CA%B9na+Kompaniya/data=!4m7!3m6!1s0x40d4c545408053ab:0x6ead861c14a80c20!8m2!3d50.4090678!4d30.6121652!16s%2Fg%2F1tdk3pn4!19sChIJq1OAQEXF1EARIAyoFByGrW4?authuser=0&hl=tr&rclk=1",
    "website_url": "",
    "rating_text": "4,8",
    "stars": null,
    "number_of_reviews": null,
    "price_level": "",
    "open_hours": "",
    "extraction_timestamp": "2025-06-08T03:27:53.908Z",
    "source_name": "google",
    "source_query": "Irrigation Equipment",
    "source_country": "UA",
    "country": "Ukraine",
    "state": "Kyivska oblast",
    "city": "Borova"
  },
  {
    "source_id": "ChIJHVfZoyit1EARpHwXqoDU3KU",
    "name": "Магазин Зоотоварів у Боровій",
    "category": "Магазин Зоотоварів у Боровій",
    "formatted_address": "5,0(9)",
    "phone_number": "+380966436871",
    "source_url": "https://www.google.com/maps/place/%D0%9C%D0%B0%D0%B3%D0%B0%D0%B7%D0%B8%D0%BD+%D0%97%D0%BE%D0%BE%D1%82%D0%BE%D0%B2%D0%B0%D1%80%D1%96%D0%B2+%D1%83+%D0%91%D0%BE%D1%80%D0%BE%D0%B2%D1%96%D0%B9/data=!4m7!3m6!1s0x40d4ad28a3d9571d:0xa5dcd480aa177ca4!8m2!3d50.1809829!4d30.1083507!16s%2Fg%2F11vdbg4lb_!19sChIJHVfZoyit1EARpHwXqoDU3KU?authuser=0&hl=tr&rclk=1",
    "website_url": "",
    "rating_text": "5,0",
    "stars": null,
    "number_of_reviews": null,
    "price_level": "",
    "open_hours": "",
    "extraction_timestamp": "2025-06-08T03:27:53.909Z",
    "source_name": "google",
    "source_query": "Irrigation Equipment",
    "source_country": "UA",
    "country": "Ukraine",
    "state": "Kyivska oblast",
    "city": "Borova"
  },
  {
    "source_id": "ChIJTUrlyz6s1EARLI2SUT-AJUk",
    "name": "Kulynychi",
    "category": "Kulynychi",
    "formatted_address": "3,9(35) · ₺₺",
    "phone_number": "",
    "source_url": "https://www.google.com/maps/place/Kulynychi/data=!4m7!3m6!1s0x40d4ac3ecbe54a4d:0x4925803f51928d2c!8m2!3d50.1809536!4d30.1074126!16s%2Fg%2F11c5_pt1dn!19sChIJTUrlyz6s1EARLI2SUT-AJUk?authuser=0&hl=tr&rclk=1",
    "website_url": "",
    "rating_text": "3,9",
    "stars": null,
    "number_of_reviews": null,
    "price_level": "",
    "open_hours": "",
    "extraction_timestamp": "2025-06-08T03:27:53.910Z",
    "source_name": "google",
    "source_query": "Irrigation Equipment",
    "source_country": "UA",
    "country": "Ukraine",
    "state": "Kyivska oblast",
    "city": "Borova"
  },
  {
    "source_id": "ChIJHypRLQCt1EARJJRRn16dGeM",
    "name": "Duzhe Vysoki Tsiny",
    "category": "Duzhe Vysoki Tsiny",
    "formatted_address": "4,6(9)",
    "phone_number": "",
    "source_url": "https://www.google.com/maps/place/Duzhe+Vysoki+Tsiny/data=!4m7!3m6!1s0x40d4ad002d512a1f:0xe3199d5e9f519424!8m2!3d50.1775529!4d30.1184637!16s%2Fg%2F11vqwh3syf!19sChIJHypRLQCt1EARJJRRn16dGeM?authuser=0&hl=tr&rclk=1",
    "website_url": "",
    "rating_text": "4,6",
    "stars": null,
    "number_of_reviews": null,
    "price_level": "",
    "open_hours": "",
    "extraction_timestamp": "2025-06-08T03:27:53.910Z",
    "source_name": "google",
    "source_query": "Irrigation Equipment",
    "source_country": "UA",
    "country": "Ukraine",
    "state": "Kyivska oblast",
    "city": "Borova"
  },
  {
    "source_id": "ChIJwUitNcut1EARUn811JCGnBk",
    "name": "Pp \"Kruts\"",
    "category": "Pp \"Kruts\"",
    "formatted_address": "Bakkal · Vulytsya Myru, 4-16",
    "phone_number": "",
    "source_url": "https://www.google.com/maps/place/Pp+%22Kruts%22/data=!4m7!3m6!1s0x40d4adcb35ad48c1:0x199c8690d4357f52!8m2!3d50.1805407!4d30.1062566!16s%2Fg%2F11pdl78mhb!19sChIJwUitNcut1EARUn811JCGnBk?authuser=0&hl=tr&rclk=1",
    "website_url": "",
    "rating_text": "",
    "stars": null,
    "number_of_reviews": null,
    "price_level": "",
    "open_hours": "",
    "extraction_timestamp": "2025-06-08T03:27:53.910Z",
    "source_name": "google",
    "source_query": "Irrigation Equipment",
    "source_country": "UA",
    "country": "Ukraine",
    "state": "Kyivska oblast",
    "city": "Borova"
  },
  {
    "source_id": "ChIJBRcWQLWt1EARGkTmIITcA2I",
    "name": "У Хріна.",
    "category": "У Хріна.",
    "formatted_address": "2,0(2)",
    "phone_number": "",
    "source_url": "https://www.google.com/maps/place/%D0%A3+%D0%A5%D1%80%D1%96%D0%BD%D0%B0./data=!4m7!3m6!1s0x40d4adb540161705:0x6203dc8420e6441a!8m2!3d50.1778418!4d30.1256434!16s%2Fg%2F11sg762b4_!19sChIJBRcWQLWt1EARGkTmIITcA2I?authuser=0&hl=tr&rclk=1",
    "website_url": "",
    "rating_text": "2,0",
    "stars": null,
    "number_of_reviews": null,
    "price_level": "",
    "open_hours": "",
    "extraction_timestamp": "2025-06-08T03:27:53.911Z",
    "source_name": "google",
    "source_query": "Irrigation Equipment",
    "source_country": "UA",
    "country": "Ukraine",
    "state": "Kyivska oblast",
    "city": "Borova"
  },
  {
    "source_id": "ChIJ15oP63Ks1EARvA8EXRDnE4o",
    "name": "Mahazyn-Kafe \"U Sashka\"",
    "category": "Mahazyn-Kafe \"U Sashka\"",
    "formatted_address": "4,3(163)",
    "phone_number": "",
    "source_url": "https://www.google.com/maps/place/Mahazyn-Kafe+%22U+Sashka%22/data=!4m7!3m6!1s0x40d4ac72eb0f9ad7:0x8a13e7105d040fbc!8m2!3d50.1691213!4d30.0839446!16s%2Fg%2F11c5g_t2vy!19sChIJ15oP63Ks1EARvA8EXRDnE4o?authuser=0&hl=tr&rclk=1",
    "website_url": "",
    "rating_text": "4,3",
    "stars": null,
    "number_of_reviews": null,
    "price_level": "",
    "open_hours": "",
    "extraction_timestamp": "2025-06-08T03:27:53.911Z",
    "source_name": "google",
    "source_query": "Irrigation Equipment",
    "source_country": "UA",
    "country": "Ukraine",
    "state": "Kyivska oblast",
    "city": "Borova"
  },
  {
    "source_id": "ChIJf5EQNhHP1EARyFIa0TSoUMU",
    "name": "ТОВ \"Стрім-Енерджі Компані\"",
    "category": "ТОВ \"Стрім-Енерджі Компані\"",
    "formatted_address": "5,0(4)",
    "phone_number": "+380509855819",
    "source_url": "https://www.google.com/maps/place/%D0%A2%D0%9E%D0%92+%22%D0%A1%D1%82%D1%80%D1%96%D0%BC-%D0%95%D0%BD%D0%B5%D1%80%D0%B4%D0%B6%D1%96+%D0%9A%D0%BE%D0%BC%D0%BF%D0%B0%D0%BD%D1%96%22/data=!4m7!3m6!1s0x40d4cf113610917f:0xc550a834d11a52c8!8m2!3d50.4520424!4d30.6416021!16s%2Fg%2F11gwp6m4rt!19sChIJf5EQNhHP1EARyFIa0TSoUMU?authuser=0&hl=tr&rclk=1",
    "website_url": "",
    "rating_text": "5,0",
    "stars": null,
    "number_of_reviews": null,
    "price_level": "",
    "open_hours": "",
    "extraction_timestamp": "2025-06-08T03:27:53.912Z",
    "source_name": "google",
    "source_query": "Irrigation Equipment",
    "source_country": "UA",
    "country": "Ukraine",
    "state": "Kyivska oblast",
    "city": "Borova"
  },
  {
    "source_id": "ChIJj9B1EqHP1EARDZgdszuCvLs",
    "name": "Системы полива",
    "category": "Системы полива",
    "formatted_address": "Sulama Ekipmanları Tedarikçisi · Lavrska St, 7а / 19Kapalı ⋅ Açılış zamanı: Pzt 09:00 · +380 99 343 8777",
    "phone_number": "+380993438777",
    "source_url": "https://www.google.com/maps/place/%D0%A1%D0%B8%D1%81%D1%82%D0%B5%D0%BC%D1%8B+%D0%BF%D0%BE%D0%BB%D0%B8%D0%B2%D0%B0/data=!4m7!3m6!1s0x40d4cfa11275d08f:0xbbbc823bb31d980d!8m2!3d50.4368044!4d30.5554264!16s%2Fg%2F11qh89rj21!19sChIJj9B1EqHP1EARDZgdszuCvLs?authuser=0&hl=tr&rclk=1",
    "website_url": "",
    "rating_text": "",
    "stars": null,
    "number_of_reviews": null,
    "price_level": "",
    "open_hours": "",
    "extraction_timestamp": "2025-06-08T03:27:53.913Z",
    "source_name": "google",
    "source_query": "Irrigation Equipment",
    "source_country": "UA",
    "country": "Ukraine",
    "state": "Kyivska oblast",
    "city": "Borova"
  },
  {
    "source_id": "ChIJE60f2DPP1EARCqjSrjIeXBw",
    "name": "СпецПоливСервіс",
    "category": "СпецПоливСервіс",
    "formatted_address": "5,0(17)",
    "phone_number": "+380970822608",
    "source_url": "https://www.google.com/maps/place/%D0%A1%D0%BF%D0%B5%D1%86%D0%9F%D0%BE%D0%BB%D0%B8%D0%B2%D0%A1%D0%B5%D1%80%D0%B2%D1%96%D1%81/data=!4m7!3m6!1s0x40d4cf33d81fad13:0x1c5c1e32aed2a80a!8m2!3d50.463344!4d30.589573!16s%2Fg%2F11h0trxk1!19sChIJE60f2DPP1EARCqjSrjIeXBw?authuser=0&hl=tr&rclk=1",
    "website_url": "",
    "rating_text": "5,0",
    "stars": null,
    "number_of_reviews": null,
    "price_level": "",
    "open_hours": "",
    "extraction_timestamp": "2025-06-08T03:27:53.914Z",
    "source_name": "google",
    "source_query": "Irrigation Equipment",
    "source_country": "UA",
    "country": "Ukraine",
    "state": "Kyivska oblast",
    "city": "Borova"
  },
  {
    "source_id": "ChIJkXv1l6XF1EARB2BiserVpEA",
    "name": "Cascade Aqua - Ландшафтная Компания",
    "category": "Cascade Aqua - Ландшафтная Компания",
    "formatted_address": "5,0(3)",
    "phone_number": "+380674031580",
    "source_url": "https://www.google.com/maps/place/Cascade+Aqua+-+%D0%9B%D0%B0%D0%BD%D0%B4%D1%88%D0%B0%D1%84%D1%82%D0%BD%D0%B0%D1%8F+%D0%9A%D0%BE%D0%BC%D0%BF%D0%B0%D0%BD%D0%B8%D1%8F/data=!4m7!3m6!1s0x40d4c5a597f57b91:0x40a4d5eab1626007!8m2!3d50.4285014!4d30.6698685!16s%2Fg%2F11gpn8vbph!19sChIJkXv1l6XF1EARB2BiserVpEA?authuser=0&hl=tr&rclk=1",
    "website_url": "",
    "rating_text": "5,0",
    "stars": null,
    "number_of_reviews": null,
    "price_level": "",
    "open_hours": "",
    "extraction_timestamp": "2025-06-08T03:27:53.915Z",
    "source_name": "google",
    "source_query": "Irrigation Equipment",
    "source_country": "UA",
    "country": "Ukraine",
    "state": "Kyivska oblast",
    "city": "Borova"
  },
  {
    "source_id": "ChIJDx10apXN1EARCeJXmA3AFk0",
    "name": "Ecosoft - центр чистої води",
    "category": "Ecosoft - центр чистої води",
    "formatted_address": "5,0(4)",
    "phone_number": "+380981015000",
    "source_url": "https://www.google.com/maps/place/Ecosoft+-+%D1%86%D0%B5%D0%BD%D1%82%D1%80+%D1%87%D0%B8%D1%81%D1%82%D0%BE%D1%97+%D0%B2%D0%BE%D0%B4%D0%B8/data=!4m7!3m6!1s0x40d4cd956a741d0f:0x4d16c00d9857e209!8m2!3d50.3469638!4d30.419739!16s%2Fg%2F11q8xbjn2n!19sChIJDx10apXN1EARCeJXmA3AFk0?authuser=0&hl=tr&rclk=1",
    "website_url": "",
    "rating_text": "5,0",
    "stars": null,
    "number_of_reviews": null,
    "price_level": "",
    "open_hours": "",
    "extraction_timestamp": "2025-06-08T03:27:53.916Z",
    "source_name": "google",
    "source_query": "Irrigation Equipment",
    "source_country": "UA",
    "country": "Ukraine",
    "state": "Kyivska oblast",
    "city": "Borova"
  },
  {
    "source_id": "ChIJ5dUqQp2x1EARPeEoyGpO-K4",
    "name": "Ahropromkholdynh Arenda Spetstekhnyky",
    "category": "Ahropromkholdynh Arenda Spetstekhnyky",
    "formatted_address": "5,0(3)",
    "phone_number": "+380672426377",
    "source_url": "https://www.google.com/maps/place/Ahropromkholdynh+Arenda+Spetstekhnyky/data=!4m7!3m6!1s0x40d4b19d422ad5e5:0xaef84e6ac828e13d!8m2!3d50.2246541!4d30.3200193!16s%2Fg%2F11hf1xw_kn!19sChIJ5dUqQp2x1EARPeEoyGpO-K4?authuser=0&hl=tr&rclk=1",
    "website_url": "",
    "rating_text": "5,0",
    "stars": null,
    "number_of_reviews": null,
    "price_level": "",
    "open_hours": "",
    "extraction_timestamp": "2025-06-08T03:27:53.916Z",
    "source_name": "google",
    "source_query": "Irrigation Equipment",
    "source_country": "UA",
    "country": "Ukraine",
    "state": "Kyivska oblast",
    "city": "Borova"
  },
  {
    "source_id": "ChIJIRWBgmPM1EARTsCTjS_16ZA",
    "name": "Родон-Агро",
    "category": "Родон-Агро",
    "formatted_address": "4,5(46)",
    "phone_number": "+380993086438",
    "source_url": "https://www.google.com/maps/place/%D0%A0%D0%BE%D0%B4%D0%BE%D0%BD-%D0%90%D0%B3%D1%80%D0%BE/data=!4m7!3m6!1s0x40d4cc6382811521:0x90e9f52f8d93c04e!8m2!3d50.4501333!4d30.3888885!16s%2Fg%2F11dxd2jhz2!19sChIJIRWBgmPM1EARTsCTjS_16ZA?authuser=0&hl=tr&rclk=1",
    "website_url": "",
    "rating_text": "4,5",
    "stars": null,
    "number_of_reviews": null,
    "price_level": "",
    "open_hours": "",
    "extraction_timestamp": "2025-06-08T03:27:53.917Z",
    "source_name": "google",
    "source_query": "Irrigation Equipment",
    "source_country": "UA",
    "country": "Ukraine",
    "state": "Kyivska oblast",
    "city": "Borova"
  },
  {
    "source_id": "ChIJR6vaoMfJ1EAR8jb--kb_9Bg",
    "name": "Сантехник-Электрик Крюковщина, Вишневое, Гатное, Киев",
    "category": "Сантехник-Электрик Крюковщина, Вишневое, Гатное, Киев",
    "formatted_address": "Сантехник-Электрик Крюковщина, Вишневое, Гатное, Киев",
    "phone_number": "+380976565087",
    "source_url": "https://www.google.com/maps/place/%D0%A1%D0%B0%D0%BD%D1%82%D0%B5%D1%85%D0%BD%D0%B8%D0%BA-%D0%AD%D0%BB%D0%B5%D0%BA%D1%82%D1%80%D0%B8%D0%BA+%D0%9A%D1%80%D1%8E%D0%BA%D0%BE%D0%B2%D1%89%D0%B8%D0%BD%D0%B0,+%D0%92%D0%B8%D1%88%D0%BD%D0%B5%D0%B2%D0%BE%D0%B5,+%D0%93%D0%B0%D1%82%D0%BD%D0%BE%D0%B5,+%D0%9A%D0%B8%D0%B5%D0%B2/data=!4m7!3m6!1s0x40d4c9c7a0daab47:0x18f4ff46fafe36f2!8m2!3d50.3818474!4d30.3862941!16s%2Fg%2F11nflvh0kd!19sChIJR6vaoMfJ1EAR8jb--kb_9Bg?authuser=0&hl=tr&rclk=1",
    "website_url": "",
    "rating_text": "4,9",
    "stars": null,
    "number_of_reviews": null,
    "price_level": "",
    "open_hours": "",
    "extraction_timestamp": "2025-06-08T03:27:53.918Z",
    "source_name": "google",
    "source_query": "Irrigation Equipment",
    "source_country": "UA",
    "country": "Ukraine",
    "state": "Kyivska oblast",
    "city": "Borova"
  },
  {
    "source_id": "ChIJpXddJlLI1EARvX2Niu0cQ7Q",
    "name": "ПАНДА групп обладнання для нафтобаз, насоси вибухозахісні АТЕХ",
    "category": "ПАНДА групп обладнання для нафтобаз, насоси вибухозахісні АТЕХ",
    "formatted_address": "ПАНДА групп обладнання для нафтобаз, насоси вибухозахісні АТЕХ",
    "phone_number": "+380957941719",
    "source_url": "https://www.google.com/maps/place/%D0%9F%D0%90%D0%9D%D0%94%D0%90+%D0%B3%D1%80%D1%83%D0%BF%D0%BF+%D0%BE%D0%B1%D0%BB%D0%B0%D0%B4%D0%BD%D0%B0%D0%BD%D0%BD%D1%8F+%D0%B4%D0%BB%D1%8F+%D0%BD%D0%B0%D1%84%D1%82%D0%BE%D0%B1%D0%B0%D0%B7,+%D0%BD%D0%B0%D1%81%D0%BE%D1%81%D0%B8+%D0%B2%D0%B8%D0%B1%D1%83%D1%85%D0%BE%D0%B7%D0%B0%D1%85%D1%96%D1%81%D0%BD%D1%96+%D0%90%D0%A2%D0%95%D0%A5/data=!4m7!3m6!1s0x40d4c852265d77a5:0xb4431ced8a8d7dbd!8m2!3d50.3035813!4d30.3702163!16s%2Fg%2F1hm3p15g1!19sChIJpXddJlLI1EARvX2Niu0cQ7Q?authuser=0&hl=tr&rclk=1",
    "website_url": "",
    "rating_text": "",
    "stars": null,
    "number_of_reviews": null,
    "price_level": "",
    "open_hours": "",
    "extraction_timestamp": "2025-06-08T03:27:53.919Z",
    "source_name": "google",
    "source_query": "Irrigation Equipment",
    "source_country": "UA",
    "country": "Ukraine",
    "state": "Kyivska oblast",
    "city": "Borova"
  },
  {
    "source_id": "ChIJ8dsRixjR1EARoXe2z7DsZeY",
    "name": "Ukladka Hazona Pod Klyuch Y Avtopolyv Hazona V Kyeve - Vydenflora",
    "category": "Ukladka Hazona Pod Klyuch Y Avtopolyv Hazona V Kyeve - Vydenflora",
    "formatted_address": "5,0(2)",
    "phone_number": "+380984505511",
    "source_url": "https://www.google.com/maps/place/Ukladka+Hazona+Pod+Klyuch+Y+Avtopolyv+Hazona+V+Kyeve+-+Vydenflora/data=!4m7!3m6!1s0x40d4d1188b11dbf1:0xe665ecb0cfb677a1!8m2!3d50.4285014!4d30.6698685!16s%2Fg%2F1pyqm5xpx!19sChIJ8dsRixjR1EARoXe2z7DsZeY?authuser=0&hl=tr&rclk=1",
    "website_url": "",
    "rating_text": "5,0",
    "stars": null,
    "number_of_reviews": null,
    "price_level": "",
    "open_hours": "",
    "extraction_timestamp": "2025-06-08T03:27:53.920Z",
    "source_name": "google",
    "source_query": "Irrigation Equipment",
    "source_country": "UA",
    "country": "Ukraine",
    "state": "Kyivska oblast",
    "city": "Borova"
  },
  {
    "source_id": "ChIJb458cOKx1EAR0FUVRxUzRPQ",
    "name": "Ahropolyv, Tov",
    "category": "Ahropolyv, Tov",
    "formatted_address": "Ahropolyv, Tov",
    "phone_number": "+380662142696",
    "source_url": "https://www.google.com/maps/place/Ahropolyv,+Tov/data=!4m7!3m6!1s0x40d4b1e2707c8e6f:0xf4443315471555d0!8m2!3d50.2174685!4d30.2524756!16s%2Fg%2F11vzs0ymkr!19sChIJb458cOKx1EAR0FUVRxUzRPQ?authuser=0&hl=tr&rclk=1",
    "website_url": "",
    "rating_text": "",
    "stars": null,
    "number_of_reviews": null,
    "price_level": "",
    "open_hours": "",
    "extraction_timestamp": "2025-06-08T03:27:53.921Z",
    "source_name": "google",
    "source_query": "Irrigation Equipment",
    "source_country": "UA",
    "country": "Ukraine",
    "state": "Kyivska oblast",
    "city": "Borova"
  }
]
