[
  {
    "source_id": "ChIJZylhvsy11EAR-gZvIkGLX9o",
    "name": "Vodostichni Systemy",
    "category": "Vodostichni Systemy",
    "formatted_address": "4,6(105)",
    "phone_number": "+380445012020",
    "source_url": "https://www.google.com/maps/place/Vodostichni+Systemy/data=!4m7!3m6!1s0x40d4b5ccbe612967:0xda5f8b41226f06fa!8m2!3d50.3284034!4d30.2864093!16s%2Fg%2F11by_nffvt!19sChIJZylhvsy11EAR-gZvIkGLX9o?authuser=0&hl=tr&rclk=1",
    "website_url": "",
    "rating_text": "4,6",
    "stars": null,
    "number_of_reviews": null,
    "price_level": "",
    "open_hours": "",
    "extraction_timestamp": "2025-06-08T03:37:07.957Z",
    "source_name": "google",
    "source_query": "Irrigation Equipment",
    "source_country": "UA",
    "country": "Ukraine",
    "state": "Kyivska oblast",
    "city": "Boyarka"
  },
  {
    "source_id": "ChIJiVG8rp611EARiwO732MyhP0",
    "name": "Vodomet",
    "category": "Vodomet",
    "formatted_address": "4,4(195)",
    "phone_number": "+380672762055",
    "source_url": "https://www.google.com/maps/place/Vodomet/data=!4m7!3m6!1s0x40d4b59eaebc5189:0xfd843263dfbb038b!8m2!3d50.3151458!4d30.298509!16s%2Fg%2F11j0jl5sgg!19sChIJiVG8rp611EARiwO732MyhP0?authuser=0&hl=tr&rclk=1",
    "website_url": "",
    "rating_text": "4,4",
    "stars": null,
    "number_of_reviews": null,
    "price_level": "",
    "open_hours": "",
    "extraction_timestamp": "2025-06-08T03:37:07.959Z",
    "source_name": "google",
    "source_query": "Irrigation Equipment",
    "source_country": "UA",
    "country": "Ukraine",
    "state": "Kyivska oblast",
    "city": "Boyarka"
  },
  {
    "source_id": "ChIJczMsEfu11EARcw2L-oeitZU",
    "name": "Буріння свердловин VIP-Вода",
    "category": "Буріння свердловин VIP-Вода",
    "formatted_address": "4,2(20)",
    "phone_number": "+380671413000",
    "source_url": "https://www.google.com/maps/place/%D0%91%D1%83%D1%80%D1%96%D0%BD%D0%BD%D1%8F+%D1%81%D0%B2%D0%B5%D1%80%D0%B4%D0%BB%D0%BE%D0%B2%D0%B8%D0%BD+VIP-%D0%92%D0%BE%D0%B4%D0%B0/data=!4m7!3m6!1s0x40d4b5fb112c3373:0x95b5a287fa8b0d73!8m2!3d50.3362252!4d30.2896149!16s%2Fg%2F11mwl09pqf!19sChIJczMsEfu11EARcw2L-oeitZU?authuser=0&hl=tr&rclk=1",
    "website_url": "",
    "rating_text": "4,2",
    "stars": null,
    "number_of_reviews": null,
    "price_level": "",
    "open_hours": "",
    "extraction_timestamp": "2025-06-08T03:37:07.961Z",
    "source_name": "google",
    "source_query": "Irrigation Equipment",
    "source_country": "UA",
    "country": "Ukraine",
    "state": "Kyivska oblast",
    "city": "Boyarka"
  },
  {
    "source_id": "ChIJvbwnjTq11EARc7pC4ntLzdw",
    "name": "Dzherelo",
    "category": "Dzherelo",
    "formatted_address": "4,8(106)",
    "phone_number": "",
    "source_url": "https://www.google.com/maps/place/Dzherelo/data=!4m7!3m6!1s0x40d4b53a8d27bcbd:0xdccd4b7be242ba73!8m2!3d50.3131632!4d30.284443!16s%2Fg%2F11hz6tw1hg!19sChIJvbwnjTq11EARc7pC4ntLzdw?authuser=0&hl=tr&rclk=1",
    "website_url": "",
    "rating_text": "4,8",
    "stars": null,
    "number_of_reviews": null,
    "price_level": "",
    "open_hours": "",
    "extraction_timestamp": "2025-06-08T03:37:07.963Z",
    "source_name": "google",
    "source_query": "Irrigation Equipment",
    "source_country": "UA",
    "country": "Ukraine",
    "state": "Kyivska oblast",
    "city": "Boyarka"
  },
  {
    "source_id": "ChIJ5XxAkt3L1EARKAadCejxqLE",
    "name": "Інтернет-Магазин полива Aqua Price (все для полива, оборудование для автоматического полива и ручного орошения)",
    "category": "Інтернет-Магазин полива Aqua Price (все для полива, оборудование для автоматического полива и ручного орошения)",
    "formatted_address": "Інтернет-Магазин полива Aqua Price (все для полива, оборудование для автоматического полива и ручного орошения)",
    "phone_number": "+380960773337",
    "source_url": "https://www.google.com/maps/place/%D0%86%D0%BD%D1%82%D0%B5%D1%80%D0%BD%D0%B5%D1%82-%D0%9C%D0%B0%D0%B3%D0%B0%D0%B7%D0%B8%D0%BD+%D0%BF%D0%BE%D0%BB%D0%B8%D0%B2%D0%B0+Aqua+Price+%28%D0%B2%D1%81%D0%B5+%D0%B4%D0%BB%D1%8F+%D0%BF%D0%BE%D0%BB%D0%B8%D0%B2%D0%B0,+%D0%BE%D0%B1%D0%BE%D1%80%D1%83%D0%B4%D0%BE%D0%B2%D0%B0%D0%BD%D0%B8%D0%B5+%D0%B4%D0%BB%D1%8F+%D0%B0%D0%B2%D1%82%D0%BE%D0%BC%D0%B0%D1%82%D0%B8%D1%87%D0%B5%D1%81%D0%BA%D0%BE%D0%B3%D0%BE+%D0%BF%D0%BE%D0%BB%D0%B8%D0%B2%D0%B0+%D0%B8+%D1%80%D1%83%D1%87%D0%BD%D0%BE%D0%B3%D0%BE+%D0%BE%D1%80%D0%BE%D1%88%D0%B5%D0%BD%D0%B8%D1%8F%29/data=!4m7!3m6!1s0x40d4cbdd92407ce5:0xb1a8f1e8099d0628!8m2!3d50.4275904!4d30.3497723!16s%2Fg%2F11qyk5wysc!19sChIJ5XxAkt3L1EARKAadCejxqLE?authuser=0&hl=tr&rclk=1",
    "website_url": "",
    "rating_text": "5,0",
    "stars": null,
    "number_of_reviews": null,
    "price_level": "",
    "open_hours": "",
    "extraction_timestamp": "2025-06-08T03:37:07.964Z",
    "source_name": "google",
    "source_query": "Irrigation Equipment",
    "source_country": "UA",
    "country": "Ukraine",
    "state": "Kyivska oblast",
    "city": "Boyarka"
  },
  {
    "source_id": "ChIJ51xfgUS11EARwv0SeITb8KM",
    "name": "Eko Voda",
    "category": "Eko Voda",
    "formatted_address": "4,3(27)",
    "phone_number": "",
    "source_url": "https://www.google.com/maps/place/Eko+Voda/data=!4m7!3m6!1s0x40d4b544815f5ce7:0xa3f0db847812fdc2!8m2!3d50.3337992!4d30.2872782!16s%2Fg%2F11q2jg1ldv!19sChIJ51xfgUS11EARwv0SeITb8KM?authuser=0&hl=tr&rclk=1",
    "website_url": "",
    "rating_text": "4,3",
    "stars": null,
    "number_of_reviews": null,
    "price_level": "",
    "open_hours": "",
    "extraction_timestamp": "2025-06-08T03:37:07.965Z",
    "source_name": "google",
    "source_query": "Irrigation Equipment",
    "source_country": "UA",
    "country": "Ukraine",
    "state": "Kyivska oblast",
    "city": "Boyarka"
  },
  {
    "source_id": "ChIJU88DLI621EARNivh-cO53Jo",
    "name": "Budivelʹnyk",
    "category": "Budivelʹnyk",
    "formatted_address": "4,6(293)",
    "phone_number": "+380678924088",
    "source_url": "https://www.google.com/maps/place/Budivel%CA%B9nyk/data=!4m7!3m6!1s0x40d4b68e2c03cf53:0x9adcb9c3f9e12b36!8m2!3d50.3089229!4d30.3159785!16s%2Fg%2F11c2nhffkf!19sChIJU88DLI621EARNivh-cO53Jo?authuser=0&hl=tr&rclk=1",
    "website_url": "",
    "rating_text": "4,6",
    "stars": null,
    "number_of_reviews": null,
    "price_level": "",
    "open_hours": "",
    "extraction_timestamp": "2025-06-08T03:37:07.967Z",
    "source_name": "google",
    "source_query": "Irrigation Equipment",
    "source_country": "UA",
    "country": "Ukraine",
    "state": "Kyivska oblast",
    "city": "Boyarka"
  },
  {
    "source_id": "ChIJYyU9lq_N1EARqoG8SYko8go",
    "name": "Лайф Гарден",
    "category": "Лайф Гарден",
    "formatted_address": "3,9(7)",
    "phone_number": "+380503719090",
    "source_url": "https://www.google.com/maps/place/%D0%9B%D0%B0%D0%B9%D1%84+%D0%93%D0%B0%D1%80%D0%B4%D0%B5%D0%BD/data=!4m7!3m6!1s0x40d4cdaf963d2563:0xaf2288949bc81aa!8m2!3d50.45748!4d30.3824706!16s%2Fg%2F11gr60b225!19sChIJYyU9lq_N1EARqoG8SYko8go?authuser=0&hl=tr&rclk=1",
    "website_url": "",
    "rating_text": "3,9",
    "stars": null,
    "number_of_reviews": null,
    "price_level": "",
    "open_hours": "",
    "extraction_timestamp": "2025-06-08T03:37:07.968Z",
    "source_name": "google",
    "source_query": "Irrigation Equipment",
    "source_country": "UA",
    "country": "Ukraine",
    "state": "Kyivska oblast",
    "city": "Boyarka"
  },
  {
    "source_id": "ChIJzW8PV9i11EARCnVghS2E02Y",
    "name": "Сантех-Лайт",
    "category": "Сантех-Лайт",
    "formatted_address": "Su Tesisatı Malzemeleri Satıcısı · Molodizhna St, 12/2Kapalı ⋅ Açılış zamanı: Pzt 09:00 · +380 96 468 2299",
    "phone_number": "+380964682299",
    "source_url": "https://www.google.com/maps/place/%D0%A1%D0%B0%D0%BD%D1%82%D0%B5%D1%85-%D0%9B%D0%B0%D0%B9%D1%82/data=!4m7!3m6!1s0x40d4b5d8570f6fcd:0x66d3842d8560750a!8m2!3d50.3417869!4d30.2968616!16s%2Fg%2F11y47vxm98!19sChIJzW8PV9i11EARCnVghS2E02Y?authuser=0&hl=tr&rclk=1",
    "website_url": "",
    "rating_text": "",
    "stars": null,
    "number_of_reviews": null,
    "price_level": "",
    "open_hours": "",
    "extraction_timestamp": "2025-06-08T03:37:07.969Z",
    "source_name": "google",
    "source_query": "Irrigation Equipment",
    "source_country": "UA",
    "country": "Ukraine",
    "state": "Kyivska oblast",
    "city": "Boyarka"
  },
  {
    "source_id": "ChIJraViVTO11EARRrPA72oIgz8",
    "name": "Sadovyy Tsentr \"Zelenmarket\"",
    "category": "Sadovyy Tsentr \"Zelenmarket\"",
    "formatted_address": "4,0(2)",
    "phone_number": "+380977484567",
    "source_url": "https://www.google.com/maps/place/Sadovyy+Tsentr+%22Zelenmarket%22/data=!4m7!3m6!1s0x40d4b5335562a5ad:0x3f83086aefc0b346!8m2!3d50.3528053!4d30.2938304!16s%2Fg%2F11lgz0flfx!19sChIJraViVTO11EARRrPA72oIgz8?authuser=0&hl=tr&rclk=1",
    "website_url": "",
    "rating_text": "4,0",
    "stars": null,
    "number_of_reviews": null,
    "price_level": "",
    "open_hours": "",
    "extraction_timestamp": "2025-06-08T03:37:07.970Z",
    "source_name": "google",
    "source_query": "Irrigation Equipment",
    "source_country": "UA",
    "country": "Ukraine",
    "state": "Kyivska oblast",
    "city": "Boyarka"
  },
  {
    "source_id": "ChIJHyC4NGy11EARKqyQTN_v3s4",
    "name": "Центр видачі замовлень ЕПІЦЕНТР.ua",
    "category": "Центр видачі замовлень ЕПІЦЕНТР.ua",
    "formatted_address": "3,3(8)",
    "phone_number": "+380459850626",
    "source_url": "https://www.google.com/maps/place/%D0%A6%D0%B5%D0%BD%D1%82%D1%80+%D0%B2%D0%B8%D0%B4%D0%B0%D1%87%D1%96+%D0%B7%D0%B0%D0%BC%D0%BE%D0%B2%D0%BB%D0%B5%D0%BD%D1%8C+%D0%95%D0%9F%D0%86%D0%A6%D0%95%D0%9D%D0%A2%D0%A0.ua/data=!4m7!3m6!1s0x40d4b56c34b8201f:0xcedeefdf4c90ac2a!8m2!3d50.3457858!4d30.2807008!16s%2Fg%2F11nndhpx45!19sChIJHyC4NGy11EARKqyQTN_v3s4?authuser=0&hl=tr&rclk=1",
    "website_url": "",
    "rating_text": "3,3",
    "stars": null,
    "number_of_reviews": null,
    "price_level": "",
    "open_hours": "",
    "extraction_timestamp": "2025-06-08T03:37:07.971Z",
    "source_name": "google",
    "source_query": "Irrigation Equipment",
    "source_country": "UA",
    "country": "Ukraine",
    "state": "Kyivska oblast",
    "city": "Boyarka"
  },
  {
    "source_id": "ChIJDQxwShi11EAR2Ft7BSkNdl8",
    "name": "ROZETKA",
    "category": "ROZETKA",
    "formatted_address": "4,4(269)",
    "phone_number": "",
    "source_url": "https://www.google.com/maps/place/ROZETKA/data=!4m7!3m6!1s0x40d4b5184a700c0d:0x5f760d29057b5bd8!8m2!3d50.3184672!4d30.2984074!16s%2Fg%2F11mw50545l!19sChIJDQxwShi11EAR2Ft7BSkNdl8?authuser=0&hl=tr&rclk=1",
    "website_url": "",
    "rating_text": "4,4",
    "stars": null,
    "number_of_reviews": null,
    "price_level": "",
    "open_hours": "",
    "extraction_timestamp": "2025-06-08T03:37:07.972Z",
    "source_name": "google",
    "source_query": "Irrigation Equipment",
    "source_country": "UA",
    "country": "Ukraine",
    "state": "Kyivska oblast",
    "city": "Boyarka"
  },
  {
    "source_id": "ChIJH92H-OHN1EAR8y6NQ7A6p38",
    "name": "Stonepools",
    "category": "Stonepools",
    "formatted_address": "5,0(3)",
    "phone_number": "+380675052416",
    "source_url": "https://www.google.com/maps/place/Stonepools/data=!4m7!3m6!1s0x40d4cde1f887dd1f:0x7fa73ab0438d2ef3!8m2!3d50.3316264!4d30.3180888!16s%2Fg%2F11c5h2tm27!19sChIJH92H-OHN1EAR8y6NQ7A6p38?authuser=0&hl=tr&rclk=1",
    "website_url": "",
    "rating_text": "5,0",
    "stars": null,
    "number_of_reviews": null,
    "price_level": "",
    "open_hours": "",
    "extraction_timestamp": "2025-06-08T03:37:07.973Z",
    "source_name": "google",
    "source_query": "Irrigation Equipment",
    "source_country": "UA",
    "country": "Ukraine",
    "state": "Kyivska oblast",
    "city": "Boyarka"
  },
  {
    "source_id": "ChIJhzPq3VX_1EARRNB0V2bqO9o",
    "name": "ROZETKA",
    "category": "ROZETKA",
    "formatted_address": "4,5(50)",
    "phone_number": "",
    "source_url": "https://www.google.com/maps/place/ROZETKA/data=!4m7!3m6!1s0x40d4ff55ddea3387:0xda3bea665774d044!8m2!3d50.3379472!4d30.2841233!16s%2Fg%2F11ht19ftt4!19sChIJhzPq3VX_1EARRNB0V2bqO9o?authuser=0&hl=tr&rclk=1",
    "website_url": "",
    "rating_text": "4,5",
    "stars": null,
    "number_of_reviews": null,
    "price_level": "",
    "open_hours": "",
    "extraction_timestamp": "2025-06-08T03:37:07.974Z",
    "source_name": "google",
    "source_query": "Irrigation Equipment",
    "source_country": "UA",
    "country": "Ukraine",
    "state": "Kyivska oblast",
    "city": "Boyarka"
  },
  {
    "source_id": "ChIJKy1kvDK01EAReq7a5rtpxW8",
    "name": "Komunalʹne Pidpryyemstvo \"Boyarka-Vodokanal\"",
    "category": "Komunalʹne Pidpryyemstvo \"Boyarka-Vodokanal\"",
    "formatted_address": "3,1(59)",
    "phone_number": "+380459840249",
    "source_url": "https://www.google.com/maps/place/Komunal%CA%B9ne+Pidpryyemstvo+%22Boyarka-Vodokanal%22/data=!4m7!3m6!1s0x40d4b432bc642d2b:0x6fc569bbe6daae7a!8m2!3d50.3261429!4d30.2902909!16s%2Fg%2F11hb6dbx_y!19sChIJKy1kvDK01EAReq7a5rtpxW8?authuser=0&hl=tr&rclk=1",
    "website_url": "",
    "rating_text": "3,1",
    "stars": null,
    "number_of_reviews": null,
    "price_level": "",
    "open_hours": "",
    "extraction_timestamp": "2025-06-08T03:37:07.975Z",
    "source_name": "google",
    "source_query": "Irrigation Equipment",
    "source_country": "UA",
    "country": "Ukraine",
    "state": "Kyivska oblast",
    "city": "Boyarka"
  },
  {
    "source_id": "ChIJnzAOn46l1EARARKyGo-Jfvg",
    "name": "Буровая Компания \"ГОРИЗОНТ\"",
    "category": "Буровая Компания \"ГОРИЗОНТ\"",
    "formatted_address": "4,4(10)",
    "phone_number": "+380988551188",
    "source_url": "https://www.google.com/maps/place/%D0%91%D1%83%D1%80%D0%BE%D0%B2%D0%B0%D1%8F+%D0%9A%D0%BE%D0%BC%D0%BF%D0%B0%D0%BD%D0%B8%D1%8F+%22%D0%93%D0%9E%D0%A0%D0%98%D0%97%D0%9E%D0%9D%D0%A2%22/data=!4m7!3m6!1s0x40d4a58e9f0e309f:0xf87e898f1ab21201!8m2!3d50.1764743!4d30.3174947!16s%2Fg%2F11rg9xp2mj!19sChIJnzAOn46l1EARARKyGo-Jfvg?authuser=0&hl=tr&rclk=1",
    "website_url": "",
    "rating_text": "4,4",
    "stars": null,
    "number_of_reviews": null,
    "price_level": "",
    "open_hours": "",
    "extraction_timestamp": "2025-06-08T03:37:07.976Z",
    "source_name": "google",
    "source_query": "Irrigation Equipment",
    "source_country": "UA",
    "country": "Ukraine",
    "state": "Kyivska oblast",
    "city": "Boyarka"
  },
  {
    "source_id": "ChIJEQUlz8ua4EARIUTb1r5xq4U",
    "name": "Мир Комфорта",
    "category": "Мир Комфорта",
    "formatted_address": "1,0(1)",
    "phone_number": "+380501879762",
    "source_url": "https://www.google.com/maps/place/%D0%9C%D0%B8%D1%80+%D0%9A%D0%BE%D0%BC%D1%84%D0%BE%D1%80%D1%82%D0%B0/data=!4m7!3m6!1s0x40e09acbcf250511:0x85ab71bed6db4421!8m2!3d50.334884!4d30.280687!16s%2Fg%2F11xlqtpj3!19sChIJEQUlz8ua4EARIUTb1r5xq4U?authuser=0&hl=tr&rclk=1",
    "website_url": "",
    "rating_text": "1,0",
    "stars": null,
    "number_of_reviews": null,
    "price_level": "",
    "open_hours": "",
    "extraction_timestamp": "2025-06-08T03:37:07.977Z",
    "source_name": "google",
    "source_query": "Irrigation Equipment",
    "source_country": "UA",
    "country": "Ukraine",
    "state": "Kyivska oblast",
    "city": "Boyarka"
  },
  {
    "source_id": "ChIJ7Ugccry11EAR7SJF4wON6I4",
    "name": "Dorozhna Karta",
    "category": "Dorozhna Karta",
    "formatted_address": "4,7(71)",
    "phone_number": "+380672322704",
    "source_url": "https://www.google.com/maps/place/Dorozhna+Karta/data=!4m7!3m6!1s0x40d4b5bc721c48ed:0x8ee88d03e34522ed!8m2!3d50.3467015!4d30.2841391!16s%2Fg%2F11hbr7npq6!19sChIJ7Ugccry11EAR7SJF4wON6I4?authuser=0&hl=tr&rclk=1",
    "website_url": "",
    "rating_text": "4,7",
    "stars": null,
    "number_of_reviews": null,
    "price_level": "",
    "open_hours": "",
    "extraction_timestamp": "2025-06-08T03:37:07.978Z",
    "source_name": "google",
    "source_query": "Irrigation Equipment",
    "source_country": "UA",
    "country": "Ukraine",
    "state": "Kyivska oblast",
    "city": "Boyarka"
  },
  {
    "source_id": "ChIJ9xtmDxi11EARzilwfO5uPY4",
    "name": "Садовий центр",
    "category": "Садовий центр",
    "formatted_address": "3,0(2)",
    "phone_number": "+380970060033",
    "source_url": "https://www.google.com/maps/place/%D0%A1%D0%B0%D0%B4%D0%BE%D0%B2%D0%B8%D0%B9+%D1%86%D0%B5%D0%BD%D1%82%D1%80/data=!4m7!3m6!1s0x40d4b5180f661bf7:0x8e3d6eee7c7029ce!8m2!3d50.3519493!4d30.2921246!16s%2Fg%2F11qmqzk_01!19sChIJ9xtmDxi11EARzilwfO5uPY4?authuser=0&hl=tr&rclk=1",
    "website_url": "",
    "rating_text": "3,0",
    "stars": null,
    "number_of_reviews": null,
    "price_level": "",
    "open_hours": "",
    "extraction_timestamp": "2025-06-08T03:37:07.980Z",
    "source_name": "google",
    "source_query": "Irrigation Equipment",
    "source_country": "UA",
    "country": "Ukraine",
    "state": "Kyivska oblast",
    "city": "Boyarka"
  },
  {
    "source_id": "ChIJp5RspWO11EARnAJETWqgABw",
    "name": "Мережа маркетів «Бадьорий»",
    "category": "Мережа маркетів «Бадьорий»",
    "formatted_address": "4,7(9)",
    "phone_number": "",
    "source_url": "https://www.google.com/maps/place/%D0%9C%D0%B5%D1%80%D0%B5%D0%B6%D0%B0+%D0%BC%D0%B0%D1%80%D0%BA%D0%B5%D1%82%D1%96%D0%B2+%C2%AB%D0%91%D0%B0%D0%B4%D1%8C%D0%BE%D1%80%D0%B8%D0%B9%C2%BB/data=!4m7!3m6!1s0x40d4b563a56c94a7:0x1c00a06a4d44029c!8m2!3d50.3323821!4d30.2759581!16s%2Fg%2F11v_4dkxrx!19sChIJp5RspWO11EARnAJETWqgABw?authuser=0&hl=tr&rclk=1",
    "website_url": "",
    "rating_text": "4,7",
    "stars": null,
    "number_of_reviews": null,
    "price_level": "",
    "open_hours": "",
    "extraction_timestamp": "2025-06-08T03:37:07.980Z",
    "source_name": "google",
    "source_query": "Irrigation Equipment",
    "source_country": "UA",
    "country": "Ukraine",
    "state": "Kyivska oblast",
    "city": "Boyarka"
  },
  {
    "source_id": "ChIJz29ug2_J1EARzaZ7tmeMv4s",
    "name": "Інтернет-магазин LETO Сад від А до Я",
    "category": "Інтернет-магазин LETO Сад від А до Я",
    "formatted_address": "4,7(218)",
    "phone_number": "+380442291160",
    "source_url": "https://www.google.com/maps/place/%D0%86%D0%BD%D1%82%D0%B5%D1%80%D0%BD%D0%B5%D1%82-%D0%BC%D0%B0%D0%B3%D0%B0%D0%B7%D0%B8%D0%BD+LETO+%D0%A1%D0%B0%D0%B4+%D0%B2%D1%96%D0%B4+%D0%90+%D0%B4%D0%BE+%D0%AF/data=!4m7!3m6!1s0x40d4c96f836e6fcf:0x8bbf8c67b67ba6cd!8m2!3d50.396095!4d30.4154559!16s%2Fg%2F1vtzfr1m!19sChIJz29ug2_J1EARzaZ7tmeMv4s?authuser=0&hl=tr&rclk=1",
    "website_url": "",
    "rating_text": "4,7",
    "stars": null,
    "number_of_reviews": null,
    "price_level": "",
    "open_hours": "",
    "extraction_timestamp": "2025-06-08T03:37:08.014Z",
    "source_name": "google",
    "source_query": "Irrigation Equipment",
    "source_country": "UA",
    "country": "Ukraine",
    "state": "Kyivska oblast",
    "city": "Boyarka"
  },
  {
    "source_id": "ChIJUUUlf2jK1EARGHLCKeFK-oU",
    "name": "Leon Servis Plyus",
    "category": "Leon Servis Plyus",
    "formatted_address": "4,7(121)",
    "phone_number": "+380672439595",
    "source_url": "https://www.google.com/maps/place/Leon+Servis+Plyus/data=!4m7!3m6!1s0x40d4ca687f254551:0x85fa4ae129c27218!8m2!3d50.3871377!4d30.3147029!16s%2Fg%2F1vcl28pq!19sChIJUUUlf2jK1EARGHLCKeFK-oU?authuser=0&hl=tr&rclk=1",
    "website_url": "",
    "rating_text": "4,7",
    "stars": null,
    "number_of_reviews": null,
    "price_level": "",
    "open_hours": "",
    "extraction_timestamp": "2025-06-08T03:37:08.015Z",
    "source_name": "google",
    "source_query": "Irrigation Equipment",
    "source_country": "UA",
    "country": "Ukraine",
    "state": "Kyivska oblast",
    "city": "Boyarka"
  },
  {
    "source_id": "ChIJR6vaoMfJ1EAR8jb--kb_9Bg",
    "name": "Сантехник-Электрик Крюковщина, Вишневое, Гатное, Киев",
    "category": "Сантехник-Электрик Крюковщина, Вишневое, Гатное, Киев",
    "formatted_address": "Сантехник-Электрик Крюковщина, Вишневое, Гатное, Киев",
    "phone_number": "+380976565087",
    "source_url": "https://www.google.com/maps/place/%D0%A1%D0%B0%D0%BD%D1%82%D0%B5%D1%85%D0%BD%D0%B8%D0%BA-%D0%AD%D0%BB%D0%B5%D0%BA%D1%82%D1%80%D0%B8%D0%BA+%D0%9A%D1%80%D1%8E%D0%BA%D0%BE%D0%B2%D1%89%D0%B8%D0%BD%D0%B0,+%D0%92%D0%B8%D1%88%D0%BD%D0%B5%D0%B2%D0%BE%D0%B5,+%D0%93%D0%B0%D1%82%D0%BD%D0%BE%D0%B5,+%D0%9A%D0%B8%D0%B5%D0%B2/data=!4m7!3m6!1s0x40d4c9c7a0daab47:0x18f4ff46fafe36f2!8m2!3d50.3818474!4d30.3862941!16s%2Fg%2F11nflvh0kd!19sChIJR6vaoMfJ1EAR8jb--kb_9Bg?authuser=0&hl=tr&rclk=1",
    "website_url": "",
    "rating_text": "4,9",
    "stars": null,
    "number_of_reviews": null,
    "price_level": "",
    "open_hours": "",
    "extraction_timestamp": "2025-06-08T03:37:08.017Z",
    "source_name": "google",
    "source_query": "Irrigation Equipment",
    "source_country": "UA",
    "country": "Ukraine",
    "state": "Kyivska oblast",
    "city": "Boyarka"
  },
  {
    "source_id": "ChIJIRWBgmPM1EARTsCTjS_16ZA",
    "name": "Родон-Агро",
    "category": "Родон-Агро",
    "formatted_address": "4,5(46)",
    "phone_number": "+380993086438",
    "source_url": "https://www.google.com/maps/place/%D0%A0%D0%BE%D0%B4%D0%BE%D0%BD-%D0%90%D0%B3%D1%80%D0%BE/data=!4m7!3m6!1s0x40d4cc6382811521:0x90e9f52f8d93c04e!8m2!3d50.4501333!4d30.3888885!16s%2Fg%2F11dxd2jhz2!19sChIJIRWBgmPM1EARTsCTjS_16ZA?authuser=0&hl=tr&rclk=1",
    "website_url": "",
    "rating_text": "4,5",
    "stars": null,
    "number_of_reviews": null,
    "price_level": "",
    "open_hours": "",
    "extraction_timestamp": "2025-06-08T03:37:08.018Z",
    "source_name": "google",
    "source_query": "Irrigation Equipment",
    "source_country": "UA",
    "country": "Ukraine",
    "state": "Kyivska oblast",
    "city": "Boyarka"
  },
  {
    "source_id": "ChIJDx10apXN1EARCeJXmA3AFk0",
    "name": "Ecosoft - центр чистої води",
    "category": "Ecosoft - центр чистої води",
    "formatted_address": "5,0(4)",
    "phone_number": "+380981015000",
    "source_url": "https://www.google.com/maps/place/Ecosoft+-+%D1%86%D0%B5%D0%BD%D1%82%D1%80+%D1%87%D0%B8%D1%81%D1%82%D0%BE%D1%97+%D0%B2%D0%BE%D0%B4%D0%B8/data=!4m7!3m6!1s0x40d4cd956a741d0f:0x4d16c00d9857e209!8m2!3d50.3469638!4d30.419739!16s%2Fg%2F11q8xbjn2n!19sChIJDx10apXN1EARCeJXmA3AFk0?authuser=0&hl=tr&rclk=1",
    "website_url": "",
    "rating_text": "5,0",
    "stars": null,
    "number_of_reviews": null,
    "price_level": "",
    "open_hours": "",
    "extraction_timestamp": "2025-06-08T03:37:08.019Z",
    "source_name": "google",
    "source_query": "Irrigation Equipment",
    "source_country": "UA",
    "country": "Ukraine",
    "state": "Kyivska oblast",
    "city": "Boyarka"
  },
  {
    "source_id": "ChIJAQAAz_PL1EARhCPoirnRnec",
    "name": "Profisad",
    "category": "Profisad",
    "formatted_address": "5,0(11)",
    "phone_number": "+380443533851",
    "source_url": "https://www.google.com/maps/place/Profisad/data=!4m7!3m6!1s0x40d4cbf3cf000001:0xe79dd1b98ae82384!8m2!3d50.3879359!4d30.2407464!16s%2Fg%2F11hyt1c0t8!19sChIJAQAAz_PL1EARhCPoirnRnec?authuser=0&hl=tr&rclk=1",
    "website_url": "",
    "rating_text": "5,0",
    "stars": null,
    "number_of_reviews": null,
    "price_level": "",
    "open_hours": "",
    "extraction_timestamp": "2025-06-08T03:37:08.020Z",
    "source_name": "google",
    "source_query": "Irrigation Equipment",
    "source_country": "UA",
    "country": "Ukraine",
    "state": "Kyivska oblast",
    "city": "Boyarka"
  },
  {
    "source_id": "ChIJH_xN6cbL1EARD7Bc2ly3bYk",
    "name": "Delʹta Term",
    "category": "Delʹta Term",
    "formatted_address": "4,3(72)",
    "phone_number": "+380444020111",
    "source_url": "https://www.google.com/maps/place/Del%CA%B9ta+Term/data=!4m7!3m6!1s0x40d4cbc6e94dfc1f:0x896db75cda5cb00f!8m2!3d50.4077001!4d30.376854!16s%2Fg%2F11xcn6dcs!19sChIJH_xN6cbL1EARD7Bc2ly3bYk?authuser=0&hl=tr&rclk=1",
    "website_url": "",
    "rating_text": "4,3",
    "stars": null,
    "number_of_reviews": null,
    "price_level": "",
    "open_hours": "",
    "extraction_timestamp": "2025-06-08T03:37:08.021Z",
    "source_name": "google",
    "source_query": "Irrigation Equipment",
    "source_country": "UA",
    "country": "Ukraine",
    "state": "Kyivska oblast",
    "city": "Boyarka"
  },
  {
    "source_id": "ChIJq1OAQEXF1EARIAyoFByGrW4",
    "name": "Ahrarna Industrialʹna Kompaniya",
    "category": "Ahrarna Industrialʹna Kompaniya",
    "formatted_address": "4,8(12)",
    "phone_number": "+380504444184",
    "source_url": "https://www.google.com/maps/place/Ahrarna+Industrial%CA%B9na+Kompaniya/data=!4m7!3m6!1s0x40d4c545408053ab:0x6ead861c14a80c20!8m2!3d50.4090678!4d30.6121652!16s%2Fg%2F1tdk3pn4!19sChIJq1OAQEXF1EARIAyoFByGrW4?authuser=0&hl=tr&rclk=1",
    "website_url": "",
    "rating_text": "4,8",
    "stars": null,
    "number_of_reviews": null,
    "price_level": "",
    "open_hours": "",
    "extraction_timestamp": "2025-06-08T03:37:08.022Z",
    "source_name": "google",
    "source_query": "Irrigation Equipment",
    "source_country": "UA",
    "country": "Ukraine",
    "state": "Kyivska oblast",
    "city": "Boyarka"
  },
  {
    "source_id": "ChIJlf8KTInJ1EARVa2l9X6ROvY",
    "name": "Hunter Автополив Украина",
    "category": "Hunter Автополив Украина",
    "formatted_address": "5,0(3)",
    "phone_number": "+380509998688",
    "source_url": "https://www.google.com/maps/place/Hunter+%D0%90%D0%B2%D1%82%D0%BE%D0%BF%D0%BE%D0%BB%D0%B8%D0%B2+%D0%A3%D0%BA%D1%80%D0%B0%D0%B8%D0%BD%D0%B0/data=!4m7!3m6!1s0x40d4c9894c0aff95:0xf63a917ef5a5ad55!8m2!3d50.4177962!4d30.4415501!16s%2Fg%2F11ngtbpk5k!19sChIJlf8KTInJ1EARVa2l9X6ROvY?authuser=0&hl=tr&rclk=1",
    "website_url": "",
    "rating_text": "5,0",
    "stars": null,
    "number_of_reviews": null,
    "price_level": "",
    "open_hours": "",
    "extraction_timestamp": "2025-06-08T03:37:08.023Z",
    "source_name": "google",
    "source_query": "Irrigation Equipment",
    "source_country": "UA",
    "country": "Ukraine",
    "state": "Kyivska oblast",
    "city": "Boyarka"
  }
]
