[
  {
    "source_id": "ChIJ__9PiBPZ1EARzxUdUDanj4c",
    "name": "Корпорація фільтрів для води",
    "category": "Корпорація фільтрів для води",
    "formatted_address": "5,0(26)",
    "phone_number": "+380932764441",
    "source_url": "https://www.google.com/maps/place/%D0%9A%D0%BE%D1%80%D0%BF%D0%BE%D1%80%D0%B0%D1%86%D1%96%D1%8F+%D1%84%D1%96%D0%BB%D1%8C%D1%82%D1%80%D1%96%D0%B2+%D0%B4%D0%BB%D1%8F+%D0%B2%D0%BE%D0%B4%D0%B8/data=!4m7!3m6!1s0x40d4d913884fffff:0x878fa736501d15cf!8m2!3d50.5204705!4d30.8151213!16s%2Fg%2F11h84_3zw_!19sChIJ__9PiBPZ1EARzxUdUDanj4c?authuser=0&hl=tr&rclk=1",
    "website_url": "",
    "rating_text": "5,0",
    "stars": null,
    "number_of_reviews": null,
    "price_level": "",
    "open_hours": "",
    "extraction_timestamp": "2025-06-08T03:38:34.636Z",
    "source_name": "google",
    "source_query": "Irrigation Equipment",
    "source_country": "UA",
    "country": "Ukraine",
    "state": "Kyivska oblast",
    "city": "Brovary"
  },
  {
    "source_id": "ChIJO-zRIZDZ1EARfOlceR4qqO8",
    "name": "Povirkatepla",
    "category": "Povirkatepla",
    "formatted_address": "4,2(16)",
    "phone_number": "+380733708442",
    "source_url": "https://www.google.com/maps/place/Povirkatepla/data=!4m7!3m6!1s0x40d4d99021d1ec3b:0xefa82a1e795ce97c!8m2!3d50.4984948!4d30.7663049!16s%2Fg%2F11fjzbrbbc!19sChIJO-zRIZDZ1EARfOlceR4qqO8?authuser=0&hl=tr&rclk=1",
    "website_url": "https://poverkatepla.com.ua/",
    "rating_text": "4,2",
    "stars": null,
    "number_of_reviews": null,
    "price_level": "",
    "open_hours": "",
    "extraction_timestamp": "2025-06-08T03:38:34.637Z",
    "source_name": "google",
    "source_query": "Irrigation Equipment",
    "source_country": "UA",
    "country": "Ukraine",
    "state": "Kyivska oblast",
    "city": "Brovary"
  },
  {
    "source_id": "ChIJv1JElJDZ1EARUKtN4INThhU",
    "name": "Doyilʹni Aparaty",
    "category": "Doyilʹni Aparaty",
    "formatted_address": "5,0(1)",
    "phone_number": "+380984541219",
    "source_url": "https://www.google.com/maps/place/Doyil%CA%B9ni+Aparaty/data=!4m7!3m6!1s0x40d4d990944452bf:0x15865383e04dab50!8m2!3d50.5116253!4d30.7886245!16s%2Fg%2F11w9xsd1hf!19sChIJv1JElJDZ1EARUKtN4INThhU?authuser=0&hl=tr&rclk=1",
    "website_url": "https://tech-area.com.ua/",
    "rating_text": "5,0",
    "stars": null,
    "number_of_reviews": null,
    "price_level": "",
    "open_hours": "",
    "extraction_timestamp": "2025-06-08T03:38:34.638Z",
    "source_name": "google",
    "source_query": "Irrigation Equipment",
    "source_country": "UA",
    "country": "Ukraine",
    "state": "Kyivska oblast",
    "city": "Brovary"
  },
  {
    "source_id": "ChIJtbASRQfZ1EARKo1raMvPbac",
    "name": "Прочистка каналізації , Телеінспекція труб, Зварювальні роботи",
    "category": "Прочистка каналізації , Телеінспекція труб, Зварювальні роботи",
    "formatted_address": "Прочистка каналізації , Телеінспекція труб, Зварювальні роботи",
    "phone_number": "+380997368617",
    "source_url": "https://www.google.com/maps/place/%D0%9F%D1%80%D0%BE%D1%87%D0%B8%D1%81%D1%82%D0%BA%D0%B0+%D0%BA%D0%B0%D0%BD%D0%B0%D0%BB%D1%96%D0%B7%D0%B0%D1%86%D1%96%D1%97+,+%D0%A2%D0%B5%D0%BB%D0%B5%D1%96%D0%BD%D1%81%D0%BF%D0%B5%D0%BA%D1%86%D1%96%D1%8F+%D1%82%D1%80%D1%83%D0%B1,+%D0%97%D0%B2%D0%B0%D1%80%D1%8E%D0%B2%D0%B0%D0%BB%D1%8C%D0%BD%D1%96+%D1%80%D0%BE%D0%B1%D0%BE%D1%82%D0%B8/data=!4m7!3m6!1s0x40d4d9074512b0b5:0xa76dcfcb686b8d2a!8m2!3d50.5253541!4d30.7905953!16s%2Fg%2F11h1j3ygp5!19sChIJtbASRQfZ1EARKo1raMvPbac?authuser=0&hl=tr&rclk=1",
    "website_url": "https://alligator.in.ua/",
    "rating_text": "5,0",
    "stars": null,
    "number_of_reviews": null,
    "price_level": "",
    "open_hours": "",
    "extraction_timestamp": "2025-06-08T03:38:34.639Z",
    "source_name": "google",
    "source_query": "Irrigation Equipment",
    "source_country": "UA",
    "country": "Ukraine",
    "state": "Kyivska oblast",
    "city": "Brovary"
  },
  {
    "source_id": "ChIJjXlTeDnZ1EARo6LK7o1sOL8",
    "name": "Магазин сантехники и отопления - Бровары",
    "category": "Магазин сантехники и отопления - Бровары",
    "formatted_address": "4,0(8)",
    "phone_number": "+380968883859",
    "source_url": "https://www.google.com/maps/place/%D0%9C%D0%B0%D0%B3%D0%B0%D0%B7%D0%B8%D0%BD+%D1%81%D0%B0%D0%BD%D1%82%D0%B5%D1%85%D0%BD%D0%B8%D0%BA%D0%B8+%D0%B8+%D0%BE%D1%82%D0%BE%D0%BF%D0%BB%D0%B5%D0%BD%D0%B8%D1%8F+-+%D0%91%D1%80%D0%BE%D0%B2%D0%B0%D1%80%D1%8B/data=!4m7!3m6!1s0x40d4d9397853798d:0xbf386c8deecaa2a3!8m2!3d50.5175128!4d30.8312232!16s%2Fg%2F11bymt_bls!19sChIJjXlTeDnZ1EARo6LK7o1sOL8?authuser=0&hl=tr&rclk=1",
    "website_url": "http://bestkotel.com.ua/",
    "rating_text": "4,0",
    "stars": null,
    "number_of_reviews": null,
    "price_level": "",
    "open_hours": "",
    "extraction_timestamp": "2025-06-08T03:38:34.640Z",
    "source_name": "google",
    "source_query": "Irrigation Equipment",
    "source_country": "UA",
    "country": "Ukraine",
    "state": "Kyivska oblast",
    "city": "Brovary"
  },
  {
    "source_id": "ChIJpSabUaTZ1EARl4vCgjDaOXo",
    "name": "Агромат, плитка та сантехніка",
    "category": "Агромат, плитка та сантехніка",
    "formatted_address": "Агромат, плитка та сантехніка",
    "phone_number": "+380800303019",
    "source_url": "https://www.google.com/maps/place/%D0%90%D0%B3%D1%80%D0%BE%D0%BC%D0%B0%D1%82,+%D0%BF%D0%BB%D0%B8%D1%82%D0%BA%D0%B0+%D1%82%D0%B0+%D1%81%D0%B0%D0%BD%D1%82%D0%B5%D1%85%D0%BD%D1%96%D0%BA%D0%B0/data=!4m7!3m6!1s0x40d4d9a4519b26a5:0x7a39da3082c28b97!8m2!3d50.5120086!4d30.7824325!16s%2Fg%2F11pkxb7cpx!19sChIJpSabUaTZ1EARl4vCgjDaOXo?authuser=0&hl=tr&rclk=1",
    "website_url": "https://agromat.ua/",
    "rating_text": "4,5",
    "stars": null,
    "number_of_reviews": null,
    "price_level": "",
    "open_hours": "",
    "extraction_timestamp": "2025-06-08T03:38:34.641Z",
    "source_name": "google",
    "source_query": "Irrigation Equipment",
    "source_country": "UA",
    "country": "Ukraine",
    "state": "Kyivska oblast",
    "city": "Brovary"
  },
  {
    "source_id": "ChIJU3X8FU_Z1EARSwAeAdGqvDY",
    "name": "Atols",
    "category": "Atols",
    "formatted_address": "4,5(43)",
    "phone_number": "+380632374147",
    "source_url": "https://www.google.com/maps/place/Atols/data=!4m7!3m6!1s0x40d4d94f15fc7553:0x36bcaad1011e004b!8m2!3d50.5071738!4d30.8250045!16s%2Fg%2F1tkbwrfd!19sChIJU3X8FU_Z1EARSwAeAdGqvDY?authuser=0&hl=tr&rclk=1",
    "website_url": "https://www.facebook.com/atols.atols.58/",
    "rating_text": "4,5",
    "stars": null,
    "number_of_reviews": null,
    "price_level": "",
    "open_hours": "",
    "extraction_timestamp": "2025-06-08T03:38:34.642Z",
    "source_name": "google",
    "source_query": "Irrigation Equipment",
    "source_country": "UA",
    "country": "Ukraine",
    "state": "Kyivska oblast",
    "city": "Brovary"
  },
  {
    "source_id": "ChIJu7u0GMDZ1EAR9n4fKsND62M",
    "name": "Здорова вода",
    "category": "Здорова вода",
    "formatted_address": "5,0(6)",
    "phone_number": "+380504435420",
    "source_url": "https://www.google.com/maps/place/%D0%97%D0%B4%D0%BE%D1%80%D0%BE%D0%B2%D0%B0+%D0%B2%D0%BE%D0%B4%D0%B0/data=!4m7!3m6!1s0x40d4d9c018b4bbbb:0x63eb43c32a1f7ef6!8m2!3d50.5126343!4d30.7892138!16s%2Fg%2F11hz7g8sps!19sChIJu7u0GMDZ1EAR9n4fKsND62M?authuser=0&hl=tr&rclk=1",
    "website_url": "",
    "rating_text": "5,0",
    "stars": null,
    "number_of_reviews": null,
    "price_level": "",
    "open_hours": "",
    "extraction_timestamp": "2025-06-08T03:38:34.643Z",
    "source_name": "google",
    "source_query": "Irrigation Equipment",
    "source_country": "UA",
    "country": "Ukraine",
    "state": "Kyivska oblast",
    "city": "Brovary"
  },
  {
    "source_id": "ChIJ3wWMok3P1EARO4_m8mNQfko",
    "name": "Akvamontazhstroy",
    "category": "Akvamontazhstroy",
    "formatted_address": "3,7(3)",
    "phone_number": "+380963404040",
    "source_url": "https://www.google.com/maps/place/Akvamontazhstroy/data=!4m7!3m6!1s0x40d4cf4da28c05df:0x4a7e5063f2e68f3b!8m2!3d50.5313045!4d30.8046662!16s%2Fg%2F1ptzc_4kf!19sChIJ3wWMok3P1EARO4_m8mNQfko?authuser=0&hl=tr&rclk=1",
    "website_url": "http://bassein-ozero.com.ua/",
    "rating_text": "3,7",
    "stars": null,
    "number_of_reviews": null,
    "price_level": "",
    "open_hours": "",
    "extraction_timestamp": "2025-06-08T03:38:34.643Z",
    "source_name": "google",
    "source_query": "Irrigation Equipment",
    "source_country": "UA",
    "country": "Ukraine",
    "state": "Kyivska oblast",
    "city": "Brovary"
  },
  {
    "source_id": "ChIJ60XEpQbQ1EARVLf9IomIVYg",
    "name": "Poliv UA",
    "category": "Poliv UA",
    "formatted_address": "4,8(64)",
    "phone_number": "+380443379900",
    "source_url": "https://www.google.com/maps/place/Poliv+UA/data=!4m7!3m6!1s0x40d4d006a5c445eb:0x8855888922fdb754!8m2!3d50.4646434!4d30.6255633!16s%2Fg%2F11clsyjy7n!19sChIJ60XEpQbQ1EARVLf9IomIVYg?authuser=0&hl=tr&rclk=1",
    "website_url": "https://poliv.ua/",
    "rating_text": "4,8",
    "stars": null,
    "number_of_reviews": null,
    "price_level": "",
    "open_hours": "",
    "extraction_timestamp": "2025-06-08T03:38:34.644Z",
    "source_name": "google",
    "source_query": "Irrigation Equipment",
    "source_country": "UA",
    "country": "Ukraine",
    "state": "Kyivska oblast",
    "city": "Brovary"
  },
  {
    "source_id": "ChIJmy6r6Q_Z1EARXlyshfJ3xhc",
    "name": "Віта-Екс \"ActivePure UA\"",
    "category": "Віта-Екс \"ActivePure UA\"",
    "formatted_address": "4,0(1)",
    "phone_number": "+380683052548",
    "source_url": "https://www.google.com/maps/place/%D0%92%D1%96%D1%82%D0%B0-%D0%95%D0%BA%D1%81+%22ActivePure+UA%22/data=!4m7!3m6!1s0x40d4d90fe9ab2e9b:0x17c677f285ac5c5e!8m2!3d50.5204638!4d30.8068586!16s%2Fg%2F11h1g3t3zb!19sChIJmy6r6Q_Z1EARXlyshfJ3xhc?authuser=0&hl=tr&rclk=1",
    "website_url": "",
    "rating_text": "4,0",
    "stars": null,
    "number_of_reviews": null,
    "price_level": "",
    "open_hours": "",
    "extraction_timestamp": "2025-06-08T03:38:34.645Z",
    "source_name": "google",
    "source_query": "Irrigation Equipment",
    "source_country": "UA",
    "country": "Ukraine",
    "state": "Kyivska oblast",
    "city": "Brovary"
  },
  {
    "source_id": "ChIJB-XDN4TZ1EARAi3N8EzVXSo",
    "name": "Здорова вода/ Вода на розлив",
    "category": "Здорова вода/ Вода на розлив",
    "formatted_address": "4,7(3)",
    "phone_number": "+380933896508",
    "source_url": "https://www.google.com/maps/place/%D0%97%D0%B4%D0%BE%D1%80%D0%BE%D0%B2%D0%B0+%D0%B2%D0%BE%D0%B4%D0%B0%2F+%D0%92%D0%BE%D0%B4%D0%B0+%D0%BD%D0%B0+%D1%80%D0%BE%D0%B7%D0%BB%D0%B8%D0%B2/data=!4m7!3m6!1s0x40d4d98437c3e507:0x2a5dd54cf0cd2d02!8m2!3d50.5043943!4d30.7857392!16s%2Fg%2F11s1936r66!19sChIJB-XDN4TZ1EARAi3N8EzVXSo?authuser=0&hl=tr&rclk=1",
    "website_url": "",
    "rating_text": "4,7",
    "stars": null,
    "number_of_reviews": null,
    "price_level": "",
    "open_hours": "",
    "extraction_timestamp": "2025-06-08T03:38:34.646Z",
    "source_name": "google",
    "source_query": "Irrigation Equipment",
    "source_country": "UA",
    "country": "Ukraine",
    "state": "Kyivska oblast",
    "city": "Brovary"
  },
  {
    "source_id": "ChIJxc5Vc-LZ1EARD76oyxa9f3Q",
    "name": "Склад-Магазин Білояр Бровари Торгмаш",
    "category": "Склад-Магазин Білояр Бровари Торгмаш",
    "formatted_address": "4,8(9)",
    "phone_number": "+380684584545",
    "source_url": "https://www.google.com/maps/place/%D0%A1%D0%BA%D0%BB%D0%B0%D0%B4-%D0%9C%D0%B0%D0%B3%D0%B0%D0%B7%D0%B8%D0%BD+%D0%91%D1%96%D0%BB%D0%BE%D1%8F%D1%80+%D0%91%D1%80%D0%BE%D0%B2%D0%B0%D1%80%D0%B8+%D0%A2%D0%BE%D1%80%D0%B3%D0%BC%D0%B0%D1%88/data=!4m7!3m6!1s0x40d4d9e27355cec5:0x747fbd16cba8be0f!8m2!3d50.5058672!4d30.8244893!16s%2Fg%2F11fmvk0zgj!19sChIJxc5Vc-LZ1EARD76oyxa9f3Q?authuser=0&hl=tr&rclk=1",
    "website_url": "",
    "rating_text": "4,8",
    "stars": null,
    "number_of_reviews": null,
    "price_level": "",
    "open_hours": "",
    "extraction_timestamp": "2025-06-08T03:38:34.647Z",
    "source_name": "google",
    "source_query": "Irrigation Equipment",
    "source_country": "UA",
    "country": "Ukraine",
    "state": "Kyivska oblast",
    "city": "Brovary"
  },
  {
    "source_id": "ChIJUwMUJGrZ1EARBwNZmZkX2Ts",
    "name": "BWT Aqua. Автомат питної води № 620",
    "category": "BWT Aqua. Автомат питної води № 620",
    "formatted_address": "3,0(1)",
    "phone_number": "+380672641122",
    "source_url": "https://www.google.com/maps/place/BWT+Aqua.+%D0%90%D0%B2%D1%82%D0%BE%D0%BC%D0%B0%D1%82+%D0%BF%D0%B8%D1%82%D0%BD%D0%BE%D1%97+%D0%B2%D0%BE%D0%B4%D0%B8+%E2%84%96+620/data=!4m7!3m6!1s0x40d4d96a24140353:0x3bd9179999590307!8m2!3d50.522704!4d30.790949!16s%2Fg%2F11rsrpt8nt!19sChIJUwMUJGrZ1EARBwNZmZkX2Ts?authuser=0&hl=tr&rclk=1",
    "website_url": "https://bwtaqua.com.ua/",
    "rating_text": "3,0",
    "stars": null,
    "number_of_reviews": null,
    "price_level": "",
    "open_hours": "",
    "extraction_timestamp": "2025-06-08T03:38:34.648Z",
    "source_name": "google",
    "source_query": "Irrigation Equipment",
    "source_country": "UA",
    "country": "Ukraine",
    "state": "Kyivska oblast",
    "city": "Brovary"
  },
  {
    "source_id": "ChIJ5VxJHhXZ1EAR7OAwr9eQjBw",
    "name": "BWT Aqua. Автомат питної води № 325",
    "category": "BWT Aqua. Автомат питної води № 325",
    "formatted_address": "3,0(1)",
    "phone_number": "+380672641122",
    "source_url": "https://www.google.com/maps/place/BWT+Aqua.+%D0%90%D0%B2%D1%82%D0%BE%D0%BC%D0%B0%D1%82+%D0%BF%D0%B8%D1%82%D0%BD%D0%BE%D1%97+%D0%B2%D0%BE%D0%B4%D0%B8+%E2%84%96+325/data=!4m7!3m6!1s0x40d4d9151e495ce5:0x1c8c90d7af30e0ec!8m2!3d50.506627!4d30.779609!16s%2Fg%2F11rsrp9rg8!19sChIJ5VxJHhXZ1EAR7OAwr9eQjBw?authuser=0&hl=tr&rclk=1",
    "website_url": "https://bwtaqua.com.ua/",
    "rating_text": "3,0",
    "stars": null,
    "number_of_reviews": null,
    "price_level": "",
    "open_hours": "",
    "extraction_timestamp": "2025-06-08T03:38:34.649Z",
    "source_name": "google",
    "source_query": "Irrigation Equipment",
    "source_country": "UA",
    "country": "Ukraine",
    "state": "Kyivska oblast",
    "city": "Brovary"
  },
  {
    "source_id": "ChIJ27iPpGzZ1EARsTDSErD5kwU",
    "name": "Patok",
    "category": "Patok",
    "formatted_address": "4,6(123)",
    "phone_number": "+380973678080",
    "source_url": "https://www.google.com/maps/place/Patok/data=!4m7!3m6!1s0x40d4d96ca48fb8db:0x593f9b012d230b1!8m2!3d50.5240154!4d30.7850199!16s%2Fg%2F11cm74nm1j!19sChIJ27iPpGzZ1EARsTDSErD5kwU?authuser=0&hl=tr&rclk=1",
    "website_url": "https://patok.com.ua/ua/",
    "rating_text": "4,6",
    "stars": null,
    "number_of_reviews": null,
    "price_level": "",
    "open_hours": "",
    "extraction_timestamp": "2025-06-08T03:38:34.650Z",
    "source_name": "google",
    "source_query": "Irrigation Equipment",
    "source_country": "UA",
    "country": "Ukraine",
    "state": "Kyivska oblast",
    "city": "Brovary"
  },
  {
    "source_id": "ChIJBbG_w3HZ1EARMUq7gx253Hs",
    "name": "21Stolittya - Suchasne Budivnytstvo",
    "category": "21Stolittya - Suchasne Budivnytstvo",
    "formatted_address": "21Stolittya - Suchasne Budivnytstvo",
    "phone_number": "+380683848837",
    "source_url": "https://www.google.com/maps/place/21Stolittya+-+Suchasne+Budivnytstvo/data=!4m7!3m6!1s0x40d4d971c3bfb105:0x7bdcb91d83bb4a31!8m2!3d50.3665665!4d30.713577!16s%2Fg%2F11hzpc24ld!19sChIJBbG_w3HZ1EARMUq7gx253Hs?authuser=0&hl=tr&rclk=1",
    "website_url": "",
    "rating_text": "3,0",
    "stars": null,
    "number_of_reviews": null,
    "price_level": "",
    "open_hours": "",
    "extraction_timestamp": "2025-06-08T03:38:34.651Z",
    "source_name": "google",
    "source_query": "Irrigation Equipment",
    "source_country": "UA",
    "country": "Ukraine",
    "state": "Kyivska oblast",
    "city": "Brovary"
  },
  {
    "source_id": "ChIJQWuAYnrZ1EARUIW4iDr4hu0",
    "name": "ПРОФИТ ЦЕНТР",
    "category": "ПРОФИТ ЦЕНТР",
    "formatted_address": "Su Yumuşatma Ekipmanları Tedarikçisi · Heroiv Ukrainy St, 10Kapalı ⋅ Açılış zamanı: Pzt 09:00 · +380 67 401 3680",
    "phone_number": "+380674013680",
    "source_url": "https://www.google.com/maps/place/%D0%9F%D0%A0%D0%9E%D0%A4%D0%98%D0%A2+%D0%A6%D0%95%D0%9D%D0%A2%D0%A0/data=!4m7!3m6!1s0x40d4d97a62806b41:0xed86f83a88b88550!8m2!3d50.5128732!4d30.7868703!16s%2Fg%2F1v2kvzgt!19sChIJQWuAYnrZ1EARUIW4iDr4hu0?authuser=0&hl=tr&rclk=1",
    "website_url": "",
    "rating_text": "",
    "stars": null,
    "number_of_reviews": null,
    "price_level": "",
    "open_hours": "",
    "extraction_timestamp": "2025-06-08T03:38:34.652Z",
    "source_name": "google",
    "source_query": "Irrigation Equipment",
    "source_country": "UA",
    "country": "Ukraine",
    "state": "Kyivska oblast",
    "city": "Brovary"
  },
  {
    "source_id": "ChIJVxiwAmLZ1EARe3UnOtGK8bQ",
    "name": "Heat-Cool",
    "category": "Heat-Cool",
    "formatted_address": "5,0(64)",
    "phone_number": "+380996004618",
    "source_url": "https://www.google.com/maps/place/Heat-Cool/data=!4m7!3m6!1s0x40d4d96202b01857:0xb4f18ad13a27757b!8m2!3d50.5021183!4d30.7889243!16s%2Fg%2F11c5zx1k_q!19sChIJVxiwAmLZ1EARe3UnOtGK8bQ?authuser=0&hl=tr&rclk=1",
    "website_url": "http://heat-cool.com.ua/",
    "rating_text": "5,0",
    "stars": null,
    "number_of_reviews": null,
    "price_level": "",
    "open_hours": "",
    "extraction_timestamp": "2025-06-08T03:38:34.653Z",
    "source_name": "google",
    "source_query": "Irrigation Equipment",
    "source_country": "UA",
    "country": "Ukraine",
    "state": "Kyivska oblast",
    "city": "Brovary"
  },
  {
    "source_id": "ChIJQ9ZRRL7Z1EARKfXztR1dpsE",
    "name": "Скайхім",
    "category": "Скайхім",
    "formatted_address": "5,0(6)",
    "phone_number": "+380632374141",
    "source_url": "https://www.google.com/maps/place/%D0%A1%D0%BA%D0%B0%D0%B9%D1%85%D1%96%D0%BC/data=!4m7!3m6!1s0x40d4d9be4451d643:0xc1a65d1db5f3f529!8m2!3d50.5126652!4d30.8122625!16s%2Fg%2F11jgt16jh3!19sChIJQ9ZRRL7Z1EARKfXztR1dpsE?authuser=0&hl=tr&rclk=1",
    "website_url": "http://skyhim.com.ua/",
    "rating_text": "5,0",
    "stars": null,
    "number_of_reviews": null,
    "price_level": "",
    "open_hours": "",
    "extraction_timestamp": "2025-06-08T03:38:34.654Z",
    "source_name": "google",
    "source_query": "Irrigation Equipment",
    "source_country": "UA",
    "country": "Ukraine",
    "state": "Kyivska oblast",
    "city": "Brovary"
  },
  {
    "source_id": "ChIJM6VAOVjI1EARInyqFZ8ENUU",
    "name": "Hazon Mayster",
    "category": "Hazon Mayster",
    "formatted_address": "5,0(13)",
    "phone_number": "+380503588967",
    "source_url": "https://www.google.com/maps/place/Hazon+Mayster/data=!4m7!3m6!1s0x40d4c8583940a533:0x4535049f15aa7c22!8m2!3d50.3744949!4d30.4632499!16s%2Fg%2F1hhwqhx1t!19sChIJM6VAOVjI1EARInyqFZ8ENUU?authuser=0&hl=tr&rclk=1",
    "website_url": "https://gazon-master.com.ua/uk/",
    "rating_text": "5,0",
    "stars": null,
    "number_of_reviews": null,
    "price_level": "",
    "open_hours": "",
    "extraction_timestamp": "2025-06-08T03:38:34.654Z",
    "source_name": "google",
    "source_query": "Irrigation Equipment",
    "source_country": "UA",
    "country": "Ukraine",
    "state": "Kyivska oblast",
    "city": "Brovary"
  },
  {
    "source_id": "ChIJ6VMz4O3Z1EARLCg6TfenT3A",
    "name": "ROZETKA",
    "category": "ROZETKA",
    "formatted_address": "4,9(22)",
    "phone_number": "",
    "source_url": "https://www.google.com/maps/place/ROZETKA/data=!4m7!3m6!1s0x40d4d9ede03353e9:0x704fa7f74d3a282c!8m2!3d50.5124426!4d30.793795!16s%2Fg%2F11wmsc4ql9!19sChIJ6VMz4O3Z1EARLCg6TfenT3A?authuser=0&hl=tr&rclk=1",
    "website_url": "https://rozetka.com.ua/ua/",
    "rating_text": "4,9",
    "stars": null,
    "number_of_reviews": null,
    "price_level": "",
    "open_hours": "",
    "extraction_timestamp": "2025-06-08T03:38:34.655Z",
    "source_name": "google",
    "source_query": "Irrigation Equipment",
    "source_country": "UA",
    "country": "Ukraine",
    "state": "Kyivska oblast",
    "city": "Brovary"
  },
  {
    "source_id": "ChIJoS5vxm_Z1EARYrKT3Uv7W8w",
    "name": "BOILER-HOUSE (Ремонт, Чистка, Установка Бойлера в Броварах)",
    "category": "BOILER-HOUSE (Ремонт, Чистка, Установка Бойлера в Броварах)",
    "formatted_address": "BOILER-HOUSE (Ремонт, Чистка, Установка Бойлера в Броварах)",
    "phone_number": "+380679001427",
    "source_url": "https://www.google.com/maps/place/BOILER-HOUSE+%28%D0%A0%D0%B5%D0%BC%D0%BE%D0%BD%D1%82,+%D0%A7%D0%B8%D1%81%D1%82%D0%BA%D0%B0,+%D0%A3%D1%81%D1%82%D0%B0%D0%BD%D0%BE%D0%B2%D0%BA%D0%B0+%D0%91%D0%BE%D0%B9%D0%BB%D0%B5%D1%80%D0%B0+%D0%B2+%D0%91%D1%80%D0%BE%D0%B2%D0%B0%D1%80%D0%B0%D1%85%29/data=!4m7!3m6!1s0x40d4d96fc66f2ea1:0xcc5bfb4bdd93b262!8m2!3d50.5133976!4d30.7958517!16s%2Fg%2F11f08bt05x!19sChIJoS5vxm_Z1EARYrKT3Uv7W8w?authuser=0&hl=tr&rclk=1",
    "website_url": "",
    "rating_text": "4,4",
    "stars": null,
    "number_of_reviews": null,
    "price_level": "",
    "open_hours": "",
    "extraction_timestamp": "2025-06-08T03:38:34.656Z",
    "source_name": "google",
    "source_query": "Irrigation Equipment",
    "source_country": "UA",
    "country": "Ukraine",
    "state": "Kyivska oblast",
    "city": "Brovary"
  },
  {
    "source_id": "ChIJp1FPLGPZ1EARnELGuVa-88s",
    "name": "BWT Aqua. Автомат питної води № 709",
    "category": "BWT Aqua. Автомат питної води № 709",
    "formatted_address": "Su Arıtma Şirketi · Fora, Nezalezhnosti Blvd, 724 saat açık · +380 67 264 1122",
    "phone_number": "+380672641122",
    "source_url": "https://www.google.com/maps/place/BWT+Aqua.+%D0%90%D0%B2%D1%82%D0%BE%D0%BC%D0%B0%D1%82+%D0%BF%D0%B8%D1%82%D0%BD%D0%BE%D1%97+%D0%B2%D0%BE%D0%B4%D0%B8+%E2%84%96+709/data=!4m7!3m6!1s0x40d4d9632c4f51a7:0xcbf3be56b9c6429c!8m2!3d50.514999!4d30.795949!16s%2Fg%2F11rsrq8cbz!19sChIJp1FPLGPZ1EARnELGuVa-88s?authuser=0&hl=tr&rclk=1",
    "website_url": "https://bwtaqua.com.ua/",
    "rating_text": "",
    "stars": null,
    "number_of_reviews": null,
    "price_level": "",
    "open_hours": "",
    "extraction_timestamp": "2025-06-08T03:38:34.657Z",
    "source_name": "google",
    "source_query": "Irrigation Equipment",
    "source_country": "UA",
    "country": "Ukraine",
    "state": "Kyivska oblast",
    "city": "Brovary"
  },
  {
    "source_id": "ChIJiWgZtIrD1EARErWtm6ne4SI",
    "name": "Укрспецарматура - Трубопровідна арматура",
    "category": "Укрспецарматура - Трубопровідна арматура",
    "formatted_address": "4,9(51)",
    "phone_number": "+380674731991",
    "source_url": "https://www.google.com/maps/place/%D0%A3%D0%BA%D1%80%D1%81%D0%BF%D0%B5%D1%86%D0%B0%D1%80%D0%BC%D0%B0%D1%82%D1%83%D1%80%D0%B0+-+%D0%A2%D1%80%D1%83%D0%B1%D0%BE%D0%BF%D1%80%D0%BE%D0%B2%D1%96%D0%B4%D0%BD%D0%B0+%D0%B0%D1%80%D0%BC%D0%B0%D1%82%D1%83%D1%80%D0%B0/data=!4m7!3m6!1s0x40d4c38ab4196889:0x22e1dea99badb512!8m2!3d50.3674604!4d30.6780966!16s%2Fg%2F11q1dh1x_2!19sChIJiWgZtIrD1EARErWtm6ne4SI?authuser=0&hl=tr&rclk=1",
    "website_url": "https://usarmatura.com.ua/",
    "rating_text": "4,9",
    "stars": null,
    "number_of_reviews": null,
    "price_level": "",
    "open_hours": "",
    "extraction_timestamp": "2025-06-08T03:38:34.658Z",
    "source_name": "google",
    "source_query": "Irrigation Equipment",
    "source_country": "UA",
    "country": "Ukraine",
    "state": "Kyivska oblast",
    "city": "Brovary"
  },
  {
    "source_id": "ChIJf5EQNhHP1EARyFIa0TSoUMU",
    "name": "ТОВ \"Стрім-Енерджі Компані\"",
    "category": "ТОВ \"Стрім-Енерджі Компані\"",
    "formatted_address": "5,0(4)",
    "phone_number": "+380509855819",
    "source_url": "https://www.google.com/maps/place/%D0%A2%D0%9E%D0%92+%22%D0%A1%D1%82%D1%80%D1%96%D0%BC-%D0%95%D0%BD%D0%B5%D1%80%D0%B4%D0%B6%D1%96+%D0%9A%D0%BE%D0%BC%D0%BF%D0%B0%D0%BD%D1%96%22/data=!4m7!3m6!1s0x40d4cf113610917f:0xc550a834d11a52c8!8m2!3d50.4520424!4d30.6416021!16s%2Fg%2F11gwp6m4rt!19sChIJf5EQNhHP1EARyFIa0TSoUMU?authuser=0&hl=tr&rclk=1",
    "website_url": "https://st-energy.com.ua/",
    "rating_text": "5,0",
    "stars": null,
    "number_of_reviews": null,
    "price_level": "",
    "open_hours": "",
    "extraction_timestamp": "2025-06-08T03:38:34.658Z",
    "source_name": "google",
    "source_query": "Irrigation Equipment",
    "source_country": "UA",
    "country": "Ukraine",
    "state": "Kyivska oblast",
    "city": "Brovary"
  },
  {
    "source_id": "ChIJ28pxzN7Z1EAR-10zbTlscAk",
    "name": "Rynok,, Hospodar''",
    "category": "Rynok,, Hospodar''",
    "formatted_address": "Rynok,, Hospodar''",
    "phone_number": "+380677737779",
    "source_url": "https://www.google.com/maps/place/Rynok,,+Hospodar%27%27/data=!4m7!3m6!1s0x40d4d9decc71cadb:0x9706c396d335dfb!8m2!3d50.5107484!4d30.7889555!16s%2Fg%2F11ffm1qhd2!19sChIJ28pxzN7Z1EAR-10zbTlscAk?authuser=0&hl=tr&rclk=1",
    "website_url": "",
    "rating_text": "4,0",
    "stars": null,
    "number_of_reviews": null,
    "price_level": "",
    "open_hours": "",
    "extraction_timestamp": "2025-06-08T03:38:34.659Z",
    "source_name": "google",
    "source_query": "Irrigation Equipment",
    "source_country": "UA",
    "country": "Ukraine",
    "state": "Kyivska oblast",
    "city": "Brovary"
  },
  {
    "source_id": "ChIJq1OAQEXF1EARIAyoFByGrW4",
    "name": "Ahrarna Industrialʹna Kompaniya",
    "category": "Ahrarna Industrialʹna Kompaniya",
    "formatted_address": "4,8(12)",
    "phone_number": "+380504444184",
    "source_url": "https://www.google.com/maps/place/Ahrarna+Industrial%CA%B9na+Kompaniya/data=!4m7!3m6!1s0x40d4c545408053ab:0x6ead861c14a80c20!8m2!3d50.4090678!4d30.6121652!16s%2Fg%2F1tdk3pn4!19sChIJq1OAQEXF1EARIAyoFByGrW4?authuser=0&hl=tr&rclk=1",
    "website_url": "https://aico.ua/",
    "rating_text": "4,8",
    "stars": null,
    "number_of_reviews": null,
    "price_level": "",
    "open_hours": "",
    "extraction_timestamp": "2025-06-08T03:38:34.660Z",
    "source_name": "google",
    "source_query": "Irrigation Equipment",
    "source_country": "UA",
    "country": "Ukraine",
    "state": "Kyivska oblast",
    "city": "Brovary"
  },
  {
    "source_id": "ChIJ48iqnOfZ1EAR6czJl9rNHF8",
    "name": "Sadovyy Tsentr \"Brovasad\"",
    "category": "Sadovyy Tsentr \"Brovasad\"",
    "formatted_address": "3,4(5)",
    "phone_number": "+380976882761",
    "source_url": "https://www.google.com/maps/place/Sadovyy+Tsentr+%22Brovasad%22/data=!4m7!3m6!1s0x40d4d9e79caac8e3:0x5f1ccdda97c9cce9!8m2!3d50.5165777!4d30.8108425!16s%2Fg%2F11g4h_tqzm!19sChIJ48iqnOfZ1EAR6czJl9rNHF8?authuser=0&hl=tr&rclk=1",
    "website_url": "https://brovasad.com.ua/",
    "rating_text": "3,4",
    "stars": null,
    "number_of_reviews": null,
    "price_level": "",
    "open_hours": "",
    "extraction_timestamp": "2025-06-08T03:38:34.661Z",
    "source_name": "google",
    "source_query": "Irrigation Equipment",
    "source_country": "UA",
    "country": "Ukraine",
    "state": "Kyivska oblast",
    "city": "Brovary"
  },
  {
    "source_id": "ChIJj9B1EqHP1EARDZgdszuCvLs",
    "name": "Системы полива",
    "category": "Системы полива",
    "formatted_address": "Sulama Ekipmanları Tedarikçisi · Lavrska St, 7а / 19Kapalı ⋅ Açılış zamanı: Pzt 09:00 · +380 99 343 8777",
    "phone_number": "+380993438777",
    "source_url": "https://www.google.com/maps/place/%D0%A1%D0%B8%D1%81%D1%82%D0%B5%D0%BC%D1%8B+%D0%BF%D0%BE%D0%BB%D0%B8%D0%B2%D0%B0/data=!4m7!3m6!1s0x40d4cfa11275d08f:0xbbbc823bb31d980d!8m2!3d50.4368044!4d30.5554264!16s%2Fg%2F11qh89rj21!19sChIJj9B1EqHP1EARDZgdszuCvLs?authuser=0&hl=tr&rclk=1",
    "website_url": "http://syspoliv.com.ua/",
    "rating_text": "",
    "stars": null,
    "number_of_reviews": null,
    "price_level": "",
    "open_hours": "",
    "extraction_timestamp": "2025-06-08T03:38:34.662Z",
    "source_name": "google",
    "source_query": "Irrigation Equipment",
    "source_country": "UA",
    "country": "Ukraine",
    "state": "Kyivska oblast",
    "city": "Brovary"
  },
  {
    "source_id": "ChIJLSWTE07E1EAR7y2QpmxfDRE",
    "name": "Tov \"Masterhaz\"",
    "category": "Tov \"Masterhaz\"",
    "formatted_address": "4,4(5.607)",
    "phone_number": "+380445852241",
    "source_url": "https://www.google.com/maps/place/Tov+%22Masterhaz%22/data=!4m7!3m6!1s0x40d4c44e1393252d:0x110d5f6ca6902def!8m2!3d50.395227!4d30.641546!16s%2Fg%2F11btxgh2m_!19sChIJLSWTE07E1EAR7y2QpmxfDRE?authuser=0&hl=tr&rclk=1",
    "website_url": "https://mastergaz.com.ua/",
    "rating_text": "4,4",
    "stars": null,
    "number_of_reviews": null,
    "price_level": "",
    "open_hours": "",
    "extraction_timestamp": "2025-06-08T03:38:34.663Z",
    "source_name": "google",
    "source_query": "Irrigation Equipment",
    "source_country": "UA",
    "country": "Ukraine",
    "state": "Kyivska oblast",
    "city": "Brovary"
  },
  {
    "source_id": "ChIJyQuV3QHZ1EARbNSXUhQNlVg",
    "name": "Mahazyn Santekhniky \"Santekhbum\"",
    "category": "Mahazyn Santekhniky \"Santekhbum\"",
    "formatted_address": "5,0(3)",
    "phone_number": "+380975557270",
    "source_url": "https://www.google.com/maps/place/Mahazyn+Santekhniky+%22Santekhbum%22/data=!4m7!3m6!1s0x40d4d901dd950bc9:0x58950d145297d46c!8m2!3d50.5063576!4d30.826525!16s%2Fg%2F11hzx4gjlg!19sChIJyQuV3QHZ1EARbNSXUhQNlVg?authuser=0&hl=tr&rclk=1",
    "website_url": "",
    "rating_text": "5,0",
    "stars": null,
    "number_of_reviews": null,
    "price_level": "",
    "open_hours": "",
    "extraction_timestamp": "2025-06-08T03:38:34.665Z",
    "source_name": "google",
    "source_query": "Irrigation Equipment",
    "source_country": "UA",
    "country": "Ukraine",
    "state": "Kyivska oblast",
    "city": "Brovary"
  },
  {
    "source_id": "ChIJwzU3193F1EARXmYnrV6YZeY",
    "name": "KMV",
    "category": "KMV",
    "formatted_address": "Постачальник обладнання для водопостачання · Solomii Krushel'nyts'koi St, 1324 saat açık · +380 63 253 1420",
    "phone_number": "+380632531420",
    "source_url": "https://www.google.com/maps/place/KMV/data=!4m7!3m6!1s0x40d4c5ddd73735c3:0xe665985ead27665e!8m2!3d50.3913345!4d30.6476648!16s%2Fg%2F11vbjx25mq!19sChIJwzU3193F1EARXmYnrV6YZeY?authuser=0&hl=tr&rclk=1",
    "website_url": "",
    "rating_text": "",
    "stars": null,
    "number_of_reviews": null,
    "price_level": "",
    "open_hours": "",
    "extraction_timestamp": "2025-06-08T03:38:34.665Z",
    "source_name": "google",
    "source_query": "Irrigation Equipment",
    "source_country": "UA",
    "country": "Ukraine",
    "state": "Kyivska oblast",
    "city": "Brovary"
  }
]
