[
  {
    "source_id": "ChIJ__9PiBPZ1EARzxUdUDanj4c",
    "name": "Корпорація фільтрів для води",
    "category": "Корпорація фільтрів для води",
    "formatted_address": "5,0(26)",
    "phone_number": "+380932764441",
    "source_url": "https://www.google.com/maps/place/%D0%9A%D0%BE%D1%80%D0%BF%D0%BE%D1%80%D0%B0%D1%86%D1%96%D1%8F+%D1%84%D1%96%D0%BB%D1%8C%D1%82%D1%80%D1%96%D0%B2+%D0%B4%D0%BB%D1%8F+%D0%B2%D0%BE%D0%B4%D0%B8/data=!4m7!3m6!1s0x40d4d913884fffff:0x878fa736501d15cf!8m2!3d50.5204705!4d30.8151213!16s%2Fg%2F11h84_3zw_!19sChIJ__9PiBPZ1EARzxUdUDanj4c?authuser=0&hl=tr&rclk=1",
    "website_url": "",
    "rating_text": "5,0",
    "stars": null,
    "number_of_reviews": null,
    "price_level": "",
    "open_hours": "",
    "extraction_timestamp": "2025-06-08T03:31:38.867Z",
    "source_name": "google",
    "source_query": "Irrigation Equipment",
    "source_country": "UA",
    "country": "Ukraine",
    "state": "Kyivska oblast",
    "city": "Brovary Raion"
  },
  {
    "source_id": "ChIJv1JElJDZ1EARUKtN4INThhU",
    "name": "Doyilʹni Aparaty",
    "category": "Doyilʹni Aparaty",
    "formatted_address": "5,0(1)",
    "phone_number": "+380984541219",
    "source_url": "https://www.google.com/maps/place/Doyil%CA%B9ni+Aparaty/data=!4m7!3m6!1s0x40d4d990944452bf:0x15865383e04dab50!8m2!3d50.5116253!4d30.7886245!16s%2Fg%2F11w9xsd1hf!19sChIJv1JElJDZ1EARUKtN4INThhU?authuser=0&hl=tr&rclk=1",
    "website_url": "https://tech-area.com.ua/",
    "rating_text": "5,0",
    "stars": null,
    "number_of_reviews": null,
    "price_level": "",
    "open_hours": "",
    "extraction_timestamp": "2025-06-08T03:31:38.868Z",
    "source_name": "google",
    "source_query": "Irrigation Equipment",
    "source_country": "UA",
    "country": "Ukraine",
    "state": "Kyivska oblast",
    "city": "Brovary Raion"
  },
  {
    "source_id": "ChIJO-zRIZDZ1EARfOlceR4qqO8",
    "name": "Povirkatepla",
    "category": "Povirkatepla",
    "formatted_address": "4,2(16)",
    "phone_number": "+380733708442",
    "source_url": "https://www.google.com/maps/place/Povirkatepla/data=!4m7!3m6!1s0x40d4d99021d1ec3b:0xefa82a1e795ce97c!8m2!3d50.4984948!4d30.7663049!16s%2Fg%2F11fjzbrbbc!19sChIJO-zRIZDZ1EARfOlceR4qqO8?authuser=0&hl=tr&rclk=1",
    "website_url": "https://poverkatepla.com.ua/",
    "rating_text": "4,2",
    "stars": null,
    "number_of_reviews": null,
    "price_level": "",
    "open_hours": "",
    "extraction_timestamp": "2025-06-08T03:31:38.868Z",
    "source_name": "google",
    "source_query": "Irrigation Equipment",
    "source_country": "UA",
    "country": "Ukraine",
    "state": "Kyivska oblast",
    "city": "Brovary Raion"
  },
  {
    "source_id": "ChIJtbASRQfZ1EARKo1raMvPbac",
    "name": "Прочистка каналізації , Телеінспекція труб, Зварювальні роботи",
    "category": "Прочистка каналізації , Телеінспекція труб, Зварювальні роботи",
    "formatted_address": "Прочистка каналізації , Телеінспекція труб, Зварювальні роботи",
    "phone_number": "+380997368617",
    "source_url": "https://www.google.com/maps/place/%D0%9F%D1%80%D0%BE%D1%87%D0%B8%D1%81%D1%82%D0%BA%D0%B0+%D0%BA%D0%B0%D0%BD%D0%B0%D0%BB%D1%96%D0%B7%D0%B0%D1%86%D1%96%D1%97+,+%D0%A2%D0%B5%D0%BB%D0%B5%D1%96%D0%BD%D1%81%D0%BF%D0%B5%D0%BA%D1%86%D1%96%D1%8F+%D1%82%D1%80%D1%83%D0%B1,+%D0%97%D0%B2%D0%B0%D1%80%D1%8E%D0%B2%D0%B0%D0%BB%D1%8C%D0%BD%D1%96+%D1%80%D0%BE%D0%B1%D0%BE%D1%82%D0%B8/data=!4m7!3m6!1s0x40d4d9074512b0b5:0xa76dcfcb686b8d2a!8m2!3d50.5253541!4d30.7905953!16s%2Fg%2F11h1j3ygp5!19sChIJtbASRQfZ1EARKo1raMvPbac?authuser=0&hl=tr&rclk=1",
    "website_url": "https://alligator.in.ua/",
    "rating_text": "5,0",
    "stars": null,
    "number_of_reviews": null,
    "price_level": "",
    "open_hours": "",
    "extraction_timestamp": "2025-06-08T03:31:38.870Z",
    "source_name": "google",
    "source_query": "Irrigation Equipment",
    "source_country": "UA",
    "country": "Ukraine",
    "state": "Kyivska oblast",
    "city": "Brovary Raion"
  },
  {
    "source_id": "ChIJjXlTeDnZ1EARo6LK7o1sOL8",
    "name": "Магазин сантехники и отопления - Бровары",
    "category": "Магазин сантехники и отопления - Бровары",
    "formatted_address": "4,0(8)",
    "phone_number": "+380968883859",
    "source_url": "https://www.google.com/maps/place/%D0%9C%D0%B0%D0%B3%D0%B0%D0%B7%D0%B8%D0%BD+%D1%81%D0%B0%D0%BD%D1%82%D0%B5%D1%85%D0%BD%D0%B8%D0%BA%D0%B8+%D0%B8+%D0%BE%D1%82%D0%BE%D0%BF%D0%BB%D0%B5%D0%BD%D0%B8%D1%8F+-+%D0%91%D1%80%D0%BE%D0%B2%D0%B0%D1%80%D1%8B/data=!4m7!3m6!1s0x40d4d9397853798d:0xbf386c8deecaa2a3!8m2!3d50.5175128!4d30.8312232!16s%2Fg%2F11bymt_bls!19sChIJjXlTeDnZ1EARo6LK7o1sOL8?authuser=0&hl=tr&rclk=1",
    "website_url": "http://bestkotel.com.ua/",
    "rating_text": "4,0",
    "stars": null,
    "number_of_reviews": null,
    "price_level": "",
    "open_hours": "",
    "extraction_timestamp": "2025-06-08T03:31:38.870Z",
    "source_name": "google",
    "source_query": "Irrigation Equipment",
    "source_country": "UA",
    "country": "Ukraine",
    "state": "Kyivska oblast",
    "city": "Brovary Raion"
  },
  {
    "source_id": "ChIJpSabUaTZ1EARl4vCgjDaOXo",
    "name": "Агромат, плитка та сантехніка",
    "category": "Агромат, плитка та сантехніка",
    "formatted_address": "Агромат, плитка та сантехніка",
    "phone_number": "+380800303019",
    "source_url": "https://www.google.com/maps/place/%D0%90%D0%B3%D1%80%D0%BE%D0%BC%D0%B0%D1%82,+%D0%BF%D0%BB%D0%B8%D1%82%D0%BA%D0%B0+%D1%82%D0%B0+%D1%81%D0%B0%D0%BD%D1%82%D0%B5%D1%85%D0%BD%D1%96%D0%BA%D0%B0/data=!4m7!3m6!1s0x40d4d9a4519b26a5:0x7a39da3082c28b97!8m2!3d50.5120086!4d30.7824325!16s%2Fg%2F11pkxb7cpx!19sChIJpSabUaTZ1EARl4vCgjDaOXo?authuser=0&hl=tr&rclk=1",
    "website_url": "https://agromat.ua/",
    "rating_text": "4,5",
    "stars": null,
    "number_of_reviews": null,
    "price_level": "",
    "open_hours": "",
    "extraction_timestamp": "2025-06-08T03:31:38.871Z",
    "source_name": "google",
    "source_query": "Irrigation Equipment",
    "source_country": "UA",
    "country": "Ukraine",
    "state": "Kyivska oblast",
    "city": "Brovary Raion"
  },
  {
    "source_id": "ChIJ60XEpQbQ1EARVLf9IomIVYg",
    "name": "Poliv UA",
    "category": "Poliv UA",
    "formatted_address": "4,8(64)",
    "phone_number": "+380443379900",
    "source_url": "https://www.google.com/maps/place/Poliv+UA/data=!4m7!3m6!1s0x40d4d006a5c445eb:0x8855888922fdb754!8m2!3d50.4646434!4d30.6255633!16s%2Fg%2F11clsyjy7n!19sChIJ60XEpQbQ1EARVLf9IomIVYg?authuser=0&hl=tr&rclk=1",
    "website_url": "https://poliv.ua/",
    "rating_text": "4,8",
    "stars": null,
    "number_of_reviews": null,
    "price_level": "",
    "open_hours": "",
    "extraction_timestamp": "2025-06-08T03:31:38.872Z",
    "source_name": "google",
    "source_query": "Irrigation Equipment",
    "source_country": "UA",
    "country": "Ukraine",
    "state": "Kyivska oblast",
    "city": "Brovary Raion"
  },
  {
    "source_id": "ChIJU3X8FU_Z1EARSwAeAdGqvDY",
    "name": "Atols",
    "category": "Atols",
    "formatted_address": "4,5(43)",
    "phone_number": "+380632374147",
    "source_url": "https://www.google.com/maps/place/Atols/data=!4m7!3m6!1s0x40d4d94f15fc7553:0x36bcaad1011e004b!8m2!3d50.5071738!4d30.8250045!16s%2Fg%2F1tkbwrfd!19sChIJU3X8FU_Z1EARSwAeAdGqvDY?authuser=0&hl=tr&rclk=1",
    "website_url": "https://www.facebook.com/atols.atols.58/",
    "rating_text": "4,5",
    "stars": null,
    "number_of_reviews": null,
    "price_level": "",
    "open_hours": "",
    "extraction_timestamp": "2025-06-08T03:31:38.873Z",
    "source_name": "google",
    "source_query": "Irrigation Equipment",
    "source_country": "UA",
    "country": "Ukraine",
    "state": "Kyivska oblast",
    "city": "Brovary Raion"
  },
  {
    "source_id": "ChIJ3wWMok3P1EARO4_m8mNQfko",
    "name": "Akvamontazhstroy",
    "category": "Akvamontazhstroy",
    "formatted_address": "3,7(3)",
    "phone_number": "+380963404040",
    "source_url": "https://www.google.com/maps/place/Akvamontazhstroy/data=!4m7!3m6!1s0x40d4cf4da28c05df:0x4a7e5063f2e68f3b!8m2!3d50.5313045!4d30.8046662!16s%2Fg%2F1ptzc_4kf!19sChIJ3wWMok3P1EARO4_m8mNQfko?authuser=0&hl=tr&rclk=1",
    "website_url": "http://bassein-ozero.com.ua/",
    "rating_text": "3,7",
    "stars": null,
    "number_of_reviews": null,
    "price_level": "",
    "open_hours": "",
    "extraction_timestamp": "2025-06-08T03:31:38.874Z",
    "source_name": "google",
    "source_query": "Irrigation Equipment",
    "source_country": "UA",
    "country": "Ukraine",
    "state": "Kyivska oblast",
    "city": "Brovary Raion"
  },
  {
    "source_id": "ChIJmy6r6Q_Z1EARXlyshfJ3xhc",
    "name": "Віта-Екс \"ActivePure UA\"",
    "category": "Віта-Екс \"ActivePure UA\"",
    "formatted_address": "4,0(1)",
    "phone_number": "+380683052548",
    "source_url": "https://www.google.com/maps/place/%D0%92%D1%96%D1%82%D0%B0-%D0%95%D0%BA%D1%81+%22ActivePure+UA%22/data=!4m7!3m6!1s0x40d4d90fe9ab2e9b:0x17c677f285ac5c5e!8m2!3d50.5204638!4d30.8068586!16s%2Fg%2F11h1g3t3zb!19sChIJmy6r6Q_Z1EARXlyshfJ3xhc?authuser=0&hl=tr&rclk=1",
    "website_url": "",
    "rating_text": "4,0",
    "stars": null,
    "number_of_reviews": null,
    "price_level": "",
    "open_hours": "",
    "extraction_timestamp": "2025-06-08T03:31:38.874Z",
    "source_name": "google",
    "source_query": "Irrigation Equipment",
    "source_country": "UA",
    "country": "Ukraine",
    "state": "Kyivska oblast",
    "city": "Brovary Raion"
  },
  {
    "source_id": "ChIJ6e9f0lzX1EARNNVH7YcWBps",
    "name": "Green House",
    "category": "Green House",
    "formatted_address": "4,9(16)",
    "phone_number": "+380987770699",
    "source_url": "https://www.google.com/maps/place/Green+House/data=!4m7!3m6!1s0x40d4d75cd25fefe9:0x9b061687ed47d534!8m2!3d50.5525814!4d30.666319!16s%2Fg%2F11fn9fcj_3!19sChIJ6e9f0lzX1EARNNVH7YcWBps?authuser=0&hl=tr&rclk=1",
    "website_url": "https://greenhouseukr.wixsite.com/kiev",
    "rating_text": "4,9",
    "stars": null,
    "number_of_reviews": null,
    "price_level": "",
    "open_hours": "",
    "extraction_timestamp": "2025-06-08T03:31:38.875Z",
    "source_name": "google",
    "source_query": "Irrigation Equipment",
    "source_country": "UA",
    "country": "Ukraine",
    "state": "Kyivska oblast",
    "city": "Brovary Raion"
  },
  {
    "source_id": "ChIJxc5Vc-LZ1EARD76oyxa9f3Q",
    "name": "Склад-Магазин Білояр Бровари Торгмаш",
    "category": "Склад-Магазин Білояр Бровари Торгмаш",
    "formatted_address": "4,8(9)",
    "phone_number": "+380684584545",
    "source_url": "https://www.google.com/maps/place/%D0%A1%D0%BA%D0%BB%D0%B0%D0%B4-%D0%9C%D0%B0%D0%B3%D0%B0%D0%B7%D0%B8%D0%BD+%D0%91%D1%96%D0%BB%D0%BE%D1%8F%D1%80+%D0%91%D1%80%D0%BE%D0%B2%D0%B0%D1%80%D0%B8+%D0%A2%D0%BE%D1%80%D0%B3%D0%BC%D0%B0%D1%88/data=!4m7!3m6!1s0x40d4d9e27355cec5:0x747fbd16cba8be0f!8m2!3d50.5058672!4d30.8244893!16s%2Fg%2F11fmvk0zgj!19sChIJxc5Vc-LZ1EARD76oyxa9f3Q?authuser=0&hl=tr&rclk=1",
    "website_url": "",
    "rating_text": "4,8",
    "stars": null,
    "number_of_reviews": null,
    "price_level": "",
    "open_hours": "",
    "extraction_timestamp": "2025-06-08T03:31:38.876Z",
    "source_name": "google",
    "source_query": "Irrigation Equipment",
    "source_country": "UA",
    "country": "Ukraine",
    "state": "Kyivska oblast",
    "city": "Brovary Raion"
  },
  {
    "source_id": "ChIJUwMUJGrZ1EARBwNZmZkX2Ts",
    "name": "BWT Aqua. Автомат питної води № 620",
    "category": "BWT Aqua. Автомат питної води № 620",
    "formatted_address": "3,0(1)",
    "phone_number": "+380672641122",
    "source_url": "https://www.google.com/maps/place/BWT+Aqua.+%D0%90%D0%B2%D1%82%D0%BE%D0%BC%D0%B0%D1%82+%D0%BF%D0%B8%D1%82%D0%BD%D0%BE%D1%97+%D0%B2%D0%BE%D0%B4%D0%B8+%E2%84%96+620/data=!4m7!3m6!1s0x40d4d96a24140353:0x3bd9179999590307!8m2!3d50.522704!4d30.790949!16s%2Fg%2F11rsrpt8nt!19sChIJUwMUJGrZ1EARBwNZmZkX2Ts?authuser=0&hl=tr&rclk=1",
    "website_url": "https://bwtaqua.com.ua/",
    "rating_text": "3,0",
    "stars": null,
    "number_of_reviews": null,
    "price_level": "",
    "open_hours": "",
    "extraction_timestamp": "2025-06-08T03:31:38.877Z",
    "source_name": "google",
    "source_query": "Irrigation Equipment",
    "source_country": "UA",
    "country": "Ukraine",
    "state": "Kyivska oblast",
    "city": "Brovary Raion"
  },
  {
    "source_id": "ChIJ5VxJHhXZ1EAR7OAwr9eQjBw",
    "name": "BWT Aqua. Автомат питної води № 325",
    "category": "BWT Aqua. Автомат питної води № 325",
    "formatted_address": "3,0(1)",
    "phone_number": "+380672641122",
    "source_url": "https://www.google.com/maps/place/BWT+Aqua.+%D0%90%D0%B2%D1%82%D0%BE%D0%BC%D0%B0%D1%82+%D0%BF%D0%B8%D1%82%D0%BD%D0%BE%D1%97+%D0%B2%D0%BE%D0%B4%D0%B8+%E2%84%96+325/data=!4m7!3m6!1s0x40d4d9151e495ce5:0x1c8c90d7af30e0ec!8m2!3d50.506627!4d30.779609!16s%2Fg%2F11rsrp9rg8!19sChIJ5VxJHhXZ1EAR7OAwr9eQjBw?authuser=0&hl=tr&rclk=1",
    "website_url": "https://bwtaqua.com.ua/",
    "rating_text": "3,0",
    "stars": null,
    "number_of_reviews": null,
    "price_level": "",
    "open_hours": "",
    "extraction_timestamp": "2025-06-08T03:31:38.878Z",
    "source_name": "google",
    "source_query": "Irrigation Equipment",
    "source_country": "UA",
    "country": "Ukraine",
    "state": "Kyivska oblast",
    "city": "Brovary Raion"
  },
  {
    "source_id": "ChIJ27iPpGzZ1EARsTDSErD5kwU",
    "name": "Patok",
    "category": "Patok",
    "formatted_address": "4,6(123)",
    "phone_number": "+380973678080",
    "source_url": "https://www.google.com/maps/place/Patok/data=!4m7!3m6!1s0x40d4d96ca48fb8db:0x593f9b012d230b1!8m2!3d50.5240154!4d30.7850199!16s%2Fg%2F11cm74nm1j!19sChIJ27iPpGzZ1EARsTDSErD5kwU?authuser=0&hl=tr&rclk=1",
    "website_url": "https://patok.com.ua/ua/",
    "rating_text": "4,6",
    "stars": null,
    "number_of_reviews": null,
    "price_level": "",
    "open_hours": "",
    "extraction_timestamp": "2025-06-08T03:31:38.879Z",
    "source_name": "google",
    "source_query": "Irrigation Equipment",
    "source_country": "UA",
    "country": "Ukraine",
    "state": "Kyivska oblast",
    "city": "Brovary Raion"
  },
  {
    "source_id": "ChIJBbG_w3HZ1EARMUq7gx253Hs",
    "name": "21Stolittya - Suchasne Budivnytstvo",
    "category": "21Stolittya - Suchasne Budivnytstvo",
    "formatted_address": "21Stolittya - Suchasne Budivnytstvo",
    "phone_number": "+380683848837",
    "source_url": "https://www.google.com/maps/place/21Stolittya+-+Suchasne+Budivnytstvo/data=!4m7!3m6!1s0x40d4d971c3bfb105:0x7bdcb91d83bb4a31!8m2!3d50.3665665!4d30.713577!16s%2Fg%2F11hzpc24ld!19sChIJBbG_w3HZ1EARMUq7gx253Hs?authuser=0&hl=tr&rclk=1",
    "website_url": "",
    "rating_text": "3,0",
    "stars": null,
    "number_of_reviews": null,
    "price_level": "",
    "open_hours": "",
    "extraction_timestamp": "2025-06-08T03:31:38.880Z",
    "source_name": "google",
    "source_query": "Irrigation Equipment",
    "source_country": "UA",
    "country": "Ukraine",
    "state": "Kyivska oblast",
    "city": "Brovary Raion"
  },
  {
    "source_id": "ChIJVxiwAmLZ1EARe3UnOtGK8bQ",
    "name": "Heat-Cool",
    "category": "Heat-Cool",
    "formatted_address": "5,0(64)",
    "phone_number": "+380996004618",
    "source_url": "https://www.google.com/maps/place/Heat-Cool/data=!4m7!3m6!1s0x40d4d96202b01857:0xb4f18ad13a27757b!8m2!3d50.5021183!4d30.7889243!16s%2Fg%2F11c5zx1k_q!19sChIJVxiwAmLZ1EARe3UnOtGK8bQ?authuser=0&hl=tr&rclk=1",
    "website_url": "http://heat-cool.com.ua/",
    "rating_text": "5,0",
    "stars": null,
    "number_of_reviews": null,
    "price_level": "",
    "open_hours": "",
    "extraction_timestamp": "2025-06-08T03:31:38.881Z",
    "source_name": "google",
    "source_query": "Irrigation Equipment",
    "source_country": "UA",
    "country": "Ukraine",
    "state": "Kyivska oblast",
    "city": "Brovary Raion"
  },
  {
    "source_id": "ChIJoS5vxm_Z1EARYrKT3Uv7W8w",
    "name": "BOILER-HOUSE (Ремонт, Чистка, Установка Бойлера в Броварах)",
    "category": "BOILER-HOUSE (Ремонт, Чистка, Установка Бойлера в Броварах)",
    "formatted_address": "BOILER-HOUSE (Ремонт, Чистка, Установка Бойлера в Броварах)",
    "phone_number": "+380679001427",
    "source_url": "https://www.google.com/maps/place/BOILER-HOUSE+%28%D0%A0%D0%B5%D0%BC%D0%BE%D0%BD%D1%82,+%D0%A7%D0%B8%D1%81%D1%82%D0%BA%D0%B0,+%D0%A3%D1%81%D1%82%D0%B0%D0%BD%D0%BE%D0%B2%D0%BA%D0%B0+%D0%91%D0%BE%D0%B9%D0%BB%D0%B5%D1%80%D0%B0+%D0%B2+%D0%91%D1%80%D0%BE%D0%B2%D0%B0%D1%80%D0%B0%D1%85%29/data=!4m7!3m6!1s0x40d4d96fc66f2ea1:0xcc5bfb4bdd93b262!8m2!3d50.5133976!4d30.7958517!16s%2Fg%2F11f08bt05x!19sChIJoS5vxm_Z1EARYrKT3Uv7W8w?authuser=0&hl=tr&rclk=1",
    "website_url": "",
    "rating_text": "4,4",
    "stars": null,
    "number_of_reviews": null,
    "price_level": "",
    "open_hours": "",
    "extraction_timestamp": "2025-06-08T03:31:38.882Z",
    "source_name": "google",
    "source_query": "Irrigation Equipment",
    "source_country": "UA",
    "country": "Ukraine",
    "state": "Kyivska oblast",
    "city": "Brovary Raion"
  },
  {
    "source_id": "ChIJE60f2DPP1EARCqjSrjIeXBw",
    "name": "СпецПоливСервіс",
    "category": "СпецПоливСервіс",
    "formatted_address": "5,0(17)",
    "phone_number": "+380970822608",
    "source_url": "https://www.google.com/maps/place/%D0%A1%D0%BF%D0%B5%D1%86%D0%9F%D0%BE%D0%BB%D0%B8%D0%B2%D0%A1%D0%B5%D1%80%D0%B2%D1%96%D1%81/data=!4m7!3m6!1s0x40d4cf33d81fad13:0x1c5c1e32aed2a80a!8m2!3d50.463344!4d30.589573!16s%2Fg%2F11h0trxk1!19sChIJE60f2DPP1EARCqjSrjIeXBw?authuser=0&hl=tr&rclk=1",
    "website_url": "http://poliv-service.kiev.ua/",
    "rating_text": "5,0",
    "stars": null,
    "number_of_reviews": null,
    "price_level": "",
    "open_hours": "",
    "extraction_timestamp": "2025-06-08T03:31:38.883Z",
    "source_name": "google",
    "source_query": "Irrigation Equipment",
    "source_country": "UA",
    "country": "Ukraine",
    "state": "Kyivska oblast",
    "city": "Brovary Raion"
  },
  {
    "source_id": "ChIJyQuV3QHZ1EARbNSXUhQNlVg",
    "name": "Mahazyn Santekhniky \"Santekhbum\"",
    "category": "Mahazyn Santekhniky \"Santekhbum\"",
    "formatted_address": "5,0(3)",
    "phone_number": "+380975557270",
    "source_url": "https://www.google.com/maps/place/Mahazyn+Santekhniky+%22Santekhbum%22/data=!4m7!3m6!1s0x40d4d901dd950bc9:0x58950d145297d46c!8m2!3d50.5063576!4d30.826525!16s%2Fg%2F11hzx4gjlg!19sChIJyQuV3QHZ1EARbNSXUhQNlVg?authuser=0&hl=tr&rclk=1",
    "website_url": "",
    "rating_text": "5,0",
    "stars": null,
    "number_of_reviews": null,
    "price_level": "",
    "open_hours": "",
    "extraction_timestamp": "2025-06-08T03:31:38.883Z",
    "source_name": "google",
    "source_query": "Irrigation Equipment",
    "source_country": "UA",
    "country": "Ukraine",
    "state": "Kyivska oblast",
    "city": "Brovary Raion"
  },
  {
    "source_id": "ChIJcZKbvAmkZCURyhzxJGj3u_Y",
    "name": "Altmax ⚡ Купить георешетку и геотекстиль Цена, ассортимент, фото, доставка, производитель. Геоматериалы в Украине",
    "category": "Altmax ⚡ Купить георешетку и геотекстиль Цена, ассортимент, фото, доставка, производитель. Геоматериалы в Украине",
    "formatted_address": "Altmax ⚡ Купить георешетку и геотекстиль Цена, ассортимент, фото, доставка, производитель. Геоматериалы в Украине",
    "phone_number": "+380989932703",
    "source_url": "https://www.google.com/maps/place/Altmax+%E2%9A%A1+%D0%9A%D1%83%D0%BF%D0%B8%D1%82%D1%8C+%D0%B3%D0%B5%D0%BE%D1%80%D0%B5%D1%88%D0%B5%D1%82%D0%BA%D1%83+%D0%B8+%D0%B3%D0%B5%D0%BE%D1%82%D0%B5%D0%BA%D1%81%D1%82%D0%B8%D0%BB%D1%8C+%D0%A6%D0%B5%D0%BD%D0%B0,+%D0%B0%D1%81%D1%81%D0%BE%D1%80%D1%82%D0%B8%D0%BC%D0%B5%D0%BD%D1%82,+%D1%84%D0%BE%D1%82%D0%BE,+%D0%B4%D0%BE%D1%81%D1%82%D0%B0%D0%B2%D0%BA%D0%B0,+%D0%BF%D1%80%D0%BE%D0%B8%D0%B7%D0%B2%D0%BE%D0%B4%D0%B8%D1%82%D0%B5%D0%BB%D1%8C.+%D0%93%D0%B5%D0%BE%D0%BC%D0%B0%D1%82%D0%B5%D1%80%D0%B8%D0%B0%D0%BB%D1%8B+%D0%B2+%D0%A3%D0%BA%D1%80%D0%B0%D0%B8%D0%BD%D0%B5/data=!4m7!3m6!1s0x2564a409bc9b9271:0xf6bbf76824f11cca!8m2!3d50.4020355!4d30.5326906!16s%2Fg%2F11xd2kcymx!19sChIJcZKbvAmkZCURyhzxJGj3u_Y?authuser=0&hl=tr&rclk=1",
    "website_url": "https://altmax.com.ua/",
    "rating_text": "3,9",
    "stars": null,
    "number_of_reviews": null,
    "price_level": "",
    "open_hours": "",
    "extraction_timestamp": "2025-06-08T03:31:38.884Z",
    "source_name": "google",
    "source_query": "Irrigation Equipment",
    "source_country": "UA",
    "country": "Ukraine",
    "state": "Kyivska oblast",
    "city": "Brovary Raion"
  },
  {
    "source_id": "ChIJn9HnVTPL1EAR4di2zqeFqrc",
    "name": "Ландшафтна компанія Garden House",
    "category": "Ландшафтна компанія Garden House",
    "formatted_address": "4,6(67)",
    "phone_number": "+380995461100",
    "source_url": "https://www.google.com/maps/place/%D0%9B%D0%B0%D0%BD%D0%B4%D1%88%D0%B0%D1%84%D1%82%D0%BD%D0%B0+%D0%BA%D0%BE%D0%BC%D0%BF%D0%B0%D0%BD%D1%96%D1%8F+Garden+House/data=!4m7!3m6!1s0x40d4cb3355e7d19f:0xb7aa85a7ceb6d8e1!8m2!3d50.4364812!4d30.2859854!16s%2Fg%2F11b6d5j_72!19sChIJn9HnVTPL1EAR4di2zqeFqrc?authuser=0&hl=tr&rclk=1",
    "website_url": "https://garden-house.ua/",
    "rating_text": "4,6",
    "stars": null,
    "number_of_reviews": null,
    "price_level": "",
    "open_hours": "",
    "extraction_timestamp": "2025-06-08T03:31:38.885Z",
    "source_name": "google",
    "source_query": "Irrigation Equipment",
    "source_country": "UA",
    "country": "Ukraine",
    "state": "Kyivska oblast",
    "city": "Brovary Raion"
  },
  {
    "source_id": "ChIJf5EQNhHP1EARyFIa0TSoUMU",
    "name": "ТОВ \"Стрім-Енерджі Компані\"",
    "category": "ТОВ \"Стрім-Енерджі Компані\"",
    "formatted_address": "5,0(4)",
    "phone_number": "+380509855819",
    "source_url": "https://www.google.com/maps/place/%D0%A2%D0%9E%D0%92+%22%D0%A1%D1%82%D1%80%D1%96%D0%BC-%D0%95%D0%BD%D0%B5%D1%80%D0%B4%D0%B6%D1%96+%D0%9A%D0%BE%D0%BC%D0%BF%D0%B0%D0%BD%D1%96%22/data=!4m7!3m6!1s0x40d4cf113610917f:0xc550a834d11a52c8!8m2!3d50.4520424!4d30.6416021!16s%2Fg%2F11gwp6m4rt!19sChIJf5EQNhHP1EARyFIa0TSoUMU?authuser=0&hl=tr&rclk=1",
    "website_url": "https://st-energy.com.ua/",
    "rating_text": "5,0",
    "stars": null,
    "number_of_reviews": null,
    "price_level": "",
    "open_hours": "",
    "extraction_timestamp": "2025-06-08T03:31:38.886Z",
    "source_name": "google",
    "source_query": "Irrigation Equipment",
    "source_country": "UA",
    "country": "Ukraine",
    "state": "Kyivska oblast",
    "city": "Brovary Raion"
  },
  {
    "source_id": "ChIJLSWTE07E1EAR7y2QpmxfDRE",
    "name": "Tov \"Masterhaz\"",
    "category": "Tov \"Masterhaz\"",
    "formatted_address": "4,4(5.607)",
    "phone_number": "+380445852241",
    "source_url": "https://www.google.com/maps/place/Tov+%22Masterhaz%22/data=!4m7!3m6!1s0x40d4c44e1393252d:0x110d5f6ca6902def!8m2!3d50.395227!4d30.641546!16s%2Fg%2F11btxgh2m_!19sChIJLSWTE07E1EAR7y2QpmxfDRE?authuser=0&hl=tr&rclk=1",
    "website_url": "https://mastergaz.com.ua/",
    "rating_text": "4,4",
    "stars": null,
    "number_of_reviews": null,
    "price_level": "",
    "open_hours": "",
    "extraction_timestamp": "2025-06-08T03:31:38.887Z",
    "source_name": "google",
    "source_query": "Irrigation Equipment",
    "source_country": "UA",
    "country": "Ukraine",
    "state": "Kyivska oblast",
    "city": "Brovary Raion"
  },
  {
    "source_id": "ChIJq1OAQEXF1EARIAyoFByGrW4",
    "name": "Ahrarna Industrialʹna Kompaniya",
    "category": "Ahrarna Industrialʹna Kompaniya",
    "formatted_address": "4,8(12)",
    "phone_number": "+380504444184",
    "source_url": "https://www.google.com/maps/place/Ahrarna+Industrial%CA%B9na+Kompaniya/data=!4m7!3m6!1s0x40d4c545408053ab:0x6ead861c14a80c20!8m2!3d50.4090678!4d30.6121652!16s%2Fg%2F1tdk3pn4!19sChIJq1OAQEXF1EARIAyoFByGrW4?authuser=0&hl=tr&rclk=1",
    "website_url": "https://aico.ua/",
    "rating_text": "4,8",
    "stars": null,
    "number_of_reviews": null,
    "price_level": "",
    "open_hours": "",
    "extraction_timestamp": "2025-06-08T03:31:38.888Z",
    "source_name": "google",
    "source_query": "Irrigation Equipment",
    "source_country": "UA",
    "country": "Ukraine",
    "state": "Kyivska oblast",
    "city": "Brovary Raion"
  },
  {
    "source_id": "ChIJq_zBeRDF1EARnrnwTn86s7I",
    "name": "UKSPAR - Трубопровідна арматура",
    "category": "UKSPAR - Трубопровідна арматура",
    "formatted_address": "4,9(83)",
    "phone_number": "+380674903859",
    "source_url": "https://www.google.com/maps/place/UKSPAR+-+%D0%A2%D1%80%D1%83%D0%B1%D0%BE%D0%BF%D1%80%D0%BE%D0%B2%D1%96%D0%B4%D0%BD%D0%B0+%D0%B0%D1%80%D0%BC%D0%B0%D1%82%D1%83%D1%80%D0%B0/data=!4m7!3m6!1s0x40d4c51079c1fcab:0xb2b33a7f4ef0b99e!8m2!3d50.4209265!4d30.6416221!16s%2Fg%2F1tdcq0xr!19sChIJq_zBeRDF1EARnrnwTn86s7I?authuser=0&hl=tr&rclk=1",
    "website_url": "https://ukspar.ua/",
    "rating_text": "4,9",
    "stars": null,
    "number_of_reviews": null,
    "price_level": "",
    "open_hours": "",
    "extraction_timestamp": "2025-06-08T03:31:38.889Z",
    "source_name": "google",
    "source_query": "Irrigation Equipment",
    "source_country": "UA",
    "country": "Ukraine",
    "state": "Kyivska oblast",
    "city": "Brovary Raion"
  },
  {
    "source_id": "ChIJwzU3193F1EARXmYnrV6YZeY",
    "name": "KMV",
    "category": "KMV",
    "formatted_address": "Постачальник обладнання для водопостачання · Solomii Krushel'nyts'koi St, 1324 saat açık · +380 63 253 1420",
    "phone_number": "+380632531420",
    "source_url": "https://www.google.com/maps/place/KMV/data=!4m7!3m6!1s0x40d4c5ddd73735c3:0xe665985ead27665e!8m2!3d50.3913345!4d30.6476648!16s%2Fg%2F11vbjx25mq!19sChIJwzU3193F1EARXmYnrV6YZeY?authuser=0&hl=tr&rclk=1",
    "website_url": "",
    "rating_text": "",
    "stars": null,
    "number_of_reviews": null,
    "price_level": "",
    "open_hours": "",
    "extraction_timestamp": "2025-06-08T03:31:38.890Z",
    "source_name": "google",
    "source_query": "Irrigation Equipment",
    "source_country": "UA",
    "country": "Ukraine",
    "state": "Kyivska oblast",
    "city": "Brovary Raion"
  },
  {
    "source_id": "ChIJWxt4AlHO1EARIhiDVwPGmbM",
    "name": "Eridon",
    "category": "Eridon",
    "formatted_address": "4,4(96)",
    "phone_number": "+380800408700",
    "source_url": "https://www.google.com/maps/place/Eridon/data=!4m7!3m6!1s0x40d4ce5102781b5b:0xb399c60357831822!8m2!3d50.3907885!4d30.4151779!16s%2Fg%2F1tf_rd2m!19sChIJWxt4AlHO1EARIhiDVwPGmbM?authuser=0&hl=tr&rclk=1",
    "website_url": "https://www.eridon.ua/",
    "rating_text": "4,4",
    "stars": null,
    "number_of_reviews": null,
    "price_level": "",
    "open_hours": "",
    "extraction_timestamp": "2025-06-08T03:31:38.891Z",
    "source_name": "google",
    "source_query": "Irrigation Equipment",
    "source_country": "UA",
    "country": "Ukraine",
    "state": "Kyivska oblast",
    "city": "Brovary Raion"
  },
  {
    "source_id": "ChIJs9vo5z7Z1EARb70wf2nwijE",
    "name": "Строим Сад",
    "category": "Строим Сад",
    "formatted_address": "4,3(3)",
    "phone_number": "+380955090164",
    "source_url": "https://www.google.com/maps/place/%D0%A1%D1%82%D1%80%D0%BE%D0%B8%D0%BC+%D0%A1%D0%B0%D0%B4/data=!4m7!3m6!1s0x40d4d93ee7e8dbb3:0x318af0697f30bd6f!8m2!3d50.5167214!4d30.8249166!16s%2Fg%2F11c209f3t8!19sChIJs9vo5z7Z1EARb70wf2nwijE?authuser=0&hl=tr&rclk=1",
    "website_url": "https://stroim-sad.com.ua/",
    "rating_text": "4,3",
    "stars": null,
    "number_of_reviews": null,
    "price_level": "",
    "open_hours": "",
    "extraction_timestamp": "2025-06-08T03:31:38.892Z",
    "source_name": "google",
    "source_query": "Irrigation Equipment",
    "source_country": "UA",
    "country": "Ukraine",
    "state": "Kyivska oblast",
    "city": "Brovary Raion"
  },
  {
    "source_id": "ChIJj9B1EqHP1EARDZgdszuCvLs",
    "name": "Системы полива",
    "category": "Системы полива",
    "formatted_address": "Sulama Ekipmanları Tedarikçisi · Lavrska St, 7а / 19Kapalı ⋅ Açılış zamanı: Pzt 09:00 · +380 99 343 8777",
    "phone_number": "+380993438777",
    "source_url": "https://www.google.com/maps/place/%D0%A1%D0%B8%D1%81%D1%82%D0%B5%D0%BC%D1%8B+%D0%BF%D0%BE%D0%BB%D0%B8%D0%B2%D0%B0/data=!4m7!3m6!1s0x40d4cfa11275d08f:0xbbbc823bb31d980d!8m2!3d50.4368044!4d30.5554264!16s%2Fg%2F11qh89rj21!19sChIJj9B1EqHP1EARDZgdszuCvLs?authuser=0&hl=tr&rclk=1",
    "website_url": "http://syspoliv.com.ua/",
    "rating_text": "",
    "stars": null,
    "number_of_reviews": null,
    "price_level": "",
    "open_hours": "",
    "extraction_timestamp": "2025-06-08T03:31:38.893Z",
    "source_name": "google",
    "source_query": "Irrigation Equipment",
    "source_country": "UA",
    "country": "Ukraine",
    "state": "Kyivska oblast",
    "city": "Brovary Raion"
  },
  {
    "source_id": "ChIJ26iM7JrZ1EARIrbPuJDZ0hs",
    "name": "BWT Aqua. Автомат питної води № 2647",
    "category": "BWT Aqua. Автомат питної води № 2647",
    "formatted_address": "Su Arıtma Şirketi · Коло, Nezalezhnosti Blvd, 16Kapalı ⋅ Açılış saati: 08:00 · +380 67 264 1122",
    "phone_number": "+380672641122",
    "source_url": "https://www.google.com/maps/place/BWT+Aqua.+%D0%90%D0%B2%D1%82%D0%BE%D0%BC%D0%B0%D1%82+%D0%BF%D0%B8%D1%82%D0%BD%D0%BE%D1%97+%D0%B2%D0%BE%D0%B4%D0%B8+%E2%84%96+2647/data=!4m7!3m6!1s0x40d4d99aec8ca8db:0x1bd2d990b8cfb622!8m2!3d50.520446!4d30.806817!16s%2Fg%2F11ny2mf_n8!19sChIJ26iM7JrZ1EARIrbPuJDZ0hs?authuser=0&hl=tr&rclk=1",
    "website_url": "https://bwtaqua.com.ua/",
    "rating_text": "",
    "stars": null,
    "number_of_reviews": null,
    "price_level": "",
    "open_hours": "",
    "extraction_timestamp": "2025-06-08T03:31:38.893Z",
    "source_name": "google",
    "source_query": "Irrigation Equipment",
    "source_country": "UA",
    "country": "Ukraine",
    "state": "Kyivska oblast",
    "city": "Brovary Raion"
  },
  {
    "source_id": "ChIJveQ786zF1EARvvgtKQ_FL-Y",
    "name": "Filʹtry Dlya Vody. Internet-Mahazyn \"Yuvk\"",
    "category": "Filʹtry Dlya Vody. Internet-Mahazyn \"Yuvk\"",
    "formatted_address": "4,9(45)",
    "phone_number": "+380679007022",
    "source_url": "https://www.google.com/maps/place/Fil%CA%B9try+Dlya+Vody.+Internet-Mahazyn+%22Yuvk%22/data=!4m7!3m6!1s0x40d4c5acf33be4bd:0xe62fc50f292df8be!8m2!3d50.402602!4d30.6345709!16s%2Fg%2F12cpk3bk5!19sChIJveQ786zF1EARvvgtKQ_FL-Y?authuser=0&hl=tr&rclk=1",
    "website_url": "https://yvk.com.ua/",
    "rating_text": "4,9",
    "stars": null,
    "number_of_reviews": null,
    "price_level": "",
    "open_hours": "",
    "extraction_timestamp": "2025-06-08T03:31:38.894Z",
    "source_name": "google",
    "source_query": "Irrigation Equipment",
    "source_country": "UA",
    "country": "Ukraine",
    "state": "Kyivska oblast",
    "city": "Brovary Raion"
  },
  {
    "source_id": "ChIJlf8KTInJ1EARVa2l9X6ROvY",
    "name": "Hunter Автополив Украина",
    "category": "Hunter Автополив Украина",
    "formatted_address": "5,0(3)",
    "phone_number": "+380509998688",
    "source_url": "https://www.google.com/maps/place/Hunter+%D0%90%D0%B2%D1%82%D0%BE%D0%BF%D0%BE%D0%BB%D0%B8%D0%B2+%D0%A3%D0%BA%D1%80%D0%B0%D0%B8%D0%BD%D0%B0/data=!4m7!3m6!1s0x40d4c9894c0aff95:0xf63a917ef5a5ad55!8m2!3d50.4177962!4d30.4415501!16s%2Fg%2F11ngtbpk5k!19sChIJlf8KTInJ1EARVa2l9X6ROvY?authuser=0&hl=tr&rclk=1",
    "website_url": "https://hunter.org.ua/",
    "rating_text": "5,0",
    "stars": null,
    "number_of_reviews": null,
    "price_level": "",
    "open_hours": "",
    "extraction_timestamp": "2025-06-08T03:31:38.895Z",
    "source_name": "google",
    "source_query": "Irrigation Equipment",
    "source_country": "UA",
    "country": "Ukraine",
    "state": "Kyivska oblast",
    "city": "Brovary Raion"
  },
  {
    "source_id": "ChIJAQBAt5PD1EARlBkfC4O1sgk",
    "name": "Ecomess",
    "category": "Ecomess",
    "formatted_address": "5,0(1)",
    "phone_number": "+380445911891",
    "source_url": "https://www.google.com/maps/place/Ecomess/data=!4m7!3m6!1s0x40d4c393b7400001:0x9b2b5830b1f1994!8m2!3d50.3702749!4d30.7052936!16s%2Fg%2F11fqptft9r!19sChIJAQBAt5PD1EARlBkfC4O1sgk?authuser=0&hl=tr&rclk=1",
    "website_url": "https://ecomess.net/",
    "rating_text": "5,0",
    "stars": null,
    "number_of_reviews": null,
    "price_level": "",
    "open_hours": "",
    "extraction_timestamp": "2025-06-08T03:31:38.895Z",
    "source_name": "google",
    "source_query": "Irrigation Equipment",
    "source_country": "UA",
    "country": "Ukraine",
    "state": "Kyivska oblast",
    "city": "Brovary Raion"
  },
  {
    "source_id": "ChIJkXv1l6XF1EARB2BiserVpEA",
    "name": "Cascade Aqua - Ландшафтная Компания",
    "category": "Cascade Aqua - Ландшафтная Компания",
    "formatted_address": "5,0(3)",
    "phone_number": "+380674031580",
    "source_url": "https://www.google.com/maps/place/Cascade+Aqua+-+%D0%9B%D0%B0%D0%BD%D0%B4%D1%88%D0%B0%D1%84%D1%82%D0%BD%D0%B0%D1%8F+%D0%9A%D0%BE%D0%BC%D0%BF%D0%B0%D0%BD%D0%B8%D1%8F/data=!4m7!3m6!1s0x40d4c5a597f57b91:0x40a4d5eab1626007!8m2!3d50.4285014!4d30.6698685!16s%2Fg%2F11gpn8vbph!19sChIJkXv1l6XF1EARB2BiserVpEA?authuser=0&hl=tr&rclk=1",
    "website_url": "",
    "rating_text": "5,0",
    "stars": null,
    "number_of_reviews": null,
    "price_level": "",
    "open_hours": "",
    "extraction_timestamp": "2025-06-08T03:31:38.896Z",
    "source_name": "google",
    "source_query": "Irrigation Equipment",
    "source_country": "UA",
    "country": "Ukraine",
    "state": "Kyivska oblast",
    "city": "Brovary Raion"
  },
  {
    "source_id": "ChIJ8wT2xrXF1EARWJB6iCdwvT4",
    "name": "Повірка лічильників води без зняття. Повірка лічильників Київ",
    "category": "Повірка лічильників води без зняття. Повірка лічильників Київ",
    "formatted_address": "",
    "phone_number": "+380993449060",
    "source_url": "https://www.google.com/maps/place/%D0%9F%D0%BE%D0%B2%D1%96%D1%80%D0%BA%D0%B0+%D0%BB%D1%96%D1%87%D0%B8%D0%BB%D1%8C%D0%BD%D0%B8%D0%BA%D1%96%D0%B2+%D0%B2%D0%BE%D0%B4%D0%B8+%D0%B1%D0%B5%D0%B7+%D0%B7%D0%BD%D1%8F%D1%82%D1%82%D1%8F.+%D0%9F%D0%BE%D0%B2%D1%96%D1%80%D0%BA%D0%B0+%D0%BB%D1%96%D1%87%D0%B8%D0%BB%D1%8C%D0%BD%D0%B8%D0%BA%D1%96%D0%B2+%D0%9A%D0%B8%D1%97%D0%B2/data=!4m7!3m6!1s0x40d4c5b5c6f604f3:0x3ebd7027887a9058!8m2!3d50.4020355!4d30.5326906!16s%2Fg%2F11rgf3sw_3!19sChIJ8wT2xrXF1EARWJB6iCdwvT4?authuser=0&hl=tr&rclk=1",
    "website_url": "https://povirka.com.ua/poverka-ua.html",
    "rating_text": "",
    "stars": null,
    "number_of_reviews": null,
    "price_level": "",
    "open_hours": "",
    "extraction_timestamp": "2025-06-08T03:31:38.897Z",
    "source_name": "google",
    "source_query": "Irrigation Equipment",
    "source_country": "UA",
    "country": "Ukraine",
    "state": "Kyivska oblast",
    "city": "Brovary Raion"
  }
]
