[
  {
    "source_id": "ChIJRa3o2hDG1EARvFwMiTpym0k",
    "name": "ЭВКАЛИПТ Р КОМПАНИЯ",
    "category": "ЭВКАЛИПТ Р КОМПАНИЯ",
    "formatted_address": "4,9(41)",
    "phone_number": "+380933654300",
    "source_url": "https://www.google.com/maps/place/%D0%AD%D0%92%D0%9A%D0%90%D0%9B%D0%98%D0%9F%D0%A2+%D0%A0+%D0%9A%D0%9E%D0%9C%D0%9F%D0%90%D0%9D%D0%98%D0%AF/data=!4m7!3m6!1s0x40d4c610dae8ad45:0x499b723a890c5cbc!8m2!3d50.360383!4d30.47321!16s%2Fg%2F11xhrr_g1!19sChIJRa3o2hDG1EARvFwMiTpym0k?authuser=0&hl=tr&rclk=1",
    "website_url": "",
    "rating_text": "4,9",
    "stars": null,
    "number_of_reviews": null,
    "price_level": "",
    "open_hours": "",
    "extraction_timestamp": "2025-06-08T03:34:40.737Z",
    "source_name": "google",
    "source_query": "Irrigation Equipment",
    "source_country": "UA",
    "country": "Ukraine",
    "state": "Kyivska oblast",
    "city": "Chabany"
  },
  {
    "source_id": "ChIJDx10apXN1EARCeJXmA3AFk0",
    "name": "Ecosoft - центр чистої води",
    "category": "Ecosoft - центр чистої води",
    "formatted_address": "5,0(4)",
    "phone_number": "+380981015000",
    "source_url": "https://www.google.com/maps/place/Ecosoft+-+%D1%86%D0%B5%D0%BD%D1%82%D1%80+%D1%87%D0%B8%D1%81%D1%82%D0%BE%D1%97+%D0%B2%D0%BE%D0%B4%D0%B8/data=!4m7!3m6!1s0x40d4cd956a741d0f:0x4d16c00d9857e209!8m2!3d50.3469638!4d30.419739!16s%2Fg%2F11q8xbjn2n!19sChIJDx10apXN1EARCeJXmA3AFk0?authuser=0&hl=tr&rclk=1",
    "website_url": "",
    "rating_text": "5,0",
    "stars": null,
    "number_of_reviews": null,
    "price_level": "",
    "open_hours": "",
    "extraction_timestamp": "2025-06-08T03:34:40.739Z",
    "source_name": "google",
    "source_query": "Irrigation Equipment",
    "source_country": "UA",
    "country": "Ukraine",
    "state": "Kyivska oblast",
    "city": "Chabany"
  },
  {
    "source_id": "ChIJEWSxdh_I1EARf0k-kMeYU0w",
    "name": "Садово-дизайнерський центр «Shoni»",
    "category": "Садово-дизайнерський центр «Shoni»",
    "formatted_address": "4,7(103)",
    "phone_number": "+380932595599",
    "source_url": "https://www.google.com/maps/place/%D0%A1%D0%B0%D0%B4%D0%BE%D0%B2%D0%BE-%D0%B4%D0%B8%D0%B7%D0%B0%D0%B9%D0%BD%D0%B5%D1%80%D1%81%D1%8C%D0%BA%D0%B8%D0%B9+%D1%86%D0%B5%D0%BD%D1%82%D1%80+%C2%ABShoni%C2%BB/data=!4m7!3m6!1s0x40d4c81f76b16411:0x4c5398c7903e497f!8m2!3d50.332836!4d30.4394607!16s%2Fg%2F1tl4bk0t!19sChIJEWSxdh_I1EARf0k-kMeYU0w?authuser=0&hl=tr&rclk=1",
    "website_url": "",
    "rating_text": "4,7",
    "stars": null,
    "number_of_reviews": null,
    "price_level": "",
    "open_hours": "",
    "extraction_timestamp": "2025-06-08T03:34:40.741Z",
    "source_name": "google",
    "source_query": "Irrigation Equipment",
    "source_country": "UA",
    "country": "Ukraine",
    "state": "Kyivska oblast",
    "city": "Chabany"
  },
  {
    "source_id": "ChIJiRF8kG7J1EARlTq5ktzUIu4",
    "name": "Fora",
    "category": "Fora",
    "formatted_address": "4,3(537)",
    "phone_number": "+380800301230",
    "source_url": "https://www.google.com/maps/place/Fora/data=!4m7!3m6!1s0x40d4c96e907c1189:0xee22d4dc92b93a95!8m2!3d50.342383!4d30.4279373!16s%2Fg%2F11j0_l_cjn!19sChIJiRF8kG7J1EARlTq5ktzUIu4?authuser=0&hl=tr&rclk=1",
    "website_url": "",
    "rating_text": "4,3",
    "stars": null,
    "number_of_reviews": null,
    "price_level": "",
    "open_hours": "",
    "extraction_timestamp": "2025-06-08T03:34:40.743Z",
    "source_name": "google",
    "source_query": "Irrigation Equipment",
    "source_country": "UA",
    "country": "Ukraine",
    "state": "Kyivska oblast",
    "city": "Chabany"
  },
  {
    "source_id": "ChIJc0090ODJ1EARDcyk3D3koOc",
    "name": "ROZETKA",
    "category": "ROZETKA",
    "formatted_address": "4,5(19)",
    "phone_number": "",
    "source_url": "https://www.google.com/maps/place/ROZETKA/data=!4m7!3m6!1s0x40d4c9e0d03d4d73:0xe7a0e43ddca4cc0d!8m2!3d50.3364181!4d30.4340027!16s%2Fg%2F11vdt_gq1m!19sChIJc0090ODJ1EARDcyk3D3koOc?authuser=0&hl=tr&rclk=1",
    "website_url": "",
    "rating_text": "4,5",
    "stars": null,
    "number_of_reviews": null,
    "price_level": "",
    "open_hours": "",
    "extraction_timestamp": "2025-06-08T03:34:40.744Z",
    "source_name": "google",
    "source_query": "Irrigation Equipment",
    "source_country": "UA",
    "country": "Ukraine",
    "state": "Kyivska oblast",
    "city": "Chabany"
  },
  {
    "source_id": "ChIJ24msvsnI1EAR8ym728ZiG-Q",
    "name": "Обладнання і хімія для басейнів",
    "category": "Обладнання і хімія для басейнів",
    "formatted_address": "4,8(13)",
    "phone_number": "+380443336136",
    "source_url": "https://www.google.com/maps/place/%D0%9E%D0%B1%D0%BB%D0%B0%D0%B4%D0%BD%D0%B0%D0%BD%D0%BD%D1%8F+%D1%96+%D1%85%D1%96%D0%BC%D1%96%D1%8F+%D0%B4%D0%BB%D1%8F+%D0%B1%D0%B0%D1%81%D0%B5%D0%B9%D0%BD%D1%96%D0%B2/data=!4m7!3m6!1s0x40d4c8c9beac89db:0xe41b62c6dbbb29f3!8m2!3d50.3568074!4d30.4375067!16s%2Fg%2F11b6b855pn!19sChIJ24msvsnI1EAR8ym728ZiG-Q?authuser=0&hl=tr&rclk=1",
    "website_url": "",
    "rating_text": "4,8",
    "stars": null,
    "number_of_reviews": null,
    "price_level": "",
    "open_hours": "",
    "extraction_timestamp": "2025-06-08T03:34:40.745Z",
    "source_name": "google",
    "source_query": "Irrigation Equipment",
    "source_country": "UA",
    "country": "Ukraine",
    "state": "Kyivska oblast",
    "city": "Chabany"
  },
  {
    "source_id": "ChIJq6p6QC7I1EARfbp2_pKGsMY",
    "name": "Kp Vyrobnyche Upravlinnya Zhytlovo-Komunalʹnoho Hospodarstva Vykonkomu Chabanivsʹkoyi Selyshchnoyi Rady",
    "category": "Kp Vyrobnyche Upravlinnya Zhytlovo-Komunalʹnoho Hospodarstva Vykonkomu Chabanivsʹkoyi Selyshchnoyi Rady",
    "formatted_address": "2,2(5)",
    "phone_number": "",
    "source_url": "https://www.google.com/maps/place/Kp+Vyrobnyche+Upravlinnya+Zhytlovo-Komunal%CA%B9noho+Hospodarstva+Vykonkomu+Chabanivs%CA%B9koyi+Selyshchnoyi+Rady/data=!4m7!3m6!1s0x40d4c82e407aaaab:0xc6b08692fe76ba7d!8m2!3d50.3441943!4d30.4237711!16s%2Fg%2F11btmq7dhc!19sChIJq6p6QC7I1EARfbp2_pKGsMY?authuser=0&hl=tr&rclk=1",
    "website_url": "",
    "rating_text": "2,2",
    "stars": null,
    "number_of_reviews": null,
    "price_level": "",
    "open_hours": "",
    "extraction_timestamp": "2025-06-08T03:34:40.746Z",
    "source_name": "google",
    "source_query": "Irrigation Equipment",
    "source_country": "UA",
    "country": "Ukraine",
    "state": "Kyivska oblast",
    "city": "Chabany"
  },
  {
    "source_id": "ChIJ14gi4S7I1EARcgAVKjhfCpU",
    "name": "Зоомагазин Рудий Кіт",
    "category": "Зоомагазин Рудий Кіт",
    "formatted_address": "4,3(45)",
    "phone_number": "+380800304888",
    "source_url": "https://www.google.com/maps/place/%D0%97%D0%BE%D0%BE%D0%BC%D0%B0%D0%B3%D0%B0%D0%B7%D0%B8%D0%BD+%D0%A0%D1%83%D0%B4%D0%B8%D0%B9+%D0%9A%D1%96%D1%82/data=!4m7!3m6!1s0x40d4c82ee12288d7:0x950a5f382a150072!8m2!3d50.3418992!4d30.4227727!16s%2Fg%2F11ggdwk7dz!19sChIJ14gi4S7I1EARcgAVKjhfCpU?authuser=0&hl=tr&rclk=1",
    "website_url": "",
    "rating_text": "4,3",
    "stars": null,
    "number_of_reviews": null,
    "price_level": "",
    "open_hours": "",
    "extraction_timestamp": "2025-06-08T03:34:40.748Z",
    "source_name": "google",
    "source_query": "Irrigation Equipment",
    "source_country": "UA",
    "country": "Ukraine",
    "state": "Kyivska oblast",
    "city": "Chabany"
  },
  {
    "source_id": "ChIJWxt4AlHO1EARIhiDVwPGmbM",
    "name": "Eridon",
    "category": "Eridon",
    "formatted_address": "4,4(96)",
    "phone_number": "+380800408700",
    "source_url": "https://www.google.com/maps/place/Eridon/data=!4m7!3m6!1s0x40d4ce5102781b5b:0xb399c60357831822!8m2!3d50.3907885!4d30.4151779!16s%2Fg%2F1tf_rd2m!19sChIJWxt4AlHO1EARIhiDVwPGmbM?authuser=0&hl=tr&rclk=1",
    "website_url": "",
    "rating_text": "4,4",
    "stars": null,
    "number_of_reviews": null,
    "price_level": "",
    "open_hours": "",
    "extraction_timestamp": "2025-06-08T03:34:40.750Z",
    "source_name": "google",
    "source_query": "Irrigation Equipment",
    "source_country": "UA",
    "country": "Ukraine",
    "state": "Kyivska oblast",
    "city": "Chabany"
  },
  {
    "source_id": "ChIJq1OAQEXF1EARIAyoFByGrW4",
    "name": "Ahrarna Industrialʹna Kompaniya",
    "category": "Ahrarna Industrialʹna Kompaniya",
    "formatted_address": "4,8(12)",
    "phone_number": "+380504444184",
    "source_url": "https://www.google.com/maps/place/Ahrarna+Industrial%CA%B9na+Kompaniya/data=!4m7!3m6!1s0x40d4c545408053ab:0x6ead861c14a80c20!8m2!3d50.4090678!4d30.6121652!16s%2Fg%2F1tdk3pn4!19sChIJq1OAQEXF1EARIAyoFByGrW4?authuser=0&hl=tr&rclk=1",
    "website_url": "",
    "rating_text": "4,8",
    "stars": null,
    "number_of_reviews": null,
    "price_level": "",
    "open_hours": "",
    "extraction_timestamp": "2025-06-08T03:34:40.751Z",
    "source_name": "google",
    "source_query": "Irrigation Equipment",
    "source_country": "UA",
    "country": "Ukraine",
    "state": "Kyivska oblast",
    "city": "Chabany"
  },
  {
    "source_id": "ChIJ-TK7ROHJ1EARGcakVUJV_6c",
    "name": "Магазин \"Будівельний hub\"",
    "category": "Магазин \"Будівельний hub\"",
    "formatted_address": "4,9(58)",
    "phone_number": "+380961272035",
    "source_url": "https://www.google.com/maps/place/%D0%9C%D0%B0%D0%B3%D0%B0%D0%B7%D0%B8%D0%BD+%22%D0%91%D1%83%D0%B4%D1%96%D0%B2%D0%B5%D0%BB%D1%8C%D0%BD%D0%B8%D0%B9+hub%22/data=!4m7!3m6!1s0x40d4c9e144bb32f9:0xa7ff554255a4c619!8m2!3d50.3459247!4d30.4206341!16s%2Fg%2F11vhg161ty!19sChIJ-TK7ROHJ1EARGcakVUJV_6c?authuser=0&hl=tr&rclk=1",
    "website_url": "",
    "rating_text": "4,9",
    "stars": null,
    "number_of_reviews": null,
    "price_level": "",
    "open_hours": "",
    "extraction_timestamp": "2025-06-08T03:34:40.753Z",
    "source_name": "google",
    "source_query": "Irrigation Equipment",
    "source_country": "UA",
    "country": "Ukraine",
    "state": "Kyivska oblast",
    "city": "Chabany"
  },
  {
    "source_id": "ChIJmcnHD2vJ1EARaLawr8CcSJs",
    "name": "Зоомаркет MasterZoo",
    "category": "Зоомаркет MasterZoo",
    "formatted_address": "5,0(8)",
    "phone_number": "+380979065529",
    "source_url": "https://www.google.com/maps/place/%D0%97%D0%BE%D0%BE%D0%BC%D0%B0%D1%80%D0%BA%D0%B5%D1%82+MasterZoo/data=!4m7!3m6!1s0x40d4c96b0fc7c999:0x9b489cc0afb0b668!8m2!3d50.340302!4d30.4249734!16s%2Fg%2F11vqhprw7p!19sChIJmcnHD2vJ1EARaLawr8CcSJs?authuser=0&hl=tr&rclk=1",
    "website_url": "",
    "rating_text": "5,0",
    "stars": null,
    "number_of_reviews": null,
    "price_level": "",
    "open_hours": "",
    "extraction_timestamp": "2025-06-08T03:34:40.782Z",
    "source_name": "google",
    "source_query": "Irrigation Equipment",
    "source_country": "UA",
    "country": "Ukraine",
    "state": "Kyivska oblast",
    "city": "Chabany"
  },
  {
    "source_id": "ChIJ-6_tcyjJ1EARiwrttA4fg2c",
    "name": "Sadovyy Tsentr Ahrostylʹ",
    "category": "Sadovyy Tsentr Ahrostylʹ",
    "formatted_address": "5,0(2)",
    "phone_number": "+380987014141",
    "source_url": "https://www.google.com/maps/place/Sadovyy+Tsentr+Ahrostyl%CA%B9/data=!4m7!3m6!1s0x40d4c92873edaffb:0x67831f0eb4ed0a8b!8m2!3d50.3460751!4d30.4206138!16s%2Fg%2F11vzrzrz90!19sChIJ-6_tcyjJ1EARiwrttA4fg2c?authuser=0&hl=tr&rclk=1",
    "website_url": "",
    "rating_text": "5,0",
    "stars": null,
    "number_of_reviews": null,
    "price_level": "",
    "open_hours": "",
    "extraction_timestamp": "2025-06-08T03:34:40.784Z",
    "source_name": "google",
    "source_query": "Irrigation Equipment",
    "source_country": "UA",
    "country": "Ukraine",
    "state": "Kyivska oblast",
    "city": "Chabany"
  },
  {
    "source_id": "ChIJbd9GuSjI1EAR6QclizXC3mY",
    "name": "Магазин продуктов",
    "category": "Магазин продуктов",
    "formatted_address": "4,3(104)",
    "phone_number": "",
    "source_url": "https://www.google.com/maps/place/%D0%9C%D0%B0%D0%B3%D0%B0%D0%B7%D0%B8%D0%BD+%D0%BF%D1%80%D0%BE%D0%B4%D1%83%D0%BA%D1%82%D0%BE%D0%B2/data=!4m7!3m6!1s0x40d4c828b946df6d:0x66dec2358b2507e9!8m2!3d50.3392064!4d30.4229611!16s%2Fg%2F12m985m8h!19sChIJbd9GuSjI1EAR6QclizXC3mY?authuser=0&hl=tr&rclk=1",
    "website_url": "",
    "rating_text": "4,3",
    "stars": null,
    "number_of_reviews": null,
    "price_level": "",
    "open_hours": "",
    "extraction_timestamp": "2025-06-08T03:34:40.785Z",
    "source_name": "google",
    "source_query": "Irrigation Equipment",
    "source_country": "UA",
    "country": "Ukraine",
    "state": "Kyivska oblast",
    "city": "Chabany"
  },
  {
    "source_id": "ChIJAQCbFy7I1EARIuEvFQrn7TY",
    "name": "Сантехник маркет",
    "category": "Сантехник маркет",
    "formatted_address": "Yapı Malzemeleri Mağazası · Mashynobudivna St, 1Kapalı ⋅ Açılış zamanı: Pzt 10:00 · +380 97 227 1800",
    "phone_number": "+380972271800",
    "source_url": "https://www.google.com/maps/place/%D0%A1%D0%B0%D0%BD%D1%82%D0%B5%D1%85%D0%BD%D0%B8%D0%BA+%D0%BC%D0%B0%D1%80%D0%BA%D0%B5%D1%82/data=!4m7!3m6!1s0x40d4c82e179b0001:0x36ede70a152fe122!8m2!3d50.3455298!4d30.4265575!16s%2Fg%2F11hdy2f01_!19sChIJAQCbFy7I1EARIuEvFQrn7TY?authuser=0&hl=tr&rclk=1",
    "website_url": "",
    "rating_text": "",
    "stars": null,
    "number_of_reviews": null,
    "price_level": "",
    "open_hours": "",
    "extraction_timestamp": "2025-06-08T03:34:40.786Z",
    "source_name": "google",
    "source_query": "Irrigation Equipment",
    "source_country": "UA",
    "country": "Ukraine",
    "state": "Kyivska oblast",
    "city": "Chabany"
  },
  {
    "source_id": "ChIJc5sHc7m31EARpitZapEeuiY",
    "name": "AutoBaza | База Автозвуку",
    "category": "AutoBaza | База Автозвуку",
    "formatted_address": "4,4(1.079)",
    "phone_number": "+380673989191",
    "source_url": "https://www.google.com/maps/place/AutoBaza+%7C+%D0%91%D0%B0%D0%B7%D0%B0+%D0%90%D0%B2%D1%82%D0%BE%D0%B7%D0%B2%D1%83%D0%BA%D1%83/data=!4m7!3m6!1s0x40d4b7b973079b73:0x26ba1e916a592ba6!8m2!3d50.3370058!4d30.4077949!16s%2Fg%2F11h07pdqcz!19sChIJc5sHc7m31EARpitZapEeuiY?authuser=0&hl=tr&rclk=1",
    "website_url": "",
    "rating_text": "4,4",
    "stars": null,
    "number_of_reviews": null,
    "price_level": "",
    "open_hours": "",
    "extraction_timestamp": "2025-06-08T03:34:40.790Z",
    "source_name": "google",
    "source_query": "Irrigation Equipment",
    "source_country": "UA",
    "country": "Ukraine",
    "state": "Kyivska oblast",
    "city": "Chabany"
  },
  {
    "source_id": "ChIJN7MotkTJ1EAR5YcT3W6B1KE",
    "name": "ROZETKA",
    "category": "ROZETKA",
    "formatted_address": "4,1(64)",
    "phone_number": "",
    "source_url": "https://www.google.com/maps/place/ROZETKA/data=!4m7!3m6!1s0x40d4c944b628b337:0xa1d4816edd1387e5!8m2!3d50.3463776!4d30.4209048!16s%2Fg%2F11rc7rdg2g!19sChIJN7MotkTJ1EAR5YcT3W6B1KE?authuser=0&hl=tr&rclk=1",
    "website_url": "",
    "rating_text": "4,1",
    "stars": null,
    "number_of_reviews": null,
    "price_level": "",
    "open_hours": "",
    "extraction_timestamp": "2025-06-08T03:34:40.791Z",
    "source_name": "google",
    "source_query": "Irrigation Equipment",
    "source_country": "UA",
    "country": "Ukraine",
    "state": "Kyivska oblast",
    "city": "Chabany"
  },
  {
    "source_id": "ChIJrUuuQjLI1EARkgPqjBCvm5I",
    "name": "MegaMarket Hatne",
    "category": "MegaMarket Hatne",
    "formatted_address": "4,5(8.266)",
    "phone_number": "",
    "source_url": "https://www.google.com/maps/place/MegaMarket+Hatne/data=!4m7!3m6!1s0x40d4c83242ae4bad:0x929baf108cea0392!8m2!3d50.3481362!4d30.4206042!16s%2Fg%2F11c744_s2r!19sChIJrUuuQjLI1EARkgPqjBCvm5I?authuser=0&hl=tr&rclk=1",
    "website_url": "",
    "rating_text": "4,5",
    "stars": null,
    "number_of_reviews": null,
    "price_level": "",
    "open_hours": "",
    "extraction_timestamp": "2025-06-08T03:34:40.792Z",
    "source_name": "google",
    "source_query": "Irrigation Equipment",
    "source_country": "UA",
    "country": "Ukraine",
    "state": "Kyivska oblast",
    "city": "Chabany"
  },
  {
    "source_id": "ChIJSxG0MxvP1EARxUIhUeX02Xo",
    "name": "Садовый центр \"НАТАЛИС\" по Одесской трассе",
    "category": "Садовый центр \"НАТАЛИС\" по Одесской трассе",
    "formatted_address": "4,5(127)",
    "phone_number": "+380501820777",
    "source_url": "https://www.google.com/maps/place/%D0%A1%D0%B0%D0%B4%D0%BE%D0%B2%D1%8B%D0%B9+%D1%86%D0%B5%D0%BD%D1%82%D1%80+%22%D0%9D%D0%90%D0%A2%D0%90%D0%9B%D0%98%D0%A1%22+%D0%BF%D0%BE+%D0%9E%D0%B4%D0%B5%D1%81%D1%81%D0%BA%D0%BE%D0%B9+%D1%82%D1%80%D0%B0%D1%81%D1%81%D0%B5/data=!4m7!3m6!1s0x40d4cf1b33b4114b:0x7ad9f4e5512142c5!8m2!3d50.3498683!4d30.4269035!16s%2Fg%2F11h3gpr93j!19sChIJSxG0MxvP1EARxUIhUeX02Xo?authuser=0&hl=tr&rclk=1",
    "website_url": "",
    "rating_text": "4,5",
    "stars": null,
    "number_of_reviews": null,
    "price_level": "",
    "open_hours": "",
    "extraction_timestamp": "2025-06-08T03:34:40.793Z",
    "source_name": "google",
    "source_query": "Irrigation Equipment",
    "source_country": "UA",
    "country": "Ukraine",
    "state": "Kyivska oblast",
    "city": "Chabany"
  },
  {
    "source_id": "ChIJRwLOvCXI1EARSnqdwhm1sP8",
    "name": "Dobri Produkty",
    "category": "Dobri Produkty",
    "formatted_address": "4,2(23)",
    "phone_number": "+380445260605",
    "source_url": "https://www.google.com/maps/place/Dobri+Produkty/data=!4m7!3m6!1s0x40d4c825bcce0247:0xffb0b519c29d7a4a!8m2!3d50.3379891!4d30.4330892!16s%2Fg%2F11c609699q!19sChIJRwLOvCXI1EARSnqdwhm1sP8?authuser=0&hl=tr&rclk=1",
    "website_url": "",
    "rating_text": "4,2",
    "stars": null,
    "number_of_reviews": null,
    "price_level": "",
    "open_hours": "",
    "extraction_timestamp": "2025-06-08T03:34:40.794Z",
    "source_name": "google",
    "source_query": "Irrigation Equipment",
    "source_country": "UA",
    "country": "Ukraine",
    "state": "Kyivska oblast",
    "city": "Chabany"
  },
  {
    "source_id": "ChIJu9glpS_P1EARQdPrnCRtHD4",
    "name": "Ecolite - монтаж систем опалення, теплові насоси",
    "category": "Ecolite - монтаж систем опалення, теплові насоси",
    "formatted_address": "Ecolite - монтаж систем опалення, теплові насоси",
    "phone_number": "+380996766077",
    "source_url": "https://www.google.com/maps/place/Ecolite+-+%D0%BC%D0%BE%D0%BD%D1%82%D0%B0%D0%B6+%D1%81%D0%B8%D1%81%D1%82%D0%B5%D0%BC+%D0%BE%D0%BF%D0%B0%D0%BB%D0%B5%D0%BD%D0%BD%D1%8F,+%D1%82%D0%B5%D0%BF%D0%BB%D0%BE%D0%B2%D1%96+%D0%BD%D0%B0%D1%81%D0%BE%D1%81%D0%B8/data=!4m7!3m6!1s0x40d4cf2fa525d8bb:0x3e1c6d249cebd341!8m2!3d50.4107069!4d30.5067829!16s%2Fg%2F11c6cpnkvq!19sChIJu9glpS_P1EARQdPrnCRtHD4?authuser=0&hl=tr&rclk=1",
    "website_url": "",
    "rating_text": "4,3",
    "stars": null,
    "number_of_reviews": null,
    "price_level": "",
    "open_hours": "",
    "extraction_timestamp": "2025-06-08T03:34:40.795Z",
    "source_name": "google",
    "source_query": "Irrigation Equipment",
    "source_country": "UA",
    "country": "Ukraine",
    "state": "Kyivska oblast",
    "city": "Chabany"
  },
  {
    "source_id": "ChIJlf8KTInJ1EARVa2l9X6ROvY",
    "name": "Hunter Автополив Украина",
    "category": "Hunter Автополив Украина",
    "formatted_address": "5,0(3)",
    "phone_number": "+380509998688",
    "source_url": "https://www.google.com/maps/place/Hunter+%D0%90%D0%B2%D1%82%D0%BE%D0%BF%D0%BE%D0%BB%D0%B8%D0%B2+%D0%A3%D0%BA%D1%80%D0%B0%D0%B8%D0%BD%D0%B0/data=!4m7!3m6!1s0x40d4c9894c0aff95:0xf63a917ef5a5ad55!8m2!3d50.4177962!4d30.4415501!16s%2Fg%2F11ngtbpk5k!19sChIJlf8KTInJ1EARVa2l9X6ROvY?authuser=0&hl=tr&rclk=1",
    "website_url": "",
    "rating_text": "5,0",
    "stars": null,
    "number_of_reviews": null,
    "price_level": "",
    "open_hours": "",
    "extraction_timestamp": "2025-06-08T03:34:40.796Z",
    "source_name": "google",
    "source_query": "Irrigation Equipment",
    "source_country": "UA",
    "country": "Ukraine",
    "state": "Kyivska oblast",
    "city": "Chabany"
  },
  {
    "source_id": "ChIJqb5v6dfI1EAR3fS39r-pFsg",
    "name": "Термос - системи опалення",
    "category": "Термос - системи опалення",
    "formatted_address": "4,5(15)",
    "phone_number": "+380631558881",
    "source_url": "https://www.google.com/maps/place/%D0%A2%D0%B5%D1%80%D0%BC%D0%BE%D1%81+-+%D1%81%D0%B8%D1%81%D1%82%D0%B5%D0%BC%D0%B8+%D0%BE%D0%BF%D0%B0%D0%BB%D0%B5%D0%BD%D0%BD%D1%8F/data=!4m7!3m6!1s0x40d4c8d7e96fbea9:0xc816a9bff6b7f4dd!8m2!3d50.3985017!4d30.4786071!16s%2Fg%2F1tj5jnz6!19sChIJqb5v6dfI1EAR3fS39r-pFsg?authuser=0&hl=tr&rclk=1",
    "website_url": "",
    "rating_text": "4,5",
    "stars": null,
    "number_of_reviews": null,
    "price_level": "",
    "open_hours": "",
    "extraction_timestamp": "2025-06-08T03:34:40.797Z",
    "source_name": "google",
    "source_query": "Irrigation Equipment",
    "source_country": "UA",
    "country": "Ukraine",
    "state": "Kyivska oblast",
    "city": "Chabany"
  },
  {
    "source_id": "ChIJueLpu8bL1EARiOE5udrs5a0",
    "name": "ГАЗПІКСЕРВІС | ГПС | інженерні роботи",
    "category": "ГАЗПІКСЕРВІС | ГПС | інженерні роботи",
    "formatted_address": "4,2(36)",
    "phone_number": "+380673015475",
    "source_url": "https://www.google.com/maps/place/%D0%93%D0%90%D0%97%D0%9F%D0%86%D0%9A%D0%A1%D0%95%D0%A0%D0%92%D0%86%D0%A1+%7C+%D0%93%D0%9F%D0%A1+%7C+%D1%96%D0%BD%D0%B6%D0%B5%D0%BD%D0%B5%D1%80%D0%BD%D1%96+%D1%80%D0%BE%D0%B1%D0%BE%D1%82%D0%B8/data=!4m7!3m6!1s0x40d4cbc6bbe9e2b9:0xade5ecdab939e188!8m2!3d50.3667924!4d30.5489202!16s%2Fg%2F11bwqpw45x!19sChIJueLpu8bL1EARiOE5udrs5a0?authuser=0&hl=tr&rclk=1",
    "website_url": "",
    "rating_text": "4,2",
    "stars": null,
    "number_of_reviews": null,
    "price_level": "",
    "open_hours": "",
    "extraction_timestamp": "2025-06-08T03:34:40.798Z",
    "source_name": "google",
    "source_query": "Irrigation Equipment",
    "source_country": "UA",
    "country": "Ukraine",
    "state": "Kyivska oblast",
    "city": "Chabany"
  },
  {
    "source_id": "ChIJWxt4AlHO1EARN6oJWrfJgMc",
    "name": "Tov \"Mr\"",
    "category": "Tov \"Mr\"",
    "formatted_address": "4,5(32)",
    "phone_number": "+380995346767",
    "source_url": "https://www.google.com/maps/place/Tov+%22Mr%22/data=!4m7!3m6!1s0x40d4ce5102781b5b:0xc780c9b75a09aa37!8m2!3d50.394445!4d30.481944!16s%2Fg%2F1tfqpggj!19sChIJWxt4AlHO1EARN6oJWrfJgMc?authuser=0&hl=tr&rclk=1",
    "website_url": "",
    "rating_text": "4,5",
    "stars": null,
    "number_of_reviews": null,
    "price_level": "",
    "open_hours": "",
    "extraction_timestamp": "2025-06-08T03:34:40.799Z",
    "source_name": "google",
    "source_query": "Irrigation Equipment",
    "source_country": "UA",
    "country": "Ukraine",
    "state": "Kyivska oblast",
    "city": "Chabany"
  },
  {
    "source_id": "ChIJkXv1l6XF1EARB2BiserVpEA",
    "name": "Cascade Aqua - Ландшафтная Компания",
    "category": "Cascade Aqua - Ландшафтная Компания",
    "formatted_address": "5,0(3)",
    "phone_number": "+380674031580",
    "source_url": "https://www.google.com/maps/place/Cascade+Aqua+-+%D0%9B%D0%B0%D0%BD%D0%B4%D1%88%D0%B0%D1%84%D1%82%D0%BD%D0%B0%D1%8F+%D0%9A%D0%BE%D0%BC%D0%BF%D0%B0%D0%BD%D0%B8%D1%8F/data=!4m7!3m6!1s0x40d4c5a597f57b91:0x40a4d5eab1626007!8m2!3d50.4285014!4d30.6698685!16s%2Fg%2F11gpn8vbph!19sChIJkXv1l6XF1EARB2BiserVpEA?authuser=0&hl=tr&rclk=1",
    "website_url": "",
    "rating_text": "5,0",
    "stars": null,
    "number_of_reviews": null,
    "price_level": "",
    "open_hours": "",
    "extraction_timestamp": "2025-06-08T03:34:40.800Z",
    "source_name": "google",
    "source_query": "Irrigation Equipment",
    "source_country": "UA",
    "country": "Ukraine",
    "state": "Kyivska oblast",
    "city": "Chabany"
  },
  {
    "source_id": "ChIJT0hf4M3I1EARObs3V3rCMZk",
    "name": "WATTON",
    "category": "WATTON",
    "formatted_address": "4,9(18)",
    "phone_number": "+380444943737",
    "source_url": "https://www.google.com/maps/place/WATTON/data=!4m7!3m6!1s0x40d4c8cde05f484f:0x9931c27a5737bb39!8m2!3d50.3982963!4d30.4979974!16s%2Fg%2F11g9dj5rdw!19sChIJT0hf4M3I1EARObs3V3rCMZk?authuser=0&hl=tr&rclk=1",
    "website_url": "",
    "rating_text": "4,9",
    "stars": null,
    "number_of_reviews": null,
    "price_level": "",
    "open_hours": "",
    "extraction_timestamp": "2025-06-08T03:34:40.800Z",
    "source_name": "google",
    "source_query": "Irrigation Equipment",
    "source_country": "UA",
    "country": "Ukraine",
    "state": "Kyivska oblast",
    "city": "Chabany"
  },
  {
    "source_id": "ChIJq6o6wk_P1EARgGNtmN_ed1E",
    "name": "Akvasfera",
    "category": "Akvasfera",
    "formatted_address": "4,7(29)",
    "phone_number": "+380960360436",
    "source_url": "https://www.google.com/maps/place/Akvasfera/data=!4m7!3m6!1s0x40d4cf4fc23aaaab:0x5177dedf986d6380!8m2!3d50.4022777!4d30.537311!16s%2Fg%2F11f54sb897!19sChIJq6o6wk_P1EARgGNtmN_ed1E?authuser=0&hl=tr&rclk=1",
    "website_url": "",
    "rating_text": "4,7",
    "stars": null,
    "number_of_reviews": null,
    "price_level": "",
    "open_hours": "",
    "extraction_timestamp": "2025-06-08T03:34:40.801Z",
    "source_name": "google",
    "source_query": "Irrigation Equipment",
    "source_country": "UA",
    "country": "Ukraine",
    "state": "Kyivska oblast",
    "city": "Chabany"
  },
  {
    "source_id": "ChIJa_z4xgde3EAR6k2thGnYLkg",
    "name": "BNV Ukraine Київ - Басейни для всієї родини",
    "category": "BNV Ukraine Київ - Басейни для всієї родини",
    "formatted_address": "4,5(43)",
    "phone_number": "+380676178075",
    "source_url": "https://www.google.com/maps/place/BNV+Ukraine+%D0%9A%D0%B8%D1%97%D0%B2+-+%D0%91%D0%B0%D1%81%D0%B5%D0%B9%D0%BD%D0%B8+%D0%B4%D0%BB%D1%8F+%D0%B2%D1%81%D1%96%D1%94%D1%97+%D1%80%D0%BE%D0%B4%D0%B8%D0%BD%D0%B8/data=!4m7!3m6!1s0x40dc5e07c6f8fc6b:0x482ed86984ad4dea!8m2!3d50.3860634!4d30.4379579!16s%2Fg%2F1tgw8f7v!19sChIJa_z4xgde3EAR6k2thGnYLkg?authuser=0&hl=tr&rclk=1",
    "website_url": "",
    "rating_text": "4,5",
    "stars": null,
    "number_of_reviews": null,
    "price_level": "",
    "open_hours": "",
    "extraction_timestamp": "2025-06-08T03:34:40.803Z",
    "source_name": "google",
    "source_query": "Irrigation Equipment",
    "source_country": "UA",
    "country": "Ukraine",
    "state": "Kyivska oblast",
    "city": "Chabany"
  },
  {
    "source_id": "ChIJvQLjeG1YGm8RTwNLg-frtjY",
    "name": "\"WELLGOOD\" - твій друг у світі ремонту. Повна комплектація. Плитка, сантехніка, освітлення та водопостачання.",
    "category": "\"WELLGOOD\" - твій друг у світі ремонту. Повна комплектація. Плитка, сантехніка, освітлення та водопостачання.",
    "formatted_address": "\"WELLGOOD\" - твій друг у світі ремонту. Повна комплектація. Плитка, сантехніка, освітлення та водопостачання.",
    "phone_number": "+380931417722",
    "source_url": "https://www.google.com/maps/place/%22WELLGOOD%22+-+%D1%82%D0%B2%D1%96%D0%B9+%D0%B4%D1%80%D1%83%D0%B3+%D1%83+%D1%81%D0%B2%D1%96%D1%82%D1%96+%D1%80%D0%B5%D0%BC%D0%BE%D0%BD%D1%82%D1%83.+%D0%9F%D0%BE%D0%B2%D0%BD%D0%B0+%D0%BA%D0%BE%D0%BC%D0%BF%D0%BB%D0%B5%D0%BA%D1%82%D0%B0%D1%86%D1%96%D1%8F.+%D0%9F%D0%BB%D0%B8%D1%82%D0%BA%D0%B0,+%D1%81%D0%B0%D0%BD%D1%82%D0%B5%D1%85%D0%BD%D1%96%D0%BA%D0%B0,+%D0%BE%D1%81%D0%B2%D1%96%D1%82%D0%BB%D0%B5%D0%BD%D0%BD%D1%8F+%D1%82%D0%B0+%D0%B2%D0%BE%D0%B4%D0%BE%D0%BF%D0%BE%D1%81%D1%82%D0%B0%D1%87%D0%B0%D0%BD%D0%BD%D1%8F./data=!4m7!3m6!1s0x6f1a586d78e302bd:0x36b6ebe7834b034f!8m2!3d50.4020355!4d30.5326906!16s%2Fg%2F11yczsk2vh!19sChIJvQLjeG1YGm8RTwNLg-frtjY?authuser=0&hl=tr&rclk=1",
    "website_url": "",
    "rating_text": "",
    "stars": null,
    "number_of_reviews": null,
    "price_level": "",
    "open_hours": "",
    "extraction_timestamp": "2025-06-08T03:34:40.803Z",
    "source_name": "google",
    "source_query": "Irrigation Equipment",
    "source_country": "UA",
    "country": "Ukraine",
    "state": "Kyivska oblast",
    "city": "Chabany"
  },
  {
    "source_id": "ChIJ2a5wNgTJ1EARjAxRU3EDvIQ",
    "name": "Агромат, плитка та сантехніка",
    "category": "Агромат, плитка та сантехніка",
    "formatted_address": "Агромат, плитка та сантехніка",
    "phone_number": "+380800303019",
    "source_url": "https://www.google.com/maps/place/%D0%90%D0%B3%D1%80%D0%BE%D0%BC%D0%B0%D1%82,+%D0%BF%D0%BB%D0%B8%D1%82%D0%BA%D0%B0+%D1%82%D0%B0+%D1%81%D0%B0%D0%BD%D1%82%D0%B5%D1%85%D0%BD%D1%96%D0%BA%D0%B0/data=!4m7!3m6!1s0x40d4c9043670aed9:0x84bc037153510c8c!8m2!3d50.3823338!4d30.4408851!16s%2Fg%2F1tqcjqx7!19sChIJ2a5wNgTJ1EARjAxRU3EDvIQ?authuser=0&hl=tr&rclk=1",
    "website_url": "",
    "rating_text": "4,4",
    "stars": null,
    "number_of_reviews": null,
    "price_level": "",
    "open_hours": "",
    "extraction_timestamp": "2025-06-08T03:34:40.804Z",
    "source_name": "google",
    "source_query": "Irrigation Equipment",
    "source_country": "UA",
    "country": "Ukraine",
    "state": "Kyivska oblast",
    "city": "Chabany"
  }
]
