[
  {
    "source_id": "ChIJb1saGWbZKkcRSOcJHvO9rb8",
    "name": "Santekhmarket",
    "category": "Santekhmarket",
    "formatted_address": "4,7(197)",
    "phone_number": "",
    "source_url": "https://www.google.com/maps/place/Santekhmarket/data=!4m7!3m6!1s0x472ad966191a5b6f:0xbfadbdf31e09e748!8m2!3d50.7826358!4d30.3027706!16s%2Fg%2F11fptyfxgc!19sChIJb1saGWbZKkcRSOcJHvO9rb8?authuser=0&hl=tr&rclk=1",
    "website_url": "",
    "rating_text": "4,7",
    "stars": null,
    "number_of_reviews": null,
    "price_level": "",
    "open_hours": "",
    "extraction_timestamp": "2025-06-08T03:30:11.676Z",
    "source_name": "google",
    "source_query": "Irrigation Equipment",
    "source_country": "UA",
    "country": "Ukraine",
    "state": "Kyivska oblast",
    "city": "Dymer"
  },
  {
    "source_id": "ChIJTZut8EnYKkcRLPvw9FYpUuY",
    "name": "TDS",
    "category": "TDS",
    "formatted_address": "4,4(307)",
    "phone_number": "+380501082818",
    "source_url": "https://www.google.com/maps/place/TDS/data=!4m7!3m6!1s0x472ad849f0ad9b4d:0xe6522956f4f0fb2c!8m2!3d50.7676169!4d30.3246029!16s%2Fg%2F11f0wgwj7n!19sChIJTZut8EnYKkcRLPvw9FYpUuY?authuser=0&hl=tr&rclk=1",
    "website_url": "",
    "rating_text": "4,4",
    "stars": null,
    "number_of_reviews": null,
    "price_level": "",
    "open_hours": "",
    "extraction_timestamp": "2025-06-08T03:30:11.680Z",
    "source_name": "google",
    "source_query": "Irrigation Equipment",
    "source_country": "UA",
    "country": "Ukraine",
    "state": "Kyivska oblast",
    "city": "Dymer"
  },
  {
    "source_id": "ChIJ60XEpQbQ1EARVLf9IomIVYg",
    "name": "Poliv UA",
    "category": "Poliv UA",
    "formatted_address": "4,8(64)",
    "phone_number": "+380443379900",
    "source_url": "https://www.google.com/maps/place/Poliv+UA/data=!4m7!3m6!1s0x40d4d006a5c445eb:0x8855888922fdb754!8m2!3d50.4646434!4d30.6255633!16s%2Fg%2F11clsyjy7n!19sChIJ60XEpQbQ1EARVLf9IomIVYg?authuser=0&hl=tr&rclk=1",
    "website_url": "",
    "rating_text": "4,8",
    "stars": null,
    "number_of_reviews": null,
    "price_level": "",
    "open_hours": "",
    "extraction_timestamp": "2025-06-08T03:30:11.682Z",
    "source_name": "google",
    "source_query": "Irrigation Equipment",
    "source_country": "UA",
    "country": "Ukraine",
    "state": "Kyivska oblast",
    "city": "Dymer"
  },
  {
    "source_id": "ChIJYyU9lq_N1EARqoG8SYko8go",
    "name": "Лайф Гарден",
    "category": "Лайф Гарден",
    "formatted_address": "3,9(7)",
    "phone_number": "+380503719090",
    "source_url": "https://www.google.com/maps/place/%D0%9B%D0%B0%D0%B9%D1%84+%D0%93%D0%B0%D1%80%D0%B4%D0%B5%D0%BD/data=!4m7!3m6!1s0x40d4cdaf963d2563:0xaf2288949bc81aa!8m2!3d50.45748!4d30.3824706!16s%2Fg%2F11gr60b225!19sChIJYyU9lq_N1EARqoG8SYko8go?authuser=0&hl=tr&rclk=1",
    "website_url": "",
    "rating_text": "3,9",
    "stars": null,
    "number_of_reviews": null,
    "price_level": "",
    "open_hours": "",
    "extraction_timestamp": "2025-06-08T03:30:11.684Z",
    "source_name": "google",
    "source_query": "Irrigation Equipment",
    "source_country": "UA",
    "country": "Ukraine",
    "state": "Kyivska oblast",
    "city": "Dymer"
  },
  {
    "source_id": "ChIJE60f2DPP1EARCqjSrjIeXBw",
    "name": "СпецПоливСервіс",
    "category": "СпецПоливСервіс",
    "formatted_address": "5,0(17)",
    "phone_number": "+380970822608",
    "source_url": "https://www.google.com/maps/place/%D0%A1%D0%BF%D0%B5%D1%86%D0%9F%D0%BE%D0%BB%D0%B8%D0%B2%D0%A1%D0%B5%D1%80%D0%B2%D1%96%D1%81/data=!4m7!3m6!1s0x40d4cf33d81fad13:0x1c5c1e32aed2a80a!8m2!3d50.463344!4d30.589573!16s%2Fg%2F11h0trxk1!19sChIJE60f2DPP1EARCqjSrjIeXBw?authuser=0&hl=tr&rclk=1",
    "website_url": "",
    "rating_text": "5,0",
    "stars": null,
    "number_of_reviews": null,
    "price_level": "",
    "open_hours": "",
    "extraction_timestamp": "2025-06-08T03:30:11.704Z",
    "source_name": "google",
    "source_query": "Irrigation Equipment",
    "source_country": "UA",
    "country": "Ukraine",
    "state": "Kyivska oblast",
    "city": "Dymer"
  },
  {
    "source_id": "ChIJPdetoi3ZKkcRt0QOXv8sMJ4",
    "name": "Pylomaterialy",
    "category": "Pylomaterialy",
    "formatted_address": "5,0(3)",
    "phone_number": "+380983762764",
    "source_url": "https://www.google.com/maps/place/Pylomaterialy/data=!4m7!3m6!1s0x472ad92da2add73d:0x9e302cff5e0e44b7!8m2!3d50.7701154!4d30.3239219!16s%2Fg%2F11rwwbt7yb!19sChIJPdetoi3ZKkcRt0QOXv8sMJ4?authuser=0&hl=tr&rclk=1",
    "website_url": "",
    "rating_text": "5,0",
    "stars": null,
    "number_of_reviews": null,
    "price_level": "",
    "open_hours": "",
    "extraction_timestamp": "2025-06-08T03:30:11.705Z",
    "source_name": "google",
    "source_query": "Irrigation Equipment",
    "source_country": "UA",
    "country": "Ukraine",
    "state": "Kyivska oblast",
    "city": "Dymer"
  },
  {
    "source_id": "ChIJw5aZq6XZKkcRjTgVFZA7Wcs",
    "name": "Центр видачі замовлень ЕПІЦЕНТР.ua",
    "category": "Центр видачі замовлень ЕПІЦЕНТР.ua",
    "formatted_address": "4,7(3)",
    "phone_number": "+380800202727",
    "source_url": "https://www.google.com/maps/place/%D0%A6%D0%B5%D0%BD%D1%82%D1%80+%D0%B2%D0%B8%D0%B4%D0%B0%D1%87%D1%96+%D0%B7%D0%B0%D0%BC%D0%BE%D0%B2%D0%BB%D0%B5%D0%BD%D1%8C+%D0%95%D0%9F%D0%86%D0%A6%D0%95%D0%9D%D0%A2%D0%A0.ua/data=!4m7!3m6!1s0x472ad9a5ab9996c3:0xcb593b901515388d!8m2!3d50.7834327!4d30.3132437!16s%2Fg%2F11lcr1ywvl!19sChIJw5aZq6XZKkcRjTgVFZA7Wcs?authuser=0&hl=tr&rclk=1",
    "website_url": "",
    "rating_text": "4,7",
    "stars": null,
    "number_of_reviews": null,
    "price_level": "",
    "open_hours": "",
    "extraction_timestamp": "2025-06-08T03:30:11.707Z",
    "source_name": "google",
    "source_query": "Irrigation Equipment",
    "source_country": "UA",
    "country": "Ukraine",
    "state": "Kyivska oblast",
    "city": "Dymer"
  },
  {
    "source_id": "ChIJ51NCs-vZKkcRIhiXfUlsXFQ",
    "name": "ROZETKA",
    "category": "ROZETKA",
    "formatted_address": "4,3(12)",
    "phone_number": "",
    "source_url": "https://www.google.com/maps/place/ROZETKA/data=!4m7!3m6!1s0x472ad9ebb34253e7:0x545c6c497d971822!8m2!3d50.7740794!4d30.3229455!16s%2Fg%2F11l2hzlr4m!19sChIJ51NCs-vZKkcRIhiXfUlsXFQ?authuser=0&hl=tr&rclk=1",
    "website_url": "",
    "rating_text": "4,3",
    "stars": null,
    "number_of_reviews": null,
    "price_level": "",
    "open_hours": "",
    "extraction_timestamp": "2025-06-08T03:30:11.708Z",
    "source_name": "google",
    "source_query": "Irrigation Equipment",
    "source_country": "UA",
    "country": "Ukraine",
    "state": "Kyivska oblast",
    "city": "Dymer"
  },
  {
    "source_id": "ChIJTy5cz6_ZKkcRkBAaf3D5K9Y",
    "name": "Stav",
    "category": "Stav",
    "formatted_address": "4,6(89)",
    "phone_number": "",
    "source_url": "https://www.google.com/maps/place/Stav/data=!4m7!3m6!1s0x472ad9afcf5c2e4f:0xd62bf9707f1a1090!8m2!3d50.7828921!4d30.3242162!16s%2Fg%2F12vr7jm7v!19sChIJTy5cz6_ZKkcRkBAaf3D5K9Y?authuser=0&hl=tr&rclk=1",
    "website_url": "",
    "rating_text": "4,6",
    "stars": null,
    "number_of_reviews": null,
    "price_level": "",
    "open_hours": "",
    "extraction_timestamp": "2025-06-08T03:30:11.709Z",
    "source_name": "google",
    "source_query": "Irrigation Equipment",
    "source_country": "UA",
    "country": "Ukraine",
    "state": "Kyivska oblast",
    "city": "Dymer"
  },
  {
    "source_id": "ChIJZ7C2IK7ZKkcREkDfKAhYHTc",
    "name": "Магазин Рыбалки",
    "category": "Магазин Рыбалки",
    "formatted_address": "4,0(157)",
    "phone_number": "+380679360030",
    "source_url": "https://www.google.com/maps/place/%D0%9C%D0%B0%D0%B3%D0%B0%D0%B7%D0%B8%D0%BD+%D0%A0%D1%8B%D0%B1%D0%B0%D0%BB%D0%BA%D0%B8/data=!4m7!3m6!1s0x472ad9ae20b6b067:0x371d580828df4012!8m2!3d50.7813673!4d30.3225844!16s%2Fg%2F11c59ssntr!19sChIJZ7C2IK7ZKkcREkDfKAhYHTc?authuser=0&hl=tr&rclk=1",
    "website_url": "",
    "rating_text": "4,0",
    "stars": null,
    "number_of_reviews": null,
    "price_level": "",
    "open_hours": "",
    "extraction_timestamp": "2025-06-08T03:30:11.710Z",
    "source_name": "google",
    "source_query": "Irrigation Equipment",
    "source_country": "UA",
    "country": "Ukraine",
    "state": "Kyivska oblast",
    "city": "Dymer"
  },
  {
    "source_id": "ChIJ7QlATTwzK0cR-ltAS_-wXb4",
    "name": "Dobryi Stil",
    "category": "Dobryi Stil",
    "formatted_address": "4,3(103)",
    "phone_number": "",
    "source_url": "https://www.google.com/maps/place/Dobryi+Stil/data=!4m7!3m6!1s0x472b333c4d4009ed:0xbe5db0ff4b405bfa!8m2!3d50.775605!4d30.323536!16s%2Fg%2F11h5vrptc8!19sChIJ7QlATTwzK0cR-ltAS_-wXb4?authuser=0&hl=tr&rclk=1",
    "website_url": "",
    "rating_text": "4,3",
    "stars": null,
    "number_of_reviews": null,
    "price_level": "",
    "open_hours": "",
    "extraction_timestamp": "2025-06-08T03:30:11.711Z",
    "source_name": "google",
    "source_query": "Irrigation Equipment",
    "source_country": "UA",
    "country": "Ukraine",
    "state": "Kyivska oblast",
    "city": "Dymer"
  },
  {
    "source_id": "ChIJZ8NusyjYKkcRSdYQzh9jBk0",
    "name": "Spozhyvche Tovarystvo Utf",
    "category": "Spozhyvche Tovarystvo Utf",
    "formatted_address": "4,0(69)",
    "phone_number": "+380444280028",
    "source_url": "https://www.google.com/maps/place/Spozhyvche+Tovarystvo+Utf/data=!4m7!3m6!1s0x472ad828b36ec367:0x4d06631fce10d649!8m2!3d50.7574011!4d30.34375!16s%2Fg%2F11b6dghmvg!19sChIJZ8NusyjYKkcRSdYQzh9jBk0?authuser=0&hl=tr&rclk=1",
    "website_url": "",
    "rating_text": "4,0",
    "stars": null,
    "number_of_reviews": null,
    "price_level": "",
    "open_hours": "",
    "extraction_timestamp": "2025-06-08T03:30:11.712Z",
    "source_name": "google",
    "source_query": "Irrigation Equipment",
    "source_country": "UA",
    "country": "Ukraine",
    "state": "Kyivska oblast",
    "city": "Dymer"
  },
  {
    "source_id": "ChIJiT115JjZKkcR51rNpbUrCLg",
    "name": "Fora",
    "category": "Fora",
    "formatted_address": "4,5(343)",
    "phone_number": "+380800301230",
    "source_url": "https://www.google.com/maps/place/Fora/data=!4m7!3m6!1s0x472ad998e4753d89:0xb8082bb5a5cd5ae7!8m2!3d50.779891!4d30.321387!16s%2Fg%2F11r3m3dwmg!19sChIJiT115JjZKkcR51rNpbUrCLg?authuser=0&hl=tr&rclk=1",
    "website_url": "",
    "rating_text": "4,5",
    "stars": null,
    "number_of_reviews": null,
    "price_level": "",
    "open_hours": "",
    "extraction_timestamp": "2025-06-08T03:30:11.713Z",
    "source_name": "google",
    "source_query": "Irrigation Equipment",
    "source_country": "UA",
    "country": "Ukraine",
    "state": "Kyivska oblast",
    "city": "Dymer"
  },
  {
    "source_id": "ChIJLasS2gDZKkcRNcLGb3oB5bM",
    "name": "Fora",
    "category": "Fora",
    "formatted_address": "4,3(179)",
    "phone_number": "+380800301230",
    "source_url": "https://www.google.com/maps/place/Fora/data=!4m7!3m6!1s0x472ad900da12ab2d:0xb3e5017a6fc6c235!8m2!3d50.784577!4d30.3025686!16s%2Fg%2F11hb3ttv_4!19sChIJLasS2gDZKkcRNcLGb3oB5bM?authuser=0&hl=tr&rclk=1",
    "website_url": "",
    "rating_text": "4,3",
    "stars": null,
    "number_of_reviews": null,
    "price_level": "",
    "open_hours": "",
    "extraction_timestamp": "2025-06-08T03:30:11.714Z",
    "source_name": "google",
    "source_query": "Irrigation Equipment",
    "source_country": "UA",
    "country": "Ukraine",
    "state": "Kyivska oblast",
    "city": "Dymer"
  }
]
