[
  {
    "source_id": "ChIJf-pdQqxV00ARkMunme4QYPM",
    "name": "Ниагара Трейд - системы отопления и сантехника",
    "category": "Ниагара Трейд - системы отопления и сантехника",
    "formatted_address": "4,4(20)",
    "phone_number": "+380950103468",
    "source_url": "https://www.google.com/maps/place/%D0%9D%D0%B8%D0%B0%D0%B3%D0%B0%D1%80%D0%B0+%D0%A2%D1%80%D0%B5%D0%B9%D0%B4+-+%D1%81%D0%B8%D1%81%D1%82%D0%B5%D0%BC%D1%8B+%D0%BE%D1%82%D0%BE%D0%BF%D0%BB%D0%B5%D0%BD%D0%B8%D1%8F+%D0%B8+%D1%81%D0%B0%D0%BD%D1%82%D0%B5%D1%85%D0%BD%D0%B8%D0%BA%D0%B0/data=!4m7!3m6!1s0x40d355ac425dea7f:0xf36010ee99a7cb90!8m2!3d50.0807405!4d29.9350904!16s%2Fg%2F11j54bdk3s!19sChIJf-pdQqxV00ARkMunme4QYPM?authuser=0&hl=tr&rclk=1",
    "website_url": "",
    "rating_text": "4,4",
    "stars": null,
    "number_of_reviews": null,
    "price_level": "",
    "open_hours": "",
    "extraction_timestamp": "2025-06-08T03:36:31.072Z",
    "source_name": "google",
    "source_query": "Irrigation Equipment",
    "source_country": "UA",
    "country": "Ukraine",
    "state": "Kyivska oblast",
    "city": "Fastiv Raion"
  },
  {
    "source_id": "ChIJn-d47iNV00ARU9xVc3Jn5kw",
    "name": "Агросвіт магазин насіння, добрив та засобів захисту рослин у Юнака",
    "category": "Агросвіт магазин насіння, добрив та засобів захисту рослин у Юнака",
    "formatted_address": "Агросвіт магазин насіння, добрив та засобів захисту рослин у Юнака",
    "phone_number": "+380972391155",
    "source_url": "https://www.google.com/maps/place/%D0%90%D0%B3%D1%80%D0%BE%D1%81%D0%B2%D1%96%D1%82+%D0%BC%D0%B0%D0%B3%D0%B0%D0%B7%D0%B8%D0%BD+%D0%BD%D0%B0%D1%81%D1%96%D0%BD%D0%BD%D1%8F,+%D0%B4%D0%BE%D0%B1%D1%80%D0%B8%D0%B2+%D1%82%D0%B0+%D0%B7%D0%B0%D1%81%D0%BE%D0%B1%D1%96%D0%B2+%D0%B7%D0%B0%D1%85%D0%B8%D1%81%D1%82%D1%83+%D1%80%D0%BE%D1%81%D0%BB%D0%B8%D0%BD+%D1%83+%D0%AE%D0%BD%D0%B0%D0%BA%D0%B0/data=!4m7!3m6!1s0x40d35523ee78e79f:0x4ce667727355dc53!8m2!3d50.0778089!4d29.911051!16s%2Fg%2F11rcfdp11k!19sChIJn-d47iNV00ARU9xVc3Jn5kw?authuser=0&hl=tr&rclk=1",
    "website_url": "",
    "rating_text": "5,0",
    "stars": null,
    "number_of_reviews": null,
    "price_level": "",
    "open_hours": "",
    "extraction_timestamp": "2025-06-08T03:36:31.074Z",
    "source_name": "google",
    "source_query": "Irrigation Equipment",
    "source_country": "UA",
    "country": "Ukraine",
    "state": "Kyivska oblast",
    "city": "Fastiv Raion"
  },
  {
    "source_id": "ChIJFSANCgBV00ARd9iB4lmGwpc",
    "name": "GWater - автомат питної води",
    "category": "GWater - автомат питної води",
    "formatted_address": "4,3(6)",
    "phone_number": "",
    "source_url": "https://www.google.com/maps/place/GWater+-+%D0%B0%D0%B2%D1%82%D0%BE%D0%BC%D0%B0%D1%82+%D0%BF%D0%B8%D1%82%D0%BD%D0%BE%D1%97+%D0%B2%D0%BE%D0%B4%D0%B8/data=!4m7!3m6!1s0x40d355000a0d2015:0x97c28659e281d877!8m2!3d50.0809749!4d29.901199!16s%2Fg%2F11wxhftbn0!19sChIJFSANCgBV00ARd9iB4lmGwpc?authuser=0&hl=tr&rclk=1",
    "website_url": "",
    "rating_text": "4,3",
    "stars": null,
    "number_of_reviews": null,
    "price_level": "",
    "open_hours": "",
    "extraction_timestamp": "2025-06-08T03:36:31.076Z",
    "source_name": "google",
    "source_query": "Irrigation Equipment",
    "source_country": "UA",
    "country": "Ukraine",
    "state": "Kyivska oblast",
    "city": "Fastiv Raion"
  },
  {
    "source_id": "ChIJH2FoLZ5V00AR77HH684_DfU",
    "name": "Santekh Market",
    "category": "Santekh Market",
    "formatted_address": "4,9(20)",
    "phone_number": "+380993523646",
    "source_url": "https://www.google.com/maps/place/Santekh+Market/data=!4m7!3m6!1s0x40d3559e2d68611f:0xf50d3fceebc7b1ef!8m2!3d50.0777282!4d29.9232258!16s%2Fg%2F11jn32psd9!19sChIJH2FoLZ5V00AR77HH684_DfU?authuser=0&hl=tr&rclk=1",
    "website_url": "",
    "rating_text": "4,9",
    "stars": null,
    "number_of_reviews": null,
    "price_level": "",
    "open_hours": "",
    "extraction_timestamp": "2025-06-08T03:36:31.078Z",
    "source_name": "google",
    "source_query": "Irrigation Equipment",
    "source_country": "UA",
    "country": "Ukraine",
    "state": "Kyivska oblast",
    "city": "Fastiv Raion"
  },
  {
    "source_id": "ChIJuU_uqGZV00ARYXo87t6mSY8",
    "name": "Lazurʹ",
    "category": "Lazurʹ",
    "formatted_address": "4,8(64)",
    "phone_number": "+380672385715",
    "source_url": "https://www.google.com/maps/place/Lazur%CA%B9/data=!4m7!3m6!1s0x40d35566a8ee4fb9:0x8f49a6deee3c7a61!8m2!3d50.0768857!4d29.9077895!16s%2Fg%2F11j495qmn2!19sChIJuU_uqGZV00ARYXo87t6mSY8?authuser=0&hl=tr&rclk=1",
    "website_url": "",
    "rating_text": "4,8",
    "stars": null,
    "number_of_reviews": null,
    "price_level": "",
    "open_hours": "",
    "extraction_timestamp": "2025-06-08T03:36:31.080Z",
    "source_name": "google",
    "source_query": "Irrigation Equipment",
    "source_country": "UA",
    "country": "Ukraine",
    "state": "Kyivska oblast",
    "city": "Fastiv Raion"
  },
  {
    "source_id": "ChIJAwPpNhtV00ARTOnYQBFZCOc",
    "name": "Vodoliy",
    "category": "Vodoliy",
    "formatted_address": "4,5(84)",
    "phone_number": "+380973000936",
    "source_url": "https://www.google.com/maps/place/Vodoliy/data=!4m7!3m6!1s0x40d3551b36e90303:0xe708591140d8e94c!8m2!3d50.0778952!4d29.9206728!16s%2Fg%2F11dyq2625w!19sChIJAwPpNhtV00ARTOnYQBFZCOc?authuser=0&hl=tr&rclk=1",
    "website_url": "",
    "rating_text": "4,5",
    "stars": null,
    "number_of_reviews": null,
    "price_level": "",
    "open_hours": "",
    "extraction_timestamp": "2025-06-08T03:36:31.081Z",
    "source_name": "google",
    "source_query": "Irrigation Equipment",
    "source_country": "UA",
    "country": "Ukraine",
    "state": "Kyivska oblast",
    "city": "Fastiv Raion"
  },
  {
    "source_id": "ChIJWWp9ewBV00ARTZ5Wur2POn4",
    "name": "Bud Mahazyn Inkubator",
    "category": "Bud Mahazyn Inkubator",
    "formatted_address": "5,0(2)",
    "phone_number": "+380630418494",
    "source_url": "https://www.google.com/maps/place/Bud+Mahazyn+Inkubator/data=!4m7!3m6!1s0x40d355007b7d6a59:0x7e3a8fbdba569e4d!8m2!3d50.0816772!4d29.9167277!16s%2Fg%2F11x07glvxk!19sChIJWWp9ewBV00ARTZ5Wur2POn4?authuser=0&hl=tr&rclk=1",
    "website_url": "",
    "rating_text": "5,0",
    "stars": null,
    "number_of_reviews": null,
    "price_level": "",
    "open_hours": "",
    "extraction_timestamp": "2025-06-08T03:36:31.083Z",
    "source_name": "google",
    "source_query": "Irrigation Equipment",
    "source_country": "UA",
    "country": "Ukraine",
    "state": "Kyivska oblast",
    "city": "Fastiv Raion"
  },
  {
    "source_id": "ChIJn7bhIa9V00ARC9p61520ilg",
    "name": "Budivelʹni Materialy",
    "category": "Budivelʹni Materialy",
    "formatted_address": "4,5(15)",
    "phone_number": "",
    "source_url": "https://www.google.com/maps/place/Budivel%CA%B9ni+Materialy/data=!4m7!3m6!1s0x40d355af21e1b69f:0x588ab49dd77ada0b!8m2!3d50.0721285!4d29.9460865!16s%2Fg%2F11byyjmztm!19sChIJn7bhIa9V00ARC9p61520ilg?authuser=0&hl=tr&rclk=1",
    "website_url": "",
    "rating_text": "4,5",
    "stars": null,
    "number_of_reviews": null,
    "price_level": "",
    "open_hours": "",
    "extraction_timestamp": "2025-06-08T03:36:31.083Z",
    "source_name": "google",
    "source_query": "Irrigation Equipment",
    "source_country": "UA",
    "country": "Ukraine",
    "state": "Kyivska oblast",
    "city": "Fastiv Raion"
  },
  {
    "source_id": "ChIJV0Vpbgmvc0ERLboN6-FJL0g",
    "name": "ATS",
    "category": "ATS",
    "formatted_address": "4,5(119)",
    "phone_number": "+380442902900",
    "source_url": "https://www.google.com/maps/place/ATS/data=!4m7!3m6!1s0x4173af096e694557:0x482f49e1eb0dba2d!8m2!3d50.2173169!4d30.2522621!16s%2Fg%2F11b5wknq5d!19sChIJV0Vpbgmvc0ERLboN6-FJL0g?authuser=0&hl=tr&rclk=1",
    "website_url": "",
    "rating_text": "4,5",
    "stars": null,
    "number_of_reviews": null,
    "price_level": "",
    "open_hours": "",
    "extraction_timestamp": "2025-06-08T03:36:31.084Z",
    "source_name": "google",
    "source_query": "Irrigation Equipment",
    "source_country": "UA",
    "country": "Ukraine",
    "state": "Kyivska oblast",
    "city": "Fastiv Raion"
  },
  {
    "source_id": "ChIJPU43dUxU00ART9fiN6RmHro",
    "name": "PJSC Fakel",
    "category": "PJSC Fakel",
    "formatted_address": "4,0(4)",
    "phone_number": "+380456566760",
    "source_url": "https://www.google.com/maps/place/PJSC+Fakel/data=!4m7!3m6!1s0x40d3544c75374e3d:0xba1e66a437e2d74f!8m2!3d50.0587028!4d29.9475359!16s%2Fg%2F11b6t336gx!19sChIJPU43dUxU00ART9fiN6RmHro?authuser=0&hl=tr&rclk=1",
    "website_url": "",
    "rating_text": "4,0",
    "stars": null,
    "number_of_reviews": null,
    "price_level": "",
    "open_hours": "",
    "extraction_timestamp": "2025-06-08T03:36:31.086Z",
    "source_name": "google",
    "source_query": "Irrigation Equipment",
    "source_country": "UA",
    "country": "Ukraine",
    "state": "Kyivska oblast",
    "city": "Fastiv Raion"
  },
  {
    "source_id": "ChIJL7UEQtdU00ARh162AHc7xQE",
    "name": "Produktovi Tovary",
    "category": "Produktovi Tovary",
    "formatted_address": "4,2(65)",
    "phone_number": "",
    "source_url": "https://www.google.com/maps/place/Produktovi+Tovary/data=!4m7!3m6!1s0x40d354d74204b52f:0x1c53b7700b65e87!8m2!3d50.0777664!4d29.8811874!16s%2Fg%2F11c59pkgjf!19sChIJL7UEQtdU00ARh162AHc7xQE?authuser=0&hl=tr&rclk=1",
    "website_url": "",
    "rating_text": "4,2",
    "stars": null,
    "number_of_reviews": null,
    "price_level": "",
    "open_hours": "",
    "extraction_timestamp": "2025-06-08T03:36:31.086Z",
    "source_name": "google",
    "source_query": "Irrigation Equipment",
    "source_country": "UA",
    "country": "Ukraine",
    "state": "Kyivska oblast",
    "city": "Fastiv Raion"
  },
  {
    "source_id": "ChIJKU0ERb1V00ARQM8TBioJUuc",
    "name": "БудЦентр",
    "category": "БудЦентр",
    "formatted_address": "5,0(3)",
    "phone_number": "+380977054033",
    "source_url": "https://www.google.com/maps/place/%D0%91%D1%83%D0%B4%D0%A6%D0%B5%D0%BD%D1%82%D1%80/data=!4m7!3m6!1s0x40d355bd45044d29:0xe752092a0613cf40!8m2!3d50.0773169!4d29.9098306!16s%2Fg%2F11n_zh9nmq!19sChIJKU0ERb1V00ARQM8TBioJUuc?authuser=0&hl=tr&rclk=1",
    "website_url": "",
    "rating_text": "5,0",
    "stars": null,
    "number_of_reviews": null,
    "price_level": "",
    "open_hours": "",
    "extraction_timestamp": "2025-06-08T03:36:31.087Z",
    "source_name": "google",
    "source_query": "Irrigation Equipment",
    "source_country": "UA",
    "country": "Ukraine",
    "state": "Kyivska oblast",
    "city": "Fastiv Raion"
  },
  {
    "source_id": "ChIJx8hcphdV00AR9UyXvyI5MNc",
    "name": "FastivFish (Aquarium Store)",
    "category": "FastivFish (Aquarium Store)",
    "formatted_address": "4,9(18)",
    "phone_number": "+380633207720",
    "source_url": "https://www.google.com/maps/place/FastivFish+%28Aquarium+Store%29/data=!4m7!3m6!1s0x40d35517a65cc8c7:0xd7303922bf974cf5!8m2!3d50.0769183!4d29.9098394!16s%2Fg%2F11glf3y0hv!19sChIJx8hcphdV00AR9UyXvyI5MNc?authuser=0&hl=tr&rclk=1",
    "website_url": "",
    "rating_text": "4,9",
    "stars": null,
    "number_of_reviews": null,
    "price_level": "",
    "open_hours": "",
    "extraction_timestamp": "2025-06-08T03:36:31.088Z",
    "source_name": "google",
    "source_query": "Irrigation Equipment",
    "source_country": "UA",
    "country": "Ukraine",
    "state": "Kyivska oblast",
    "city": "Fastiv Raion"
  },
  {
    "source_id": "ChIJO-K0a-5V00ARtfLVwAU9djc",
    "name": "Стройматеріали",
    "category": "Стройматеріали",
    "formatted_address": "5,0(1)",
    "phone_number": "",
    "source_url": "https://www.google.com/maps/place/%D0%A1%D1%82%D1%80%D0%BE%D0%B9%D0%BC%D0%B0%D1%82%D0%B5%D1%80%D1%96%D0%B0%D0%BB%D0%B8/data=!4m7!3m6!1s0x40d355ee6bb4e23b:0x37763d05c0d5f2b5!8m2!3d50.0652689!4d29.9143848!16s%2Fg%2F11nmr64__c!19sChIJO-K0a-5V00ARtfLVwAU9djc?authuser=0&hl=tr&rclk=1",
    "website_url": "",
    "rating_text": "5,0",
    "stars": null,
    "number_of_reviews": null,
    "price_level": "",
    "open_hours": "",
    "extraction_timestamp": "2025-06-08T03:36:31.089Z",
    "source_name": "google",
    "source_query": "Irrigation Equipment",
    "source_country": "UA",
    "country": "Ukraine",
    "state": "Kyivska oblast",
    "city": "Fastiv Raion"
  },
  {
    "source_id": "ChIJf1U-EQBV00AR9qFeYNgnd2Q",
    "name": "SPK Market",
    "category": "SPK Market",
    "formatted_address": "2,5(2)",
    "phone_number": "+380635681003",
    "source_url": "https://www.google.com/maps/place/SPK+Market/data=!4m7!3m6!1s0x40d35500113e557f:0x647727d8605ea1f6!8m2!3d50.0746307!4d29.910964!16s%2Fg%2F11vszdpb8t!19sChIJf1U-EQBV00AR9qFeYNgnd2Q?authuser=0&hl=tr&rclk=1",
    "website_url": "",
    "rating_text": "2,5",
    "stars": null,
    "number_of_reviews": null,
    "price_level": "",
    "open_hours": "",
    "extraction_timestamp": "2025-06-08T03:36:31.089Z",
    "source_name": "google",
    "source_query": "Irrigation Equipment",
    "source_country": "UA",
    "country": "Ukraine",
    "state": "Kyivska oblast",
    "city": "Fastiv Raion"
  },
  {
    "source_id": "ChIJfSdeNURU00ARI7MgsN6mVC8",
    "name": "Myronivsʹkyy",
    "category": "Myronivsʹkyy",
    "formatted_address": "3,9(193)",
    "phone_number": "",
    "source_url": "https://www.google.com/maps/place/Myronivs%CA%B9kyy/data=!4m7!3m6!1s0x40d35444355e277d:0x2f54a6deb020b323!8m2!3d50.051832!4d29.9368436!16s%2Fg%2F11c0ywglnk!19sChIJfSdeNURU00ARI7MgsN6mVC8?authuser=0&hl=tr&rclk=1",
    "website_url": "",
    "rating_text": "3,9",
    "stars": null,
    "number_of_reviews": null,
    "price_level": "",
    "open_hours": "",
    "extraction_timestamp": "2025-06-08T03:36:31.090Z",
    "source_name": "google",
    "source_query": "Irrigation Equipment",
    "source_country": "UA",
    "country": "Ukraine",
    "state": "Kyivska oblast",
    "city": "Fastiv Raion"
  },
  {
    "source_id": "ChIJmW5_HelU00AR10-JzTiVofY",
    "name": "Kooperator",
    "category": "Kooperator",
    "formatted_address": "3,8(48)",
    "phone_number": "+380456554174",
    "source_url": "https://www.google.com/maps/place/Kooperator/data=!4m7!3m6!1s0x40d354e91d7f6e99:0xf6a19538cd894fd7!8m2!3d50.0644502!4d29.8947824!16s%2Fg%2F1q2wgqvl7!19sChIJmW5_HelU00AR10-JzTiVofY?authuser=0&hl=tr&rclk=1",
    "website_url": "",
    "rating_text": "3,8",
    "stars": null,
    "number_of_reviews": null,
    "price_level": "",
    "open_hours": "",
    "extraction_timestamp": "2025-06-08T03:36:31.091Z",
    "source_name": "google",
    "source_query": "Irrigation Equipment",
    "source_country": "UA",
    "country": "Ukraine",
    "state": "Kyivska oblast",
    "city": "Fastiv Raion"
  },
  {
    "source_id": "ChIJnyeunkFV00ARiG33JGg7GUg",
    "name": "Коло",
    "category": "Коло",
    "formatted_address": "4,5(52)",
    "phone_number": "+380800507969",
    "source_url": "https://www.google.com/maps/place/%D0%9A%D0%BE%D0%BB%D0%BE/data=!4m7!3m6!1s0x40d355419eae279f:0x48193b6824f76d88!8m2!3d50.0820601!4d29.9230714!16s%2Fg%2F11fnpp9khl!19sChIJnyeunkFV00ARiG33JGg7GUg?authuser=0&hl=tr&rclk=1",
    "website_url": "",
    "rating_text": "4,5",
    "stars": null,
    "number_of_reviews": null,
    "price_level": "",
    "open_hours": "",
    "extraction_timestamp": "2025-06-08T03:36:31.092Z",
    "source_name": "google",
    "source_query": "Irrigation Equipment",
    "source_country": "UA",
    "country": "Ukraine",
    "state": "Kyivska oblast",
    "city": "Fastiv Raion"
  },
  {
    "source_id": "ChIJxU_DeABV00AR4Xz7l_6-R7M",
    "name": "SPK Market",
    "category": "SPK Market",
    "formatted_address": "4,0(1)",
    "phone_number": "",
    "source_url": "https://www.google.com/maps/place/SPK+Market/data=!4m7!3m6!1s0x40d3550078c34fc5:0xb347befe97fb7ce1!8m2!3d50.0782216!4d29.9211544!16s%2Fg%2F11vqt9cs32!19sChIJxU_DeABV00AR4Xz7l_6-R7M?authuser=0&hl=tr&rclk=1",
    "website_url": "",
    "rating_text": "4,0",
    "stars": null,
    "number_of_reviews": null,
    "price_level": "",
    "open_hours": "",
    "extraction_timestamp": "2025-06-08T03:36:31.092Z",
    "source_name": "google",
    "source_query": "Irrigation Equipment",
    "source_country": "UA",
    "country": "Ukraine",
    "state": "Kyivska oblast",
    "city": "Fastiv Raion"
  },
  {
    "source_id": "ChIJvySgexpV00AR-Brn93-6IjU",
    "name": "Kooperator",
    "category": "Kooperator",
    "formatted_address": "3,9(172)",
    "phone_number": "",
    "source_url": "https://www.google.com/maps/place/Kooperator/data=!4m7!3m6!1s0x40d3551a7ba024bf:0x3522ba7ff7e71af8!8m2!3d50.0816227!4d29.9204776!16s%2Fg%2F11c575sdmn!19sChIJvySgexpV00AR-Brn93-6IjU?authuser=0&hl=tr&rclk=1",
    "website_url": "",
    "rating_text": "3,9",
    "stars": null,
    "number_of_reviews": null,
    "price_level": "",
    "open_hours": "",
    "extraction_timestamp": "2025-06-08T03:36:31.093Z",
    "source_name": "google",
    "source_query": "Irrigation Equipment",
    "source_country": "UA",
    "country": "Ukraine",
    "state": "Kyivska oblast",
    "city": "Fastiv Raion"
  },
  {
    "source_id": "ChIJT_8rnnNV00ARCuPL005xUlQ",
    "name": "Miks Mart",
    "category": "Miks Mart",
    "formatted_address": "4,5(2)",
    "phone_number": "",
    "source_url": "https://www.google.com/maps/place/Miks+Mart/data=!4m7!3m6!1s0x40d355739e2bff4f:0x5452714ed3cbe30a!8m2!3d50.0689624!4d29.9157428!16s%2Fg%2F11rhszgt15!19sChIJT_8rnnNV00ARCuPL005xUlQ?authuser=0&hl=tr&rclk=1",
    "website_url": "",
    "rating_text": "4,5",
    "stars": null,
    "number_of_reviews": null,
    "price_level": "",
    "open_hours": "",
    "extraction_timestamp": "2025-06-08T03:36:31.093Z",
    "source_name": "google",
    "source_query": "Irrigation Equipment",
    "source_country": "UA",
    "country": "Ukraine",
    "state": "Kyivska oblast",
    "city": "Fastiv Raion"
  },
  {
    "source_id": "ChIJ_4-8T1G71EARRGVPZ2z7FiY",
    "name": "Mayster-Santekhnik",
    "category": "Mayster-Santekhnik",
    "formatted_address": "4,8(20)",
    "phone_number": "+380667578437",
    "source_url": "https://www.google.com/maps/place/Mayster-Santekhnik/data=!4m7!3m6!1s0x40d4bb514fbc8fff:0x2616fb6c674f6544!8m2!3d50.1871364!4d30.3003079!16s%2Fg%2F11ffw6rxcf!19sChIJ_4-8T1G71EARRGVPZ2z7FiY?authuser=0&hl=tr&rclk=1",
    "website_url": "",
    "rating_text": "4,8",
    "stars": null,
    "number_of_reviews": null,
    "price_level": "",
    "open_hours": "",
    "extraction_timestamp": "2025-06-08T03:36:31.094Z",
    "source_name": "google",
    "source_query": "Irrigation Equipment",
    "source_country": "UA",
    "country": "Ukraine",
    "state": "Kyivska oblast",
    "city": "Fastiv Raion"
  },
  {
    "source_id": "ChIJRa3o2hDG1EARvFwMiTpym0k",
    "name": "ЭВКАЛИПТ Р КОМПАНИЯ",
    "category": "ЭВКАЛИПТ Р КОМПАНИЯ",
    "formatted_address": "4,9(41)",
    "phone_number": "+380933654300",
    "source_url": "https://www.google.com/maps/place/%D0%AD%D0%92%D0%9A%D0%90%D0%9B%D0%98%D0%9F%D0%A2+%D0%A0+%D0%9A%D0%9E%D0%9C%D0%9F%D0%90%D0%9D%D0%98%D0%AF/data=!4m7!3m6!1s0x40d4c610dae8ad45:0x499b723a890c5cbc!8m2!3d50.360383!4d30.47321!16s%2Fg%2F11xhrr_g1!19sChIJRa3o2hDG1EARvFwMiTpym0k?authuser=0&hl=tr&rclk=1",
    "website_url": "",
    "rating_text": "4,9",
    "stars": null,
    "number_of_reviews": null,
    "price_level": "",
    "open_hours": "",
    "extraction_timestamp": "2025-06-08T03:36:31.095Z",
    "source_name": "google",
    "source_query": "Irrigation Equipment",
    "source_country": "UA",
    "country": "Ukraine",
    "state": "Kyivska oblast",
    "city": "Fastiv Raion"
  },
  {
    "source_id": "ChIJP-TmlFbJ1EARlF1NhRCMAUk",
    "name": "Cheeki Ukraine. Брендирование и гравировка термопосуды.",
    "category": "Cheeki Ukraine. Брендирование и гравировка термопосуды.",
    "formatted_address": "4,4(7)",
    "phone_number": "+380631338555",
    "source_url": "https://www.google.com/maps/place/Cheeki+Ukraine.+%D0%91%D1%80%D0%B5%D0%BD%D0%B4%D0%B8%D1%80%D0%BE%D0%B2%D0%B0%D0%BD%D0%B8%D0%B5+%D0%B8+%D0%B3%D1%80%D0%B0%D0%B2%D0%B8%D1%80%D0%BE%D0%B2%D0%BA%D0%B0+%D1%82%D0%B5%D1%80%D0%BC%D0%BE%D0%BF%D0%BE%D1%81%D1%83%D0%B4%D1%8B./data=!4m7!3m6!1s0x40d4c95694e6e43f:0x49018c10854d5d94!8m2!3d50.2541854!4d30.327396!16s%2Fg%2F11ffl_jdvp!19sChIJP-TmlFbJ1EARlF1NhRCMAUk?authuser=0&hl=tr&rclk=1",
    "website_url": "",
    "rating_text": "4,4",
    "stars": null,
    "number_of_reviews": null,
    "price_level": "",
    "open_hours": "",
    "extraction_timestamp": "2025-06-08T03:36:31.096Z",
    "source_name": "google",
    "source_query": "Irrigation Equipment",
    "source_country": "UA",
    "country": "Ukraine",
    "state": "Kyivska oblast",
    "city": "Fastiv Raion"
  },
  {
    "source_id": "ChIJF6386QSp1EARDWqfC5JdtYA",
    "name": "Mahazyn Prodovolʹchykh Ta Promyslovykh Tovariv",
    "category": "Mahazyn Prodovolʹchykh Ta Promyslovykh Tovariv",
    "formatted_address": "3,5(46)",
    "phone_number": "",
    "source_url": "https://www.google.com/maps/place/Mahazyn+Prodovol%CA%B9chykh+Ta+Promyslovykh+Tovariv/data=!4m7!3m6!1s0x40d4a904e9fcad17:0x80b55d920b9f6a0d!8m2!3d50.1129387!4d30.1239107!16s%2Fg%2F11c0x7phg4!19sChIJF6386QSp1EARDWqfC5JdtYA?authuser=0&hl=tr&rclk=1",
    "website_url": "",
    "rating_text": "3,5",
    "stars": null,
    "number_of_reviews": null,
    "price_level": "",
    "open_hours": "",
    "extraction_timestamp": "2025-06-08T03:36:31.097Z",
    "source_name": "google",
    "source_query": "Irrigation Equipment",
    "source_country": "UA",
    "country": "Ukraine",
    "state": "Kyivska oblast",
    "city": "Fastiv Raion"
  },
  {
    "source_id": "ChIJhbYOG_Cr1EAR_SJOZSe-kl8",
    "name": "Kulynychi",
    "category": "Kulynychi",
    "formatted_address": "4,1(249) · ₺₺",
    "phone_number": "+380443836301",
    "source_url": "https://www.google.com/maps/place/Kulynychi/data=!4m7!3m6!1s0x40d4abf01b0eb685:0x5f92be27654e22fd!8m2!3d50.1495576!4d30.0814043!16s%2Fg%2F11g8n52tj6!19sChIJhbYOG_Cr1EAR_SJOZSe-kl8?authuser=0&hl=tr&rclk=1",
    "website_url": "",
    "rating_text": "4,1",
    "stars": null,
    "number_of_reviews": null,
    "price_level": "",
    "open_hours": "",
    "extraction_timestamp": "2025-06-08T03:36:31.098Z",
    "source_name": "google",
    "source_query": "Irrigation Equipment",
    "source_country": "UA",
    "country": "Ukraine",
    "state": "Kyivska oblast",
    "city": "Fastiv Raion"
  },
  {
    "source_id": "ChIJXY19maqp1EARNJIbd_KKUro",
    "name": "Hermes",
    "category": "Hermes",
    "formatted_address": "4,5(13)",
    "phone_number": "+380675008355",
    "source_url": "https://www.google.com/maps/place/Hermes/data=!4m7!3m6!1s0x40d4a9aa997d8d5d:0xba528af2771b9234!8m2!3d50.1119279!4d30.1384534!16s%2Fg%2F11q2x8_1sr!19sChIJXY19maqp1EARNJIbd_KKUro?authuser=0&hl=tr&rclk=1",
    "website_url": "",
    "rating_text": "4,5",
    "stars": null,
    "number_of_reviews": null,
    "price_level": "",
    "open_hours": "",
    "extraction_timestamp": "2025-06-08T03:36:31.100Z",
    "source_name": "google",
    "source_query": "Irrigation Equipment",
    "source_country": "UA",
    "country": "Ukraine",
    "state": "Kyivska oblast",
    "city": "Fastiv Raion"
  },
  {
    "source_id": "ChIJEWSxdh_I1EARf0k-kMeYU0w",
    "name": "Садово-дизайнерський центр «Shoni»",
    "category": "Садово-дизайнерський центр «Shoni»",
    "formatted_address": "4,7(103)",
    "phone_number": "+380932595599",
    "source_url": "https://www.google.com/maps/place/%D0%A1%D0%B0%D0%B4%D0%BE%D0%B2%D0%BE-%D0%B4%D0%B8%D0%B7%D0%B0%D0%B9%D0%BD%D0%B5%D1%80%D1%81%D1%8C%D0%BA%D0%B8%D0%B9+%D1%86%D0%B5%D0%BD%D1%82%D1%80+%C2%ABShoni%C2%BB/data=!4m7!3m6!1s0x40d4c81f76b16411:0x4c5398c7903e497f!8m2!3d50.332836!4d30.4394607!16s%2Fg%2F1tl4bk0t!19sChIJEWSxdh_I1EARf0k-kMeYU0w?authuser=0&hl=tr&rclk=1",
    "website_url": "",
    "rating_text": "4,7",
    "stars": null,
    "number_of_reviews": null,
    "price_level": "",
    "open_hours": "",
    "extraction_timestamp": "2025-06-08T03:36:31.100Z",
    "source_name": "google",
    "source_query": "Irrigation Equipment",
    "source_country": "UA",
    "country": "Ukraine",
    "state": "Kyivska oblast",
    "city": "Fastiv Raion"
  },
  {
    "source_id": "ChIJPfx-YRqt1EAR9bNT0Od-Iis",
    "name": "Мережа маркетів «Бадьорий»",
    "category": "Мережа маркетів «Бадьорий»",
    "formatted_address": "5,0(1)",
    "phone_number": "",
    "source_url": "https://www.google.com/maps/place/%D0%9C%D0%B5%D1%80%D0%B5%D0%B6%D0%B0+%D0%BC%D0%B0%D1%80%D0%BA%D0%B5%D1%82%D1%96%D0%B2+%C2%AB%D0%91%D0%B0%D0%B4%D1%8C%D0%BE%D1%80%D0%B8%D0%B9%C2%BB/data=!4m7!3m6!1s0x40d4ad1a617efc3d:0x2b227ee7d053b3f5!8m2!3d50.1797511!4d30.108568!16s%2Fg%2F11y43273sd!19sChIJPfx-YRqt1EAR9bNT0Od-Iis?authuser=0&hl=tr&rclk=1",
    "website_url": "",
    "rating_text": "5,0",
    "stars": null,
    "number_of_reviews": null,
    "price_level": "",
    "open_hours": "",
    "extraction_timestamp": "2025-06-08T03:36:31.101Z",
    "source_name": "google",
    "source_query": "Irrigation Equipment",
    "source_country": "UA",
    "country": "Ukraine",
    "state": "Kyivska oblast",
    "city": "Fastiv Raion"
  },
  {
    "source_id": "ChIJT2OCVmus1EAR4RATl9WjLhw",
    "name": "Borivchanka",
    "category": "Borivchanka",
    "formatted_address": "3,6(116)",
    "phone_number": "",
    "source_url": "https://www.google.com/maps/place/Borivchanka/data=!4m7!3m6!1s0x40d4ac6b5682634f:0x1c2ea3d5971310e1!8m2!3d50.1745132!4d30.0922206!16s%2Fg%2F11cs9y7szb!19sChIJT2OCVmus1EAR4RATl9WjLhw?authuser=0&hl=tr&rclk=1",
    "website_url": "",
    "rating_text": "3,6",
    "stars": null,
    "number_of_reviews": null,
    "price_level": "",
    "open_hours": "",
    "extraction_timestamp": "2025-06-08T03:36:31.102Z",
    "source_name": "google",
    "source_query": "Irrigation Equipment",
    "source_country": "UA",
    "country": "Ukraine",
    "state": "Kyivska oblast",
    "city": "Fastiv Raion"
  },
  {
    "source_id": "ChIJL7YR72Cr1EARmJfTow0yb_s",
    "name": "Produkty",
    "category": "Produkty",
    "formatted_address": "5,0(10)",
    "phone_number": "+380986021114",
    "source_url": "https://www.google.com/maps/place/Produkty/data=!4m7!3m6!1s0x40d4ab60ef11b62f:0xfb6f320da3d39798!8m2!3d50.1649486!4d30.054066!16s%2Fg%2F11vf1nv54h!19sChIJL7YR72Cr1EARmJfTow0yb_s?authuser=0&hl=tr&rclk=1",
    "website_url": "",
    "rating_text": "5,0",
    "stars": null,
    "number_of_reviews": null,
    "price_level": "",
    "open_hours": "",
    "extraction_timestamp": "2025-06-08T03:36:31.103Z",
    "source_name": "google",
    "source_query": "Irrigation Equipment",
    "source_country": "UA",
    "country": "Ukraine",
    "state": "Kyivska oblast",
    "city": "Fastiv Raion"
  },
  {
    "source_id": "ChIJ9V_8xj6s1EARGy96aKGmNgg",
    "name": "Univermah",
    "category": "Univermah",
    "formatted_address": "4,2(179)",
    "phone_number": "",
    "source_url": "https://www.google.com/maps/place/Univermah/data=!4m7!3m6!1s0x40d4ac3ec6fc5ff5:0x836a6a1687a2f1b!8m2!3d50.1803565!4d30.1069274!16s%2Fg%2F11c57ngbmn!19sChIJ9V_8xj6s1EARGy96aKGmNgg?authuser=0&hl=tr&rclk=1",
    "website_url": "",
    "rating_text": "4,2",
    "stars": null,
    "number_of_reviews": null,
    "price_level": "",
    "open_hours": "",
    "extraction_timestamp": "2025-06-08T03:36:31.103Z",
    "source_name": "google",
    "source_query": "Irrigation Equipment",
    "source_country": "UA",
    "country": "Ukraine",
    "state": "Kyivska oblast",
    "city": "Fastiv Raion"
  }
]
