[
  {
    "source_id": "ChIJf-pdQqxV00ARkMunme4QYPM",
    "name": "Ниагара Трейд - системы отопления и сантехника",
    "category": "Ниагара Трейд - системы отопления и сантехника",
    "formatted_address": "4,4(20)",
    "phone_number": "+380950103468",
    "source_url": "https://www.google.com/maps/place/%D0%9D%D0%B8%D0%B0%D0%B3%D0%B0%D1%80%D0%B0+%D0%A2%D1%80%D0%B5%D0%B9%D0%B4+-+%D1%81%D0%B8%D1%81%D1%82%D0%B5%D0%BC%D1%8B+%D0%BE%D1%82%D0%BE%D0%BF%D0%BB%D0%B5%D0%BD%D0%B8%D1%8F+%D0%B8+%D1%81%D0%B0%D0%BD%D1%82%D0%B5%D1%85%D0%BD%D0%B8%D0%BA%D0%B0/data=!4m7!3m6!1s0x40d355ac425dea7f:0xf36010ee99a7cb90!8m2!3d50.0807405!4d29.9350904!16s%2Fg%2F11j54bdk3s!19sChIJf-pdQqxV00ARkMunme4QYPM?authuser=0&hl=tr&rclk=1",
    "website_url": "",
    "rating_text": "4,4",
    "stars": null,
    "number_of_reviews": null,
    "price_level": "",
    "open_hours": "",
    "extraction_timestamp": "2025-06-08T03:29:32.906Z",
    "source_name": "google",
    "source_query": "Irrigation Equipment",
    "source_country": "UA",
    "country": "Ukraine",
    "state": "Kyivska oblast",
    "city": "Fastiv"
  },
  {
    "source_id": "ChIJn-d47iNV00ARU9xVc3Jn5kw",
    "name": "Агросвіт магазин насіння, добрив та засобів захисту рослин у Юнака",
    "category": "Агросвіт магазин насіння, добрив та засобів захисту рослин у Юнака",
    "formatted_address": "Агросвіт магазин насіння, добрив та засобів захисту рослин у Юнака",
    "phone_number": "+380972391155",
    "source_url": "https://www.google.com/maps/place/%D0%90%D0%B3%D1%80%D0%BE%D1%81%D0%B2%D1%96%D1%82+%D0%BC%D0%B0%D0%B3%D0%B0%D0%B7%D0%B8%D0%BD+%D0%BD%D0%B0%D1%81%D1%96%D0%BD%D0%BD%D1%8F,+%D0%B4%D0%BE%D0%B1%D1%80%D0%B8%D0%B2+%D1%82%D0%B0+%D0%B7%D0%B0%D1%81%D0%BE%D0%B1%D1%96%D0%B2+%D0%B7%D0%B0%D1%85%D0%B8%D1%81%D1%82%D1%83+%D1%80%D0%BE%D1%81%D0%BB%D0%B8%D0%BD+%D1%83+%D0%AE%D0%BD%D0%B0%D0%BA%D0%B0/data=!4m7!3m6!1s0x40d35523ee78e79f:0x4ce667727355dc53!8m2!3d50.0778089!4d29.911051!16s%2Fg%2F11rcfdp11k!19sChIJn-d47iNV00ARU9xVc3Jn5kw?authuser=0&hl=tr&rclk=1",
    "website_url": "",
    "rating_text": "5,0",
    "stars": null,
    "number_of_reviews": null,
    "price_level": "",
    "open_hours": "",
    "extraction_timestamp": "2025-06-08T03:29:32.907Z",
    "source_name": "google",
    "source_query": "Irrigation Equipment",
    "source_country": "UA",
    "country": "Ukraine",
    "state": "Kyivska oblast",
    "city": "Fastiv"
  },
  {
    "source_id": "ChIJFSANCgBV00ARd9iB4lmGwpc",
    "name": "GWater - автомат питної води",
    "category": "GWater - автомат питної води",
    "formatted_address": "4,3(6)",
    "phone_number": "",
    "source_url": "https://www.google.com/maps/place/GWater+-+%D0%B0%D0%B2%D1%82%D0%BE%D0%BC%D0%B0%D1%82+%D0%BF%D0%B8%D1%82%D0%BD%D0%BE%D1%97+%D0%B2%D0%BE%D0%B4%D0%B8/data=!4m7!3m6!1s0x40d355000a0d2015:0x97c28659e281d877!8m2!3d50.0809749!4d29.901199!16s%2Fg%2F11wxhftbn0!19sChIJFSANCgBV00ARd9iB4lmGwpc?authuser=0&hl=tr&rclk=1",
    "website_url": "",
    "rating_text": "4,3",
    "stars": null,
    "number_of_reviews": null,
    "price_level": "",
    "open_hours": "",
    "extraction_timestamp": "2025-06-08T03:29:32.909Z",
    "source_name": "google",
    "source_query": "Irrigation Equipment",
    "source_country": "UA",
    "country": "Ukraine",
    "state": "Kyivska oblast",
    "city": "Fastiv"
  },
  {
    "source_id": "ChIJH2FoLZ5V00AR77HH684_DfU",
    "name": "Santekh Market",
    "category": "Santekh Market",
    "formatted_address": "4,9(20)",
    "phone_number": "+380993523646",
    "source_url": "https://www.google.com/maps/place/Santekh+Market/data=!4m7!3m6!1s0x40d3559e2d68611f:0xf50d3fceebc7b1ef!8m2!3d50.0777282!4d29.9232258!16s%2Fg%2F11jn32psd9!19sChIJH2FoLZ5V00AR77HH684_DfU?authuser=0&hl=tr&rclk=1",
    "website_url": "",
    "rating_text": "4,9",
    "stars": null,
    "number_of_reviews": null,
    "price_level": "",
    "open_hours": "",
    "extraction_timestamp": "2025-06-08T03:29:32.910Z",
    "source_name": "google",
    "source_query": "Irrigation Equipment",
    "source_country": "UA",
    "country": "Ukraine",
    "state": "Kyivska oblast",
    "city": "Fastiv"
  },
  {
    "source_id": "ChIJuU_uqGZV00ARYXo87t6mSY8",
    "name": "Lazurʹ",
    "category": "Lazurʹ",
    "formatted_address": "4,8(64)",
    "phone_number": "+380672385715",
    "source_url": "https://www.google.com/maps/place/Lazur%CA%B9/data=!4m7!3m6!1s0x40d35566a8ee4fb9:0x8f49a6deee3c7a61!8m2!3d50.0768857!4d29.9077895!16s%2Fg%2F11j495qmn2!19sChIJuU_uqGZV00ARYXo87t6mSY8?authuser=0&hl=tr&rclk=1",
    "website_url": "",
    "rating_text": "4,8",
    "stars": null,
    "number_of_reviews": null,
    "price_level": "",
    "open_hours": "",
    "extraction_timestamp": "2025-06-08T03:29:32.911Z",
    "source_name": "google",
    "source_query": "Irrigation Equipment",
    "source_country": "UA",
    "country": "Ukraine",
    "state": "Kyivska oblast",
    "city": "Fastiv"
  },
  {
    "source_id": "ChIJAwPpNhtV00ARTOnYQBFZCOc",
    "name": "Vodoliy",
    "category": "Vodoliy",
    "formatted_address": "4,5(84)",
    "phone_number": "+380973000936",
    "source_url": "https://www.google.com/maps/place/Vodoliy/data=!4m7!3m6!1s0x40d3551b36e90303:0xe708591140d8e94c!8m2!3d50.0778952!4d29.9206728!16s%2Fg%2F11dyq2625w!19sChIJAwPpNhtV00ARTOnYQBFZCOc?authuser=0&hl=tr&rclk=1",
    "website_url": "",
    "rating_text": "4,5",
    "stars": null,
    "number_of_reviews": null,
    "price_level": "",
    "open_hours": "",
    "extraction_timestamp": "2025-06-08T03:29:32.912Z",
    "source_name": "google",
    "source_query": "Irrigation Equipment",
    "source_country": "UA",
    "country": "Ukraine",
    "state": "Kyivska oblast",
    "city": "Fastiv"
  },
  {
    "source_id": "ChIJEzquSg5V00AR8lDTfMMSU5c",
    "name": "U Valery",
    "category": "U Valery",
    "formatted_address": "4,3(162)",
    "phone_number": "+380633911510",
    "source_url": "https://www.google.com/maps/place/U+Valery/data=!4m7!3m6!1s0x40d3550e4aae3a13:0x975312c37cd350f2!8m2!3d50.0824698!4d29.9290995!16s%2Fg%2F11c1wjz57h!19sChIJEzquSg5V00AR8lDTfMMSU5c?authuser=0&hl=tr&rclk=1",
    "website_url": "",
    "rating_text": "4,3",
    "stars": null,
    "number_of_reviews": null,
    "price_level": "",
    "open_hours": "",
    "extraction_timestamp": "2025-06-08T03:29:32.914Z",
    "source_name": "google",
    "source_query": "Irrigation Equipment",
    "source_country": "UA",
    "country": "Ukraine",
    "state": "Kyivska oblast",
    "city": "Fastiv"
  },
  {
    "source_id": "ChIJWWp9ewBV00ARTZ5Wur2POn4",
    "name": "Bud Mahazyn Inkubator",
    "category": "Bud Mahazyn Inkubator",
    "formatted_address": "5,0(2)",
    "phone_number": "+380630418494",
    "source_url": "https://www.google.com/maps/place/Bud+Mahazyn+Inkubator/data=!4m7!3m6!1s0x40d355007b7d6a59:0x7e3a8fbdba569e4d!8m2!3d50.0816772!4d29.9167277!16s%2Fg%2F11x07glvxk!19sChIJWWp9ewBV00ARTZ5Wur2POn4?authuser=0&hl=tr&rclk=1",
    "website_url": "",
    "rating_text": "5,0",
    "stars": null,
    "number_of_reviews": null,
    "price_level": "",
    "open_hours": "",
    "extraction_timestamp": "2025-06-08T03:29:32.915Z",
    "source_name": "google",
    "source_query": "Irrigation Equipment",
    "source_country": "UA",
    "country": "Ukraine",
    "state": "Kyivska oblast",
    "city": "Fastiv"
  },
  {
    "source_id": "ChIJn7bhIa9V00ARC9p61520ilg",
    "name": "Budivelʹni Materialy",
    "category": "Budivelʹni Materialy",
    "formatted_address": "4,5(15)",
    "phone_number": "",
    "source_url": "https://www.google.com/maps/place/Budivel%CA%B9ni+Materialy/data=!4m7!3m6!1s0x40d355af21e1b69f:0x588ab49dd77ada0b!8m2!3d50.0721285!4d29.9460865!16s%2Fg%2F11byyjmztm!19sChIJn7bhIa9V00ARC9p61520ilg?authuser=0&hl=tr&rclk=1",
    "website_url": "",
    "rating_text": "4,5",
    "stars": null,
    "number_of_reviews": null,
    "price_level": "",
    "open_hours": "",
    "extraction_timestamp": "2025-06-08T03:29:32.916Z",
    "source_name": "google",
    "source_query": "Irrigation Equipment",
    "source_country": "UA",
    "country": "Ukraine",
    "state": "Kyivska oblast",
    "city": "Fastiv"
  },
  {
    "source_id": "ChIJPU43dUxU00ART9fiN6RmHro",
    "name": "PJSC Fakel",
    "category": "PJSC Fakel",
    "formatted_address": "4,0(4)",
    "phone_number": "+380456566760",
    "source_url": "https://www.google.com/maps/place/PJSC+Fakel/data=!4m7!3m6!1s0x40d3544c75374e3d:0xba1e66a437e2d74f!8m2!3d50.0587028!4d29.9475359!16s%2Fg%2F11b6t336gx!19sChIJPU43dUxU00ART9fiN6RmHro?authuser=0&hl=tr&rclk=1",
    "website_url": "",
    "rating_text": "4,0",
    "stars": null,
    "number_of_reviews": null,
    "price_level": "",
    "open_hours": "",
    "extraction_timestamp": "2025-06-08T03:29:32.917Z",
    "source_name": "google",
    "source_query": "Irrigation Equipment",
    "source_country": "UA",
    "country": "Ukraine",
    "state": "Kyivska oblast",
    "city": "Fastiv"
  },
  {
    "source_id": "ChIJWYUp2htV00AR-SJnC5nk_kE",
    "name": "Tov \"Plamya\"",
    "category": "Tov \"Plamya\"",
    "formatted_address": "4,3(9)",
    "phone_number": "+380674453456",
    "source_url": "https://www.google.com/maps/place/Tov+%22Plamya%22/data=!4m7!3m6!1s0x40d3551bda298559:0x41fee4990b6722f9!8m2!3d50.0796642!4d29.9149815!16s%2Fg%2F11cmyb8zy7!19sChIJWYUp2htV00AR-SJnC5nk_kE?authuser=0&hl=tr&rclk=1",
    "website_url": "",
    "rating_text": "4,3",
    "stars": null,
    "number_of_reviews": null,
    "price_level": "",
    "open_hours": "",
    "extraction_timestamp": "2025-06-08T03:29:32.918Z",
    "source_name": "google",
    "source_query": "Irrigation Equipment",
    "source_country": "UA",
    "country": "Ukraine",
    "state": "Kyivska oblast",
    "city": "Fastiv"
  },
  {
    "source_id": "ChIJO-K0a-5V00ARtfLVwAU9djc",
    "name": "Стройматеріали",
    "category": "Стройматеріали",
    "formatted_address": "5,0(1)",
    "phone_number": "",
    "source_url": "https://www.google.com/maps/place/%D0%A1%D1%82%D1%80%D0%BE%D0%B9%D0%BC%D0%B0%D1%82%D0%B5%D1%80%D1%96%D0%B0%D0%BB%D0%B8/data=!4m7!3m6!1s0x40d355ee6bb4e23b:0x37763d05c0d5f2b5!8m2!3d50.0652689!4d29.9143848!16s%2Fg%2F11nmr64__c!19sChIJO-K0a-5V00ARtfLVwAU9djc?authuser=0&hl=tr&rclk=1",
    "website_url": "",
    "rating_text": "5,0",
    "stars": null,
    "number_of_reviews": null,
    "price_level": "",
    "open_hours": "",
    "extraction_timestamp": "2025-06-08T03:29:32.918Z",
    "source_name": "google",
    "source_query": "Irrigation Equipment",
    "source_country": "UA",
    "country": "Ukraine",
    "state": "Kyivska oblast",
    "city": "Fastiv"
  },
  {
    "source_id": "ChIJKU0ERb1V00ARQM8TBioJUuc",
    "name": "БудЦентр",
    "category": "БудЦентр",
    "formatted_address": "5,0(3)",
    "phone_number": "+380977054033",
    "source_url": "https://www.google.com/maps/place/%D0%91%D1%83%D0%B4%D0%A6%D0%B5%D0%BD%D1%82%D1%80/data=!4m7!3m6!1s0x40d355bd45044d29:0xe752092a0613cf40!8m2!3d50.0773169!4d29.9098306!16s%2Fg%2F11n_zh9nmq!19sChIJKU0ERb1V00ARQM8TBioJUuc?authuser=0&hl=tr&rclk=1",
    "website_url": "",
    "rating_text": "5,0",
    "stars": null,
    "number_of_reviews": null,
    "price_level": "",
    "open_hours": "",
    "extraction_timestamp": "2025-06-08T03:29:32.920Z",
    "source_name": "google",
    "source_query": "Irrigation Equipment",
    "source_country": "UA",
    "country": "Ukraine",
    "state": "Kyivska oblast",
    "city": "Fastiv"
  },
  {
    "source_id": "ChIJf1U-EQBV00AR9qFeYNgnd2Q",
    "name": "SPK Market",
    "category": "SPK Market",
    "formatted_address": "2,5(2)",
    "phone_number": "+380635681003",
    "source_url": "https://www.google.com/maps/place/SPK+Market/data=!4m7!3m6!1s0x40d35500113e557f:0x647727d8605ea1f6!8m2!3d50.0746307!4d29.910964!16s%2Fg%2F11vszdpb8t!19sChIJf1U-EQBV00AR9qFeYNgnd2Q?authuser=0&hl=tr&rclk=1",
    "website_url": "",
    "rating_text": "2,5",
    "stars": null,
    "number_of_reviews": null,
    "price_level": "",
    "open_hours": "",
    "extraction_timestamp": "2025-06-08T03:29:32.921Z",
    "source_name": "google",
    "source_query": "Irrigation Equipment",
    "source_country": "UA",
    "country": "Ukraine",
    "state": "Kyivska oblast",
    "city": "Fastiv"
  },
  {
    "source_id": "ChIJx8hcphdV00AR9UyXvyI5MNc",
    "name": "FastivFish (Aquarium Store)",
    "category": "FastivFish (Aquarium Store)",
    "formatted_address": "4,9(18)",
    "phone_number": "+380633207720",
    "source_url": "https://www.google.com/maps/place/FastivFish+%28Aquarium+Store%29/data=!4m7!3m6!1s0x40d35517a65cc8c7:0xd7303922bf974cf5!8m2!3d50.0769183!4d29.9098394!16s%2Fg%2F11glf3y0hv!19sChIJx8hcphdV00AR9UyXvyI5MNc?authuser=0&hl=tr&rclk=1",
    "website_url": "",
    "rating_text": "4,9",
    "stars": null,
    "number_of_reviews": null,
    "price_level": "",
    "open_hours": "",
    "extraction_timestamp": "2025-06-08T03:29:32.922Z",
    "source_name": "google",
    "source_query": "Irrigation Equipment",
    "source_country": "UA",
    "country": "Ukraine",
    "state": "Kyivska oblast",
    "city": "Fastiv"
  },
  {
    "source_id": "ChIJnyeunkFV00ARiG33JGg7GUg",
    "name": "Коло",
    "category": "Коло",
    "formatted_address": "4,5(52)",
    "phone_number": "+380800507969",
    "source_url": "https://www.google.com/maps/place/%D0%9A%D0%BE%D0%BB%D0%BE/data=!4m7!3m6!1s0x40d355419eae279f:0x48193b6824f76d88!8m2!3d50.0820601!4d29.9230714!16s%2Fg%2F11fnpp9khl!19sChIJnyeunkFV00ARiG33JGg7GUg?authuser=0&hl=tr&rclk=1",
    "website_url": "",
    "rating_text": "4,5",
    "stars": null,
    "number_of_reviews": null,
    "price_level": "",
    "open_hours": "",
    "extraction_timestamp": "2025-06-08T03:29:32.923Z",
    "source_name": "google",
    "source_query": "Irrigation Equipment",
    "source_country": "UA",
    "country": "Ukraine",
    "state": "Kyivska oblast",
    "city": "Fastiv"
  },
  {
    "source_id": "ChIJmW5_HelU00AR10-JzTiVofY",
    "name": "Kooperator",
    "category": "Kooperator",
    "formatted_address": "3,8(48)",
    "phone_number": "+380456554174",
    "source_url": "https://www.google.com/maps/place/Kooperator/data=!4m7!3m6!1s0x40d354e91d7f6e99:0xf6a19538cd894fd7!8m2!3d50.0644502!4d29.8947824!16s%2Fg%2F1q2wgqvl7!19sChIJmW5_HelU00AR10-JzTiVofY?authuser=0&hl=tr&rclk=1",
    "website_url": "",
    "rating_text": "3,8",
    "stars": null,
    "number_of_reviews": null,
    "price_level": "",
    "open_hours": "",
    "extraction_timestamp": "2025-06-08T03:29:32.924Z",
    "source_name": "google",
    "source_query": "Irrigation Equipment",
    "source_country": "UA",
    "country": "Ukraine",
    "state": "Kyivska oblast",
    "city": "Fastiv"
  },
  {
    "source_id": "ChIJwxAyvz5V00ARNjW_cFUeCHw",
    "name": "Zhuravlyk",
    "category": "Zhuravlyk",
    "formatted_address": "3,9(93)",
    "phone_number": "+380456562873",
    "source_url": "https://www.google.com/maps/place/Zhuravlyk/data=!4m7!3m6!1s0x40d3553ebf3210c3:0x7c081e5570bf3536!8m2!3d50.0916778!4d29.9104899!16s%2Fg%2F11c55bfc46!19sChIJwxAyvz5V00ARNjW_cFUeCHw?authuser=0&hl=tr&rclk=1",
    "website_url": "",
    "rating_text": "3,9",
    "stars": null,
    "number_of_reviews": null,
    "price_level": "",
    "open_hours": "",
    "extraction_timestamp": "2025-06-08T03:29:32.925Z",
    "source_name": "google",
    "source_query": "Irrigation Equipment",
    "source_country": "UA",
    "country": "Ukraine",
    "state": "Kyivska oblast",
    "city": "Fastiv"
  },
  {
    "source_id": "ChIJfSdeNURU00ARI7MgsN6mVC8",
    "name": "Myronivsʹkyy",
    "category": "Myronivsʹkyy",
    "formatted_address": "3,9(193)",
    "phone_number": "",
    "source_url": "https://www.google.com/maps/place/Myronivs%CA%B9kyy/data=!4m7!3m6!1s0x40d35444355e277d:0x2f54a6deb020b323!8m2!3d50.051832!4d29.9368436!16s%2Fg%2F11c0ywglnk!19sChIJfSdeNURU00ARI7MgsN6mVC8?authuser=0&hl=tr&rclk=1",
    "website_url": "",
    "rating_text": "3,9",
    "stars": null,
    "number_of_reviews": null,
    "price_level": "",
    "open_hours": "",
    "extraction_timestamp": "2025-06-08T03:29:32.925Z",
    "source_name": "google",
    "source_query": "Irrigation Equipment",
    "source_country": "UA",
    "country": "Ukraine",
    "state": "Kyivska oblast",
    "city": "Fastiv"
  },
  {
    "source_id": "ChIJvySgexpV00AR-Brn93-6IjU",
    "name": "Kooperator",
    "category": "Kooperator",
    "formatted_address": "3,9(172)",
    "phone_number": "",
    "source_url": "https://www.google.com/maps/place/Kooperator/data=!4m7!3m6!1s0x40d3551a7ba024bf:0x3522ba7ff7e71af8!8m2!3d50.0816227!4d29.9204776!16s%2Fg%2F11c575sdmn!19sChIJvySgexpV00AR-Brn93-6IjU?authuser=0&hl=tr&rclk=1",
    "website_url": "",
    "rating_text": "3,9",
    "stars": null,
    "number_of_reviews": null,
    "price_level": "",
    "open_hours": "",
    "extraction_timestamp": "2025-06-08T03:29:32.926Z",
    "source_name": "google",
    "source_query": "Irrigation Equipment",
    "source_country": "UA",
    "country": "Ukraine",
    "state": "Kyivska oblast",
    "city": "Fastiv"
  },
  {
    "source_id": "ChIJW4g0OctV00ARlysZUU8dJRs",
    "name": "\"Nemo\": Rybolovlya Ta Aktyvnyy Vidpochynok",
    "category": "\"Nemo\": Rybolovlya Ta Aktyvnyy Vidpochynok",
    "formatted_address": "4,1(24)",
    "phone_number": "",
    "source_url": "https://www.google.com/maps/place/%22Nemo%22:+Rybolovlya+Ta+Aktyvnyy+Vidpochynok/data=!4m7!3m6!1s0x40d355cb3934885b:0x1b251d4f51192b97!8m2!3d50.0782456!4d29.9131184!16s%2Fg%2F11h4pdr5fz!19sChIJW4g0OctV00ARlysZUU8dJRs?authuser=0&hl=tr&rclk=1",
    "website_url": "",
    "rating_text": "4,1",
    "stars": null,
    "number_of_reviews": null,
    "price_level": "",
    "open_hours": "",
    "extraction_timestamp": "2025-06-08T03:29:32.927Z",
    "source_name": "google",
    "source_query": "Irrigation Equipment",
    "source_country": "UA",
    "country": "Ukraine",
    "state": "Kyivska oblast",
    "city": "Fastiv"
  },
  {
    "source_id": "ChIJAQCwrB5V00AR563L812IgyA",
    "name": "EKO market",
    "category": "EKO market",
    "formatted_address": "2,9(862)",
    "phone_number": "+380800302055",
    "source_url": "https://www.google.com/maps/place/EKO+market/data=!4m7!3m6!1s0x40d3551eacb00001:0x2083885df3cbade7!8m2!3d50.0790751!4d29.9112972!16s%2Fg%2F11b6dcr9xs!19sChIJAQCwrB5V00AR563L812IgyA?authuser=0&hl=tr&rclk=1",
    "website_url": "",
    "rating_text": "2,9",
    "stars": null,
    "number_of_reviews": null,
    "price_level": "",
    "open_hours": "",
    "extraction_timestamp": "2025-06-08T03:29:32.928Z",
    "source_name": "google",
    "source_query": "Irrigation Equipment",
    "source_country": "UA",
    "country": "Ukraine",
    "state": "Kyivska oblast",
    "city": "Fastiv"
  },
  {
    "source_id": "ChIJxU_DeABV00AR4Xz7l_6-R7M",
    "name": "SPK Market",
    "category": "SPK Market",
    "formatted_address": "4,0(1)",
    "phone_number": "",
    "source_url": "https://www.google.com/maps/place/SPK+Market/data=!4m7!3m6!1s0x40d3550078c34fc5:0xb347befe97fb7ce1!8m2!3d50.0782216!4d29.9211544!16s%2Fg%2F11vqt9cs32!19sChIJxU_DeABV00AR4Xz7l_6-R7M?authuser=0&hl=tr&rclk=1",
    "website_url": "",
    "rating_text": "4,0",
    "stars": null,
    "number_of_reviews": null,
    "price_level": "",
    "open_hours": "",
    "extraction_timestamp": "2025-06-08T03:29:32.928Z",
    "source_name": "google",
    "source_query": "Irrigation Equipment",
    "source_country": "UA",
    "country": "Ukraine",
    "state": "Kyivska oblast",
    "city": "Fastiv"
  },
  {
    "source_id": "ChIJ07TfbcZV00AR-JBsxamuEEI",
    "name": "Fora",
    "category": "Fora",
    "formatted_address": "4,3(374)",
    "phone_number": "+380800301230",
    "source_url": "https://www.google.com/maps/place/Fora/data=!4m7!3m6!1s0x40d355c66ddfb4d3:0x4210aea9c56c90f8!8m2!3d50.0780019!4d29.9118169!16s%2Fg%2F11n334nlz4!19sChIJ07TfbcZV00AR-JBsxamuEEI?authuser=0&hl=tr&rclk=1",
    "website_url": "",
    "rating_text": "4,3",
    "stars": null,
    "number_of_reviews": null,
    "price_level": "",
    "open_hours": "",
    "extraction_timestamp": "2025-06-08T03:29:32.929Z",
    "source_name": "google",
    "source_query": "Irrigation Equipment",
    "source_country": "UA",
    "country": "Ukraine",
    "state": "Kyivska oblast",
    "city": "Fastiv"
  },
  {
    "source_id": "ChIJ7_c35DcPiE0Rg4fZQ2PCSYs",
    "name": "Dzhereliya Fastiv",
    "category": "Dzhereliya Fastiv",
    "formatted_address": "5,0(12)",
    "phone_number": "+380935018393",
    "source_url": "https://www.google.com/maps/place/Dzhereliya+Fastiv/data=!4m7!3m6!1s0x4d880f37e437f7ef:0x8b49c26343d98783!8m2!3d50.0805807!4d29.9030606!16s%2Fg%2F11pdrvx6v8!19sChIJ7_c35DcPiE0Rg4fZQ2PCSYs?authuser=0&hl=tr&rclk=1",
    "website_url": "",
    "rating_text": "5,0",
    "stars": null,
    "number_of_reviews": null,
    "price_level": "",
    "open_hours": "",
    "extraction_timestamp": "2025-06-08T03:29:32.930Z",
    "source_name": "google",
    "source_query": "Irrigation Equipment",
    "source_country": "UA",
    "country": "Ukraine",
    "state": "Kyivska oblast",
    "city": "Fastiv"
  },
  {
    "source_id": "ChIJDbqF_5dV00AR-sODZyenr7U",
    "name": "Kulynychi",
    "category": "Kulynychi",
    "formatted_address": "3,9(258)",
    "phone_number": "",
    "source_url": "https://www.google.com/maps/place/Kulynychi/data=!4m7!3m6!1s0x40d35597ff85ba0d:0xb5afa7276783c3fa!8m2!3d50.0792053!4d29.9112319!16s%2Fg%2F11g1kn2jqq!19sChIJDbqF_5dV00AR-sODZyenr7U?authuser=0&hl=tr&rclk=1",
    "website_url": "",
    "rating_text": "3,9",
    "stars": null,
    "number_of_reviews": null,
    "price_level": "",
    "open_hours": "",
    "extraction_timestamp": "2025-06-08T03:29:32.931Z",
    "source_name": "google",
    "source_query": "Irrigation Equipment",
    "source_country": "UA",
    "country": "Ukraine",
    "state": "Kyivska oblast",
    "city": "Fastiv"
  },
  {
    "source_id": "ChIJ___P5R5V00ARL6-7PCFJTNs",
    "name": "Фокстрот",
    "category": "Фокстрот",
    "formatted_address": "4,4(625)",
    "phone_number": "+380800300353",
    "source_url": "https://www.google.com/maps/place/%D0%A4%D0%BE%D0%BA%D1%81%D1%82%D1%80%D0%BE%D1%82/data=!4m7!3m6!1s0x40d3551ee5cfffff:0xdb4c49213cbbaf2f!8m2!3d50.0773646!4d29.9131553!16s%2Fg%2F11ggv_8kvz!19sChIJ___P5R5V00ARL6-7PCFJTNs?authuser=0&hl=tr&rclk=1",
    "website_url": "",
    "rating_text": "4,4",
    "stars": null,
    "number_of_reviews": null,
    "price_level": "",
    "open_hours": "",
    "extraction_timestamp": "2025-06-08T03:29:32.932Z",
    "source_name": "google",
    "source_query": "Irrigation Equipment",
    "source_country": "UA",
    "country": "Ukraine",
    "state": "Kyivska oblast",
    "city": "Fastiv"
  },
  {
    "source_id": "ChIJ5Qk7iR1V00AREBjYVviT2bU",
    "name": "Na Paliya",
    "category": "Na Paliya",
    "formatted_address": "4,2(90)",
    "phone_number": "",
    "source_url": "https://www.google.com/maps/place/Na+Paliya/data=!4m7!3m6!1s0x40d3551d893b09e5:0xb5d993f856d81810!8m2!3d50.0738268!4d29.9103008!16s%2Fg%2F11cs4h50rs!19sChIJ5Qk7iR1V00AREBjYVviT2bU?authuser=0&hl=tr&rclk=1",
    "website_url": "",
    "rating_text": "4,2",
    "stars": null,
    "number_of_reviews": null,
    "price_level": "",
    "open_hours": "",
    "extraction_timestamp": "2025-06-08T03:29:32.932Z",
    "source_name": "google",
    "source_query": "Irrigation Equipment",
    "source_country": "UA",
    "country": "Ukraine",
    "state": "Kyivska oblast",
    "city": "Fastiv"
  },
  {
    "source_id": "ChIJbZg5_g9V00AR99HBe4BFiIY",
    "name": "Karyna",
    "category": "Karyna",
    "formatted_address": "3,9(18)",
    "phone_number": "",
    "source_url": "https://www.google.com/maps/place/Karyna/data=!4m7!3m6!1s0x40d3550ffe39986d:0x868845807bc1d1f7!8m2!3d50.0808573!4d29.925068!16s%2Fg%2F11c205p5dr!19sChIJbZg5_g9V00AR99HBe4BFiIY?authuser=0&hl=tr&rclk=1",
    "website_url": "",
    "rating_text": "3,9",
    "stars": null,
    "number_of_reviews": null,
    "price_level": "",
    "open_hours": "",
    "extraction_timestamp": "2025-06-08T03:29:32.933Z",
    "source_name": "google",
    "source_query": "Irrigation Equipment",
    "source_country": "UA",
    "country": "Ukraine",
    "state": "Kyivska oblast",
    "city": "Fastiv"
  }
]
