[
  {
    "source_id": "ChIJRa3o2hDG1EARvFwMiTpym0k",
    "name": "ЭВКАЛИПТ Р КОМПАНИЯ",
    "category": "ЭВКАЛИПТ Р КОМПАНИЯ",
    "formatted_address": "4,9(41)",
    "phone_number": "+380933654300",
    "source_url": "https://www.google.com/maps/place/%D0%AD%D0%92%D0%9A%D0%90%D0%9B%D0%98%D0%9F%D0%A2+%D0%A0+%D0%9A%D0%9E%D0%9C%D0%9F%D0%90%D0%9D%D0%98%D0%AF/data=!4m7!3m6!1s0x40d4c610dae8ad45:0x499b723a890c5cbc!8m2!3d50.360383!4d30.47321!16s%2Fg%2F11xhrr_g1!19sChIJRa3o2hDG1EARvFwMiTpym0k?authuser=0&hl=tr&rclk=1",
    "website_url": "",
    "rating_text": "4,9",
    "stars": null,
    "number_of_reviews": null,
    "price_level": "",
    "open_hours": "",
    "extraction_timestamp": "2025-06-08T03:28:12.528Z",
    "source_name": "google",
    "source_query": "Irrigation Equipment",
    "source_country": "UA",
    "country": "Ukraine",
    "state": "Kyivska oblast",
    "city": "Hlevakha"
  },
  {
    "source_id": "ChIJ00a2TNCw1EARDT-KJDaJbVs",
    "name": "Terrakot Ukraine",
    "category": "Terrakot Ukraine",
    "formatted_address": "4,1(203)",
    "phone_number": "+380672320025",
    "source_url": "https://www.google.com/maps/place/Terrakot+Ukraine/data=!4m7!3m6!1s0x40d4b0d04cb646d3:0x5b6d8936248a3f0d!8m2!3d50.2620419!4d30.3296432!16s%2Fg%2F11c0xdk89r!19sChIJ00a2TNCw1EARDT-KJDaJbVs?authuser=0&hl=tr&rclk=1",
    "website_url": "",
    "rating_text": "4,1",
    "stars": null,
    "number_of_reviews": null,
    "price_level": "",
    "open_hours": "",
    "extraction_timestamp": "2025-06-08T03:28:12.548Z",
    "source_name": "google",
    "source_query": "Irrigation Equipment",
    "source_country": "UA",
    "country": "Ukraine",
    "state": "Kyivska oblast",
    "city": "Hlevakha"
  },
  {
    "source_id": "ChIJt4q-ft-w1EARQHxUvcQ7lu4",
    "name": "Vodomet",
    "category": "Vodomet",
    "formatted_address": "4,1(48)",
    "phone_number": "+380974382656",
    "source_url": "https://www.google.com/maps/place/Vodomet/data=!4m7!3m6!1s0x40d4b0df7ebe8ab7:0xee963bc4bd547c40!8m2!3d50.2574569!4d30.3084464!16s%2Fg%2F11dxm9yfnf!19sChIJt4q-ft-w1EARQHxUvcQ7lu4?authuser=0&hl=tr&rclk=1",
    "website_url": "",
    "rating_text": "4,1",
    "stars": null,
    "number_of_reviews": null,
    "price_level": "",
    "open_hours": "",
    "extraction_timestamp": "2025-06-08T03:28:12.550Z",
    "source_name": "google",
    "source_query": "Irrigation Equipment",
    "source_country": "UA",
    "country": "Ukraine",
    "state": "Kyivska oblast",
    "city": "Hlevakha"
  },
  {
    "source_id": "ChIJJZnLlyCx1EARc-Abz9qr9CI",
    "name": "Струмок",
    "category": "Струмок",
    "formatted_address": "4,8(51)",
    "phone_number": "+380930069209",
    "source_url": "https://www.google.com/maps/place/%D0%A1%D1%82%D1%80%D1%83%D0%BC%D0%BE%D0%BA/data=!4m7!3m6!1s0x40d4b12097cb9925:0x22f4abdacf1be073!8m2!3d50.258352!4d30.3073418!16s%2Fg%2F11fy4m0kvh!19sChIJJZnLlyCx1EARc-Abz9qr9CI?authuser=0&hl=tr&rclk=1",
    "website_url": "",
    "rating_text": "4,8",
    "stars": null,
    "number_of_reviews": null,
    "price_level": "",
    "open_hours": "",
    "extraction_timestamp": "2025-06-08T03:28:12.551Z",
    "source_name": "google",
    "source_query": "Irrigation Equipment",
    "source_country": "UA",
    "country": "Ukraine",
    "state": "Kyivska oblast",
    "city": "Hlevakha"
  },
  {
    "source_id": "ChIJ5XxAkt3L1EARKAadCejxqLE",
    "name": "Інтернет-Магазин полива Aqua Price (все для полива, оборудование для автоматического полива и ручного орошения)",
    "category": "Інтернет-Магазин полива Aqua Price (все для полива, оборудование для автоматического полива и ручного орошения)",
    "formatted_address": "Інтернет-Магазин полива Aqua Price (все для полива, оборудование для автоматического полива и ручного орошения)",
    "phone_number": "+380960773337",
    "source_url": "https://www.google.com/maps/place/%D0%86%D0%BD%D1%82%D0%B5%D1%80%D0%BD%D0%B5%D1%82-%D0%9C%D0%B0%D0%B3%D0%B0%D0%B7%D0%B8%D0%BD+%D0%BF%D0%BE%D0%BB%D0%B8%D0%B2%D0%B0+Aqua+Price+%28%D0%B2%D1%81%D0%B5+%D0%B4%D0%BB%D1%8F+%D0%BF%D0%BE%D0%BB%D0%B8%D0%B2%D0%B0,+%D0%BE%D0%B1%D0%BE%D1%80%D1%83%D0%B4%D0%BE%D0%B2%D0%B0%D0%BD%D0%B8%D0%B5+%D0%B4%D0%BB%D1%8F+%D0%B0%D0%B2%D1%82%D0%BE%D0%BC%D0%B0%D1%82%D0%B8%D1%87%D0%B5%D1%81%D0%BA%D0%BE%D0%B3%D0%BE+%D0%BF%D0%BE%D0%BB%D0%B8%D0%B2%D0%B0+%D0%B8+%D1%80%D1%83%D1%87%D0%BD%D0%BE%D0%B3%D0%BE+%D0%BE%D1%80%D0%BE%D1%88%D0%B5%D0%BD%D0%B8%D1%8F%29/data=!4m7!3m6!1s0x40d4cbdd92407ce5:0xb1a8f1e8099d0628!8m2!3d50.4275904!4d30.3497723!16s%2Fg%2F11qyk5wysc!19sChIJ5XxAkt3L1EARKAadCejxqLE?authuser=0&hl=tr&rclk=1",
    "website_url": "",
    "rating_text": "5,0",
    "stars": null,
    "number_of_reviews": null,
    "price_level": "",
    "open_hours": "",
    "extraction_timestamp": "2025-06-08T03:28:12.552Z",
    "source_name": "google",
    "source_query": "Irrigation Equipment",
    "source_country": "UA",
    "country": "Ukraine",
    "state": "Kyivska oblast",
    "city": "Hlevakha"
  },
  {
    "source_id": "ChIJ60XEpQbQ1EARVLf9IomIVYg",
    "name": "Poliv UA",
    "category": "Poliv UA",
    "formatted_address": "4,8(64)",
    "phone_number": "+380443379900",
    "source_url": "https://www.google.com/maps/place/Poliv+UA/data=!4m7!3m6!1s0x40d4d006a5c445eb:0x8855888922fdb754!8m2!3d50.4646434!4d30.6255633!16s%2Fg%2F11clsyjy7n!19sChIJ60XEpQbQ1EARVLf9IomIVYg?authuser=0&hl=tr&rclk=1",
    "website_url": "",
    "rating_text": "4,8",
    "stars": null,
    "number_of_reviews": null,
    "price_level": "",
    "open_hours": "",
    "extraction_timestamp": "2025-06-08T03:28:12.553Z",
    "source_name": "google",
    "source_query": "Irrigation Equipment",
    "source_country": "UA",
    "country": "Ukraine",
    "state": "Kyivska oblast",
    "city": "Hlevakha"
  },
  {
    "source_id": "ChIJYyU9lq_N1EARqoG8SYko8go",
    "name": "Лайф Гарден",
    "category": "Лайф Гарден",
    "formatted_address": "3,9(7)",
    "phone_number": "+380503719090",
    "source_url": "https://www.google.com/maps/place/%D0%9B%D0%B0%D0%B9%D1%84+%D0%93%D0%B0%D1%80%D0%B4%D0%B5%D0%BD/data=!4m7!3m6!1s0x40d4cdaf963d2563:0xaf2288949bc81aa!8m2!3d50.45748!4d30.3824706!16s%2Fg%2F11gr60b225!19sChIJYyU9lq_N1EARqoG8SYko8go?authuser=0&hl=tr&rclk=1",
    "website_url": "",
    "rating_text": "3,9",
    "stars": null,
    "number_of_reviews": null,
    "price_level": "",
    "open_hours": "",
    "extraction_timestamp": "2025-06-08T03:28:12.554Z",
    "source_name": "google",
    "source_query": "Irrigation Equipment",
    "source_country": "UA",
    "country": "Ukraine",
    "state": "Kyivska oblast",
    "city": "Hlevakha"
  },
  {
    "source_id": "ChIJM6VAOVjI1EARInyqFZ8ENUU",
    "name": "Hazon Mayster",
    "category": "Hazon Mayster",
    "formatted_address": "5,0(13)",
    "phone_number": "+380503588967",
    "source_url": "https://www.google.com/maps/place/Hazon+Mayster/data=!4m7!3m6!1s0x40d4c8583940a533:0x4535049f15aa7c22!8m2!3d50.3744949!4d30.4632499!16s%2Fg%2F1hhwqhx1t!19sChIJM6VAOVjI1EARInyqFZ8ENUU?authuser=0&hl=tr&rclk=1",
    "website_url": "",
    "rating_text": "5,0",
    "stars": null,
    "number_of_reviews": null,
    "price_level": "",
    "open_hours": "",
    "extraction_timestamp": "2025-06-08T03:28:12.555Z",
    "source_name": "google",
    "source_query": "Irrigation Equipment",
    "source_country": "UA",
    "country": "Ukraine",
    "state": "Kyivska oblast",
    "city": "Hlevakha"
  },
  {
    "source_id": "ChIJE60f2DPP1EARCqjSrjIeXBw",
    "name": "СпецПоливСервіс",
    "category": "СпецПоливСервіс",
    "formatted_address": "5,0(17)",
    "phone_number": "+380970822608",
    "source_url": "https://www.google.com/maps/place/%D0%A1%D0%BF%D0%B5%D1%86%D0%9F%D0%BE%D0%BB%D0%B8%D0%B2%D0%A1%D0%B5%D1%80%D0%B2%D1%96%D1%81/data=!4m7!3m6!1s0x40d4cf33d81fad13:0x1c5c1e32aed2a80a!8m2!3d50.463344!4d30.589573!16s%2Fg%2F11h0trxk1!19sChIJE60f2DPP1EARCqjSrjIeXBw?authuser=0&hl=tr&rclk=1",
    "website_url": "",
    "rating_text": "5,0",
    "stars": null,
    "number_of_reviews": null,
    "price_level": "",
    "open_hours": "",
    "extraction_timestamp": "2025-06-08T03:28:12.557Z",
    "source_name": "google",
    "source_query": "Irrigation Equipment",
    "source_country": "UA",
    "country": "Ukraine",
    "state": "Kyivska oblast",
    "city": "Hlevakha"
  },
  {
    "source_id": "ChIJP-TmlFbJ1EARlF1NhRCMAUk",
    "name": "Cheeki Ukraine. Брендирование и гравировка термопосуды.",
    "category": "Cheeki Ukraine. Брендирование и гравировка термопосуды.",
    "formatted_address": "4,4(7)",
    "phone_number": "+380631338555",
    "source_url": "https://www.google.com/maps/place/Cheeki+Ukraine.+%D0%91%D1%80%D0%B5%D0%BD%D0%B4%D0%B8%D1%80%D0%BE%D0%B2%D0%B0%D0%BD%D0%B8%D0%B5+%D0%B8+%D0%B3%D1%80%D0%B0%D0%B2%D0%B8%D1%80%D0%BE%D0%B2%D0%BA%D0%B0+%D1%82%D0%B5%D1%80%D0%BC%D0%BE%D0%BF%D0%BE%D1%81%D1%83%D0%B4%D1%8B./data=!4m7!3m6!1s0x40d4c95694e6e43f:0x49018c10854d5d94!8m2!3d50.2541854!4d30.327396!16s%2Fg%2F11ffl_jdvp!19sChIJP-TmlFbJ1EARlF1NhRCMAUk?authuser=0&hl=tr&rclk=1",
    "website_url": "",
    "rating_text": "4,4",
    "stars": null,
    "number_of_reviews": null,
    "price_level": "",
    "open_hours": "",
    "extraction_timestamp": "2025-06-08T03:28:12.558Z",
    "source_name": "google",
    "source_query": "Irrigation Equipment",
    "source_country": "UA",
    "country": "Ukraine",
    "state": "Kyivska oblast",
    "city": "Hlevakha"
  },
  {
    "source_id": "ChIJuZ4Na9vI1EARQG8rPxVBlkU",
    "name": "Магазин полива. K-Rain, Hunter, RainBird",
    "category": "Магазин полива. K-Rain, Hunter, RainBird",
    "formatted_address": "Магазин полива. K-Rain, Hunter, RainBird",
    "phone_number": "+380501088779",
    "source_url": "https://www.google.com/maps/place/%D0%9C%D0%B0%D0%B3%D0%B0%D0%B7%D0%B8%D0%BD+%D0%BF%D0%BE%D0%BB%D0%B8%D0%B2%D0%B0.+K-Rain,+Hunter,+RainBird/data=!4m7!3m6!1s0x40d4c8db6b0d9eb9:0x459641153f2b6f40!8m2!3d50.3918125!4d30.4850044!16s%2Fg%2F11hbp9s62p!19sChIJuZ4Na9vI1EARQG8rPxVBlkU?authuser=0&hl=tr&rclk=1",
    "website_url": "",
    "rating_text": "4,7",
    "stars": null,
    "number_of_reviews": null,
    "price_level": "",
    "open_hours": "",
    "extraction_timestamp": "2025-06-08T03:28:12.559Z",
    "source_name": "google",
    "source_query": "Irrigation Equipment",
    "source_country": "UA",
    "country": "Ukraine",
    "state": "Kyivska oblast",
    "city": "Hlevakha"
  },
  {
    "source_id": "ChIJiVG8rp611EARiwO732MyhP0",
    "name": "Vodomet",
    "category": "Vodomet",
    "formatted_address": "4,4(195)",
    "phone_number": "+380672762055",
    "source_url": "https://www.google.com/maps/place/Vodomet/data=!4m7!3m6!1s0x40d4b59eaebc5189:0xfd843263dfbb038b!8m2!3d50.3151458!4d30.298509!16s%2Fg%2F11j0jl5sgg!19sChIJiVG8rp611EARiwO732MyhP0?authuser=0&hl=tr&rclk=1",
    "website_url": "",
    "rating_text": "4,4",
    "stars": null,
    "number_of_reviews": null,
    "price_level": "",
    "open_hours": "",
    "extraction_timestamp": "2025-06-08T03:28:12.560Z",
    "source_name": "google",
    "source_query": "Irrigation Equipment",
    "source_country": "UA",
    "country": "Ukraine",
    "state": "Kyivska oblast",
    "city": "Hlevakha"
  },
  {
    "source_id": "ChIJXwpIBaQxK0cRc2RbcgHrIco",
    "name": "ROZETKA",
    "category": "ROZETKA",
    "formatted_address": "4,1(10)",
    "phone_number": "",
    "source_url": "https://www.google.com/maps/place/ROZETKA/data=!4m7!3m6!1s0x472b31a405480a5f:0xca21eb01725b6473!8m2!3d50.2541421!4d30.3267079!16s%2Fg%2F11l5k73kxj!19sChIJXwpIBaQxK0cRc2RbcgHrIco?authuser=0&hl=tr&rclk=1",
    "website_url": "",
    "rating_text": "4,1",
    "stars": null,
    "number_of_reviews": null,
    "price_level": "",
    "open_hours": "",
    "extraction_timestamp": "2025-06-08T03:28:12.562Z",
    "source_name": "google",
    "source_query": "Irrigation Equipment",
    "source_country": "UA",
    "country": "Ukraine",
    "state": "Kyivska oblast",
    "city": "Hlevakha"
  },
  {
    "source_id": "ChIJhxNY12m31EARI_kiR80SnXE",
    "name": "Епіцентр Express",
    "category": "Епіцентр Express",
    "formatted_address": "3,8(8)",
    "phone_number": "+380800202727",
    "source_url": "https://www.google.com/maps/place/%D0%95%D0%BF%D1%96%D1%86%D0%B5%D0%BD%D1%82%D1%80+Express/data=!4m7!3m6!1s0x40d4b769d7581387:0x719d12cd4722f923!8m2!3d50.2811495!4d30.3436414!16s%2Fg%2F11vy9q_2f9!19sChIJhxNY12m31EARI_kiR80SnXE?authuser=0&hl=tr&rclk=1",
    "website_url": "",
    "rating_text": "3,8",
    "stars": null,
    "number_of_reviews": null,
    "price_level": "",
    "open_hours": "",
    "extraction_timestamp": "2025-06-08T03:28:12.563Z",
    "source_name": "google",
    "source_query": "Irrigation Equipment",
    "source_country": "UA",
    "country": "Ukraine",
    "state": "Kyivska oblast",
    "city": "Hlevakha"
  },
  {
    "source_id": "ChIJddummNG21EARQ4O1ZHn_kDk",
    "name": "Mahazyn \"Vodoliy\"",
    "category": "Mahazyn \"Vodoliy\"",
    "formatted_address": "4,1(66)",
    "phone_number": "+380988890101",
    "source_url": "https://www.google.com/maps/place/Mahazyn+%22Vodoliy%22/data=!4m7!3m6!1s0x40d4b6d198a6db75:0x3990ff7964b58343!8m2!3d50.2802491!4d30.3197954!16s%2Fg%2F11f2sgcjjb!19sChIJddummNG21EARQ4O1ZHn_kDk?authuser=0&hl=tr&rclk=1",
    "website_url": "",
    "rating_text": "4,1",
    "stars": null,
    "number_of_reviews": null,
    "price_level": "",
    "open_hours": "",
    "extraction_timestamp": "2025-06-08T03:28:12.564Z",
    "source_name": "google",
    "source_query": "Irrigation Equipment",
    "source_country": "UA",
    "country": "Ukraine",
    "state": "Kyivska oblast",
    "city": "Hlevakha"
  },
  {
    "source_id": "ChIJzV_NkxKx1EARQ6eySPH25ts",
    "name": "Пчёлка маркет",
    "category": "Пчёлка маркет",
    "formatted_address": "4,0(123)",
    "phone_number": "+380981034544",
    "source_url": "https://www.google.com/maps/place/%D0%9F%D1%87%D1%91%D0%BB%D0%BA%D0%B0+%D0%BC%D0%B0%D1%80%D0%BA%D0%B5%D1%82/data=!4m7!3m6!1s0x40d4b11293cd5fcd:0xdbe6f6f148b2a743!8m2!3d50.2572724!4d30.3049017!16s%2Fg%2F11rsfcdg58!19sChIJzV_NkxKx1EARQ6eySPH25ts?authuser=0&hl=tr&rclk=1",
    "website_url": "",
    "rating_text": "4,0",
    "stars": null,
    "number_of_reviews": null,
    "price_level": "",
    "open_hours": "",
    "extraction_timestamp": "2025-06-08T03:28:12.565Z",
    "source_name": "google",
    "source_query": "Irrigation Equipment",
    "source_country": "UA",
    "country": "Ukraine",
    "state": "Kyivska oblast",
    "city": "Hlevakha"
  },
  {
    "source_id": "ChIJ76emL3e31EAR1pzk5AoxjU0",
    "name": "Hlevakha Tsentr",
    "category": "Hlevakha Tsentr",
    "formatted_address": "5,0(2)",
    "phone_number": "+380686227652",
    "source_url": "https://www.google.com/maps/place/Hlevakha+Tsentr/data=!4m7!3m6!1s0x40d4b7772fa6a7ef:0x4d8d310ae4e49cd6!8m2!3d50.2744844!4d30.325408!16s%2Fg%2F11l5y8cdbq!19sChIJ76emL3e31EAR1pzk5AoxjU0?authuser=0&hl=tr&rclk=1",
    "website_url": "",
    "rating_text": "5,0",
    "stars": null,
    "number_of_reviews": null,
    "price_level": "",
    "open_hours": "",
    "extraction_timestamp": "2025-06-08T03:28:12.566Z",
    "source_name": "google",
    "source_query": "Irrigation Equipment",
    "source_country": "UA",
    "country": "Ukraine",
    "state": "Kyivska oblast",
    "city": "Hlevakha"
  },
  {
    "source_id": "ChIJVVXOjSCx1EARPZxcIaWiAI0",
    "name": "Shtrudelʹok Kulynychi",
    "category": "Shtrudelʹok Kulynychi",
    "formatted_address": "4,1(225)",
    "phone_number": "",
    "source_url": "https://www.google.com/maps/place/Shtrudel%CA%B9ok+Kulynychi/data=!4m7!3m6!1s0x40d4b1208dce5555:0x8d00a2a5215c9c3d!8m2!3d50.2581413!4d30.3064963!16s%2Fg%2F11fy4w7dhw!19sChIJVVXOjSCx1EARPZxcIaWiAI0?authuser=0&hl=tr&rclk=1",
    "website_url": "",
    "rating_text": "4,1",
    "stars": null,
    "number_of_reviews": null,
    "price_level": "",
    "open_hours": "",
    "extraction_timestamp": "2025-06-08T03:28:12.566Z",
    "source_name": "google",
    "source_query": "Irrigation Equipment",
    "source_country": "UA",
    "country": "Ukraine",
    "state": "Kyivska oblast",
    "city": "Hlevakha"
  },
  {
    "source_id": "ChIJM8rtkCCx1EAR-v5Y0NFB1BA",
    "name": "Market Hlevakha",
    "category": "Market Hlevakha",
    "formatted_address": "3,7(2.109)",
    "phone_number": "",
    "source_url": "https://www.google.com/maps/place/Market+Hlevakha/data=!4m7!3m6!1s0x40d4b12090edca33:0x10d441d1d058fefa!8m2!3d50.2580341!4d30.3076054!16s%2Fg%2F12hscb70j!19sChIJM8rtkCCx1EAR-v5Y0NFB1BA?authuser=0&hl=tr&rclk=1",
    "website_url": "",
    "rating_text": "3,7",
    "stars": null,
    "number_of_reviews": null,
    "price_level": "",
    "open_hours": "",
    "extraction_timestamp": "2025-06-08T03:28:12.568Z",
    "source_name": "google",
    "source_query": "Irrigation Equipment",
    "source_country": "UA",
    "country": "Ukraine",
    "state": "Kyivska oblast",
    "city": "Hlevakha"
  },
  {
    "source_id": "ChIJO4QLIH6x1EARjFlEVjea3wE",
    "name": "Hlevasyk",
    "category": "Hlevasyk",
    "formatted_address": "4,6(9)",
    "phone_number": "",
    "source_url": "https://www.google.com/maps/place/Hlevasyk/data=!4m7!3m6!1s0x40d4b17e200b843b:0x1df9a375644598c!8m2!3d50.2742196!4d30.2957755!16s%2Fg%2F11vldqxr81!19sChIJO4QLIH6x1EARjFlEVjea3wE?authuser=0&hl=tr&rclk=1",
    "website_url": "",
    "rating_text": "4,6",
    "stars": null,
    "number_of_reviews": null,
    "price_level": "",
    "open_hours": "",
    "extraction_timestamp": "2025-06-08T03:28:12.569Z",
    "source_name": "google",
    "source_query": "Irrigation Equipment",
    "source_country": "UA",
    "country": "Ukraine",
    "state": "Kyivska oblast",
    "city": "Hlevakha"
  },
  {
    "source_id": "ChIJf5EQNhHP1EARyFIa0TSoUMU",
    "name": "ТОВ \"Стрім-Енерджі Компані\"",
    "category": "ТОВ \"Стрім-Енерджі Компані\"",
    "formatted_address": "5,0(4)",
    "phone_number": "+380509855819",
    "source_url": "https://www.google.com/maps/place/%D0%A2%D0%9E%D0%92+%22%D0%A1%D1%82%D1%80%D1%96%D0%BC-%D0%95%D0%BD%D0%B5%D1%80%D0%B4%D0%B6%D1%96+%D0%9A%D0%BE%D0%BC%D0%BF%D0%B0%D0%BD%D1%96%22/data=!4m7!3m6!1s0x40d4cf113610917f:0xc550a834d11a52c8!8m2!3d50.4520424!4d30.6416021!16s%2Fg%2F11gwp6m4rt!19sChIJf5EQNhHP1EARyFIa0TSoUMU?authuser=0&hl=tr&rclk=1",
    "website_url": "",
    "rating_text": "5,0",
    "stars": null,
    "number_of_reviews": null,
    "price_level": "",
    "open_hours": "",
    "extraction_timestamp": "2025-06-08T03:28:12.570Z",
    "source_name": "google",
    "source_query": "Irrigation Equipment",
    "source_country": "UA",
    "country": "Ukraine",
    "state": "Kyivska oblast",
    "city": "Hlevakha"
  },
  {
    "source_id": "ChIJVVUe2DPP1EARwxS4wgqw4x4",
    "name": "Біотек Інжиніринг",
    "category": "Біотек Інжиніринг",
    "formatted_address": "5,0(4)",
    "phone_number": "+380964404111",
    "source_url": "https://www.google.com/maps/place/%D0%91%D1%96%D0%BE%D1%82%D0%B5%D0%BA+%D0%86%D0%BD%D0%B6%D0%B8%D0%BD%D1%96%D1%80%D0%B8%D0%BD%D0%B3/data=!4m7!3m6!1s0x40d4cf33d81e5555:0x1ee3b00ac2b814c3!8m2!3d50.4010207!4d30.5211973!16s%2Fg%2F11hdy2hbfh!19sChIJVVUe2DPP1EARwxS4wgqw4x4?authuser=0&hl=tr&rclk=1",
    "website_url": "",
    "rating_text": "5,0",
    "stars": null,
    "number_of_reviews": null,
    "price_level": "",
    "open_hours": "",
    "extraction_timestamp": "2025-06-08T03:28:12.571Z",
    "source_name": "google",
    "source_query": "Irrigation Equipment",
    "source_country": "UA",
    "country": "Ukraine",
    "state": "Kyivska oblast",
    "city": "Hlevakha"
  },
  {
    "source_id": "ChIJIRWBgmPM1EARTsCTjS_16ZA",
    "name": "Родон-Агро",
    "category": "Родон-Агро",
    "formatted_address": "4,5(46)",
    "phone_number": "+380993086438",
    "source_url": "https://www.google.com/maps/place/%D0%A0%D0%BE%D0%B4%D0%BE%D0%BD-%D0%90%D0%B3%D1%80%D0%BE/data=!4m7!3m6!1s0x40d4cc6382811521:0x90e9f52f8d93c04e!8m2!3d50.4501333!4d30.3888885!16s%2Fg%2F11dxd2jhz2!19sChIJIRWBgmPM1EARTsCTjS_16ZA?authuser=0&hl=tr&rclk=1",
    "website_url": "",
    "rating_text": "4,5",
    "stars": null,
    "number_of_reviews": null,
    "price_level": "",
    "open_hours": "",
    "extraction_timestamp": "2025-06-08T03:28:12.572Z",
    "source_name": "google",
    "source_query": "Irrigation Equipment",
    "source_country": "UA",
    "country": "Ukraine",
    "state": "Kyivska oblast",
    "city": "Hlevakha"
  },
  {
    "source_id": "ChIJnUp7WMvI1EARjcaJP1ertzQ",
    "name": "Интернет-магазин Aquatools (Акватулс)",
    "category": "Интернет-магазин Aquatools (Акватулс)",
    "formatted_address": "4,7(45)",
    "phone_number": "+380987780977",
    "source_url": "https://www.google.com/maps/place/%D0%98%D0%BD%D1%82%D0%B5%D1%80%D0%BD%D0%B5%D1%82-%D0%BC%D0%B0%D0%B3%D0%B0%D0%B7%D0%B8%D0%BD+Aquatools+%28%D0%90%D0%BA%D0%B2%D0%B0%D1%82%D1%83%D0%BB%D1%81%29/data=!4m7!3m6!1s0x40d4c8cb587b4a9d:0x34b7ab573f89c68d!8m2!3d50.4033539!4d30.5295362!16s%2Fg%2F11b6p9929h!19sChIJnUp7WMvI1EARjcaJP1ertzQ?authuser=0&hl=tr&rclk=1",
    "website_url": "",
    "rating_text": "4,7",
    "stars": null,
    "number_of_reviews": null,
    "price_level": "",
    "open_hours": "",
    "extraction_timestamp": "2025-06-08T03:28:12.573Z",
    "source_name": "google",
    "source_query": "Irrigation Equipment",
    "source_country": "UA",
    "country": "Ukraine",
    "state": "Kyivska oblast",
    "city": "Hlevakha"
  },
  {
    "source_id": "ChIJvc-F5Xvb1EARMyU1h0yPdQ8",
    "name": "Chelsea heat service - опалення, теплові насоси, котельні",
    "category": "Chelsea heat service - опалення, теплові насоси, котельні",
    "formatted_address": "Chelsea heat service - опалення, теплові насоси, котельні",
    "phone_number": "+380972559755",
    "source_url": "https://www.google.com/maps/place/Chelsea+heat+service+-+%D0%BE%D0%BF%D0%B0%D0%BB%D0%B5%D0%BD%D0%BD%D1%8F,+%D1%82%D0%B5%D0%BF%D0%BB%D0%BE%D0%B2%D1%96+%D0%BD%D0%B0%D1%81%D0%BE%D1%81%D0%B8,+%D0%BA%D0%BE%D1%82%D0%B5%D0%BB%D1%8C%D0%BD%D1%96/data=!4m7!3m6!1s0x40d4db7be585cfbd:0xf758f4c87352533!8m2!3d50.4229139!4d30.4407644!16s%2Fg%2F11gjj9740q!19sChIJvc-F5Xvb1EARMyU1h0yPdQ8?authuser=0&hl=tr&rclk=1",
    "website_url": "",
    "rating_text": "5,0",
    "stars": null,
    "number_of_reviews": null,
    "price_level": "",
    "open_hours": "",
    "extraction_timestamp": "2025-06-08T03:28:12.574Z",
    "source_name": "google",
    "source_query": "Irrigation Equipment",
    "source_country": "UA",
    "country": "Ukraine",
    "state": "Kyivska oblast",
    "city": "Hlevakha"
  },
  {
    "source_id": "ChIJkXv1l6XF1EARB2BiserVpEA",
    "name": "Cascade Aqua - Ландшафтная Компания",
    "category": "Cascade Aqua - Ландшафтная Компания",
    "formatted_address": "5,0(3)",
    "phone_number": "+380674031580",
    "source_url": "https://www.google.com/maps/place/Cascade+Aqua+-+%D0%9B%D0%B0%D0%BD%D0%B4%D1%88%D0%B0%D1%84%D1%82%D0%BD%D0%B0%D1%8F+%D0%9A%D0%BE%D0%BC%D0%BF%D0%B0%D0%BD%D0%B8%D1%8F/data=!4m7!3m6!1s0x40d4c5a597f57b91:0x40a4d5eab1626007!8m2!3d50.4285014!4d30.6698685!16s%2Fg%2F11gpn8vbph!19sChIJkXv1l6XF1EARB2BiserVpEA?authuser=0&hl=tr&rclk=1",
    "website_url": "",
    "rating_text": "5,0",
    "stars": null,
    "number_of_reviews": null,
    "price_level": "",
    "open_hours": "",
    "extraction_timestamp": "2025-06-08T03:28:12.575Z",
    "source_name": "google",
    "source_query": "Irrigation Equipment",
    "source_country": "UA",
    "country": "Ukraine",
    "state": "Kyivska oblast",
    "city": "Hlevakha"
  },
  {
    "source_id": "ChIJR6vaoMfJ1EAR8jb--kb_9Bg",
    "name": "Сантехник-Электрик Крюковщина, Вишневое, Гатное, Киев",
    "category": "Сантехник-Электрик Крюковщина, Вишневое, Гатное, Киев",
    "formatted_address": "Сантехник-Электрик Крюковщина, Вишневое, Гатное, Киев",
    "phone_number": "+380976565087",
    "source_url": "https://www.google.com/maps/place/%D0%A1%D0%B0%D0%BD%D1%82%D0%B5%D1%85%D0%BD%D0%B8%D0%BA-%D0%AD%D0%BB%D0%B5%D0%BA%D1%82%D1%80%D0%B8%D0%BA+%D0%9A%D1%80%D1%8E%D0%BA%D0%BE%D0%B2%D1%89%D0%B8%D0%BD%D0%B0,+%D0%92%D0%B8%D1%88%D0%BD%D0%B5%D0%B2%D0%BE%D0%B5,+%D0%93%D0%B0%D1%82%D0%BD%D0%BE%D0%B5,+%D0%9A%D0%B8%D0%B5%D0%B2/data=!4m7!3m6!1s0x40d4c9c7a0daab47:0x18f4ff46fafe36f2!8m2!3d50.3818474!4d30.3862941!16s%2Fg%2F11nflvh0kd!19sChIJR6vaoMfJ1EAR8jb--kb_9Bg?authuser=0&hl=tr&rclk=1",
    "website_url": "",
    "rating_text": "4,9",
    "stars": null,
    "number_of_reviews": null,
    "price_level": "",
    "open_hours": "",
    "extraction_timestamp": "2025-06-08T03:28:12.577Z",
    "source_name": "google",
    "source_query": "Irrigation Equipment",
    "source_country": "UA",
    "country": "Ukraine",
    "state": "Kyivska oblast",
    "city": "Hlevakha"
  },
  {
    "source_id": "ChIJWxt4AlHO1EARN6oJWrfJgMc",
    "name": "Tov \"Mr\"",
    "category": "Tov \"Mr\"",
    "formatted_address": "4,5(32)",
    "phone_number": "+380995346767",
    "source_url": "https://www.google.com/maps/place/Tov+%22Mr%22/data=!4m7!3m6!1s0x40d4ce5102781b5b:0xc780c9b75a09aa37!8m2!3d50.394445!4d30.481944!16s%2Fg%2F1tfqpggj!19sChIJWxt4AlHO1EARN6oJWrfJgMc?authuser=0&hl=tr&rclk=1",
    "website_url": "",
    "rating_text": "4,5",
    "stars": null,
    "number_of_reviews": null,
    "price_level": "",
    "open_hours": "",
    "extraction_timestamp": "2025-06-08T03:28:12.577Z",
    "source_name": "google",
    "source_query": "Irrigation Equipment",
    "source_country": "UA",
    "country": "Ukraine",
    "state": "Kyivska oblast",
    "city": "Hlevakha"
  },
  {
    "source_id": "ChIJT0hf4M3I1EARObs3V3rCMZk",
    "name": "WATTON",
    "category": "WATTON",
    "formatted_address": "4,9(18)",
    "phone_number": "+380444943737",
    "source_url": "https://www.google.com/maps/place/WATTON/data=!4m7!3m6!1s0x40d4c8cde05f484f:0x9931c27a5737bb39!8m2!3d50.3982963!4d30.4979974!16s%2Fg%2F11g9dj5rdw!19sChIJT0hf4M3I1EARObs3V3rCMZk?authuser=0&hl=tr&rclk=1",
    "website_url": "",
    "rating_text": "4,9",
    "stars": null,
    "number_of_reviews": null,
    "price_level": "",
    "open_hours": "",
    "extraction_timestamp": "2025-06-08T03:28:12.578Z",
    "source_name": "google",
    "source_query": "Irrigation Equipment",
    "source_country": "UA",
    "country": "Ukraine",
    "state": "Kyivska oblast",
    "city": "Hlevakha"
  },
  {
    "source_id": "ChIJE1WvbIDN1EARGklhjSwU1es",
    "name": "Gidrosfera/Гидросфера ( Промышленный Полив )",
    "category": "Gidrosfera/Гидросфера ( Промышленный Полив )",
    "formatted_address": "5,0(1)",
    "phone_number": "+380672900101",
    "source_url": "https://www.google.com/maps/place/Gidrosfera%2F%D0%93%D0%B8%D0%B4%D1%80%D0%BE%D1%81%D1%84%D0%B5%D1%80%D0%B0+%28+%D0%9F%D1%80%D0%BE%D0%BC%D1%8B%D1%88%D0%BB%D0%B5%D0%BD%D0%BD%D1%8B%D0%B9+%D0%9F%D0%BE%D0%BB%D0%B8%D0%B2+%29/data=!4m7!3m6!1s0x40d4cd806caf5513:0xebd5142c8d61491a!8m2!3d50.496745!4d30.3688732!16s%2Fg%2F11fll214kh!19sChIJE1WvbIDN1EARGklhjSwU1es?authuser=0&hl=tr&rclk=1",
    "website_url": "",
    "rating_text": "5,0",
    "stars": null,
    "number_of_reviews": null,
    "price_level": "",
    "open_hours": "",
    "extraction_timestamp": "2025-06-08T03:28:12.579Z",
    "source_name": "google",
    "source_query": "Irrigation Equipment",
    "source_country": "UA",
    "country": "Ukraine",
    "state": "Kyivska oblast",
    "city": "Hlevakha"
  },
  {
    "source_id": "ChIJH_xN6cbL1EARD7Bc2ly3bYk",
    "name": "Delʹta Term",
    "category": "Delʹta Term",
    "formatted_address": "4,3(72)",
    "phone_number": "+380444020111",
    "source_url": "https://www.google.com/maps/place/Del%CA%B9ta+Term/data=!4m7!3m6!1s0x40d4cbc6e94dfc1f:0x896db75cda5cb00f!8m2!3d50.4077001!4d30.376854!16s%2Fg%2F11xcn6dcs!19sChIJH_xN6cbL1EARD7Bc2ly3bYk?authuser=0&hl=tr&rclk=1",
    "website_url": "",
    "rating_text": "4,3",
    "stars": null,
    "number_of_reviews": null,
    "price_level": "",
    "open_hours": "",
    "extraction_timestamp": "2025-06-08T03:28:12.580Z",
    "source_name": "google",
    "source_query": "Irrigation Equipment",
    "source_country": "UA",
    "country": "Ukraine",
    "state": "Kyivska oblast",
    "city": "Hlevakha"
  },
  {
    "source_id": "ChIJ5dUqQp2x1EARPeEoyGpO-K4",
    "name": "Ahropromkholdynh Arenda Spetstekhnyky",
    "category": "Ahropromkholdynh Arenda Spetstekhnyky",
    "formatted_address": "5,0(3)",
    "phone_number": "+380672426377",
    "source_url": "https://www.google.com/maps/place/Ahropromkholdynh+Arenda+Spetstekhnyky/data=!4m7!3m6!1s0x40d4b19d422ad5e5:0xaef84e6ac828e13d!8m2!3d50.2246541!4d30.3200193!16s%2Fg%2F11hf1xw_kn!19sChIJ5dUqQp2x1EARPeEoyGpO-K4?authuser=0&hl=tr&rclk=1",
    "website_url": "",
    "rating_text": "5,0",
    "stars": null,
    "number_of_reviews": null,
    "price_level": "",
    "open_hours": "",
    "extraction_timestamp": "2025-06-08T03:28:12.581Z",
    "source_name": "google",
    "source_query": "Irrigation Equipment",
    "source_country": "UA",
    "country": "Ukraine",
    "state": "Kyivska oblast",
    "city": "Hlevakha"
  }
]
