[
  {
    "source_id": "ChIJ60XEpQbQ1EARVLf9IomIVYg",
    "name": "Poliv UA",
    "category": "Poliv UA",
    "formatted_address": "4,8(64)",
    "phone_number": "+380443379900",
    "source_url": "https://www.google.com/maps/place/Poliv+UA/data=!4m7!3m6!1s0x40d4d006a5c445eb:0x8855888922fdb754!8m2!3d50.4646434!4d30.6255633!16s%2Fg%2F11clsyjy7n!19sChIJ60XEpQbQ1EARVLf9IomIVYg?authuser=0&hl=tr&rclk=1",
    "website_url": "",
    "rating_text": "4,8",
    "stars": null,
    "number_of_reviews": null,
    "price_level": "",
    "open_hours": "",
    "extraction_timestamp": "2025-06-08T03:35:17.042Z",
    "source_name": "google",
    "source_query": "Irrigation Equipment",
    "source_country": "UA",
    "country": "Ukraine",
    "state": "Kyivska oblast",
    "city": "Hnidyn"
  },
  {
    "source_id": "ChIJM6VAOVjI1EARInyqFZ8ENUU",
    "name": "Hazon Mayster",
    "category": "Hazon Mayster",
    "formatted_address": "5,0(13)",
    "phone_number": "+380503588967",
    "source_url": "https://www.google.com/maps/place/Hazon+Mayster/data=!4m7!3m6!1s0x40d4c8583940a533:0x4535049f15aa7c22!8m2!3d50.3744949!4d30.4632499!16s%2Fg%2F1hhwqhx1t!19sChIJM6VAOVjI1EARInyqFZ8ENUU?authuser=0&hl=tr&rclk=1",
    "website_url": "",
    "rating_text": "5,0",
    "stars": null,
    "number_of_reviews": null,
    "price_level": "",
    "open_hours": "",
    "extraction_timestamp": "2025-06-08T03:35:17.050Z",
    "source_name": "google",
    "source_query": "Irrigation Equipment",
    "source_country": "UA",
    "country": "Ukraine",
    "state": "Kyivska oblast",
    "city": "Hnidyn"
  },
  {
    "source_id": "ChIJYyU9lq_N1EARqoG8SYko8go",
    "name": "Лайф Гарден",
    "category": "Лайф Гарден",
    "formatted_address": "3,9(7)",
    "phone_number": "+380503719090",
    "source_url": "https://www.google.com/maps/place/%D0%9B%D0%B0%D0%B9%D1%84+%D0%93%D0%B0%D1%80%D0%B4%D0%B5%D0%BD/data=!4m7!3m6!1s0x40d4cdaf963d2563:0xaf2288949bc81aa!8m2!3d50.45748!4d30.3824706!16s%2Fg%2F11gr60b225!19sChIJYyU9lq_N1EARqoG8SYko8go?authuser=0&hl=tr&rclk=1",
    "website_url": "",
    "rating_text": "3,9",
    "stars": null,
    "number_of_reviews": null,
    "price_level": "",
    "open_hours": "",
    "extraction_timestamp": "2025-06-08T03:35:17.051Z",
    "source_name": "google",
    "source_query": "Irrigation Equipment",
    "source_country": "UA",
    "country": "Ukraine",
    "state": "Kyivska oblast",
    "city": "Hnidyn"
  },
  {
    "source_id": "ChIJq1OAQEXF1EARIAyoFByGrW4",
    "name": "Ahrarna Industrialʹna Kompaniya",
    "category": "Ahrarna Industrialʹna Kompaniya",
    "formatted_address": "4,8(12)",
    "phone_number": "+380504444184",
    "source_url": "https://www.google.com/maps/place/Ahrarna+Industrial%CA%B9na+Kompaniya/data=!4m7!3m6!1s0x40d4c545408053ab:0x6ead861c14a80c20!8m2!3d50.4090678!4d30.6121652!16s%2Fg%2F1tdk3pn4!19sChIJq1OAQEXF1EARIAyoFByGrW4?authuser=0&hl=tr&rclk=1",
    "website_url": "",
    "rating_text": "4,8",
    "stars": null,
    "number_of_reviews": null,
    "price_level": "",
    "open_hours": "",
    "extraction_timestamp": "2025-06-08T03:35:17.052Z",
    "source_name": "google",
    "source_query": "Irrigation Equipment",
    "source_country": "UA",
    "country": "Ukraine",
    "state": "Kyivska oblast",
    "city": "Hnidyn"
  },
  {
    "source_id": "ChIJT__QY53B1EARQL56me6oGcI",
    "name": "Магазин Молоток",
    "category": "Магазин Молоток",
    "formatted_address": "4,6(23)",
    "phone_number": "+380991919126",
    "source_url": "https://www.google.com/maps/place/%D0%9C%D0%B0%D0%B3%D0%B0%D0%B7%D0%B8%D0%BD+%D0%9C%D0%BE%D0%BB%D0%BE%D1%82%D0%BE%D0%BA/data=!4m7!3m6!1s0x40d4c19d63d0ff4f:0xc219a8ee997abe40!8m2!3d50.3288597!4d30.7057368!16s%2Fg%2F11c5swbjjp!19sChIJT__QY53B1EARQL56me6oGcI?authuser=0&hl=tr&rclk=1",
    "website_url": "",
    "rating_text": "4,6",
    "stars": null,
    "number_of_reviews": null,
    "price_level": "",
    "open_hours": "",
    "extraction_timestamp": "2025-06-08T03:35:17.053Z",
    "source_name": "google",
    "source_query": "Irrigation Equipment",
    "source_country": "UA",
    "country": "Ukraine",
    "state": "Kyivska oblast",
    "city": "Hnidyn"
  },
  {
    "source_id": "ChIJuZ4Na9vI1EARQG8rPxVBlkU",
    "name": "Магазин полива. K-Rain, Hunter, RainBird",
    "category": "Магазин полива. K-Rain, Hunter, RainBird",
    "formatted_address": "Магазин полива. K-Rain, Hunter, RainBird",
    "phone_number": "+380501088779",
    "source_url": "https://www.google.com/maps/place/%D0%9C%D0%B0%D0%B3%D0%B0%D0%B7%D0%B8%D0%BD+%D0%BF%D0%BE%D0%BB%D0%B8%D0%B2%D0%B0.+K-Rain,+Hunter,+RainBird/data=!4m7!3m6!1s0x40d4c8db6b0d9eb9:0x459641153f2b6f40!8m2!3d50.3918125!4d30.4850044!16s%2Fg%2F11hbp9s62p!19sChIJuZ4Na9vI1EARQG8rPxVBlkU?authuser=0&hl=tr&rclk=1",
    "website_url": "",
    "rating_text": "4,7",
    "stars": null,
    "number_of_reviews": null,
    "price_level": "",
    "open_hours": "",
    "extraction_timestamp": "2025-06-08T03:35:17.054Z",
    "source_name": "google",
    "source_query": "Irrigation Equipment",
    "source_country": "UA",
    "country": "Ukraine",
    "state": "Kyivska oblast",
    "city": "Hnidyn"
  },
  {
    "source_id": "ChIJ1_h-I3bB1EAR7bbvkH8NfC8",
    "name": "Fora",
    "category": "Fora",
    "formatted_address": "4,3(486)",
    "phone_number": "+380800301230",
    "source_url": "https://www.google.com/maps/place/Fora/data=!4m7!3m6!1s0x40d4c176237ef8d7:0x2f7c0d7f90efb6ed!8m2!3d50.3281369!4d30.7056096!16s%2Fg%2F11b_24qh42!19sChIJ1_h-I3bB1EAR7bbvkH8NfC8?authuser=0&hl=tr&rclk=1",
    "website_url": "",
    "rating_text": "4,3",
    "stars": null,
    "number_of_reviews": null,
    "price_level": "",
    "open_hours": "",
    "extraction_timestamp": "2025-06-08T03:35:17.055Z",
    "source_name": "google",
    "source_query": "Irrigation Equipment",
    "source_country": "UA",
    "country": "Ukraine",
    "state": "Kyivska oblast",
    "city": "Hnidyn"
  },
  {
    "source_id": "ChIJf4jHN1LM1EARBkfaDZQGDTw",
    "name": "Dr. Sprinkler",
    "category": "Dr. Sprinkler",
    "formatted_address": "4,8(4)",
    "phone_number": "+380965335353",
    "source_url": "https://www.google.com/maps/place/Dr.+Sprinkler/data=!4m7!3m6!1s0x40d4cc5237c7887f:0x3c0d06940dda4706!8m2!3d50.4105845!4d30.558873!16s%2Fg%2F1q6j9h1m6!19sChIJf4jHN1LM1EARBkfaDZQGDTw?authuser=0&hl=tr&rclk=1",
    "website_url": "",
    "rating_text": "4,8",
    "stars": null,
    "number_of_reviews": null,
    "price_level": "",
    "open_hours": "",
    "extraction_timestamp": "2025-06-08T03:35:17.057Z",
    "source_name": "google",
    "source_query": "Irrigation Equipment",
    "source_country": "UA",
    "country": "Ukraine",
    "state": "Kyivska oblast",
    "city": "Hnidyn"
  },
  {
    "source_id": "ChIJWxt4AlHO1EARIhiDVwPGmbM",
    "name": "Eridon",
    "category": "Eridon",
    "formatted_address": "4,4(96)",
    "phone_number": "+380800408700",
    "source_url": "https://www.google.com/maps/place/Eridon/data=!4m7!3m6!1s0x40d4ce5102781b5b:0xb399c60357831822!8m2!3d50.3907885!4d30.4151779!16s%2Fg%2F1tf_rd2m!19sChIJWxt4AlHO1EARIhiDVwPGmbM?authuser=0&hl=tr&rclk=1",
    "website_url": "",
    "rating_text": "4,4",
    "stars": null,
    "number_of_reviews": null,
    "price_level": "",
    "open_hours": "",
    "extraction_timestamp": "2025-06-08T03:35:17.058Z",
    "source_name": "google",
    "source_query": "Irrigation Equipment",
    "source_country": "UA",
    "country": "Ukraine",
    "state": "Kyivska oblast",
    "city": "Hnidyn"
  },
  {
    "source_id": "ChIJKzuqq4XB1EARFHYrKqe-s6s",
    "name": "Mahazyn Produktovyy",
    "category": "Mahazyn Produktovyy",
    "formatted_address": "4,1(46)",
    "phone_number": "",
    "source_url": "https://www.google.com/maps/place/Mahazyn+Produktovyy/data=!4m7!3m6!1s0x40d4c185abaa3b2b:0xabb3bea72a2b7614!8m2!3d50.3299164!4d30.7236959!16s%2Fg%2F11g6b3zsvz!19sChIJKzuqq4XB1EARFHYrKqe-s6s?authuser=0&hl=tr&rclk=1",
    "website_url": "",
    "rating_text": "4,1",
    "stars": null,
    "number_of_reviews": null,
    "price_level": "",
    "open_hours": "",
    "extraction_timestamp": "2025-06-08T03:35:17.058Z",
    "source_name": "google",
    "source_query": "Irrigation Equipment",
    "source_country": "UA",
    "country": "Ukraine",
    "state": "Kyivska oblast",
    "city": "Hnidyn"
  },
  {
    "source_id": "ChIJfxBN4bfB1EARURwnZBw7zuo",
    "name": "Vishen'ki",
    "category": "Vishen'ki",
    "formatted_address": "4,1(321)",
    "phone_number": "",
    "source_url": "https://www.google.com/maps/place/Vishen%27ki/data=!4m7!3m6!1s0x40d4c1b7e14d107f:0xeace3b1c64271c51!8m2!3d50.3045544!4d30.7162432!16s%2Fg%2F11csqt7z7r!19sChIJfxBN4bfB1EARURwnZBw7zuo?authuser=0&hl=tr&rclk=1",
    "website_url": "",
    "rating_text": "4,1",
    "stars": null,
    "number_of_reviews": null,
    "price_level": "",
    "open_hours": "",
    "extraction_timestamp": "2025-06-08T03:35:17.059Z",
    "source_name": "google",
    "source_query": "Irrigation Equipment",
    "source_country": "UA",
    "country": "Ukraine",
    "state": "Kyivska oblast",
    "city": "Hnidyn"
  },
  {
    "source_id": "ChIJERuRHDjB1EARGsHlGo5ro9s",
    "name": "Mini Market",
    "category": "Mini Market",
    "formatted_address": "3,8(13)",
    "phone_number": "",
    "source_url": "https://www.google.com/maps/place/Mini+Market/data=!4m7!3m6!1s0x40d4c1381c911b11:0xdba36b8e1ae5c11a!8m2!3d50.3279432!4d30.7047876!16s%2Fg%2F11gtfrx5bk!19sChIJERuRHDjB1EARGsHlGo5ro9s?authuser=0&hl=tr&rclk=1",
    "website_url": "",
    "rating_text": "3,8",
    "stars": null,
    "number_of_reviews": null,
    "price_level": "",
    "open_hours": "",
    "extraction_timestamp": "2025-06-08T03:35:17.059Z",
    "source_name": "google",
    "source_query": "Irrigation Equipment",
    "source_country": "UA",
    "country": "Ukraine",
    "state": "Kyivska oblast",
    "city": "Hnidyn"
  },
  {
    "source_id": "ChIJneamVYHB1EARY_mLnzylHDQ",
    "name": "ETIKA café",
    "category": "ETIKA café",
    "formatted_address": "4,8(191) · ₺₺",
    "phone_number": "+380631207403",
    "source_url": "https://www.google.com/maps/place/ETIKA+caf%C3%A9/data=!4m7!3m6!1s0x40d4c18155a6e69d:0x341ca53c9f8bf963!8m2!3d50.3309918!4d30.7103309!16s%2Fg%2F11fj7j1wgn!19sChIJneamVYHB1EARY_mLnzylHDQ?authuser=0&hl=tr&rclk=1",
    "website_url": "",
    "rating_text": "4,8",
    "stars": null,
    "number_of_reviews": null,
    "price_level": "",
    "open_hours": "",
    "extraction_timestamp": "2025-06-08T03:35:17.061Z",
    "source_name": "google",
    "source_query": "Irrigation Equipment",
    "source_country": "UA",
    "country": "Ukraine",
    "state": "Kyivska oblast",
    "city": "Hnidyn"
  },
  {
    "source_id": "ChIJVVXFVhjM1EARWSWS_qv0o0U",
    "name": "Интегрированные Водные Технологии",
    "category": "Интегрированные Водные Технологии",
    "formatted_address": "Su Pompası Tedarikçisi · 50°27'00.0\"N 30°30'00.0\"E, Borshchahivska St, 206Kapalı ⋅ Açılış zamanı: Pzt 08:30 · +380 67 441 4277",
    "phone_number": "+380674414277",
    "source_url": "https://www.google.com/maps/place/%D0%98%D0%BD%D1%82%D0%B5%D0%B3%D1%80%D0%B8%D1%80%D0%BE%D0%B2%D0%B0%D0%BD%D0%BD%D1%8B%D0%B5+%D0%92%D0%BE%D0%B4%D0%BD%D1%8B%D0%B5+%D0%A2%D0%B5%D1%85%D0%BD%D0%BE%D0%BB%D0%BE%D0%B3%D0%B8%D0%B8/data=!4m7!3m6!1s0x40d4cc1856c55555:0x45a3f4abfe922559!8m2!3d50.4424622!4d30.4349734!16s%2Fg%2F11rxqk21tx!19sChIJVVXFVhjM1EARWSWS_qv0o0U?authuser=0&hl=tr&rclk=1",
    "website_url": "",
    "rating_text": "",
    "stars": null,
    "number_of_reviews": null,
    "price_level": "",
    "open_hours": "",
    "extraction_timestamp": "2025-06-08T03:35:17.062Z",
    "source_name": "google",
    "source_query": "Irrigation Equipment",
    "source_country": "UA",
    "country": "Ukraine",
    "state": "Kyivska oblast",
    "city": "Hnidyn"
  }
]
