[
  {
    "source_id": "ChIJNco8ObwxK0cRXdz4BX-jfWE",
    "name": "Hunter/Fiskars/Dlf/Rehau/Cellfast/Syngenta-\"Poli-Valko\"",
    "category": "Hunter/Fiskars/Dlf/Rehau/Cellfast/Syngenta-\"Poli-Valko\"",
    "formatted_address": "4,6(22)",
    "phone_number": "",
    "source_url": "https://www.google.com/maps/place/Hunter%2FFiskars%2FDlf%2FRehau%2FCellfast%2FSyngenta-%22Poli-Valko%22/data=!4m7!3m6!1s0x472b31bc393cca35:0x617da37f05f8dc5d!8m2!3d50.5451903!4d30.1934992!16s%2Fg%2F11h7cwlxj8!19sChIJNco8ObwxK0cRXdz4BX-jfWE?authuser=0&hl=tr&rclk=1",
    "website_url": "https://instagram.com/poli_valko?igshid=MzNlNGNkZWQ4Mg==",
    "rating_text": "4,6",
    "stars": null,
    "number_of_reviews": null,
    "price_level": "",
    "open_hours": "",
    "extraction_timestamp": "2025-06-08T03:32:27.687Z",
    "source_name": "google",
    "source_query": "Irrigation Equipment",
    "source_country": "UA",
    "country": "Ukraine",
    "state": "Kyivska oblast",
    "city": "Hostomel"
  },
  {
    "source_id": "ChIJfZaL8M4zK0cRAZRnYZIqtcA",
    "name": "AQUA WINNER",
    "category": "AQUA WINNER",
    "formatted_address": "5,0(3)",
    "phone_number": "+380674840508",
    "source_url": "https://www.google.com/maps/place/AQUA+WINNER/data=!4m7!3m6!1s0x472b33cef08b967d:0xc0b52a9261679401!8m2!3d50.5286525!4d30.2448537!16s%2Fg%2F11w3zl1814!19sChIJfZaL8M4zK0cRAZRnYZIqtcA?authuser=0&hl=tr&rclk=1",
    "website_url": "http://psk.ua/ua/",
    "rating_text": "5,0",
    "stars": null,
    "number_of_reviews": null,
    "price_level": "",
    "open_hours": "",
    "extraction_timestamp": "2025-06-08T03:32:27.691Z",
    "source_name": "google",
    "source_query": "Irrigation Equipment",
    "source_country": "UA",
    "country": "Ukraine",
    "state": "Kyivska oblast",
    "city": "Hostomel"
  },
  {
    "source_id": "ChIJhUei-CwyK0cRAttoEB7AgSg",
    "name": "–ú–∞–≥–∞–∑–∏–Ω —Å–∞–Ω—Ç–µ—Ö–Ω—ñ–∫–∏ VivaTerm",
    "category": "–ú–∞–≥–∞–∑–∏–Ω —Å–∞–Ω—Ç–µ—Ö–Ω—ñ–∫–∏ VivaTerm",
    "formatted_address": "4,8(13)",
    "phone_number": "+380960461135",
    "source_url": "https://www.google.com/maps/place/%D0%9C%D0%B0%D0%B3%D0%B0%D0%B7%D0%B8%D0%BD+%D1%81%D0%B0%D0%BD%D1%82%D0%B5%D1%85%D0%BD%D1%96%D0%BA%D0%B8+VivaTerm/data=!4m7!3m6!1s0x472b322cf8a24785:0x2881c01e1068db02!8m2!3d50.5233164!4d30.2474428!16s%2Fg%2F11f35shhwp!19sChIJhUei-CwyK0cRAttoEB7AgSg?authuser=0&hl=tr&rclk=1",
    "website_url": "http://www.vivaterm.com.ua/",
    "rating_text": "4,8",
    "stars": null,
    "number_of_reviews": null,
    "price_level": "",
    "open_hours": "",
    "extraction_timestamp": "2025-06-08T03:32:27.693Z",
    "source_name": "google",
    "source_query": "Irrigation Equipment",
    "source_country": "UA",
    "country": "Ukraine",
    "state": "Kyivska oblast",
    "city": "Hostomel"
  },
  {
    "source_id": "ChIJM6VAOVjI1EARInyqFZ8ENUU",
    "name": "Hazon Mayster",
    "category": "Hazon Mayster",
    "formatted_address": "5,0(13)",
    "phone_number": "+380503588967",
    "source_url": "https://www.google.com/maps/place/Hazon+Mayster/data=!4m7!3m6!1s0x40d4c8583940a533:0x4535049f15aa7c22!8m2!3d50.3744949!4d30.4632499!16s%2Fg%2F1hhwqhx1t!19sChIJM6VAOVjI1EARInyqFZ8ENUU?authuser=0&hl=tr&rclk=1",
    "website_url": "https://gazon-master.com.ua/uk/",
    "rating_text": "5,0",
    "stars": null,
    "number_of_reviews": null,
    "price_level": "",
    "open_hours": "",
    "extraction_timestamp": "2025-06-08T03:32:27.694Z",
    "source_name": "google",
    "source_query": "Irrigation Equipment",
    "source_country": "UA",
    "country": "Ukraine",
    "state": "Kyivska oblast",
    "city": "Hostomel"
  },
  {
    "source_id": "ChIJDfv0zywyK0cRLdgAAOk7MRo",
    "name": "Pehas",
    "category": "Pehas",
    "formatted_address": "4,6(38)",
    "phone_number": "+380681881818",
    "source_url": "https://www.google.com/maps/place/Pehas/data=!4m7!3m6!1s0x472b322ccff4fb0d:0x1a313be90000d82d!8m2!3d50.5251564!4d30.2458395!16s%2Fg%2F11b5vpqqtk!19sChIJDfv0zywyK0cRLdgAAOk7MRo?authuser=0&hl=tr&rclk=1",
    "website_url": "https://pegasltd.com.ua/",
    "rating_text": "4,6",
    "stars": null,
    "number_of_reviews": null,
    "price_level": "",
    "open_hours": "",
    "extraction_timestamp": "2025-06-08T03:32:27.696Z",
    "source_name": "google",
    "source_query": "Irrigation Equipment",
    "source_country": "UA",
    "country": "Ukraine",
    "state": "Kyivska oblast",
    "city": "Hostomel"
  },
  {
    "source_id": "ChIJq1OAQEXF1EARIAyoFByGrW4",
    "name": "Ahrarna Industrial πna Kompaniya",
    "category": "Ahrarna Industrial πna Kompaniya",
    "formatted_address": "4,8(12)",
    "phone_number": "+380504444184",
    "source_url": "https://www.google.com/maps/place/Ahrarna+Industrial%CA%B9na+Kompaniya/data=!4m7!3m6!1s0x40d4c545408053ab:0x6ead861c14a80c20!8m2!3d50.4090678!4d30.6121652!16s%2Fg%2F1tdk3pn4!19sChIJq1OAQEXF1EARIAyoFByGrW4?authuser=0&hl=tr&rclk=1",
    "website_url": "https://aico.ua/",
    "rating_text": "4,8",
    "stars": null,
    "number_of_reviews": null,
    "price_level": "",
    "open_hours": "",
    "extraction_timestamp": "2025-06-08T03:32:27.697Z",
    "source_name": "google",
    "source_query": "Irrigation Equipment",
    "source_country": "UA",
    "country": "Ukraine",
    "state": "Kyivska oblast",
    "city": "Hostomel"
  },
  {
    "source_id": "ChIJ1U9SM8jjckARgOediH7GMvs",
    "name": "SANTEHNYK.com üíß –°–∞–Ω—Ç–µ—Ö–Ω—ñ–∫ –ë—É—á–∞, –Ü—Ä–ø—ñ–Ω—å —Ç–∞ –ö–∏—ó–≤",
    "category": "SANTEHNYK.com üíß –°–∞–Ω—Ç–µ—Ö–Ω—ñ–∫ –ë—É—á–∞, –Ü—Ä–ø—ñ–Ω—å —Ç–∞ –ö–∏—ó–≤",
    "formatted_address": "SANTEHNYK.com üíß –°–∞–Ω—Ç–µ—Ö–Ω—ñ–∫ –ë—É—á–∞, –Ü—Ä–ø—ñ–Ω—å —Ç–∞ –ö–∏—ó–≤",
    "phone_number": "+380976300347",
    "source_url": "https://www.google.com/maps/place/SANTEHNYK.com+%F0%9F%92%A7+%D0%A1%D0%B0%D0%BD%D1%82%D0%B5%D1%85%D0%BD%D1%96%D0%BA+%D0%91%D1%83%D1%87%D0%B0,+%D0%86%D1%80%D0%BF%D1%96%D0%BD%D1%8C+%D1%82%D0%B0+%D0%9A%D0%B8%D1%97%D0%B2/data=!4m7!3m6!1s0x4072e3c833524fd5:0xfb32c67e889de780!8m2!3d50.5369496!4d30.2379086!16s%2Fg%2F11xgg8r7yx!19sChIJ1U9SM8jjckARgOediH7GMvs?authuser=0&hl=tr&rclk=1",
    "website_url": "https://santehnyk.com/",
    "rating_text": "",
    "stars": null,
    "number_of_reviews": null,
    "price_level": "",
    "open_hours": "",
    "extraction_timestamp": "2025-06-08T03:32:27.699Z",
    "source_name": "google",
    "source_query": "Irrigation Equipment",
    "source_country": "UA",
    "country": "Ukraine",
    "state": "Kyivska oblast",
    "city": "Hostomel"
  },
  {
    "source_id": "ChIJA7ajwkkxK0cRX7MFuOAivww",
    "name": "Ventsgradov - –ö–æ–Ω–¥–∏—Ü—ñ–æ–Ω—É–≤–∞–Ω–Ω—è —Ç–∞ –í–µ–Ω—Ç–∏–ª—è—Ü—ñ—è",
    "category": "Ventsgradov - –ö–æ–Ω–¥–∏—Ü—ñ–æ–Ω—É–≤–∞–Ω–Ω—è —Ç–∞ –í–µ–Ω—Ç–∏–ª—è—Ü—ñ—è",
    "formatted_address": "5,0(68)",
    "phone_number": "+380737898222",
    "source_url": "https://www.google.com/maps/place/Ventsgradov+-+%D0%9A%D0%BE%D0%BD%D0%B4%D0%B8%D1%86%D1%96%D0%BE%D0%BD%D1%83%D0%B2%D0%B0%D0%BD%D0%BD%D1%8F+%D1%82%D0%B0+%D0%92%D0%B5%D0%BD%D1%82%D0%B8%D0%BB%D1%8F%D1%86%D1%96%D1%8F/data=!4m7!3m6!1s0x472b3149c2a3b603:0xcbf22e0b805b35f!8m2!3d50.5449086!4d30.1927925!16s%2Fg%2F11vm4z9cyq!19sChIJA7ajwkkxK0cRX7MFuOAivww?authuser=0&hl=tr&rclk=1",
    "website_url": "https://ventsgradov.com.ua/",
    "rating_text": "5,0",
    "stars": null,
    "number_of_reviews": null,
    "price_level": "",
    "open_hours": "",
    "extraction_timestamp": "2025-06-08T03:32:27.700Z",
    "source_name": "google",
    "source_query": "Irrigation Equipment",
    "source_country": "UA",
    "country": "Ukraine",
    "state": "Kyivska oblast",
    "city": "Hostomel"
  },
  {
    "source_id": "ChIJWVyWY7cxK0cReSIhSsiw0RE",
    "name": "Store Clean Water",
    "category": "Store Clean Water",
    "formatted_address": "3,3(12)",
    "phone_number": "+380987118551",
    "source_url": "https://www.google.com/maps/place/Store+Clean+Water/data=!4m7!3m6!1s0x472b31b763965c59:0x11d1b0c84a212279!8m2!3d50.5525917!4d30.2063355!16s%2Fg%2F11g69_n1gn!19sChIJWVyWY7cxK0cReSIhSsiw0RE?authuser=0&hl=tr&rclk=1",
    "website_url": "",
    "rating_text": "3,3",
    "stars": null,
    "number_of_reviews": null,
    "price_level": "",
    "open_hours": "",
    "extraction_timestamp": "2025-06-08T03:32:27.701Z",
    "source_name": "google",
    "source_query": "Irrigation Equipment",
    "source_country": "UA",
    "country": "Ukraine",
    "state": "Kyivska oblast",
    "city": "Hostomel"
  },
  {
    "source_id": "ChIJq6p6ek3J1EAR_uPnwIFdwFY",
    "name": "–°–∏—Å—Ç–µ–º—ã –ø–æ–ª–∏–≤–∞",
    "category": "–°–∏—Å—Ç–µ–º—ã –ø–æ–ª–∏–≤–∞",
    "formatted_address": "√áim Yaƒümurlama Sistemi Y√ºklenicisi ¬∑ Volynska St, 48/50+380 67 190 9989",
    "phone_number": "+380671909989",
    "source_url": "https://www.google.com/maps/place/%D0%A1%D0%B8%D1%81%D1%82%D0%B5%D0%BC%D1%8B+%D0%BF%D0%BE%D0%BB%D0%B8%D0%B2%D0%B0/data=!4m7!3m6!1s0x40d4c94d7a7aaaab:0x56c05d81c0e7e3fe!8m2!3d50.4177962!4d30.4415501!16s%2Fg%2F11hys__3kz!19sChIJq6p6ek3J1EAR_uPnwIFdwFY?authuser=0&hl=tr&rclk=1",
    "website_url": "https://irrigation.kiev.ua/",
    "rating_text": "",
    "stars": null,
    "number_of_reviews": null,
    "price_level": "",
    "open_hours": "",
    "extraction_timestamp": "2025-06-08T03:32:27.702Z",
    "source_name": "google",
    "source_query": "Irrigation Equipment",
    "source_country": "UA",
    "country": "Ukraine",
    "state": "Kyivska oblast",
    "city": "Hostomel"
  },
  {
    "source_id": "ChIJVVXFVhjM1EARWSWS_qv0o0U",
    "name": "–ò–Ω—Ç–µ–≥—Ä–∏—Ä–æ–≤–∞–Ω–Ω—ã–µ –í–æ–¥–Ω—ã–µ –¢–µ—Ö–Ω–æ–ª–æ–≥–∏–∏",
    "category": "–ò–Ω—Ç–µ–≥—Ä–∏—Ä–æ–≤–∞–Ω–Ω—ã–µ –í–æ–¥–Ω—ã–µ –¢–µ—Ö–Ω–æ–ª–æ–≥–∏–∏",
    "formatted_address": "Su Pompasƒ± Tedarik√ßisi ¬∑ 50¬∞27'00.0\"N 30¬∞30'00.0\"E, Borshchahivska St, 206Kapalƒ± ‚ãÖ A√ßƒ±lƒ±≈ü zamanƒ±: Pzt 08:30 ¬∑ +380 67 441 4277",
    "phone_number": "+380674414277",
    "source_url": "https://www.google.com/maps/place/%D0%98%D0%BD%D1%82%D0%B5%D0%B3%D1%80%D0%B8%D1%80%D0%BE%D0%B2%D0%B0%D0%BD%D0%BD%D1%8B%D0%B5+%D0%92%D0%BE%D0%B4%D0%BD%D1%8B%D0%B5+%D0%A2%D0%B5%D1%85%D0%BD%D0%BE%D0%BB%D0%BE%D0%B3%D0%B8%D0%B8/data=!4m7!3m6!1s0x40d4cc1856c55555:0x45a3f4abfe922559!8m2!3d50.4424622!4d30.4349734!16s%2Fg%2F11rxqk21tx!19sChIJVVXFVhjM1EARWSWS_qv0o0U?authuser=0&hl=tr&rclk=1",
    "website_url": "http://shop-iwt.com.ua/",
    "rating_text": "",
    "stars": null,
    "number_of_reviews": null,
    "price_level": "",
    "open_hours": "",
    "extraction_timestamp": "2025-06-08T03:32:27.704Z",
    "source_name": "google",
    "source_query": "Irrigation Equipment",
    "source_country": "UA",
    "country": "Ukraine",
    "state": "Kyivska oblast",
    "city": "Hostomel"
  },
  {
    "source_id": "ChIJq6p6ek3J1EAR_QyV4w95Pkw",
    "name": "–°–∏—Å—Ç–µ–º—ã –ø–æ–ª–∏–≤–∞",
    "category": "–°–∏—Å—Ç–µ–º—ã –ø–æ–ª–∏–≤–∞",
    "formatted_address": "√áim Yaƒümurlama Sistemi Y√ºklenicisi ¬∑ Zhylianska St, 48/50+380 67 190 9989",
    "phone_number": "+380671909989",
    "source_url": "https://www.google.com/maps/place/%D0%A1%D0%B8%D1%81%D1%82%D0%B5%D0%BC%D1%8B+%D0%BF%D0%BE%D0%BB%D0%B8%D0%B2%D0%B0/data=!4m7!3m6!1s0x40d4c94d7a7aaaab:0x4c3e790fe3950cfd!8m2!3d50.434722!4d30.5063037!16s%2Fg%2F11fp8ykcbj!19sChIJq6p6ek3J1EAR_QyV4w95Pkw?authuser=0&hl=tr&rclk=1",
    "website_url": "https://irrigation.kiev.ua/",
    "rating_text": "",
    "stars": null,
    "number_of_reviews": null,
    "price_level": "",
    "open_hours": "",
    "extraction_timestamp": "2025-06-08T03:32:27.705Z",
    "source_name": "google",
    "source_query": "Irrigation Equipment",
    "source_country": "UA",
    "country": "Ukraine",
    "state": "Kyivska oblast",
    "city": "Hostomel"
  },
  {
    "source_id": "ChIJ91d-Rc3L1EAR5jSBxiEnAl4",
    "name": "Avtomatycheskyy Polyv",
    "category": "Avtomatycheskyy Polyv",
    "formatted_address": "√áim Yaƒümurlama Sistemi Y√ºklenicisi ¬∑ Sviatoiuriivska St, 24, –∫–≤. 13Kapalƒ± ‚ãÖ A√ßƒ±lƒ±≈ü saati: 09:00 ¬∑ +380 93 045 2967",
    "phone_number": "+380930452967",
    "source_url": "https://www.google.com/maps/place/Avtomatycheskyy+Polyv/data=!4m7!3m6!1s0x40d4cbcd457e57f7:0x5e022721c68134e6!8m2!3d50.3808688!4d30.3723999!16s%2Fg%2F11fsxhtxbn!19sChIJ91d-Rc3L1EAR5jSBxiEnAl4?authuser=0&hl=tr&rclk=1",
    "website_url": "https://hunterpoliv.com.ua/",
    "rating_text": "",
    "stars": null,
    "number_of_reviews": null,
    "price_level": "",
    "open_hours": "",
    "extraction_timestamp": "2025-06-08T03:32:27.706Z",
    "source_name": "google",
    "source_query": "Irrigation Equipment",
    "source_country": "UA",
    "country": "Ukraine",
    "state": "Kyivska oblast",
    "city": "Hostomel"
  },
  {
    "source_id": "ChIJC_tNbXAzK0cRt4bG__9c0kQ",
    "name": "Gree Climat (–∫–æ–Ω–¥–∏—Ü—ñ–æ–Ω–µ—Ä–∏, –≤–µ–Ω—Ç–∏–ª—è—Ü—ñ—è —Ç–∞ –æ–ø–∞–ª–µ–Ω–Ω—è)",
    "category": "Gree Climat (–∫–æ–Ω–¥–∏—Ü—ñ–æ–Ω–µ—Ä–∏, –≤–µ–Ω—Ç–∏–ª—è—Ü—ñ—è —Ç–∞ –æ–ø–∞–ª–µ–Ω–Ω—è)",
    "formatted_address": "Gree Climat (–∫–æ–Ω–¥–∏—Ü—ñ–æ–Ω–µ—Ä–∏, –≤–µ–Ω—Ç–∏–ª—è—Ü—ñ—è —Ç–∞ –æ–ø–∞–ª–µ–Ω–Ω—è)",
    "phone_number": "+380502359988",
    "source_url": "https://www.google.com/maps/place/Gree+Climat+%28%D0%BA%D0%BE%D0%BD%D0%B4%D0%B8%D1%86%D1%96%D0%BE%D0%BD%D0%B5%D1%80%D0%B8,+%D0%B2%D0%B5%D0%BD%D1%82%D0%B8%D0%BB%D1%8F%D1%86%D1%96%D1%8F+%D1%82%D0%B0+%D0%BE%D0%BF%D0%B0%D0%BB%D0%B5%D0%BD%D0%BD%D1%8F%29/data=!4m7!3m6!1s0x472b33706d4dfb0b:0x44d25cffffc686b7!8m2!3d50.536541!4d30.2616479!16s%2Fg%2F11qgjkpwgb!19sChIJC_tNbXAzK0cRt4bG__9c0kQ?authuser=0&hl=tr&rclk=1",
    "website_url": "http://gree-climat.com.ua/",
    "rating_text": "4,4",
    "stars": null,
    "number_of_reviews": null,
    "price_level": "",
    "open_hours": "",
    "extraction_timestamp": "2025-06-08T03:32:27.707Z",
    "source_name": "google",
    "source_query": "Irrigation Equipment",
    "source_country": "UA",
    "country": "Ukraine",
    "state": "Kyivska oblast",
    "city": "Hostomel"
  },
  {
    "source_id": "ChIJ99iKh1oxK0cRWtGwYHOoSYM",
    "name": "–¢–µ—Ä–∏—Ç–æ—Äi—è —Ç–µ–ø–ª–∞",
    "category": "–¢–µ—Ä–∏—Ç–æ—Äi—è —Ç–µ–ø–ª–∞",
    "formatted_address": "Isƒ±tma Sistemleri ¬∑ Nove Hwy, 16Kapalƒ± ‚ãÖ A√ßƒ±lƒ±≈ü zamanƒ±: Pzt 08:00 ¬∑ +380 63 973 2470",
    "phone_number": "+380639732470",
    "source_url": "https://www.google.com/maps/place/%D0%A2%D0%B5%D1%80%D0%B8%D1%82%D0%BE%D1%80i%D1%8F+%D1%82%D0%B5%D0%BF%D0%BB%D0%B0/data=!4m7!3m6!1s0x472b315a878ad8f7:0x8349a87360b0d15a!8m2!3d50.5520165!4d30.2070532!16s%2Fg%2F11lkf_n1cr!19sChIJ99iKh1oxK0cRWtGwYHOoSYM?authuser=0&hl=tr&rclk=1",
    "website_url": "https://territorytepla.wixsite.com/website",
    "rating_text": "",
    "stars": null,
    "number_of_reviews": null,
    "price_level": "",
    "open_hours": "",
    "extraction_timestamp": "2025-06-08T03:32:27.708Z",
    "source_name": "google",
    "source_query": "Irrigation Equipment",
    "source_country": "UA",
    "country": "Ukraine",
    "state": "Kyivska oblast",
    "city": "Hostomel"
  },
  {
    "source_id": "ChIJnYB9mdgxK0cRSZ4RypMBnFI",
    "name": "Dostavka Pytnoyi Vody - Mistseve Dzherelo",
    "category": "Dostavka Pytnoyi Vody - Mistseve Dzherelo",
    "formatted_address": "4,3(50)",
    "phone_number": "+380673364809",
    "source_url": "https://www.google.com/maps/place/Dostavka+Pytnoyi+Vody+-+Mistseve+Dzherelo/data=!4m7!3m6!1s0x472b31d8997d809d:0x529c0193ca119e49!8m2!3d50.5489183!4d30.2074988!16s%2Fg%2F11gjt5rzjc!19sChIJnYB9mdgxK0cRSZ4RypMBnFI?authuser=0&hl=tr&rclk=1",
    "website_url": "http://www.vodamd.com.ua/",
    "rating_text": "4,3",
    "stars": null,
    "number_of_reviews": null,
    "price_level": "",
    "open_hours": "",
    "extraction_timestamp": "2025-06-08T03:32:27.709Z",
    "source_name": "google",
    "source_query": "Irrigation Equipment",
    "source_country": "UA",
    "country": "Ukraine",
    "state": "Kyivska oblast",
    "city": "Hostomel"
  },
  {
    "source_id": "ChIJydmSMvoxK0cRAca0oYaFGbY",
    "name": "–°–¢–û Longrun (–õ–æ–Ω–≥—Ä–∞–Ω)",
    "category": "–°–¢–û Longrun (–õ–æ–Ω–≥—Ä–∞–Ω)",
    "formatted_address": "4,7(142)",
    "phone_number": "+380800359376",
    "source_url": "https://www.google.com/maps/place/%D0%A1%D0%A2%D0%9E+Longrun+%28%D0%9B%D0%BE%D0%BD%D0%B3%D1%80%D0%B0%D0%BD%29/data=!4m7!3m6!1s0x472b31fa3292d9c9:0xb6198586a1b4c601!8m2!3d50.5550994!4d30.2587025!16s%2Fg%2F12jsjgn66!19sChIJydmSMvoxK0cRAca0oYaFGbY?authuser=0&hl=tr&rclk=1",
    "website_url": "https://longrun.com.ua/",
    "rating_text": "4,7",
    "stars": null,
    "number_of_reviews": null,
    "price_level": "",
    "open_hours": "",
    "extraction_timestamp": "2025-06-08T03:32:27.710Z",
    "source_name": "google",
    "source_query": "Irrigation Equipment",
    "source_country": "UA",
    "country": "Ukraine",
    "state": "Kyivska oblast",
    "city": "Hostomel"
  },
  {
    "source_id": "ChIJoQqM_ikyK0cRQDjDcTr6l48",
    "name": "–î–æ–±—Ä–æ—Å—Ç—Ä–æ–π –ú–ü",
    "category": "–î–æ–±—Ä–æ—Å—Ç—Ä–æ–π –ú–ü",
    "formatted_address": "3,0(3)",
    "phone_number": "+380739111333",
    "source_url": "https://www.google.com/maps/place/%D0%94%D0%BE%D0%B1%D1%80%D0%BE%D1%81%D1%82%D1%80%D0%BE%D0%B9+%D0%9C%D0%9F/data=!4m7!3m6!1s0x472b3229fe8c0aa1:0x8f97fa3a71c33840!8m2!3d50.5296517!4d30.2395218!16s%2Fg%2F11h_6q0l51!19sChIJoQqM_ikyK0cRQDjDcTr6l48?authuser=0&hl=tr&rclk=1",
    "website_url": "https://dsmp.com.ua/",
    "rating_text": "3,0",
    "stars": null,
    "number_of_reviews": null,
    "price_level": "",
    "open_hours": "",
    "extraction_timestamp": "2025-06-08T03:32:27.711Z",
    "source_name": "google",
    "source_query": "Irrigation Equipment",
    "source_country": "UA",
    "country": "Ukraine",
    "state": "Kyivska oblast",
    "city": "Hostomel"
  },
  {
    "source_id": "ChIJKYuA5gIuK0cRVMoXRPSidoQ",
    "name": "—Å–∫–ª–∞–¥-–º–∞–≥–∞–∑–∏–Ω –î–µ—Ä–µ–≤'—è–Ω–∏–π —Ä–∏–Ω–æ–∫",
    "category": "—Å–∫–ª–∞–¥-–º–∞–≥–∞–∑–∏–Ω –î–µ—Ä–µ–≤'—è–Ω–∏–π —Ä–∏–Ω–æ–∫",
    "formatted_address": "3,5(30)",
    "phone_number": "+380443608808",
    "source_url": "https://www.google.com/maps/place/%D1%81%D0%BA%D0%BB%D0%B0%D0%B4-%D0%BC%D0%B0%D0%B3%D0%B0%D0%B7%D0%B8%D0%BD+%D0%94%D0%B5%D1%80%D0%B5%D0%B2%27%D1%8F%D0%BD%D0%B8%D0%B9+%D1%80%D0%B8%D0%BD%D0%BE%D0%BA/data=!4m7!3m6!1s0x472b2e02e6808b29:0x8476a2f44417ca54!8m2!3d50.5550977!4d30.2599619!16s%2Fg%2F11g87c6rgk!19sChIJKYuA5gIuK0cRVMoXRPSidoQ?authuser=0&hl=tr&rclk=1",
    "website_url": "http://woodenmarket.com.ua/",
    "rating_text": "3,5",
    "stars": null,
    "number_of_reviews": null,
    "price_level": "",
    "open_hours": "",
    "extraction_timestamp": "2025-06-08T03:32:27.712Z",
    "source_name": "google",
    "source_query": "Irrigation Equipment",
    "source_country": "UA",
    "country": "Ukraine",
    "state": "Kyivska oblast",
    "city": "Hostomel"
  },
  {
    "source_id": "ChIJs5_zkxouK0cRjCrZ7Kr1Erw",
    "name": "Fora",
    "category": "Fora",
    "formatted_address": "3,8(359)",
    "phone_number": "+380800301230",
    "source_url": "https://www.google.com/maps/place/Fora/data=!4m7!3m6!1s0x472b2e1a93f39fb3:0xbc12f5aaecd92a8c!8m2!3d50.5716214!4d30.2670373!16s%2Fg%2F11bwyhzlh4!19sChIJs5_zkxouK0cRjCrZ7Kr1Erw?authuser=0&hl=tr&rclk=1",
    "website_url": "https://fora.ua/",
    "rating_text": "3,8",
    "stars": null,
    "number_of_reviews": null,
    "price_level": "",
    "open_hours": "",
    "extraction_timestamp": "2025-06-08T03:32:27.713Z",
    "source_name": "google",
    "source_query": "Irrigation Equipment",
    "source_country": "UA",
    "country": "Ukraine",
    "state": "Kyivska oblast",
    "city": "Hostomel"
  },
  {
    "source_id": "ChIJaQpn2V3M1EARYURE_LJJysM",
    "name": "Sempal",
    "category": "Sempal",
    "formatted_address": "4,6(23)",
    "phone_number": "+380443551188",
    "source_url": "https://www.google.com/maps/place/Sempal/data=!4m7!3m6!1s0x40d4cc5dd9670a69:0xc3ca49b2fc444461!8m2!3d50.4545028!4d30.4002704!16s%2Fg%2F1v16ntp3!19sChIJaQpn2V3M1EARYURE_LJJysM?authuser=0&hl=tr&rclk=1",
    "website_url": "https://www.sempal.com/",
    "rating_text": "4,6",
    "stars": null,
    "number_of_reviews": null,
    "price_level": "",
    "open_hours": "",
    "extraction_timestamp": "2025-06-08T03:32:27.715Z",
    "source_name": "google",
    "source_query": "Irrigation Equipment",
    "source_country": "UA",
    "country": "Ukraine",
    "state": "Kyivska oblast",
    "city": "Hostomel"
  },
  {
    "source_id": "ChIJw2WQ26nN1EARR4PP1yU0__Y",
    "name": "–°–∞–¥–æ–≤–∏–π –¶–µ–Ω—Ç—Ä –ü—ñ—Å–∞—Ä–¥i",
    "category": "–°–∞–¥–æ–≤–∏–π –¶–µ–Ω—Ç—Ä –ü—ñ—Å–∞—Ä–¥i",
    "formatted_address": "4,7(294)",
    "phone_number": "+380989255556",
    "source_url": "https://www.google.com/maps/place/%D0%A1%D0%B0%D0%B4%D0%BE%D0%B2%D0%B8%D0%B9+%D0%A6%D0%B5%D0%BD%D1%82%D1%80+%D0%9F%D1%96%D1%81%D0%B0%D1%80%D0%B4i/data=!4m7!3m6!1s0x40d4cda9db9065c3:0xf6ff3425d7cf8347!8m2!3d50.504339!4d30.1888321!16s%2Fg%2F11c575jgrm!19sChIJw2WQ26nN1EARR4PP1yU0__Y?authuser=0&hl=tr&rclk=1",
    "website_url": "http://pisardi.ua/",
    "rating_text": "4,7",
    "stars": null,
    "number_of_reviews": null,
    "price_level": "",
    "open_hours": "",
    "extraction_timestamp": "2025-06-08T03:32:27.716Z",
    "source_name": "google",
    "source_query": "Irrigation Equipment",
    "source_country": "UA",
    "country": "Ukraine",
    "state": "Kyivska oblast",
    "city": "Hostomel"
  },
  {
    "source_id": "ChIJ_2cEdX_S1EARsv2r4n5iHdU",
    "name": "Hidroterm Inzhynirinh Nvp Tov",
    "category": "Hidroterm Inzhynirinh Nvp Tov",
    "formatted_address": "5,0(4)",
    "phone_number": "+380444618580",
    "source_url": "https://www.google.com/maps/place/Hidroterm+Inzhynirinh+Nvp+Tov/data=!4m7!3m6!1s0x40d4d27f750467ff:0xd51d627ee2abfdb2!8m2!3d50.508465!4d30.455745!16s%2Fg%2F11xj2fhbn!19sChIJ_2cEdX_S1EARsv2r4n5iHdU?authuser=0&hl=tr&rclk=1",
    "website_url": "http://www.gidro-term.com.ua/",
    "rating_text": "5,0",
    "stars": null,
    "number_of_reviews": null,
    "price_level": "",
    "open_hours": "",
    "extraction_timestamp": "2025-06-08T03:32:27.717Z",
    "source_name": "google",
    "source_query": "Irrigation Equipment",
    "source_country": "UA",
    "country": "Ukraine",
    "state": "Kyivska oblast",
    "city": "Hostomel"
  },
  {
    "source_id": "ChIJ2eqUuWPM1EARSC-yTfVPpgk",
    "name": "Sadovyy Tsentr Taviya",
    "category": "Sadovyy Tsentr Taviya",
    "formatted_address": "4,5(603)",
    "phone_number": "+380662604088",
    "source_url": "https://www.google.com/maps/place/Sadovyy+Tsentr+Taviya/data=!4m7!3m6!1s0x40d4cc63b994ead9:0x9a64ff54db22f48!8m2!3d50.4557159!4d30.4188543!16s%2Fg%2F1tm8chvb!19sChIJ2eqUuWPM1EARSC-yTfVPpgk?authuser=0&hl=tr&rclk=1",
    "website_url": "http://www.taviasad.com/",
    "rating_text": "4,5",
    "stars": null,
    "number_of_reviews": null,
    "price_level": "",
    "open_hours": "",
    "extraction_timestamp": "2025-06-08T03:32:27.718Z",
    "source_name": "google",
    "source_query": "Irrigation Equipment",
    "source_country": "UA",
    "country": "Ukraine",
    "state": "Kyivska oblast",
    "city": "Hostomel"
  },
  {
    "source_id": "ChIJp1mxLWrM1EARCIoo6dIZrS0",
    "name": "Klimat Tekhnolohiyi Ltd.",
    "category": "Klimat Tekhnolohiyi Ltd.",
    "formatted_address": "4,6(14)",
    "phone_number": "+380442062096",
    "source_url": "https://www.google.com/maps/place/Klimat+Tekhnolohiyi+Ltd./data=!4m7!3m6!1s0x40d4cc6a2db159a7:0x2dad19d2e9288a08!8m2!3d50.4515736!4d30.4131939!16s%2Fg%2F1wn325bk!19sChIJp1mxLWrM1EARCIoo6dIZrS0?authuser=0&hl=tr&rclk=1",
    "website_url": "https://nasosvdom.com.ua/",
    "rating_text": "4,6",
    "stars": null,
    "number_of_reviews": null,
    "price_level": "",
    "open_hours": "",
    "extraction_timestamp": "2025-06-08T03:32:27.719Z",
    "source_name": "google",
    "source_query": "Irrigation Equipment",
    "source_country": "UA",
    "country": "Ukraine",
    "state": "Kyivska oblast",
    "city": "Hostomel"
  },
  {
    "source_id": "ChIJuXdaApwj1UAR6rJ6f4SGl9Q",
    "name": "Kyiv Home",
    "category": "Kyiv Home",
    "formatted_address": "4,5(23)",
    "phone_number": "+380972333007",
    "source_url": "https://www.google.com/maps/place/Kyiv+Home/data=!4m7!3m6!1s0x40d5239c025a77b9:0xd49786847f7ab2ea!8m2!3d50.4901858!4d30.5773563!16s%2Fg%2F11c3x9gl35!19sChIJuXdaApwj1UAR6rJ6f4SGl9Q?authuser=0&hl=tr&rclk=1",
    "website_url": "https://kievrem.com.ua/",
    "rating_text": "4,5",
    "stars": null,
    "number_of_reviews": null,
    "price_level": "",
    "open_hours": "",
    "extraction_timestamp": "2025-06-08T03:32:27.720Z",
    "source_name": "google",
    "source_query": "Irrigation Equipment",
    "source_country": "UA",
    "country": "Ukraine",
    "state": "Kyivska oblast",
    "city": "Hostomel"
  },
  {
    "source_id": "ChIJJ96QO17M1EAR7op59hvVvLs",
    "name": "–°–≤—ñ—Ç –∑–º—ñ—à—É–≤–∞—á—ñ–≤ - –ú–∏—Ä –°–º–µ—Å–∏—Ç–µ–ª–µ–π - –°–∞–Ω—Ç–µ—Ö–Ω–∏–∫–∞, –°–º–µ—Å–∏—Ç–µ–ª–∏ –î–ª—è –ö—É—Ö–Ω–∏, –°–º–µ—Å–∏—Ç–µ–ª–∏ –î–ª—è –í–∞–Ω–Ω—ã, –î—É—à–µ–≤—ã–µ –°–∏—Å—Ç–µ–º—ã",
    "category": "–°–≤—ñ—Ç –∑–º—ñ—à—É–≤–∞—á—ñ–≤ - –ú–∏—Ä –°–º–µ—Å–∏—Ç–µ–ª–µ–π - –°–∞–Ω—Ç–µ—Ö–Ω–∏–∫–∞, –°–º–µ—Å–∏—Ç–µ–ª–∏ –î–ª—è –ö—É—Ö–Ω–∏, –°–º–µ—Å–∏—Ç–µ–ª–∏ –î–ª—è –í–∞–Ω–Ω—ã, –î—É—à–µ–≤—ã–µ –°–∏—Å—Ç–µ–º—ã",
    "formatted_address": "–°–≤—ñ—Ç –∑–º—ñ—à—É–≤–∞—á—ñ–≤ - –ú–∏—Ä –°–º–µ—Å–∏—Ç–µ–ª–µ–π - –°–∞–Ω—Ç–µ—Ö–Ω–∏–∫–∞, –°–º–µ—Å–∏—Ç–µ–ª–∏ –î–ª—è –ö—É—Ö–Ω–∏, –°–º–µ—Å–∏—Ç–µ–ª–∏ –î–ª—è –í–∞–Ω–Ω—ã, –î—É—à–µ–≤—ã–µ –°–∏—Å—Ç–µ–º—ã",
    "phone_number": "+380965992002",
    "source_url": "https://www.google.com/maps/place/%D0%A1%D0%B2%D1%96%D1%82+%D0%B7%D0%BC%D1%96%D1%88%D1%83%D0%B2%D0%B0%D1%87%D1%96%D0%B2+-+%D0%9C%D0%B8%D1%80+%D0%A1%D0%BC%D0%B5%D1%81%D0%B8%D1%82%D0%B5%D0%BB%D0%B5%D0%B9+-+%D0%A1%D0%B0%D0%BD%D1%82%D0%B5%D1%85%D0%BD%D0%B8%D0%BA%D0%B0,+%D0%A1%D0%BC%D0%B5%D1%81%D0%B8%D1%82%D0%B5%D0%BB%D0%B8+%D0%94%D0%BB%D1%8F+%D0%9A%D1%83%D1%85%D0%BD%D0%B8,+%D0%A1%D0%BC%D0%B5%D1%81%D0%B8%D1%82%D0%B5%D0%BB%D0%B8+%D0%94%D0%BB%D1%8F+%D0%92%D0%B0%D0%BD%D0%BD%D1%8B,+%D0%94%D1%83%D1%88%D0%B5%D0%B2%D1%8B%D0%B5+%D0%A1%D0%B8%D1%81%D1%82%D0%B5%D0%BC%D1%8B/data=!4m7!3m6!1s0x40d4cc5e3b90de27:0xbbbcd51bf6798aee!8m2!3d50.4570344!4d30.3957582!16s%2Fg%2F11b8zw8t8g!19sChIJJ96QO17M1EAR7op59hvVvLs?authuser=0&hl=tr&rclk=1",
    "website_url": "https://www.mir-mix.com/",
    "rating_text": "4,5",
    "stars": null,
    "number_of_reviews": null,
    "price_level": "",
    "open_hours": "",
    "extraction_timestamp": "2025-06-08T03:32:27.721Z",
    "source_name": "google",
    "source_query": "Irrigation Equipment",
    "source_country": "UA",
    "country": "Ukraine",
    "state": "Kyivska oblast",
    "city": "Hostomel"
  },
  {
    "source_id": "ChIJq4qOh13N1EAReHt9TzzSWW4",
    "name": "–ú–ê–ì–Ü–Ø –°–ê–î–£ –≤—ñ–¥ –ö–∞—Ç–µ—Ä–∏–Ω–∏ –ö–æ—Ä–¥—É–Ω",
    "category": "–ú–ê–ì–Ü–Ø –°–ê–î–£ –≤—ñ–¥ –ö–∞—Ç–µ—Ä–∏–Ω–∏ –ö–æ—Ä–¥—É–Ω",
    "formatted_address": "5,0(34)",
    "phone_number": "+380967074047",
    "source_url": "https://www.google.com/maps/place/%D0%9C%D0%90%D0%93%D0%86%D0%AF+%D0%A1%D0%90%D0%94%D0%A3+%D0%B2%D1%96%D0%B4+%D0%9A%D0%B0%D1%82%D0%B5%D1%80%D0%B8%D0%BD%D0%B8+%D0%9A%D0%BE%D1%80%D0%B4%D1%83%D0%BD/data=!4m7!3m6!1s0x40d4cd5d878e8aab:0x6e59d23c4f7d7b78!8m2!3d50.4962072!4d30.3720686!16s%2Fg%2F11px8b0brl!19sChIJq4qOh13N1EAReHt9TzzSWW4?authuser=0&hl=tr&rclk=1",
    "website_url": "https://www.magsad.kiev.ua/",
    "rating_text": "5,0",
    "stars": null,
    "number_of_reviews": null,
    "price_level": "",
    "open_hours": "",
    "extraction_timestamp": "2025-06-08T03:32:27.722Z",
    "source_name": "google",
    "source_query": "Irrigation Equipment",
    "source_country": "UA",
    "country": "Ukraine",
    "state": "Kyivska oblast",
    "city": "Hostomel"
  },
  {
    "source_id": "ChIJHWA5XTfM1EARVFHOyyvOvmY",
    "name": "–ü—ñ–≤–¥—é–π–º–∞ –ö–∏—ó–≤ –ë–µ—Ä–µ—Å—Ç–µ–π—Å—å–∫–∞ - —Ç–æ–≤–∞—Ä–∏ –¥–ª—è —Ç–µ–ø–ª–æ–≤–æ–¥–æ–ø–æ—Å—Ç–∞—á–∞–Ω–Ω—è —Ç–∞ –≤–æ–¥–æ–≤—ñ–¥–≤–µ–¥–µ–Ω–Ω—è",
    "category": "–ü—ñ–≤–¥—é–π–º–∞ –ö–∏—ó–≤ –ë–µ—Ä–µ—Å—Ç–µ–π—Å—å–∫–∞ - —Ç–æ–≤–∞—Ä–∏ –¥–ª—è —Ç–µ–ø–ª–æ–≤–æ–¥–æ–ø–æ—Å—Ç–∞—á–∞–Ω–Ω—è —Ç–∞ –≤–æ–¥–æ–≤—ñ–¥–≤–µ–¥–µ–Ω–Ω—è",
    "formatted_address": "4,5(75)",
    "phone_number": "+380976020202",
    "source_url": "https://www.google.com/maps/place/%D0%9F%D1%96%D0%B2%D0%B4%D1%8E%D0%B9%D0%BC%D0%B0+%D0%9A%D0%B8%D1%97%D0%B2+%D0%91%D0%B5%D1%80%D0%B5%D1%81%D1%82%D0%B5%D0%B9%D1%81%D1%8C%D0%BA%D0%B0+-+%D1%82%D0%BE%D0%B2%D0%B0%D1%80%D0%B8+%D0%B4%D0%BB%D1%8F+%D1%82%D0%B5%D0%BF%D0%BB%D0%BE%D0%B2%D0%BE%D0%B4%D0%BE%D0%BF%D0%BE%D1%81%D1%82%D0%B0%D1%87%D0%B0%D0%BD%D0%BD%D1%8F+%D1%82%D0%B0+%D0%B2%D0%BE%D0%B4%D0%BE%D0%B2%D1%96%D0%B4%D0%B2%D0%B5%D0%B4%D0%B5%D0%BD%D0%BD%D1%8F/data=!4m7!3m6!1s0x40d4cc375d39601d:0x66bece2bcbce5154!8m2!3d50.4578258!4d30.4281065!16s%2Fg%2F1vk6xr3c!19sChIJHWA5XTfM1EARVFHOyyvOvmY?authuser=0&hl=tr&rclk=1",
    "website_url": "https://www.pivduyma.ua/location?location_id=5",
    "rating_text": "4,5",
    "stars": null,
    "number_of_reviews": null,
    "price_level": "",
    "open_hours": "",
    "extraction_timestamp": "2025-06-08T03:32:27.723Z",
    "source_name": "google",
    "source_query": "Irrigation Equipment",
    "source_country": "UA",
    "country": "Ukraine",
    "state": "Kyivska oblast",
    "city": "Hostomel"
  },
  {
    "source_id": "ChIJp3UpwsvN1EAR0vD1s4gDaDU",
    "name": "–û–û–û \"–ì–∏–¥—Ä–æ–º–∞—à –ò–Ω–∂–∏–Ω–∏—Ä–∏–Ω–≥\" - –Ω–∞—Å–æ—Å—ã –∏ –æ–±–æ—Ä—É–¥–æ–≤–∞–Ω–∏–µ –¥–ª—è –≤–æ–¥–æ—Å–Ω–∞–±–∂–µ–Ω–∏—è, –æ—Ç–æ–ø–ª–µ–Ω–∏—è, –∫–∞–Ω–∞–ª–∏–∑–∞—Ü–∏–∏",
    "category": "–û–û–û \"–ì–∏–¥—Ä–æ–º–∞—à –ò–Ω–∂–∏–Ω–∏—Ä–∏–Ω–≥\" - –Ω–∞—Å–æ—Å—ã –∏ –æ–±–æ—Ä—É–¥–æ–≤–∞–Ω–∏–µ –¥–ª—è –≤–æ–¥–æ—Å–Ω–∞–±–∂–µ–Ω–∏—è, –æ—Ç–æ–ø–ª–µ–Ω–∏—è, –∫–∞–Ω–∞–ª–∏–∑–∞—Ü–∏–∏",
    "formatted_address": "–û–û–û \"–ì–∏–¥—Ä–æ–º–∞—à –ò–Ω–∂–∏–Ω–∏—Ä–∏–Ω–≥\" - –Ω–∞—Å–æ—Å—ã –∏ –æ–±–æ—Ä—É–¥–æ–≤–∞–Ω–∏–µ –¥–ª—è –≤–æ–¥–æ—Å–Ω–∞–±–∂–µ–Ω–∏—è, –æ—Ç–æ–ø–ª–µ–Ω–∏—è, –∫–∞–Ω–∞–ª–∏–∑–∞—Ü–∏–∏",
    "phone_number": "+380445023931",
    "source_url": "https://www.google.com/maps/place/%D0%9E%D0%9E%D0%9E+%22%D0%93%D0%B8%D0%B4%D1%80%D0%BE%D0%BC%D0%B0%D1%88+%D0%98%D0%BD%D0%B6%D0%B8%D0%BD%D0%B8%D1%80%D0%B8%D0%BD%D0%B3%22+-+%D0%BD%D0%B0%D1%81%D0%BE%D1%81%D1%8B+%D0%B8+%D0%BE%D0%B1%D0%BE%D1%80%D1%83%D0%B4%D0%BE%D0%B2%D0%B0%D0%BD%D0%B8%D0%B5+%D0%B4%D0%BB%D1%8F+%D0%B2%D0%BE%D0%B4%D0%BE%D1%81%D0%BD%D0%B0%D0%B1%D0%B6%D0%B5%D0%BD%D0%B8%D1%8F,+%D0%BE%D1%82%D0%BE%D0%BF%D0%BB%D0%B5%D0%BD%D0%B8%D1%8F,+%D0%BA%D0%B0%D0%BD%D0%B0%D0%BB%D0%B8%D0%B7%D0%B0%D1%86%D0%B8%D0%B8/data=!4m7!3m6!1s0x40d4cdcbc22975a7:0x35680388b3f5f0d2!8m2!3d50.5038125!4d30.4598456!16s%2Fg%2F1tm0rp0q!19sChIJp3UpwsvN1EAR0vD1s4gDaDU?authuser=0&hl=tr&rclk=1",
    "website_url": "http://gme.in.ua/",
    "rating_text": "4,1",
    "stars": null,
    "number_of_reviews": null,
    "price_level": "",
    "open_hours": "",
    "extraction_timestamp": "2025-06-08T03:32:27.724Z",
    "source_name": "google",
    "source_query": "Irrigation Equipment",
    "source_country": "UA",
    "country": "Ukraine",
    "state": "Kyivska oblast",
    "city": "Hostomel"
  },
  {
    "source_id": "ChIJsd996IrL1EARUOgDcqy_-_8",
    "name": "Hidropro Inzhynirynh",
    "category": "Hidropro Inzhynirynh",
    "formatted_address": "5,0(7)",
    "phone_number": "+380443320475",
    "source_url": "https://www.google.com/maps/place/Hidropro+Inzhynirynh/data=!4m7!3m6!1s0x40d4cb8ae87ddfb1:0xfffbbfac7203e850!8m2!3d50.4479966!4d30.3572576!16s%2Fg%2F11xf0c1hx!19sChIJsd996IrL1EARUOgDcqy_-_8?authuser=0&hl=tr&rclk=1",
    "website_url": "http://water-filters.com.ua/",
    "rating_text": "5,0",
    "stars": null,
    "number_of_reviews": null,
    "price_level": "",
    "open_hours": "",
    "extraction_timestamp": "2025-06-08T03:32:27.725Z",
    "source_name": "google",
    "source_query": "Irrigation Equipment",
    "source_country": "UA",
    "country": "Ukraine",
    "state": "Kyivska oblast",
    "city": "Hostomel"
  },
  {
    "source_id": "ChIJ1RCArHjL1EARMnRDD-hi6UM",
    "name": "Ahrosnab Ukrayna Ooo",
    "category": "Ahrosnab Ukrayna Ooo",
    "formatted_address": "5,0(1)",
    "phone_number": "+380442229742",
    "source_url": "https://www.google.com/maps/place/Ahrosnab+Ukrayna+Ooo/data=!4m7!3m6!1s0x40d4cb78ac8010d5:0x43e962e80f437432!8m2!3d50.436619!4d30.3640476!16s%2Fg%2F11y0l8nwy!19sChIJ1RCArHjL1EARMnRDD-hi6UM?authuser=0&hl=tr&rclk=1",
    "website_url": "http://agrocnab.com.ua/contacts.html",
    "rating_text": "5,0",
    "stars": null,
    "number_of_reviews": null,
    "price_level": "",
    "open_hours": "",
    "extraction_timestamp": "2025-06-08T03:32:27.726Z",
    "source_name": "google",
    "source_query": "Irrigation Equipment",
    "source_country": "UA",
    "country": "Ukraine",
    "state": "Kyivska oblast",
    "city": "Hostomel"
  },
  {
    "source_id": "ChIJ3wcAhnnL1EAR7sTe5Wg6-wo",
    "name": "WaterMart",
    "category": "WaterMart",
    "formatted_address": "4,5(33)",
    "phone_number": "+380677045454",
    "source_url": "https://www.google.com/maps/place/WaterMart/data=!4m7!3m6!1s0x40d4cb79860007df:0xafb3a68e5dec4ee!8m2!3d50.4365538!4d30.3546862!16s%2Fg%2F1td1byn9!19sChIJ3wcAhnnL1EAR7sTe5Wg6-wo?authuser=0&hl=tr&rclk=1",
    "website_url": "https://watermart.ua/uk/",
    "rating_text": "4,5",
    "stars": null,
    "number_of_reviews": null,
    "price_level": "",
    "open_hours": "",
    "extraction_timestamp": "2025-06-08T03:32:27.727Z",
    "source_name": "google",
    "source_query": "Irrigation Equipment",
    "source_country": "UA",
    "country": "Ukraine",
    "state": "Kyivska oblast",
    "city": "Hostomel"
  },
  {
    "source_id": "ChIJtXqgdpLN1EARoQVtGCC4dAg",
    "name": "–ê–∫–≤–∞–ª–µ–Ω–¥ - —Å–∏—Å—Ç–µ–º—ã –æ—Ç–æ–ø–ª–µ–Ω–∏—è, —Ç—Ä—É–±—ã, —Ä–∞–¥–∏–∞—Ç–æ—Ä—ã –æ—Ç–æ–ø–ª–µ–Ω–∏—è, –∏–∑–æ–ª—è—Ü–∏—è, —Ç–µ–ø–ª—ã–π –ø–æ–ª",
    "category": "–ê–∫–≤–∞–ª–µ–Ω–¥ - —Å–∏—Å—Ç–µ–º—ã –æ—Ç–æ–ø–ª–µ–Ω–∏—è, —Ç—Ä—É–±—ã, —Ä–∞–¥–∏–∞—Ç–æ—Ä—ã –æ—Ç–æ–ø–ª–µ–Ω–∏—è, –∏–∑–æ–ª—è—Ü–∏—è, —Ç–µ–ø–ª—ã–π –ø–æ–ª",
    "formatted_address": "–ê–∫–≤–∞–ª–µ–Ω–¥ - —Å–∏—Å—Ç–µ–º—ã –æ—Ç–æ–ø–ª–µ–Ω–∏—è, —Ç—Ä—É–±—ã, —Ä–∞–¥–∏–∞—Ç–æ—Ä—ã –æ—Ç–æ–ø–ª–µ–Ω–∏—è, –∏–∑–æ–ª—è—Ü–∏—è, —Ç–µ–ø–ª—ã–π –ø–æ–ª",
    "phone_number": "+380676336069",
    "source_url": "https://www.google.com/maps/place/%D0%90%D0%BA%D0%B2%D0%B0%D0%BB%D0%B5%D0%BD%D0%B4+-+%D1%81%D0%B8%D1%81%D1%82%D0%B5%D0%BC%D1%8B+%D0%BE%D1%82%D0%BE%D0%BF%D0%BB%D0%B5%D0%BD%D0%B8%D1%8F,+%D1%82%D1%80%D1%83%D0%B1%D1%8B,+%D1%80%D0%B0%D0%B4%D0%B8%D0%B0%D1%82%D0%BE%D1%80%D1%8B+%D0%BE%D1%82%D0%BE%D0%BF%D0%BB%D0%B5%D0%BD%D0%B8%D1%8F,+%D0%B8%D0%B7%D0%BE%D0%BB%D1%8F%D1%86%D0%B8%D1%8F,+%D1%82%D0%B5%D0%BF%D0%BB%D1%8B%D0%B9+%D0%BF%D0%BE%D0%BB/data=!4m7!3m6!1s0x40d4cd9276a07ab5:0x874b820186d05a1!8m2!3d50.493363!4d30.466711!16s%2Fg%2F11cs0c_3vm!19sChIJtXqgdpLN1EARoQVtGCC4dAg?authuser=0&hl=tr&rclk=1",
    "website_url": "https://akvalend.ua/",
    "rating_text": "4,7",
    "stars": null,
    "number_of_reviews": null,
    "price_level": "",
    "open_hours": "",
    "extraction_timestamp": "2025-06-08T03:32:27.727Z",
    "source_name": "google",
    "source_query": "Irrigation Equipment",
    "source_country": "UA",
    "country": "Ukraine",
    "state": "Kyivska oblast",
    "city": "Hostomel"
  }
]
