[
  {
    "source_id": "ChIJn-Ou7mwzK0cRkzhPaUL6ZsQ",
    "name": "Триада Групп - продажа и монтаж систем отопления и водоснабжения",
    "category": "Триада Групп - продажа и монтаж систем отопления и водоснабжения",
    "formatted_address": "4,8(16)",
    "phone_number": "+380672234488",
    "source_url": "https://www.google.com/maps/place/%D0%A2%D1%80%D0%B8%D0%B0%D0%B4%D0%B0+%D0%93%D1%80%D1%83%D0%BF%D0%BF+-+%D0%BF%D1%80%D0%BE%D0%B4%D0%B0%D0%B6%D0%B0+%D0%B8+%D0%BC%D0%BE%D0%BD%D1%82%D0%B0%D0%B6+%D1%81%D0%B8%D1%81%D1%82%D0%B5%D0%BC+%D0%BE%D1%82%D0%BE%D0%BF%D0%BB%D0%B5%D0%BD%D0%B8%D1%8F+%D0%B8+%D0%B2%D0%BE%D0%B4%D0%BE%D1%81%D0%BD%D0%B0%D0%B1%D0%B6%D0%B5%D0%BD%D0%B8%D1%8F/data=!4m7!3m6!1s0x472b336ceeaee39f:0xc466fa42694f3893!8m2!3d50.5158872!4d30.23519!16s%2Fg%2F11gksxk9j2!19sChIJn-Ou7mwzK0cRkzhPaUL6ZsQ?authuser=0&hl=tr&rclk=1",
    "website_url": "",
    "rating_text": "4,8",
    "stars": null,
    "number_of_reviews": null,
    "price_level": "",
    "open_hours": "",
    "extraction_timestamp": "2025-06-08T03:35:46.266Z",
    "source_name": "google",
    "source_query": "Irrigation Equipment",
    "source_country": "UA",
    "country": "Ukraine",
    "state": "Kyivska oblast",
    "city": "Irpin"
  },
  {
    "source_id": "ChIJP7sPX_0zK0cR99pBo-ZnivM",
    "name": "Офіційний дилер Husqvarna. Фірмовий магазин Хускварна. Бензиновий та акумуляторний інструмент, садова техніка.",
    "category": "Офіційний дилер Husqvarna. Фірмовий магазин Хускварна. Бензиновий та акумуляторний інструмент, садова техніка.",
    "formatted_address": "Офіційний дилер Husqvarna. Фірмовий магазин Хускварна. Бензиновий та акумуляторний інструмент, садова техніка.",
    "phone_number": "+380669985854",
    "source_url": "https://www.google.com/maps/place/%D0%9E%D1%84%D1%96%D1%86%D1%96%D0%B9%D0%BD%D0%B8%D0%B9+%D0%B4%D0%B8%D0%BB%D0%B5%D1%80+Husqvarna.+%D0%A4%D1%96%D1%80%D0%BC%D0%BE%D0%B2%D0%B8%D0%B9+%D0%BC%D0%B0%D0%B3%D0%B0%D0%B7%D0%B8%D0%BD+%D0%A5%D1%83%D1%81%D0%BA%D0%B2%D0%B0%D1%80%D0%BD%D0%B0.+%D0%91%D0%B5%D0%BD%D0%B7%D0%B8%D0%BD%D0%BE%D0%B2%D0%B8%D0%B9+%D1%82%D0%B0+%D0%B0%D0%BA%D1%83%D0%BC%D1%83%D0%BB%D1%8F%D1%82%D0%BE%D1%80%D0%BD%D0%B8%D0%B9+%D1%96%D0%BD%D1%81%D1%82%D1%80%D1%83%D0%BC%D0%B5%D0%BD%D1%82,+%D1%81%D0%B0%D0%B4%D0%BE%D0%B2%D0%B0+%D1%82%D0%B5%D1%85%D0%BD%D1%96%D0%BA%D0%B0./data=!4m7!3m6!1s0x472b33fd5f0fbb3f:0xf38a67e6a341daf7!8m2!3d50.5215973!4d30.2468443!16s%2Fg%2F11vbcq7m0p!19sChIJP7sPX_0zK0cR99pBo-ZnivM?authuser=0&hl=tr&rclk=1",
    "website_url": "",
    "rating_text": "4,7",
    "stars": null,
    "number_of_reviews": null,
    "price_level": "",
    "open_hours": "",
    "extraction_timestamp": "2025-06-08T03:35:46.268Z",
    "source_name": "google",
    "source_query": "Irrigation Equipment",
    "source_country": "UA",
    "country": "Ukraine",
    "state": "Kyivska oblast",
    "city": "Irpin"
  },
  {
    "source_id": "ChIJfZaL8M4zK0cRAZRnYZIqtcA",
    "name": "AQUA WINNER",
    "category": "AQUA WINNER",
    "formatted_address": "5,0(3)",
    "phone_number": "+380674840508",
    "source_url": "https://www.google.com/maps/place/AQUA+WINNER/data=!4m7!3m6!1s0x472b33cef08b967d:0xc0b52a9261679401!8m2!3d50.5286525!4d30.2448537!16s%2Fg%2F11w3zl1814!19sChIJfZaL8M4zK0cRAZRnYZIqtcA?authuser=0&hl=tr&rclk=1",
    "website_url": "",
    "rating_text": "5,0",
    "stars": null,
    "number_of_reviews": null,
    "price_level": "",
    "open_hours": "",
    "extraction_timestamp": "2025-06-08T03:35:46.269Z",
    "source_name": "google",
    "source_query": "Irrigation Equipment",
    "source_country": "UA",
    "country": "Ukraine",
    "state": "Kyivska oblast",
    "city": "Irpin"
  },
  {
    "source_id": "ChIJ3ZJdP1QzK0cRyEghPlQq6Oo",
    "name": "Будзона ( стройматериалы, сантехника, цемент, клей для плитки, краска )",
    "category": "Будзона ( стройматериалы, сантехника, цемент, клей для плитки, краска )",
    "formatted_address": "Будзона ( стройматериалы, сантехника, цемент, клей для плитки, краска )",
    "phone_number": "+380976715151",
    "source_url": "https://www.google.com/maps/place/%D0%91%D1%83%D0%B4%D0%B7%D0%BE%D0%BD%D0%B0+%28+%D1%81%D1%82%D1%80%D0%BE%D0%B9%D0%BC%D0%B0%D1%82%D0%B5%D1%80%D0%B8%D0%B0%D0%BB%D1%8B,+%D1%81%D0%B0%D0%BD%D1%82%D0%B5%D1%85%D0%BD%D0%B8%D0%BA%D0%B0,+%D1%86%D0%B5%D0%BC%D0%B5%D0%BD%D1%82,+%D0%BA%D0%BB%D0%B5%D0%B9+%D0%B4%D0%BB%D1%8F+%D0%BF%D0%BB%D0%B8%D1%82%D0%BA%D0%B8,+%D0%BA%D1%80%D0%B0%D1%81%D0%BA%D0%B0+%29/data=!4m7!3m6!1s0x472b33543f5d92dd:0xeae82a543e2148c8!8m2!3d50.5166011!4d30.1959185!16s%2Fg%2F11p5rxzjw1!19sChIJ3ZJdP1QzK0cRyEghPlQq6Oo?authuser=0&hl=tr&rclk=1",
    "website_url": "",
    "rating_text": "4,9",
    "stars": null,
    "number_of_reviews": null,
    "price_level": "",
    "open_hours": "",
    "extraction_timestamp": "2025-06-08T03:35:46.271Z",
    "source_name": "google",
    "source_query": "Irrigation Equipment",
    "source_country": "UA",
    "country": "Ukraine",
    "state": "Kyivska oblast",
    "city": "Irpin"
  },
  {
    "source_id": "ChIJCSYPcM0xK0cR_2DzsOd15hs",
    "name": "Burvoda",
    "category": "Burvoda",
    "formatted_address": "5,0(17)",
    "phone_number": "+380637080900",
    "source_url": "https://www.google.com/maps/place/Burvoda/data=!4m7!3m6!1s0x472b31cd700f2609:0x1be675e7b0f360ff!8m2!3d50.5199081!4d30.2163427!16s%2Fg%2F11vqvv9zcx!19sChIJCSYPcM0xK0cR_2DzsOd15hs?authuser=0&hl=tr&rclk=1",
    "website_url": "",
    "rating_text": "5,0",
    "stars": null,
    "number_of_reviews": null,
    "price_level": "",
    "open_hours": "",
    "extraction_timestamp": "2025-06-08T03:35:46.272Z",
    "source_name": "google",
    "source_query": "Irrigation Equipment",
    "source_country": "UA",
    "country": "Ukraine",
    "state": "Kyivska oblast",
    "city": "Irpin"
  },
  {
    "source_id": "ChIJ6Y9qFgAzK0cREufVBgutdn4",
    "name": "Avtomat Prodazhu Pytnoyi Vody",
    "category": "Avtomat Prodazhu Pytnoyi Vody",
    "formatted_address": "5,0(5)",
    "phone_number": "+380675382356",
    "source_url": "https://www.google.com/maps/place/Avtomat+Prodazhu+Pytnoyi+Vody/data=!4m7!3m6!1s0x472b3300166a8fe9:0x7e76ad0b06d5e712!8m2!3d50.5057967!4d30.2341296!16s%2Fg%2F11w4jvy2j8!19sChIJ6Y9qFgAzK0cREufVBgutdn4?authuser=0&hl=tr&rclk=1",
    "website_url": "",
    "rating_text": "5,0",
    "stars": null,
    "number_of_reviews": null,
    "price_level": "",
    "open_hours": "",
    "extraction_timestamp": "2025-06-08T03:35:46.273Z",
    "source_name": "google",
    "source_query": "Irrigation Equipment",
    "source_country": "UA",
    "country": "Ukraine",
    "state": "Kyivska oblast",
    "city": "Irpin"
  },
  {
    "source_id": "ChIJnzMi7dLDaC4RbfomOojp8Gs",
    "name": "Begma",
    "category": "Begma",
    "formatted_address": "5,0(17)",
    "phone_number": "+380505024511",
    "source_url": "https://www.google.com/maps/place/Begma/data=!4m7!3m6!1s0x2e68c3d2ed22339f:0x6bf0e9883a26fa6d!8m2!3d50.5150998!4d30.2000349!16s%2Fg%2F11vx7m1wzn!19sChIJnzMi7dLDaC4RbfomOojp8Gs?authuser=0&hl=tr&rclk=1",
    "website_url": "",
    "rating_text": "5,0",
    "stars": null,
    "number_of_reviews": null,
    "price_level": "",
    "open_hours": "",
    "extraction_timestamp": "2025-06-08T03:35:46.275Z",
    "source_name": "google",
    "source_query": "Irrigation Equipment",
    "source_country": "UA",
    "country": "Ukraine",
    "state": "Kyivska oblast",
    "city": "Irpin"
  },
  {
    "source_id": "ChIJhUei-CwyK0cRAttoEB7AgSg",
    "name": "Магазин сантехніки VivaTerm",
    "category": "Магазин сантехніки VivaTerm",
    "formatted_address": "4,8(13)",
    "phone_number": "+380960461135",
    "source_url": "https://www.google.com/maps/place/%D0%9C%D0%B0%D0%B3%D0%B0%D0%B7%D0%B8%D0%BD+%D1%81%D0%B0%D0%BD%D1%82%D0%B5%D1%85%D0%BD%D1%96%D0%BA%D0%B8+VivaTerm/data=!4m7!3m6!1s0x472b322cf8a24785:0x2881c01e1068db02!8m2!3d50.5233164!4d30.2474428!16s%2Fg%2F11f35shhwp!19sChIJhUei-CwyK0cRAttoEB7AgSg?authuser=0&hl=tr&rclk=1",
    "website_url": "",
    "rating_text": "4,8",
    "stars": null,
    "number_of_reviews": null,
    "price_level": "",
    "open_hours": "",
    "extraction_timestamp": "2025-06-08T03:35:46.276Z",
    "source_name": "google",
    "source_query": "Irrigation Equipment",
    "source_country": "UA",
    "country": "Ukraine",
    "state": "Kyivska oblast",
    "city": "Irpin"
  },
  {
    "source_id": "ChIJp29sCqYzK0cRRUfWUiSI0vo",
    "name": "Сантехник Электрик Киев Ирпень Буча Вишневое",
    "category": "Сантехник Электрик Киев Ирпень Буча Вишневое",
    "formatted_address": "4,9(170)",
    "phone_number": "+380673803541",
    "source_url": "https://www.google.com/maps/place/%D0%A1%D0%B0%D0%BD%D1%82%D0%B5%D1%85%D0%BD%D0%B8%D0%BA+%D0%AD%D0%BB%D0%B5%D0%BA%D1%82%D1%80%D0%B8%D0%BA+%D0%9A%D0%B8%D0%B5%D0%B2+%D0%98%D1%80%D0%BF%D0%B5%D0%BD%D1%8C+%D0%91%D1%83%D1%87%D0%B0+%D0%92%D0%B8%D1%88%D0%BD%D0%B5%D0%B2%D0%BE%D0%B5/data=!4m7!3m6!1s0x472b33a60a6c6fa7:0xfad2882452d64745!8m2!3d50.4020355!4d30.507178!16s%2Fg%2F11ght9t0_9!19sChIJp29sCqYzK0cRRUfWUiSI0vo?authuser=0&hl=tr&rclk=1",
    "website_url": "",
    "rating_text": "4,9",
    "stars": null,
    "number_of_reviews": null,
    "price_level": "",
    "open_hours": "",
    "extraction_timestamp": "2025-06-08T03:35:46.277Z",
    "source_name": "google",
    "source_query": "Irrigation Equipment",
    "source_country": "UA",
    "country": "Ukraine",
    "state": "Kyivska oblast",
    "city": "Irpin"
  },
  {
    "source_id": "ChIJxTNfsN0zK0cRtCDh9TRv1H0",
    "name": "Бурова компанія Jet Bur",
    "category": "Бурова компанія Jet Bur",
    "formatted_address": "4,3(30)",
    "phone_number": "+380960001720",
    "source_url": "https://www.google.com/maps/place/%D0%91%D1%83%D1%80%D0%BE%D0%B2%D0%B0+%D0%BA%D0%BE%D0%BC%D0%BF%D0%B0%D0%BD%D1%96%D1%8F+Jet+Bur/data=!4m7!3m6!1s0x472b33ddb05f33c5:0x7dd46f34f5e120b4!8m2!3d50.5070856!4d30.2335209!16s%2Fg%2F11q_bnhglh!19sChIJxTNfsN0zK0cRtCDh9TRv1H0?authuser=0&hl=tr&rclk=1",
    "website_url": "",
    "rating_text": "4,3",
    "stars": null,
    "number_of_reviews": null,
    "price_level": "",
    "open_hours": "",
    "extraction_timestamp": "2025-06-08T03:35:46.278Z",
    "source_name": "google",
    "source_query": "Irrigation Equipment",
    "source_country": "UA",
    "country": "Ukraine",
    "state": "Kyivska oblast",
    "city": "Irpin"
  },
  {
    "source_id": "ChIJw2WQ26nN1EARR4PP1yU0__Y",
    "name": "Садовий Центр Пісардi",
    "category": "Садовий Центр Пісардi",
    "formatted_address": "4,7(294)",
    "phone_number": "+380989255556",
    "source_url": "https://www.google.com/maps/place/%D0%A1%D0%B0%D0%B4%D0%BE%D0%B2%D0%B8%D0%B9+%D0%A6%D0%B5%D0%BD%D1%82%D1%80+%D0%9F%D1%96%D1%81%D0%B0%D1%80%D0%B4i/data=!4m7!3m6!1s0x40d4cda9db9065c3:0xf6ff3425d7cf8347!8m2!3d50.504339!4d30.1888321!16s%2Fg%2F11c575jgrm!19sChIJw2WQ26nN1EARR4PP1yU0__Y?authuser=0&hl=tr&rclk=1",
    "website_url": "",
    "rating_text": "4,7",
    "stars": null,
    "number_of_reviews": null,
    "price_level": "",
    "open_hours": "",
    "extraction_timestamp": "2025-06-08T03:35:46.280Z",
    "source_name": "google",
    "source_query": "Irrigation Equipment",
    "source_country": "UA",
    "country": "Ukraine",
    "state": "Kyivska oblast",
    "city": "Irpin"
  },
  {
    "source_id": "ChIJQc9Vni5D1EARPRtaHp6r8R4",
    "name": "Магазин ТВОЄ",
    "category": "Магазин ТВОЄ",
    "formatted_address": "5,0(114)",
    "phone_number": "+380930267856",
    "source_url": "https://www.google.com/maps/place/%D0%9C%D0%B0%D0%B3%D0%B0%D0%B7%D0%B8%D0%BD+%D0%A2%D0%92%D0%9E%D0%84/data=!4m7!3m6!1s0x40d4432e9e55cf41:0x1ef1ab9e1e5a1b3d!8m2!3d50.5058242!4d30.2347029!16s%2Fg%2F11rgzm4l66!19sChIJQc9Vni5D1EARPRtaHp6r8R4?authuser=0&hl=tr&rclk=1",
    "website_url": "",
    "rating_text": "5,0",
    "stars": null,
    "number_of_reviews": null,
    "price_level": "",
    "open_hours": "",
    "extraction_timestamp": "2025-06-08T03:35:46.281Z",
    "source_name": "google",
    "source_query": "Irrigation Equipment",
    "source_country": "UA",
    "country": "Ukraine",
    "state": "Kyivska oblast",
    "city": "Irpin"
  },
  {
    "source_id": "ChIJDfv0zywyK0cRLdgAAOk7MRo",
    "name": "Pehas",
    "category": "Pehas",
    "formatted_address": "4,6(38)",
    "phone_number": "+380681881818",
    "source_url": "https://www.google.com/maps/place/Pehas/data=!4m7!3m6!1s0x472b322ccff4fb0d:0x1a313be90000d82d!8m2!3d50.5251564!4d30.2458395!16s%2Fg%2F11b5vpqqtk!19sChIJDfv0zywyK0cRLdgAAOk7MRo?authuser=0&hl=tr&rclk=1",
    "website_url": "",
    "rating_text": "4,6",
    "stars": null,
    "number_of_reviews": null,
    "price_level": "",
    "open_hours": "",
    "extraction_timestamp": "2025-06-08T03:35:46.282Z",
    "source_name": "google",
    "source_query": "Irrigation Equipment",
    "source_country": "UA",
    "country": "Ukraine",
    "state": "Kyivska oblast",
    "city": "Irpin"
  },
  {
    "source_id": "ChIJn_NREAiw1EARYG4FYJY4u-o",
    "name": "Project VP (Інженерні системи)",
    "category": "Project VP (Інженерні системи)",
    "formatted_address": "5,0(5)",
    "phone_number": "+380958553045",
    "source_url": "https://www.google.com/maps/place/Project+VP+%28%D0%86%D0%BD%D0%B6%D0%B5%D0%BD%D0%B5%D1%80%D0%BD%D1%96+%D1%81%D0%B8%D1%81%D1%82%D0%B5%D0%BC%D0%B8%29/data=!4m7!3m6!1s0x40d4b0081051f39f:0xeabb389660056e60!8m2!3d50.5019263!4d30.2483802!16s%2Fg%2F11g6bg1x35!19sChIJn_NREAiw1EARYG4FYJY4u-o?authuser=0&hl=tr&rclk=1",
    "website_url": "",
    "rating_text": "5,0",
    "stars": null,
    "number_of_reviews": null,
    "price_level": "",
    "open_hours": "",
    "extraction_timestamp": "2025-06-08T03:35:46.283Z",
    "source_name": "google",
    "source_query": "Irrigation Equipment",
    "source_country": "UA",
    "country": "Ukraine",
    "state": "Kyivska oblast",
    "city": "Irpin"
  },
  {
    "source_id": "ChIJNco8ObwxK0cRXdz4BX-jfWE",
    "name": "Hunter/Fiskars/Dlf/Rehau/Cellfast/Syngenta-\"Poli-Valko\"",
    "category": "Hunter/Fiskars/Dlf/Rehau/Cellfast/Syngenta-\"Poli-Valko\"",
    "formatted_address": "4,6(22)",
    "phone_number": "",
    "source_url": "https://www.google.com/maps/place/Hunter%2FFiskars%2FDlf%2FRehau%2FCellfast%2FSyngenta-%22Poli-Valko%22/data=!4m7!3m6!1s0x472b31bc393cca35:0x617da37f05f8dc5d!8m2!3d50.5451903!4d30.1934992!16s%2Fg%2F11h7cwlxj8!19sChIJNco8ObwxK0cRXdz4BX-jfWE?authuser=0&hl=tr&rclk=1",
    "website_url": "",
    "rating_text": "4,6",
    "stars": null,
    "number_of_reviews": null,
    "price_level": "",
    "open_hours": "",
    "extraction_timestamp": "2025-06-08T03:35:46.285Z",
    "source_name": "google",
    "source_query": "Irrigation Equipment",
    "source_country": "UA",
    "country": "Ukraine",
    "state": "Kyivska oblast",
    "city": "Irpin"
  },
  {
    "source_id": "ChIJuecvnkYzK0cRtdoAESlGHc4",
    "name": "HEAT POWER COMPANY",
    "category": "HEAT POWER COMPANY",
    "formatted_address": "5,0(36)",
    "phone_number": "+380971669022",
    "source_url": "https://www.google.com/maps/place/HEAT+POWER+COMPANY/data=!4m7!3m6!1s0x472b33469e2fe7b9:0xce1d46291100dab5!8m2!3d50.5059402!4d30.2319178!16s%2Fg%2F11jght5s9k!19sChIJuecvnkYzK0cRtdoAESlGHc4?authuser=0&hl=tr&rclk=1",
    "website_url": "",
    "rating_text": "5,0",
    "stars": null,
    "number_of_reviews": null,
    "price_level": "",
    "open_hours": "",
    "extraction_timestamp": "2025-06-08T03:35:46.286Z",
    "source_name": "google",
    "source_query": "Irrigation Equipment",
    "source_country": "UA",
    "country": "Ukraine",
    "state": "Kyivska oblast",
    "city": "Irpin"
  },
  {
    "source_id": "ChIJpYA7Ly0yK0cRt2lXcm6j5aU",
    "name": "Lira",
    "category": "Lira",
    "formatted_address": "4,3(712)",
    "phone_number": "+380677903254",
    "source_url": "https://www.google.com/maps/place/Lira/data=!4m7!3m6!1s0x472b322d2f3b80a5:0xa5e5a36e725769b7!8m2!3d50.5223221!4d30.2465415!16s%2Fg%2F11cjj06y5y!19sChIJpYA7Ly0yK0cRt2lXcm6j5aU?authuser=0&hl=tr&rclk=1",
    "website_url": "",
    "rating_text": "4,3",
    "stars": null,
    "number_of_reviews": null,
    "price_level": "",
    "open_hours": "",
    "extraction_timestamp": "2025-06-08T03:35:46.287Z",
    "source_name": "google",
    "source_query": "Irrigation Equipment",
    "source_country": "UA",
    "country": "Ukraine",
    "state": "Kyivska oblast",
    "city": "Irpin"
  },
  {
    "source_id": "ChIJo0ctjtIxK0cRVAKq-IXrUvg",
    "name": "Aqua-installator",
    "category": "Aqua-installator",
    "formatted_address": "5,0(1)",
    "phone_number": "+380976646076",
    "source_url": "https://www.google.com/maps/place/Aqua-installator/data=!4m7!3m6!1s0x472b31d28e2d47a3:0xf852eb85f8aa0254!8m2!3d50.5194359!4d30.2397394!16s%2Fg%2F11rrj5ypft!19sChIJo0ctjtIxK0cRVAKq-IXrUvg?authuser=0&hl=tr&rclk=1",
    "website_url": "",
    "rating_text": "5,0",
    "stars": null,
    "number_of_reviews": null,
    "price_level": "",
    "open_hours": "",
    "extraction_timestamp": "2025-06-08T03:35:46.288Z",
    "source_name": "google",
    "source_query": "Irrigation Equipment",
    "source_country": "UA",
    "country": "Ukraine",
    "state": "Kyivska oblast",
    "city": "Irpin"
  },
  {
    "source_id": "ChIJW-xBMdUzK0cRXhxho4oNdOQ",
    "name": "Ahroplast",
    "category": "Ahroplast",
    "formatted_address": "4,9(31)",
    "phone_number": "+380955052806",
    "source_url": "https://www.google.com/maps/place/Ahroplast/data=!4m7!3m6!1s0x472b33d53141ec5b:0xe4740d8aa3611c5e!8m2!3d50.5234205!4d30.2475011!16s%2Fg%2F11cn9yjx5j!19sChIJW-xBMdUzK0cRXhxho4oNdOQ?authuser=0&hl=tr&rclk=1",
    "website_url": "",
    "rating_text": "4,9",
    "stars": null,
    "number_of_reviews": null,
    "price_level": "",
    "open_hours": "",
    "extraction_timestamp": "2025-06-08T03:35:46.289Z",
    "source_name": "google",
    "source_query": "Irrigation Equipment",
    "source_country": "UA",
    "country": "Ukraine",
    "state": "Kyivska oblast",
    "city": "Irpin"
  },
  {
    "source_id": "ChIJyxEs0YUxK0cRmfhJs4a_QLE",
    "name": "Filters for water - Kiyrempobut",
    "category": "Filters for water - Kiyrempobut",
    "formatted_address": "Plastik İmalat Şirketi · Soborna St, 152 ЖKapalı ⋅ Açılış zamanı: Pzt 09:00 · +380 44 332 8176",
    "phone_number": "+380443328176",
    "source_url": "https://www.google.com/maps/place/Filters+for+water+-+Kiyrempobut/data=!4m7!3m6!1s0x472b3185d12c11cb:0xb140bf86b349f899!8m2!3d50.5371473!4d30.2340654!16s%2Fg%2F11cs2h5vzv!19sChIJyxEs0YUxK0cRmfhJs4a_QLE?authuser=0&hl=tr&rclk=1",
    "website_url": "",
    "rating_text": "",
    "stars": null,
    "number_of_reviews": null,
    "price_level": "",
    "open_hours": "",
    "extraction_timestamp": "2025-06-08T03:35:46.290Z",
    "source_name": "google",
    "source_query": "Irrigation Equipment",
    "source_country": "UA",
    "country": "Ukraine",
    "state": "Kyivska oblast",
    "city": "Irpin"
  },
  {
    "source_id": "ChIJC_tNbXAzK0cRt4bG__9c0kQ",
    "name": "Gree Climat (кондиціонери, вентиляція та опалення)",
    "category": "Gree Climat (кондиціонери, вентиляція та опалення)",
    "formatted_address": "Gree Climat (кондиціонери, вентиляція та опалення)",
    "phone_number": "+380502359988",
    "source_url": "https://www.google.com/maps/place/Gree+Climat+%28%D0%BA%D0%BE%D0%BD%D0%B4%D0%B8%D1%86%D1%96%D0%BE%D0%BD%D0%B5%D1%80%D0%B8,+%D0%B2%D0%B5%D0%BD%D1%82%D0%B8%D0%BB%D1%8F%D1%86%D1%96%D1%8F+%D1%82%D0%B0+%D0%BE%D0%BF%D0%B0%D0%BB%D0%B5%D0%BD%D0%BD%D1%8F%29/data=!4m7!3m6!1s0x472b33706d4dfb0b:0x44d25cffffc686b7!8m2!3d50.536541!4d30.2616479!16s%2Fg%2F11qgjkpwgb!19sChIJC_tNbXAzK0cRt4bG__9c0kQ?authuser=0&hl=tr&rclk=1",
    "website_url": "",
    "rating_text": "4,4",
    "stars": null,
    "number_of_reviews": null,
    "price_level": "",
    "open_hours": "",
    "extraction_timestamp": "2025-06-08T03:35:46.291Z",
    "source_name": "google",
    "source_query": "Irrigation Equipment",
    "source_country": "UA",
    "country": "Ukraine",
    "state": "Kyivska oblast",
    "city": "Irpin"
  },
  {
    "source_id": "ChIJE60f2DPP1EARCqjSrjIeXBw",
    "name": "СпецПоливСервіс",
    "category": "СпецПоливСервіс",
    "formatted_address": "5,0(17)",
    "phone_number": "+380970822608",
    "source_url": "https://www.google.com/maps/place/%D0%A1%D0%BF%D0%B5%D1%86%D0%9F%D0%BE%D0%BB%D0%B8%D0%B2%D0%A1%D0%B5%D1%80%D0%B2%D1%96%D1%81/data=!4m7!3m6!1s0x40d4cf33d81fad13:0x1c5c1e32aed2a80a!8m2!3d50.463344!4d30.589573!16s%2Fg%2F11h0trxk1!19sChIJE60f2DPP1EARCqjSrjIeXBw?authuser=0&hl=tr&rclk=1",
    "website_url": "",
    "rating_text": "5,0",
    "stars": null,
    "number_of_reviews": null,
    "price_level": "",
    "open_hours": "",
    "extraction_timestamp": "2025-06-08T03:35:46.292Z",
    "source_name": "google",
    "source_query": "Irrigation Equipment",
    "source_country": "UA",
    "country": "Ukraine",
    "state": "Kyivska oblast",
    "city": "Irpin"
  },
  {
    "source_id": "ChIJqdozAZozK0cReEvkVqCJmcw",
    "name": "ROZETKA",
    "category": "ROZETKA",
    "formatted_address": "4,5(137)",
    "phone_number": "",
    "source_url": "https://www.google.com/maps/place/ROZETKA/data=!4m7!3m6!1s0x472b339a0133daa9:0xcc9989a056e44b78!8m2!3d50.5061972!4d30.233868!16s%2Fg%2F11r2hf1z_w!19sChIJqdozAZozK0cReEvkVqCJmcw?authuser=0&hl=tr&rclk=1",
    "website_url": "",
    "rating_text": "4,5",
    "stars": null,
    "number_of_reviews": null,
    "price_level": "",
    "open_hours": "",
    "extraction_timestamp": "2025-06-08T03:35:46.293Z",
    "source_name": "google",
    "source_query": "Irrigation Equipment",
    "source_country": "UA",
    "country": "Ukraine",
    "state": "Kyivska oblast",
    "city": "Irpin"
  },
  {
    "source_id": "ChIJQ1JAj8vI1EAR1qZ8UsJac2k",
    "name": "Raysʹkyy Sad",
    "category": "Raysʹkyy Sad",
    "formatted_address": "4,9(43)",
    "phone_number": "+380976926256",
    "source_url": "https://www.google.com/maps/place/Rays%CA%B9kyy+Sad/data=!4m7!3m6!1s0x40d4c8cb8f405243:0x69735ac2527ca6d6!8m2!3d50.4361127!4d30.3544201!16s%2Fg%2F11f3tv4m_2!19sChIJQ1JAj8vI1EAR1qZ8UsJac2k?authuser=0&hl=tr&rclk=1",
    "website_url": "",
    "rating_text": "4,9",
    "stars": null,
    "number_of_reviews": null,
    "price_level": "",
    "open_hours": "",
    "extraction_timestamp": "2025-06-08T03:35:46.294Z",
    "source_name": "google",
    "source_query": "Irrigation Equipment",
    "source_country": "UA",
    "country": "Ukraine",
    "state": "Kyivska oblast",
    "city": "Irpin"
  },
  {
    "source_id": "ChIJx5soM8EzK0cRpkL3D6iTuBA",
    "name": "Kp Irpinʹvodokanal",
    "category": "Kp Irpinʹvodokanal",
    "formatted_address": "3,2(378)",
    "phone_number": "+380459762828",
    "source_url": "https://www.google.com/maps/place/Kp+Irpin%CA%B9vodokanal/data=!4m7!3m6!1s0x472b33c133289bc7:0x10b893a80ff742a6!8m2!3d50.4943191!4d30.2493572!16s%2Fg%2F11bwys3rq1!19sChIJx5soM8EzK0cRpkL3D6iTuBA?authuser=0&hl=tr&rclk=1",
    "website_url": "",
    "rating_text": "3,2",
    "stars": null,
    "number_of_reviews": null,
    "price_level": "",
    "open_hours": "",
    "extraction_timestamp": "2025-06-08T03:35:46.295Z",
    "source_name": "google",
    "source_query": "Irrigation Equipment",
    "source_country": "UA",
    "country": "Ukraine",
    "state": "Kyivska oblast",
    "city": "Irpin"
  },
  {
    "source_id": "ChIJn9HnVTPL1EAR4di2zqeFqrc",
    "name": "Ландшафтна компанія Garden House",
    "category": "Ландшафтна компанія Garden House",
    "formatted_address": "4,6(67)",
    "phone_number": "+380995461100",
    "source_url": "https://www.google.com/maps/place/%D0%9B%D0%B0%D0%BD%D0%B4%D1%88%D0%B0%D1%84%D1%82%D0%BD%D0%B0+%D0%BA%D0%BE%D0%BC%D0%BF%D0%B0%D0%BD%D1%96%D1%8F+Garden+House/data=!4m7!3m6!1s0x40d4cb3355e7d19f:0xb7aa85a7ceb6d8e1!8m2!3d50.4364812!4d30.2859854!16s%2Fg%2F11b6d5j_72!19sChIJn9HnVTPL1EAR4di2zqeFqrc?authuser=0&hl=tr&rclk=1",
    "website_url": "",
    "rating_text": "4,6",
    "stars": null,
    "number_of_reviews": null,
    "price_level": "",
    "open_hours": "",
    "extraction_timestamp": "2025-06-08T03:35:46.296Z",
    "source_name": "google",
    "source_query": "Irrigation Equipment",
    "source_country": "UA",
    "country": "Ukraine",
    "state": "Kyivska oblast",
    "city": "Irpin"
  },
  {
    "source_id": "ChIJA7ajwkkxK0cRX7MFuOAivww",
    "name": "Ventsgradov - Кондиціонування та Вентиляція",
    "category": "Ventsgradov - Кондиціонування та Вентиляція",
    "formatted_address": "5,0(68)",
    "phone_number": "+380737898222",
    "source_url": "https://www.google.com/maps/place/Ventsgradov+-+%D0%9A%D0%BE%D0%BD%D0%B4%D0%B8%D1%86%D1%96%D0%BE%D0%BD%D1%83%D0%B2%D0%B0%D0%BD%D0%BD%D1%8F+%D1%82%D0%B0+%D0%92%D0%B5%D0%BD%D1%82%D0%B8%D0%BB%D1%8F%D1%86%D1%96%D1%8F/data=!4m7!3m6!1s0x472b3149c2a3b603:0xcbf22e0b805b35f!8m2!3d50.5449086!4d30.1927925!16s%2Fg%2F11vm4z9cyq!19sChIJA7ajwkkxK0cRX7MFuOAivww?authuser=0&hl=tr&rclk=1",
    "website_url": "",
    "rating_text": "5,0",
    "stars": null,
    "number_of_reviews": null,
    "price_level": "",
    "open_hours": "",
    "extraction_timestamp": "2025-06-08T03:35:46.297Z",
    "source_name": "google",
    "source_query": "Irrigation Equipment",
    "source_country": "UA",
    "country": "Ukraine",
    "state": "Kyivska oblast",
    "city": "Irpin"
  },
  {
    "source_id": "ChIJq1OAQEXF1EARIAyoFByGrW4",
    "name": "Ahrarna Industrialʹna Kompaniya",
    "category": "Ahrarna Industrialʹna Kompaniya",
    "formatted_address": "4,8(12)",
    "phone_number": "+380504444184",
    "source_url": "https://www.google.com/maps/place/Ahrarna+Industrial%CA%B9na+Kompaniya/data=!4m7!3m6!1s0x40d4c545408053ab:0x6ead861c14a80c20!8m2!3d50.4090678!4d30.6121652!16s%2Fg%2F1tdk3pn4!19sChIJq1OAQEXF1EARIAyoFByGrW4?authuser=0&hl=tr&rclk=1",
    "website_url": "",
    "rating_text": "4,8",
    "stars": null,
    "number_of_reviews": null,
    "price_level": "",
    "open_hours": "",
    "extraction_timestamp": "2025-06-08T03:35:46.298Z",
    "source_name": "google",
    "source_query": "Irrigation Equipment",
    "source_country": "UA",
    "country": "Ukraine",
    "state": "Kyivska oblast",
    "city": "Irpin"
  },
  {
    "source_id": "ChIJ_Y-vJX8zK0cRjn3SJ9X-tc8",
    "name": "Циклевка реставрация паркета - 15 лет опыта",
    "category": "Циклевка реставрация паркета - 15 лет опыта",
    "formatted_address": "4,4(13)",
    "phone_number": "+380674462255",
    "source_url": "https://www.google.com/maps/place/%D0%A6%D0%B8%D0%BA%D0%BB%D0%B5%D0%B2%D0%BA%D0%B0+%D1%80%D0%B5%D1%81%D1%82%D0%B0%D0%B2%D1%80%D0%B0%D1%86%D0%B8%D1%8F+%D0%BF%D0%B0%D1%80%D0%BA%D0%B5%D1%82%D0%B0+-+15+%D0%BB%D0%B5%D1%82+%D0%BE%D0%BF%D1%8B%D1%82%D0%B0/data=!4m7!3m6!1s0x472b337f25af8ffd:0xcfb5fed527d27d8e!8m2!3d50.519834!4d30.2492882!16s%2Fg%2F11g_zkptt4!19sChIJ_Y-vJX8zK0cRjn3SJ9X-tc8?authuser=0&hl=tr&rclk=1",
    "website_url": "",
    "rating_text": "4,4",
    "stars": null,
    "number_of_reviews": null,
    "price_level": "",
    "open_hours": "",
    "extraction_timestamp": "2025-06-08T03:35:46.299Z",
    "source_name": "google",
    "source_query": "Irrigation Equipment",
    "source_country": "UA",
    "country": "Ukraine",
    "state": "Kyivska oblast",
    "city": "Irpin"
  },
  {
    "source_id": "ChIJEWSxdh_I1EARf0k-kMeYU0w",
    "name": "Садово-дизайнерський центр «Shoni»",
    "category": "Садово-дизайнерський центр «Shoni»",
    "formatted_address": "4,7(103)",
    "phone_number": "+380932595599",
    "source_url": "https://www.google.com/maps/place/%D0%A1%D0%B0%D0%B4%D0%BE%D0%B2%D0%BE-%D0%B4%D0%B8%D0%B7%D0%B0%D0%B9%D0%BD%D0%B5%D1%80%D1%81%D1%8C%D0%BA%D0%B8%D0%B9+%D1%86%D0%B5%D0%BD%D1%82%D1%80+%C2%ABShoni%C2%BB/data=!4m7!3m6!1s0x40d4c81f76b16411:0x4c5398c7903e497f!8m2!3d50.332836!4d30.4394607!16s%2Fg%2F1tl4bk0t!19sChIJEWSxdh_I1EARf0k-kMeYU0w?authuser=0&hl=tr&rclk=1",
    "website_url": "",
    "rating_text": "4,7",
    "stars": null,
    "number_of_reviews": null,
    "price_level": "",
    "open_hours": "",
    "extraction_timestamp": "2025-06-08T03:35:46.300Z",
    "source_name": "google",
    "source_query": "Irrigation Equipment",
    "source_country": "UA",
    "country": "Ukraine",
    "state": "Kyivska oblast",
    "city": "Irpin"
  }
]
