[
  {
    "source_id": "ChIJ2eTfSwH9KkcRtbh1cuJwuts",
    "name": "Центр видачі замовлень ЕПІЦЕНТР.ua",
    "category": "Центр видачі замовлень ЕПІЦЕНТР.ua",
    "formatted_address": "5,0(3)",
    "phone_number": "+380800202727",
    "source_url": "https://www.google.com/maps/place/%D0%A6%D0%B5%D0%BD%D1%82%D1%80+%D0%B2%D0%B8%D0%B4%D0%B0%D1%87%D1%96+%D0%B7%D0%B0%D0%BC%D0%BE%D0%B2%D0%BB%D0%B5%D0%BD%D1%8C+%D0%95%D0%9F%D0%86%D0%A6%D0%95%D0%9D%D0%A2%D0%A0.ua/data=!4m7!3m6!1s0x472afd014bdfe4d9:0xdbba70e27275b8b5!8m2!3d50.9380222!4d29.9050519!16s%2Fg%2F11y2g63_tq!19sChIJ2eTfSwH9KkcRtbh1cuJwuts?authuser=0&hl=tr&rclk=1",
    "website_url": "",
    "rating_text": "5,0",
    "stars": null,
    "number_of_reviews": null,
    "price_level": "",
    "open_hours": "",
    "extraction_timestamp": "2025-06-08T03:27:43.642Z",
    "source_name": "google",
    "source_query": "Irrigation Equipment",
    "source_country": "UA",
    "country": "Ukraine",
    "state": "Kyivska oblast",
    "city": "Ivankiv Raion"
  },
  {
    "source_id": "ChIJHeoItLz8KkcRrU8CJkJM--o",
    "name": "Ivankivsʹkyy Rynok Kyyivsʹkoyi Oblspozhyvspilky",
    "category": "Ivankivsʹkyy Rynok Kyyivsʹkoyi Oblspozhyvspilky",
    "formatted_address": "3,6(156)",
    "phone_number": "+380983155355",
    "source_url": "https://www.google.com/maps/place/Ivankivs%CA%B9kyy+Rynok+Kyyivs%CA%B9koyi+Oblspozhyvspilky/data=!4m7!3m6!1s0x472afcbcb408ea1d:0xeafb4c4226024fad!8m2!3d50.929812!4d29.893566!16s%2Fg%2F11bw2g1d01!19sChIJHeoItLz8KkcRrU8CJkJM--o?authuser=0&hl=tr&rclk=1",
    "website_url": "",
    "rating_text": "3,6",
    "stars": null,
    "number_of_reviews": null,
    "price_level": "",
    "open_hours": "",
    "extraction_timestamp": "2025-06-08T03:27:43.643Z",
    "source_name": "google",
    "source_query": "Irrigation Equipment",
    "source_country": "UA",
    "country": "Ukraine",
    "state": "Kyivska oblast",
    "city": "Ivankiv Raion"
  },
  {
    "source_id": "ChIJdxMMG4_7KkcRjGVE27GXiSE",
    "name": "Fora",
    "category": "Fora",
    "formatted_address": "4,2(404)",
    "phone_number": "+380800301230",
    "source_url": "https://www.google.com/maps/place/Fora/data=!4m7!3m6!1s0x472afb8f1b0c1377:0x218997b1db44658c!8m2!3d50.9397505!4d29.9016656!16s%2Fg%2F11j0_kqm6j!19sChIJdxMMG4_7KkcRjGVE27GXiSE?authuser=0&hl=tr&rclk=1",
    "website_url": "",
    "rating_text": "4,2",
    "stars": null,
    "number_of_reviews": null,
    "price_level": "",
    "open_hours": "",
    "extraction_timestamp": "2025-06-08T03:27:43.644Z",
    "source_name": "google",
    "source_query": "Irrigation Equipment",
    "source_country": "UA",
    "country": "Ukraine",
    "state": "Kyivska oblast",
    "city": "Ivankiv Raion"
  },
  {
    "source_id": "ChIJR7kF3KD8KkcR-cjAJekRMO8",
    "name": "Lasunchyk",
    "category": "Lasunchyk",
    "formatted_address": "3,9(67)",
    "phone_number": "",
    "source_url": "https://www.google.com/maps/place/Lasunchyk/data=!4m7!3m6!1s0x472afca0dc05b947:0xef3011e925c0c8f9!8m2!3d50.9370372!4d29.9020005!16s%2Fg%2F11dxf1b4qd!19sChIJR7kF3KD8KkcR-cjAJekRMO8?authuser=0&hl=tr&rclk=1",
    "website_url": "",
    "rating_text": "3,9",
    "stars": null,
    "number_of_reviews": null,
    "price_level": "",
    "open_hours": "",
    "extraction_timestamp": "2025-06-08T03:27:43.645Z",
    "source_name": "google",
    "source_query": "Irrigation Equipment",
    "source_country": "UA",
    "country": "Ukraine",
    "state": "Kyivska oblast",
    "city": "Ivankiv Raion"
  },
  {
    "source_id": "ChIJNco8ObwxK0cRXdz4BX-jfWE",
    "name": "Hunter/Fiskars/Dlf/Rehau/Cellfast/Syngenta-\"Poli-Valko\"",
    "category": "Hunter/Fiskars/Dlf/Rehau/Cellfast/Syngenta-\"Poli-Valko\"",
    "formatted_address": "4,6(22)",
    "phone_number": "",
    "source_url": "https://www.google.com/maps/place/Hunter%2FFiskars%2FDlf%2FRehau%2FCellfast%2FSyngenta-%22Poli-Valko%22/data=!4m7!3m6!1s0x472b31bc393cca35:0x617da37f05f8dc5d!8m2!3d50.5451903!4d30.1934992!16s%2Fg%2F11h7cwlxj8!19sChIJNco8ObwxK0cRXdz4BX-jfWE?authuser=0&hl=tr&rclk=1",
    "website_url": "",
    "rating_text": "4,6",
    "stars": null,
    "number_of_reviews": null,
    "price_level": "",
    "open_hours": "",
    "extraction_timestamp": "2025-06-08T03:27:43.646Z",
    "source_name": "google",
    "source_query": "Irrigation Equipment",
    "source_country": "UA",
    "country": "Ukraine",
    "state": "Kyivska oblast",
    "city": "Ivankiv Raion"
  },
  {
    "source_id": "ChIJGz62l1_7KkcRs2S1Nj5VgTQ",
    "name": "Kholodnyy Yar",
    "category": "Kholodnyy Yar",
    "formatted_address": "4,2(291)",
    "phone_number": "+380972287575",
    "source_url": "https://www.google.com/maps/place/Kholodnyy+Yar/data=!4m7!3m6!1s0x472afb5f97b63e1b:0x3481553e36b564b3!8m2!3d50.9403977!4d29.9020187!16s%2Fg%2F11g9qnk78z!19sChIJGz62l1_7KkcRs2S1Nj5VgTQ?authuser=0&hl=tr&rclk=1",
    "website_url": "",
    "rating_text": "4,2",
    "stars": null,
    "number_of_reviews": null,
    "price_level": "",
    "open_hours": "",
    "extraction_timestamp": "2025-06-08T03:27:43.646Z",
    "source_name": "google",
    "source_query": "Irrigation Equipment",
    "source_country": "UA",
    "country": "Ukraine",
    "state": "Kyivska oblast",
    "city": "Ivankiv Raion"
  },
  {
    "source_id": "ChIJg1Nf5A37KkcRhAjR-fcQq4o",
    "name": "Mahazyn \"Veles\"",
    "category": "Mahazyn \"Veles\"",
    "formatted_address": "4,4(88)",
    "phone_number": "+380672640428",
    "source_url": "https://www.google.com/maps/place/Mahazyn+%22Veles%22/data=!4m7!3m6!1s0x472afb0de45f5383:0x8aab10f7f9d10884!8m2!3d50.9432087!4d29.9006819!16s%2Fg%2F11gpn3dsty!19sChIJg1Nf5A37KkcRhAjR-fcQq4o?authuser=0&hl=tr&rclk=1",
    "website_url": "",
    "rating_text": "4,4",
    "stars": null,
    "number_of_reviews": null,
    "price_level": "",
    "open_hours": "",
    "extraction_timestamp": "2025-06-08T03:27:43.647Z",
    "source_name": "google",
    "source_query": "Irrigation Equipment",
    "source_country": "UA",
    "country": "Ukraine",
    "state": "Kyivska oblast",
    "city": "Ivankiv Raion"
  },
  {
    "source_id": "ChIJ-blnMFz7KkcR3VufbOyigoA",
    "name": "Kalyna",
    "category": "Kalyna",
    "formatted_address": "4,2(486)",
    "phone_number": "+380975881733",
    "source_url": "https://www.google.com/maps/place/Kalyna/data=!4m7!3m6!1s0x472afb5c3067b9f9:0x8082a2ec6c9f5bdd!8m2!3d50.9437882!4d29.9085898!16s%2Fg%2F11c2pmr54w!19sChIJ-blnMFz7KkcR3VufbOyigoA?authuser=0&hl=tr&rclk=1",
    "website_url": "",
    "rating_text": "4,2",
    "stars": null,
    "number_of_reviews": null,
    "price_level": "",
    "open_hours": "",
    "extraction_timestamp": "2025-06-08T03:27:43.648Z",
    "source_name": "google",
    "source_query": "Irrigation Equipment",
    "source_country": "UA",
    "country": "Ukraine",
    "state": "Kyivska oblast",
    "city": "Ivankiv Raion"
  },
  {
    "source_id": "ChIJi6PqHKH8KkcRpLtgDuQzBwI",
    "name": "Vetapteka",
    "category": "Vetapteka",
    "formatted_address": "4,7(18)",
    "phone_number": "+380971474429",
    "source_url": "https://www.google.com/maps/place/Vetapteka/data=!4m7!3m6!1s0x472afca11ceaa38b:0x20733e40e60bba4!8m2!3d50.9363319!4d29.8982181!16s%2Fg%2F11gdsgr0xx!19sChIJi6PqHKH8KkcRpLtgDuQzBwI?authuser=0&hl=tr&rclk=1",
    "website_url": "",
    "rating_text": "4,7",
    "stars": null,
    "number_of_reviews": null,
    "price_level": "",
    "open_hours": "",
    "extraction_timestamp": "2025-06-08T03:27:43.649Z",
    "source_name": "google",
    "source_query": "Irrigation Equipment",
    "source_country": "UA",
    "country": "Ukraine",
    "state": "Kyivska oblast",
    "city": "Ivankiv Raion"
  },
  {
    "source_id": "ChIJjeiBPgD9KkcRi_u1XewYSnc",
    "name": "Mahazyn Tupytsa",
    "category": "Mahazyn Tupytsa",
    "formatted_address": "5,0(2)",
    "phone_number": "",
    "source_url": "https://www.google.com/maps/place/Mahazyn+Tupytsa/data=!4m7!3m6!1s0x472afd003e81e88d:0x774a18ec5db5fb8b!8m2!3d50.9235212!4d29.8496844!16s%2Fg%2F11x6glcpwv!19sChIJjeiBPgD9KkcRi_u1XewYSnc?authuser=0&hl=tr&rclk=1",
    "website_url": "",
    "rating_text": "5,0",
    "stars": null,
    "number_of_reviews": null,
    "price_level": "",
    "open_hours": "",
    "extraction_timestamp": "2025-06-08T03:27:43.650Z",
    "source_name": "google",
    "source_query": "Irrigation Equipment",
    "source_country": "UA",
    "country": "Ukraine",
    "state": "Kyivska oblast",
    "city": "Ivankiv Raion"
  },
  {
    "source_id": "ChIJP0Dncdb9KkcRXEoISMPJMtc",
    "name": "Автозапчастини та аксесуари",
    "category": "Автозапчастини та аксесуари",
    "formatted_address": "5,0(2)",
    "phone_number": "+380683485778",
    "source_url": "https://www.google.com/maps/place/%D0%90%D0%B2%D1%82%D0%BE%D0%B7%D0%B0%D0%BF%D1%87%D0%B0%D1%81%D1%82%D0%B8%D0%BD%D0%B8+%D1%82%D0%B0+%D0%B0%D0%BA%D1%81%D0%B5%D1%81%D1%83%D0%B0%D1%80%D0%B8/data=!4m7!3m6!1s0x472afdd671e7403f:0xd732c9c348084a5c!8m2!3d50.9440302!4d29.8747149!16s%2Fg%2F11vdx29zq5!19sChIJP0Dncdb9KkcRXEoISMPJMtc?authuser=0&hl=tr&rclk=1",
    "website_url": "",
    "rating_text": "5,0",
    "stars": null,
    "number_of_reviews": null,
    "price_level": "",
    "open_hours": "",
    "extraction_timestamp": "2025-06-08T03:27:43.651Z",
    "source_name": "google",
    "source_query": "Irrigation Equipment",
    "source_country": "UA",
    "country": "Ukraine",
    "state": "Kyivska oblast",
    "city": "Ivankiv Raion"
  },
  {
    "source_id": "ChIJ070LOQD9KkcR5DV1cN3pdBs",
    "name": "Prolisok",
    "category": "Prolisok",
    "formatted_address": "5,0(1)",
    "phone_number": "",
    "source_url": "https://www.google.com/maps/place/Prolisok/data=!4m7!3m6!1s0x472afd00390bbdd3:0x1b74e9dd707535e4!8m2!3d50.937471!4d29.890943!16s%2Fg%2F11lzp9gww8!19sChIJ070LOQD9KkcR5DV1cN3pdBs?authuser=0&hl=tr&rclk=1",
    "website_url": "",
    "rating_text": "5,0",
    "stars": null,
    "number_of_reviews": null,
    "price_level": "",
    "open_hours": "",
    "extraction_timestamp": "2025-06-08T03:27:43.651Z",
    "source_name": "google",
    "source_query": "Irrigation Equipment",
    "source_country": "UA",
    "country": "Ukraine",
    "state": "Kyivska oblast",
    "city": "Ivankiv Raion"
  },
  {
    "source_id": "ChIJfS0KqFj7KkcRvCYFZeyrTtM",
    "name": "Milana",
    "category": "Milana",
    "formatted_address": "3,7(59)",
    "phone_number": "",
    "source_url": "https://www.google.com/maps/place/Milana/data=!4m7!3m6!1s0x472afb58a80a2d7d:0xd34eabec650526bc!8m2!3d50.937831!4d29.9066396!16s%2Fg%2F11c1zn_rf9!19sChIJfS0KqFj7KkcRvCYFZeyrTtM?authuser=0&hl=tr&rclk=1",
    "website_url": "",
    "rating_text": "3,7",
    "stars": null,
    "number_of_reviews": null,
    "price_level": "",
    "open_hours": "",
    "extraction_timestamp": "2025-06-08T03:27:43.652Z",
    "source_name": "google",
    "source_query": "Irrigation Equipment",
    "source_country": "UA",
    "country": "Ukraine",
    "state": "Kyivska oblast",
    "city": "Ivankiv Raion"
  },
  {
    "source_id": "ChIJK71O5pn8KkcRYnRAF6pwwDU",
    "name": "Кафе-магазин \"Троянда\"",
    "category": "Кафе-магазин \"Троянда\"",
    "formatted_address": "3,8(24)",
    "phone_number": "",
    "source_url": "https://www.google.com/maps/place/%D0%9A%D0%B0%D1%84%D0%B5-%D0%BC%D0%B0%D0%B3%D0%B0%D0%B7%D0%B8%D0%BD+%22%D0%A2%D1%80%D0%BE%D1%8F%D0%BD%D0%B4%D0%B0%22/data=!4m7!3m6!1s0x472afc99e64ebd2b:0x35c070aa17407462!8m2!3d50.9332851!4d29.8828357!16s%2Fg%2F11fylpcqkn!19sChIJK71O5pn8KkcRYnRAF6pwwDU?authuser=0&hl=tr&rclk=1",
    "website_url": "",
    "rating_text": "3,8",
    "stars": null,
    "number_of_reviews": null,
    "price_level": "",
    "open_hours": "",
    "extraction_timestamp": "2025-06-08T03:27:43.653Z",
    "source_name": "google",
    "source_query": "Irrigation Equipment",
    "source_country": "UA",
    "country": "Ukraine",
    "state": "Kyivska oblast",
    "city": "Ivankiv Raion"
  },
  {
    "source_id": "ChIJ60XEpQbQ1EARVLf9IomIVYg",
    "name": "Poliv UA",
    "category": "Poliv UA",
    "formatted_address": "4,8(64)",
    "phone_number": "+380443379900",
    "source_url": "https://www.google.com/maps/place/Poliv+UA/data=!4m7!3m6!1s0x40d4d006a5c445eb:0x8855888922fdb754!8m2!3d50.4646434!4d30.6255633!16s%2Fg%2F11clsyjy7n!19sChIJ60XEpQbQ1EARVLf9IomIVYg?authuser=0&hl=tr&rclk=1",
    "website_url": "",
    "rating_text": "4,8",
    "stars": null,
    "number_of_reviews": null,
    "price_level": "",
    "open_hours": "",
    "extraction_timestamp": "2025-06-08T03:27:43.673Z",
    "source_name": "google",
    "source_query": "Irrigation Equipment",
    "source_country": "UA",
    "country": "Ukraine",
    "state": "Kyivska oblast",
    "city": "Ivankiv Raion"
  },
  {
    "source_id": "ChIJlwavL6H8KkcRqQeVj8iPMRU",
    "name": "Avto",
    "category": "Avto",
    "formatted_address": "4,4(63)",
    "phone_number": "+380679098887",
    "source_url": "https://www.google.com/maps/place/Avto/data=!4m7!3m6!1s0x472afca12faf0697:0x15318fc88f9507a9!8m2!3d50.935567!4d29.9017761!16s%2Fg%2F11bw47847k!19sChIJlwavL6H8KkcRqQeVj8iPMRU?authuser=0&hl=tr&rclk=1",
    "website_url": "",
    "rating_text": "4,4",
    "stars": null,
    "number_of_reviews": null,
    "price_level": "",
    "open_hours": "",
    "extraction_timestamp": "2025-06-08T03:27:43.674Z",
    "source_name": "google",
    "source_query": "Irrigation Equipment",
    "source_country": "UA",
    "country": "Ukraine",
    "state": "Kyivska oblast",
    "city": "Ivankiv Raion"
  },
  {
    "source_id": "ChIJiToxc7z9KkcRKbLWjk9CQVc",
    "name": "THRASH! ТРАШ Маркет Super",
    "category": "THRASH! ТРАШ Маркет Super",
    "formatted_address": "3,7(38)",
    "phone_number": "+380800300890",
    "source_url": "https://www.google.com/maps/place/THRASH!+%D0%A2%D0%A0%D0%90%D0%A8+%D0%9C%D0%B0%D1%80%D0%BA%D0%B5%D1%82+Super/data=!4m7!3m6!1s0x472afdbc73313a89:0x5741424f8ed6b229!8m2!3d50.933372!4d29.906507!16s%2Fg%2F11vfb29df4!19sChIJiToxc7z9KkcRKbLWjk9CQVc?authuser=0&hl=tr&rclk=1",
    "website_url": "",
    "rating_text": "3,7",
    "stars": null,
    "number_of_reviews": null,
    "price_level": "",
    "open_hours": "",
    "extraction_timestamp": "2025-06-08T03:27:43.675Z",
    "source_name": "google",
    "source_query": "Irrigation Equipment",
    "source_country": "UA",
    "country": "Ukraine",
    "state": "Kyivska oblast",
    "city": "Ivankiv Raion"
  },
  {
    "source_id": "ChIJRRHZauv9KkcR9XGmen8GcvM",
    "name": "EVA",
    "category": "EVA",
    "formatted_address": "4,6(24)",
    "phone_number": "+380800303700",
    "source_url": "https://www.google.com/maps/place/EVA/data=!4m7!3m6!1s0x472afdeb6ad91145:0xf372067f7aa671f5!8m2!3d50.9331814!4d29.9032012!16s%2Fg%2F11fhs9wyv3!19sChIJRRHZauv9KkcR9XGmen8GcvM?authuser=0&hl=tr&rclk=1",
    "website_url": "",
    "rating_text": "4,6",
    "stars": null,
    "number_of_reviews": null,
    "price_level": "",
    "open_hours": "",
    "extraction_timestamp": "2025-06-08T03:27:43.676Z",
    "source_name": "google",
    "source_query": "Irrigation Equipment",
    "source_country": "UA",
    "country": "Ukraine",
    "state": "Kyivska oblast",
    "city": "Ivankiv Raion"
  },
  {
    "source_id": "ChIJLcYP9DL9KkcRKsw2zpGAE4Y",
    "name": "Зоомаркет КРАМНИЦЯ",
    "category": "Зоомаркет КРАМНИЦЯ",
    "formatted_address": "5,0(6)",
    "phone_number": "+380671799898",
    "source_url": "https://www.google.com/maps/place/%D0%97%D0%BE%D0%BE%D0%BC%D0%B0%D1%80%D0%BA%D0%B5%D1%82+%D0%9A%D0%A0%D0%90%D0%9C%D0%9D%D0%98%D0%A6%D0%AF/data=!4m7!3m6!1s0x472afd32f40fc62d:0x86138091ce36cc2a!8m2!3d50.93344!4d29.9029841!16s%2Fg%2F11q25nfcgm!19sChIJLcYP9DL9KkcRKsw2zpGAE4Y?authuser=0&hl=tr&rclk=1",
    "website_url": "",
    "rating_text": "5,0",
    "stars": null,
    "number_of_reviews": null,
    "price_level": "",
    "open_hours": "",
    "extraction_timestamp": "2025-06-08T03:27:43.676Z",
    "source_name": "google",
    "source_query": "Irrigation Equipment",
    "source_country": "UA",
    "country": "Ukraine",
    "state": "Kyivska oblast",
    "city": "Ivankiv Raion"
  },
  {
    "source_id": "ChIJ11W2AcUrK0cRLd7wLj4GzcU",
    "name": "UKRINSTAL",
    "category": "UKRINSTAL",
    "formatted_address": "4,7(81)",
    "phone_number": "+380675683527",
    "source_url": "https://www.google.com/maps/place/UKRINSTAL/data=!4m7!3m6!1s0x472b2bc501b655d7:0xc5cd063e2ef0de2d!8m2!3d50.6501516!4d30.4031002!16s%2Fg%2F11cjs792m6!19sChIJ11W2AcUrK0cRLd7wLj4GzcU?authuser=0&hl=tr&rclk=1",
    "website_url": "",
    "rating_text": "4,7",
    "stars": null,
    "number_of_reviews": null,
    "price_level": "",
    "open_hours": "",
    "extraction_timestamp": "2025-06-08T03:27:43.677Z",
    "source_name": "google",
    "source_query": "Irrigation Equipment",
    "source_country": "UA",
    "country": "Ukraine",
    "state": "Kyivska oblast",
    "city": "Ivankiv Raion"
  },
  {
    "source_id": "ChIJz29ug2_J1EARzaZ7tmeMv4s",
    "name": "Інтернет-магазин LETO Сад від А до Я",
    "category": "Інтернет-магазин LETO Сад від А до Я",
    "formatted_address": "4,7(218)",
    "phone_number": "+380442291160",
    "source_url": "https://www.google.com/maps/place/%D0%86%D0%BD%D1%82%D0%B5%D1%80%D0%BD%D0%B5%D1%82-%D0%BC%D0%B0%D0%B3%D0%B0%D0%B7%D0%B8%D0%BD+LETO+%D0%A1%D0%B0%D0%B4+%D0%B2%D1%96%D0%B4+%D0%90+%D0%B4%D0%BE+%D0%AF/data=!4m7!3m6!1s0x40d4c96f836e6fcf:0x8bbf8c67b67ba6cd!8m2!3d50.396095!4d30.4154559!16s%2Fg%2F1vtzfr1m!19sChIJz29ug2_J1EARzaZ7tmeMv4s?authuser=0&hl=tr&rclk=1",
    "website_url": "",
    "rating_text": "4,7",
    "stars": null,
    "number_of_reviews": null,
    "price_level": "",
    "open_hours": "",
    "extraction_timestamp": "2025-06-08T03:27:43.678Z",
    "source_name": "google",
    "source_query": "Irrigation Equipment",
    "source_country": "UA",
    "country": "Ukraine",
    "state": "Kyivska oblast",
    "city": "Ivankiv Raion"
  },
  {
    "source_id": "ChIJnzMi7dLDaC4RbfomOojp8Gs",
    "name": "Begma",
    "category": "Begma",
    "formatted_address": "5,0(17)",
    "phone_number": "+380505024511",
    "source_url": "https://www.google.com/maps/place/Begma/data=!4m7!3m6!1s0x2e68c3d2ed22339f:0x6bf0e9883a26fa6d!8m2!3d50.5150998!4d30.2000349!16s%2Fg%2F11vx7m1wzn!19sChIJnzMi7dLDaC4RbfomOojp8Gs?authuser=0&hl=tr&rclk=1",
    "website_url": "",
    "rating_text": "5,0",
    "stars": null,
    "number_of_reviews": null,
    "price_level": "",
    "open_hours": "",
    "extraction_timestamp": "2025-06-08T03:27:43.679Z",
    "source_name": "google",
    "source_query": "Irrigation Equipment",
    "source_country": "UA",
    "country": "Ukraine",
    "state": "Kyivska oblast",
    "city": "Ivankiv Raion"
  },
  {
    "source_id": "ChIJQc9Vni5D1EARPRtaHp6r8R4",
    "name": "Магазин ТВОЄ",
    "category": "Магазин ТВОЄ",
    "formatted_address": "5,0(114)",
    "phone_number": "+380930267856",
    "source_url": "https://www.google.com/maps/place/%D0%9C%D0%B0%D0%B3%D0%B0%D0%B7%D0%B8%D0%BD+%D0%A2%D0%92%D0%9E%D0%84/data=!4m7!3m6!1s0x40d4432e9e55cf41:0x1ef1ab9e1e5a1b3d!8m2!3d50.5058242!4d30.2347029!16s%2Fg%2F11rgzm4l66!19sChIJQc9Vni5D1EARPRtaHp6r8R4?authuser=0&hl=tr&rclk=1",
    "website_url": "",
    "rating_text": "5,0",
    "stars": null,
    "number_of_reviews": null,
    "price_level": "",
    "open_hours": "",
    "extraction_timestamp": "2025-06-08T03:27:43.680Z",
    "source_name": "google",
    "source_query": "Irrigation Equipment",
    "source_country": "UA",
    "country": "Ukraine",
    "state": "Kyivska oblast",
    "city": "Ivankiv Raion"
  },
  {
    "source_id": "ChIJCYu5h1HM1EARx7Y3PlVk1Qg",
    "name": "Магазин \"Все для полива\"",
    "category": "Магазин \"Все для полива\"",
    "formatted_address": "4,1(20)",
    "phone_number": "+380443377471",
    "source_url": "https://www.google.com/maps/place/%D0%9C%D0%B0%D0%B3%D0%B0%D0%B7%D0%B8%D0%BD+%22%D0%92%D1%81%D0%B5+%D0%B4%D0%BB%D1%8F+%D0%BF%D0%BE%D0%BB%D0%B8%D0%B2%D0%B0%22/data=!4m7!3m6!1s0x40d4cc5187b98b09:0x8d564553e37b6c7!8m2!3d50.4670475!4d30.4167422!16s%2Fg%2F11bw2kmh2k!19sChIJCYu5h1HM1EARx7Y3PlVk1Qg?authuser=0&hl=tr&rclk=1",
    "website_url": "",
    "rating_text": "4,1",
    "stars": null,
    "number_of_reviews": null,
    "price_level": "",
    "open_hours": "",
    "extraction_timestamp": "2025-06-08T03:27:43.681Z",
    "source_name": "google",
    "source_query": "Irrigation Equipment",
    "source_country": "UA",
    "country": "Ukraine",
    "state": "Kyivska oblast",
    "city": "Ivankiv Raion"
  },
  {
    "source_id": "ChIJf4jHN1LM1EARBkfaDZQGDTw",
    "name": "Dr. Sprinkler",
    "category": "Dr. Sprinkler",
    "formatted_address": "4,8(4)",
    "phone_number": "+380965335353",
    "source_url": "https://www.google.com/maps/place/Dr.+Sprinkler/data=!4m7!3m6!1s0x40d4cc5237c7887f:0x3c0d06940dda4706!8m2!3d50.4105845!4d30.558873!16s%2Fg%2F1q6j9h1m6!19sChIJf4jHN1LM1EARBkfaDZQGDTw?authuser=0&hl=tr&rclk=1",
    "website_url": "",
    "rating_text": "4,8",
    "stars": null,
    "number_of_reviews": null,
    "price_level": "",
    "open_hours": "",
    "extraction_timestamp": "2025-06-08T03:27:43.682Z",
    "source_name": "google",
    "source_query": "Irrigation Equipment",
    "source_country": "UA",
    "country": "Ukraine",
    "state": "Kyivska oblast",
    "city": "Ivankiv Raion"
  },
  {
    "source_id": "ChIJhUei-CwyK0cRAttoEB7AgSg",
    "name": "Магазин сантехніки VivaTerm",
    "category": "Магазин сантехніки VivaTerm",
    "formatted_address": "4,8(13)",
    "phone_number": "+380960461135",
    "source_url": "https://www.google.com/maps/place/%D0%9C%D0%B0%D0%B3%D0%B0%D0%B7%D0%B8%D0%BD+%D1%81%D0%B0%D0%BD%D1%82%D0%B5%D1%85%D0%BD%D1%96%D0%BA%D0%B8+VivaTerm/data=!4m7!3m6!1s0x472b322cf8a24785:0x2881c01e1068db02!8m2!3d50.5233164!4d30.2474428!16s%2Fg%2F11f35shhwp!19sChIJhUei-CwyK0cRAttoEB7AgSg?authuser=0&hl=tr&rclk=1",
    "website_url": "",
    "rating_text": "4,8",
    "stars": null,
    "number_of_reviews": null,
    "price_level": "",
    "open_hours": "",
    "extraction_timestamp": "2025-06-08T03:27:43.683Z",
    "source_name": "google",
    "source_query": "Irrigation Equipment",
    "source_country": "UA",
    "country": "Ukraine",
    "state": "Kyivska oblast",
    "city": "Ivankiv Raion"
  },
  {
    "source_id": "ChIJPTyQTespK0cRLQCphLuFhHQ",
    "name": "Fora",
    "category": "Fora",
    "formatted_address": "4,4(201)",
    "phone_number": "+380800301230",
    "source_url": "https://www.google.com/maps/place/Fora/data=!4m7!3m6!1s0x472b29eb4d903c3d:0x748485bb84a9002d!8m2!3d50.684181!4d30.3950814!16s%2Fg%2F11hd560chy!19sChIJPTyQTespK0cRLQCphLuFhHQ?authuser=0&hl=tr&rclk=1",
    "website_url": "",
    "rating_text": "4,4",
    "stars": null,
    "number_of_reviews": null,
    "price_level": "",
    "open_hours": "",
    "extraction_timestamp": "2025-06-08T03:27:43.684Z",
    "source_name": "google",
    "source_query": "Irrigation Equipment",
    "source_country": "UA",
    "country": "Ukraine",
    "state": "Kyivska oblast",
    "city": "Ivankiv Raion"
  },
  {
    "source_id": "ChIJo0ctjtIxK0cRVAKq-IXrUvg",
    "name": "Aqua-installator",
    "category": "Aqua-installator",
    "formatted_address": "5,0(1)",
    "phone_number": "+380976646076",
    "source_url": "https://www.google.com/maps/place/Aqua-installator/data=!4m7!3m6!1s0x472b31d28e2d47a3:0xf852eb85f8aa0254!8m2!3d50.5194359!4d30.2397394!16s%2Fg%2F11rrj5ypft!19sChIJo0ctjtIxK0cRVAKq-IXrUvg?authuser=0&hl=tr&rclk=1",
    "website_url": "",
    "rating_text": "5,0",
    "stars": null,
    "number_of_reviews": null,
    "price_level": "",
    "open_hours": "",
    "extraction_timestamp": "2025-06-08T03:27:43.684Z",
    "source_name": "google",
    "source_query": "Irrigation Equipment",
    "source_country": "UA",
    "country": "Ukraine",
    "state": "Kyivska oblast",
    "city": "Ivankiv Raion"
  },
  {
    "source_id": "ChIJJVGKxbErK0cR95rmFb97ojw",
    "name": "Монтаж душевых кабин",
    "category": "Монтаж душевых кабин",
    "formatted_address": "5,0(2)",
    "phone_number": "+380967015105",
    "source_url": "https://www.google.com/maps/place/%D0%9C%D0%BE%D0%BD%D1%82%D0%B0%D0%B6+%D0%B4%D1%83%D1%88%D0%B5%D0%B2%D1%8B%D1%85+%D0%BA%D0%B0%D0%B1%D0%B8%D0%BD/data=!4m7!3m6!1s0x472b2bb1c58a5125:0x3ca27bbf15e69af7!8m2!3d50.6213864!4d30.4444761!16s%2Fg%2F11n0cl96t_!19sChIJJVGKxbErK0cR95rmFb97ojw?authuser=0&hl=tr&rclk=1",
    "website_url": "",
    "rating_text": "5,0",
    "stars": null,
    "number_of_reviews": null,
    "price_level": "",
    "open_hours": "",
    "extraction_timestamp": "2025-06-08T03:27:43.685Z",
    "source_name": "google",
    "source_query": "Irrigation Equipment",
    "source_country": "UA",
    "country": "Ukraine",
    "state": "Kyivska oblast",
    "city": "Ivankiv Raion"
  },
  {
    "source_id": "ChIJH2j2EaUzK0cRnr5Xh24Oa3A",
    "name": "Сантехник",
    "category": "Сантехник",
    "formatted_address": "Kaynakçı · Soborna St, 2Açık ⋅ Kapanış saati: 22:00 · +380 50 039 0737",
    "phone_number": "+380500390737",
    "source_url": "https://www.google.com/maps/place/%D0%A1%D0%B0%D0%BD%D1%82%D0%B5%D1%85%D0%BD%D0%B8%D0%BA/data=!4m7!3m6!1s0x472b33a511f6681f:0x706b0e6e8757be9e!8m2!3d50.5046203!4d30.2446612!16s%2Fg%2F11m9m65h_v!19sChIJH2j2EaUzK0cRnr5Xh24Oa3A?authuser=0&hl=tr&rclk=1",
    "website_url": "",
    "rating_text": "",
    "stars": null,
    "number_of_reviews": null,
    "price_level": "",
    "open_hours": "",
    "extraction_timestamp": "2025-06-08T03:27:43.686Z",
    "source_name": "google",
    "source_query": "Irrigation Equipment",
    "source_country": "UA",
    "country": "Ukraine",
    "state": "Kyivska oblast",
    "city": "Ivankiv Raion"
  },
  {
    "source_id": "ChIJRa3o2hDG1EARvFwMiTpym0k",
    "name": "ЭВКАЛИПТ Р КОМПАНИЯ",
    "category": "ЭВКАЛИПТ Р КОМПАНИЯ",
    "formatted_address": "4,9(41)",
    "phone_number": "+380933654300",
    "source_url": "https://www.google.com/maps/place/%D0%AD%D0%92%D0%9A%D0%90%D0%9B%D0%98%D0%9F%D0%A2+%D0%A0+%D0%9A%D0%9E%D0%9C%D0%9F%D0%90%D0%9D%D0%98%D0%AF/data=!4m7!3m6!1s0x40d4c610dae8ad45:0x499b723a890c5cbc!8m2!3d50.360383!4d30.47321!16s%2Fg%2F11xhrr_g1!19sChIJRa3o2hDG1EARvFwMiTpym0k?authuser=0&hl=tr&rclk=1",
    "website_url": "",
    "rating_text": "4,9",
    "stars": null,
    "number_of_reviews": null,
    "price_level": "",
    "open_hours": "",
    "extraction_timestamp": "2025-06-08T03:27:43.687Z",
    "source_name": "google",
    "source_query": "Irrigation Equipment",
    "source_country": "UA",
    "country": "Ukraine",
    "state": "Kyivska oblast",
    "city": "Ivankiv Raion"
  },
  {
    "source_id": "ChIJ_Y-vJX8zK0cRjn3SJ9X-tc8",
    "name": "Циклевка реставрация паркета - 15 лет опыта",
    "category": "Циклевка реставрация паркета - 15 лет опыта",
    "formatted_address": "4,4(13)",
    "phone_number": "+380674462255",
    "source_url": "https://www.google.com/maps/place/%D0%A6%D0%B8%D0%BA%D0%BB%D0%B5%D0%B2%D0%BA%D0%B0+%D1%80%D0%B5%D1%81%D1%82%D0%B0%D0%B2%D1%80%D0%B0%D1%86%D0%B8%D1%8F+%D0%BF%D0%B0%D1%80%D0%BA%D0%B5%D1%82%D0%B0+-+15+%D0%BB%D0%B5%D1%82+%D0%BE%D0%BF%D1%8B%D1%82%D0%B0/data=!4m7!3m6!1s0x472b337f25af8ffd:0xcfb5fed527d27d8e!8m2!3d50.519834!4d30.2492882!16s%2Fg%2F11g_zkptt4!19sChIJ_Y-vJX8zK0cRjn3SJ9X-tc8?authuser=0&hl=tr&rclk=1",
    "website_url": "",
    "rating_text": "4,4",
    "stars": null,
    "number_of_reviews": null,
    "price_level": "",
    "open_hours": "",
    "extraction_timestamp": "2025-06-08T03:27:43.689Z",
    "source_name": "google",
    "source_query": "Irrigation Equipment",
    "source_country": "UA",
    "country": "Ukraine",
    "state": "Kyivska oblast",
    "city": "Ivankiv Raion"
  }
]
