[
  {
    "source_id": "ChIJTZc-QKH8KkcRn6o7tiD93hY",
    "name": "Budmaterialy",
    "category": "Budmaterialy",
    "formatted_address": "4,3(131)",
    "phone_number": "+380459151379",
    "source_url": "https://www.google.com/maps/place/Budmaterialy/data=!4m7!3m6!1s0x472afca1403e974d:0x16defd20b63baa9f!8m2!3d50.9352611!4d29.9001956!16s%2Fg%2F11c0wfht79!19sChIJTZc-QKH8KkcRn6o7tiD93hY?authuser=0&hl=tr&rclk=1",
    "website_url": "",
    "rating_text": "4,3",
    "stars": null,
    "number_of_reviews": null,
    "price_level": "",
    "open_hours": "",
    "extraction_timestamp": "2025-06-08T03:33:53.758Z",
    "source_name": "google",
    "source_query": "Irrigation Equipment",
    "source_country": "UA",
    "country": "Ukraine",
    "state": "Kyivska oblast",
    "city": "Ivankiv"
  },
  {
    "source_id": "ChIJ2eTfSwH9KkcRtbh1cuJwuts",
    "name": "Центр видачі замовлень ЕПІЦЕНТР.ua",
    "category": "Центр видачі замовлень ЕПІЦЕНТР.ua",
    "formatted_address": "5,0(3)",
    "phone_number": "+380800202727",
    "source_url": "https://www.google.com/maps/place/%D0%A6%D0%B5%D0%BD%D1%82%D1%80+%D0%B2%D0%B8%D0%B4%D0%B0%D1%87%D1%96+%D0%B7%D0%B0%D0%BC%D0%BE%D0%B2%D0%BB%D0%B5%D0%BD%D1%8C+%D0%95%D0%9F%D0%86%D0%A6%D0%95%D0%9D%D0%A2%D0%A0.ua/data=!4m7!3m6!1s0x472afd014bdfe4d9:0xdbba70e27275b8b5!8m2!3d50.9380222!4d29.9050519!16s%2Fg%2F11y2g63_tq!19sChIJ2eTfSwH9KkcRtbh1cuJwuts?authuser=0&hl=tr&rclk=1",
    "website_url": "",
    "rating_text": "5,0",
    "stars": null,
    "number_of_reviews": null,
    "price_level": "",
    "open_hours": "",
    "extraction_timestamp": "2025-06-08T03:33:53.759Z",
    "source_name": "google",
    "source_query": "Irrigation Equipment",
    "source_country": "UA",
    "country": "Ukraine",
    "state": "Kyivska oblast",
    "city": "Ivankiv"
  },
  {
    "source_id": "ChIJHeoItLz8KkcRrU8CJkJM--o",
    "name": "Ivankivsʹkyy Rynok Kyyivsʹkoyi Oblspozhyvspilky",
    "category": "Ivankivsʹkyy Rynok Kyyivsʹkoyi Oblspozhyvspilky",
    "formatted_address": "3,6(156)",
    "phone_number": "+380983155355",
    "source_url": "https://www.google.com/maps/place/Ivankivs%CA%B9kyy+Rynok+Kyyivs%CA%B9koyi+Oblspozhyvspilky/data=!4m7!3m6!1s0x472afcbcb408ea1d:0xeafb4c4226024fad!8m2!3d50.929812!4d29.893566!16s%2Fg%2F11bw2g1d01!19sChIJHeoItLz8KkcRrU8CJkJM--o?authuser=0&hl=tr&rclk=1",
    "website_url": "",
    "rating_text": "3,6",
    "stars": null,
    "number_of_reviews": null,
    "price_level": "",
    "open_hours": "",
    "extraction_timestamp": "2025-06-08T03:33:53.760Z",
    "source_name": "google",
    "source_query": "Irrigation Equipment",
    "source_country": "UA",
    "country": "Ukraine",
    "state": "Kyivska oblast",
    "city": "Ivankiv"
  },
  {
    "source_id": "ChIJdxMMG4_7KkcRjGVE27GXiSE",
    "name": "Fora",
    "category": "Fora",
    "formatted_address": "4,2(404)",
    "phone_number": "+380800301230",
    "source_url": "https://www.google.com/maps/place/Fora/data=!4m7!3m6!1s0x472afb8f1b0c1377:0x218997b1db44658c!8m2!3d50.9397505!4d29.9016656!16s%2Fg%2F11j0_kqm6j!19sChIJdxMMG4_7KkcRjGVE27GXiSE?authuser=0&hl=tr&rclk=1",
    "website_url": "",
    "rating_text": "4,2",
    "stars": null,
    "number_of_reviews": null,
    "price_level": "",
    "open_hours": "",
    "extraction_timestamp": "2025-06-08T03:33:53.761Z",
    "source_name": "google",
    "source_query": "Irrigation Equipment",
    "source_country": "UA",
    "country": "Ukraine",
    "state": "Kyivska oblast",
    "city": "Ivankiv"
  },
  {
    "source_id": "ChIJR7kF3KD8KkcR-cjAJekRMO8",
    "name": "Lasunchyk",
    "category": "Lasunchyk",
    "formatted_address": "3,9(67)",
    "phone_number": "",
    "source_url": "https://www.google.com/maps/place/Lasunchyk/data=!4m7!3m6!1s0x472afca0dc05b947:0xef3011e925c0c8f9!8m2!3d50.9370372!4d29.9020005!16s%2Fg%2F11dxf1b4qd!19sChIJR7kF3KD8KkcR-cjAJekRMO8?authuser=0&hl=tr&rclk=1",
    "website_url": "",
    "rating_text": "3,9",
    "stars": null,
    "number_of_reviews": null,
    "price_level": "",
    "open_hours": "",
    "extraction_timestamp": "2025-06-08T03:33:53.761Z",
    "source_name": "google",
    "source_query": "Irrigation Equipment",
    "source_country": "UA",
    "country": "Ukraine",
    "state": "Kyivska oblast",
    "city": "Ivankiv"
  },
  {
    "source_id": "ChIJGz62l1_7KkcRs2S1Nj5VgTQ",
    "name": "Kholodnyy Yar",
    "category": "Kholodnyy Yar",
    "formatted_address": "4,2(291)",
    "phone_number": "+380972287575",
    "source_url": "https://www.google.com/maps/place/Kholodnyy+Yar/data=!4m7!3m6!1s0x472afb5f97b63e1b:0x3481553e36b564b3!8m2!3d50.9403977!4d29.9020187!16s%2Fg%2F11g9qnk78z!19sChIJGz62l1_7KkcRs2S1Nj5VgTQ?authuser=0&hl=tr&rclk=1",
    "website_url": "",
    "rating_text": "4,2",
    "stars": null,
    "number_of_reviews": null,
    "price_level": "",
    "open_hours": "",
    "extraction_timestamp": "2025-06-08T03:33:53.762Z",
    "source_name": "google",
    "source_query": "Irrigation Equipment",
    "source_country": "UA",
    "country": "Ukraine",
    "state": "Kyivska oblast",
    "city": "Ivankiv"
  },
  {
    "source_id": "ChIJg1Nf5A37KkcRhAjR-fcQq4o",
    "name": "Mahazyn \"Veles\"",
    "category": "Mahazyn \"Veles\"",
    "formatted_address": "4,4(88)",
    "phone_number": "+380672640428",
    "source_url": "https://www.google.com/maps/place/Mahazyn+%22Veles%22/data=!4m7!3m6!1s0x472afb0de45f5383:0x8aab10f7f9d10884!8m2!3d50.9432087!4d29.9006819!16s%2Fg%2F11gpn3dsty!19sChIJg1Nf5A37KkcRhAjR-fcQq4o?authuser=0&hl=tr&rclk=1",
    "website_url": "",
    "rating_text": "4,4",
    "stars": null,
    "number_of_reviews": null,
    "price_level": "",
    "open_hours": "",
    "extraction_timestamp": "2025-06-08T03:33:53.763Z",
    "source_name": "google",
    "source_query": "Irrigation Equipment",
    "source_country": "UA",
    "country": "Ukraine",
    "state": "Kyivska oblast",
    "city": "Ivankiv"
  },
  {
    "source_id": "ChIJ-blnMFz7KkcR3VufbOyigoA",
    "name": "Kalyna",
    "category": "Kalyna",
    "formatted_address": "4,2(486)",
    "phone_number": "+380975881733",
    "source_url": "https://www.google.com/maps/place/Kalyna/data=!4m7!3m6!1s0x472afb5c3067b9f9:0x8082a2ec6c9f5bdd!8m2!3d50.9437882!4d29.9085898!16s%2Fg%2F11c2pmr54w!19sChIJ-blnMFz7KkcR3VufbOyigoA?authuser=0&hl=tr&rclk=1",
    "website_url": "",
    "rating_text": "4,2",
    "stars": null,
    "number_of_reviews": null,
    "price_level": "",
    "open_hours": "",
    "extraction_timestamp": "2025-06-08T03:33:53.764Z",
    "source_name": "google",
    "source_query": "Irrigation Equipment",
    "source_country": "UA",
    "country": "Ukraine",
    "state": "Kyivska oblast",
    "city": "Ivankiv"
  },
  {
    "source_id": "ChIJ60XEpQbQ1EARVLf9IomIVYg",
    "name": "Poliv UA",
    "category": "Poliv UA",
    "formatted_address": "4,8(64)",
    "phone_number": "+380443379900",
    "source_url": "https://www.google.com/maps/place/Poliv+UA/data=!4m7!3m6!1s0x40d4d006a5c445eb:0x8855888922fdb754!8m2!3d50.4646434!4d30.6255633!16s%2Fg%2F11clsyjy7n!19sChIJ60XEpQbQ1EARVLf9IomIVYg?authuser=0&hl=tr&rclk=1",
    "website_url": "",
    "rating_text": "4,8",
    "stars": null,
    "number_of_reviews": null,
    "price_level": "",
    "open_hours": "",
    "extraction_timestamp": "2025-06-08T03:33:53.765Z",
    "source_name": "google",
    "source_query": "Irrigation Equipment",
    "source_country": "UA",
    "country": "Ukraine",
    "state": "Kyivska oblast",
    "city": "Ivankiv"
  },
  {
    "source_id": "ChIJfS0KqFj7KkcRvCYFZeyrTtM",
    "name": "Milana",
    "category": "Milana",
    "formatted_address": "3,7(59)",
    "phone_number": "",
    "source_url": "https://www.google.com/maps/place/Milana/data=!4m7!3m6!1s0x472afb58a80a2d7d:0xd34eabec650526bc!8m2!3d50.937831!4d29.9066396!16s%2Fg%2F11c1zn_rf9!19sChIJfS0KqFj7KkcRvCYFZeyrTtM?authuser=0&hl=tr&rclk=1",
    "website_url": "",
    "rating_text": "3,7",
    "stars": null,
    "number_of_reviews": null,
    "price_level": "",
    "open_hours": "",
    "extraction_timestamp": "2025-06-08T03:33:53.766Z",
    "source_name": "google",
    "source_query": "Irrigation Equipment",
    "source_country": "UA",
    "country": "Ukraine",
    "state": "Kyivska oblast",
    "city": "Ivankiv"
  },
  {
    "source_id": "ChIJP0Dncdb9KkcRXEoISMPJMtc",
    "name": "Автозапчастини та аксесуари",
    "category": "Автозапчастини та аксесуари",
    "formatted_address": "5,0(2)",
    "phone_number": "+380683485778",
    "source_url": "https://www.google.com/maps/place/%D0%90%D0%B2%D1%82%D0%BE%D0%B7%D0%B0%D0%BF%D1%87%D0%B0%D1%81%D1%82%D0%B8%D0%BD%D0%B8+%D1%82%D0%B0+%D0%B0%D0%BA%D1%81%D0%B5%D1%81%D1%83%D0%B0%D1%80%D0%B8/data=!4m7!3m6!1s0x472afdd671e7403f:0xd732c9c348084a5c!8m2!3d50.9440302!4d29.8747149!16s%2Fg%2F11vdx29zq5!19sChIJP0Dncdb9KkcRXEoISMPJMtc?authuser=0&hl=tr&rclk=1",
    "website_url": "",
    "rating_text": "5,0",
    "stars": null,
    "number_of_reviews": null,
    "price_level": "",
    "open_hours": "",
    "extraction_timestamp": "2025-06-08T03:33:53.767Z",
    "source_name": "google",
    "source_query": "Irrigation Equipment",
    "source_country": "UA",
    "country": "Ukraine",
    "state": "Kyivska oblast",
    "city": "Ivankiv"
  },
  {
    "source_id": "ChIJi6PqHKH8KkcRpLtgDuQzBwI",
    "name": "Vetapteka",
    "category": "Vetapteka",
    "formatted_address": "4,7(18)",
    "phone_number": "+380971474429",
    "source_url": "https://www.google.com/maps/place/Vetapteka/data=!4m7!3m6!1s0x472afca11ceaa38b:0x20733e40e60bba4!8m2!3d50.9363319!4d29.8982181!16s%2Fg%2F11gdsgr0xx!19sChIJi6PqHKH8KkcRpLtgDuQzBwI?authuser=0&hl=tr&rclk=1",
    "website_url": "",
    "rating_text": "4,7",
    "stars": null,
    "number_of_reviews": null,
    "price_level": "",
    "open_hours": "",
    "extraction_timestamp": "2025-06-08T03:33:53.768Z",
    "source_name": "google",
    "source_query": "Irrigation Equipment",
    "source_country": "UA",
    "country": "Ukraine",
    "state": "Kyivska oblast",
    "city": "Ivankiv"
  },
  {
    "source_id": "ChIJ070LOQD9KkcR5DV1cN3pdBs",
    "name": "Prolisok",
    "category": "Prolisok",
    "formatted_address": "5,0(1)",
    "phone_number": "",
    "source_url": "https://www.google.com/maps/place/Prolisok/data=!4m7!3m6!1s0x472afd00390bbdd3:0x1b74e9dd707535e4!8m2!3d50.937471!4d29.890943!16s%2Fg%2F11lzp9gww8!19sChIJ070LOQD9KkcR5DV1cN3pdBs?authuser=0&hl=tr&rclk=1",
    "website_url": "",
    "rating_text": "5,0",
    "stars": null,
    "number_of_reviews": null,
    "price_level": "",
    "open_hours": "",
    "extraction_timestamp": "2025-06-08T03:33:53.768Z",
    "source_name": "google",
    "source_query": "Irrigation Equipment",
    "source_country": "UA",
    "country": "Ukraine",
    "state": "Kyivska oblast",
    "city": "Ivankiv"
  },
  {
    "source_id": "ChIJ5XxAkt3L1EARKAadCejxqLE",
    "name": "Інтернет-Магазин полива Aqua Price (все для полива, оборудование для автоматического полива и ручного орошения)",
    "category": "Інтернет-Магазин полива Aqua Price (все для полива, оборудование для автоматического полива и ручного орошения)",
    "formatted_address": "Інтернет-Магазин полива Aqua Price (все для полива, оборудование для автоматического полива и ручного орошения)",
    "phone_number": "+380960773337",
    "source_url": "https://www.google.com/maps/place/%D0%86%D0%BD%D1%82%D0%B5%D1%80%D0%BD%D0%B5%D1%82-%D0%9C%D0%B0%D0%B3%D0%B0%D0%B7%D0%B8%D0%BD+%D0%BF%D0%BE%D0%BB%D0%B8%D0%B2%D0%B0+Aqua+Price+%28%D0%B2%D1%81%D0%B5+%D0%B4%D0%BB%D1%8F+%D0%BF%D0%BE%D0%BB%D0%B8%D0%B2%D0%B0,+%D0%BE%D0%B1%D0%BE%D1%80%D1%83%D0%B4%D0%BE%D0%B2%D0%B0%D0%BD%D0%B8%D0%B5+%D0%B4%D0%BB%D1%8F+%D0%B0%D0%B2%D1%82%D0%BE%D0%BC%D0%B0%D1%82%D0%B8%D1%87%D0%B5%D1%81%D0%BA%D0%BE%D0%B3%D0%BE+%D0%BF%D0%BE%D0%BB%D0%B8%D0%B2%D0%B0+%D0%B8+%D1%80%D1%83%D1%87%D0%BD%D0%BE%D0%B3%D0%BE+%D0%BE%D1%80%D0%BE%D1%88%D0%B5%D0%BD%D0%B8%D1%8F%29/data=!4m7!3m6!1s0x40d4cbdd92407ce5:0xb1a8f1e8099d0628!8m2!3d50.4275904!4d30.3497723!16s%2Fg%2F11qyk5wysc!19sChIJ5XxAkt3L1EARKAadCejxqLE?authuser=0&hl=tr&rclk=1",
    "website_url": "",
    "rating_text": "5,0",
    "stars": null,
    "number_of_reviews": null,
    "price_level": "",
    "open_hours": "",
    "extraction_timestamp": "2025-06-08T03:33:53.769Z",
    "source_name": "google",
    "source_query": "Irrigation Equipment",
    "source_country": "UA",
    "country": "Ukraine",
    "state": "Kyivska oblast",
    "city": "Ivankiv"
  },
  {
    "source_id": "ChIJK71O5pn8KkcRYnRAF6pwwDU",
    "name": "Кафе-магазин \"Троянда\"",
    "category": "Кафе-магазин \"Троянда\"",
    "formatted_address": "3,8(24)",
    "phone_number": "",
    "source_url": "https://www.google.com/maps/place/%D0%9A%D0%B0%D1%84%D0%B5-%D0%BC%D0%B0%D0%B3%D0%B0%D0%B7%D0%B8%D0%BD+%22%D0%A2%D1%80%D0%BE%D1%8F%D0%BD%D0%B4%D0%B0%22/data=!4m7!3m6!1s0x472afc99e64ebd2b:0x35c070aa17407462!8m2!3d50.9332851!4d29.8828357!16s%2Fg%2F11fylpcqkn!19sChIJK71O5pn8KkcRYnRAF6pwwDU?authuser=0&hl=tr&rclk=1",
    "website_url": "",
    "rating_text": "3,8",
    "stars": null,
    "number_of_reviews": null,
    "price_level": "",
    "open_hours": "",
    "extraction_timestamp": "2025-06-08T03:33:53.770Z",
    "source_name": "google",
    "source_query": "Irrigation Equipment",
    "source_country": "UA",
    "country": "Ukraine",
    "state": "Kyivska oblast",
    "city": "Ivankiv"
  },
  {
    "source_id": "ChIJlwavL6H8KkcRqQeVj8iPMRU",
    "name": "Avto",
    "category": "Avto",
    "formatted_address": "4,4(63)",
    "phone_number": "+380679098887",
    "source_url": "https://www.google.com/maps/place/Avto/data=!4m7!3m6!1s0x472afca12faf0697:0x15318fc88f9507a9!8m2!3d50.935567!4d29.9017761!16s%2Fg%2F11bw47847k!19sChIJlwavL6H8KkcRqQeVj8iPMRU?authuser=0&hl=tr&rclk=1",
    "website_url": "",
    "rating_text": "4,4",
    "stars": null,
    "number_of_reviews": null,
    "price_level": "",
    "open_hours": "",
    "extraction_timestamp": "2025-06-08T03:33:53.770Z",
    "source_name": "google",
    "source_query": "Irrigation Equipment",
    "source_country": "UA",
    "country": "Ukraine",
    "state": "Kyivska oblast",
    "city": "Ivankiv"
  },
  {
    "source_id": "ChIJiToxc7z9KkcRKbLWjk9CQVc",
    "name": "THRASH! ТРАШ Маркет Super",
    "category": "THRASH! ТРАШ Маркет Super",
    "formatted_address": "3,7(38)",
    "phone_number": "+380800300890",
    "source_url": "https://www.google.com/maps/place/THRASH!+%D0%A2%D0%A0%D0%90%D0%A8+%D0%9C%D0%B0%D1%80%D0%BA%D0%B5%D1%82+Super/data=!4m7!3m6!1s0x472afdbc73313a89:0x5741424f8ed6b229!8m2!3d50.933372!4d29.906507!16s%2Fg%2F11vfb29df4!19sChIJiToxc7z9KkcRKbLWjk9CQVc?authuser=0&hl=tr&rclk=1",
    "website_url": "",
    "rating_text": "3,7",
    "stars": null,
    "number_of_reviews": null,
    "price_level": "",
    "open_hours": "",
    "extraction_timestamp": "2025-06-08T03:33:53.771Z",
    "source_name": "google",
    "source_query": "Irrigation Equipment",
    "source_country": "UA",
    "country": "Ukraine",
    "state": "Kyivska oblast",
    "city": "Ivankiv"
  },
  {
    "source_id": "ChIJRRHZauv9KkcR9XGmen8GcvM",
    "name": "EVA",
    "category": "EVA",
    "formatted_address": "4,6(24)",
    "phone_number": "+380800303700",
    "source_url": "https://www.google.com/maps/place/EVA/data=!4m7!3m6!1s0x472afdeb6ad91145:0xf372067f7aa671f5!8m2!3d50.9331814!4d29.9032012!16s%2Fg%2F11fhs9wyv3!19sChIJRRHZauv9KkcR9XGmen8GcvM?authuser=0&hl=tr&rclk=1",
    "website_url": "",
    "rating_text": "4,6",
    "stars": null,
    "number_of_reviews": null,
    "price_level": "",
    "open_hours": "",
    "extraction_timestamp": "2025-06-08T03:33:53.772Z",
    "source_name": "google",
    "source_query": "Irrigation Equipment",
    "source_country": "UA",
    "country": "Ukraine",
    "state": "Kyivska oblast",
    "city": "Ivankiv"
  },
  {
    "source_id": "ChIJLcYP9DL9KkcRKsw2zpGAE4Y",
    "name": "Зоомаркет КРАМНИЦЯ",
    "category": "Зоомаркет КРАМНИЦЯ",
    "formatted_address": "5,0(6)",
    "phone_number": "+380671799898",
    "source_url": "https://www.google.com/maps/place/%D0%97%D0%BE%D0%BE%D0%BC%D0%B0%D1%80%D0%BA%D0%B5%D1%82+%D0%9A%D0%A0%D0%90%D0%9C%D0%9D%D0%98%D0%A6%D0%AF/data=!4m7!3m6!1s0x472afd32f40fc62d:0x86138091ce36cc2a!8m2!3d50.93344!4d29.9029841!16s%2Fg%2F11q25nfcgm!19sChIJLcYP9DL9KkcRKsw2zpGAE4Y?authuser=0&hl=tr&rclk=1",
    "website_url": "",
    "rating_text": "5,0",
    "stars": null,
    "number_of_reviews": null,
    "price_level": "",
    "open_hours": "",
    "extraction_timestamp": "2025-06-08T03:33:53.772Z",
    "source_name": "google",
    "source_query": "Irrigation Equipment",
    "source_country": "UA",
    "country": "Ukraine",
    "state": "Kyivska oblast",
    "city": "Ivankiv"
  },
  {
    "source_id": "ChIJE60f2DPP1EARCqjSrjIeXBw",
    "name": "СпецПоливСервіс",
    "category": "СпецПоливСервіс",
    "formatted_address": "5,0(17)",
    "phone_number": "+380970822608",
    "source_url": "https://www.google.com/maps/place/%D0%A1%D0%BF%D0%B5%D1%86%D0%9F%D0%BE%D0%BB%D0%B8%D0%B2%D0%A1%D0%B5%D1%80%D0%B2%D1%96%D1%81/data=!4m7!3m6!1s0x40d4cf33d81fad13:0x1c5c1e32aed2a80a!8m2!3d50.463344!4d30.589573!16s%2Fg%2F11h0trxk1!19sChIJE60f2DPP1EARCqjSrjIeXBw?authuser=0&hl=tr&rclk=1",
    "website_url": "",
    "rating_text": "5,0",
    "stars": null,
    "number_of_reviews": null,
    "price_level": "",
    "open_hours": "",
    "extraction_timestamp": "2025-06-08T03:33:53.773Z",
    "source_name": "google",
    "source_query": "Irrigation Equipment",
    "source_country": "UA",
    "country": "Ukraine",
    "state": "Kyivska oblast",
    "city": "Ivankiv"
  },
  {
    "source_id": "ChIJA4Z5IQ_F1EARurDzFyHtkgA",
    "name": "Avtopoliv.com.ua - Все для автоматичного та крапельного поливу",
    "category": "Avtopoliv.com.ua - Все для автоматичного та крапельного поливу",
    "formatted_address": "5,0(28)",
    "phone_number": "+380631355535",
    "source_url": "https://www.google.com/maps/place/Avtopoliv.com.ua+-+%D0%92%D1%81%D0%B5+%D0%B4%D0%BB%D1%8F+%D0%B0%D0%B2%D1%82%D0%BE%D0%BC%D0%B0%D1%82%D0%B8%D1%87%D0%BD%D0%BE%D0%B3%D0%BE+%D1%82%D0%B0+%D0%BA%D1%80%D0%B0%D0%BF%D0%B5%D0%BB%D1%8C%D0%BD%D0%BE%D0%B3%D0%BE+%D0%BF%D0%BE%D0%BB%D0%B8%D0%B2%D1%83/data=!4m7!3m6!1s0x40d4c50f21798603:0x92ed2117f3b0ba!8m2!3d50.3944714!4d30.6366429!16s%2Fg%2F11l2m851ch!19sChIJA4Z5IQ_F1EARurDzFyHtkgA?authuser=0&hl=tr&rclk=1",
    "website_url": "",
    "rating_text": "5,0",
    "stars": null,
    "number_of_reviews": null,
    "price_level": "",
    "open_hours": "",
    "extraction_timestamp": "2025-06-08T03:33:53.774Z",
    "source_name": "google",
    "source_query": "Irrigation Equipment",
    "source_country": "UA",
    "country": "Ukraine",
    "state": "Kyivska oblast",
    "city": "Ivankiv"
  },
  {
    "source_id": "ChIJkXv1l6XF1EARB2BiserVpEA",
    "name": "Cascade Aqua - Ландшафтная Компания",
    "category": "Cascade Aqua - Ландшафтная Компания",
    "formatted_address": "5,0(3)",
    "phone_number": "+380674031580",
    "source_url": "https://www.google.com/maps/place/Cascade+Aqua+-+%D0%9B%D0%B0%D0%BD%D0%B4%D1%88%D0%B0%D1%84%D1%82%D0%BD%D0%B0%D1%8F+%D0%9A%D0%BE%D0%BC%D0%BF%D0%B0%D0%BD%D0%B8%D1%8F/data=!4m7!3m6!1s0x40d4c5a597f57b91:0x40a4d5eab1626007!8m2!3d50.4285014!4d30.6698685!16s%2Fg%2F11gpn8vbph!19sChIJkXv1l6XF1EARB2BiserVpEA?authuser=0&hl=tr&rclk=1",
    "website_url": "",
    "rating_text": "5,0",
    "stars": null,
    "number_of_reviews": null,
    "price_level": "",
    "open_hours": "",
    "extraction_timestamp": "2025-06-08T03:33:53.793Z",
    "source_name": "google",
    "source_query": "Irrigation Equipment",
    "source_country": "UA",
    "country": "Ukraine",
    "state": "Kyivska oblast",
    "city": "Ivankiv"
  },
  {
    "source_id": "ChIJf4jHN1LM1EARBkfaDZQGDTw",
    "name": "Dr. Sprinkler",
    "category": "Dr. Sprinkler",
    "formatted_address": "4,8(4)",
    "phone_number": "+380965335353",
    "source_url": "https://www.google.com/maps/place/Dr.+Sprinkler/data=!4m7!3m6!1s0x40d4cc5237c7887f:0x3c0d06940dda4706!8m2!3d50.4105845!4d30.558873!16s%2Fg%2F1q6j9h1m6!19sChIJf4jHN1LM1EARBkfaDZQGDTw?authuser=0&hl=tr&rclk=1",
    "website_url": "",
    "rating_text": "4,8",
    "stars": null,
    "number_of_reviews": null,
    "price_level": "",
    "open_hours": "",
    "extraction_timestamp": "2025-06-08T03:33:53.794Z",
    "source_name": "google",
    "source_query": "Irrigation Equipment",
    "source_country": "UA",
    "country": "Ukraine",
    "state": "Kyivska oblast",
    "city": "Ivankiv"
  },
  {
    "source_id": "ChIJIRWBgmPM1EARTsCTjS_16ZA",
    "name": "Родон-Агро",
    "category": "Родон-Агро",
    "formatted_address": "4,5(46)",
    "phone_number": "+380993086438",
    "source_url": "https://www.google.com/maps/place/%D0%A0%D0%BE%D0%B4%D0%BE%D0%BD-%D0%90%D0%B3%D1%80%D0%BE/data=!4m7!3m6!1s0x40d4cc6382811521:0x90e9f52f8d93c04e!8m2!3d50.4501333!4d30.3888885!16s%2Fg%2F11dxd2jhz2!19sChIJIRWBgmPM1EARTsCTjS_16ZA?authuser=0&hl=tr&rclk=1",
    "website_url": "",
    "rating_text": "4,5",
    "stars": null,
    "number_of_reviews": null,
    "price_level": "",
    "open_hours": "",
    "extraction_timestamp": "2025-06-08T03:33:53.795Z",
    "source_name": "google",
    "source_query": "Irrigation Equipment",
    "source_country": "UA",
    "country": "Ukraine",
    "state": "Kyivska oblast",
    "city": "Ivankiv"
  },
  {
    "source_id": "ChIJSZ3_eU3J1EARWC1roU472OQ",
    "name": "АкваБуд",
    "category": "АкваБуд",
    "formatted_address": "4,0(3)",
    "phone_number": "+380957730953",
    "source_url": "https://www.google.com/maps/place/%D0%90%D0%BA%D0%B2%D0%B0%D0%91%D1%83%D0%B4/data=!4m7!3m6!1s0x40d4c94d79ff9d49:0xe4d83b4ea16b2d58!8m2!3d50.417683!4d30.441472!16s%2Fg%2F11cm0gbf3d!19sChIJSZ3_eU3J1EARWC1roU472OQ?authuser=0&hl=tr&rclk=1",
    "website_url": "",
    "rating_text": "4,0",
    "stars": null,
    "number_of_reviews": null,
    "price_level": "",
    "open_hours": "",
    "extraction_timestamp": "2025-06-08T03:33:53.796Z",
    "source_name": "google",
    "source_query": "Irrigation Equipment",
    "source_country": "UA",
    "country": "Ukraine",
    "state": "Kyivska oblast",
    "city": "Ivankiv"
  },
  {
    "source_id": "ChIJ-WWGv2fF1EAR_oq_I8RVUWg",
    "name": "UKRPOLIV - Оборудование для автоматического полива",
    "category": "UKRPOLIV - Оборудование для автоматического полива",
    "formatted_address": "4,4(41)",
    "phone_number": "+380965941814",
    "source_url": "https://www.google.com/maps/place/UKRPOLIV+-+%D0%9E%D0%B1%D0%BE%D1%80%D1%83%D0%B4%D0%BE%D0%B2%D0%B0%D0%BD%D0%B8%D0%B5+%D0%B4%D0%BB%D1%8F+%D0%B0%D0%B2%D1%82%D0%BE%D0%BC%D0%B0%D1%82%D0%B8%D1%87%D0%B5%D1%81%D0%BA%D0%BE%D0%B3%D0%BE+%D0%BF%D0%BE%D0%BB%D0%B8%D0%B2%D0%B0/data=!4m7!3m6!1s0x40d4c567bf8665f9:0x685155c423bf8afe!8m2!3d50.4100801!4d30.6263701!16s%2Fg%2F11h3g_t0sd!19sChIJ-WWGv2fF1EAR_oq_I8RVUWg?authuser=0&hl=tr&rclk=1",
    "website_url": "",
    "rating_text": "4,4",
    "stars": null,
    "number_of_reviews": null,
    "price_level": "",
    "open_hours": "",
    "extraction_timestamp": "2025-06-08T03:33:53.797Z",
    "source_name": "google",
    "source_query": "Irrigation Equipment",
    "source_country": "UA",
    "country": "Ukraine",
    "state": "Kyivska oblast",
    "city": "Ivankiv"
  },
  {
    "source_id": "ChIJj9B1EqHP1EARDZgdszuCvLs",
    "name": "Системы полива",
    "category": "Системы полива",
    "formatted_address": "Sulama Ekipmanları Tedarikçisi · Lavrska St, 7а / 19Kapalı ⋅ Açılış zamanı: Pzt 09:00 · +380 99 343 8777",
    "phone_number": "+380993438777",
    "source_url": "https://www.google.com/maps/place/%D0%A1%D0%B8%D1%81%D1%82%D0%B5%D0%BC%D1%8B+%D0%BF%D0%BE%D0%BB%D0%B8%D0%B2%D0%B0/data=!4m7!3m6!1s0x40d4cfa11275d08f:0xbbbc823bb31d980d!8m2!3d50.4368044!4d30.5554264!16s%2Fg%2F11qh89rj21!19sChIJj9B1EqHP1EARDZgdszuCvLs?authuser=0&hl=tr&rclk=1",
    "website_url": "",
    "rating_text": "",
    "stars": null,
    "number_of_reviews": null,
    "price_level": "",
    "open_hours": "",
    "extraction_timestamp": "2025-06-08T03:33:53.798Z",
    "source_name": "google",
    "source_query": "Irrigation Equipment",
    "source_country": "UA",
    "country": "Ukraine",
    "state": "Kyivska oblast",
    "city": "Ivankiv"
  },
  {
    "source_id": "ChIJVVXFVhjM1EARWSWS_qv0o0U",
    "name": "Интегрированные Водные Технологии",
    "category": "Интегрированные Водные Технологии",
    "formatted_address": "Su Pompası Tedarikçisi · 50°27'00.0\"N 30°30'00.0\"E, Borshchahivska St, 206Kapalı ⋅ Açılış zamanı: Pzt 08:30 · +380 67 441 4277",
    "phone_number": "+380674414277",
    "source_url": "https://www.google.com/maps/place/%D0%98%D0%BD%D1%82%D0%B5%D0%B3%D1%80%D0%B8%D1%80%D0%BE%D0%B2%D0%B0%D0%BD%D0%BD%D1%8B%D0%B5+%D0%92%D0%BE%D0%B4%D0%BD%D1%8B%D0%B5+%D0%A2%D0%B5%D1%85%D0%BD%D0%BE%D0%BB%D0%BE%D0%B3%D0%B8%D0%B8/data=!4m7!3m6!1s0x40d4cc1856c55555:0x45a3f4abfe922559!8m2!3d50.4424622!4d30.4349734!16s%2Fg%2F11rxqk21tx!19sChIJVVXFVhjM1EARWSWS_qv0o0U?authuser=0&hl=tr&rclk=1",
    "website_url": "",
    "rating_text": "",
    "stars": null,
    "number_of_reviews": null,
    "price_level": "",
    "open_hours": "",
    "extraction_timestamp": "2025-06-08T03:33:53.799Z",
    "source_name": "google",
    "source_query": "Irrigation Equipment",
    "source_country": "UA",
    "country": "Ukraine",
    "state": "Kyivska oblast",
    "city": "Ivankiv"
  },
  {
    "source_id": "ChIJW73WdL_O1EARXXiJqQdW7kw",
    "name": "Ирригационные системы",
    "category": "Ирригационные системы",
    "formatted_address": "Sulama Ekipmanları Tedarikçisi · Solomianska St, 1Kapalı ⋅ Açılış zamanı: Pzt 09:00 · +380 96 114 5050",
    "phone_number": "+380961145050",
    "source_url": "https://www.google.com/maps/place/%D0%98%D1%80%D1%80%D0%B8%D0%B3%D0%B0%D1%86%D0%B8%D0%BE%D0%BD%D0%BD%D1%8B%D0%B5+%D1%81%D0%B8%D1%81%D1%82%D0%B5%D0%BC%D1%8B/data=!4m7!3m6!1s0x40d4cebf74d6bd5b:0x4cee5607a989785d!8m2!3d50.4307294!4d30.4732198!16s%2Fg%2F11rj5kysmm!19sChIJW73WdL_O1EARXXiJqQdW7kw?authuser=0&hl=tr&rclk=1",
    "website_url": "",
    "rating_text": "",
    "stars": null,
    "number_of_reviews": null,
    "price_level": "",
    "open_hours": "",
    "extraction_timestamp": "2025-06-08T03:33:53.800Z",
    "source_name": "google",
    "source_query": "Irrigation Equipment",
    "source_country": "UA",
    "country": "Ukraine",
    "state": "Kyivska oblast",
    "city": "Ivankiv"
  },
  {
    "source_id": "ChIJ8dsRixjR1EARoXe2z7DsZeY",
    "name": "Ukladka Hazona Pod Klyuch Y Avtopolyv Hazona V Kyeve - Vydenflora",
    "category": "Ukladka Hazona Pod Klyuch Y Avtopolyv Hazona V Kyeve - Vydenflora",
    "formatted_address": "5,0(2)",
    "phone_number": "+380984505511",
    "source_url": "https://www.google.com/maps/place/Ukladka+Hazona+Pod+Klyuch+Y+Avtopolyv+Hazona+V+Kyeve+-+Vydenflora/data=!4m7!3m6!1s0x40d4d1188b11dbf1:0xe665ecb0cfb677a1!8m2!3d50.4285014!4d30.6698685!16s%2Fg%2F1pyqm5xpx!19sChIJ8dsRixjR1EARoXe2z7DsZeY?authuser=0&hl=tr&rclk=1",
    "website_url": "",
    "rating_text": "5,0",
    "stars": null,
    "number_of_reviews": null,
    "price_level": "",
    "open_hours": "",
    "extraction_timestamp": "2025-06-08T03:33:53.801Z",
    "source_name": "google",
    "source_query": "Irrigation Equipment",
    "source_country": "UA",
    "country": "Ukraine",
    "state": "Kyivska oblast",
    "city": "Ivankiv"
  },
  {
    "source_id": "ChIJuZ4Na9vI1EARQG8rPxVBlkU",
    "name": "Магазин полива. K-Rain, Hunter, RainBird",
    "category": "Магазин полива. K-Rain, Hunter, RainBird",
    "formatted_address": "Магазин полива. K-Rain, Hunter, RainBird",
    "phone_number": "+380501088779",
    "source_url": "https://www.google.com/maps/place/%D0%9C%D0%B0%D0%B3%D0%B0%D0%B7%D0%B8%D0%BD+%D0%BF%D0%BE%D0%BB%D0%B8%D0%B2%D0%B0.+K-Rain,+Hunter,+RainBird/data=!4m7!3m6!1s0x40d4c8db6b0d9eb9:0x459641153f2b6f40!8m2!3d50.3918125!4d30.4850044!16s%2Fg%2F11hbp9s62p!19sChIJuZ4Na9vI1EARQG8rPxVBlkU?authuser=0&hl=tr&rclk=1",
    "website_url": "",
    "rating_text": "4,7",
    "stars": null,
    "number_of_reviews": null,
    "price_level": "",
    "open_hours": "",
    "extraction_timestamp": "2025-06-08T03:33:53.802Z",
    "source_name": "google",
    "source_query": "Irrigation Equipment",
    "source_country": "UA",
    "country": "Ukraine",
    "state": "Kyivska oblast",
    "city": "Ivankiv"
  },
  {
    "source_id": "ChIJuXdaApwj1UAR6rJ6f4SGl9Q",
    "name": "Kyiv Home",
    "category": "Kyiv Home",
    "formatted_address": "4,5(23)",
    "phone_number": "+380972333007",
    "source_url": "https://www.google.com/maps/place/Kyiv+Home/data=!4m7!3m6!1s0x40d5239c025a77b9:0xd49786847f7ab2ea!8m2!3d50.4901858!4d30.5773563!16s%2Fg%2F11c3x9gl35!19sChIJuXdaApwj1UAR6rJ6f4SGl9Q?authuser=0&hl=tr&rclk=1",
    "website_url": "",
    "rating_text": "4,5",
    "stars": null,
    "number_of_reviews": null,
    "price_level": "",
    "open_hours": "",
    "extraction_timestamp": "2025-06-08T03:33:53.803Z",
    "source_name": "google",
    "source_query": "Irrigation Equipment",
    "source_country": "UA",
    "country": "Ukraine",
    "state": "Kyivska oblast",
    "city": "Ivankiv"
  }
]
