[
  {
    "source_id": "ChIJ9_rxu-6B1EAR7pSR0ggxq8U",
    "name": "Автеп - Опалення та енергетика",
    "category": "Автеп - Опалення та енергетика",
    "formatted_address": "4,8(12)",
    "phone_number": "+380504631011",
    "source_url": "https://www.google.com/maps/place/%D0%90%D0%B2%D1%82%D0%B5%D0%BF+-+%D0%9E%D0%BF%D0%B0%D0%BB%D0%B5%D0%BD%D0%BD%D1%8F+%D1%82%D0%B0+%D0%B5%D0%BD%D0%B5%D1%80%D0%B3%D0%B5%D1%82%D0%B8%D0%BA%D0%B0/data=!4m7!3m6!1s0x40d481eebbf1faf7:0xc5ab3108d29194ee!8m2!3d49.8638233!4d30.8273423!16s%2Fg%2F11htqyt6jy!19sChIJ9_rxu-6B1EAR7pSR0ggxq8U?authuser=0&hl=tr&rclk=1",
    "website_url": "",
    "rating_text": "4,8",
    "stars": null,
    "number_of_reviews": null,
    "price_level": "",
    "open_hours": "",
    "extraction_timestamp": "2025-06-08T03:30:30.205Z",
    "source_name": "google",
    "source_query": "Irrigation Equipment",
    "source_country": "UA",
    "country": "Ukraine",
    "state": "Kyivska oblast",
    "city": "Kaharlyk Raion"
  },
  {
    "source_id": "ChIJc4dPLAuZ1EARRN1TMl-zDh8",
    "name": "Water Dream - автоматичні системи зрошення",
    "category": "Water Dream - автоматичні системи зрошення",
    "formatted_address": "4,1(12)",
    "phone_number": "+380980989080",
    "source_url": "https://www.google.com/maps/place/Water+Dream+-+%D0%B0%D0%B2%D1%82%D0%BE%D0%BC%D0%B0%D1%82%D0%B8%D1%87%D0%BD%D1%96+%D1%81%D0%B8%D1%81%D1%82%D0%B5%D0%BC%D0%B8+%D0%B7%D1%80%D0%BE%D1%88%D0%B5%D0%BD%D0%BD%D1%8F/data=!4m7!3m6!1s0x40d4990b2c4f8773:0x1f0eb35f3253dd44!8m2!3d50.0836315!4d30.6040333!16s%2Fg%2F11h6yqf7b4!19sChIJc4dPLAuZ1EARRN1TMl-zDh8?authuser=0&hl=tr&rclk=1",
    "website_url": "",
    "rating_text": "4,1",
    "stars": null,
    "number_of_reviews": null,
    "price_level": "",
    "open_hours": "",
    "extraction_timestamp": "2025-06-08T03:30:30.205Z",
    "source_name": "google",
    "source_query": "Irrigation Equipment",
    "source_country": "UA",
    "country": "Ukraine",
    "state": "Kyivska oblast",
    "city": "Kaharlyk Raion"
  },
  {
    "source_id": "ChIJ04T0iRuA1EARoYu2h7Yyvvc",
    "name": "\"Building materials\" Budshop",
    "category": "\"Building materials\" Budshop",
    "formatted_address": "4,1(72)",
    "phone_number": "+380457351570",
    "source_url": "https://www.google.com/maps/place/%22Building+materials%22+Budshop/data=!4m7!3m6!1s0x40d4801b89f484d3:0xf7be32b687b68ba1!8m2!3d49.861393!4d30.8220603!16s%2Fg%2F11bx0jdjx1!19sChIJ04T0iRuA1EARoYu2h7Yyvvc?authuser=0&hl=tr&rclk=1",
    "website_url": "",
    "rating_text": "4,1",
    "stars": null,
    "number_of_reviews": null,
    "price_level": "",
    "open_hours": "",
    "extraction_timestamp": "2025-06-08T03:30:30.206Z",
    "source_name": "google",
    "source_query": "Irrigation Equipment",
    "source_country": "UA",
    "country": "Ukraine",
    "state": "Kyivska oblast",
    "city": "Kaharlyk Raion"
  },
  {
    "source_id": "ChIJRa3o2hDG1EARvFwMiTpym0k",
    "name": "ЭВКАЛИПТ Р КОМПАНИЯ",
    "category": "ЭВКАЛИПТ Р КОМПАНИЯ",
    "formatted_address": "4,9(41)",
    "phone_number": "+380933654300",
    "source_url": "https://www.google.com/maps/place/%D0%AD%D0%92%D0%9A%D0%90%D0%9B%D0%98%D0%9F%D0%A2+%D0%A0+%D0%9A%D0%9E%D0%9C%D0%9F%D0%90%D0%9D%D0%98%D0%AF/data=!4m7!3m6!1s0x40d4c610dae8ad45:0x499b723a890c5cbc!8m2!3d50.360383!4d30.47321!16s%2Fg%2F11xhrr_g1!19sChIJRa3o2hDG1EARvFwMiTpym0k?authuser=0&hl=tr&rclk=1",
    "website_url": "",
    "rating_text": "4,9",
    "stars": null,
    "number_of_reviews": null,
    "price_level": "",
    "open_hours": "",
    "extraction_timestamp": "2025-06-08T03:30:30.207Z",
    "source_name": "google",
    "source_query": "Irrigation Equipment",
    "source_country": "UA",
    "country": "Ukraine",
    "state": "Kyivska oblast",
    "city": "Kaharlyk Raion"
  },
  {
    "source_id": "ChIJ60XEpQbQ1EARVLf9IomIVYg",
    "name": "Poliv UA",
    "category": "Poliv UA",
    "formatted_address": "4,8(64)",
    "phone_number": "+380443379900",
    "source_url": "https://www.google.com/maps/place/Poliv+UA/data=!4m7!3m6!1s0x40d4d006a5c445eb:0x8855888922fdb754!8m2!3d50.4646434!4d30.6255633!16s%2Fg%2F11clsyjy7n!19sChIJ60XEpQbQ1EARVLf9IomIVYg?authuser=0&hl=tr&rclk=1",
    "website_url": "",
    "rating_text": "4,8",
    "stars": null,
    "number_of_reviews": null,
    "price_level": "",
    "open_hours": "",
    "extraction_timestamp": "2025-06-08T03:30:30.208Z",
    "source_name": "google",
    "source_query": "Irrigation Equipment",
    "source_country": "UA",
    "country": "Ukraine",
    "state": "Kyivska oblast",
    "city": "Kaharlyk Raion"
  },
  {
    "source_id": "ChIJZT2FymmB1EARSiZqHRnqmao",
    "name": "Сантехнік Плюс",
    "category": "Сантехнік Плюс",
    "formatted_address": "4,6(22)",
    "phone_number": "+380737133133",
    "source_url": "https://www.google.com/maps/place/%D0%A1%D0%B0%D0%BD%D1%82%D0%B5%D1%85%D0%BD%D1%96%D0%BA+%D0%9F%D0%BB%D1%8E%D1%81/data=!4m7!3m6!1s0x40d48169ca853d65:0xaa99ea191d6a264a!8m2!3d49.8676203!4d30.8225809!16s%2Fg%2F11r4lx_7wk!19sChIJZT2FymmB1EARSiZqHRnqmao?authuser=0&hl=tr&rclk=1",
    "website_url": "",
    "rating_text": "4,6",
    "stars": null,
    "number_of_reviews": null,
    "price_level": "",
    "open_hours": "",
    "extraction_timestamp": "2025-06-08T03:30:30.209Z",
    "source_name": "google",
    "source_query": "Irrigation Equipment",
    "source_country": "UA",
    "country": "Ukraine",
    "state": "Kyivska oblast",
    "city": "Kaharlyk Raion"
  },
  {
    "source_id": "ChIJV9f-AsaF1EARq5J7InyYIh0",
    "name": "Lerua Merlen",
    "category": "Lerua Merlen",
    "formatted_address": "4,3(16)",
    "phone_number": "+380800300500",
    "source_url": "https://www.google.com/maps/place/Lerua+Merlen/data=!4m7!3m6!1s0x40d485c602fed757:0x1d22987c227b92ab!8m2!3d50.0050849!4d30.7845916!16s%2Fg%2F11h94zl7yr!19sChIJV9f-AsaF1EARq5J7InyYIh0?authuser=0&hl=tr&rclk=1",
    "website_url": "",
    "rating_text": "4,3",
    "stars": null,
    "number_of_reviews": null,
    "price_level": "",
    "open_hours": "",
    "extraction_timestamp": "2025-06-08T03:30:30.210Z",
    "source_name": "google",
    "source_query": "Irrigation Equipment",
    "source_country": "UA",
    "country": "Ukraine",
    "state": "Kyivska oblast",
    "city": "Kaharlyk Raion"
  },
  {
    "source_id": "ChIJf6Ri3wWB1EARfDqkQGvuPzs",
    "name": "Магазин - склад \"Декор\" Будівельні матеріали",
    "category": "Магазин - склад \"Декор\" Будівельні матеріали",
    "formatted_address": "4,5(266)",
    "phone_number": "+380678572262",
    "source_url": "https://www.google.com/maps/place/%D0%9C%D0%B0%D0%B3%D0%B0%D0%B7%D0%B8%D0%BD+-+%D1%81%D0%BA%D0%BB%D0%B0%D0%B4+%22%D0%94%D0%B5%D0%BA%D0%BE%D1%80%22+%D0%91%D1%83%D0%B4%D1%96%D0%B2%D0%B5%D0%BB%D1%8C%D0%BD%D1%96+%D0%BC%D0%B0%D1%82%D0%B5%D1%80%D1%96%D0%B0%D0%BB%D0%B8/data=!4m7!3m6!1s0x40d48105df62a47f:0x3b3fee6b40a43a7c!8m2!3d49.8610691!4d30.8209673!16s%2Fg%2F11h6tjwrx7!19sChIJf6Ri3wWB1EARfDqkQGvuPzs?authuser=0&hl=tr&rclk=1",
    "website_url": "",
    "rating_text": "4,5",
    "stars": null,
    "number_of_reviews": null,
    "price_level": "",
    "open_hours": "",
    "extraction_timestamp": "2025-06-08T03:30:30.211Z",
    "source_name": "google",
    "source_query": "Irrigation Equipment",
    "source_country": "UA",
    "country": "Ukraine",
    "state": "Kyivska oblast",
    "city": "Kaharlyk Raion"
  },
  {
    "source_id": "ChIJETZI2UKX1EARG1R3UAQw2mY",
    "name": "Tov \"Spektr-Ahro\"",
    "category": "Tov \"Spektr-Ahro\"",
    "formatted_address": "4,4(66)",
    "phone_number": "+380445209430",
    "source_url": "https://www.google.com/maps/place/Tov+%22Spektr-Ahro%22/data=!4m7!3m6!1s0x40d49742d9483611:0x66da30045077541b!8m2!3d50.1354884!4d30.695849!16s%2Fg%2F124ymr59z!19sChIJETZI2UKX1EARG1R3UAQw2mY?authuser=0&hl=tr&rclk=1",
    "website_url": "",
    "rating_text": "4,4",
    "stars": null,
    "number_of_reviews": null,
    "price_level": "",
    "open_hours": "",
    "extraction_timestamp": "2025-06-08T03:30:30.213Z",
    "source_name": "google",
    "source_query": "Irrigation Equipment",
    "source_country": "UA",
    "country": "Ukraine",
    "state": "Kyivska oblast",
    "city": "Kaharlyk Raion"
  },
  {
    "source_id": "ChIJE60f2DPP1EARCqjSrjIeXBw",
    "name": "СпецПоливСервіс",
    "category": "СпецПоливСервіс",
    "formatted_address": "5,0(17)",
    "phone_number": "+380970822608",
    "source_url": "https://www.google.com/maps/place/%D0%A1%D0%BF%D0%B5%D1%86%D0%9F%D0%BE%D0%BB%D0%B8%D0%B2%D0%A1%D0%B5%D1%80%D0%B2%D1%96%D1%81/data=!4m7!3m6!1s0x40d4cf33d81fad13:0x1c5c1e32aed2a80a!8m2!3d50.463344!4d30.589573!16s%2Fg%2F11h0trxk1!19sChIJE60f2DPP1EARCqjSrjIeXBw?authuser=0&hl=tr&rclk=1",
    "website_url": "",
    "rating_text": "5,0",
    "stars": null,
    "number_of_reviews": null,
    "price_level": "",
    "open_hours": "",
    "extraction_timestamp": "2025-06-08T03:30:30.213Z",
    "source_name": "google",
    "source_query": "Irrigation Equipment",
    "source_country": "UA",
    "country": "Ukraine",
    "state": "Kyivska oblast",
    "city": "Kaharlyk Raion"
  },
  {
    "source_id": "ChIJ5XxAkt3L1EARKAadCejxqLE",
    "name": "Інтернет-Магазин полива Aqua Price (все для полива, оборудование для автоматического полива и ручного орошения)",
    "category": "Інтернет-Магазин полива Aqua Price (все для полива, оборудование для автоматического полива и ручного орошения)",
    "formatted_address": "Інтернет-Магазин полива Aqua Price (все для полива, оборудование для автоматического полива и ручного орошения)",
    "phone_number": "+380960773337",
    "source_url": "https://www.google.com/maps/place/%D0%86%D0%BD%D1%82%D0%B5%D1%80%D0%BD%D0%B5%D1%82-%D0%9C%D0%B0%D0%B3%D0%B0%D0%B7%D0%B8%D0%BD+%D0%BF%D0%BE%D0%BB%D0%B8%D0%B2%D0%B0+Aqua+Price+%28%D0%B2%D1%81%D0%B5+%D0%B4%D0%BB%D1%8F+%D0%BF%D0%BE%D0%BB%D0%B8%D0%B2%D0%B0,+%D0%BE%D0%B1%D0%BE%D1%80%D1%83%D0%B4%D0%BE%D0%B2%D0%B0%D0%BD%D0%B8%D0%B5+%D0%B4%D0%BB%D1%8F+%D0%B0%D0%B2%D1%82%D0%BE%D0%BC%D0%B0%D1%82%D0%B8%D1%87%D0%B5%D1%81%D0%BA%D0%BE%D0%B3%D0%BE+%D0%BF%D0%BE%D0%BB%D0%B8%D0%B2%D0%B0+%D0%B8+%D1%80%D1%83%D1%87%D0%BD%D0%BE%D0%B3%D0%BE+%D0%BE%D1%80%D0%BE%D1%88%D0%B5%D0%BD%D0%B8%D1%8F%29/data=!4m7!3m6!1s0x40d4cbdd92407ce5:0xb1a8f1e8099d0628!8m2!3d50.4275904!4d30.3497723!16s%2Fg%2F11qyk5wysc!19sChIJ5XxAkt3L1EARKAadCejxqLE?authuser=0&hl=tr&rclk=1",
    "website_url": "",
    "rating_text": "5,0",
    "stars": null,
    "number_of_reviews": null,
    "price_level": "",
    "open_hours": "",
    "extraction_timestamp": "2025-06-08T03:30:30.214Z",
    "source_name": "google",
    "source_query": "Irrigation Equipment",
    "source_country": "UA",
    "country": "Ukraine",
    "state": "Kyivska oblast",
    "city": "Kaharlyk Raion"
  },
  {
    "source_id": "ChIJYyU9lq_N1EARqoG8SYko8go",
    "name": "Лайф Гарден",
    "category": "Лайф Гарден",
    "formatted_address": "3,9(7)",
    "phone_number": "+380503719090",
    "source_url": "https://www.google.com/maps/place/%D0%9B%D0%B0%D0%B9%D1%84+%D0%93%D0%B0%D1%80%D0%B4%D0%B5%D0%BD/data=!4m7!3m6!1s0x40d4cdaf963d2563:0xaf2288949bc81aa!8m2!3d50.45748!4d30.3824706!16s%2Fg%2F11gr60b225!19sChIJYyU9lq_N1EARqoG8SYko8go?authuser=0&hl=tr&rclk=1",
    "website_url": "",
    "rating_text": "3,9",
    "stars": null,
    "number_of_reviews": null,
    "price_level": "",
    "open_hours": "",
    "extraction_timestamp": "2025-06-08T03:30:30.215Z",
    "source_name": "google",
    "source_query": "Irrigation Equipment",
    "source_country": "UA",
    "country": "Ukraine",
    "state": "Kyivska oblast",
    "city": "Kaharlyk Raion"
  },
  {
    "source_id": "ChIJk_Cz7P9_1EARyOZyUvIFjCY",
    "name": "Products Tire +",
    "category": "Products Tire +",
    "formatted_address": "4,7(88)",
    "phone_number": "+380934980360",
    "source_url": "https://www.google.com/maps/place/Products+Tire+%2B/data=!4m7!3m6!1s0x40d47fffecb3f093:0x268c05f25272e6c8!8m2!3d49.8518179!4d30.8386388!16s%2Fg%2F11c42td98c!19sChIJk_Cz7P9_1EARyOZyUvIFjCY?authuser=0&hl=tr&rclk=1",
    "website_url": "",
    "rating_text": "4,7",
    "stars": null,
    "number_of_reviews": null,
    "price_level": "",
    "open_hours": "",
    "extraction_timestamp": "2025-06-08T03:30:30.216Z",
    "source_name": "google",
    "source_query": "Irrigation Equipment",
    "source_country": "UA",
    "country": "Ukraine",
    "state": "Kyivska oblast",
    "city": "Kaharlyk Raion"
  },
  {
    "source_id": "ChIJX_6Igc2W1EARSXW4-lhFIjU",
    "name": "ТОВ \"Валром Украина\"",
    "category": "ТОВ \"Валром Украина\"",
    "formatted_address": "4,4(23)",
    "phone_number": "+380457278058",
    "source_url": "https://www.google.com/maps/place/%D0%A2%D0%9E%D0%92+%22%D0%92%D0%B0%D0%BB%D1%80%D0%BE%D0%BC+%D0%A3%D0%BA%D1%80%D0%B0%D0%B8%D0%BD%D0%B0%22/data=!4m7!3m6!1s0x40d496cd8188fe5f:0x35224558fab87549!8m2!3d50.130097!4d30.698032!16s%2Fg%2F1tgn37j7!19sChIJX_6Igc2W1EARSXW4-lhFIjU?authuser=0&hl=tr&rclk=1",
    "website_url": "",
    "rating_text": "4,4",
    "stars": null,
    "number_of_reviews": null,
    "price_level": "",
    "open_hours": "",
    "extraction_timestamp": "2025-06-08T03:30:30.217Z",
    "source_name": "google",
    "source_query": "Irrigation Equipment",
    "source_country": "UA",
    "country": "Ukraine",
    "state": "Kyivska oblast",
    "city": "Kaharlyk Raion"
  },
  {
    "source_id": "ChIJM6VAOVjI1EARInyqFZ8ENUU",
    "name": "Hazon Mayster",
    "category": "Hazon Mayster",
    "formatted_address": "5,0(13)",
    "phone_number": "+380503588967",
    "source_url": "https://www.google.com/maps/place/Hazon+Mayster/data=!4m7!3m6!1s0x40d4c8583940a533:0x4535049f15aa7c22!8m2!3d50.3744949!4d30.4632499!16s%2Fg%2F1hhwqhx1t!19sChIJM6VAOVjI1EARInyqFZ8ENUU?authuser=0&hl=tr&rclk=1",
    "website_url": "",
    "rating_text": "5,0",
    "stars": null,
    "number_of_reviews": null,
    "price_level": "",
    "open_hours": "",
    "extraction_timestamp": "2025-06-08T03:30:30.217Z",
    "source_name": "google",
    "source_query": "Irrigation Equipment",
    "source_country": "UA",
    "country": "Ukraine",
    "state": "Kyivska oblast",
    "city": "Kaharlyk Raion"
  },
  {
    "source_id": "ChIJq1OAQEXF1EARIAyoFByGrW4",
    "name": "Ahrarna Industrialʹna Kompaniya",
    "category": "Ahrarna Industrialʹna Kompaniya",
    "formatted_address": "4,8(12)",
    "phone_number": "+380504444184",
    "source_url": "https://www.google.com/maps/place/Ahrarna+Industrial%CA%B9na+Kompaniya/data=!4m7!3m6!1s0x40d4c545408053ab:0x6ead861c14a80c20!8m2!3d50.4090678!4d30.6121652!16s%2Fg%2F1tdk3pn4!19sChIJq1OAQEXF1EARIAyoFByGrW4?authuser=0&hl=tr&rclk=1",
    "website_url": "",
    "rating_text": "4,8",
    "stars": null,
    "number_of_reviews": null,
    "price_level": "",
    "open_hours": "",
    "extraction_timestamp": "2025-06-08T03:30:30.218Z",
    "source_name": "google",
    "source_query": "Irrigation Equipment",
    "source_country": "UA",
    "country": "Ukraine",
    "state": "Kyivska oblast",
    "city": "Kaharlyk Raion"
  },
  {
    "source_id": "ChIJuZ4Na9vI1EARQG8rPxVBlkU",
    "name": "Магазин полива. K-Rain, Hunter, RainBird",
    "category": "Магазин полива. K-Rain, Hunter, RainBird",
    "formatted_address": "Магазин полива. K-Rain, Hunter, RainBird",
    "phone_number": "+380501088779",
    "source_url": "https://www.google.com/maps/place/%D0%9C%D0%B0%D0%B3%D0%B0%D0%B7%D0%B8%D0%BD+%D0%BF%D0%BE%D0%BB%D0%B8%D0%B2%D0%B0.+K-Rain,+Hunter,+RainBird/data=!4m7!3m6!1s0x40d4c8db6b0d9eb9:0x459641153f2b6f40!8m2!3d50.3918125!4d30.4850044!16s%2Fg%2F11hbp9s62p!19sChIJuZ4Na9vI1EARQG8rPxVBlkU?authuser=0&hl=tr&rclk=1",
    "website_url": "",
    "rating_text": "4,7",
    "stars": null,
    "number_of_reviews": null,
    "price_level": "",
    "open_hours": "",
    "extraction_timestamp": "2025-06-08T03:30:30.219Z",
    "source_name": "google",
    "source_query": "Irrigation Equipment",
    "source_country": "UA",
    "country": "Ukraine",
    "state": "Kyivska oblast",
    "city": "Kaharlyk Raion"
  },
  {
    "source_id": "ChIJmV2wXtx_00ARz5nXgNtbNSQ",
    "name": "Volodim",
    "category": "Volodim",
    "formatted_address": "5,0(1)",
    "phone_number": "",
    "source_url": "https://www.google.com/maps/place/Volodim/data=!4m7!3m6!1s0x40d37fdc5eb05d99:0x24355bdb80d799cf!8m2!3d49.8630222!4d30.8260578!16s%2Fg%2F11nm_ccxcv!19sChIJmV2wXtx_00ARz5nXgNtbNSQ?authuser=0&hl=tr&rclk=1",
    "website_url": "",
    "rating_text": "5,0",
    "stars": null,
    "number_of_reviews": null,
    "price_level": "",
    "open_hours": "",
    "extraction_timestamp": "2025-06-08T03:30:30.219Z",
    "source_name": "google",
    "source_query": "Irrigation Equipment",
    "source_country": "UA",
    "country": "Ukraine",
    "state": "Kyivska oblast",
    "city": "Kaharlyk Raion"
  },
  {
    "source_id": "ChIJi4Qz-Pfb1EAR_HYNsM1EFVE",
    "name": "GreenEra ГрінЕра - Інтернет-магазин ємностей та резервуарів, каналізаційних системи в Києві та Україні",
    "category": "GreenEra ГрінЕра - Інтернет-магазин ємностей та резервуарів, каналізаційних системи в Києві та Україні",
    "formatted_address": "GreenEra ГрінЕра - Інтернет-магазин ємностей та резервуарів, каналізаційних системи в Києві та Україні",
    "phone_number": "+380980894808",
    "source_url": "https://www.google.com/maps/place/GreenEra+%D0%93%D1%80%D1%96%D0%BD%D0%95%D1%80%D0%B0+-+%D0%86%D0%BD%D1%82%D0%B5%D1%80%D0%BD%D0%B5%D1%82-%D0%BC%D0%B0%D0%B3%D0%B0%D0%B7%D0%B8%D0%BD+%D1%94%D0%BC%D0%BD%D0%BE%D1%81%D1%82%D0%B5%D0%B9+%D1%82%D0%B0+%D1%80%D0%B5%D0%B7%D0%B5%D1%80%D0%B2%D1%83%D0%B0%D1%80%D1%96%D0%B2,+%D0%BA%D0%B0%D0%BD%D0%B0%D0%BB%D1%96%D0%B7%D0%B0%D1%86%D1%96%D0%B9%D0%BD%D0%B8%D1%85+%D1%81%D0%B8%D1%81%D1%82%D0%B5%D0%BC%D0%B8+%D0%B2+%D0%9A%D0%B8%D1%94%D0%B2%D1%96+%D1%82%D0%B0+%D0%A3%D0%BA%D1%80%D0%B0%D1%97%D0%BD%D1%96/data=!4m7!3m6!1s0x40d4dbf7f833848b:0x511544cdb00d76fc!8m2!3d50.1495746!4d30.7492831!16s%2Fg%2F11j59q0b66!19sChIJi4Qz-Pfb1EAR_HYNsM1EFVE?authuser=0&hl=tr&rclk=1",
    "website_url": "",
    "rating_text": "5,0",
    "stars": null,
    "number_of_reviews": null,
    "price_level": "",
    "open_hours": "",
    "extraction_timestamp": "2025-06-08T03:30:30.220Z",
    "source_name": "google",
    "source_query": "Irrigation Equipment",
    "source_country": "UA",
    "country": "Ukraine",
    "state": "Kyivska oblast",
    "city": "Kaharlyk Raion"
  },
  {
    "source_id": "ChIJU7IPhxmA1EAR7QBmYi0Df88",
    "name": "Fora",
    "category": "Fora",
    "formatted_address": "4,0(370)",
    "phone_number": "+380800301230",
    "source_url": "https://www.google.com/maps/place/Fora/data=!4m7!3m6!1s0x40d48019870fb253:0xcf7f032d626600ed!8m2!3d49.8645584!4d30.822048!16s%2Fg%2F11ckkwmgzx!19sChIJU7IPhxmA1EAR7QBmYi0Df88?authuser=0&hl=tr&rclk=1",
    "website_url": "",
    "rating_text": "4,0",
    "stars": null,
    "number_of_reviews": null,
    "price_level": "",
    "open_hours": "",
    "extraction_timestamp": "2025-06-08T03:30:30.221Z",
    "source_name": "google",
    "source_query": "Irrigation Equipment",
    "source_country": "UA",
    "country": "Ukraine",
    "state": "Kyivska oblast",
    "city": "Kaharlyk Raion"
  },
  {
    "source_id": "ChIJf4jHN1LM1EARBkfaDZQGDTw",
    "name": "Dr. Sprinkler",
    "category": "Dr. Sprinkler",
    "formatted_address": "4,8(4)",
    "phone_number": "+380965335353",
    "source_url": "https://www.google.com/maps/place/Dr.+Sprinkler/data=!4m7!3m6!1s0x40d4cc5237c7887f:0x3c0d06940dda4706!8m2!3d50.4105845!4d30.558873!16s%2Fg%2F1q6j9h1m6!19sChIJf4jHN1LM1EARBkfaDZQGDTw?authuser=0&hl=tr&rclk=1",
    "website_url": "",
    "rating_text": "4,8",
    "stars": null,
    "number_of_reviews": null,
    "price_level": "",
    "open_hours": "",
    "extraction_timestamp": "2025-06-08T03:30:30.222Z",
    "source_name": "google",
    "source_query": "Irrigation Equipment",
    "source_country": "UA",
    "country": "Ukraine",
    "state": "Kyivska oblast",
    "city": "Kaharlyk Raion"
  },
  {
    "source_id": "ChIJz29ug2_J1EARzaZ7tmeMv4s",
    "name": "Інтернет-магазин LETO Сад від А до Я",
    "category": "Інтернет-магазин LETO Сад від А до Я",
    "formatted_address": "4,7(218)",
    "phone_number": "+380442291160",
    "source_url": "https://www.google.com/maps/place/%D0%86%D0%BD%D1%82%D0%B5%D1%80%D0%BD%D0%B5%D1%82-%D0%BC%D0%B0%D0%B3%D0%B0%D0%B7%D0%B8%D0%BD+LETO+%D0%A1%D0%B0%D0%B4+%D0%B2%D1%96%D0%B4+%D0%90+%D0%B4%D0%BE+%D0%AF/data=!4m7!3m6!1s0x40d4c96f836e6fcf:0x8bbf8c67b67ba6cd!8m2!3d50.396095!4d30.4154559!16s%2Fg%2F1vtzfr1m!19sChIJz29ug2_J1EARzaZ7tmeMv4s?authuser=0&hl=tr&rclk=1",
    "website_url": "",
    "rating_text": "4,7",
    "stars": null,
    "number_of_reviews": null,
    "price_level": "",
    "open_hours": "",
    "extraction_timestamp": "2025-06-08T03:30:30.222Z",
    "source_name": "google",
    "source_query": "Irrigation Equipment",
    "source_country": "UA",
    "country": "Ukraine",
    "state": "Kyivska oblast",
    "city": "Kaharlyk Raion"
  },
  {
    "source_id": "ChIJj9B1EqHP1EARDZgdszuCvLs",
    "name": "Системы полива",
    "category": "Системы полива",
    "formatted_address": "Sulama Ekipmanları Tedarikçisi · Lavrska St, 7а / 19Kapalı ⋅ Açılış zamanı: Pzt 09:00 · +380 99 343 8777",
    "phone_number": "+380993438777",
    "source_url": "https://www.google.com/maps/place/%D0%A1%D0%B8%D1%81%D1%82%D0%B5%D0%BC%D1%8B+%D0%BF%D0%BE%D0%BB%D0%B8%D0%B2%D0%B0/data=!4m7!3m6!1s0x40d4cfa11275d08f:0xbbbc823bb31d980d!8m2!3d50.4368044!4d30.5554264!16s%2Fg%2F11qh89rj21!19sChIJj9B1EqHP1EARDZgdszuCvLs?authuser=0&hl=tr&rclk=1",
    "website_url": "",
    "rating_text": "",
    "stars": null,
    "number_of_reviews": null,
    "price_level": "",
    "open_hours": "",
    "extraction_timestamp": "2025-06-08T03:30:30.223Z",
    "source_name": "google",
    "source_query": "Irrigation Equipment",
    "source_country": "UA",
    "country": "Ukraine",
    "state": "Kyivska oblast",
    "city": "Kaharlyk Raion"
  },
  {
    "source_id": "ChIJ-Z_-w2OV1EARyHVprSy6HP8",
    "name": "Kozyn Golf Club",
    "category": "Kozyn Golf Club",
    "formatted_address": "4,6(313)",
    "phone_number": "+380976192020",
    "source_url": "https://www.google.com/maps/place/Kozyn+Golf+Club/data=!4m7!3m6!1s0x40d49563c3fe9ff9:0xff1cba2cad6975c8!8m2!3d50.2315588!4d30.6755383!16s%2Fg%2F11dxqjp23x!19sChIJ-Z_-w2OV1EARyHVprSy6HP8?authuser=0&hl=tr&rclk=1",
    "website_url": "",
    "rating_text": "4,6",
    "stars": null,
    "number_of_reviews": null,
    "price_level": "",
    "open_hours": "",
    "extraction_timestamp": "2025-06-08T03:30:30.224Z",
    "source_name": "google",
    "source_query": "Irrigation Equipment",
    "source_country": "UA",
    "country": "Ukraine",
    "state": "Kyivska oblast",
    "city": "Kaharlyk Raion"
  },
  {
    "source_id": "ChIJuXdaApwj1UAR6rJ6f4SGl9Q",
    "name": "Kyiv Home",
    "category": "Kyiv Home",
    "formatted_address": "4,5(23)",
    "phone_number": "+380972333007",
    "source_url": "https://www.google.com/maps/place/Kyiv+Home/data=!4m7!3m6!1s0x40d5239c025a77b9:0xd49786847f7ab2ea!8m2!3d50.4901858!4d30.5773563!16s%2Fg%2F11c3x9gl35!19sChIJuXdaApwj1UAR6rJ6f4SGl9Q?authuser=0&hl=tr&rclk=1",
    "website_url": "",
    "rating_text": "4,5",
    "stars": null,
    "number_of_reviews": null,
    "price_level": "",
    "open_hours": "",
    "extraction_timestamp": "2025-06-08T03:30:30.225Z",
    "source_name": "google",
    "source_query": "Irrigation Equipment",
    "source_country": "UA",
    "country": "Ukraine",
    "state": "Kyivska oblast",
    "city": "Kaharlyk Raion"
  },
  {
    "source_id": "ChIJ-WWGv2fF1EAR_oq_I8RVUWg",
    "name": "UKRPOLIV - Оборудование для автоматического полива",
    "category": "UKRPOLIV - Оборудование для автоматического полива",
    "formatted_address": "4,4(41)",
    "phone_number": "+380965941814",
    "source_url": "https://www.google.com/maps/place/UKRPOLIV+-+%D0%9E%D0%B1%D0%BE%D1%80%D1%83%D0%B4%D0%BE%D0%B2%D0%B0%D0%BD%D0%B8%D0%B5+%D0%B4%D0%BB%D1%8F+%D0%B0%D0%B2%D1%82%D0%BE%D0%BC%D0%B0%D1%82%D0%B8%D1%87%D0%B5%D1%81%D0%BA%D0%BE%D0%B3%D0%BE+%D0%BF%D0%BE%D0%BB%D0%B8%D0%B2%D0%B0/data=!4m7!3m6!1s0x40d4c567bf8665f9:0x685155c423bf8afe!8m2!3d50.4100801!4d30.6263701!16s%2Fg%2F11h3g_t0sd!19sChIJ-WWGv2fF1EAR_oq_I8RVUWg?authuser=0&hl=tr&rclk=1",
    "website_url": "",
    "rating_text": "4,4",
    "stars": null,
    "number_of_reviews": null,
    "price_level": "",
    "open_hours": "",
    "extraction_timestamp": "2025-06-08T03:30:30.226Z",
    "source_name": "google",
    "source_query": "Irrigation Equipment",
    "source_country": "UA",
    "country": "Ukraine",
    "state": "Kyivska oblast",
    "city": "Kaharlyk Raion"
  },
  {
    "source_id": "ChIJSZ3_eU3J1EARWC1roU472OQ",
    "name": "АкваБуд",
    "category": "АкваБуд",
    "formatted_address": "4,0(3)",
    "phone_number": "+380957730953",
    "source_url": "https://www.google.com/maps/place/%D0%90%D0%BA%D0%B2%D0%B0%D0%91%D1%83%D0%B4/data=!4m7!3m6!1s0x40d4c94d79ff9d49:0xe4d83b4ea16b2d58!8m2!3d50.417683!4d30.441472!16s%2Fg%2F11cm0gbf3d!19sChIJSZ3_eU3J1EARWC1roU472OQ?authuser=0&hl=tr&rclk=1",
    "website_url": "",
    "rating_text": "4,0",
    "stars": null,
    "number_of_reviews": null,
    "price_level": "",
    "open_hours": "",
    "extraction_timestamp": "2025-06-08T03:30:30.228Z",
    "source_name": "google",
    "source_query": "Irrigation Equipment",
    "source_country": "UA",
    "country": "Ukraine",
    "state": "Kyivska oblast",
    "city": "Kaharlyk Raion"
  },
  {
    "source_id": "ChIJW73WdL_O1EARXXiJqQdW7kw",
    "name": "Ирригационные системы",
    "category": "Ирригационные системы",
    "formatted_address": "Sulama Ekipmanları Tedarikçisi · Solomianska St, 1Kapalı ⋅ Açılış zamanı: Pzt 09:00 · +380 96 114 5050",
    "phone_number": "+380961145050",
    "source_url": "https://www.google.com/maps/place/%D0%98%D1%80%D1%80%D0%B8%D0%B3%D0%B0%D1%86%D0%B8%D0%BE%D0%BD%D0%BD%D1%8B%D0%B5+%D1%81%D0%B8%D1%81%D1%82%D0%B5%D0%BC%D1%8B/data=!4m7!3m6!1s0x40d4cebf74d6bd5b:0x4cee5607a989785d!8m2!3d50.4307294!4d30.4732198!16s%2Fg%2F11rj5kysmm!19sChIJW73WdL_O1EARXXiJqQdW7kw?authuser=0&hl=tr&rclk=1",
    "website_url": "",
    "rating_text": "",
    "stars": null,
    "number_of_reviews": null,
    "price_level": "",
    "open_hours": "",
    "extraction_timestamp": "2025-06-08T03:30:30.229Z",
    "source_name": "google",
    "source_query": "Irrigation Equipment",
    "source_country": "UA",
    "country": "Ukraine",
    "state": "Kyivska oblast",
    "city": "Kaharlyk Raion"
  },
  {
    "source_id": "ChIJ5dUqQp2x1EARPeEoyGpO-K4",
    "name": "Ahropromkholdynh Arenda Spetstekhnyky",
    "category": "Ahropromkholdynh Arenda Spetstekhnyky",
    "formatted_address": "5,0(3)",
    "phone_number": "+380672426377",
    "source_url": "https://www.google.com/maps/place/Ahropromkholdynh+Arenda+Spetstekhnyky/data=!4m7!3m6!1s0x40d4b19d422ad5e5:0xaef84e6ac828e13d!8m2!3d50.2246541!4d30.3200193!16s%2Fg%2F11hf1xw_kn!19sChIJ5dUqQp2x1EARPeEoyGpO-K4?authuser=0&hl=tr&rclk=1",
    "website_url": "",
    "rating_text": "5,0",
    "stars": null,
    "number_of_reviews": null,
    "price_level": "",
    "open_hours": "",
    "extraction_timestamp": "2025-06-08T03:30:30.229Z",
    "source_name": "google",
    "source_query": "Irrigation Equipment",
    "source_country": "UA",
    "country": "Ukraine",
    "state": "Kyivska oblast",
    "city": "Kaharlyk Raion"
  },
  {
    "source_id": "ChIJkXv1l6XF1EARB2BiserVpEA",
    "name": "Cascade Aqua - Ландшафтная Компания",
    "category": "Cascade Aqua - Ландшафтная Компания",
    "formatted_address": "5,0(3)",
    "phone_number": "+380674031580",
    "source_url": "https://www.google.com/maps/place/Cascade+Aqua+-+%D0%9B%D0%B0%D0%BD%D0%B4%D1%88%D0%B0%D1%84%D1%82%D0%BD%D0%B0%D1%8F+%D0%9A%D0%BE%D0%BC%D0%BF%D0%B0%D0%BD%D0%B8%D1%8F/data=!4m7!3m6!1s0x40d4c5a597f57b91:0x40a4d5eab1626007!8m2!3d50.4285014!4d30.6698685!16s%2Fg%2F11gpn8vbph!19sChIJkXv1l6XF1EARB2BiserVpEA?authuser=0&hl=tr&rclk=1",
    "website_url": "",
    "rating_text": "5,0",
    "stars": null,
    "number_of_reviews": null,
    "price_level": "",
    "open_hours": "",
    "extraction_timestamp": "2025-06-08T03:30:30.230Z",
    "source_name": "google",
    "source_query": "Irrigation Equipment",
    "source_country": "UA",
    "country": "Ukraine",
    "state": "Kyivska oblast",
    "city": "Kaharlyk Raion"
  }
]
