[
  {
    "source_id": "ChIJ9_rxu-6B1EAR7pSR0ggxq8U",
    "name": "Автеп - Опалення та енергетика",
    "category": "Автеп - Опалення та енергетика",
    "formatted_address": "4,8(12)",
    "phone_number": "+380504631011",
    "source_url": "https://www.google.com/maps/place/%D0%90%D0%B2%D1%82%D0%B5%D0%BF+-+%D0%9E%D0%BF%D0%B0%D0%BB%D0%B5%D0%BD%D0%BD%D1%8F+%D1%82%D0%B0+%D0%B5%D0%BD%D0%B5%D1%80%D0%B3%D0%B5%D1%82%D0%B8%D0%BA%D0%B0/data=!4m7!3m6!1s0x40d481eebbf1faf7:0xc5ab3108d29194ee!8m2!3d49.8638233!4d30.8273423!16s%2Fg%2F11htqyt6jy!19sChIJ9_rxu-6B1EAR7pSR0ggxq8U?authuser=0&hl=tr&rclk=1",
    "website_url": "",
    "rating_text": "4,8",
    "stars": null,
    "number_of_reviews": null,
    "price_level": "",
    "open_hours": "",
    "extraction_timestamp": "2025-06-08T03:35:35.279Z",
    "source_name": "google",
    "source_query": "Irrigation Equipment",
    "source_country": "UA",
    "country": "Ukraine",
    "state": "Kyivska oblast",
    "city": "Kaharlyk"
  },
  {
    "source_id": "ChIJ04T0iRuA1EARoYu2h7Yyvvc",
    "name": "\"Building materials\" Budshop",
    "category": "\"Building materials\" Budshop",
    "formatted_address": "4,1(72)",
    "phone_number": "+380457351570",
    "source_url": "https://www.google.com/maps/place/%22Building+materials%22+Budshop/data=!4m7!3m6!1s0x40d4801b89f484d3:0xf7be32b687b68ba1!8m2!3d49.861393!4d30.8220603!16s%2Fg%2F11bx0jdjx1!19sChIJ04T0iRuA1EARoYu2h7Yyvvc?authuser=0&hl=tr&rclk=1",
    "website_url": "",
    "rating_text": "4,1",
    "stars": null,
    "number_of_reviews": null,
    "price_level": "",
    "open_hours": "",
    "extraction_timestamp": "2025-06-08T03:35:35.280Z",
    "source_name": "google",
    "source_query": "Irrigation Equipment",
    "source_country": "UA",
    "country": "Ukraine",
    "state": "Kyivska oblast",
    "city": "Kaharlyk"
  },
  {
    "source_id": "ChIJZT2FymmB1EARSiZqHRnqmao",
    "name": "Сантехнік Плюс",
    "category": "Сантехнік Плюс",
    "formatted_address": "4,6(22)",
    "phone_number": "+380737133133",
    "source_url": "https://www.google.com/maps/place/%D0%A1%D0%B0%D0%BD%D1%82%D0%B5%D1%85%D0%BD%D1%96%D0%BA+%D0%9F%D0%BB%D1%8E%D1%81/data=!4m7!3m6!1s0x40d48169ca853d65:0xaa99ea191d6a264a!8m2!3d49.8676203!4d30.8225809!16s%2Fg%2F11r4lx_7wk!19sChIJZT2FymmB1EARSiZqHRnqmao?authuser=0&hl=tr&rclk=1",
    "website_url": "",
    "rating_text": "4,6",
    "stars": null,
    "number_of_reviews": null,
    "price_level": "",
    "open_hours": "",
    "extraction_timestamp": "2025-06-08T03:35:35.281Z",
    "source_name": "google",
    "source_query": "Irrigation Equipment",
    "source_country": "UA",
    "country": "Ukraine",
    "state": "Kyivska oblast",
    "city": "Kaharlyk"
  },
  {
    "source_id": "ChIJRa3o2hDG1EARvFwMiTpym0k",
    "name": "ЭВКАЛИПТ Р КОМПАНИЯ",
    "category": "ЭВКАЛИПТ Р КОМПАНИЯ",
    "formatted_address": "4,9(41)",
    "phone_number": "+380933654300",
    "source_url": "https://www.google.com/maps/place/%D0%AD%D0%92%D0%9A%D0%90%D0%9B%D0%98%D0%9F%D0%A2+%D0%A0+%D0%9A%D0%9E%D0%9C%D0%9F%D0%90%D0%9D%D0%98%D0%AF/data=!4m7!3m6!1s0x40d4c610dae8ad45:0x499b723a890c5cbc!8m2!3d50.360383!4d30.47321!16s%2Fg%2F11xhrr_g1!19sChIJRa3o2hDG1EARvFwMiTpym0k?authuser=0&hl=tr&rclk=1",
    "website_url": "",
    "rating_text": "4,9",
    "stars": null,
    "number_of_reviews": null,
    "price_level": "",
    "open_hours": "",
    "extraction_timestamp": "2025-06-08T03:35:35.282Z",
    "source_name": "google",
    "source_query": "Irrigation Equipment",
    "source_country": "UA",
    "country": "Ukraine",
    "state": "Kyivska oblast",
    "city": "Kaharlyk"
  },
  {
    "source_id": "ChIJ60XEpQbQ1EARVLf9IomIVYg",
    "name": "Poliv UA",
    "category": "Poliv UA",
    "formatted_address": "4,8(64)",
    "phone_number": "+380443379900",
    "source_url": "https://www.google.com/maps/place/Poliv+UA/data=!4m7!3m6!1s0x40d4d006a5c445eb:0x8855888922fdb754!8m2!3d50.4646434!4d30.6255633!16s%2Fg%2F11clsyjy7n!19sChIJ60XEpQbQ1EARVLf9IomIVYg?authuser=0&hl=tr&rclk=1",
    "website_url": "",
    "rating_text": "4,8",
    "stars": null,
    "number_of_reviews": null,
    "price_level": "",
    "open_hours": "",
    "extraction_timestamp": "2025-06-08T03:35:35.283Z",
    "source_name": "google",
    "source_query": "Irrigation Equipment",
    "source_country": "UA",
    "country": "Ukraine",
    "state": "Kyivska oblast",
    "city": "Kaharlyk"
  },
  {
    "source_id": "ChIJ5XxAkt3L1EARKAadCejxqLE",
    "name": "Інтернет-Магазин полива Aqua Price (все для полива, оборудование для автоматического полива и ручного орошения)",
    "category": "Інтернет-Магазин полива Aqua Price (все для полива, оборудование для автоматического полива и ручного орошения)",
    "formatted_address": "Інтернет-Магазин полива Aqua Price (все для полива, оборудование для автоматического полива и ручного орошения)",
    "phone_number": "+380960773337",
    "source_url": "https://www.google.com/maps/place/%D0%86%D0%BD%D1%82%D0%B5%D1%80%D0%BD%D0%B5%D1%82-%D0%9C%D0%B0%D0%B3%D0%B0%D0%B7%D0%B8%D0%BD+%D0%BF%D0%BE%D0%BB%D0%B8%D0%B2%D0%B0+Aqua+Price+%28%D0%B2%D1%81%D0%B5+%D0%B4%D0%BB%D1%8F+%D0%BF%D0%BE%D0%BB%D0%B8%D0%B2%D0%B0,+%D0%BE%D0%B1%D0%BE%D1%80%D1%83%D0%B4%D0%BE%D0%B2%D0%B0%D0%BD%D0%B8%D0%B5+%D0%B4%D0%BB%D1%8F+%D0%B0%D0%B2%D1%82%D0%BE%D0%BC%D0%B0%D1%82%D0%B8%D1%87%D0%B5%D1%81%D0%BA%D0%BE%D0%B3%D0%BE+%D0%BF%D0%BE%D0%BB%D0%B8%D0%B2%D0%B0+%D0%B8+%D1%80%D1%83%D1%87%D0%BD%D0%BE%D0%B3%D0%BE+%D0%BE%D1%80%D0%BE%D1%88%D0%B5%D0%BD%D0%B8%D1%8F%29/data=!4m7!3m6!1s0x40d4cbdd92407ce5:0xb1a8f1e8099d0628!8m2!3d50.4275904!4d30.3497723!16s%2Fg%2F11qyk5wysc!19sChIJ5XxAkt3L1EARKAadCejxqLE?authuser=0&hl=tr&rclk=1",
    "website_url": "",
    "rating_text": "5,0",
    "stars": null,
    "number_of_reviews": null,
    "price_level": "",
    "open_hours": "",
    "extraction_timestamp": "2025-06-08T03:35:35.284Z",
    "source_name": "google",
    "source_query": "Irrigation Equipment",
    "source_country": "UA",
    "country": "Ukraine",
    "state": "Kyivska oblast",
    "city": "Kaharlyk"
  },
  {
    "source_id": "ChIJYyU9lq_N1EARqoG8SYko8go",
    "name": "Лайф Гарден",
    "category": "Лайф Гарден",
    "formatted_address": "3,9(7)",
    "phone_number": "+380503719090",
    "source_url": "https://www.google.com/maps/place/%D0%9B%D0%B0%D0%B9%D1%84+%D0%93%D0%B0%D1%80%D0%B4%D0%B5%D0%BD/data=!4m7!3m6!1s0x40d4cdaf963d2563:0xaf2288949bc81aa!8m2!3d50.45748!4d30.3824706!16s%2Fg%2F11gr60b225!19sChIJYyU9lq_N1EARqoG8SYko8go?authuser=0&hl=tr&rclk=1",
    "website_url": "",
    "rating_text": "3,9",
    "stars": null,
    "number_of_reviews": null,
    "price_level": "",
    "open_hours": "",
    "extraction_timestamp": "2025-06-08T03:35:35.286Z",
    "source_name": "google",
    "source_query": "Irrigation Equipment",
    "source_country": "UA",
    "country": "Ukraine",
    "state": "Kyivska oblast",
    "city": "Kaharlyk"
  },
  {
    "source_id": "ChIJk_Cz7P9_1EARyOZyUvIFjCY",
    "name": "Products Tire +",
    "category": "Products Tire +",
    "formatted_address": "4,7(88)",
    "phone_number": "+380934980360",
    "source_url": "https://www.google.com/maps/place/Products+Tire+%2B/data=!4m7!3m6!1s0x40d47fffecb3f093:0x268c05f25272e6c8!8m2!3d49.8518179!4d30.8386388!16s%2Fg%2F11c42td98c!19sChIJk_Cz7P9_1EARyOZyUvIFjCY?authuser=0&hl=tr&rclk=1",
    "website_url": "",
    "rating_text": "4,7",
    "stars": null,
    "number_of_reviews": null,
    "price_level": "",
    "open_hours": "",
    "extraction_timestamp": "2025-06-08T03:35:35.287Z",
    "source_name": "google",
    "source_query": "Irrigation Equipment",
    "source_country": "UA",
    "country": "Ukraine",
    "state": "Kyivska oblast",
    "city": "Kaharlyk"
  },
  {
    "source_id": "ChIJM6VAOVjI1EARInyqFZ8ENUU",
    "name": "Hazon Mayster",
    "category": "Hazon Mayster",
    "formatted_address": "5,0(13)",
    "phone_number": "+380503588967",
    "source_url": "https://www.google.com/maps/place/Hazon+Mayster/data=!4m7!3m6!1s0x40d4c8583940a533:0x4535049f15aa7c22!8m2!3d50.3744949!4d30.4632499!16s%2Fg%2F1hhwqhx1t!19sChIJM6VAOVjI1EARInyqFZ8ENUU?authuser=0&hl=tr&rclk=1",
    "website_url": "",
    "rating_text": "5,0",
    "stars": null,
    "number_of_reviews": null,
    "price_level": "",
    "open_hours": "",
    "extraction_timestamp": "2025-06-08T03:35:35.287Z",
    "source_name": "google",
    "source_query": "Irrigation Equipment",
    "source_country": "UA",
    "country": "Ukraine",
    "state": "Kyivska oblast",
    "city": "Kaharlyk"
  },
  {
    "source_id": "ChIJU7IPhxmA1EAR7QBmYi0Df88",
    "name": "Fora",
    "category": "Fora",
    "formatted_address": "4,0(370)",
    "phone_number": "+380800301230",
    "source_url": "https://www.google.com/maps/place/Fora/data=!4m7!3m6!1s0x40d48019870fb253:0xcf7f032d626600ed!8m2!3d49.8645584!4d30.822048!16s%2Fg%2F11ckkwmgzx!19sChIJU7IPhxmA1EAR7QBmYi0Df88?authuser=0&hl=tr&rclk=1",
    "website_url": "",
    "rating_text": "4,0",
    "stars": null,
    "number_of_reviews": null,
    "price_level": "",
    "open_hours": "",
    "extraction_timestamp": "2025-06-08T03:35:35.288Z",
    "source_name": "google",
    "source_query": "Irrigation Equipment",
    "source_country": "UA",
    "country": "Ukraine",
    "state": "Kyivska oblast",
    "city": "Kaharlyk"
  },
  {
    "source_id": "ChIJmV2wXtx_00ARz5nXgNtbNSQ",
    "name": "Volodim",
    "category": "Volodim",
    "formatted_address": "5,0(1)",
    "phone_number": "",
    "source_url": "https://www.google.com/maps/place/Volodim/data=!4m7!3m6!1s0x40d37fdc5eb05d99:0x24355bdb80d799cf!8m2!3d49.8630222!4d30.8260578!16s%2Fg%2F11nm_ccxcv!19sChIJmV2wXtx_00ARz5nXgNtbNSQ?authuser=0&hl=tr&rclk=1",
    "website_url": "",
    "rating_text": "5,0",
    "stars": null,
    "number_of_reviews": null,
    "price_level": "",
    "open_hours": "",
    "extraction_timestamp": "2025-06-08T03:35:35.289Z",
    "source_name": "google",
    "source_query": "Irrigation Equipment",
    "source_country": "UA",
    "country": "Ukraine",
    "state": "Kyivska oblast",
    "city": "Kaharlyk"
  },
  {
    "source_id": "ChIJbWSboBqA1EARiCMxfpm1FH0",
    "name": "Kava",
    "category": "Kava",
    "formatted_address": "4,1(87)",
    "phone_number": "",
    "source_url": "https://www.google.com/maps/place/Kava/data=!4m7!3m6!1s0x40d4801aa09b646d:0x7d14b5997e312388!8m2!3d49.8645429!4d30.8299531!16s%2Fg%2F11b6qch2qk!19sChIJbWSboBqA1EARiCMxfpm1FH0?authuser=0&hl=tr&rclk=1",
    "website_url": "",
    "rating_text": "4,1",
    "stars": null,
    "number_of_reviews": null,
    "price_level": "",
    "open_hours": "",
    "extraction_timestamp": "2025-06-08T03:35:35.289Z",
    "source_name": "google",
    "source_query": "Irrigation Equipment",
    "source_country": "UA",
    "country": "Ukraine",
    "state": "Kyivska oblast",
    "city": "Kaharlyk"
  },
  {
    "source_id": "ChIJf0VxW_uB1EARQDdIcOJoWY0",
    "name": "Наша Ряба",
    "category": "Наша Ряба",
    "formatted_address": "Kasap · Komunarska St, 1Kapalı ⋅ Açılış saati: 09:00 · +380 800 500 001",
    "phone_number": "+380800500001",
    "source_url": "https://www.google.com/maps/place/%D0%9D%D0%B0%D1%88%D0%B0+%D0%A0%D1%8F%D0%B1%D0%B0/data=!4m7!3m6!1s0x40d481fb5b71457f:0x8d5968e270483740!8m2!3d49.8654216!4d30.8214127!16s%2Fg%2F11k6l6z_fk!19sChIJf0VxW_uB1EARQDdIcOJoWY0?authuser=0&hl=tr&rclk=1",
    "website_url": "",
    "rating_text": "",
    "stars": null,
    "number_of_reviews": null,
    "price_level": "",
    "open_hours": "",
    "extraction_timestamp": "2025-06-08T03:35:35.291Z",
    "source_name": "google",
    "source_query": "Irrigation Equipment",
    "source_country": "UA",
    "country": "Ukraine",
    "state": "Kyivska oblast",
    "city": "Kaharlyk"
  },
  {
    "source_id": "ChIJq1OAQEXF1EARIAyoFByGrW4",
    "name": "Ahrarna Industrialʹna Kompaniya",
    "category": "Ahrarna Industrialʹna Kompaniya",
    "formatted_address": "4,8(12)",
    "phone_number": "+380504444184",
    "source_url": "https://www.google.com/maps/place/Ahrarna+Industrial%CA%B9na+Kompaniya/data=!4m7!3m6!1s0x40d4c545408053ab:0x6ead861c14a80c20!8m2!3d50.4090678!4d30.6121652!16s%2Fg%2F1tdk3pn4!19sChIJq1OAQEXF1EARIAyoFByGrW4?authuser=0&hl=tr&rclk=1",
    "website_url": "",
    "rating_text": "4,8",
    "stars": null,
    "number_of_reviews": null,
    "price_level": "",
    "open_hours": "",
    "extraction_timestamp": "2025-06-08T03:35:35.311Z",
    "source_name": "google",
    "source_query": "Irrigation Equipment",
    "source_country": "UA",
    "country": "Ukraine",
    "state": "Kyivska oblast",
    "city": "Kaharlyk"
  },
  {
    "source_id": "ChIJhxAfyhqA1EARSu5suV0oCf0",
    "name": "City market",
    "category": "City market",
    "formatted_address": "3,8(617)",
    "phone_number": "+380988193109",
    "source_url": "https://www.google.com/maps/place/City+market/data=!4m7!3m6!1s0x40d4801aca1f1087:0xfd09285db96cee4a!8m2!3d49.8632049!4d30.8285961!16s%2Fg%2F1ptyfp99b!19sChIJhxAfyhqA1EARSu5suV0oCf0?authuser=0&hl=tr&rclk=1",
    "website_url": "",
    "rating_text": "3,8",
    "stars": null,
    "number_of_reviews": null,
    "price_level": "",
    "open_hours": "",
    "extraction_timestamp": "2025-06-08T03:35:35.312Z",
    "source_name": "google",
    "source_query": "Irrigation Equipment",
    "source_country": "UA",
    "country": "Ukraine",
    "state": "Kyivska oblast",
    "city": "Kaharlyk"
  },
  {
    "source_id": "ChIJcVUE0CKA1EARqXdiUmUROmY",
    "name": "Produkty",
    "category": "Produkty",
    "formatted_address": "4,0(34)",
    "phone_number": "",
    "source_url": "https://www.google.com/maps/place/Produkty/data=!4m7!3m6!1s0x40d48022d0045571:0x663a1165526277a9!8m2!3d49.8686576!4d30.8137482!16s%2Fg%2F11c509dssy!19sChIJcVUE0CKA1EARqXdiUmUROmY?authuser=0&hl=tr&rclk=1",
    "website_url": "",
    "rating_text": "4,0",
    "stars": null,
    "number_of_reviews": null,
    "price_level": "",
    "open_hours": "",
    "extraction_timestamp": "2025-06-08T03:35:35.313Z",
    "source_name": "google",
    "source_query": "Irrigation Equipment",
    "source_country": "UA",
    "country": "Ukraine",
    "state": "Kyivska oblast",
    "city": "Kaharlyk"
  },
  {
    "source_id": "ChIJLYqddfqB1EARn9zlKWZmMh0",
    "name": "Наша Ряба",
    "category": "Наша Ряба",
    "formatted_address": "5,0(1)",
    "phone_number": "+380800500001",
    "source_url": "https://www.google.com/maps/place/%D0%9D%D0%B0%D1%88%D0%B0+%D0%A0%D1%8F%D0%B1%D0%B0/data=!4m7!3m6!1s0x40d481fa759d8a2d:0x1d32666629e5dc9f!8m2!3d49.8630927!4d30.8297091!16s%2Fg%2F11k6l7bpdb!19sChIJLYqddfqB1EARn9zlKWZmMh0?authuser=0&hl=tr&rclk=1",
    "website_url": "",
    "rating_text": "5,0",
    "stars": null,
    "number_of_reviews": null,
    "price_level": "",
    "open_hours": "",
    "extraction_timestamp": "2025-06-08T03:35:35.314Z",
    "source_name": "google",
    "source_query": "Irrigation Equipment",
    "source_country": "UA",
    "country": "Ukraine",
    "state": "Kyivska oblast",
    "city": "Kaharlyk"
  },
  {
    "source_id": "ChIJl6syfyOA1EARZgdHLy1Ne2E",
    "name": "Produkty",
    "category": "Produkty",
    "formatted_address": "4,1(16)",
    "phone_number": "",
    "source_url": "https://www.google.com/maps/place/Produkty/data=!4m7!3m6!1s0x40d480237f32ab97:0x617b4d2d2f470766!8m2!3d49.8683447!4d30.8079359!16s%2Fg%2F11c5095hxq!19sChIJl6syfyOA1EARZgdHLy1Ne2E?authuser=0&hl=tr&rclk=1",
    "website_url": "",
    "rating_text": "4,1",
    "stars": null,
    "number_of_reviews": null,
    "price_level": "",
    "open_hours": "",
    "extraction_timestamp": "2025-06-08T03:35:35.314Z",
    "source_name": "google",
    "source_query": "Irrigation Equipment",
    "source_country": "UA",
    "country": "Ukraine",
    "state": "Kyivska oblast",
    "city": "Kaharlyk"
  },
  {
    "source_id": "ChIJuZ4Na9vI1EARQG8rPxVBlkU",
    "name": "Магазин полива. K-Rain, Hunter, RainBird",
    "category": "Магазин полива. K-Rain, Hunter, RainBird",
    "formatted_address": "Магазин полива. K-Rain, Hunter, RainBird",
    "phone_number": "+380501088779",
    "source_url": "https://www.google.com/maps/place/%D0%9C%D0%B0%D0%B3%D0%B0%D0%B7%D0%B8%D0%BD+%D0%BF%D0%BE%D0%BB%D0%B8%D0%B2%D0%B0.+K-Rain,+Hunter,+RainBird/data=!4m7!3m6!1s0x40d4c8db6b0d9eb9:0x459641153f2b6f40!8m2!3d50.3918125!4d30.4850044!16s%2Fg%2F11hbp9s62p!19sChIJuZ4Na9vI1EARQG8rPxVBlkU?authuser=0&hl=tr&rclk=1",
    "website_url": "",
    "rating_text": "4,7",
    "stars": null,
    "number_of_reviews": null,
    "price_level": "",
    "open_hours": "",
    "extraction_timestamp": "2025-06-08T03:35:35.315Z",
    "source_name": "google",
    "source_query": "Irrigation Equipment",
    "source_country": "UA",
    "country": "Ukraine",
    "state": "Kyivska oblast",
    "city": "Kaharlyk"
  },
  {
    "source_id": "ChIJ6XRFXRqA1EARCXN1-rIjEQA",
    "name": "Фора",
    "category": "Фора",
    "formatted_address": "4,0(343)",
    "phone_number": "+380800301230",
    "source_url": "https://www.google.com/maps/place/%D0%A4%D0%BE%D1%80%D0%B0/data=!4m7!3m6!1s0x40d4801a5d4574e9:0x1123b2fa757309!8m2!3d49.864334!4d30.8257201!16s%2Fg%2F11bwyykc8p!19sChIJ6XRFXRqA1EARCXN1-rIjEQA?authuser=0&hl=tr&rclk=1",
    "website_url": "",
    "rating_text": "4,0",
    "stars": null,
    "number_of_reviews": null,
    "price_level": "",
    "open_hours": "",
    "extraction_timestamp": "2025-06-08T03:35:35.316Z",
    "source_name": "google",
    "source_query": "Irrigation Equipment",
    "source_country": "UA",
    "country": "Ukraine",
    "state": "Kyivska oblast",
    "city": "Kaharlyk"
  },
  {
    "source_id": "ChIJj9B1EqHP1EARDZgdszuCvLs",
    "name": "Системы полива",
    "category": "Системы полива",
    "formatted_address": "Sulama Ekipmanları Tedarikçisi · Lavrska St, 7а / 19Kapalı ⋅ Açılış zamanı: Pzt 09:00 · +380 99 343 8777",
    "phone_number": "+380993438777",
    "source_url": "https://www.google.com/maps/place/%D0%A1%D0%B8%D1%81%D1%82%D0%B5%D0%BC%D1%8B+%D0%BF%D0%BE%D0%BB%D0%B8%D0%B2%D0%B0/data=!4m7!3m6!1s0x40d4cfa11275d08f:0xbbbc823bb31d980d!8m2!3d50.4368044!4d30.5554264!16s%2Fg%2F11qh89rj21!19sChIJj9B1EqHP1EARDZgdszuCvLs?authuser=0&hl=tr&rclk=1",
    "website_url": "",
    "rating_text": "",
    "stars": null,
    "number_of_reviews": null,
    "price_level": "",
    "open_hours": "",
    "extraction_timestamp": "2025-06-08T03:35:35.317Z",
    "source_name": "google",
    "source_query": "Irrigation Equipment",
    "source_country": "UA",
    "country": "Ukraine",
    "state": "Kyivska oblast",
    "city": "Kaharlyk"
  },
  {
    "source_id": "ChIJi4Qz-Pfb1EAR_HYNsM1EFVE",
    "name": "GreenEra ГрінЕра - Інтернет-магазин ємностей та резервуарів, каналізаційних системи в Києві та Україні",
    "category": "GreenEra ГрінЕра - Інтернет-магазин ємностей та резервуарів, каналізаційних системи в Києві та Україні",
    "formatted_address": "GreenEra ГрінЕра - Інтернет-магазин ємностей та резервуарів, каналізаційних системи в Києві та Україні",
    "phone_number": "+380980894808",
    "source_url": "https://www.google.com/maps/place/GreenEra+%D0%93%D1%80%D1%96%D0%BD%D0%95%D1%80%D0%B0+-+%D0%86%D0%BD%D1%82%D0%B5%D1%80%D0%BD%D0%B5%D1%82-%D0%BC%D0%B0%D0%B3%D0%B0%D0%B7%D0%B8%D0%BD+%D1%94%D0%BC%D0%BD%D0%BE%D1%81%D1%82%D0%B5%D0%B9+%D1%82%D0%B0+%D1%80%D0%B5%D0%B7%D0%B5%D1%80%D0%B2%D1%83%D0%B0%D1%80%D1%96%D0%B2,+%D0%BA%D0%B0%D0%BD%D0%B0%D0%BB%D1%96%D0%B7%D0%B0%D1%86%D1%96%D0%B9%D0%BD%D0%B8%D1%85+%D1%81%D0%B8%D1%81%D1%82%D0%B5%D0%BC%D0%B8+%D0%B2+%D0%9A%D0%B8%D1%94%D0%B2%D1%96+%D1%82%D0%B0+%D0%A3%D0%BA%D1%80%D0%B0%D1%97%D0%BD%D1%96/data=!4m7!3m6!1s0x40d4dbf7f833848b:0x511544cdb00d76fc!8m2!3d50.1495746!4d30.7492831!16s%2Fg%2F11j59q0b66!19sChIJi4Qz-Pfb1EAR_HYNsM1EFVE?authuser=0&hl=tr&rclk=1",
    "website_url": "",
    "rating_text": "5,0",
    "stars": null,
    "number_of_reviews": null,
    "price_level": "",
    "open_hours": "",
    "extraction_timestamp": "2025-06-08T03:35:35.318Z",
    "source_name": "google",
    "source_query": "Irrigation Equipment",
    "source_country": "UA",
    "country": "Ukraine",
    "state": "Kyivska oblast",
    "city": "Kaharlyk"
  },
  {
    "source_id": "ChIJf4jHN1LM1EARBkfaDZQGDTw",
    "name": "Dr. Sprinkler",
    "category": "Dr. Sprinkler",
    "formatted_address": "4,8(4)",
    "phone_number": "+380965335353",
    "source_url": "https://www.google.com/maps/place/Dr.+Sprinkler/data=!4m7!3m6!1s0x40d4cc5237c7887f:0x3c0d06940dda4706!8m2!3d50.4105845!4d30.558873!16s%2Fg%2F1q6j9h1m6!19sChIJf4jHN1LM1EARBkfaDZQGDTw?authuser=0&hl=tr&rclk=1",
    "website_url": "",
    "rating_text": "4,8",
    "stars": null,
    "number_of_reviews": null,
    "price_level": "",
    "open_hours": "",
    "extraction_timestamp": "2025-06-08T03:35:35.319Z",
    "source_name": "google",
    "source_query": "Irrigation Equipment",
    "source_country": "UA",
    "country": "Ukraine",
    "state": "Kyivska oblast",
    "city": "Kaharlyk"
  },
  {
    "source_id": "ChIJuXdaApwj1UAR6rJ6f4SGl9Q",
    "name": "Kyiv Home",
    "category": "Kyiv Home",
    "formatted_address": "4,5(23)",
    "phone_number": "+380972333007",
    "source_url": "https://www.google.com/maps/place/Kyiv+Home/data=!4m7!3m6!1s0x40d5239c025a77b9:0xd49786847f7ab2ea!8m2!3d50.4901858!4d30.5773563!16s%2Fg%2F11c3x9gl35!19sChIJuXdaApwj1UAR6rJ6f4SGl9Q?authuser=0&hl=tr&rclk=1",
    "website_url": "",
    "rating_text": "4,5",
    "stars": null,
    "number_of_reviews": null,
    "price_level": "",
    "open_hours": "",
    "extraction_timestamp": "2025-06-08T03:35:35.320Z",
    "source_name": "google",
    "source_query": "Irrigation Equipment",
    "source_country": "UA",
    "country": "Ukraine",
    "state": "Kyivska oblast",
    "city": "Kaharlyk"
  },
  {
    "source_id": "ChIJW73WdL_O1EARXXiJqQdW7kw",
    "name": "Ирригационные системы",
    "category": "Ирригационные системы",
    "formatted_address": "Sulama Ekipmanları Tedarikçisi · Solomianska St, 1Kapalı ⋅ Açılış zamanı: Pzt 09:00 · +380 96 114 5050",
    "phone_number": "+380961145050",
    "source_url": "https://www.google.com/maps/place/%D0%98%D1%80%D1%80%D0%B8%D0%B3%D0%B0%D1%86%D0%B8%D0%BE%D0%BD%D0%BD%D1%8B%D0%B5+%D1%81%D0%B8%D1%81%D1%82%D0%B5%D0%BC%D1%8B/data=!4m7!3m6!1s0x40d4cebf74d6bd5b:0x4cee5607a989785d!8m2!3d50.4307294!4d30.4732198!16s%2Fg%2F11rj5kysmm!19sChIJW73WdL_O1EARXXiJqQdW7kw?authuser=0&hl=tr&rclk=1",
    "website_url": "",
    "rating_text": "",
    "stars": null,
    "number_of_reviews": null,
    "price_level": "",
    "open_hours": "",
    "extraction_timestamp": "2025-06-08T03:35:35.321Z",
    "source_name": "google",
    "source_query": "Irrigation Equipment",
    "source_country": "UA",
    "country": "Ukraine",
    "state": "Kyivska oblast",
    "city": "Kaharlyk"
  },
  {
    "source_id": "ChIJkXv1l6XF1EARB2BiserVpEA",
    "name": "Cascade Aqua - Ландшафтная Компания",
    "category": "Cascade Aqua - Ландшафтная Компания",
    "formatted_address": "5,0(3)",
    "phone_number": "+380674031580",
    "source_url": "https://www.google.com/maps/place/Cascade+Aqua+-+%D0%9B%D0%B0%D0%BD%D0%B4%D1%88%D0%B0%D1%84%D1%82%D0%BD%D0%B0%D1%8F+%D0%9A%D0%BE%D0%BC%D0%BF%D0%B0%D0%BD%D0%B8%D1%8F/data=!4m7!3m6!1s0x40d4c5a597f57b91:0x40a4d5eab1626007!8m2!3d50.4285014!4d30.6698685!16s%2Fg%2F11gpn8vbph!19sChIJkXv1l6XF1EARB2BiserVpEA?authuser=0&hl=tr&rclk=1",
    "website_url": "",
    "rating_text": "5,0",
    "stars": null,
    "number_of_reviews": null,
    "price_level": "",
    "open_hours": "",
    "extraction_timestamp": "2025-06-08T03:35:35.322Z",
    "source_name": "google",
    "source_query": "Irrigation Equipment",
    "source_country": "UA",
    "country": "Ukraine",
    "state": "Kyivska oblast",
    "city": "Kaharlyk"
  },
  {
    "source_id": "ChIJSZ3_eU3J1EARWC1roU472OQ",
    "name": "АкваБуд",
    "category": "АкваБуд",
    "formatted_address": "4,0(3)",
    "phone_number": "+380957730953",
    "source_url": "https://www.google.com/maps/place/%D0%90%D0%BA%D0%B2%D0%B0%D0%91%D1%83%D0%B4/data=!4m7!3m6!1s0x40d4c94d79ff9d49:0xe4d83b4ea16b2d58!8m2!3d50.417683!4d30.441472!16s%2Fg%2F11cm0gbf3d!19sChIJSZ3_eU3J1EARWC1roU472OQ?authuser=0&hl=tr&rclk=1",
    "website_url": "",
    "rating_text": "4,0",
    "stars": null,
    "number_of_reviews": null,
    "price_level": "",
    "open_hours": "",
    "extraction_timestamp": "2025-06-08T03:35:35.323Z",
    "source_name": "google",
    "source_query": "Irrigation Equipment",
    "source_country": "UA",
    "country": "Ukraine",
    "state": "Kyivska oblast",
    "city": "Kaharlyk"
  },
  {
    "source_id": "ChIJ5dUqQp2x1EARPeEoyGpO-K4",
    "name": "Ahropromkholdynh Arenda Spetstekhnyky",
    "category": "Ahropromkholdynh Arenda Spetstekhnyky",
    "formatted_address": "5,0(3)",
    "phone_number": "+380672426377",
    "source_url": "https://www.google.com/maps/place/Ahropromkholdynh+Arenda+Spetstekhnyky/data=!4m7!3m6!1s0x40d4b19d422ad5e5:0xaef84e6ac828e13d!8m2!3d50.2246541!4d30.3200193!16s%2Fg%2F11hf1xw_kn!19sChIJ5dUqQp2x1EARPeEoyGpO-K4?authuser=0&hl=tr&rclk=1",
    "website_url": "",
    "rating_text": "5,0",
    "stars": null,
    "number_of_reviews": null,
    "price_level": "",
    "open_hours": "",
    "extraction_timestamp": "2025-06-08T03:35:35.324Z",
    "source_name": "google",
    "source_query": "Irrigation Equipment",
    "source_country": "UA",
    "country": "Ukraine",
    "state": "Kyivska oblast",
    "city": "Kaharlyk"
  },
  {
    "source_id": "ChIJWYqRA47N1EARkkE67r70qwg",
    "name": "Автополив",
    "category": "Автополив",
    "formatted_address": "Çim Yağmurlama Sistemi Yüklenicisi · Kyrylivska St, 160а+380 44 362 8781",
    "phone_number": "+380443628781",
    "source_url": "https://www.google.com/maps/place/%D0%90%D0%B2%D1%82%D0%BE%D0%BF%D0%BE%D0%BB%D0%B8%D0%B2/data=!4m7!3m6!1s0x40d4cd8e03918a59:0x8abf4beee3a4192!8m2!3d50.4942658!4d30.4620993!16s%2Fg%2F11j0jl5tks!19sChIJWYqRA47N1EARkkE67r70qwg?authuser=0&hl=tr&rclk=1",
    "website_url": "",
    "rating_text": "",
    "stars": null,
    "number_of_reviews": null,
    "price_level": "",
    "open_hours": "",
    "extraction_timestamp": "2025-06-08T03:35:35.324Z",
    "source_name": "google",
    "source_query": "Irrigation Equipment",
    "source_country": "UA",
    "country": "Ukraine",
    "state": "Kyivska oblast",
    "city": "Kaharlyk"
  },
  {
    "source_id": "ChIJq6p6ek3J1EAR_QyV4w95Pkw",
    "name": "Системы полива",
    "category": "Системы полива",
    "formatted_address": "Çim Yağmurlama Sistemi Yüklenicisi · Zhylianska St, 48/50+380 67 190 9989",
    "phone_number": "+380671909989",
    "source_url": "https://www.google.com/maps/place/%D0%A1%D0%B8%D1%81%D1%82%D0%B5%D0%BC%D1%8B+%D0%BF%D0%BE%D0%BB%D0%B8%D0%B2%D0%B0/data=!4m7!3m6!1s0x40d4c94d7a7aaaab:0x4c3e790fe3950cfd!8m2!3d50.434722!4d30.5063037!16s%2Fg%2F11fp8ykcbj!19sChIJq6p6ek3J1EAR_QyV4w95Pkw?authuser=0&hl=tr&rclk=1",
    "website_url": "",
    "rating_text": "",
    "stars": null,
    "number_of_reviews": null,
    "price_level": "",
    "open_hours": "",
    "extraction_timestamp": "2025-06-08T03:35:35.325Z",
    "source_name": "google",
    "source_query": "Irrigation Equipment",
    "source_country": "UA",
    "country": "Ukraine",
    "state": "Kyivska oblast",
    "city": "Kaharlyk"
  }
]
