[
  {
    "source_id": "ChIJmzWAJUzJ1EARJTjfnTvf6Xk",
    "name": "WaterPumps",
    "category": "WaterPumps",
    "formatted_address": "5,0(2)",
    "phone_number": "+380444943481",
    "source_url": "https://www.google.com/maps/place/WaterPumps/data=!4m7!3m6!1s0x40d4c94c2580359b:0x79e9df3b9ddf3825!8m2!3d50.349824!4d30.476209!16s%2Fg%2F11r4z2d1lj!19sChIJmzWAJUzJ1EARJTjfnTvf6Xk?authuser=0&hl=tr&rclk=1",
    "website_url": "",
    "rating_text": "5,0",
    "stars": null,
    "number_of_reviews": null,
    "price_level": "",
    "open_hours": "",
    "extraction_timestamp": "2025-06-08T03:31:18.383Z",
    "source_name": "google",
    "source_query": "Irrigation Equipment",
    "source_country": "UA",
    "country": "Ukraine",
    "state": "Kyivska oblast",
    "city": "Khotiv"
  },
  {
    "source_id": "ChIJQ0VMW7m31EARSHbSPpVNOig",
    "name": "Burinnya Sverdlovyn \"Dzherelo\" - Burova Kompaniya",
    "category": "Burinnya Sverdlovyn \"Dzherelo\" - Burova Kompaniya",
    "formatted_address": "4,1(15)",
    "phone_number": "+380962584141",
    "source_url": "https://www.google.com/maps/place/Burinnya+Sverdlovyn+%22Dzherelo%22+-+Burova+Kompaniya/data=!4m7!3m6!1s0x40d4b7b95b4c4543:0x283a4d953ed27648!8m2!3d50.3273673!4d30.4417798!16s%2Fg%2F11ght1mkzj!19sChIJQ0VMW7m31EARSHbSPpVNOig?authuser=0&hl=tr&rclk=1",
    "website_url": "",
    "rating_text": "4,1",
    "stars": null,
    "number_of_reviews": null,
    "price_level": "",
    "open_hours": "",
    "extraction_timestamp": "2025-06-08T03:31:18.391Z",
    "source_name": "google",
    "source_query": "Irrigation Equipment",
    "source_country": "UA",
    "country": "Ukraine",
    "state": "Kyivska oblast",
    "city": "Khotiv"
  },
  {
    "source_id": "ChIJM6VAOVjI1EARInyqFZ8ENUU",
    "name": "Hazon Mayster",
    "category": "Hazon Mayster",
    "formatted_address": "5,0(13)",
    "phone_number": "+380503588967",
    "source_url": "https://www.google.com/maps/place/Hazon+Mayster/data=!4m7!3m6!1s0x40d4c8583940a533:0x4535049f15aa7c22!8m2!3d50.3744949!4d30.4632499!16s%2Fg%2F1hhwqhx1t!19sChIJM6VAOVjI1EARInyqFZ8ENUU?authuser=0&hl=tr&rclk=1",
    "website_url": "",
    "rating_text": "5,0",
    "stars": null,
    "number_of_reviews": null,
    "price_level": "",
    "open_hours": "",
    "extraction_timestamp": "2025-06-08T03:31:18.391Z",
    "source_name": "google",
    "source_query": "Irrigation Equipment",
    "source_country": "UA",
    "country": "Ukraine",
    "state": "Kyivska oblast",
    "city": "Khotiv"
  },
  {
    "source_id": "ChIJ60XEpQbQ1EARVLf9IomIVYg",
    "name": "Poliv UA",
    "category": "Poliv UA",
    "formatted_address": "4,8(64)",
    "phone_number": "+380443379900",
    "source_url": "https://www.google.com/maps/place/Poliv+UA/data=!4m7!3m6!1s0x40d4d006a5c445eb:0x8855888922fdb754!8m2!3d50.4646434!4d30.6255633!16s%2Fg%2F11clsyjy7n!19sChIJ60XEpQbQ1EARVLf9IomIVYg?authuser=0&hl=tr&rclk=1",
    "website_url": "",
    "rating_text": "4,8",
    "stars": null,
    "number_of_reviews": null,
    "price_level": "",
    "open_hours": "",
    "extraction_timestamp": "2025-06-08T03:31:18.391Z",
    "source_name": "google",
    "source_query": "Irrigation Equipment",
    "source_country": "UA",
    "country": "Ukraine",
    "state": "Kyivska oblast",
    "city": "Khotiv"
  },
  {
    "source_id": "ChIJ5XxAkt3L1EARKAadCejxqLE",
    "name": "Інтернет-Магазин полива Aqua Price (все для полива, оборудование для автоматического полива и ручного орошения)",
    "category": "Інтернет-Магазин полива Aqua Price (все для полива, оборудование для автоматического полива и ручного орошения)",
    "formatted_address": "Інтернет-Магазин полива Aqua Price (все для полива, оборудование для автоматического полива и ручного орошения)",
    "phone_number": "+380960773337",
    "source_url": "https://www.google.com/maps/place/%D0%86%D0%BD%D1%82%D0%B5%D1%80%D0%BD%D0%B5%D1%82-%D0%9C%D0%B0%D0%B3%D0%B0%D0%B7%D0%B8%D0%BD+%D0%BF%D0%BE%D0%BB%D0%B8%D0%B2%D0%B0+Aqua+Price+%28%D0%B2%D1%81%D0%B5+%D0%B4%D0%BB%D1%8F+%D0%BF%D0%BE%D0%BB%D0%B8%D0%B2%D0%B0,+%D0%BE%D0%B1%D0%BE%D1%80%D1%83%D0%B4%D0%BE%D0%B2%D0%B0%D0%BD%D0%B8%D0%B5+%D0%B4%D0%BB%D1%8F+%D0%B0%D0%B2%D1%82%D0%BE%D0%BC%D0%B0%D1%82%D0%B8%D1%87%D0%B5%D1%81%D0%BA%D0%BE%D0%B3%D0%BE+%D0%BF%D0%BE%D0%BB%D0%B8%D0%B2%D0%B0+%D0%B8+%D1%80%D1%83%D1%87%D0%BD%D0%BE%D0%B3%D0%BE+%D0%BE%D1%80%D0%BE%D1%88%D0%B5%D0%BD%D0%B8%D1%8F%29/data=!4m7!3m6!1s0x40d4cbdd92407ce5:0xb1a8f1e8099d0628!8m2!3d50.4275904!4d30.3497723!16s%2Fg%2F11qyk5wysc!19sChIJ5XxAkt3L1EARKAadCejxqLE?authuser=0&hl=tr&rclk=1",
    "website_url": "",
    "rating_text": "5,0",
    "stars": null,
    "number_of_reviews": null,
    "price_level": "",
    "open_hours": "",
    "extraction_timestamp": "2025-06-08T03:31:18.391Z",
    "source_name": "google",
    "source_query": "Irrigation Equipment",
    "source_country": "UA",
    "country": "Ukraine",
    "state": "Kyivska oblast",
    "city": "Khotiv"
  },
  {
    "source_id": "ChIJEWSxdh_I1EARf0k-kMeYU0w",
    "name": "Садово-дизайнерський центр «Shoni»",
    "category": "Садово-дизайнерський центр «Shoni»",
    "formatted_address": "4,7(103)",
    "phone_number": "+380932595599",
    "source_url": "https://www.google.com/maps/place/%D0%A1%D0%B0%D0%B4%D0%BE%D0%B2%D0%BE-%D0%B4%D0%B8%D0%B7%D0%B0%D0%B9%D0%BD%D0%B5%D1%80%D1%81%D1%8C%D0%BA%D0%B8%D0%B9+%D1%86%D0%B5%D0%BD%D1%82%D1%80+%C2%ABShoni%C2%BB/data=!4m7!3m6!1s0x40d4c81f76b16411:0x4c5398c7903e497f!8m2!3d50.332836!4d30.4394607!16s%2Fg%2F1tl4bk0t!19sChIJEWSxdh_I1EARf0k-kMeYU0w?authuser=0&hl=tr&rclk=1",
    "website_url": "",
    "rating_text": "4,7",
    "stars": null,
    "number_of_reviews": null,
    "price_level": "",
    "open_hours": "",
    "extraction_timestamp": "2025-06-08T03:31:18.392Z",
    "source_name": "google",
    "source_query": "Irrigation Equipment",
    "source_country": "UA",
    "country": "Ukraine",
    "state": "Kyivska oblast",
    "city": "Khotiv"
  },
  {
    "source_id": "ChIJuZ4Na9vI1EARQG8rPxVBlkU",
    "name": "Магазин полива. K-Rain, Hunter, RainBird",
    "category": "Магазин полива. K-Rain, Hunter, RainBird",
    "formatted_address": "Магазин полива. K-Rain, Hunter, RainBird",
    "phone_number": "+380501088779",
    "source_url": "https://www.google.com/maps/place/%D0%9C%D0%B0%D0%B3%D0%B0%D0%B7%D0%B8%D0%BD+%D0%BF%D0%BE%D0%BB%D0%B8%D0%B2%D0%B0.+K-Rain,+Hunter,+RainBird/data=!4m7!3m6!1s0x40d4c8db6b0d9eb9:0x459641153f2b6f40!8m2!3d50.3918125!4d30.4850044!16s%2Fg%2F11hbp9s62p!19sChIJuZ4Na9vI1EARQG8rPxVBlkU?authuser=0&hl=tr&rclk=1",
    "website_url": "",
    "rating_text": "4,7",
    "stars": null,
    "number_of_reviews": null,
    "price_level": "",
    "open_hours": "",
    "extraction_timestamp": "2025-06-08T03:31:18.392Z",
    "source_name": "google",
    "source_query": "Irrigation Equipment",
    "source_country": "UA",
    "country": "Ukraine",
    "state": "Kyivska oblast",
    "city": "Khotiv"
  },
  {
    "source_id": "ChIJDx10apXN1EARCeJXmA3AFk0",
    "name": "Ecosoft - центр чистої води",
    "category": "Ecosoft - центр чистої води",
    "formatted_address": "5,0(4)",
    "phone_number": "+380981015000",
    "source_url": "https://www.google.com/maps/place/Ecosoft+-+%D1%86%D0%B5%D0%BD%D1%82%D1%80+%D1%87%D0%B8%D1%81%D1%82%D0%BE%D1%97+%D0%B2%D0%BE%D0%B4%D0%B8/data=!4m7!3m6!1s0x40d4cd956a741d0f:0x4d16c00d9857e209!8m2!3d50.3469638!4d30.419739!16s%2Fg%2F11q8xbjn2n!19sChIJDx10apXN1EARCeJXmA3AFk0?authuser=0&hl=tr&rclk=1",
    "website_url": "",
    "rating_text": "5,0",
    "stars": null,
    "number_of_reviews": null,
    "price_level": "",
    "open_hours": "",
    "extraction_timestamp": "2025-06-08T03:31:18.392Z",
    "source_name": "google",
    "source_query": "Irrigation Equipment",
    "source_country": "UA",
    "country": "Ukraine",
    "state": "Kyivska oblast",
    "city": "Khotiv"
  },
  {
    "source_id": "ChIJYyU9lq_N1EARqoG8SYko8go",
    "name": "Лайф Гарден",
    "category": "Лайф Гарден",
    "formatted_address": "3,9(7)",
    "phone_number": "+380503719090",
    "source_url": "https://www.google.com/maps/place/%D0%9B%D0%B0%D0%B9%D1%84+%D0%93%D0%B0%D1%80%D0%B4%D0%B5%D0%BD/data=!4m7!3m6!1s0x40d4cdaf963d2563:0xaf2288949bc81aa!8m2!3d50.45748!4d30.3824706!16s%2Fg%2F11gr60b225!19sChIJYyU9lq_N1EARqoG8SYko8go?authuser=0&hl=tr&rclk=1",
    "website_url": "",
    "rating_text": "3,9",
    "stars": null,
    "number_of_reviews": null,
    "price_level": "",
    "open_hours": "",
    "extraction_timestamp": "2025-06-08T03:31:18.393Z",
    "source_name": "google",
    "source_query": "Irrigation Equipment",
    "source_country": "UA",
    "country": "Ukraine",
    "state": "Kyivska oblast",
    "city": "Khotiv"
  },
  {
    "source_id": "ChIJE60f2DPP1EARCqjSrjIeXBw",
    "name": "СпецПоливСервіс",
    "category": "СпецПоливСервіс",
    "formatted_address": "5,0(17)",
    "phone_number": "+380970822608",
    "source_url": "https://www.google.com/maps/place/%D0%A1%D0%BF%D0%B5%D1%86%D0%9F%D0%BE%D0%BB%D0%B8%D0%B2%D0%A1%D0%B5%D1%80%D0%B2%D1%96%D1%81/data=!4m7!3m6!1s0x40d4cf33d81fad13:0x1c5c1e32aed2a80a!8m2!3d50.463344!4d30.589573!16s%2Fg%2F11h0trxk1!19sChIJE60f2DPP1EARCqjSrjIeXBw?authuser=0&hl=tr&rclk=1",
    "website_url": "",
    "rating_text": "5,0",
    "stars": null,
    "number_of_reviews": null,
    "price_level": "",
    "open_hours": "",
    "extraction_timestamp": "2025-06-08T03:31:18.394Z",
    "source_name": "google",
    "source_query": "Irrigation Equipment",
    "source_country": "UA",
    "country": "Ukraine",
    "state": "Kyivska oblast",
    "city": "Khotiv"
  },
  {
    "source_id": "ChIJ1TsK9x7I1EAR7sDy_xWIQPQ",
    "name": "Anzhio",
    "category": "Anzhio",
    "formatted_address": "4,2(948)",
    "phone_number": "+380444515068",
    "source_url": "https://www.google.com/maps/place/Anzhio/data=!4m7!3m6!1s0x40d4c81ef70a3bd5:0xf4408815fff2c0ee!8m2!3d50.3319613!4d30.441892!16s%2Fg%2F11ckpy22t2!19sChIJ1TsK9x7I1EAR7sDy_xWIQPQ?authuser=0&hl=tr&rclk=1",
    "website_url": "",
    "rating_text": "4,2",
    "stars": null,
    "number_of_reviews": null,
    "price_level": "",
    "open_hours": "",
    "extraction_timestamp": "2025-06-08T03:31:18.395Z",
    "source_name": "google",
    "source_query": "Irrigation Equipment",
    "source_country": "UA",
    "country": "Ukraine",
    "state": "Kyivska oblast",
    "city": "Khotiv"
  },
  {
    "source_id": "ChIJq1OAQEXF1EARIAyoFByGrW4",
    "name": "Ahrarna Industrialʹna Kompaniya",
    "category": "Ahrarna Industrialʹna Kompaniya",
    "formatted_address": "4,8(12)",
    "phone_number": "+380504444184",
    "source_url": "https://www.google.com/maps/place/Ahrarna+Industrial%CA%B9na+Kompaniya/data=!4m7!3m6!1s0x40d4c545408053ab:0x6ead861c14a80c20!8m2!3d50.4090678!4d30.6121652!16s%2Fg%2F1tdk3pn4!19sChIJq1OAQEXF1EARIAyoFByGrW4?authuser=0&hl=tr&rclk=1",
    "website_url": "",
    "rating_text": "4,8",
    "stars": null,
    "number_of_reviews": null,
    "price_level": "",
    "open_hours": "",
    "extraction_timestamp": "2025-06-08T03:31:18.396Z",
    "source_name": "google",
    "source_query": "Irrigation Equipment",
    "source_country": "UA",
    "country": "Ukraine",
    "state": "Kyivska oblast",
    "city": "Khotiv"
  },
  {
    "source_id": "ChIJsd996IrL1EARUOgDcqy_-_8",
    "name": "Hidropro Inzhynirynh",
    "category": "Hidropro Inzhynirynh",
    "formatted_address": "5,0(7)",
    "phone_number": "+380443320475",
    "source_url": "https://www.google.com/maps/place/Hidropro+Inzhynirynh/data=!4m7!3m6!1s0x40d4cb8ae87ddfb1:0xfffbbfac7203e850!8m2!3d50.4479966!4d30.3572576!16s%2Fg%2F11xf0c1hx!19sChIJsd996IrL1EARUOgDcqy_-_8?authuser=0&hl=tr&rclk=1",
    "website_url": "",
    "rating_text": "5,0",
    "stars": null,
    "number_of_reviews": null,
    "price_level": "",
    "open_hours": "",
    "extraction_timestamp": "2025-06-08T03:31:18.396Z",
    "source_name": "google",
    "source_query": "Irrigation Equipment",
    "source_country": "UA",
    "country": "Ukraine",
    "state": "Kyivska oblast",
    "city": "Khotiv"
  },
  {
    "source_id": "ChIJf4jHN1LM1EARBkfaDZQGDTw",
    "name": "Dr. Sprinkler",
    "category": "Dr. Sprinkler",
    "formatted_address": "4,8(4)",
    "phone_number": "+380965335353",
    "source_url": "https://www.google.com/maps/place/Dr.+Sprinkler/data=!4m7!3m6!1s0x40d4cc5237c7887f:0x3c0d06940dda4706!8m2!3d50.4105845!4d30.558873!16s%2Fg%2F1q6j9h1m6!19sChIJf4jHN1LM1EARBkfaDZQGDTw?authuser=0&hl=tr&rclk=1",
    "website_url": "",
    "rating_text": "4,8",
    "stars": null,
    "number_of_reviews": null,
    "price_level": "",
    "open_hours": "",
    "extraction_timestamp": "2025-06-08T03:31:18.397Z",
    "source_name": "google",
    "source_query": "Irrigation Equipment",
    "source_country": "UA",
    "country": "Ukraine",
    "state": "Kyivska oblast",
    "city": "Khotiv"
  },
  {
    "source_id": "ChIJI7e19OzJ1EARhDgzTA9718M",
    "name": "Кришталева вода",
    "category": "Кришталева вода",
    "formatted_address": "4,6(5)",
    "phone_number": "+380970001054",
    "source_url": "https://www.google.com/maps/place/%D0%9A%D1%80%D0%B8%D1%88%D1%82%D0%B0%D0%BB%D0%B5%D0%B2%D0%B0+%D0%B2%D0%BE%D0%B4%D0%B0/data=!4m7!3m6!1s0x40d4c9ecf4b5b723:0xc3d77b0f4c333884!8m2!3d50.347197!4d30.4764154!16s%2Fg%2F11p065h244!19sChIJI7e19OzJ1EARhDgzTA9718M?authuser=0&hl=tr&rclk=1",
    "website_url": "",
    "rating_text": "4,6",
    "stars": null,
    "number_of_reviews": null,
    "price_level": "",
    "open_hours": "",
    "extraction_timestamp": "2025-06-08T03:31:18.398Z",
    "source_name": "google",
    "source_query": "Irrigation Equipment",
    "source_country": "UA",
    "country": "Ukraine",
    "state": "Kyivska oblast",
    "city": "Khotiv"
  },
  {
    "source_id": "ChIJA4Z5IQ_F1EARurDzFyHtkgA",
    "name": "Avtopoliv.com.ua - Все для автоматичного та крапельного поливу",
    "category": "Avtopoliv.com.ua - Все для автоматичного та крапельного поливу",
    "formatted_address": "5,0(28)",
    "phone_number": "+380631355535",
    "source_url": "https://www.google.com/maps/place/Avtopoliv.com.ua+-+%D0%92%D1%81%D0%B5+%D0%B4%D0%BB%D1%8F+%D0%B0%D0%B2%D1%82%D0%BE%D0%BC%D0%B0%D1%82%D0%B8%D1%87%D0%BD%D0%BE%D0%B3%D0%BE+%D1%82%D0%B0+%D0%BA%D1%80%D0%B0%D0%BF%D0%B5%D0%BB%D1%8C%D0%BD%D0%BE%D0%B3%D0%BE+%D0%BF%D0%BE%D0%BB%D0%B8%D0%B2%D1%83/data=!4m7!3m6!1s0x40d4c50f21798603:0x92ed2117f3b0ba!8m2!3d50.3944714!4d30.6366429!16s%2Fg%2F11l2m851ch!19sChIJA4Z5IQ_F1EARurDzFyHtkgA?authuser=0&hl=tr&rclk=1",
    "website_url": "",
    "rating_text": "5,0",
    "stars": null,
    "number_of_reviews": null,
    "price_level": "",
    "open_hours": "",
    "extraction_timestamp": "2025-06-08T03:31:18.399Z",
    "source_name": "google",
    "source_query": "Irrigation Equipment",
    "source_country": "UA",
    "country": "Ukraine",
    "state": "Kyivska oblast",
    "city": "Khotiv"
  },
  {
    "source_id": "ChIJoTcap1bJ1EARueRXdjEiphU",
    "name": "Kotly",
    "category": "Kotly",
    "formatted_address": "4,6(8)",
    "phone_number": "+380689808180",
    "source_url": "https://www.google.com/maps/place/Kotly/data=!4m7!3m6!1s0x40d4c956a71a37a1:0x15a622317657e4b9!8m2!3d50.331783!4d30.4479999!16s%2Fg%2F11g8f_ysj7!19sChIJoTcap1bJ1EARueRXdjEiphU?authuser=0&hl=tr&rclk=1",
    "website_url": "",
    "rating_text": "4,6",
    "stars": null,
    "number_of_reviews": null,
    "price_level": "",
    "open_hours": "",
    "extraction_timestamp": "2025-06-08T03:31:18.399Z",
    "source_name": "google",
    "source_query": "Irrigation Equipment",
    "source_country": "UA",
    "country": "Ukraine",
    "state": "Kyivska oblast",
    "city": "Khotiv"
  },
  {
    "source_id": "ChIJiYp4rCPH1EARTNLTIMFHdX0",
    "name": "Сантехнік Київ всі типи робіт | Сантехник Киев, работы любой сложности",
    "category": "Сантехнік Київ всі типи робіт | Сантехник Киев, работы любой сложности",
    "formatted_address": "Сантехнік Київ всі типи робіт | Сантехник Киев, работы любой сложности",
    "phone_number": "+380976565087",
    "source_url": "https://www.google.com/maps/place/%D0%A1%D0%B0%D0%BD%D1%82%D0%B5%D1%85%D0%BD%D1%96%D0%BA+%D0%9A%D0%B8%D1%97%D0%B2+%D0%B2%D1%81%D1%96+%D1%82%D0%B8%D0%BF%D0%B8+%D1%80%D0%BE%D0%B1%D1%96%D1%82+%7C+%D0%A1%D0%B0%D0%BD%D1%82%D0%B5%D1%85%D0%BD%D0%B8%D0%BA+%D0%9A%D0%B8%D0%B5%D0%B2,+%D1%80%D0%B0%D0%B1%D0%BE%D1%82%D1%8B+%D0%BB%D1%8E%D0%B1%D0%BE%D0%B9+%D1%81%D0%BB%D0%BE%D0%B6%D0%BD%D0%BE%D1%81%D1%82%D0%B8/data=!4m7!3m6!1s0x40d4c723ac788a89:0x7d7547c120d3d24c!8m2!3d50.3438374!4d30.4907961!16s%2Fg%2F11fjzxq6yh!19sChIJiYp4rCPH1EARTNLTIMFHdX0?authuser=0&hl=tr&rclk=1",
    "website_url": "",
    "rating_text": "4,1",
    "stars": null,
    "number_of_reviews": null,
    "price_level": "",
    "open_hours": "",
    "extraction_timestamp": "2025-06-08T03:31:18.400Z",
    "source_name": "google",
    "source_query": "Irrigation Equipment",
    "source_country": "UA",
    "country": "Ukraine",
    "state": "Kyivska oblast",
    "city": "Khotiv"
  },
  {
    "source_id": "ChIJSZ3_eU3J1EARWC1roU472OQ",
    "name": "АкваБуд",
    "category": "АкваБуд",
    "formatted_address": "4,0(3)",
    "phone_number": "+380957730953",
    "source_url": "https://www.google.com/maps/place/%D0%90%D0%BA%D0%B2%D0%B0%D0%91%D1%83%D0%B4/data=!4m7!3m6!1s0x40d4c94d79ff9d49:0xe4d83b4ea16b2d58!8m2!3d50.417683!4d30.441472!16s%2Fg%2F11cm0gbf3d!19sChIJSZ3_eU3J1EARWC1roU472OQ?authuser=0&hl=tr&rclk=1",
    "website_url": "",
    "rating_text": "4,0",
    "stars": null,
    "number_of_reviews": null,
    "price_level": "",
    "open_hours": "",
    "extraction_timestamp": "2025-06-08T03:31:18.401Z",
    "source_name": "google",
    "source_query": "Irrigation Equipment",
    "source_country": "UA",
    "country": "Ukraine",
    "state": "Kyivska oblast",
    "city": "Khotiv"
  },
  {
    "source_id": "ChIJJ5cGs9HJ1EARsSwGSRnZV30",
    "name": "ROZETKA",
    "category": "ROZETKA",
    "formatted_address": "5,0(6)",
    "phone_number": "",
    "source_url": "https://www.google.com/maps/place/ROZETKA/data=!4m7!3m6!1s0x40d4c9d1b3069727:0x7d57d91949062cb1!8m2!3d50.3273233!4d30.468758!16s%2Fg%2F11x758q1d2!19sChIJJ5cGs9HJ1EARsSwGSRnZV30?authuser=0&hl=tr&rclk=1",
    "website_url": "",
    "rating_text": "5,0",
    "stars": null,
    "number_of_reviews": null,
    "price_level": "",
    "open_hours": "",
    "extraction_timestamp": "2025-06-08T03:31:18.401Z",
    "source_name": "google",
    "source_query": "Irrigation Equipment",
    "source_country": "UA",
    "country": "Ukraine",
    "state": "Kyivska oblast",
    "city": "Khotiv"
  },
  {
    "source_id": "ChIJz29ug2_J1EARzaZ7tmeMv4s",
    "name": "Інтернет-магазин LETO Сад від А до Я",
    "category": "Інтернет-магазин LETO Сад від А до Я",
    "formatted_address": "4,7(218)",
    "phone_number": "+380442291160",
    "source_url": "https://www.google.com/maps/place/%D0%86%D0%BD%D1%82%D0%B5%D1%80%D0%BD%D0%B5%D1%82-%D0%BC%D0%B0%D0%B3%D0%B0%D0%B7%D0%B8%D0%BD+LETO+%D0%A1%D0%B0%D0%B4+%D0%B2%D1%96%D0%B4+%D0%90+%D0%B4%D0%BE+%D0%AF/data=!4m7!3m6!1s0x40d4c96f836e6fcf:0x8bbf8c67b67ba6cd!8m2!3d50.396095!4d30.4154559!16s%2Fg%2F1vtzfr1m!19sChIJz29ug2_J1EARzaZ7tmeMv4s?authuser=0&hl=tr&rclk=1",
    "website_url": "",
    "rating_text": "4,7",
    "stars": null,
    "number_of_reviews": null,
    "price_level": "",
    "open_hours": "",
    "extraction_timestamp": "2025-06-08T03:31:18.402Z",
    "source_name": "google",
    "source_query": "Irrigation Equipment",
    "source_country": "UA",
    "country": "Ukraine",
    "state": "Kyivska oblast",
    "city": "Khotiv"
  },
  {
    "source_id": "ChIJvc-F5Xvb1EARMyU1h0yPdQ8",
    "name": "Chelsea heat service - опалення, теплові насоси, котельні",
    "category": "Chelsea heat service - опалення, теплові насоси, котельні",
    "formatted_address": "Chelsea heat service - опалення, теплові насоси, котельні",
    "phone_number": "+380972559755",
    "source_url": "https://www.google.com/maps/place/Chelsea+heat+service+-+%D0%BE%D0%BF%D0%B0%D0%BB%D0%B5%D0%BD%D0%BD%D1%8F,+%D1%82%D0%B5%D0%BF%D0%BB%D0%BE%D0%B2%D1%96+%D0%BD%D0%B0%D1%81%D0%BE%D1%81%D0%B8,+%D0%BA%D0%BE%D1%82%D0%B5%D0%BB%D1%8C%D0%BD%D1%96/data=!4m7!3m6!1s0x40d4db7be585cfbd:0xf758f4c87352533!8m2!3d50.4229139!4d30.4407644!16s%2Fg%2F11gjj9740q!19sChIJvc-F5Xvb1EARMyU1h0yPdQ8?authuser=0&hl=tr&rclk=1",
    "website_url": "",
    "rating_text": "5,0",
    "stars": null,
    "number_of_reviews": null,
    "price_level": "",
    "open_hours": "",
    "extraction_timestamp": "2025-06-08T03:31:18.402Z",
    "source_name": "google",
    "source_query": "Irrigation Equipment",
    "source_country": "UA",
    "country": "Ukraine",
    "state": "Kyivska oblast",
    "city": "Khotiv"
  },
  {
    "source_id": "ChIJnUp7WMvI1EARjcaJP1ertzQ",
    "name": "Интернет-магазин Aquatools (Акватулс)",
    "category": "Интернет-магазин Aquatools (Акватулс)",
    "formatted_address": "4,7(45)",
    "phone_number": "+380987780977",
    "source_url": "https://www.google.com/maps/place/%D0%98%D0%BD%D1%82%D0%B5%D1%80%D0%BD%D0%B5%D1%82-%D0%BC%D0%B0%D0%B3%D0%B0%D0%B7%D0%B8%D0%BD+Aquatools+%28%D0%90%D0%BA%D0%B2%D0%B0%D1%82%D1%83%D0%BB%D1%81%29/data=!4m7!3m6!1s0x40d4c8cb587b4a9d:0x34b7ab573f89c68d!8m2!3d50.4033539!4d30.5295362!16s%2Fg%2F11b6p9929h!19sChIJnUp7WMvI1EARjcaJP1ertzQ?authuser=0&hl=tr&rclk=1",
    "website_url": "",
    "rating_text": "4,7",
    "stars": null,
    "number_of_reviews": null,
    "price_level": "",
    "open_hours": "",
    "extraction_timestamp": "2025-06-08T03:31:18.403Z",
    "source_name": "google",
    "source_query": "Irrigation Equipment",
    "source_country": "UA",
    "country": "Ukraine",
    "state": "Kyivska oblast",
    "city": "Khotiv"
  },
  {
    "source_id": "ChIJu9glpS_P1EARQdPrnCRtHD4",
    "name": "Ecolite - монтаж систем опалення, теплові насоси",
    "category": "Ecolite - монтаж систем опалення, теплові насоси",
    "formatted_address": "Ecolite - монтаж систем опалення, теплові насоси",
    "phone_number": "+380996766077",
    "source_url": "https://www.google.com/maps/place/Ecolite+-+%D0%BC%D0%BE%D0%BD%D1%82%D0%B0%D0%B6+%D1%81%D0%B8%D1%81%D1%82%D0%B5%D0%BC+%D0%BE%D0%BF%D0%B0%D0%BB%D0%B5%D0%BD%D0%BD%D1%8F,+%D1%82%D0%B5%D0%BF%D0%BB%D0%BE%D0%B2%D1%96+%D0%BD%D0%B0%D1%81%D0%BE%D1%81%D0%B8/data=!4m7!3m6!1s0x40d4cf2fa525d8bb:0x3e1c6d249cebd341!8m2!3d50.4107069!4d30.5067829!16s%2Fg%2F11c6cpnkvq!19sChIJu9glpS_P1EARQdPrnCRtHD4?authuser=0&hl=tr&rclk=1",
    "website_url": "",
    "rating_text": "4,3",
    "stars": null,
    "number_of_reviews": null,
    "price_level": "",
    "open_hours": "",
    "extraction_timestamp": "2025-06-08T03:31:18.404Z",
    "source_name": "google",
    "source_query": "Irrigation Equipment",
    "source_country": "UA",
    "country": "Ukraine",
    "state": "Kyivska oblast",
    "city": "Khotiv"
  },
  {
    "source_id": "ChIJqb5v6dfI1EAR3fS39r-pFsg",
    "name": "Термос - системи опалення",
    "category": "Термос - системи опалення",
    "formatted_address": "4,5(15)",
    "phone_number": "+380631558881",
    "source_url": "https://www.google.com/maps/place/%D0%A2%D0%B5%D1%80%D0%BC%D0%BE%D1%81+-+%D1%81%D0%B8%D1%81%D1%82%D0%B5%D0%BC%D0%B8+%D0%BE%D0%BF%D0%B0%D0%BB%D0%B5%D0%BD%D0%BD%D1%8F/data=!4m7!3m6!1s0x40d4c8d7e96fbea9:0xc816a9bff6b7f4dd!8m2!3d50.3985017!4d30.4786071!16s%2Fg%2F1tj5jnz6!19sChIJqb5v6dfI1EAR3fS39r-pFsg?authuser=0&hl=tr&rclk=1",
    "website_url": "",
    "rating_text": "4,5",
    "stars": null,
    "number_of_reviews": null,
    "price_level": "",
    "open_hours": "",
    "extraction_timestamp": "2025-06-08T03:31:18.405Z",
    "source_name": "google",
    "source_query": "Irrigation Equipment",
    "source_country": "UA",
    "country": "Ukraine",
    "state": "Kyivska oblast",
    "city": "Khotiv"
  },
  {
    "source_id": "ChIJjWFxE0gyR4YREe2oOnY9Fj4",
    "name": "Studiya Landshaftnoho Dyzaynu Tov \"Asteris Treyd\" Ukraine Kyiv",
    "category": "Studiya Landshaftnoho Dyzaynu Tov \"Asteris Treyd\" Ukraine Kyiv",
    "formatted_address": "5,0(11)",
    "phone_number": "+380442323112",
    "source_url": "https://www.google.com/maps/place/Studiya+Landshaftnoho+Dyzaynu+Tov+%22Asteris+Treyd%22+Ukraine+Kyiv/data=!4m7!3m6!1s0x864732481371618d:0x3e163d763aa8ed11!8m2!3d50.4375896!4d30.5293379!16s%2Fg%2F11y3w3cxs9!19sChIJjWFxE0gyR4YREe2oOnY9Fj4?authuser=0&hl=tr&rclk=1",
    "website_url": "",
    "rating_text": "5,0",
    "stars": null,
    "number_of_reviews": null,
    "price_level": "",
    "open_hours": "",
    "extraction_timestamp": "2025-06-08T03:31:18.405Z",
    "source_name": "google",
    "source_query": "Irrigation Equipment",
    "source_country": "UA",
    "country": "Ukraine",
    "state": "Kyivska oblast",
    "city": "Khotiv"
  },
  {
    "source_id": "ChIJWxt4AlHO1EARN6oJWrfJgMc",
    "name": "Tov \"Mr\"",
    "category": "Tov \"Mr\"",
    "formatted_address": "4,5(32)",
    "phone_number": "+380995346767",
    "source_url": "https://www.google.com/maps/place/Tov+%22Mr%22/data=!4m7!3m6!1s0x40d4ce5102781b5b:0xc780c9b75a09aa37!8m2!3d50.394445!4d30.481944!16s%2Fg%2F1tfqpggj!19sChIJWxt4AlHO1EARN6oJWrfJgMc?authuser=0&hl=tr&rclk=1",
    "website_url": "",
    "rating_text": "4,5",
    "stars": null,
    "number_of_reviews": null,
    "price_level": "",
    "open_hours": "",
    "extraction_timestamp": "2025-06-08T03:31:18.406Z",
    "source_name": "google",
    "source_query": "Irrigation Equipment",
    "source_country": "UA",
    "country": "Ukraine",
    "state": "Kyivska oblast",
    "city": "Khotiv"
  },
  {
    "source_id": "ChIJkXv1l6XF1EARB2BiserVpEA",
    "name": "Cascade Aqua - Ландшафтная Компания",
    "category": "Cascade Aqua - Ландшафтная Компания",
    "formatted_address": "5,0(3)",
    "phone_number": "+380674031580",
    "source_url": "https://www.google.com/maps/place/Cascade+Aqua+-+%D0%9B%D0%B0%D0%BD%D0%B4%D1%88%D0%B0%D1%84%D1%82%D0%BD%D0%B0%D1%8F+%D0%9A%D0%BE%D0%BC%D0%BF%D0%B0%D0%BD%D0%B8%D1%8F/data=!4m7!3m6!1s0x40d4c5a597f57b91:0x40a4d5eab1626007!8m2!3d50.4285014!4d30.6698685!16s%2Fg%2F11gpn8vbph!19sChIJkXv1l6XF1EARB2BiserVpEA?authuser=0&hl=tr&rclk=1",
    "website_url": "",
    "rating_text": "5,0",
    "stars": null,
    "number_of_reviews": null,
    "price_level": "",
    "open_hours": "",
    "extraction_timestamp": "2025-06-08T03:31:18.407Z",
    "source_name": "google",
    "source_query": "Irrigation Equipment",
    "source_country": "UA",
    "country": "Ukraine",
    "state": "Kyivska oblast",
    "city": "Khotiv"
  },
  {
    "source_id": "ChIJT0hf4M3I1EARObs3V3rCMZk",
    "name": "WATTON",
    "category": "WATTON",
    "formatted_address": "4,9(18)",
    "phone_number": "+380444943737",
    "source_url": "https://www.google.com/maps/place/WATTON/data=!4m7!3m6!1s0x40d4c8cde05f484f:0x9931c27a5737bb39!8m2!3d50.3982963!4d30.4979974!16s%2Fg%2F11g9dj5rdw!19sChIJT0hf4M3I1EARObs3V3rCMZk?authuser=0&hl=tr&rclk=1",
    "website_url": "",
    "rating_text": "4,9",
    "stars": null,
    "number_of_reviews": null,
    "price_level": "",
    "open_hours": "",
    "extraction_timestamp": "2025-06-08T03:31:18.407Z",
    "source_name": "google",
    "source_query": "Irrigation Equipment",
    "source_country": "UA",
    "country": "Ukraine",
    "state": "Kyivska oblast",
    "city": "Khotiv"
  }
]
