[
  {
    "source_id": "ChIJFxlvOoHb1EARHLov0R8_nTc",
    "name": "Fronius Ukraine",
    "category": "Fronius Ukraine",
    "formatted_address": "4,8(21)",
    "phone_number": "+380442772141",
    "source_url": "https://www.google.com/maps/place/Fronius+Ukraine/data=!4m7!3m6!1s0x40d4db813a6f1917:0x379d3f1fd12fba1c!8m2!3d50.4515093!4d30.7900969!16s%2Fg%2F11xbqyj12!19sChIJFxlvOoHb1EARHLov0R8_nTc?authuser=0&hl=tr&rclk=1",
    "website_url": "",
    "rating_text": "4,8",
    "stars": null,
    "number_of_reviews": null,
    "price_level": "",
    "open_hours": "",
    "extraction_timestamp": "2025-06-08T03:26:09.311Z",
    "source_name": "google",
    "source_query": "Irrigation Equipment",
    "source_country": "UA",
    "country": "Ukraine",
    "state": "Kyivska oblast",
    "city": "Knyazhichi"
  },
  {
    "source_id": "ChIJO-zRIZDZ1EARfOlceR4qqO8",
    "name": "Povirkatepla",
    "category": "Povirkatepla",
    "formatted_address": "4,2(16)",
    "phone_number": "+380733708442",
    "source_url": "https://www.google.com/maps/place/Povirkatepla/data=!4m7!3m6!1s0x40d4d99021d1ec3b:0xefa82a1e795ce97c!8m2!3d50.4984948!4d30.7663049!16s%2Fg%2F11fjzbrbbc!19sChIJO-zRIZDZ1EARfOlceR4qqO8?authuser=0&hl=tr&rclk=1",
    "website_url": "",
    "rating_text": "4,2",
    "stars": null,
    "number_of_reviews": null,
    "price_level": "",
    "open_hours": "",
    "extraction_timestamp": "2025-06-08T03:26:09.312Z",
    "source_name": "google",
    "source_query": "Irrigation Equipment",
    "source_country": "UA",
    "country": "Ukraine",
    "state": "Kyivska oblast",
    "city": "Knyazhichi"
  },
  {
    "source_id": "ChIJfbWMJWPc1EARz9Abx9A7s5g",
    "name": "Garden Center SADCO",
    "category": "Garden Center SADCO",
    "formatted_address": "4,1(354)",
    "phone_number": "+380661111515",
    "source_url": "https://www.google.com/maps/place/Garden+Center+SADCO/data=!4m7!3m6!1s0x40d4dc63258cb57d:0x98b33bd0c71bd0cf!8m2!3d50.4580244!4d30.8003968!16s%2Fg%2F1tfsrdj4!19sChIJfbWMJWPc1EARz9Abx9A7s5g?authuser=0&hl=tr&rclk=1",
    "website_url": "",
    "rating_text": "4,1",
    "stars": null,
    "number_of_reviews": null,
    "price_level": "",
    "open_hours": "",
    "extraction_timestamp": "2025-06-08T03:26:09.312Z",
    "source_name": "google",
    "source_query": "Irrigation Equipment",
    "source_country": "UA",
    "country": "Ukraine",
    "state": "Kyivska oblast",
    "city": "Knyazhichi"
  },
  {
    "source_id": "ChIJ2Wi67DnZ1EARMN8PXyvN14k",
    "name": "Sto",
    "category": "Sto",
    "formatted_address": "4,2(48)",
    "phone_number": "+380663508398",
    "source_url": "https://www.google.com/maps/place/Sto/data=!4m7!3m6!1s0x40d4d939ecba68d9:0x89d7cd2b5f0fdf30!8m2!3d50.4518272!4d30.7865301!16s%2Fg%2F11bv388wvp!19sChIJ2Wi67DnZ1EARMN8PXyvN14k?authuser=0&hl=tr&rclk=1",
    "website_url": "",
    "rating_text": "4,2",
    "stars": null,
    "number_of_reviews": null,
    "price_level": "",
    "open_hours": "",
    "extraction_timestamp": "2025-06-08T03:26:09.312Z",
    "source_name": "google",
    "source_query": "Irrigation Equipment",
    "source_country": "UA",
    "country": "Ukraine",
    "state": "Kyivska oblast",
    "city": "Knyazhichi"
  },
  {
    "source_id": "ChIJn0DCNQDb1EARoOxqYXqpmzQ",
    "name": "Green wood",
    "category": "Green wood",
    "formatted_address": "4,7(12)",
    "phone_number": "",
    "source_url": "https://www.google.com/maps/place/Green+wood/data=!4m7!3m6!1s0x40d4db0035c2409f:0x349ba97a616aeca0!8m2!3d50.4682808!4d30.7601961!16s%2Fg%2F11lchgdqxc!19sChIJn0DCNQDb1EARoOxqYXqpmzQ?authuser=0&hl=tr&rclk=1",
    "website_url": "",
    "rating_text": "4,7",
    "stars": null,
    "number_of_reviews": null,
    "price_level": "",
    "open_hours": "",
    "extraction_timestamp": "2025-06-08T03:26:09.312Z",
    "source_name": "google",
    "source_query": "Irrigation Equipment",
    "source_country": "UA",
    "country": "Ukraine",
    "state": "Kyivska oblast",
    "city": "Knyazhichi"
  },
  {
    "source_id": "ChIJHZhFZYrb1EARbs3PZKs4rgs",
    "name": "Услуги сантехник Княжичи",
    "category": "Услуги сантехник Княжичи",
    "formatted_address": "4,3(3)",
    "phone_number": "+380667300996",
    "source_url": "https://www.google.com/maps/place/%D0%A3%D1%81%D0%BB%D1%83%D0%B3%D0%B8+%D1%81%D0%B0%D0%BD%D1%82%D0%B5%D1%85%D0%BD%D0%B8%D0%BA+%D0%9A%D0%BD%D1%8F%D0%B6%D0%B8%D1%87%D0%B8/data=!4m7!3m6!1s0x40d4db8a6545981d:0xbae38ab64cfcd6e!8m2!3d50.4719834!4d30.8003912!16s%2Fg%2F11c2jfbwyl!19sChIJHZhFZYrb1EARbs3PZKs4rgs?authuser=0&hl=tr&rclk=1",
    "website_url": "",
    "rating_text": "4,3",
    "stars": null,
    "number_of_reviews": null,
    "price_level": "",
    "open_hours": "",
    "extraction_timestamp": "2025-06-08T03:26:09.313Z",
    "source_name": "google",
    "source_query": "Irrigation Equipment",
    "source_country": "UA",
    "country": "Ukraine",
    "state": "Kyivska oblast",
    "city": "Knyazhichi"
  },
  {
    "source_id": "ChIJneUZtNLb1EARpfq0opk3OAs",
    "name": "Akvarius",
    "category": "Akvarius",
    "formatted_address": "3,6(10)",
    "phone_number": "+380443623364",
    "source_url": "https://www.google.com/maps/place/Akvarius/data=!4m7!3m6!1s0x40d4dbd2b419e59d:0xb383799a2b4faa5!8m2!3d50.5005484!4d30.7576908!16s%2Fg%2F11h0fh0r3!19sChIJneUZtNLb1EARpfq0opk3OAs?authuser=0&hl=tr&rclk=1",
    "website_url": "",
    "rating_text": "3,6",
    "stars": null,
    "number_of_reviews": null,
    "price_level": "",
    "open_hours": "",
    "extraction_timestamp": "2025-06-08T03:26:09.313Z",
    "source_name": "google",
    "source_query": "Irrigation Equipment",
    "source_country": "UA",
    "country": "Ukraine",
    "state": "Kyivska oblast",
    "city": "Knyazhichi"
  },
  {
    "source_id": "ChIJASI653vb1EARIkd_Jmq-sMY",
    "name": "Blyzenʹko",
    "category": "Blyzenʹko",
    "formatted_address": "4,5(125)",
    "phone_number": "",
    "source_url": "https://www.google.com/maps/place/Blyzen%CA%B9ko/data=!4m7!3m6!1s0x40d4db7be73a2201:0xc6b0be6a267f4722!8m2!3d50.4557079!4d30.7759094!16s%2Fg%2F11gm8c_hhs!19sChIJASI653vb1EARIkd_Jmq-sMY?authuser=0&hl=tr&rclk=1",
    "website_url": "",
    "rating_text": "4,5",
    "stars": null,
    "number_of_reviews": null,
    "price_level": "",
    "open_hours": "",
    "extraction_timestamp": "2025-06-08T03:26:09.313Z",
    "source_name": "google",
    "source_query": "Irrigation Equipment",
    "source_country": "UA",
    "country": "Ukraine",
    "state": "Kyivska oblast",
    "city": "Knyazhichi"
  },
  {
    "source_id": "ChIJxa9xk9Db1EARxZinp5X5u3M",
    "name": "Teplo Voda Haz",
    "category": "Teplo Voda Haz",
    "formatted_address": "4,5(21)",
    "phone_number": "+380679254181",
    "source_url": "https://www.google.com/maps/place/Teplo+Voda+Haz/data=!4m7!3m6!1s0x40d4dbd09371afc5:0x73bbf995a7a798c5!8m2!3d50.4993803!4d30.7755852!16s%2Fg%2F1v42d9mx!19sChIJxa9xk9Db1EARxZinp5X5u3M?authuser=0&hl=tr&rclk=1",
    "website_url": "",
    "rating_text": "4,5",
    "stars": null,
    "number_of_reviews": null,
    "price_level": "",
    "open_hours": "",
    "extraction_timestamp": "2025-06-08T03:26:09.313Z",
    "source_name": "google",
    "source_query": "Irrigation Equipment",
    "source_country": "UA",
    "country": "Ukraine",
    "state": "Kyivska oblast",
    "city": "Knyazhichi"
  },
  {
    "source_id": "ChIJ41YsWwvb1EAR_Bk6fhiSAlU",
    "name": "Розплідник ДАЧНИК",
    "category": "Розплідник ДАЧНИК",
    "formatted_address": "4,0(81)",
    "phone_number": "+380939555661",
    "source_url": "https://www.google.com/maps/place/%D0%A0%D0%BE%D0%B7%D0%BF%D0%BB%D1%96%D0%B4%D0%BD%D0%B8%D0%BA+%D0%94%D0%90%D0%A7%D0%9D%D0%98%D0%9A/data=!4m7!3m6!1s0x40d4db0b5b2c56e3:0x550292187e3a19fc!8m2!3d50.4819271!4d30.8169496!16s%2Fg%2F11h0zcy7vx!19sChIJ41YsWwvb1EAR_Bk6fhiSAlU?authuser=0&hl=tr&rclk=1",
    "website_url": "",
    "rating_text": "4,0",
    "stars": null,
    "number_of_reviews": null,
    "price_level": "",
    "open_hours": "",
    "extraction_timestamp": "2025-06-08T03:26:09.313Z",
    "source_name": "google",
    "source_query": "Irrigation Equipment",
    "source_country": "UA",
    "country": "Ukraine",
    "state": "Kyivska oblast",
    "city": "Knyazhichi"
  },
  {
    "source_id": "ChIJfX2emcrb1EARA63ABwie1rE",
    "name": "Dim Sad Horod Plyus",
    "category": "Dim Sad Horod Plyus",
    "formatted_address": "4,6(126)",
    "phone_number": "+380445995452",
    "source_url": "https://www.google.com/maps/place/Dim+Sad+Horod+Plyus/data=!4m7!3m6!1s0x40d4dbca999e7d7d:0xb1d69e0807c0ad03!8m2!3d50.4902211!4d30.7500661!16s%2Fg%2F11b6gk_xwt!19sChIJfX2emcrb1EARA63ABwie1rE?authuser=0&hl=tr&rclk=1",
    "website_url": "",
    "rating_text": "4,6",
    "stars": null,
    "number_of_reviews": null,
    "price_level": "",
    "open_hours": "",
    "extraction_timestamp": "2025-06-08T03:26:09.314Z",
    "source_name": "google",
    "source_query": "Irrigation Equipment",
    "source_country": "UA",
    "country": "Ukraine",
    "state": "Kyivska oblast",
    "city": "Knyazhichi"
  },
  {
    "source_id": "ChIJezqZXI_O1EAR8LTThmkO7Yk",
    "name": "Landscape.UA",
    "category": "Landscape.UA",
    "formatted_address": "3,3(3)",
    "phone_number": "+380989967766",
    "source_url": "https://www.google.com/maps/place/Landscape.UA/data=!4m7!3m6!1s0x40d4ce8f5c993a7b:0x89ed0e6986d3b4f0!8m2!3d50.4906768!4d30.7482779!16s%2Fg%2F1q64c06hj!19sChIJezqZXI_O1EAR8LTThmkO7Yk?authuser=0&hl=tr&rclk=1",
    "website_url": "",
    "rating_text": "3,3",
    "stars": null,
    "number_of_reviews": null,
    "price_level": "",
    "open_hours": "",
    "extraction_timestamp": "2025-06-08T03:26:09.314Z",
    "source_name": "google",
    "source_query": "Irrigation Equipment",
    "source_country": "UA",
    "country": "Ukraine",
    "state": "Kyivska oblast",
    "city": "Knyazhichi"
  },
  {
    "source_id": "ChIJ1a4lM6Xp1EAR4NMwY_RmXy8",
    "name": "AVTOGOR",
    "category": "AVTOGOR",
    "formatted_address": "4,8(11)",
    "phone_number": "+380957970786",
    "source_url": "https://www.google.com/maps/place/AVTOGOR/data=!4m7!3m6!1s0x40d4e9a53325aed5:0x2f5f66f46330d3e0!8m2!3d50.4623412!4d30.8016341!16s%2Fg%2F11frqs0_rn!19sChIJ1a4lM6Xp1EAR4NMwY_RmXy8?authuser=0&hl=tr&rclk=1",
    "website_url": "",
    "rating_text": "4,8",
    "stars": null,
    "number_of_reviews": null,
    "price_level": "",
    "open_hours": "",
    "extraction_timestamp": "2025-06-08T03:26:09.314Z",
    "source_name": "google",
    "source_query": "Irrigation Equipment",
    "source_country": "UA",
    "country": "Ukraine",
    "state": "Kyivska oblast",
    "city": "Knyazhichi"
  },
  {
    "source_id": "ChIJq1OAQEXF1EARIAyoFByGrW4",
    "name": "Ahrarna Industrialʹna Kompaniya",
    "category": "Ahrarna Industrialʹna Kompaniya",
    "formatted_address": "4,8(12)",
    "phone_number": "+380504444184",
    "source_url": "https://www.google.com/maps/place/Ahrarna+Industrial%CA%B9na+Kompaniya/data=!4m7!3m6!1s0x40d4c545408053ab:0x6ead861c14a80c20!8m2!3d50.4090678!4d30.6121652!16s%2Fg%2F1tdk3pn4!19sChIJq1OAQEXF1EARIAyoFByGrW4?authuser=0&hl=tr&rclk=1",
    "website_url": "",
    "rating_text": "4,8",
    "stars": null,
    "number_of_reviews": null,
    "price_level": "",
    "open_hours": "",
    "extraction_timestamp": "2025-06-08T03:26:09.331Z",
    "source_name": "google",
    "source_query": "Irrigation Equipment",
    "source_country": "UA",
    "country": "Ukraine",
    "state": "Kyivska oblast",
    "city": "Knyazhichi"
  },
  {
    "source_id": "ChIJUfhd-yDd1EAR0aaqFP7AIvI",
    "name": "Nadiya",
    "category": "Nadiya",
    "formatted_address": "3,3(4)",
    "phone_number": "",
    "source_url": "https://www.google.com/maps/place/Nadiya/data=!4m7!3m6!1s0x40d4dd20fb5df851:0xf222c0fe14aaa6d1!8m2!3d50.4686698!4d30.802391!16s%2Fg%2F11n8m_05_3!19sChIJUfhd-yDd1EAR0aaqFP7AIvI?authuser=0&hl=tr&rclk=1",
    "website_url": "",
    "rating_text": "3,3",
    "stars": null,
    "number_of_reviews": null,
    "price_level": "",
    "open_hours": "",
    "extraction_timestamp": "2025-06-08T03:26:09.332Z",
    "source_name": "google",
    "source_query": "Irrigation Equipment",
    "source_country": "UA",
    "country": "Ukraine",
    "state": "Kyivska oblast",
    "city": "Knyazhichi"
  },
  {
    "source_id": "ChIJy-T0oyDb1EAR_AwNBatguaU",
    "name": "Marketbudivelʹnykhmaterialiv",
    "category": "Marketbudivelʹnykhmaterialiv",
    "formatted_address": "4,7(15)",
    "phone_number": "+380933006666",
    "source_url": "https://www.google.com/maps/place/Marketbudivel%CA%B9nykhmaterialiv/data=!4m7!3m6!1s0x40d4db20a3f4e4cb:0xa5b960ab050d0cfc!8m2!3d50.4934176!4d30.7864843!16s%2Fg%2F11h7cbzxb6!19sChIJy-T0oyDb1EAR_AwNBatguaU?authuser=0&hl=tr&rclk=1",
    "website_url": "",
    "rating_text": "4,7",
    "stars": null,
    "number_of_reviews": null,
    "price_level": "",
    "open_hours": "",
    "extraction_timestamp": "2025-06-08T03:26:09.333Z",
    "source_name": "google",
    "source_query": "Irrigation Equipment",
    "source_country": "UA",
    "country": "Ukraine",
    "state": "Kyivska oblast",
    "city": "Knyazhichi"
  },
  {
    "source_id": "ChIJjcjxhnzc1EARcIrn8q5VUDI",
    "name": "Фора",
    "category": "Фора",
    "formatted_address": "4,2(198)",
    "phone_number": "+380800301230",
    "source_url": "https://www.google.com/maps/place/%D0%A4%D0%BE%D1%80%D0%B0/data=!4m7!3m6!1s0x40d4dc7c86f1c88d:0x325055aef2e78a70!8m2!3d50.4579634!4d30.7998294!16s%2Fg%2F11c4bd0tgn!19sChIJjcjxhnzc1EARcIrn8q5VUDI?authuser=0&hl=tr&rclk=1",
    "website_url": "",
    "rating_text": "4,2",
    "stars": null,
    "number_of_reviews": null,
    "price_level": "",
    "open_hours": "",
    "extraction_timestamp": "2025-06-08T03:26:09.334Z",
    "source_name": "google",
    "source_query": "Irrigation Equipment",
    "source_country": "UA",
    "country": "Ukraine",
    "state": "Kyivska oblast",
    "city": "Knyazhichi"
  },
  {
    "source_id": "ChIJFQ4ygA_P1EARMPPWTJNqeWk",
    "name": "Дім модулів",
    "category": "Дім модулів",
    "formatted_address": "5,0(1)",
    "phone_number": "+380638735353",
    "source_url": "https://www.google.com/maps/place/%D0%94%D1%96%D0%BC+%D0%BC%D0%BE%D0%B4%D1%83%D0%BB%D1%96%D0%B2/data=!4m7!3m6!1s0x40d4cf0f80320e15:0x69796a934cd6f330!8m2!3d50.4674753!4d30.8083534!16s%2Fg%2F11fk14mp2c!19sChIJFQ4ygA_P1EARMPPWTJNqeWk?authuser=0&hl=tr&rclk=1",
    "website_url": "",
    "rating_text": "5,0",
    "stars": null,
    "number_of_reviews": null,
    "price_level": "",
    "open_hours": "",
    "extraction_timestamp": "2025-06-08T03:26:09.334Z",
    "source_name": "google",
    "source_query": "Irrigation Equipment",
    "source_country": "UA",
    "country": "Ukraine",
    "state": "Kyivska oblast",
    "city": "Knyazhichi"
  },
  {
    "source_id": "ChIJK_Gkl5zb1EAR9o02V9p_K_M",
    "name": "Kashtan",
    "category": "Kashtan",
    "formatted_address": "4,0(127)",
    "phone_number": "",
    "source_url": "https://www.google.com/maps/place/Kashtan/data=!4m7!3m6!1s0x40d4db9c97a4f12b:0xf32b7fda57368df6!8m2!3d50.4614412!4d30.7806712!16s%2Fg%2F11gmbxy93q!19sChIJK_Gkl5zb1EAR9o02V9p_K_M?authuser=0&hl=tr&rclk=1",
    "website_url": "",
    "rating_text": "4,0",
    "stars": null,
    "number_of_reviews": null,
    "price_level": "",
    "open_hours": "",
    "extraction_timestamp": "2025-06-08T03:26:09.335Z",
    "source_name": "google",
    "source_query": "Irrigation Equipment",
    "source_country": "UA",
    "country": "Ukraine",
    "state": "Kyivska oblast",
    "city": "Knyazhichi"
  },
  {
    "source_id": "ChIJCXksyt7b1EARISp5joy5QcY",
    "name": "Pp Edelʹveys-Bud",
    "category": "Pp Edelʹveys-Bud",
    "formatted_address": "5,0(1)",
    "phone_number": "",
    "source_url": "https://www.google.com/maps/place/Pp+Edel%CA%B9veys-Bud/data=!4m7!3m6!1s0x40d4dbdeca2c7909:0xc641b98c8e792a21!8m2!3d50.4986274!4d30.7852198!16s%2Fg%2F1q2w22r00!19sChIJCXksyt7b1EARISp5joy5QcY?authuser=0&hl=tr&rclk=1",
    "website_url": "",
    "rating_text": "5,0",
    "stars": null,
    "number_of_reviews": null,
    "price_level": "",
    "open_hours": "",
    "extraction_timestamp": "2025-06-08T03:26:09.335Z",
    "source_name": "google",
    "source_query": "Irrigation Equipment",
    "source_country": "UA",
    "country": "Ukraine",
    "state": "Kyivska oblast",
    "city": "Knyazhichi"
  },
  {
    "source_id": "ChIJkXv1l6XF1EARB2BiserVpEA",
    "name": "Cascade Aqua - Ландшафтная Компания",
    "category": "Cascade Aqua - Ландшафтная Компания",
    "formatted_address": "5,0(3)",
    "phone_number": "+380674031580",
    "source_url": "https://www.google.com/maps/place/Cascade+Aqua+-+%D0%9B%D0%B0%D0%BD%D0%B4%D1%88%D0%B0%D1%84%D1%82%D0%BD%D0%B0%D1%8F+%D0%9A%D0%BE%D0%BC%D0%BF%D0%B0%D0%BD%D0%B8%D1%8F/data=!4m7!3m6!1s0x40d4c5a597f57b91:0x40a4d5eab1626007!8m2!3d50.4285014!4d30.6698685!16s%2Fg%2F11gpn8vbph!19sChIJkXv1l6XF1EARB2BiserVpEA?authuser=0&hl=tr&rclk=1",
    "website_url": "",
    "rating_text": "5,0",
    "stars": null,
    "number_of_reviews": null,
    "price_level": "",
    "open_hours": "",
    "extraction_timestamp": "2025-06-08T03:26:09.336Z",
    "source_name": "google",
    "source_query": "Irrigation Equipment",
    "source_country": "UA",
    "country": "Ukraine",
    "state": "Kyivska oblast",
    "city": "Knyazhichi"
  },
  {
    "source_id": "ChIJ27iPpGzZ1EARsTDSErD5kwU",
    "name": "Patok",
    "category": "Patok",
    "formatted_address": "4,6(123)",
    "phone_number": "+380973678080",
    "source_url": "https://www.google.com/maps/place/Patok/data=!4m7!3m6!1s0x40d4d96ca48fb8db:0x593f9b012d230b1!8m2!3d50.5240154!4d30.7850199!16s%2Fg%2F11cm74nm1j!19sChIJ27iPpGzZ1EARsTDSErD5kwU?authuser=0&hl=tr&rclk=1",
    "website_url": "",
    "rating_text": "4,6",
    "stars": null,
    "number_of_reviews": null,
    "price_level": "",
    "open_hours": "",
    "extraction_timestamp": "2025-06-08T03:26:09.337Z",
    "source_name": "google",
    "source_query": "Irrigation Equipment",
    "source_country": "UA",
    "country": "Ukraine",
    "state": "Kyivska oblast",
    "city": "Knyazhichi"
  },
  {
    "source_id": "ChIJU3X8FU_Z1EARSwAeAdGqvDY",
    "name": "Atols",
    "category": "Atols",
    "formatted_address": "4,5(43)",
    "phone_number": "+380632374147",
    "source_url": "https://www.google.com/maps/place/Atols/data=!4m7!3m6!1s0x40d4d94f15fc7553:0x36bcaad1011e004b!8m2!3d50.5071738!4d30.8250045!16s%2Fg%2F1tkbwrfd!19sChIJU3X8FU_Z1EARSwAeAdGqvDY?authuser=0&hl=tr&rclk=1",
    "website_url": "",
    "rating_text": "4,5",
    "stars": null,
    "number_of_reviews": null,
    "price_level": "",
    "open_hours": "",
    "extraction_timestamp": "2025-06-08T03:26:09.337Z",
    "source_name": "google",
    "source_query": "Irrigation Equipment",
    "source_country": "UA",
    "country": "Ukraine",
    "state": "Kyivska oblast",
    "city": "Knyazhichi"
  },
  {
    "source_id": "ChIJr7lh5fnP1EARw_PEe94HKno",
    "name": "Storozhuk Tov",
    "category": "Storozhuk Tov",
    "formatted_address": "4,8(87)",
    "phone_number": "+380977002540",
    "source_url": "https://www.google.com/maps/place/Storozhuk+Tov/data=!4m7!3m6!1s0x40d4cff9e561b9af:0x7a2a07de7bc4f3c3!8m2!3d50.4516667!4d30.6105555!16s%2Fg%2F1tk6666r!19sChIJr7lh5fnP1EARw_PEe94HKno?authuser=0&hl=tr&rclk=1",
    "website_url": "",
    "rating_text": "4,8",
    "stars": null,
    "number_of_reviews": null,
    "price_level": "",
    "open_hours": "",
    "extraction_timestamp": "2025-06-08T03:26:09.338Z",
    "source_name": "google",
    "source_query": "Irrigation Equipment",
    "source_country": "UA",
    "country": "Ukraine",
    "state": "Kyivska oblast",
    "city": "Knyazhichi"
  },
  {
    "source_id": "ChIJcZKbvAmkZCURyhzxJGj3u_Y",
    "name": "Altmax ⚡ Купить георешетку и геотекстиль Цена, ассортимент, фото, доставка, производитель. Геоматериалы в Украине",
    "category": "Altmax ⚡ Купить георешетку и геотекстиль Цена, ассортимент, фото, доставка, производитель. Геоматериалы в Украине",
    "formatted_address": "Altmax ⚡ Купить георешетку и геотекстиль Цена, ассортимент, фото, доставка, производитель. Геоматериалы в Украине",
    "phone_number": "+380989932703",
    "source_url": "https://www.google.com/maps/place/Altmax+%E2%9A%A1+%D0%9A%D1%83%D0%BF%D0%B8%D1%82%D1%8C+%D0%B3%D0%B5%D0%BE%D1%80%D0%B5%D1%88%D0%B5%D1%82%D0%BA%D1%83+%D0%B8+%D0%B3%D0%B5%D0%BE%D1%82%D0%B5%D0%BA%D1%81%D1%82%D0%B8%D0%BB%D1%8C+%D0%A6%D0%B5%D0%BD%D0%B0,+%D0%B0%D1%81%D1%81%D0%BE%D1%80%D1%82%D0%B8%D0%BC%D0%B5%D0%BD%D1%82,+%D1%84%D0%BE%D1%82%D0%BE,+%D0%B4%D0%BE%D1%81%D1%82%D0%B0%D0%B2%D0%BA%D0%B0,+%D0%BF%D1%80%D0%BE%D0%B8%D0%B7%D0%B2%D0%BE%D0%B4%D0%B8%D1%82%D0%B5%D0%BB%D1%8C.+%D0%93%D0%B5%D0%BE%D0%BC%D0%B0%D1%82%D0%B5%D1%80%D0%B8%D0%B0%D0%BB%D1%8B+%D0%B2+%D0%A3%D0%BA%D1%80%D0%B0%D0%B8%D0%BD%D0%B5/data=!4m7!3m6!1s0x2564a409bc9b9271:0xf6bbf76824f11cca!8m2!3d50.4020355!4d30.5326906!16s%2Fg%2F11xd2kcymx!19sChIJcZKbvAmkZCURyhzxJGj3u_Y?authuser=0&hl=tr&rclk=1",
    "website_url": "",
    "rating_text": "3,9",
    "stars": null,
    "number_of_reviews": null,
    "price_level": "",
    "open_hours": "",
    "extraction_timestamp": "2025-06-08T03:26:09.339Z",
    "source_name": "google",
    "source_query": "Irrigation Equipment",
    "source_country": "UA",
    "country": "Ukraine",
    "state": "Kyivska oblast",
    "city": "Knyazhichi"
  },
  {
    "source_id": "ChIJoUq3VyfF1EARLlVaY07w7TU",
    "name": "К-ТЕП",
    "category": "К-ТЕП",
    "formatted_address": "3,7(3)",
    "phone_number": "+380986909428",
    "source_url": "https://www.google.com/maps/place/%D0%9A-%D0%A2%D0%95%D0%9F/data=!4m7!3m6!1s0x40d4c52757b74aa1:0x35edf04e635a552e!8m2!3d50.4285014!4d30.6698685!16s%2Fg%2F1hc2504z7!19sChIJoUq3VyfF1EARLlVaY07w7TU?authuser=0&hl=tr&rclk=1",
    "website_url": "",
    "rating_text": "3,7",
    "stars": null,
    "number_of_reviews": null,
    "price_level": "",
    "open_hours": "",
    "extraction_timestamp": "2025-06-08T03:26:09.339Z",
    "source_name": "google",
    "source_query": "Irrigation Equipment",
    "source_country": "UA",
    "country": "Ukraine",
    "state": "Kyivska oblast",
    "city": "Knyazhichi"
  },
  {
    "source_id": "ChIJa1HeKDnF1EAR4b4J8MzS_oQ",
    "name": "ТОВ Юрский Горизонт - бурение скважин в Киеве и Киевской области",
    "category": "ТОВ Юрский Горизонт - бурение скважин в Киеве и Киевской области",
    "formatted_address": "4,0(15)",
    "phone_number": "",
    "source_url": "https://www.google.com/maps/place/%D0%A2%D0%9E%D0%92+%D0%AE%D1%80%D1%81%D0%BA%D0%B8%D0%B9+%D0%93%D0%BE%D1%80%D0%B8%D0%B7%D0%BE%D0%BD%D1%82+-+%D0%B1%D1%83%D1%80%D0%B5%D0%BD%D0%B8%D0%B5+%D1%81%D0%BA%D0%B2%D0%B0%D0%B6%D0%B8%D0%BD+%D0%B2+%D0%9A%D0%B8%D0%B5%D0%B2%D0%B5+%D0%B8+%D0%9A%D0%B8%D0%B5%D0%B2%D1%81%D0%BA%D0%BE%D0%B9+%D0%BE%D0%B1%D0%BB%D0%B0%D1%81%D1%82%D0%B8/data=!4m7!3m6!1s0x40d4c53928de516b:0x84fed2ccf009bee1!8m2!3d50.4355368!4d30.6449756!16s%2Fg%2F11xbbws6w!19sChIJa1HeKDnF1EAR4b4J8MzS_oQ?authuser=0&hl=tr&rclk=1",
    "website_url": "",
    "rating_text": "4,0",
    "stars": null,
    "number_of_reviews": null,
    "price_level": "",
    "open_hours": "",
    "extraction_timestamp": "2025-06-08T03:26:09.340Z",
    "source_name": "google",
    "source_query": "Irrigation Equipment",
    "source_country": "UA",
    "country": "Ukraine",
    "state": "Kyivska oblast",
    "city": "Knyazhichi"
  },
  {
    "source_id": "ChIJj9B1EqHP1EARDZgdszuCvLs",
    "name": "Системы полива",
    "category": "Системы полива",
    "formatted_address": "Sulama Ekipmanları Tedarikçisi · Lavrska St, 7а / 19Kapalı ⋅ Açılış zamanı: Pzt 09:00 · +380 99 343 8777",
    "phone_number": "+380993438777",
    "source_url": "https://www.google.com/maps/place/%D0%A1%D0%B8%D1%81%D1%82%D0%B5%D0%BC%D1%8B+%D0%BF%D0%BE%D0%BB%D0%B8%D0%B2%D0%B0/data=!4m7!3m6!1s0x40d4cfa11275d08f:0xbbbc823bb31d980d!8m2!3d50.4368044!4d30.5554264!16s%2Fg%2F11qh89rj21!19sChIJj9B1EqHP1EARDZgdszuCvLs?authuser=0&hl=tr&rclk=1",
    "website_url": "",
    "rating_text": "",
    "stars": null,
    "number_of_reviews": null,
    "price_level": "",
    "open_hours": "",
    "extraction_timestamp": "2025-06-08T03:26:09.340Z",
    "source_name": "google",
    "source_query": "Irrigation Equipment",
    "source_country": "UA",
    "country": "Ukraine",
    "state": "Kyivska oblast",
    "city": "Knyazhichi"
  },
  {
    "source_id": "ChIJuXdaApwj1UAR6rJ6f4SGl9Q",
    "name": "Kyiv Home",
    "category": "Kyiv Home",
    "formatted_address": "4,5(23)",
    "phone_number": "+380972333007",
    "source_url": "https://www.google.com/maps/place/Kyiv+Home/data=!4m7!3m6!1s0x40d5239c025a77b9:0xd49786847f7ab2ea!8m2!3d50.4901858!4d30.5773563!16s%2Fg%2F11c3x9gl35!19sChIJuXdaApwj1UAR6rJ6f4SGl9Q?authuser=0&hl=tr&rclk=1",
    "website_url": "",
    "rating_text": "4,5",
    "stars": null,
    "number_of_reviews": null,
    "price_level": "",
    "open_hours": "",
    "extraction_timestamp": "2025-06-08T03:26:09.341Z",
    "source_name": "google",
    "source_query": "Irrigation Equipment",
    "source_country": "UA",
    "country": "Ukraine",
    "state": "Kyivska oblast",
    "city": "Knyazhichi"
  },
  {
    "source_id": "ChIJnd3nOR3F1EARDeVZalWHHIs",
    "name": "Santekhnyk Denys Pasechnyk",
    "category": "Santekhnyk Denys Pasechnyk",
    "formatted_address": "5,0(151)",
    "phone_number": "+380933492624",
    "source_url": "https://www.google.com/maps/place/Santekhnyk+Denys+Pasechnyk/data=!4m7!3m6!1s0x40d4c51d39e7dd9d:0x8b1c87556a59e50d!8m2!3d50.4463214!4d30.6209372!16s%2Fg%2F11nfs3dvwd!19sChIJnd3nOR3F1EARDeVZalWHHIs?authuser=0&hl=tr&rclk=1",
    "website_url": "",
    "rating_text": "5,0",
    "stars": null,
    "number_of_reviews": null,
    "price_level": "",
    "open_hours": "",
    "extraction_timestamp": "2025-06-08T03:26:09.342Z",
    "source_name": "google",
    "source_query": "Irrigation Equipment",
    "source_country": "UA",
    "country": "Ukraine",
    "state": "Kyivska oblast",
    "city": "Knyazhichi"
  },
  {
    "source_id": "ChIJGwWOB0XF1EARCVrdmNGGtrM",
    "name": "АЛЬФА ПРОМ КОМПЛЕКТ ТОВ: кран шаровый, труба, фитинги, задвижки, кип.",
    "category": "АЛЬФА ПРОМ КОМПЛЕКТ ТОВ: кран шаровый, труба, фитинги, задвижки, кип.",
    "formatted_address": "АЛЬФА ПРОМ КОМПЛЕКТ ТОВ: кран шаровый, труба, фитинги, задвижки, кип.",
    "phone_number": "+380442064592",
    "source_url": "https://www.google.com/maps/place/%D0%90%D0%9B%D0%AC%D0%A4%D0%90+%D0%9F%D0%A0%D0%9E%D0%9C+%D0%9A%D0%9E%D0%9C%D0%9F%D0%9B%D0%95%D0%9A%D0%A2+%D0%A2%D0%9E%D0%92:+%D0%BA%D1%80%D0%B0%D0%BD+%D1%88%D0%B0%D1%80%D0%BE%D0%B2%D1%8B%D0%B9,+%D1%82%D1%80%D1%83%D0%B1%D0%B0,+%D1%84%D0%B8%D1%82%D0%B8%D0%BD%D0%B3%D0%B8,+%D0%B7%D0%B0%D0%B4%D0%B2%D0%B8%D0%B6%D0%BA%D0%B8,+%D0%BA%D0%B8%D0%BF./data=!4m7!3m6!1s0x40d4c545078e051b:0xb3b686d198dd5a09!8m2!3d50.441664!4d30.632761!16s%2Fg%2F1tjdvf2q!19sChIJGwWOB0XF1EARCVrdmNGGtrM?authuser=0&hl=tr&rclk=1",
    "website_url": "",
    "rating_text": "5,0",
    "stars": null,
    "number_of_reviews": null,
    "price_level": "",
    "open_hours": "",
    "extraction_timestamp": "2025-06-08T03:26:09.343Z",
    "source_name": "google",
    "source_query": "Irrigation Equipment",
    "source_country": "UA",
    "country": "Ukraine",
    "state": "Kyivska oblast",
    "city": "Knyazhichi"
  },
  {
    "source_id": "ChIJBbG_w3HZ1EARMUq7gx253Hs",
    "name": "21Stolittya - Suchasne Budivnytstvo",
    "category": "21Stolittya - Suchasne Budivnytstvo",
    "formatted_address": "21Stolittya - Suchasne Budivnytstvo",
    "phone_number": "+380683848837",
    "source_url": "https://www.google.com/maps/place/21Stolittya+-+Suchasne+Budivnytstvo/data=!4m7!3m6!1s0x40d4d971c3bfb105:0x7bdcb91d83bb4a31!8m2!3d50.3665665!4d30.713577!16s%2Fg%2F11hzpc24ld!19sChIJBbG_w3HZ1EARMUq7gx253Hs?authuser=0&hl=tr&rclk=1",
    "website_url": "",
    "rating_text": "3,0",
    "stars": null,
    "number_of_reviews": null,
    "price_level": "",
    "open_hours": "",
    "extraction_timestamp": "2025-06-08T03:26:09.343Z",
    "source_name": "google",
    "source_query": "Irrigation Equipment",
    "source_country": "UA",
    "country": "Ukraine",
    "state": "Kyivska oblast",
    "city": "Knyazhichi"
  }
]
