[
  {
    "source_id": "ChIJS6JAwg_N1EARAfM007kuYIM",
    "name": "SantehMaster (СантехМастер)",
    "category": "SantehMaster (СантехМастер)",
    "formatted_address": "4,7(131)",
    "phone_number": "+380445920850",
    "source_url": "https://www.google.com/maps/place/SantehMaster+%28%D0%A1%D0%B0%D0%BD%D1%82%D0%B5%D1%85%D0%9C%D0%B0%D1%81%D1%82%D0%B5%D1%80%29/data=!4m7!3m6!1s0x40d4cd0fc240a24b:0x83602eb9d334f301!8m2!3d50.404303!4d30.3332779!16s%2Fg%2F11b6c3r_g0!19sChIJS6JAwg_N1EARAfM007kuYIM?authuser=0&hl=tr&rclk=1",
    "website_url": "https://www.santehmaster.ua/",
    "rating_text": "4,7",
    "stars": null,
    "number_of_reviews": null,
    "price_level": "",
    "open_hours": "",
    "extraction_timestamp": "2025-06-08T03:37:17.939Z",
    "source_name": "google",
    "source_query": "Irrigation Equipment",
    "source_country": "UA",
    "country": "Ukraine",
    "state": "Kyivska oblast",
    "city": "Kriukivschina"
  },
  {
    "source_id": "ChIJnZp94vTL1EARxAEYyJ_rzb0",
    "name": "Litech Aqua - виробник обладнання водопідготовки та обробки рідин | Фільтри для води | Монтаж і сервіс",
    "category": "Litech Aqua - виробник обладнання водопідготовки та обробки рідин | Фільтри для води | Монтаж і сервіс",
    "formatted_address": "5,0(1)",
    "phone_number": "",
    "source_url": "https://www.google.com/maps/place/Litech+Aqua+-+%D0%B2%D0%B8%D1%80%D0%BE%D0%B1%D0%BD%D0%B8%D0%BA+%D0%BE%D0%B1%D0%BB%D0%B0%D0%B4%D0%BD%D0%B0%D0%BD%D0%BD%D1%8F+%D0%B2%D0%BE%D0%B4%D0%BE%D0%BF%D1%96%D0%B4%D0%B3%D0%BE%D1%82%D0%BE%D0%B2%D0%BA%D0%B8+%D1%82%D0%B0+%D0%BE%D0%B1%D1%80%D0%BE%D0%B1%D0%BA%D0%B8+%D1%80%D1%96%D0%B4%D0%B8%D0%BD+%7C+%D0%A4%D1%96%D0%BB%D1%8C%D1%82%D1%80%D0%B8+%D0%B4%D0%BB%D1%8F+%D0%B2%D0%BE%D0%B4%D0%B8+%7C+%D0%9C%D0%BE%D0%BD%D1%82%D0%B0%D0%B6+%D1%96+%D1%81%D0%B5%D1%80%D0%B2%D1%96%D1%81/data=!4m7!3m6!1s0x40d4cbf4e27d9a9d:0xbdcdeb9fc81801c4!8m2!3d50.37478!4d30.3301781!16s%2Fg%2F11gcdn11lw!19sChIJnZp94vTL1EARxAEYyJ_rzb0?authuser=0&hl=tr&rclk=1",
    "website_url": "https://litechaqua.com/",
    "rating_text": "5,0",
    "stars": null,
    "number_of_reviews": null,
    "price_level": "",
    "open_hours": "",
    "extraction_timestamp": "2025-06-08T03:37:17.940Z",
    "source_name": "google",
    "source_query": "Irrigation Equipment",
    "source_country": "UA",
    "country": "Ukraine",
    "state": "Kyivska oblast",
    "city": "Kriukivschina"
  },
  {
    "source_id": "ChIJR6vaoMfJ1EAR8jb--kb_9Bg",
    "name": "Сантехник-Электрик Крюковщина, Вишневое, Гатное, Киев",
    "category": "Сантехник-Электрик Крюковщина, Вишневое, Гатное, Киев",
    "formatted_address": "Сантехник-Электрик Крюковщина, Вишневое, Гатное, Киев",
    "phone_number": "+380976565087",
    "source_url": "https://www.google.com/maps/place/%D0%A1%D0%B0%D0%BD%D1%82%D0%B5%D1%85%D0%BD%D0%B8%D0%BA-%D0%AD%D0%BB%D0%B5%D0%BA%D1%82%D1%80%D0%B8%D0%BA+%D0%9A%D1%80%D1%8E%D0%BA%D0%BE%D0%B2%D1%89%D0%B8%D0%BD%D0%B0,+%D0%92%D0%B8%D1%88%D0%BD%D0%B5%D0%B2%D0%BE%D0%B5,+%D0%93%D0%B0%D1%82%D0%BD%D0%BE%D0%B5,+%D0%9A%D0%B8%D0%B5%D0%B2/data=!4m7!3m6!1s0x40d4c9c7a0daab47:0x18f4ff46fafe36f2!8m2!3d50.3818474!4d30.3862941!16s%2Fg%2F11nflvh0kd!19sChIJR6vaoMfJ1EAR8jb--kb_9Bg?authuser=0&hl=tr&rclk=1",
    "website_url": "",
    "rating_text": "4,9",
    "stars": null,
    "number_of_reviews": null,
    "price_level": "",
    "open_hours": "",
    "extraction_timestamp": "2025-06-08T03:37:17.941Z",
    "source_name": "google",
    "source_query": "Irrigation Equipment",
    "source_country": "UA",
    "country": "Ukraine",
    "state": "Kyivska oblast",
    "city": "Kriukivschina"
  },
  {
    "source_id": "ChIJDx10apXN1EARCeJXmA3AFk0",
    "name": "Ecosoft - центр чистої води",
    "category": "Ecosoft - центр чистої води",
    "formatted_address": "5,0(4)",
    "phone_number": "+380981015000",
    "source_url": "https://www.google.com/maps/place/Ecosoft+-+%D1%86%D0%B5%D0%BD%D1%82%D1%80+%D1%87%D0%B8%D1%81%D1%82%D0%BE%D1%97+%D0%B2%D0%BE%D0%B4%D0%B8/data=!4m7!3m6!1s0x40d4cd956a741d0f:0x4d16c00d9857e209!8m2!3d50.3469638!4d30.419739!16s%2Fg%2F11q8xbjn2n!19sChIJDx10apXN1EARCeJXmA3AFk0?authuser=0&hl=tr&rclk=1",
    "website_url": "http://topfilter-aqua.com/",
    "rating_text": "5,0",
    "stars": null,
    "number_of_reviews": null,
    "price_level": "",
    "open_hours": "",
    "extraction_timestamp": "2025-06-08T03:37:17.942Z",
    "source_name": "google",
    "source_query": "Irrigation Equipment",
    "source_country": "UA",
    "country": "Ukraine",
    "state": "Kyivska oblast",
    "city": "Kriukivschina"
  },
  {
    "source_id": "ChIJD8IQyhzQH0ERTbNK-NcaQ7Y",
    "name": "Klever",
    "category": "Klever",
    "formatted_address": "4,5(111)",
    "phone_number": "+380508040040",
    "source_url": "https://www.google.com/maps/place/Klever/data=!4m7!3m6!1s0x411fd01cca10c20f:0xb6431ad7f84ab34d!8m2!3d50.3895928!4d30.3551203!16s%2Fg%2F1tl_k7py!19sChIJD8IQyhzQH0ERTbNK-NcaQ7Y?authuser=0&hl=tr&rclk=1",
    "website_url": "https://i-klever.com.ua/",
    "rating_text": "4,5",
    "stars": null,
    "number_of_reviews": null,
    "price_level": "",
    "open_hours": "",
    "extraction_timestamp": "2025-06-08T03:37:17.943Z",
    "source_name": "google",
    "source_query": "Irrigation Equipment",
    "source_country": "UA",
    "country": "Ukraine",
    "state": "Kyivska oblast",
    "city": "Kriukivschina"
  },
  {
    "source_id": "ChIJYyU9lq_N1EARqoG8SYko8go",
    "name": "Лайф Гарден",
    "category": "Лайф Гарден",
    "formatted_address": "3,9(7)",
    "phone_number": "+380503719090",
    "source_url": "https://www.google.com/maps/place/%D0%9B%D0%B0%D0%B9%D1%84+%D0%93%D0%B0%D1%80%D0%B4%D0%B5%D0%BD/data=!4m7!3m6!1s0x40d4cdaf963d2563:0xaf2288949bc81aa!8m2!3d50.45748!4d30.3824706!16s%2Fg%2F11gr60b225!19sChIJYyU9lq_N1EARqoG8SYko8go?authuser=0&hl=tr&rclk=1",
    "website_url": "",
    "rating_text": "3,9",
    "stars": null,
    "number_of_reviews": null,
    "price_level": "",
    "open_hours": "",
    "extraction_timestamp": "2025-06-08T03:37:17.944Z",
    "source_name": "google",
    "source_query": "Irrigation Equipment",
    "source_country": "UA",
    "country": "Ukraine",
    "state": "Kyivska oblast",
    "city": "Kriukivschina"
  },
  {
    "source_id": "ChIJMz28ANHL1EARyBdtJKLMzhk",
    "name": "Водяной теплый пол",
    "category": "Водяной теплый пол",
    "formatted_address": "4,9(35)",
    "phone_number": "+380967972497",
    "source_url": "https://www.google.com/maps/place/%D0%92%D0%BE%D0%B4%D1%8F%D0%BD%D0%BE%D0%B9+%D1%82%D0%B5%D0%BF%D0%BB%D1%8B%D0%B9+%D0%BF%D0%BE%D0%BB/data=!4m7!3m6!1s0x40d4cbd100bc3d33:0x19cecca2246d17c8!8m2!3d50.3992431!4d30.3842827!16s%2Fg%2F11hb72dnwk!19sChIJMz28ANHL1EARyBdtJKLMzhk?authuser=0&hl=tr&rclk=1",
    "website_url": "http://tp.mvn.in.ua/",
    "rating_text": "4,9",
    "stars": null,
    "number_of_reviews": null,
    "price_level": "",
    "open_hours": "",
    "extraction_timestamp": "2025-06-08T03:37:17.945Z",
    "source_name": "google",
    "source_query": "Irrigation Equipment",
    "source_country": "UA",
    "country": "Ukraine",
    "state": "Kyivska oblast",
    "city": "Kriukivschina"
  },
  {
    "source_id": "ChIJKZPc8v_L1EARyuvR3n1g59c",
    "name": "Доставка та продаж питної води Крюківщина (Здорова Вода)",
    "category": "Доставка та продаж питної води Крюківщина (Здорова Вода)",
    "formatted_address": "4,7(15)",
    "phone_number": "+380980682088",
    "source_url": "https://www.google.com/maps/place/%D0%94%D0%BE%D1%81%D1%82%D0%B0%D0%B2%D0%BA%D0%B0+%D1%82%D0%B0+%D0%BF%D1%80%D0%BE%D0%B4%D0%B0%D0%B6+%D0%BF%D0%B8%D1%82%D0%BD%D0%BE%D1%97+%D0%B2%D0%BE%D0%B4%D0%B8+%D0%9A%D1%80%D1%8E%D0%BA%D1%96%D0%B2%D1%89%D0%B8%D0%BD%D0%B0+%28%D0%97%D0%B4%D0%BE%D1%80%D0%BE%D0%B2%D0%B0+%D0%92%D0%BE%D0%B4%D0%B0%29/data=!4m7!3m6!1s0x40d4cbfff2dc9329:0xd7e7607dded1ebca!8m2!3d50.3780875!4d30.3818467!16s%2Fg%2F11r9mn7252!19sChIJKZPc8v_L1EARyuvR3n1g59c?authuser=0&hl=tr&rclk=1",
    "website_url": "https://instagram.com/zdorova_voda_?utm_medium=copy_link",
    "rating_text": "4,7",
    "stars": null,
    "number_of_reviews": null,
    "price_level": "",
    "open_hours": "",
    "extraction_timestamp": "2025-06-08T03:37:17.946Z",
    "source_name": "google",
    "source_query": "Irrigation Equipment",
    "source_country": "UA",
    "country": "Ukraine",
    "state": "Kyivska oblast",
    "city": "Kriukivschina"
  },
  {
    "source_id": "ChIJE3xa2ozJ1EARSfKzXkD-7LM",
    "name": "Domosvit",
    "category": "Domosvit",
    "formatted_address": "4,0(586)",
    "phone_number": "+380974219424",
    "source_url": "https://www.google.com/maps/place/Domosvit/data=!4m7!3m6!1s0x40d4c98cda5a7c13:0xb3ecfe405eb3f249!8m2!3d50.3707689!4d30.379256!16s%2Fg%2F1tdpklkh!19sChIJE3xa2ozJ1EARSfKzXkD-7LM?authuser=0&hl=tr&rclk=1",
    "website_url": "http://dsvit.com.ua/",
    "rating_text": "4,0",
    "stars": null,
    "number_of_reviews": null,
    "price_level": "",
    "open_hours": "",
    "extraction_timestamp": "2025-06-08T03:37:17.949Z",
    "source_name": "google",
    "source_query": "Irrigation Equipment",
    "source_country": "UA",
    "country": "Ukraine",
    "state": "Kyivska oblast",
    "city": "Kriukivschina"
  },
  {
    "source_id": "ChIJQ3VVfQ3J1EARYoDTvkrUmJs",
    "name": "Haryacha Tochka",
    "category": "Haryacha Tochka",
    "formatted_address": "4,9(16)",
    "phone_number": "+380504346463",
    "source_url": "https://www.google.com/maps/place/Haryacha+Tochka/data=!4m7!3m6!1s0x40d4c90d7d557543:0x9b98d44abed38062!8m2!3d50.379127!4d30.3805045!16s%2Fg%2F11fd6mqdy4!19sChIJQ3VVfQ3J1EARYoDTvkrUmJs?authuser=0&hl=tr&rclk=1",
    "website_url": "http://hot-point.com.ua/",
    "rating_text": "4,9",
    "stars": null,
    "number_of_reviews": null,
    "price_level": "",
    "open_hours": "",
    "extraction_timestamp": "2025-06-08T03:37:17.950Z",
    "source_name": "google",
    "source_query": "Irrigation Equipment",
    "source_country": "UA",
    "country": "Ukraine",
    "state": "Kyivska oblast",
    "city": "Kriukivschina"
  },
  {
    "source_id": "ChIJbTA5ic4oDS4RqdtlUSo8oBU",
    "name": "Ustanovka Teplovoho Lichylʹnyka, Zamina Lichylʹnykiv Vody, Ustanovka Boylera, Zamina Radiatoriv Vid Tov \"Mayster Dodomu\"",
    "category": "Ustanovka Teplovoho Lichylʹnyka, Zamina Lichylʹnykiv Vody, Ustanovka Boylera, Zamina Radiatoriv Vid Tov \"Mayster Dodomu\"",
    "formatted_address": "Ustanovka Teplovoho Lichylʹnyka, Zamina Lichylʹnykiv Vody, Ustanovka Boylera, Zamina Radiatoriv Vid Tov \"Mayster Dodomu\"",
    "phone_number": "+380930081803",
    "source_url": "https://www.google.com/maps/place/Ustanovka+Teplovoho+Lichyl%CA%B9nyka,+Zamina+Lichyl%CA%B9nykiv+Vody,+Ustanovka+Boylera,+Zamina+Radiatoriv+Vid+Tov+%22Mayster+Dodomu%22/data=!4m7!3m6!1s0x2e0d28ce8939306d:0x15a03c2a5165dba9!8m2!3d50.420481!4d30.49775!16s%2Fg%2F11vr0s1zwq!19sChIJbTA5ic4oDS4RqdtlUSo8oBU?authuser=0&hl=tr&rclk=1",
    "website_url": "https://master-domoy.kiev.ua/",
    "rating_text": "5,0",
    "stars": null,
    "number_of_reviews": null,
    "price_level": "",
    "open_hours": "",
    "extraction_timestamp": "2025-06-08T03:37:17.951Z",
    "source_name": "google",
    "source_query": "Irrigation Equipment",
    "source_country": "UA",
    "country": "Ukraine",
    "state": "Kyivska oblast",
    "city": "Kriukivschina"
  },
  {
    "source_id": "ChIJz29ug2_J1EARzaZ7tmeMv4s",
    "name": "Інтернет-магазин LETO Сад від А до Я",
    "category": "Інтернет-магазин LETO Сад від А до Я",
    "formatted_address": "4,7(218)",
    "phone_number": "+380442291160",
    "source_url": "https://www.google.com/maps/place/%D0%86%D0%BD%D1%82%D0%B5%D1%80%D0%BD%D0%B5%D1%82-%D0%BC%D0%B0%D0%B3%D0%B0%D0%B7%D0%B8%D0%BD+LETO+%D0%A1%D0%B0%D0%B4+%D0%B2%D1%96%D0%B4+%D0%90+%D0%B4%D0%BE+%D0%AF/data=!4m7!3m6!1s0x40d4c96f836e6fcf:0x8bbf8c67b67ba6cd!8m2!3d50.396095!4d30.4154559!16s%2Fg%2F1vtzfr1m!19sChIJz29ug2_J1EARzaZ7tmeMv4s?authuser=0&hl=tr&rclk=1",
    "website_url": "https://leto.ua/",
    "rating_text": "4,7",
    "stars": null,
    "number_of_reviews": null,
    "price_level": "",
    "open_hours": "",
    "extraction_timestamp": "2025-06-08T03:37:17.952Z",
    "source_name": "google",
    "source_query": "Irrigation Equipment",
    "source_country": "UA",
    "country": "Ukraine",
    "state": "Kyivska oblast",
    "city": "Kriukivschina"
  },
  {
    "source_id": "ChIJUUUlf2jK1EARGHLCKeFK-oU",
    "name": "Leon Servis Plyus",
    "category": "Leon Servis Plyus",
    "formatted_address": "4,7(121)",
    "phone_number": "+380672439595",
    "source_url": "https://www.google.com/maps/place/Leon+Servis+Plyus/data=!4m7!3m6!1s0x40d4ca687f254551:0x85fa4ae129c27218!8m2!3d50.3871377!4d30.3147029!16s%2Fg%2F1vcl28pq!19sChIJUUUlf2jK1EARGHLCKeFK-oU?authuser=0&hl=tr&rclk=1",
    "website_url": "http://www.leon.ua/",
    "rating_text": "4,7",
    "stars": null,
    "number_of_reviews": null,
    "price_level": "",
    "open_hours": "",
    "extraction_timestamp": "2025-06-08T03:37:17.953Z",
    "source_name": "google",
    "source_query": "Irrigation Equipment",
    "source_country": "UA",
    "country": "Ukraine",
    "state": "Kyivska oblast",
    "city": "Kriukivschina"
  },
  {
    "source_id": "ChIJRZoKYCbK1EARNDoJ25k_tCs",
    "name": "Sale of drinking water",
    "category": "Sale of drinking water",
    "formatted_address": "3,4(19)",
    "phone_number": "+380978501428",
    "source_url": "https://www.google.com/maps/place/Sale+of+drinking+water/data=!4m7!3m6!1s0x40d4ca26600a9a45:0x2bb43f99db093a34!8m2!3d50.381538!4d30.3701918!16s%2Fg%2F11g6htjdl5!19sChIJRZoKYCbK1EARNDoJ25k_tCs?authuser=0&hl=tr&rclk=1",
    "website_url": "",
    "rating_text": "3,4",
    "stars": null,
    "number_of_reviews": null,
    "price_level": "",
    "open_hours": "",
    "extraction_timestamp": "2025-06-08T03:37:17.954Z",
    "source_name": "google",
    "source_query": "Irrigation Equipment",
    "source_country": "UA",
    "country": "Ukraine",
    "state": "Kyivska oblast",
    "city": "Kriukivschina"
  },
  {
    "source_id": "ChIJc5TGMi7L1EAR79zZlSDd6yw",
    "name": "Сантехник Андрей Аквамэн",
    "category": "Сантехник Андрей Аквамэн",
    "formatted_address": "4,9(38)",
    "phone_number": "+380505786632",
    "source_url": "https://www.google.com/maps/place/%D0%A1%D0%B0%D0%BD%D1%82%D0%B5%D1%85%D0%BD%D0%B8%D0%BA+%D0%90%D0%BD%D0%B4%D1%80%D0%B5%D0%B9+%D0%90%D0%BA%D0%B2%D0%B0%D0%BC%D1%8D%D0%BD/data=!4m7!3m6!1s0x40d4cb2e32c69473:0x2cebdd2095d9dcef!8m2!3d50.3841427!4d30.3777659!16s%2Fg%2F11r9t8tzj6!19sChIJc5TGMi7L1EAR79zZlSDd6yw?authuser=0&hl=tr&rclk=1",
    "website_url": "",
    "rating_text": "4,9",
    "stars": null,
    "number_of_reviews": null,
    "price_level": "",
    "open_hours": "",
    "extraction_timestamp": "2025-06-08T03:37:17.954Z",
    "source_name": "google",
    "source_query": "Irrigation Equipment",
    "source_country": "UA",
    "country": "Ukraine",
    "state": "Kyivska oblast",
    "city": "Kriukivschina"
  },
  {
    "source_id": "ChIJWxt4AlHO1EARIhiDVwPGmbM",
    "name": "Eridon",
    "category": "Eridon",
    "formatted_address": "4,4(96)",
    "phone_number": "+380800408700",
    "source_url": "https://www.google.com/maps/place/Eridon/data=!4m7!3m6!1s0x40d4ce5102781b5b:0xb399c60357831822!8m2!3d50.3907885!4d30.4151779!16s%2Fg%2F1tf_rd2m!19sChIJWxt4AlHO1EARIhiDVwPGmbM?authuser=0&hl=tr&rclk=1",
    "website_url": "https://www.eridon.ua/",
    "rating_text": "4,4",
    "stars": null,
    "number_of_reviews": null,
    "price_level": "",
    "open_hours": "",
    "extraction_timestamp": "2025-06-08T03:37:17.955Z",
    "source_name": "google",
    "source_query": "Irrigation Equipment",
    "source_country": "UA",
    "country": "Ukraine",
    "state": "Kyivska oblast",
    "city": "Kriukivschina"
  },
  {
    "source_id": "ChIJQ1jPA_XJ1EARVi03JziMRtM",
    "name": "Budivnyk",
    "category": "Budivnyk",
    "formatted_address": "4,3(116)",
    "phone_number": "+380443500440",
    "source_url": "https://www.google.com/maps/place/Budivnyk/data=!4m7!3m6!1s0x40d4c9f503cf5843:0xd3468c3827372d56!8m2!3d50.3704636!4d30.3687466!16s%2Fg%2F11cks6w8m9!19sChIJQ1jPA_XJ1EARVi03JziMRtM?authuser=0&hl=tr&rclk=1",
    "website_url": "",
    "rating_text": "4,3",
    "stars": null,
    "number_of_reviews": null,
    "price_level": "",
    "open_hours": "",
    "extraction_timestamp": "2025-06-08T03:37:17.956Z",
    "source_name": "google",
    "source_query": "Irrigation Equipment",
    "source_country": "UA",
    "country": "Ukraine",
    "state": "Kyivska oblast",
    "city": "Kriukivschina"
  },
  {
    "source_id": "ChIJxxFC-RXK1EAR2rc9a2uY2EA",
    "name": "АГРО-ДОМ — ножи к сельскохозяйственной технике от производителя",
    "category": "АГРО-ДОМ — ножи к сельскохозяйственной технике от производителя",
    "formatted_address": "5,0(1)",
    "phone_number": "+380674425207",
    "source_url": "https://www.google.com/maps/place/%D0%90%D0%93%D0%A0%D0%9E-%D0%94%D0%9E%D0%9C+%E2%80%94+%D0%BD%D0%BE%D0%B6%D0%B8+%D0%BA+%D1%81%D0%B5%D0%BB%D1%8C%D1%81%D0%BA%D0%BE%D1%85%D0%BE%D0%B7%D1%8F%D0%B9%D1%81%D1%82%D0%B2%D0%B5%D0%BD%D0%BD%D0%BE%D0%B9+%D1%82%D0%B5%D1%85%D0%BD%D0%B8%D0%BA%D0%B5+%D0%BE%D1%82+%D0%BF%D1%80%D0%BE%D0%B8%D0%B7%D0%B2%D0%BE%D0%B4%D0%B8%D1%82%D0%B5%D0%BB%D1%8F/data=!4m7!3m6!1s0x40d4ca15f94211c7:0x40d8986b6b3db7da!8m2!3d50.3804438!4d30.3436091!16s%2Fg%2F11fyxbsr5c!19sChIJxxFC-RXK1EAR2rc9a2uY2EA?authuser=0&hl=tr&rclk=1",
    "website_url": "https://agro-dom.solutions/",
    "rating_text": "5,0",
    "stars": null,
    "number_of_reviews": null,
    "price_level": "",
    "open_hours": "",
    "extraction_timestamp": "2025-06-08T03:37:17.957Z",
    "source_name": "google",
    "source_query": "Irrigation Equipment",
    "source_country": "UA",
    "country": "Ukraine",
    "state": "Kyivska oblast",
    "city": "Kriukivschina"
  },
  {
    "source_id": "ChIJy_SBwybJ1EARVFgBb8utyu0",
    "name": "ЗДОРОВА ВОДА - продажа и доставка питьевой воды. ЖК Orange Park",
    "category": "ЗДОРОВА ВОДА - продажа и доставка питьевой воды. ЖК Orange Park",
    "formatted_address": "4,8(36)",
    "phone_number": "+380976808198",
    "source_url": "https://www.google.com/maps/place/%D0%97%D0%94%D0%9E%D0%A0%D0%9E%D0%92%D0%90+%D0%92%D0%9E%D0%94%D0%90+-+%D0%BF%D1%80%D0%BE%D0%B4%D0%B0%D0%B6%D0%B0+%D0%B8+%D0%B4%D0%BE%D1%81%D1%82%D0%B0%D0%B2%D0%BA%D0%B0+%D0%BF%D0%B8%D1%82%D1%8C%D0%B5%D0%B2%D0%BE%D0%B9+%D0%B2%D0%BE%D0%B4%D1%8B.+%D0%96%D0%9A+Orange+Park/data=!4m7!3m6!1s0x40d4c926c381f4cb:0xedcaadcb6f015854!8m2!3d50.3700396!4d30.3890209!16s%2Fg%2F11q2ypyj9w!19sChIJy_SBwybJ1EARVFgBb8utyu0?authuser=0&hl=tr&rclk=1",
    "website_url": "",
    "rating_text": "4,8",
    "stars": null,
    "number_of_reviews": null,
    "price_level": "",
    "open_hours": "",
    "extraction_timestamp": "2025-06-08T03:37:17.958Z",
    "source_name": "google",
    "source_query": "Irrigation Equipment",
    "source_country": "UA",
    "country": "Ukraine",
    "state": "Kyivska oblast",
    "city": "Kriukivschina"
  },
  {
    "source_id": "ChIJj0u_G-_J1EARCMyAfd3YBdA",
    "name": "Art Green",
    "category": "Art Green",
    "formatted_address": "5,0(7)",
    "phone_number": "",
    "source_url": "https://www.google.com/maps/place/Art+Green/data=!4m7!3m6!1s0x40d4c9ef1bbf4b8f:0xd005d8dd7d80cc08!8m2!3d50.3569659!4d30.4366525!16s%2Fg%2F11w_t53108!19sChIJj0u_G-_J1EARCMyAfd3YBdA?authuser=0&hl=tr&rclk=1",
    "website_url": "https://artgreen.com.ua/",
    "rating_text": "5,0",
    "stars": null,
    "number_of_reviews": null,
    "price_level": "",
    "open_hours": "",
    "extraction_timestamp": "2025-06-08T03:37:17.958Z",
    "source_name": "google",
    "source_query": "Irrigation Equipment",
    "source_country": "UA",
    "country": "Ukraine",
    "state": "Kyivska oblast",
    "city": "Kriukivschina"
  },
  {
    "source_id": "ChIJnUp7WMvI1EARjcaJP1ertzQ",
    "name": "Интернет-магазин Aquatools (Акватулс)",
    "category": "Интернет-магазин Aquatools (Акватулс)",
    "formatted_address": "4,7(45)",
    "phone_number": "+380987780977",
    "source_url": "https://www.google.com/maps/place/%D0%98%D0%BD%D1%82%D0%B5%D1%80%D0%BD%D0%B5%D1%82-%D0%BC%D0%B0%D0%B3%D0%B0%D0%B7%D0%B8%D0%BD+Aquatools+%28%D0%90%D0%BA%D0%B2%D0%B0%D1%82%D1%83%D0%BB%D1%81%29/data=!4m7!3m6!1s0x40d4c8cb587b4a9d:0x34b7ab573f89c68d!8m2!3d50.4033539!4d30.5295362!16s%2Fg%2F11b6p9929h!19sChIJnUp7WMvI1EARjcaJP1ertzQ?authuser=0&hl=tr&rclk=1",
    "website_url": "https://aquatools.com.ua/ua/",
    "rating_text": "4,7",
    "stars": null,
    "number_of_reviews": null,
    "price_level": "",
    "open_hours": "",
    "extraction_timestamp": "2025-06-08T03:37:17.960Z",
    "source_name": "google",
    "source_query": "Irrigation Equipment",
    "source_country": "UA",
    "country": "Ukraine",
    "state": "Kyivska oblast",
    "city": "Kriukivschina"
  },
  {
    "source_id": "ChIJ4y2A02vP1EAR4V35o7a2Piw",
    "name": "WATERLUX",
    "category": "WATERLUX",
    "formatted_address": "4,4(25)",
    "phone_number": "+380670107767",
    "source_url": "https://www.google.com/maps/place/WATERLUX/data=!4m7!3m6!1s0x40d4cf6bd3802de3:0x2c3eb6b6a3f95de1!8m2!3d48.4419819!4d32.0630831!16s%2Fg%2F11b6wq462m!19sChIJ4y2A02vP1EAR4V35o7a2Piw?authuser=0&hl=tr&rclk=1",
    "website_url": "https://waterlux.ua/",
    "rating_text": "4,4",
    "stars": null,
    "number_of_reviews": null,
    "price_level": "",
    "open_hours": "",
    "extraction_timestamp": "2025-06-08T03:37:17.961Z",
    "source_name": "google",
    "source_query": "Irrigation Equipment",
    "source_country": "UA",
    "country": "Ukraine",
    "state": "Kyivska oblast",
    "city": "Kriukivschina"
  },
  {
    "source_id": "ChIJlf8KTInJ1EARVa2l9X6ROvY",
    "name": "Hunter Автополив Украина",
    "category": "Hunter Автополив Украина",
    "formatted_address": "5,0(3)",
    "phone_number": "+380509998688",
    "source_url": "https://www.google.com/maps/place/Hunter+%D0%90%D0%B2%D1%82%D0%BE%D0%BF%D0%BE%D0%BB%D0%B8%D0%B2+%D0%A3%D0%BA%D1%80%D0%B0%D0%B8%D0%BD%D0%B0/data=!4m7!3m6!1s0x40d4c9894c0aff95:0xf63a917ef5a5ad55!8m2!3d50.4177962!4d30.4415501!16s%2Fg%2F11ngtbpk5k!19sChIJlf8KTInJ1EARVa2l9X6ROvY?authuser=0&hl=tr&rclk=1",
    "website_url": "https://hunter.org.ua/",
    "rating_text": "5,0",
    "stars": null,
    "number_of_reviews": null,
    "price_level": "",
    "open_hours": "",
    "extraction_timestamp": "2025-06-08T03:37:17.962Z",
    "source_name": "google",
    "source_query": "Irrigation Equipment",
    "source_country": "UA",
    "country": "Ukraine",
    "state": "Kyivska oblast",
    "city": "Kriukivschina"
  },
  {
    "source_id": "ChIJVVUe2DPP1EARwxS4wgqw4x4",
    "name": "Біотек Інжиніринг",
    "category": "Біотек Інжиніринг",
    "formatted_address": "5,0(4)",
    "phone_number": "+380964404111",
    "source_url": "https://www.google.com/maps/place/%D0%91%D1%96%D0%BE%D1%82%D0%B5%D0%BA+%D0%86%D0%BD%D0%B6%D0%B8%D0%BD%D1%96%D1%80%D0%B8%D0%BD%D0%B3/data=!4m7!3m6!1s0x40d4cf33d81e5555:0x1ee3b00ac2b814c3!8m2!3d50.4010207!4d30.5211973!16s%2Fg%2F11hdy2hbfh!19sChIJVVUe2DPP1EARwxS4wgqw4x4?authuser=0&hl=tr&rclk=1",
    "website_url": "https://bte.org.ua/kontakty/",
    "rating_text": "5,0",
    "stars": null,
    "number_of_reviews": null,
    "price_level": "",
    "open_hours": "",
    "extraction_timestamp": "2025-06-08T03:37:17.963Z",
    "source_name": "google",
    "source_query": "Irrigation Equipment",
    "source_country": "UA",
    "country": "Ukraine",
    "state": "Kyivska oblast",
    "city": "Kriukivschina"
  },
  {
    "source_id": "ChIJP9_4TenO1EARdfaq51bmVzw",
    "name": "Півдюйма Вокзальна - товари для тепловодопостачання та водовідведення",
    "category": "Півдюйма Вокзальна - товари для тепловодопостачання та водовідведення",
    "formatted_address": "4,5(69)",
    "phone_number": "+380963050505",
    "source_url": "https://www.google.com/maps/place/%D0%9F%D1%96%D0%B2%D0%B4%D1%8E%D0%B9%D0%BC%D0%B0+%D0%92%D0%BE%D0%BA%D0%B7%D0%B0%D0%BB%D1%8C%D0%BD%D0%B0+-+%D1%82%D0%BE%D0%B2%D0%B0%D1%80%D0%B8+%D0%B4%D0%BB%D1%8F+%D1%82%D0%B5%D0%BF%D0%BB%D0%BE%D0%B2%D0%BE%D0%B4%D0%BE%D0%BF%D0%BE%D1%81%D1%82%D0%B0%D1%87%D0%B0%D0%BD%D0%BD%D1%8F+%D1%82%D0%B0+%D0%B2%D0%BE%D0%B4%D0%BE%D0%B2%D1%96%D0%B4%D0%B2%D0%B5%D0%B4%D0%B5%D0%BD%D0%BD%D1%8F/data=!4m7!3m6!1s0x40d4cee94df8df3f:0x3c57e656e7aaf675!8m2!3d50.4339666!4d30.4905746!16s%2Fg%2F1tg6j1sm!19sChIJP9_4TenO1EARdfaq51bmVzw?authuser=0&hl=tr&rclk=1",
    "website_url": "https://www.pivduyma.ua/location?location_id=6",
    "rating_text": "4,5",
    "stars": null,
    "number_of_reviews": null,
    "price_level": "",
    "open_hours": "",
    "extraction_timestamp": "2025-06-08T03:37:17.965Z",
    "source_name": "google",
    "source_query": "Irrigation Equipment",
    "source_country": "UA",
    "country": "Ukraine",
    "state": "Kyivska oblast",
    "city": "Kriukivschina"
  },
  {
    "source_id": "ChIJu9glpS_P1EARQdPrnCRtHD4",
    "name": "Ecolite - монтаж систем опалення, теплові насоси",
    "category": "Ecolite - монтаж систем опалення, теплові насоси",
    "formatted_address": "Ecolite - монтаж систем опалення, теплові насоси",
    "phone_number": "+380996766077",
    "source_url": "https://www.google.com/maps/place/Ecolite+-+%D0%BC%D0%BE%D0%BD%D1%82%D0%B0%D0%B6+%D1%81%D0%B8%D1%81%D1%82%D0%B5%D0%BC+%D0%BE%D0%BF%D0%B0%D0%BB%D0%B5%D0%BD%D0%BD%D1%8F,+%D1%82%D0%B5%D0%BF%D0%BB%D0%BE%D0%B2%D1%96+%D0%BD%D0%B0%D1%81%D0%BE%D1%81%D0%B8/data=!4m7!3m6!1s0x40d4cf2fa525d8bb:0x3e1c6d249cebd341!8m2!3d50.4107069!4d30.5067829!16s%2Fg%2F11c6cpnkvq!19sChIJu9glpS_P1EARQdPrnCRtHD4?authuser=0&hl=tr&rclk=1",
    "website_url": "https://ecolite.com.ua/",
    "rating_text": "4,3",
    "stars": null,
    "number_of_reviews": null,
    "price_level": "",
    "open_hours": "",
    "extraction_timestamp": "2025-06-08T03:37:17.965Z",
    "source_name": "google",
    "source_query": "Irrigation Equipment",
    "source_country": "UA",
    "country": "Ukraine",
    "state": "Kyivska oblast",
    "city": "Kriukivschina"
  },
  {
    "source_id": "ChIJj9B1EqHP1EARDZgdszuCvLs",
    "name": "Системы полива",
    "category": "Системы полива",
    "formatted_address": "Sulama Ekipmanları Tedarikçisi · Lavrska St, 7а / 19Kapalı ⋅ Açılış zamanı: Pzt 09:00 · +380 99 343 8777",
    "phone_number": "+380993438777",
    "source_url": "https://www.google.com/maps/place/%D0%A1%D0%B8%D1%81%D1%82%D0%B5%D0%BC%D1%8B+%D0%BF%D0%BE%D0%BB%D0%B8%D0%B2%D0%B0/data=!4m7!3m6!1s0x40d4cfa11275d08f:0xbbbc823bb31d980d!8m2!3d50.4368044!4d30.5554264!16s%2Fg%2F11qh89rj21!19sChIJj9B1EqHP1EARDZgdszuCvLs?authuser=0&hl=tr&rclk=1",
    "website_url": "http://syspoliv.com.ua/",
    "rating_text": "",
    "stars": null,
    "number_of_reviews": null,
    "price_level": "",
    "open_hours": "",
    "extraction_timestamp": "2025-06-08T03:37:17.966Z",
    "source_name": "google",
    "source_query": "Irrigation Equipment",
    "source_country": "UA",
    "country": "Ukraine",
    "state": "Kyivska oblast",
    "city": "Kriukivschina"
  },
  {
    "source_id": "ChIJ24msvsnI1EAR8ym728ZiG-Q",
    "name": "Обладнання і хімія для басейнів",
    "category": "Обладнання і хімія для басейнів",
    "formatted_address": "4,8(13)",
    "phone_number": "+380443336136",
    "source_url": "https://www.google.com/maps/place/%D0%9E%D0%B1%D0%BB%D0%B0%D0%B4%D0%BD%D0%B0%D0%BD%D0%BD%D1%8F+%D1%96+%D1%85%D1%96%D0%BC%D1%96%D1%8F+%D0%B4%D0%BB%D1%8F+%D0%B1%D0%B0%D1%81%D0%B5%D0%B9%D0%BD%D1%96%D0%B2/data=!4m7!3m6!1s0x40d4c8c9beac89db:0xe41b62c6dbbb29f3!8m2!3d50.3568074!4d30.4375067!16s%2Fg%2F11b6b855pn!19sChIJ24msvsnI1EAR8ym728ZiG-Q?authuser=0&hl=tr&rclk=1",
    "website_url": "https://www.pools.gallery/",
    "rating_text": "4,8",
    "stars": null,
    "number_of_reviews": null,
    "price_level": "",
    "open_hours": "",
    "extraction_timestamp": "2025-06-08T03:37:17.967Z",
    "source_name": "google",
    "source_query": "Irrigation Equipment",
    "source_country": "UA",
    "country": "Ukraine",
    "state": "Kyivska oblast",
    "city": "Kriukivschina"
  },
  {
    "source_id": "ChIJvc-F5Xvb1EARMyU1h0yPdQ8",
    "name": "Chelsea heat service - опалення, теплові насоси, котельні",
    "category": "Chelsea heat service - опалення, теплові насоси, котельні",
    "formatted_address": "Chelsea heat service - опалення, теплові насоси, котельні",
    "phone_number": "+380972559755",
    "source_url": "https://www.google.com/maps/place/Chelsea+heat+service+-+%D0%BE%D0%BF%D0%B0%D0%BB%D0%B5%D0%BD%D0%BD%D1%8F,+%D1%82%D0%B5%D0%BF%D0%BB%D0%BE%D0%B2%D1%96+%D0%BD%D0%B0%D1%81%D0%BE%D1%81%D0%B8,+%D0%BA%D0%BE%D1%82%D0%B5%D0%BB%D1%8C%D0%BD%D1%96/data=!4m7!3m6!1s0x40d4db7be585cfbd:0xf758f4c87352533!8m2!3d50.4229139!4d30.4407644!16s%2Fg%2F11gjj9740q!19sChIJvc-F5Xvb1EARMyU1h0yPdQ8?authuser=0&hl=tr&rclk=1",
    "website_url": "https://chelsea.in.ua/",
    "rating_text": "5,0",
    "stars": null,
    "number_of_reviews": null,
    "price_level": "",
    "open_hours": "",
    "extraction_timestamp": "2025-06-08T03:37:17.968Z",
    "source_name": "google",
    "source_query": "Irrigation Equipment",
    "source_country": "UA",
    "country": "Ukraine",
    "state": "Kyivska oblast",
    "city": "Kriukivschina"
  },
  {
    "source_id": "ChIJPcqk7m3J1EARHAdcEh2m6ZM",
    "name": "Сантехник Дмитрий Разумный",
    "category": "Сантехник Дмитрий Разумный",
    "formatted_address": "3,0(4)",
    "phone_number": "+380914819247",
    "source_url": "https://www.google.com/maps/place/%D0%A1%D0%B0%D0%BD%D1%82%D0%B5%D1%85%D0%BD%D0%B8%D0%BA+%D0%94%D0%BC%D0%B8%D1%82%D1%80%D0%B8%D0%B9+%D0%A0%D0%B0%D0%B7%D1%83%D0%BC%D0%BD%D1%8B%D0%B9/data=!4m7!3m6!1s0x40d4c96deea4ca3d:0x93e9a61d125c071c!8m2!3d50.3815549!4d30.3795194!16s%2Fg%2F11n94z105t!19sChIJPcqk7m3J1EARHAdcEh2m6ZM?authuser=0&hl=tr&rclk=1",
    "website_url": "",
    "rating_text": "3,0",
    "stars": null,
    "number_of_reviews": null,
    "price_level": "",
    "open_hours": "",
    "extraction_timestamp": "2025-06-08T03:37:17.969Z",
    "source_name": "google",
    "source_query": "Irrigation Equipment",
    "source_country": "UA",
    "country": "Ukraine",
    "state": "Kyivska oblast",
    "city": "Kriukivschina"
  },
  {
    "source_id": "ChIJm3VMB5LO1EARXHsIQ85PLgQ",
    "name": "Аква Форсайт - Фільтри для води, Водоочистка, Водопідготовка",
    "category": "Аква Форсайт - Фільтри для води, Водоочистка, Водопідготовка",
    "formatted_address": "Аква Форсайт - Фільтри для води, Водоочистка, Водопідготовка",
    "phone_number": "+380732382997",
    "source_url": "https://www.google.com/maps/place/%D0%90%D0%BA%D0%B2%D0%B0+%D0%A4%D0%BE%D1%80%D1%81%D0%B0%D0%B9%D1%82+-+%D0%A4%D1%96%D0%BB%D1%8C%D1%82%D1%80%D0%B8+%D0%B4%D0%BB%D1%8F+%D0%B2%D0%BE%D0%B4%D0%B8,+%D0%92%D0%BE%D0%B4%D0%BE%D0%BE%D1%87%D0%B8%D1%81%D1%82%D0%BA%D0%B0,+%D0%92%D0%BE%D0%B4%D0%BE%D0%BF%D1%96%D0%B4%D0%B3%D0%BE%D1%82%D0%BE%D0%B2%D0%BA%D0%B0/data=!4m7!3m6!1s0x40d4ce92074c759b:0x42e4fce43087b5c!8m2!3d50.4429266!4d30.4809236!16s%2Fg%2F11hc2y88lg!19sChIJm3VMB5LO1EARXHsIQ85PLgQ?authuser=0&hl=tr&rclk=1",
    "website_url": "https://aquaforesight.com.ua/ua/",
    "rating_text": "4,3",
    "stars": null,
    "number_of_reviews": null,
    "price_level": "",
    "open_hours": "",
    "extraction_timestamp": "2025-06-08T03:37:17.970Z",
    "source_name": "google",
    "source_query": "Irrigation Equipment",
    "source_country": "UA",
    "country": "Ukraine",
    "state": "Kyivska oblast",
    "city": "Kriukivschina"
  },
  {
    "source_id": "ChIJH_xN6cbL1EARD7Bc2ly3bYk",
    "name": "Delʹta Term",
    "category": "Delʹta Term",
    "formatted_address": "4,3(72)",
    "phone_number": "+380444020111",
    "source_url": "https://www.google.com/maps/place/Del%CA%B9ta+Term/data=!4m7!3m6!1s0x40d4cbc6e94dfc1f:0x896db75cda5cb00f!8m2!3d50.4077001!4d30.376854!16s%2Fg%2F11xcn6dcs!19sChIJH_xN6cbL1EARD7Bc2ly3bYk?authuser=0&hl=tr&rclk=1",
    "website_url": "https://delta-term.kiev.ua/",
    "rating_text": "4,3",
    "stars": null,
    "number_of_reviews": null,
    "price_level": "",
    "open_hours": "",
    "extraction_timestamp": "2025-06-08T03:37:17.971Z",
    "source_name": "google",
    "source_query": "Irrigation Equipment",
    "source_country": "UA",
    "country": "Ukraine",
    "state": "Kyivska oblast",
    "city": "Kriukivschina"
  },
  {
    "source_id": "ChIJqb5v6dfI1EAR3fS39r-pFsg",
    "name": "Термос - системи опалення",
    "category": "Термос - системи опалення",
    "formatted_address": "4,5(15)",
    "phone_number": "+380631558881",
    "source_url": "https://www.google.com/maps/place/%D0%A2%D0%B5%D1%80%D0%BC%D0%BE%D1%81+-+%D1%81%D0%B8%D1%81%D1%82%D0%B5%D0%BC%D0%B8+%D0%BE%D0%BF%D0%B0%D0%BB%D0%B5%D0%BD%D0%BD%D1%8F/data=!4m7!3m6!1s0x40d4c8d7e96fbea9:0xc816a9bff6b7f4dd!8m2!3d50.3985017!4d30.4786071!16s%2Fg%2F1tj5jnz6!19sChIJqb5v6dfI1EAR3fS39r-pFsg?authuser=0&hl=tr&rclk=1",
    "website_url": "http://termos.ua/",
    "rating_text": "4,5",
    "stars": null,
    "number_of_reviews": null,
    "price_level": "",
    "open_hours": "",
    "extraction_timestamp": "2025-06-08T03:37:17.972Z",
    "source_name": "google",
    "source_query": "Irrigation Equipment",
    "source_country": "UA",
    "country": "Ukraine",
    "state": "Kyivska oblast",
    "city": "Kriukivschina"
  },
  {
    "source_id": "ChIJw0_U1x_N1EARs1gdhEa970I",
    "name": "Kyyivspetstekh",
    "category": "Kyyivspetstekh",
    "formatted_address": "5,0(25)",
    "phone_number": "+380678070544",
    "source_url": "https://www.google.com/maps/place/Kyyivspetstekh/data=!4m7!3m6!1s0x40d4cd1fd7d44fc3:0x42efbd46841d58b3!8m2!3d50.4509283!4d30.5097963!16s%2Fg%2F11q24j98yt!19sChIJw0_U1x_N1EARs1gdhEa970I?authuser=0&hl=tr&rclk=1",
    "website_url": "https://kievspecteh.com/",
    "rating_text": "5,0",
    "stars": null,
    "number_of_reviews": null,
    "price_level": "",
    "open_hours": "",
    "extraction_timestamp": "2025-06-08T03:37:17.973Z",
    "source_name": "google",
    "source_query": "Irrigation Equipment",
    "source_country": "UA",
    "country": "Ukraine",
    "state": "Kyivska oblast",
    "city": "Kriukivschina"
  }
]
