[
  {
    "source_id": "ChIJ60XEpQbQ1EARVLf9IomIVYg",
    "name": "Poliv UA",
    "category": "Poliv UA",
    "formatted_address": "4,8(64)",
    "phone_number": "+380443379900",
    "source_url": "https://www.google.com/maps/place/Poliv+UA/data=!4m7!3m6!1s0x40d4d006a5c445eb:0x8855888922fdb754!8m2!3d50.4646434!4d30.6255633!16s%2Fg%2F11clsyjy7n!19sChIJ60XEpQbQ1EARVLf9IomIVYg?authuser=0&hl=tr&rclk=1",
    "website_url": "https://poliv.ua/",
    "rating_text": "4,8",
    "stars": null,
    "number_of_reviews": null,
    "price_level": "",
    "open_hours": "",
    "extraction_timestamp": "2025-06-08T03:39:02.102Z",
    "source_name": "google",
    "source_query": "Irrigation Equipment",
    "source_country": "UA",
    "country": "Ukraine",
    "state": "Kyivska oblast",
    "city": "Kryva Hora"
  },
  {
    "source_id": "ChIJYyU9lq_N1EARqoG8SYko8go",
    "name": "Лайф Гарден",
    "category": "Лайф Гарден",
    "formatted_address": "3,9(7)",
    "phone_number": "+380503719090",
    "source_url": "https://www.google.com/maps/place/%D0%9B%D0%B0%D0%B9%D1%84+%D0%93%D0%B0%D1%80%D0%B4%D0%B5%D0%BD/data=!4m7!3m6!1s0x40d4cdaf963d2563:0xaf2288949bc81aa!8m2!3d50.45748!4d30.3824706!16s%2Fg%2F11gr60b225!19sChIJYyU9lq_N1EARqoG8SYko8go?authuser=0&hl=tr&rclk=1",
    "website_url": "",
    "rating_text": "3,9",
    "stars": null,
    "number_of_reviews": null,
    "price_level": "",
    "open_hours": "",
    "extraction_timestamp": "2025-06-08T03:39:02.102Z",
    "source_name": "google",
    "source_query": "Irrigation Equipment",
    "source_country": "UA",
    "country": "Ukraine",
    "state": "Kyivska oblast",
    "city": "Kryva Hora"
  },
  {
    "source_id": "ChIJuZ4Na9vI1EARQG8rPxVBlkU",
    "name": "Магазин полива. K-Rain, Hunter, RainBird",
    "category": "Магазин полива. K-Rain, Hunter, RainBird",
    "formatted_address": "Магазин полива. K-Rain, Hunter, RainBird",
    "phone_number": "+380501088779",
    "source_url": "https://www.google.com/maps/place/%D0%9C%D0%B0%D0%B3%D0%B0%D0%B7%D0%B8%D0%BD+%D0%BF%D0%BE%D0%BB%D0%B8%D0%B2%D0%B0.+K-Rain,+Hunter,+RainBird/data=!4m7!3m6!1s0x40d4c8db6b0d9eb9:0x459641153f2b6f40!8m2!3d50.3918125!4d30.4850044!16s%2Fg%2F11hbp9s62p!19sChIJuZ4Na9vI1EARQG8rPxVBlkU?authuser=0&hl=tr&rclk=1",
    "website_url": "http://k-rain.com.ua/",
    "rating_text": "4,7",
    "stars": null,
    "number_of_reviews": null,
    "price_level": "",
    "open_hours": "",
    "extraction_timestamp": "2025-06-08T03:39:02.102Z",
    "source_name": "google",
    "source_query": "Irrigation Equipment",
    "source_country": "UA",
    "country": "Ukraine",
    "state": "Kyivska oblast",
    "city": "Kryva Hora"
  },
  {
    "source_id": "ChIJq1OAQEXF1EARIAyoFByGrW4",
    "name": "Ahrarna Industrialʹna Kompaniya",
    "category": "Ahrarna Industrialʹna Kompaniya",
    "formatted_address": "4,8(12)",
    "phone_number": "+380504444184",
    "source_url": "https://www.google.com/maps/place/Ahrarna+Industrial%CA%B9na+Kompaniya/data=!4m7!3m6!1s0x40d4c545408053ab:0x6ead861c14a80c20!8m2!3d50.4090678!4d30.6121652!16s%2Fg%2F1tdk3pn4!19sChIJq1OAQEXF1EARIAyoFByGrW4?authuser=0&hl=tr&rclk=1",
    "website_url": "https://aico.ua/",
    "rating_text": "4,8",
    "stars": null,
    "number_of_reviews": null,
    "price_level": "",
    "open_hours": "",
    "extraction_timestamp": "2025-06-08T03:39:02.102Z",
    "source_name": "google",
    "source_query": "Irrigation Equipment",
    "source_country": "UA",
    "country": "Ukraine",
    "state": "Kyivska oblast",
    "city": "Kryva Hora"
  },
  {
    "source_id": "ChIJpXmIUg3K1EARLCI_0egZpsQ",
    "name": "Tov Firma \"Kriohenservis\"",
    "category": "Tov Firma \"Kriohenservis\"",
    "formatted_address": "4,0(64)",
    "phone_number": "+380444963070",
    "source_url": "https://www.google.com/maps/place/Tov+Firma+%22Kriohenservis%22/data=!4m7!3m6!1s0x40d4ca0d528879a5:0xc4a619e8d13f222c!8m2!3d50.3726626!4d30.3277887!16s%2Fg%2F11bz_z_ng4!19sChIJpXmIUg3K1EARLCI_0egZpsQ?authuser=0&hl=tr&rclk=1",
    "website_url": "http://cryogen.com.ua/",
    "rating_text": "4,0",
    "stars": null,
    "number_of_reviews": null,
    "price_level": "",
    "open_hours": "",
    "extraction_timestamp": "2025-06-08T03:39:02.103Z",
    "source_name": "google",
    "source_query": "Irrigation Equipment",
    "source_country": "UA",
    "country": "Ukraine",
    "state": "Kyivska oblast",
    "city": "Kryva Hora"
  },
  {
    "source_id": "ChIJq6p6ek3J1EAR_uPnwIFdwFY",
    "name": "Системы полива",
    "category": "Системы полива",
    "formatted_address": "Çim Yağmurlama Sistemi Yüklenicisi · Volynska St, 48/50+380 67 190 9989",
    "phone_number": "+380671909989",
    "source_url": "https://www.google.com/maps/place/%D0%A1%D0%B8%D1%81%D1%82%D0%B5%D0%BC%D1%8B+%D0%BF%D0%BE%D0%BB%D0%B8%D0%B2%D0%B0/data=!4m7!3m6!1s0x40d4c94d7a7aaaab:0x56c05d81c0e7e3fe!8m2!3d50.4177962!4d30.4415501!16s%2Fg%2F11hys__3kz!19sChIJq6p6ek3J1EAR_uPnwIFdwFY?authuser=0&hl=tr&rclk=1",
    "website_url": "https://irrigation.kiev.ua/",
    "rating_text": "",
    "stars": null,
    "number_of_reviews": null,
    "price_level": "",
    "open_hours": "",
    "extraction_timestamp": "2025-06-08T03:39:02.103Z",
    "source_name": "google",
    "source_query": "Irrigation Equipment",
    "source_country": "UA",
    "country": "Ukraine",
    "state": "Kyivska oblast",
    "city": "Kryva Hora"
  },
  {
    "source_id": "ChIJq6p6ek3J1EAR_QyV4w95Pkw",
    "name": "Системы полива",
    "category": "Системы полива",
    "formatted_address": "Çim Yağmurlama Sistemi Yüklenicisi · Zhylianska St, 48/50+380 67 190 9989",
    "phone_number": "+380671909989",
    "source_url": "https://www.google.com/maps/place/%D0%A1%D0%B8%D1%81%D1%82%D0%B5%D0%BC%D1%8B+%D0%BF%D0%BE%D0%BB%D0%B8%D0%B2%D0%B0/data=!4m7!3m6!1s0x40d4c94d7a7aaaab:0x4c3e790fe3950cfd!8m2!3d50.434722!4d30.5063037!16s%2Fg%2F11fp8ykcbj!19sChIJq6p6ek3J1EAR_QyV4w95Pkw?authuser=0&hl=tr&rclk=1",
    "website_url": "https://irrigation.kiev.ua/",
    "rating_text": "",
    "stars": null,
    "number_of_reviews": null,
    "price_level": "",
    "open_hours": "",
    "extraction_timestamp": "2025-06-08T03:39:02.103Z",
    "source_name": "google",
    "source_query": "Irrigation Equipment",
    "source_country": "UA",
    "country": "Ukraine",
    "state": "Kyivska oblast",
    "city": "Kryva Hora"
  },
  {
    "source_id": "ChIJVVXFVhjM1EARWSWS_qv0o0U",
    "name": "Интегрированные Водные Технологии",
    "category": "Интегрированные Водные Технологии",
    "formatted_address": "Su Pompası Tedarikçisi · 50°27'00.0\"N 30°30'00.0\"E, Borshchahivska St, 206Kapalı ⋅ Açılış zamanı: Pzt 08:30 · +380 67 441 4277",
    "phone_number": "+380674414277",
    "source_url": "https://www.google.com/maps/place/%D0%98%D0%BD%D1%82%D0%B5%D0%B3%D1%80%D0%B8%D1%80%D0%BE%D0%B2%D0%B0%D0%BD%D0%BD%D1%8B%D0%B5+%D0%92%D0%BE%D0%B4%D0%BD%D1%8B%D0%B5+%D0%A2%D0%B5%D1%85%D0%BD%D0%BE%D0%BB%D0%BE%D0%B3%D0%B8%D0%B8/data=!4m7!3m6!1s0x40d4cc1856c55555:0x45a3f4abfe922559!8m2!3d50.4424622!4d30.4349734!16s%2Fg%2F11rxqk21tx!19sChIJVVXFVhjM1EARWSWS_qv0o0U?authuser=0&hl=tr&rclk=1",
    "website_url": "http://shop-iwt.com.ua/",
    "rating_text": "",
    "stars": null,
    "number_of_reviews": null,
    "price_level": "",
    "open_hours": "",
    "extraction_timestamp": "2025-06-08T03:39:02.104Z",
    "source_name": "google",
    "source_query": "Irrigation Equipment",
    "source_country": "UA",
    "country": "Ukraine",
    "state": "Kyivska oblast",
    "city": "Kryva Hora"
  },
  {
    "source_id": "ChIJWYqRA47N1EARkkE67r70qwg",
    "name": "Автополив",
    "category": "Автополив",
    "formatted_address": "Çim Yağmurlama Sistemi Yüklenicisi · Kyrylivska St, 160а+380 44 362 8781",
    "phone_number": "+380443628781",
    "source_url": "https://www.google.com/maps/place/%D0%90%D0%B2%D1%82%D0%BE%D0%BF%D0%BE%D0%BB%D0%B8%D0%B2/data=!4m7!3m6!1s0x40d4cd8e03918a59:0x8abf4beee3a4192!8m2!3d50.4942658!4d30.4620993!16s%2Fg%2F11j0jl5tks!19sChIJWYqRA47N1EARkkE67r70qwg?authuser=0&hl=tr&rclk=1",
    "website_url": "http://polivaka.com.ua/kontakty/",
    "rating_text": "",
    "stars": null,
    "number_of_reviews": null,
    "price_level": "",
    "open_hours": "",
    "extraction_timestamp": "2025-06-08T03:39:02.104Z",
    "source_name": "google",
    "source_query": "Irrigation Equipment",
    "source_country": "UA",
    "country": "Ukraine",
    "state": "Kyivska oblast",
    "city": "Kryva Hora"
  },
  {
    "source_id": "ChIJq6oezwbQ1EAR7Q1Ij8JwnNI",
    "name": "Автополив",
    "category": "Автополив",
    "formatted_address": "Çim Yağmurlama Sistemi Yüklenicisi · Myropilska St, 3+380 44 337 6873",
    "phone_number": "+380443376873",
    "source_url": "https://www.google.com/maps/place/%D0%90%D0%B2%D1%82%D0%BE%D0%BF%D0%BE%D0%BB%D0%B8%D0%B2/data=!4m7!3m6!1s0x40d4d006cf1eaaab:0xd29c70c28f480ded!8m2!3d50.4638401!4d30.6270239!16s%2Fg%2F11flzgv6g0!19sChIJq6oezwbQ1EAR7Q1Ij8JwnNI?authuser=0&hl=tr&rclk=1",
    "website_url": "https://kapli.kiev.ua/contact",
    "rating_text": "",
    "stars": null,
    "number_of_reviews": null,
    "price_level": "",
    "open_hours": "",
    "extraction_timestamp": "2025-06-08T03:39:02.104Z",
    "source_name": "google",
    "source_query": "Irrigation Equipment",
    "source_country": "UA",
    "country": "Ukraine",
    "state": "Kyivska oblast",
    "city": "Kryva Hora"
  },
  {
    "source_id": "ChIJv0aBRQBz00ARxmk5jAoolmM",
    "name": "Kar'yer Vydobuvannya Pisyuniv",
    "category": "Kar'yer Vydobuvannya Pisyuniv",
    "formatted_address": "5,0(1)",
    "phone_number": "",
    "source_url": "https://www.google.com/maps/place/Kar%27yer+Vydobuvannya+Pisyuniv/data=!4m7!3m6!1s0x40d37300458146bf:0x6396280a8c3969c6!8m2!3d49.6692459!4d30.4430626!16s%2Fg%2F11w_pxylr5!19sChIJv0aBRQBz00ARxmk5jAoolmM?authuser=0&hl=tr&rclk=1",
    "website_url": "",
    "rating_text": "5,0",
    "stars": null,
    "number_of_reviews": null,
    "price_level": "",
    "open_hours": "",
    "extraction_timestamp": "2025-06-08T03:39:02.104Z",
    "source_name": "google",
    "source_query": "Irrigation Equipment",
    "source_country": "UA",
    "country": "Ukraine",
    "state": "Kyivska oblast",
    "city": "Kryva Hora"
  },
  {
    "source_id": "ChIJ3fY-526bw0AREQd61gXWh_A",
    "name": "TerraTarsa Ukraine LLC",
    "category": "TerraTarsa Ukraine LLC",
    "formatted_address": "4,6(75)",
    "phone_number": "+380668900934",
    "source_url": "https://www.google.com/maps/place/TerraTarsa+Ukraine+LLC/data=!4m7!3m6!1s0x40c39b6ee73ef6dd:0xf087d605d67a0711!8m2!3d46.4126419!4d30.7248396!16s%2Fg%2F11cmp9scd1!19sChIJ3fY-526bw0AREQd61gXWh_A?authuser=0&hl=tr&rclk=1",
    "website_url": "http://www.terratarsa.com/",
    "rating_text": "4,6",
    "stars": null,
    "number_of_reviews": null,
    "price_level": "",
    "open_hours": "",
    "extraction_timestamp": "2025-06-08T03:39:02.104Z",
    "source_name": "google",
    "source_query": "Irrigation Equipment",
    "source_country": "UA",
    "country": "Ukraine",
    "state": "Kyivska oblast",
    "city": "Kryva Hora"
  },
  {
    "source_id": "ChIJq6oaaTXP1EAR5pHCQDF1cvI",
    "name": "Шланговая система",
    "category": "Шланговая система",
    "formatted_address": "Tarımsal Ekipman Tedarikçisi · Viktora Zabily St, 5+380 50 475 7524",
    "phone_number": "+380504757524",
    "source_url": "https://www.google.com/maps/place/%D0%A8%D0%BB%D0%B0%D0%BD%D0%B3%D0%BE%D0%B2%D0%B0%D1%8F+%D1%81%D0%B8%D1%81%D1%82%D0%B5%D0%BC%D0%B0/data=!4m7!3m6!1s0x40d4cf35691aaaab:0xf272753140c291e6!8m2!3d50.4002558!4d30.5160798!16s%2Fg%2F11h460vh5m!19sChIJq6oaaTXP1EAR5pHCQDF1cvI?authuser=0&hl=tr&rclk=1",
    "website_url": "",
    "rating_text": "",
    "stars": null,
    "number_of_reviews": null,
    "price_level": "",
    "open_hours": "",
    "extraction_timestamp": "2025-06-08T03:39:02.105Z",
    "source_name": "google",
    "source_query": "Irrigation Equipment",
    "source_country": "UA",
    "country": "Ukraine",
    "state": "Kyivska oblast",
    "city": "Kryva Hora"
  },
  {
    "source_id": "ChIJq6p6CjfK1EARzolAN1S96DY",
    "name": "Автоматический полив",
    "category": "Автоматический полив",
    "formatted_address": "Sondaj İşi Yüklenicisi · Vul. Kyyivsʹka, 4, Kyivska St, 4+380 44 241 8460",
    "phone_number": "+380442418460",
    "source_url": "https://www.google.com/maps/place/%D0%90%D0%B2%D1%82%D0%BE%D0%BC%D0%B0%D1%82%D0%B8%D1%87%D0%B5%D1%81%D0%BA%D0%B8%D0%B9+%D0%BF%D0%BE%D0%BB%D0%B8%D0%B2/data=!4m7!3m6!1s0x40d4ca370a7aaaab:0x36e8bd54374089ce!8m2!3d50.3902561!4d30.3535955!16s%2Fg%2F11hdy20ltj!19sChIJq6p6CjfK1EARzolAN1S96DY?authuser=0&hl=tr&rclk=1",
    "website_url": "http://aqua-basis.com.ua/ru/zadaite_nam_vopros_faq/comment-page-2/",
    "rating_text": "",
    "stars": null,
    "number_of_reviews": null,
    "price_level": "",
    "open_hours": "",
    "extraction_timestamp": "2025-06-08T03:39:02.105Z",
    "source_name": "google",
    "source_query": "Irrigation Equipment",
    "source_country": "UA",
    "country": "Ukraine",
    "state": "Kyivska oblast",
    "city": "Kryva Hora"
  },
  {
    "source_id": "ChIJb_7hK_3J1EARF_q8OVgIOkI",
    "name": "Prof-poliv",
    "category": "Prof-poliv",
    "formatted_address": "",
    "phone_number": "+380679563562",
    "source_url": "https://www.google.com/maps/place/Prof-poliv/data=!4m7!3m6!1s0x40d4c9fd2be1fe6f:0x423a085839bcfa17!8m2!3d48.7673154!4d31.1824374!16s%2Fg%2F11ngth6kgd!19sChIJb_7hK_3J1EARF_q8OVgIOkI?authuser=0&hl=tr&rclk=1",
    "website_url": "http://xn--b1alile.kiev.ua/",
    "rating_text": "",
    "stars": null,
    "number_of_reviews": null,
    "price_level": "",
    "open_hours": "",
    "extraction_timestamp": "2025-06-08T03:39:02.105Z",
    "source_name": "google",
    "source_query": "Irrigation Equipment",
    "source_country": "UA",
    "country": "Ukraine",
    "state": "Kyivska oblast",
    "city": "Kryva Hora"
  }
]
