[
  {
    "source_id": "ChIJ60XEpQbQ1EARVLf9IomIVYg",
    "name": "Poliv UA",
    "category": "Poliv UA",
    "formatted_address": "4,8(64)",
    "phone_number": "+380443379900",
    "source_url": "https://www.google.com/maps/place/Poliv+UA/data=!4m7!3m6!1s0x40d4d006a5c445eb:0x8855888922fdb754!8m2!3d50.4646434!4d30.6255633!16s%2Fg%2F11clsyjy7n!19sChIJ60XEpQbQ1EARVLf9IomIVYg?authuser=0&hl=tr&rclk=1",
    "website_url": "https://poliv.ua/",
    "rating_text": "4,8",
    "stars": null,
    "number_of_reviews": null,
    "price_level": "",
    "open_hours": "",
    "extraction_timestamp": "2025-06-08T03:25:21.015Z",
    "source_name": "google",
    "source_query": "Irrigation Equipment",
    "source_country": "UA",
    "country": "Ukraine",
    "state": "Kyivska oblast",
    "city": "Liutizh"
  },
  {
    "source_id": "ChIJYyU9lq_N1EARqoG8SYko8go",
    "name": "Лайф Гарден",
    "category": "Лайф Гарден",
    "formatted_address": "3,9(7)",
    "phone_number": "+380503719090",
    "source_url": "https://www.google.com/maps/place/%D0%9B%D0%B0%D0%B9%D1%84+%D0%93%D0%B0%D1%80%D0%B4%D0%B5%D0%BD/data=!4m7!3m6!1s0x40d4cdaf963d2563:0xaf2288949bc81aa!8m2!3d50.45748!4d30.3824706!16s%2Fg%2F11gr60b225!19sChIJYyU9lq_N1EARqoG8SYko8go?authuser=0&hl=tr&rclk=1",
    "website_url": "",
    "rating_text": "3,9",
    "stars": null,
    "number_of_reviews": null,
    "price_level": "",
    "open_hours": "",
    "extraction_timestamp": "2025-06-08T03:25:21.016Z",
    "source_name": "google",
    "source_query": "Irrigation Equipment",
    "source_country": "UA",
    "country": "Ukraine",
    "state": "Kyivska oblast",
    "city": "Liutizh"
  },
  {
    "source_id": "ChIJLUv-3GXO1EARWBQ3FieEWZg",
    "name": "ЭЛИТ-ЭДЕЛЬВЕЙС ООО",
    "category": "ЭЛИТ-ЭДЕЛЬВЕЙС ООО",
    "formatted_address": "5,0(24)",
    "phone_number": "+380445010735",
    "source_url": "https://www.google.com/maps/place/%D0%AD%D0%9B%D0%98%D0%A2-%D0%AD%D0%94%D0%95%D0%9B%D0%AC%D0%92%D0%95%D0%99%D0%A1+%D0%9E%D0%9E%D0%9E/data=!4m7!3m6!1s0x40d4ce65dcfe4b2d:0x9859842716371458!8m2!3d50.4586378!4d30.4987972!16s%2Fg%2F11xb4xf4q!19sChIJLUv-3GXO1EARWBQ3FieEWZg?authuser=0&hl=tr&rclk=1",
    "website_url": "http://hunter.ua/",
    "rating_text": "5,0",
    "stars": null,
    "number_of_reviews": null,
    "price_level": "",
    "open_hours": "",
    "extraction_timestamp": "2025-06-08T03:25:21.017Z",
    "source_name": "google",
    "source_query": "Irrigation Equipment",
    "source_country": "UA",
    "country": "Ukraine",
    "state": "Kyivska oblast",
    "city": "Liutizh"
  },
  {
    "source_id": "ChIJ-2Xy75MpK0cR3zVpc16B2fk",
    "name": "Smak",
    "category": "Smak",
    "formatted_address": "4,7(78)",
    "phone_number": "",
    "source_url": "https://www.google.com/maps/place/Smak/data=!4m7!3m6!1s0x472b2993eff265fb:0xf9d9815e736935df!8m2!3d50.68058!4d30.3914657!16s%2Fg%2F11f0_chy0h!19sChIJ-2Xy75MpK0cR3zVpc16B2fk?authuser=0&hl=tr&rclk=1",
    "website_url": "https://www.facebook.com/CMAKLTZ/",
    "rating_text": "4,7",
    "stars": null,
    "number_of_reviews": null,
    "price_level": "",
    "open_hours": "",
    "extraction_timestamp": "2025-06-08T03:25:21.018Z",
    "source_name": "google",
    "source_query": "Irrigation Equipment",
    "source_country": "UA",
    "country": "Ukraine",
    "state": "Kyivska oblast",
    "city": "Liutizh"
  },
  {
    "source_id": "ChIJlU__bqXP1EARGCFwEGWv2mE",
    "name": "Elicit Plant Ukraine",
    "category": "Elicit Plant Ukraine",
    "formatted_address": "5,0(6)",
    "phone_number": "+380983755615",
    "source_url": "https://www.google.com/maps/place/Elicit+Plant+Ukraine/data=!4m7!3m6!1s0x40d4cfa56eff4f95:0x61daaf6510702118!8m2!3d50.4624447!4d30.5084338!16s%2Fg%2F11vbyp9pj5!19sChIJlU__bqXP1EARGCFwEGWv2mE?authuser=0&hl=tr&rclk=1",
    "website_url": "https://www.elicit-plant.com/ua",
    "rating_text": "5,0",
    "stars": null,
    "number_of_reviews": null,
    "price_level": "",
    "open_hours": "",
    "extraction_timestamp": "2025-06-08T03:25:21.019Z",
    "source_name": "google",
    "source_query": "Irrigation Equipment",
    "source_country": "UA",
    "country": "Ukraine",
    "state": "Kyivska oblast",
    "city": "Liutizh"
  },
  {
    "source_id": "ChIJPTyQTespK0cRLQCphLuFhHQ",
    "name": "Fora",
    "category": "Fora",
    "formatted_address": "4,4(201)",
    "phone_number": "+380800301230",
    "source_url": "https://www.google.com/maps/place/Fora/data=!4m7!3m6!1s0x472b29eb4d903c3d:0x748485bb84a9002d!8m2!3d50.684181!4d30.3950814!16s%2Fg%2F11hd560chy!19sChIJPTyQTespK0cRLQCphLuFhHQ?authuser=0&hl=tr&rclk=1",
    "website_url": "https://fora.ua/",
    "rating_text": "4,4",
    "stars": null,
    "number_of_reviews": null,
    "price_level": "",
    "open_hours": "",
    "extraction_timestamp": "2025-06-08T03:25:21.020Z",
    "source_name": "google",
    "source_query": "Irrigation Equipment",
    "source_country": "UA",
    "country": "Ukraine",
    "state": "Kyivska oblast",
    "city": "Liutizh"
  },
  {
    "source_id": "ChIJiZ8RuMEpK0cRy9aHJ1boytc",
    "name": "Produktovyy Mahazyn \"Eva\"",
    "category": "Produktovyy Mahazyn \"Eva\"",
    "formatted_address": "4,2(36)",
    "phone_number": "+380502517484",
    "source_url": "https://www.google.com/maps/place/Produktovyy+Mahazyn+%22Eva%22/data=!4m7!3m6!1s0x472b29c1b8119f89:0xd7cae8562787d6cb!8m2!3d50.6827318!4d30.3933904!16s%2Fg%2F11fy2px75w!19sChIJiZ8RuMEpK0cRy9aHJ1boytc?authuser=0&hl=tr&rclk=1",
    "website_url": "",
    "rating_text": "4,2",
    "stars": null,
    "number_of_reviews": null,
    "price_level": "",
    "open_hours": "",
    "extraction_timestamp": "2025-06-08T03:25:21.021Z",
    "source_name": "google",
    "source_query": "Irrigation Equipment",
    "source_country": "UA",
    "country": "Ukraine",
    "state": "Kyivska oblast",
    "city": "Liutizh"
  },
  {
    "source_id": "ChIJq1OAQEXF1EARIAyoFByGrW4",
    "name": "Ahrarna Industrialʹna Kompaniya",
    "category": "Ahrarna Industrialʹna Kompaniya",
    "formatted_address": "4,8(12)",
    "phone_number": "+380504444184",
    "source_url": "https://www.google.com/maps/place/Ahrarna+Industrial%CA%B9na+Kompaniya/data=!4m7!3m6!1s0x40d4c545408053ab:0x6ead861c14a80c20!8m2!3d50.4090678!4d30.6121652!16s%2Fg%2F1tdk3pn4!19sChIJq1OAQEXF1EARIAyoFByGrW4?authuser=0&hl=tr&rclk=1",
    "website_url": "https://aico.ua/",
    "rating_text": "4,8",
    "stars": null,
    "number_of_reviews": null,
    "price_level": "",
    "open_hours": "",
    "extraction_timestamp": "2025-06-08T03:25:21.022Z",
    "source_name": "google",
    "source_query": "Irrigation Equipment",
    "source_country": "UA",
    "country": "Ukraine",
    "state": "Kyivska oblast",
    "city": "Liutizh"
  },
  {
    "source_id": "ChIJCTstxyIpK0cRIsU7IueQULc",
    "name": "ROZETKA + Justin",
    "category": "ROZETKA + Justin",
    "formatted_address": "3,0(2)",
    "phone_number": "",
    "source_url": "https://www.google.com/maps/place/ROZETKA+%2B+Justin/data=!4m7!3m6!1s0x472b2922c72d3b09:0xb75090e7223bc522!8m2!3d50.6847142!4d30.3948469!16s%2Fg%2F11r71xc5f_!19sChIJCTstxyIpK0cRIsU7IueQULc?authuser=0&hl=tr&rclk=1",
    "website_url": "https://rozetka.com.ua/",
    "rating_text": "3,0",
    "stars": null,
    "number_of_reviews": null,
    "price_level": "",
    "open_hours": "",
    "extraction_timestamp": "2025-06-08T03:25:21.022Z",
    "source_name": "google",
    "source_query": "Irrigation Equipment",
    "source_country": "UA",
    "country": "Ukraine",
    "state": "Kyivska oblast",
    "city": "Liutizh"
  },
  {
    "source_id": "ChIJh-ipgtkpK0cR001o0NEsVGw",
    "name": "Магазин «Смачний Кошик»",
    "category": "Магазин «Смачний Кошик»",
    "formatted_address": "5,0(7)",
    "phone_number": "+380931218686",
    "source_url": "https://www.google.com/maps/place/%D0%9C%D0%B0%D0%B3%D0%B0%D0%B7%D0%B8%D0%BD+%C2%AB%D0%A1%D0%BC%D0%B0%D1%87%D0%BD%D0%B8%D0%B9+%D0%9A%D0%BE%D1%88%D0%B8%D0%BA%C2%BB/data=!4m7!3m6!1s0x472b29d982a9e887:0x6c542cd1d0684dd3!8m2!3d50.6852706!4d30.3944837!16s%2Fg%2F11vht7zngz!19sChIJh-ipgtkpK0cR001o0NEsVGw?authuser=0&hl=tr&rclk=1",
    "website_url": "https://boox.com.ua/",
    "rating_text": "5,0",
    "stars": null,
    "number_of_reviews": null,
    "price_level": "",
    "open_hours": "",
    "extraction_timestamp": "2025-06-08T03:25:21.023Z",
    "source_name": "google",
    "source_query": "Irrigation Equipment",
    "source_country": "UA",
    "country": "Ukraine",
    "state": "Kyivska oblast",
    "city": "Liutizh"
  },
  {
    "source_id": "ChIJN9hYPd4pK0cRvTMh3AXoe0w",
    "name": "Zookhata",
    "category": "Zookhata",
    "formatted_address": "4,9(27)",
    "phone_number": "+380677516554",
    "source_url": "https://www.google.com/maps/place/Zookhata/data=!4m7!3m6!1s0x472b29de3d58d837:0x4c7be805dc2133bd!8m2!3d50.6838356!4d30.3953393!16s%2Fg%2F11h5rhx1pl!19sChIJN9hYPd4pK0cRvTMh3AXoe0w?authuser=0&hl=tr&rclk=1",
    "website_url": "https://www.facebook.com/zoohatalyutezh",
    "rating_text": "4,9",
    "stars": null,
    "number_of_reviews": null,
    "price_level": "",
    "open_hours": "",
    "extraction_timestamp": "2025-06-08T03:25:21.025Z",
    "source_name": "google",
    "source_query": "Irrigation Equipment",
    "source_country": "UA",
    "country": "Ukraine",
    "state": "Kyivska oblast",
    "city": "Liutizh"
  },
  {
    "source_id": "ChIJq6p6ek3J1EAR_QyV4w95Pkw",
    "name": "Системы полива",
    "category": "Системы полива",
    "formatted_address": "Çim Yağmurlama Sistemi Yüklenicisi · Zhylianska St, 48/50+380 67 190 9989",
    "phone_number": "+380671909989",
    "source_url": "https://www.google.com/maps/place/%D0%A1%D0%B8%D1%81%D1%82%D0%B5%D0%BC%D1%8B+%D0%BF%D0%BE%D0%BB%D0%B8%D0%B2%D0%B0/data=!4m7!3m6!1s0x40d4c94d7a7aaaab:0x4c3e790fe3950cfd!8m2!3d50.434722!4d30.5063037!16s%2Fg%2F11fp8ykcbj!19sChIJq6p6ek3J1EAR_QyV4w95Pkw?authuser=0&hl=tr&rclk=1",
    "website_url": "https://irrigation.kiev.ua/",
    "rating_text": "",
    "stars": null,
    "number_of_reviews": null,
    "price_level": "",
    "open_hours": "",
    "extraction_timestamp": "2025-06-08T03:25:21.026Z",
    "source_name": "google",
    "source_query": "Irrigation Equipment",
    "source_country": "UA",
    "country": "Ukraine",
    "state": "Kyivska oblast",
    "city": "Liutizh"
  },
  {
    "source_id": "ChIJq6p6ek3J1EAR_uPnwIFdwFY",
    "name": "Системы полива",
    "category": "Системы полива",
    "formatted_address": "Çim Yağmurlama Sistemi Yüklenicisi · Volynska St, 48/50+380 67 190 9989",
    "phone_number": "+380671909989",
    "source_url": "https://www.google.com/maps/place/%D0%A1%D0%B8%D1%81%D1%82%D0%B5%D0%BC%D1%8B+%D0%BF%D0%BE%D0%BB%D0%B8%D0%B2%D0%B0/data=!4m7!3m6!1s0x40d4c94d7a7aaaab:0x56c05d81c0e7e3fe!8m2!3d50.4177962!4d30.4415501!16s%2Fg%2F11hys__3kz!19sChIJq6p6ek3J1EAR_uPnwIFdwFY?authuser=0&hl=tr&rclk=1",
    "website_url": "https://irrigation.kiev.ua/",
    "rating_text": "",
    "stars": null,
    "number_of_reviews": null,
    "price_level": "",
    "open_hours": "",
    "extraction_timestamp": "2025-06-08T03:25:21.026Z",
    "source_name": "google",
    "source_query": "Irrigation Equipment",
    "source_country": "UA",
    "country": "Ukraine",
    "state": "Kyivska oblast",
    "city": "Liutizh"
  },
  {
    "source_id": "ChIJWYqRA47N1EARkkE67r70qwg",
    "name": "Автополив",
    "category": "Автополив",
    "formatted_address": "Çim Yağmurlama Sistemi Yüklenicisi · Kyrylivska St, 160а+380 44 362 8781",
    "phone_number": "+380443628781",
    "source_url": "https://www.google.com/maps/place/%D0%90%D0%B2%D1%82%D0%BE%D0%BF%D0%BE%D0%BB%D0%B8%D0%B2/data=!4m7!3m6!1s0x40d4cd8e03918a59:0x8abf4beee3a4192!8m2!3d50.4942658!4d30.4620993!16s%2Fg%2F11j0jl5tks!19sChIJWYqRA47N1EARkkE67r70qwg?authuser=0&hl=tr&rclk=1",
    "website_url": "http://polivaka.com.ua/kontakty/",
    "rating_text": "",
    "stars": null,
    "number_of_reviews": null,
    "price_level": "",
    "open_hours": "",
    "extraction_timestamp": "2025-06-08T03:25:21.027Z",
    "source_name": "google",
    "source_query": "Irrigation Equipment",
    "source_country": "UA",
    "country": "Ukraine",
    "state": "Kyivska oblast",
    "city": "Liutizh"
  },
  {
    "source_id": "ChIJnWwXYAApK0cRNFHvUVidstc",
    "name": "I LOVE IT",
    "category": "I LOVE IT",
    "formatted_address": "5,0(22)",
    "phone_number": "+380931864346",
    "source_url": "https://www.google.com/maps/place/I+LOVE+IT/data=!4m7!3m6!1s0x472b290060176c9d:0xd7b29d5851ef5134!8m2!3d50.6849862!4d30.3947024!16s%2Fg%2F11lczjdyvs!19sChIJnWwXYAApK0cRNFHvUVidstc?authuser=0&hl=tr&rclk=1",
    "website_url": "https://www.instagram.com/it_i_love_it?igsh=MzRlODBiNWFlZA==",
    "rating_text": "5,0",
    "stars": null,
    "number_of_reviews": null,
    "price_level": "",
    "open_hours": "",
    "extraction_timestamp": "2025-06-08T03:25:21.028Z",
    "source_name": "google",
    "source_query": "Irrigation Equipment",
    "source_country": "UA",
    "country": "Ukraine",
    "state": "Kyivska oblast",
    "city": "Liutizh"
  },
  {
    "source_id": "ChIJG-U9_WMpK0cRkNQRsTPL2gE",
    "name": "Аптека\" Турбота Плюс\"",
    "category": "Аптека\" Турбота Плюс\"",
    "formatted_address": "5,0(1)",
    "phone_number": "+380966049283",
    "source_url": "https://www.google.com/maps/place/%D0%90%D0%BF%D1%82%D0%B5%D0%BA%D0%B0%22+%D0%A2%D1%83%D1%80%D0%B1%D0%BE%D1%82%D0%B0+%D0%9F%D0%BB%D1%8E%D1%81%22/data=!4m7!3m6!1s0x472b2963fd3de51b:0x1dacb33b111d490!8m2!3d50.683095!4d30.392438!16s%2Fg%2F11qf__dxql!19sChIJG-U9_WMpK0cRkNQRsTPL2gE?authuser=0&hl=tr&rclk=1",
    "website_url": "",
    "rating_text": "5,0",
    "stars": null,
    "number_of_reviews": null,
    "price_level": "",
    "open_hours": "",
    "extraction_timestamp": "2025-06-08T03:25:21.029Z",
    "source_name": "google",
    "source_query": "Irrigation Equipment",
    "source_country": "UA",
    "country": "Ukraine",
    "state": "Kyivska oblast",
    "city": "Liutizh"
  },
  {
    "source_id": "ChIJb_7hK_3J1EARF_q8OVgIOkI",
    "name": "Prof-poliv",
    "category": "Prof-poliv",
    "formatted_address": "",
    "phone_number": "+380679563562",
    "source_url": "https://www.google.com/maps/place/Prof-poliv/data=!4m7!3m6!1s0x40d4c9fd2be1fe6f:0x423a085839bcfa17!8m2!3d48.7673154!4d31.1824374!16s%2Fg%2F11ngth6kgd!19sChIJb_7hK_3J1EARF_q8OVgIOkI?authuser=0&hl=tr&rclk=1",
    "website_url": "http://xn--b1alile.kiev.ua/",
    "rating_text": "",
    "stars": null,
    "number_of_reviews": null,
    "price_level": "",
    "open_hours": "",
    "extraction_timestamp": "2025-06-08T03:25:21.030Z",
    "source_name": "google",
    "source_query": "Irrigation Equipment",
    "source_country": "UA",
    "country": "Ukraine",
    "state": "Kyivska oblast",
    "city": "Liutizh"
  }
]
