[
  {
    "source_id": "ChIJ8RRuLtxAK0cR76pU715VR2E",
    "name": "Construction Yard",
    "category": "Construction Yard",
    "formatted_address": "4,2(140)",
    "phone_number": "+380987770022",
    "source_url": "https://www.google.com/maps/place/Construction+Yard/data=!4m7!3m6!1s0x472b40dc2e6e14f1:0x6147555eef54aaef!8m2!3d50.4671664!4d29.8199518!16s%2Fg%2F1hm1zlmt0!19sChIJ8RRuLtxAK0cR76pU715VR2E?authuser=0&hl=tr&rclk=1",
    "website_url": "",
    "rating_text": "4,2",
    "stars": null,
    "number_of_reviews": null,
    "price_level": "",
    "open_hours": "",
    "extraction_timestamp": "2025-06-08T03:38:13.922Z",
    "source_name": "google",
    "source_query": "Irrigation Equipment",
    "source_country": "UA",
    "country": "Ukraine",
    "state": "Kyivska oblast",
    "city": "Makariv Raion"
  },
  {
    "source_id": "ChIJP3zRCzdBK0cR-fNw0EQh_BA",
    "name": "Budtsentr",
    "category": "Budtsentr",
    "formatted_address": "4,2(591)",
    "phone_number": "+380663595186",
    "source_url": "https://www.google.com/maps/place/Budtsentr/data=!4m7!3m6!1s0x472b41370bd17c3f:0x10fc2144d070f3f9!8m2!3d50.4441795!4d29.8102531!16s%2Fg%2F119vqbh38!19sChIJP3zRCzdBK0cR-fNw0EQh_BA?authuser=0&hl=tr&rclk=1",
    "website_url": "",
    "rating_text": "4,2",
    "stars": null,
    "number_of_reviews": null,
    "price_level": "",
    "open_hours": "",
    "extraction_timestamp": "2025-06-08T03:38:13.924Z",
    "source_name": "google",
    "source_query": "Irrigation Equipment",
    "source_country": "UA",
    "country": "Ukraine",
    "state": "Kyivska oblast",
    "city": "Makariv Raion"
  },
  {
    "source_id": "ChIJN2BtvgC31EARxYICGhfXx5w",
    "name": "Panda - Pumping Equipment",
    "category": "Panda - Pumping Equipment",
    "formatted_address": "4,8(37)",
    "phone_number": "+380507446666",
    "source_url": "https://www.google.com/maps/place/Panda+-+Pumping+Equipment/data=!4m7!3m6!1s0x40d4b700be6d6037:0x9cc7d7171a0282c5!8m2!3d50.3034942!4d30.3700837!16s%2Fg%2F11cm410w_8!19sChIJN2BtvgC31EARxYICGhfXx5w?authuser=0&hl=tr&rclk=1",
    "website_url": "",
    "rating_text": "4,8",
    "stars": null,
    "number_of_reviews": null,
    "price_level": "",
    "open_hours": "",
    "extraction_timestamp": "2025-06-08T03:38:13.925Z",
    "source_name": "google",
    "source_query": "Irrigation Equipment",
    "source_country": "UA",
    "country": "Ukraine",
    "state": "Kyivska oblast",
    "city": "Makariv Raion"
  },
  {
    "source_id": "ChIJbYmo6OM1K0cRNIlxsSuJ_Mc",
    "name": "Sadovyy Tsentr \"Klub Roslyn\"",
    "category": "Sadovyy Tsentr \"Klub Roslyn\"",
    "formatted_address": "4,8(57)",
    "phone_number": "+380979551717",
    "source_url": "https://www.google.com/maps/place/Sadovyy+Tsentr+%22Klub+Roslyn%22/data=!4m7!3m6!1s0x472b35e3e8a8896d:0xc7fc892bb1718934!8m2!3d50.44044!4d30.1602922!16s%2Fg%2F11qpphdsy1!19sChIJbYmo6OM1K0cRNIlxsSuJ_Mc?authuser=0&hl=tr&rclk=1",
    "website_url": "",
    "rating_text": "4,8",
    "stars": null,
    "number_of_reviews": null,
    "price_level": "",
    "open_hours": "",
    "extraction_timestamp": "2025-06-08T03:38:13.927Z",
    "source_name": "google",
    "source_query": "Irrigation Equipment",
    "source_country": "UA",
    "country": "Ukraine",
    "state": "Kyivska oblast",
    "city": "Makariv Raion"
  },
  {
    "source_id": "ChIJV0Vpbgmvc0ERLboN6-FJL0g",
    "name": "ATS",
    "category": "ATS",
    "formatted_address": "4,5(119)",
    "phone_number": "+380442902900",
    "source_url": "https://www.google.com/maps/place/ATS/data=!4m7!3m6!1s0x4173af096e694557:0x482f49e1eb0dba2d!8m2!3d50.2173169!4d30.2522621!16s%2Fg%2F11b5wknq5d!19sChIJV0Vpbgmvc0ERLboN6-FJL0g?authuser=0&hl=tr&rclk=1",
    "website_url": "",
    "rating_text": "4,5",
    "stars": null,
    "number_of_reviews": null,
    "price_level": "",
    "open_hours": "",
    "extraction_timestamp": "2025-06-08T03:38:13.928Z",
    "source_name": "google",
    "source_query": "Irrigation Equipment",
    "source_country": "UA",
    "country": "Ukraine",
    "state": "Kyivska oblast",
    "city": "Makariv Raion"
  },
  {
    "source_id": "ChIJNco8ObwxK0cRXdz4BX-jfWE",
    "name": "Hunter/Fiskars/Dlf/Rehau/Cellfast/Syngenta-\"Poli-Valko\"",
    "category": "Hunter/Fiskars/Dlf/Rehau/Cellfast/Syngenta-\"Poli-Valko\"",
    "formatted_address": "4,6(22)",
    "phone_number": "",
    "source_url": "https://www.google.com/maps/place/Hunter%2FFiskars%2FDlf%2FRehau%2FCellfast%2FSyngenta-%22Poli-Valko%22/data=!4m7!3m6!1s0x472b31bc393cca35:0x617da37f05f8dc5d!8m2!3d50.5451903!4d30.1934992!16s%2Fg%2F11h7cwlxj8!19sChIJNco8ObwxK0cRXdz4BX-jfWE?authuser=0&hl=tr&rclk=1",
    "website_url": "",
    "rating_text": "4,6",
    "stars": null,
    "number_of_reviews": null,
    "price_level": "",
    "open_hours": "",
    "extraction_timestamp": "2025-06-08T03:38:13.929Z",
    "source_name": "google",
    "source_query": "Irrigation Equipment",
    "source_country": "UA",
    "country": "Ukraine",
    "state": "Kyivska oblast",
    "city": "Makariv Raion"
  },
  {
    "source_id": "ChIJYyU9lq_N1EARqoG8SYko8go",
    "name": "Лайф Гарден",
    "category": "Лайф Гарден",
    "formatted_address": "3,9(7)",
    "phone_number": "+380503719090",
    "source_url": "https://www.google.com/maps/place/%D0%9B%D0%B0%D0%B9%D1%84+%D0%93%D0%B0%D1%80%D0%B4%D0%B5%D0%BD/data=!4m7!3m6!1s0x40d4cdaf963d2563:0xaf2288949bc81aa!8m2!3d50.45748!4d30.3824706!16s%2Fg%2F11gr60b225!19sChIJYyU9lq_N1EARqoG8SYko8go?authuser=0&hl=tr&rclk=1",
    "website_url": "",
    "rating_text": "3,9",
    "stars": null,
    "number_of_reviews": null,
    "price_level": "",
    "open_hours": "",
    "extraction_timestamp": "2025-06-08T03:38:13.930Z",
    "source_name": "google",
    "source_query": "Irrigation Equipment",
    "source_country": "UA",
    "country": "Ukraine",
    "state": "Kyivska oblast",
    "city": "Makariv Raion"
  },
  {
    "source_id": "ChIJRyN16CBBK0cRfC_Qi0scxls",
    "name": "Mahazyn \"Rubin\"",
    "category": "Mahazyn \"Rubin\"",
    "formatted_address": "4,2(292)",
    "phone_number": "",
    "source_url": "https://www.google.com/maps/place/Mahazyn+%22Rubin%22/data=!4m7!3m6!1s0x472b4120e8752347:0x5bc61c4b8bd02f7c!8m2!3d50.4605495!4d29.8138268!16s%2Fg%2F11f121vnr_!19sChIJRyN16CBBK0cRfC_Qi0scxls?authuser=0&hl=tr&rclk=1",
    "website_url": "",
    "rating_text": "4,2",
    "stars": null,
    "number_of_reviews": null,
    "price_level": "",
    "open_hours": "",
    "extraction_timestamp": "2025-06-08T03:38:13.931Z",
    "source_name": "google",
    "source_query": "Irrigation Equipment",
    "source_country": "UA",
    "country": "Ukraine",
    "state": "Kyivska oblast",
    "city": "Makariv Raion"
  },
  {
    "source_id": "ChIJx3FKqJ7b1EARloNJ-VTjo8A",
    "name": "Mahazyn Santekhniky Vodomet Makariv",
    "category": "Mahazyn Santekhniky Vodomet Makariv",
    "formatted_address": "3,0(2)",
    "phone_number": "+380987881907",
    "source_url": "https://www.google.com/maps/place/Mahazyn+Santekhniky+Vodomet+Makariv/data=!4m7!3m6!1s0x40d4db9ea84a71c7:0xc0a3e354f9498396!8m2!3d50.4445089!4d29.8045651!16s%2Fg%2F11v9_jwhxl!19sChIJx3FKqJ7b1EARloNJ-VTjo8A?authuser=0&hl=tr&rclk=1",
    "website_url": "",
    "rating_text": "3,0",
    "stars": null,
    "number_of_reviews": null,
    "price_level": "",
    "open_hours": "",
    "extraction_timestamp": "2025-06-08T03:38:13.932Z",
    "source_name": "google",
    "source_query": "Irrigation Equipment",
    "source_country": "UA",
    "country": "Ukraine",
    "state": "Kyivska oblast",
    "city": "Makariv Raion"
  },
  {
    "source_id": "ChIJ60XEpQbQ1EARVLf9IomIVYg",
    "name": "Poliv UA",
    "category": "Poliv UA",
    "formatted_address": "4,8(64)",
    "phone_number": "+380443379900",
    "source_url": "https://www.google.com/maps/place/Poliv+UA/data=!4m7!3m6!1s0x40d4d006a5c445eb:0x8855888922fdb754!8m2!3d50.4646434!4d30.6255633!16s%2Fg%2F11clsyjy7n!19sChIJ60XEpQbQ1EARVLf9IomIVYg?authuser=0&hl=tr&rclk=1",
    "website_url": "",
    "rating_text": "4,8",
    "stars": null,
    "number_of_reviews": null,
    "price_level": "",
    "open_hours": "",
    "extraction_timestamp": "2025-06-08T03:38:13.933Z",
    "source_name": "google",
    "source_query": "Irrigation Equipment",
    "source_country": "UA",
    "country": "Ukraine",
    "state": "Kyivska oblast",
    "city": "Makariv Raion"
  },
  {
    "source_id": "ChIJp4Ponxk2K0cRN32KuTNvTSw",
    "name": "Garden Center Lizgard",
    "category": "Garden Center Lizgard",
    "formatted_address": "4,1(534)",
    "phone_number": "+380672091731",
    "source_url": "https://www.google.com/maps/place/Garden+Center+Lizgard/data=!4m7!3m6!1s0x472b36199fe883a7:0x2c4d6f33b98a7d37!8m2!3d50.4330307!4d30.0640233!16s%2Fg%2F11b6hr560d!19sChIJp4Ponxk2K0cRN32KuTNvTSw?authuser=0&hl=tr&rclk=1",
    "website_url": "",
    "rating_text": "4,1",
    "stars": null,
    "number_of_reviews": null,
    "price_level": "",
    "open_hours": "",
    "extraction_timestamp": "2025-06-08T03:38:13.934Z",
    "source_name": "google",
    "source_query": "Irrigation Equipment",
    "source_country": "UA",
    "country": "Ukraine",
    "state": "Kyivska oblast",
    "city": "Makariv Raion"
  },
  {
    "source_id": "ChIJ3ZyU0Rg2K0cR-4JMTio7Wys",
    "name": "Hardware store Minibudmarket",
    "category": "Hardware store Minibudmarket",
    "formatted_address": "4,6(212)",
    "phone_number": "+380964295797",
    "source_url": "https://www.google.com/maps/place/Hardware+store+Minibudmarket/data=!4m7!3m6!1s0x472b3618d1949cdd:0x2b5b3b2a4e4c82fb!8m2!3d50.4352606!4d30.0924705!16s%2Fg%2F11bzrpc9z_!19sChIJ3ZyU0Rg2K0cR-4JMTio7Wys?authuser=0&hl=tr&rclk=1",
    "website_url": "",
    "rating_text": "4,6",
    "stars": null,
    "number_of_reviews": null,
    "price_level": "",
    "open_hours": "",
    "extraction_timestamp": "2025-06-08T03:38:13.935Z",
    "source_name": "google",
    "source_query": "Irrigation Equipment",
    "source_country": "UA",
    "country": "Ukraine",
    "state": "Kyivska oblast",
    "city": "Makariv Raion"
  },
  {
    "source_id": "ChIJT5lc821GK0cRJCn--SVNIeg",
    "name": "Ruukki Україна",
    "category": "Ruukki Україна",
    "formatted_address": "4,2(54)",
    "phone_number": "+380443644545",
    "source_url": "https://www.google.com/maps/place/Ruukki+%D0%A3%D0%BA%D1%80%D0%B0%D1%97%D0%BD%D0%B0/data=!4m7!3m6!1s0x472b466df35c994f:0xe8214d25f9fe2924!8m2!3d50.42185!4d29.90474!16s%2Fg%2F11xc65vfg!19sChIJT5lc821GK0cRJCn--SVNIeg?authuser=0&hl=tr&rclk=1",
    "website_url": "",
    "rating_text": "4,2",
    "stars": null,
    "number_of_reviews": null,
    "price_level": "",
    "open_hours": "",
    "extraction_timestamp": "2025-06-08T03:38:13.936Z",
    "source_name": "google",
    "source_query": "Irrigation Equipment",
    "source_country": "UA",
    "country": "Ukraine",
    "state": "Kyivska oblast",
    "city": "Makariv Raion"
  },
  {
    "source_id": "ChIJSVSuQvVJK0cRF5SMYldhHfc",
    "name": "Компанія \"TRIANNA\"",
    "category": "Компанія \"TRIANNA\"",
    "formatted_address": "4,6(25)",
    "phone_number": "+380965528555",
    "source_url": "https://www.google.com/maps/place/%D0%9A%D0%BE%D0%BC%D0%BF%D0%B0%D0%BD%D1%96%D1%8F+%22TRIANNA%22/data=!4m7!3m6!1s0x472b49f542ae5449:0xf71d6157628c9417!8m2!3d50.3990177!4d30.0925215!16s%2Fg%2F11b5wlsf_z!19sChIJSVSuQvVJK0cRF5SMYldhHfc?authuser=0&hl=tr&rclk=1",
    "website_url": "",
    "rating_text": "4,6",
    "stars": null,
    "number_of_reviews": null,
    "price_level": "",
    "open_hours": "",
    "extraction_timestamp": "2025-06-08T03:38:13.937Z",
    "source_name": "google",
    "source_query": "Irrigation Equipment",
    "source_country": "UA",
    "country": "Ukraine",
    "state": "Kyivska oblast",
    "city": "Makariv Raion"
  },
  {
    "source_id": "ChIJx4QoM8-x1EAR1hPrdH0RuCg",
    "name": "Tov \"Mehaplast-Komplekt\"",
    "category": "Tov \"Mehaplast-Komplekt\"",
    "formatted_address": "5,0(1)",
    "phone_number": "+380675406760",
    "source_url": "https://www.google.com/maps/place/Tov+%22Mehaplast-Komplekt%22/data=!4m7!3m6!1s0x40d4b1cf332884c7:0x28b8117d74eb13d6!8m2!3d50.2169225!4d30.2863188!16s%2Fg%2F11qqynhvln!19sChIJx4QoM8-x1EAR1hPrdH0RuCg?authuser=0&hl=tr&rclk=1",
    "website_url": "",
    "rating_text": "5,0",
    "stars": null,
    "number_of_reviews": null,
    "price_level": "",
    "open_hours": "",
    "extraction_timestamp": "2025-06-08T03:38:13.938Z",
    "source_name": "google",
    "source_query": "Irrigation Equipment",
    "source_country": "UA",
    "country": "Ukraine",
    "state": "Kyivska oblast",
    "city": "Makariv Raion"
  },
  {
    "source_id": "ChIJaaGvOTpBK0cRyQUM9UdHJk8",
    "name": "Universam",
    "category": "Universam",
    "formatted_address": "4,2(209)",
    "phone_number": "+380950688777",
    "source_url": "https://www.google.com/maps/place/Universam/data=!4m7!3m6!1s0x472b413a39afa169:0x4f264747f50c05c9!8m2!3d50.4455058!4d29.8060499!16s%2Fg%2F11c1rt5rrl!19sChIJaaGvOTpBK0cRyQUM9UdHJk8?authuser=0&hl=tr&rclk=1",
    "website_url": "",
    "rating_text": "4,2",
    "stars": null,
    "number_of_reviews": null,
    "price_level": "",
    "open_hours": "",
    "extraction_timestamp": "2025-06-08T03:38:13.939Z",
    "source_name": "google",
    "source_query": "Irrigation Equipment",
    "source_country": "UA",
    "country": "Ukraine",
    "state": "Kyivska oblast",
    "city": "Makariv Raion"
  },
  {
    "source_id": "ChIJQ0VMW7m31EARSHbSPpVNOig",
    "name": "Burinnya Sverdlovyn \"Dzherelo\" - Burova Kompaniya",
    "category": "Burinnya Sverdlovyn \"Dzherelo\" - Burova Kompaniya",
    "formatted_address": "4,1(15)",
    "phone_number": "+380962584141",
    "source_url": "https://www.google.com/maps/place/Burinnya+Sverdlovyn+%22Dzherelo%22+-+Burova+Kompaniya/data=!4m7!3m6!1s0x40d4b7b95b4c4543:0x283a4d953ed27648!8m2!3d50.3273673!4d30.4417798!16s%2Fg%2F11ght1mkzj!19sChIJQ0VMW7m31EARSHbSPpVNOig?authuser=0&hl=tr&rclk=1",
    "website_url": "",
    "rating_text": "4,1",
    "stars": null,
    "number_of_reviews": null,
    "price_level": "",
    "open_hours": "",
    "extraction_timestamp": "2025-06-08T03:38:13.940Z",
    "source_name": "google",
    "source_query": "Irrigation Equipment",
    "source_country": "UA",
    "country": "Ukraine",
    "state": "Kyivska oblast",
    "city": "Makariv Raion"
  },
  {
    "source_id": "ChIJ6dFlK5xPK0cREmxVpwO2lfU",
    "name": "Mahazyn Budivelʹnyy Market",
    "category": "Mahazyn Budivelʹnyy Market",
    "formatted_address": "4,6(38)",
    "phone_number": "",
    "source_url": "https://www.google.com/maps/place/Mahazyn+Budivel%CA%B9nyy+Market/data=!4m7!3m6!1s0x472b4f9c2b65d1e9:0xf595b603a7556c12!8m2!3d50.3545669!4d30.0133466!16s%2Fg%2F11j7hq41d0!19sChIJ6dFlK5xPK0cREmxVpwO2lfU?authuser=0&hl=tr&rclk=1",
    "website_url": "",
    "rating_text": "4,6",
    "stars": null,
    "number_of_reviews": null,
    "price_level": "",
    "open_hours": "",
    "extraction_timestamp": "2025-06-08T03:38:13.941Z",
    "source_name": "google",
    "source_query": "Irrigation Equipment",
    "source_country": "UA",
    "country": "Ukraine",
    "state": "Kyivska oblast",
    "city": "Makariv Raion"
  },
  {
    "source_id": "ChIJM0jUi7o3K0cRKBUl8onoo88",
    "name": "ЯрОк",
    "category": "ЯрОк",
    "formatted_address": "4,4(115)",
    "phone_number": "+380999028350",
    "source_url": "https://www.google.com/maps/place/%D0%AF%D1%80%D0%9E%D0%BA/data=!4m7!3m6!1s0x472b37ba8bd44833:0xcfa3e889f2251528!8m2!3d50.4342912!4d30.0713406!16s%2Fg%2F11k6yf7gwm!19sChIJM0jUi7o3K0cRKBUl8onoo88?authuser=0&hl=tr&rclk=1",
    "website_url": "",
    "rating_text": "4,4",
    "stars": null,
    "number_of_reviews": null,
    "price_level": "",
    "open_hours": "",
    "extraction_timestamp": "2025-06-08T03:38:13.942Z",
    "source_name": "google",
    "source_query": "Irrigation Equipment",
    "source_country": "UA",
    "country": "Ukraine",
    "state": "Kyivska oblast",
    "city": "Makariv Raion"
  },
  {
    "source_id": "ChIJE1WvbIDN1EARGklhjSwU1es",
    "name": "Gidrosfera/Гидросфера ( Промышленный Полив )",
    "category": "Gidrosfera/Гидросфера ( Промышленный Полив )",
    "formatted_address": "5,0(1)",
    "phone_number": "+380672900101",
    "source_url": "https://www.google.com/maps/place/Gidrosfera%2F%D0%93%D0%B8%D0%B4%D1%80%D0%BE%D1%81%D1%84%D0%B5%D1%80%D0%B0+%28+%D0%9F%D1%80%D0%BE%D0%BC%D1%8B%D1%88%D0%BB%D0%B5%D0%BD%D0%BD%D1%8B%D0%B9+%D0%9F%D0%BE%D0%BB%D0%B8%D0%B2+%29/data=!4m7!3m6!1s0x40d4cd806caf5513:0xebd5142c8d61491a!8m2!3d50.496745!4d30.3688732!16s%2Fg%2F11fll214kh!19sChIJE1WvbIDN1EARGklhjSwU1es?authuser=0&hl=tr&rclk=1",
    "website_url": "",
    "rating_text": "5,0",
    "stars": null,
    "number_of_reviews": null,
    "price_level": "",
    "open_hours": "",
    "extraction_timestamp": "2025-06-08T03:38:13.943Z",
    "source_name": "google",
    "source_query": "Irrigation Equipment",
    "source_country": "UA",
    "country": "Ukraine",
    "state": "Kyivska oblast",
    "city": "Makariv Raion"
  },
  {
    "source_id": "ChIJ_Zxr13_J1EARDJ3-a6YLk_c",
    "name": "Зоомагазин 13 Cats",
    "category": "Зоомагазин 13 Cats",
    "formatted_address": "5,0(2)",
    "phone_number": "+380737303300",
    "source_url": "https://www.google.com/maps/place/%D0%97%D0%BE%D0%BE%D0%BC%D0%B0%D0%B3%D0%B0%D0%B7%D0%B8%D0%BD+13+Cats/data=!4m7!3m6!1s0x40d4c97fd76b9cfd:0xf7930ba66bfe9d0c!8m2!3d50.3695212!4d30.4480119!16s%2Fg%2F11x6js644m!19sChIJ_Zxr13_J1EARDJ3-a6YLk_c?authuser=0&hl=tr&rclk=1",
    "website_url": "",
    "rating_text": "5,0",
    "stars": null,
    "number_of_reviews": null,
    "price_level": "",
    "open_hours": "",
    "extraction_timestamp": "2025-06-08T03:38:13.944Z",
    "source_name": "google",
    "source_query": "Irrigation Equipment",
    "source_country": "UA",
    "country": "Ukraine",
    "state": "Kyivska oblast",
    "city": "Makariv Raion"
  },
  {
    "source_id": "ChIJPyrBujbK1EARrYFfxhxcwgM",
    "name": "办公文具 Kantstovary - Papirus",
    "category": "办公文具 Kantstovary - Papirus",
    "formatted_address": "4,8(1.250)",
    "phone_number": "+380445018862",
    "source_url": "https://www.google.com/maps/place/%E5%8A%9E%E5%85%AC%E6%96%87%E5%85%B7+Kantstovary+-+Papirus/data=!4m7!3m6!1s0x40d4ca36bac12a3f:0x3c25c1cc65f81ad!8m2!3d50.390962!4d30.3580836!16s%2Fg%2F11byl3bpy_!19sChIJPyrBujbK1EARrYFfxhxcwgM?authuser=0&hl=tr&rclk=1",
    "website_url": "",
    "rating_text": "4,8",
    "stars": null,
    "number_of_reviews": null,
    "price_level": "",
    "open_hours": "",
    "extraction_timestamp": "2025-06-08T03:38:13.946Z",
    "source_name": "google",
    "source_query": "Irrigation Equipment",
    "source_country": "UA",
    "country": "Ukraine",
    "state": "Kyivska oblast",
    "city": "Makariv Raion"
  },
  {
    "source_id": "ChIJ-8F-CPjL1EARnfeKjatyTNA",
    "name": "Реставрація газону - Садівник Київ - Стрижка рослин - Озеленення - Просадкиев",
    "category": "Реставрація газону - Садівник Київ - Стрижка рослин - Озеленення - Просадкиев",
    "formatted_address": "5,0(25)",
    "phone_number": "+380983954091",
    "source_url": "https://www.google.com/maps/place/%D0%A0%D0%B5%D1%81%D1%82%D0%B0%D0%B2%D1%80%D0%B0%D1%86%D1%96%D1%8F+%D0%B3%D0%B0%D0%B7%D0%BE%D0%BD%D1%83+-+%D0%A1%D0%B0%D0%B4%D1%96%D0%B2%D0%BD%D0%B8%D0%BA+%D0%9A%D0%B8%D1%97%D0%B2+-+%D0%A1%D1%82%D1%80%D0%B8%D0%B6%D0%BA%D0%B0+%D1%80%D0%BE%D1%81%D0%BB%D0%B8%D0%BD+-+%D0%9E%D0%B7%D0%B5%D0%BB%D0%B5%D0%BD%D0%B5%D0%BD%D0%BD%D1%8F+-+%D0%9F%D1%80%D0%BE%D1%81%D0%B0%D0%B4%D0%BA%D0%B8%D0%B5%D0%B2/data=!4m7!3m6!1s0x40d4cbf8087ec1fb:0xd04c72ab8d8af79d!8m2!3d50.4278581!4d30.3636485!16s%2Fg%2F11fm_mfjm6!19sChIJ-8F-CPjL1EARnfeKjatyTNA?authuser=0&hl=tr&rclk=1",
    "website_url": "",
    "rating_text": "5,0",
    "stars": null,
    "number_of_reviews": null,
    "price_level": "",
    "open_hours": "",
    "extraction_timestamp": "2025-06-08T03:38:13.947Z",
    "source_name": "google",
    "source_query": "Irrigation Equipment",
    "source_country": "UA",
    "country": "Ukraine",
    "state": "Kyivska oblast",
    "city": "Makariv Raion"
  },
  {
    "source_id": "ChIJW73WdL_O1EARXXiJqQdW7kw",
    "name": "Ирригационные системы",
    "category": "Ирригационные системы",
    "formatted_address": "Sulama Ekipmanları Tedarikçisi · Solomianska St, 1Kapalı ⋅ Açılış zamanı: Pzt 09:00 · +380 96 114 5050",
    "phone_number": "+380961145050",
    "source_url": "https://www.google.com/maps/place/%D0%98%D1%80%D1%80%D0%B8%D0%B3%D0%B0%D1%86%D0%B8%D0%BE%D0%BD%D0%BD%D1%8B%D0%B5+%D1%81%D0%B8%D1%81%D1%82%D0%B5%D0%BC%D1%8B/data=!4m7!3m6!1s0x40d4cebf74d6bd5b:0x4cee5607a989785d!8m2!3d50.4307294!4d30.4732198!16s%2Fg%2F11rj5kysmm!19sChIJW73WdL_O1EARXXiJqQdW7kw?authuser=0&hl=tr&rclk=1",
    "website_url": "",
    "rating_text": "",
    "stars": null,
    "number_of_reviews": null,
    "price_level": "",
    "open_hours": "",
    "extraction_timestamp": "2025-06-08T03:38:13.948Z",
    "source_name": "google",
    "source_query": "Irrigation Equipment",
    "source_country": "UA",
    "country": "Ukraine",
    "state": "Kyivska oblast",
    "city": "Makariv Raion"
  },
  {
    "source_id": "ChIJzQxpsGDZ1EARDfjtomhXOKM",
    "name": "Fast-Fud Khvylynka",
    "category": "Fast-Fud Khvylynka",
    "formatted_address": "5,0(2)",
    "phone_number": "+380978030184",
    "source_url": "https://www.google.com/maps/place/Fast-Fud+Khvylynka/data=!4m7!3m6!1s0x40d4d960b0690ccd:0xa3385768a2edf80d!8m2!3d50.4166566!4d29.8017203!16s%2Fg%2F11p5f42ckq!19sChIJzQxpsGDZ1EARDfjtomhXOKM?authuser=0&hl=tr&rclk=1",
    "website_url": "",
    "rating_text": "5,0",
    "stars": null,
    "number_of_reviews": null,
    "price_level": "",
    "open_hours": "",
    "extraction_timestamp": "2025-06-08T03:38:13.949Z",
    "source_name": "google",
    "source_query": "Irrigation Equipment",
    "source_country": "UA",
    "country": "Ukraine",
    "state": "Kyivska oblast",
    "city": "Makariv Raion"
  },
  {
    "source_id": "ChIJAQAAz_PL1EARhCPoirnRnec",
    "name": "Profisad",
    "category": "Profisad",
    "formatted_address": "5,0(11)",
    "phone_number": "+380443533851",
    "source_url": "https://www.google.com/maps/place/Profisad/data=!4m7!3m6!1s0x40d4cbf3cf000001:0xe79dd1b98ae82384!8m2!3d50.3879359!4d30.2407464!16s%2Fg%2F11hyt1c0t8!19sChIJAQAAz_PL1EARhCPoirnRnec?authuser=0&hl=tr&rclk=1",
    "website_url": "",
    "rating_text": "5,0",
    "stars": null,
    "number_of_reviews": null,
    "price_level": "",
    "open_hours": "",
    "extraction_timestamp": "2025-06-08T03:38:13.950Z",
    "source_name": "google",
    "source_query": "Irrigation Equipment",
    "source_country": "UA",
    "country": "Ukraine",
    "state": "Kyivska oblast",
    "city": "Makariv Raion"
  },
  {
    "source_id": "ChIJj9B1EqHP1EARDZgdszuCvLs",
    "name": "Системы полива",
    "category": "Системы полива",
    "formatted_address": "Sulama Ekipmanları Tedarikçisi · Lavrska St, 7а / 19Kapalı ⋅ Açılış zamanı: Pzt 09:00 · +380 99 343 8777",
    "phone_number": "+380993438777",
    "source_url": "https://www.google.com/maps/place/%D0%A1%D0%B8%D1%81%D1%82%D0%B5%D0%BC%D1%8B+%D0%BF%D0%BE%D0%BB%D0%B8%D0%B2%D0%B0/data=!4m7!3m6!1s0x40d4cfa11275d08f:0xbbbc823bb31d980d!8m2!3d50.4368044!4d30.5554264!16s%2Fg%2F11qh89rj21!19sChIJj9B1EqHP1EARDZgdszuCvLs?authuser=0&hl=tr&rclk=1",
    "website_url": "",
    "rating_text": "",
    "stars": null,
    "number_of_reviews": null,
    "price_level": "",
    "open_hours": "",
    "extraction_timestamp": "2025-06-08T03:38:13.951Z",
    "source_name": "google",
    "source_query": "Irrigation Equipment",
    "source_country": "UA",
    "country": "Ukraine",
    "state": "Kyivska oblast",
    "city": "Makariv Raion"
  },
  {
    "source_id": "ChIJkaQl3eTN1EARexo-l18g34k",
    "name": "НАСОС",
    "category": "НАСОС",
    "formatted_address": "",
    "phone_number": "+380443531010",
    "source_url": "https://www.google.com/maps/place/%D0%9D%D0%90%D0%A1%D0%9E%D0%A1/data=!4m7!3m6!1s0x40d4cde4dd25a491:0x89df205f973e1a7b!8m2!3d48.7673154!4d31.1824374!16s%2Fg%2F1hc86t0vh!19sChIJkaQl3eTN1EARexo-l18g34k?authuser=0&hl=tr&rclk=1",
    "website_url": "",
    "rating_text": "",
    "stars": null,
    "number_of_reviews": null,
    "price_level": "",
    "open_hours": "",
    "extraction_timestamp": "2025-06-08T03:38:13.952Z",
    "source_name": "google",
    "source_query": "Irrigation Equipment",
    "source_country": "UA",
    "country": "Ukraine",
    "state": "Kyivska oblast",
    "city": "Makariv Raion"
  },
  {
    "source_id": "ChIJUUUlf2jK1EARGHLCKeFK-oU",
    "name": "Leon Servis Plyus",
    "category": "Leon Servis Plyus",
    "formatted_address": "4,7(121)",
    "phone_number": "+380672439595",
    "source_url": "https://www.google.com/maps/place/Leon+Servis+Plyus/data=!4m7!3m6!1s0x40d4ca687f254551:0x85fa4ae129c27218!8m2!3d50.3871377!4d30.3147029!16s%2Fg%2F1vcl28pq!19sChIJUUUlf2jK1EARGHLCKeFK-oU?authuser=0&hl=tr&rclk=1",
    "website_url": "",
    "rating_text": "4,7",
    "stars": null,
    "number_of_reviews": null,
    "price_level": "",
    "open_hours": "",
    "extraction_timestamp": "2025-06-08T03:38:13.953Z",
    "source_name": "google",
    "source_query": "Irrigation Equipment",
    "source_country": "UA",
    "country": "Ukraine",
    "state": "Kyivska oblast",
    "city": "Makariv Raion"
  },
  {
    "source_id": "ChIJC60MDqHL1EARTW2Ay3GDw-I",
    "name": "Ekoservis. Baseyny, Obladnannya, Khimiya",
    "category": "Ekoservis. Baseyny, Obladnannya, Khimiya",
    "formatted_address": "Ekoservis. Baseyny, Obladnannya, Khimiya",
    "phone_number": "+380981119984",
    "source_url": "https://www.google.com/maps/place/Ekoservis.+Baseyny,+Obladnannya,+Khimiya/data=!4m7!3m6!1s0x40d4cba10e0cad0b:0xe2c38371cb806d4d!8m2!3d50.4280397!4d30.3492145!16s%2Fg%2F11llyhxcx4!19sChIJC60MDqHL1EARTW2Ay3GDw-I?authuser=0&hl=tr&rclk=1",
    "website_url": "",
    "rating_text": "5,0",
    "stars": null,
    "number_of_reviews": null,
    "price_level": "",
    "open_hours": "",
    "extraction_timestamp": "2025-06-08T03:38:13.954Z",
    "source_name": "google",
    "source_query": "Irrigation Equipment",
    "source_country": "UA",
    "country": "Ukraine",
    "state": "Kyivska oblast",
    "city": "Makariv Raion"
  }
]
