[
  {
    "source_id": "ChIJ8RRuLtxAK0cR76pU715VR2E",
    "name": "Construction Yard",
    "category": "Construction Yard",
    "formatted_address": "4,2(140)",
    "phone_number": "+380987770022",
    "source_url": "https://www.google.com/maps/place/Construction+Yard/data=!4m7!3m6!1s0x472b40dc2e6e14f1:0x6147555eef54aaef!8m2!3d50.4671664!4d29.8199518!16s%2Fg%2F1hm1zlmt0!19sChIJ8RRuLtxAK0cR76pU715VR2E?authuser=0&hl=tr&rclk=1",
    "website_url": "",
    "rating_text": "4,2",
    "stars": null,
    "number_of_reviews": null,
    "price_level": "",
    "open_hours": "",
    "extraction_timestamp": "2025-06-08T03:25:49.322Z",
    "source_name": "google",
    "source_query": "Irrigation Equipment",
    "source_country": "UA",
    "country": "Ukraine",
    "state": "Kyivska oblast",
    "city": "Makariv"
  },
  {
    "source_id": "ChIJP3zRCzdBK0cR-fNw0EQh_BA",
    "name": "Budtsentr",
    "category": "Budtsentr",
    "formatted_address": "4,2(591)",
    "phone_number": "+380663595186",
    "source_url": "https://www.google.com/maps/place/Budtsentr/data=!4m7!3m6!1s0x472b41370bd17c3f:0x10fc2144d070f3f9!8m2!3d50.4441795!4d29.8102531!16s%2Fg%2F119vqbh38!19sChIJP3zRCzdBK0cR-fNw0EQh_BA?authuser=0&hl=tr&rclk=1",
    "website_url": "",
    "rating_text": "4,2",
    "stars": null,
    "number_of_reviews": null,
    "price_level": "",
    "open_hours": "",
    "extraction_timestamp": "2025-06-08T03:25:49.323Z",
    "source_name": "google",
    "source_query": "Irrigation Equipment",
    "source_country": "UA",
    "country": "Ukraine",
    "state": "Kyivska oblast",
    "city": "Makariv"
  },
  {
    "source_id": "ChIJx3FKqJ7b1EARloNJ-VTjo8A",
    "name": "Mahazyn Santekhniky Vodomet Makariv",
    "category": "Mahazyn Santekhniky Vodomet Makariv",
    "formatted_address": "3,0(2)",
    "phone_number": "+380987881907",
    "source_url": "https://www.google.com/maps/place/Mahazyn+Santekhniky+Vodomet+Makariv/data=!4m7!3m6!1s0x40d4db9ea84a71c7:0xc0a3e354f9498396!8m2!3d50.4445089!4d29.8045651!16s%2Fg%2F11v9_jwhxl!19sChIJx3FKqJ7b1EARloNJ-VTjo8A?authuser=0&hl=tr&rclk=1",
    "website_url": "",
    "rating_text": "3,0",
    "stars": null,
    "number_of_reviews": null,
    "price_level": "",
    "open_hours": "",
    "extraction_timestamp": "2025-06-08T03:25:49.324Z",
    "source_name": "google",
    "source_query": "Irrigation Equipment",
    "source_country": "UA",
    "country": "Ukraine",
    "state": "Kyivska oblast",
    "city": "Makariv"
  },
  {
    "source_id": "ChIJ5XxAkt3L1EARKAadCejxqLE",
    "name": "Інтернет-Магазин полива Aqua Price (все для полива, оборудование для автоматического полива и ручного орошения)",
    "category": "Інтернет-Магазин полива Aqua Price (все для полива, оборудование для автоматического полива и ручного орошения)",
    "formatted_address": "Інтернет-Магазин полива Aqua Price (все для полива, оборудование для автоматического полива и ручного орошения)",
    "phone_number": "+380960773337",
    "source_url": "https://www.google.com/maps/place/%D0%86%D0%BD%D1%82%D0%B5%D1%80%D0%BD%D0%B5%D1%82-%D0%9C%D0%B0%D0%B3%D0%B0%D0%B7%D0%B8%D0%BD+%D0%BF%D0%BE%D0%BB%D0%B8%D0%B2%D0%B0+Aqua+Price+%28%D0%B2%D1%81%D0%B5+%D0%B4%D0%BB%D1%8F+%D0%BF%D0%BE%D0%BB%D0%B8%D0%B2%D0%B0,+%D0%BE%D0%B1%D0%BE%D1%80%D1%83%D0%B4%D0%BE%D0%B2%D0%B0%D0%BD%D0%B8%D0%B5+%D0%B4%D0%BB%D1%8F+%D0%B0%D0%B2%D1%82%D0%BE%D0%BC%D0%B0%D1%82%D0%B8%D1%87%D0%B5%D1%81%D0%BA%D0%BE%D0%B3%D0%BE+%D0%BF%D0%BE%D0%BB%D0%B8%D0%B2%D0%B0+%D0%B8+%D1%80%D1%83%D1%87%D0%BD%D0%BE%D0%B3%D0%BE+%D0%BE%D1%80%D0%BE%D1%88%D0%B5%D0%BD%D0%B8%D1%8F%29/data=!4m7!3m6!1s0x40d4cbdd92407ce5:0xb1a8f1e8099d0628!8m2!3d50.4275904!4d30.3497723!16s%2Fg%2F11qyk5wysc!19sChIJ5XxAkt3L1EARKAadCejxqLE?authuser=0&hl=tr&rclk=1",
    "website_url": "",
    "rating_text": "5,0",
    "stars": null,
    "number_of_reviews": null,
    "price_level": "",
    "open_hours": "",
    "extraction_timestamp": "2025-06-08T03:25:49.325Z",
    "source_name": "google",
    "source_query": "Irrigation Equipment",
    "source_country": "UA",
    "country": "Ukraine",
    "state": "Kyivska oblast",
    "city": "Makariv"
  },
  {
    "source_id": "ChIJaaGvOTpBK0cRyQUM9UdHJk8",
    "name": "Universam",
    "category": "Universam",
    "formatted_address": "4,2(209)",
    "phone_number": "+380950688777",
    "source_url": "https://www.google.com/maps/place/Universam/data=!4m7!3m6!1s0x472b413a39afa169:0x4f264747f50c05c9!8m2!3d50.4455058!4d29.8060499!16s%2Fg%2F11c1rt5rrl!19sChIJaaGvOTpBK0cRyQUM9UdHJk8?authuser=0&hl=tr&rclk=1",
    "website_url": "",
    "rating_text": "4,2",
    "stars": null,
    "number_of_reviews": null,
    "price_level": "",
    "open_hours": "",
    "extraction_timestamp": "2025-06-08T03:25:49.325Z",
    "source_name": "google",
    "source_query": "Irrigation Equipment",
    "source_country": "UA",
    "country": "Ukraine",
    "state": "Kyivska oblast",
    "city": "Makariv"
  },
  {
    "source_id": "ChIJ60XEpQbQ1EARVLf9IomIVYg",
    "name": "Poliv UA",
    "category": "Poliv UA",
    "formatted_address": "4,8(64)",
    "phone_number": "+380443379900",
    "source_url": "https://www.google.com/maps/place/Poliv+UA/data=!4m7!3m6!1s0x40d4d006a5c445eb:0x8855888922fdb754!8m2!3d50.4646434!4d30.6255633!16s%2Fg%2F11clsyjy7n!19sChIJ60XEpQbQ1EARVLf9IomIVYg?authuser=0&hl=tr&rclk=1",
    "website_url": "",
    "rating_text": "4,8",
    "stars": null,
    "number_of_reviews": null,
    "price_level": "",
    "open_hours": "",
    "extraction_timestamp": "2025-06-08T03:25:49.326Z",
    "source_name": "google",
    "source_query": "Irrigation Equipment",
    "source_country": "UA",
    "country": "Ukraine",
    "state": "Kyivska oblast",
    "city": "Makariv"
  },
  {
    "source_id": "ChIJo3xYNFpBK0cRSHFNSz8i2bc",
    "name": "Rozetka",
    "category": "Rozetka",
    "formatted_address": "4,3(11)",
    "phone_number": "",
    "source_url": "https://www.google.com/maps/place/Rozetka/data=!4m7!3m6!1s0x472b415a34587ca3:0xb7d9223f4b4d7148!8m2!3d50.4615022!4d29.8115468!16s%2Fg%2F11rp6cm60y!19sChIJo3xYNFpBK0cRSHFNSz8i2bc?authuser=0&hl=tr&rclk=1",
    "website_url": "",
    "rating_text": "4,3",
    "stars": null,
    "number_of_reviews": null,
    "price_level": "",
    "open_hours": "",
    "extraction_timestamp": "2025-06-08T03:25:49.327Z",
    "source_name": "google",
    "source_query": "Irrigation Equipment",
    "source_country": "UA",
    "country": "Ukraine",
    "state": "Kyivska oblast",
    "city": "Makariv"
  },
  {
    "source_id": "ChIJRyN16CBBK0cRfC_Qi0scxls",
    "name": "Mahazyn \"Rubin\"",
    "category": "Mahazyn \"Rubin\"",
    "formatted_address": "4,2(292)",
    "phone_number": "",
    "source_url": "https://www.google.com/maps/place/Mahazyn+%22Rubin%22/data=!4m7!3m6!1s0x472b4120e8752347:0x5bc61c4b8bd02f7c!8m2!3d50.4605495!4d29.8138268!16s%2Fg%2F11f121vnr_!19sChIJRyN16CBBK0cRfC_Qi0scxls?authuser=0&hl=tr&rclk=1",
    "website_url": "",
    "rating_text": "4,2",
    "stars": null,
    "number_of_reviews": null,
    "price_level": "",
    "open_hours": "",
    "extraction_timestamp": "2025-06-08T03:25:49.327Z",
    "source_name": "google",
    "source_query": "Irrigation Equipment",
    "source_country": "UA",
    "country": "Ukraine",
    "state": "Kyivska oblast",
    "city": "Makariv"
  },
  {
    "source_id": "ChIJYyU9lq_N1EARqoG8SYko8go",
    "name": "Лайф Гарден",
    "category": "Лайф Гарден",
    "formatted_address": "3,9(7)",
    "phone_number": "+380503719090",
    "source_url": "https://www.google.com/maps/place/%D0%9B%D0%B0%D0%B9%D1%84+%D0%93%D0%B0%D1%80%D0%B4%D0%B5%D0%BD/data=!4m7!3m6!1s0x40d4cdaf963d2563:0xaf2288949bc81aa!8m2!3d50.45748!4d30.3824706!16s%2Fg%2F11gr60b225!19sChIJYyU9lq_N1EARqoG8SYko8go?authuser=0&hl=tr&rclk=1",
    "website_url": "",
    "rating_text": "3,9",
    "stars": null,
    "number_of_reviews": null,
    "price_level": "",
    "open_hours": "",
    "extraction_timestamp": "2025-06-08T03:25:49.328Z",
    "source_name": "google",
    "source_query": "Irrigation Equipment",
    "source_country": "UA",
    "country": "Ukraine",
    "state": "Kyivska oblast",
    "city": "Makariv"
  },
  {
    "source_id": "ChIJE60f2DPP1EARCqjSrjIeXBw",
    "name": "СпецПоливСервіс",
    "category": "СпецПоливСервіс",
    "formatted_address": "5,0(17)",
    "phone_number": "+380970822608",
    "source_url": "https://www.google.com/maps/place/%D0%A1%D0%BF%D0%B5%D1%86%D0%9F%D0%BE%D0%BB%D0%B8%D0%B2%D0%A1%D0%B5%D1%80%D0%B2%D1%96%D1%81/data=!4m7!3m6!1s0x40d4cf33d81fad13:0x1c5c1e32aed2a80a!8m2!3d50.463344!4d30.589573!16s%2Fg%2F11h0trxk1!19sChIJE60f2DPP1EARCqjSrjIeXBw?authuser=0&hl=tr&rclk=1",
    "website_url": "",
    "rating_text": "5,0",
    "stars": null,
    "number_of_reviews": null,
    "price_level": "",
    "open_hours": "",
    "extraction_timestamp": "2025-06-08T03:25:49.329Z",
    "source_name": "google",
    "source_query": "Irrigation Equipment",
    "source_country": "UA",
    "country": "Ukraine",
    "state": "Kyivska oblast",
    "city": "Makariv"
  },
  {
    "source_id": "ChIJ70flLxNBK0cR26J2PpO4an8",
    "name": "СТО, 3D розвал-сходження, шиномонтаж на Дорожній",
    "category": "СТО, 3D розвал-сходження, шиномонтаж на Дорожній",
    "formatted_address": "СТО, 3D розвал-сходження, шиномонтаж на Дорожній",
    "phone_number": "+380969733754",
    "source_url": "https://www.google.com/maps/place/%D0%A1%D0%A2%D0%9E,+3D+%D1%80%D0%BE%D0%B7%D0%B2%D0%B0%D0%BB-%D1%81%D1%85%D0%BE%D0%B4%D0%B6%D0%B5%D0%BD%D0%BD%D1%8F,+%D1%88%D0%B8%D0%BD%D0%BE%D0%BC%D0%BE%D0%BD%D1%82%D0%B0%D0%B6+%D0%BD%D0%B0+%D0%94%D0%BE%D1%80%D0%BE%D0%B6%D0%BD%D1%96%D0%B9/data=!4m7!3m6!1s0x472b41132fe547ef:0x7f6ab8933e76a2db!8m2!3d50.4507396!4d29.8044844!16s%2Fg%2F11vdck5rqp!19sChIJ70flLxNBK0cR26J2PpO4an8?authuser=0&hl=tr&rclk=1",
    "website_url": "",
    "rating_text": "4,8",
    "stars": null,
    "number_of_reviews": null,
    "price_level": "",
    "open_hours": "",
    "extraction_timestamp": "2025-06-08T03:25:49.330Z",
    "source_name": "google",
    "source_query": "Irrigation Equipment",
    "source_country": "UA",
    "country": "Ukraine",
    "state": "Kyivska oblast",
    "city": "Makariv"
  },
  {
    "source_id": "ChIJ_9sqECBBK0cRidsdrfoKEF8",
    "name": "Rybnyy Ray",
    "category": "Rybnyy Ray",
    "formatted_address": "4,4(12)",
    "phone_number": "+380956011201",
    "source_url": "https://www.google.com/maps/place/Rybnyy+Ray/data=!4m7!3m6!1s0x472b4120102adbff:0x5f100afaad1ddb89!8m2!3d50.4627481!4d29.8108026!16s%2Fg%2F11f53n1tjx!19sChIJ_9sqECBBK0cRidsdrfoKEF8?authuser=0&hl=tr&rclk=1",
    "website_url": "",
    "rating_text": "4,4",
    "stars": null,
    "number_of_reviews": null,
    "price_level": "",
    "open_hours": "",
    "extraction_timestamp": "2025-06-08T03:25:49.330Z",
    "source_name": "google",
    "source_query": "Irrigation Equipment",
    "source_country": "UA",
    "country": "Ukraine",
    "state": "Kyivska oblast",
    "city": "Makariv"
  },
  {
    "source_id": "ChIJyQdsVRlBK0cRmVFNo4HOu4I",
    "name": "Makarivsʹkyy Bazar",
    "category": "Makarivsʹkyy Bazar",
    "formatted_address": "3,8(518)",
    "phone_number": "",
    "source_url": "https://www.google.com/maps/place/Makarivs%CA%B9kyy+Bazar/data=!4m7!3m6!1s0x472b4119556c07c9:0x82bbce81a34d5199!8m2!3d50.4612458!4d29.7980874!16s%2Fg%2F1hdzdh061!19sChIJyQdsVRlBK0cRmVFNo4HOu4I?authuser=0&hl=tr&rclk=1",
    "website_url": "",
    "rating_text": "3,8",
    "stars": null,
    "number_of_reviews": null,
    "price_level": "",
    "open_hours": "",
    "extraction_timestamp": "2025-06-08T03:25:49.331Z",
    "source_name": "google",
    "source_query": "Irrigation Equipment",
    "source_country": "UA",
    "country": "Ukraine",
    "state": "Kyivska oblast",
    "city": "Makariv"
  },
  {
    "source_id": "ChIJ1VM9kBVBK0cRbwiu7NQzYno",
    "name": "АВТОМАГ",
    "category": "АВТОМАГ",
    "formatted_address": "4,6(81)",
    "phone_number": "+380637999969",
    "source_url": "https://www.google.com/maps/place/%D0%90%D0%92%D0%A2%D0%9E%D0%9C%D0%90%D0%93/data=!4m7!3m6!1s0x472b4115903d53d5:0x7a6233d4ecae086f!8m2!3d50.453678!4d29.81405!16s%2Fg%2F11g__1lmby!19sChIJ1VM9kBVBK0cRbwiu7NQzYno?authuser=0&hl=tr&rclk=1",
    "website_url": "",
    "rating_text": "4,6",
    "stars": null,
    "number_of_reviews": null,
    "price_level": "",
    "open_hours": "",
    "extraction_timestamp": "2025-06-08T03:25:49.332Z",
    "source_name": "google",
    "source_query": "Irrigation Equipment",
    "source_country": "UA",
    "country": "Ukraine",
    "state": "Kyivska oblast",
    "city": "Makariv"
  },
  {
    "source_id": "ChIJyQOQWoBBK0cRWM2c-TRQjtg",
    "name": "Dim Sad Horod Makariv",
    "category": "Dim Sad Horod Makariv",
    "formatted_address": "Bahçe ürünleri satış merkezi · Kochubeia St, 24Kapalı ⋅ Açılış zamanı: Pzt 08:00 · +380 93 038 3642",
    "phone_number": "+380930383642",
    "source_url": "https://www.google.com/maps/place/Dim+Sad+Horod+Makariv/data=!4m7!3m6!1s0x472b41805a9003c9:0xd88e5034f99ccd58!8m2!3d50.4448153!4d29.8050868!16s%2Fg%2F11vf2ysvv1!19sChIJyQOQWoBBK0cRWM2c-TRQjtg?authuser=0&hl=tr&rclk=1",
    "website_url": "",
    "rating_text": "",
    "stars": null,
    "number_of_reviews": null,
    "price_level": "",
    "open_hours": "",
    "extraction_timestamp": "2025-06-08T03:25:49.333Z",
    "source_name": "google",
    "source_query": "Irrigation Equipment",
    "source_country": "UA",
    "country": "Ukraine",
    "state": "Kyivska oblast",
    "city": "Makariv"
  },
  {
    "source_id": "ChIJZ5YqRzBBK0cRNptqHL-PLCw",
    "name": "Haydyk",
    "category": "Haydyk",
    "formatted_address": "Bakkal · Vulytsya Proektna, 10",
    "phone_number": "",
    "source_url": "https://www.google.com/maps/place/Haydyk/data=!4m7!3m6!1s0x472b4130472a9667:0x2c2c8fbf1c6a9b36!8m2!3d50.4608213!4d29.8167817!16s%2Fg%2F11smc32t8w!19sChIJZ5YqRzBBK0cRNptqHL-PLCw?authuser=0&hl=tr&rclk=1",
    "website_url": "",
    "rating_text": "",
    "stars": null,
    "number_of_reviews": null,
    "price_level": "",
    "open_hours": "",
    "extraction_timestamp": "2025-06-08T03:25:49.333Z",
    "source_name": "google",
    "source_query": "Irrigation Equipment",
    "source_country": "UA",
    "country": "Ukraine",
    "state": "Kyivska oblast",
    "city": "Makariv"
  },
  {
    "source_id": "ChIJ_2IlZABBK0cR8e_JfDOJW9s",
    "name": "Будівельний магазин Будмайстер",
    "category": "Будівельний магазин Будмайстер",
    "formatted_address": "",
    "phone_number": "+380975372007",
    "source_url": "https://www.google.com/maps/place/%D0%91%D1%83%D0%B4%D1%96%D0%B2%D0%B5%D0%BB%D1%8C%D0%BD%D0%B8%D0%B9+%D0%BC%D0%B0%D0%B3%D0%B0%D0%B7%D0%B8%D0%BD+%D0%91%D1%83%D0%B4%D0%BC%D0%B0%D0%B9%D1%81%D1%82%D0%B5%D1%80/data=!4m7!3m6!1s0x472b4100642562ff:0xdb5b89337cc9eff1!8m2!3d50.470278!4d29.8248989!16s%2Fg%2F11y50g851y!19sChIJ_2IlZABBK0cR8e_JfDOJW9s?authuser=0&hl=tr&rclk=1",
    "website_url": "",
    "rating_text": "",
    "stars": null,
    "number_of_reviews": null,
    "price_level": "",
    "open_hours": "",
    "extraction_timestamp": "2025-06-08T03:25:49.333Z",
    "source_name": "google",
    "source_query": "Irrigation Equipment",
    "source_country": "UA",
    "country": "Ukraine",
    "state": "Kyivska oblast",
    "city": "Makariv"
  },
  {
    "source_id": "ChIJdaVI3iBBK0cR4QNPb_Rvlh4",
    "name": "Vetapteka",
    "category": "Vetapteka",
    "formatted_address": "4,1(14)",
    "phone_number": "+380976707772",
    "source_url": "https://www.google.com/maps/place/Vetapteka/data=!4m7!3m6!1s0x472b4120de48a575:0x1e966ff46f4f03e1!8m2!3d50.4600332!4d29.8136016!16s%2Fg%2F11g6xq408z!19sChIJdaVI3iBBK0cR4QNPb_Rvlh4?authuser=0&hl=tr&rclk=1",
    "website_url": "",
    "rating_text": "4,1",
    "stars": null,
    "number_of_reviews": null,
    "price_level": "",
    "open_hours": "",
    "extraction_timestamp": "2025-06-08T03:25:49.334Z",
    "source_name": "google",
    "source_query": "Irrigation Equipment",
    "source_country": "UA",
    "country": "Ukraine",
    "state": "Kyivska oblast",
    "city": "Makariv"
  },
  {
    "source_id": "ChIJzWamB1NBK0cRIjoY-t6n1T8",
    "name": "Фора",
    "category": "Фора",
    "formatted_address": "4,3(582)",
    "phone_number": "+380800301230",
    "source_url": "https://www.google.com/maps/place/%D0%A4%D0%BE%D1%80%D0%B0/data=!4m7!3m6!1s0x472b415307a666cd:0x3fd5a7defa183a22!8m2!3d50.4576491!4d29.8142331!16s%2Fg%2F11flkbynr9!19sChIJzWamB1NBK0cRIjoY-t6n1T8?authuser=0&hl=tr&rclk=1",
    "website_url": "",
    "rating_text": "4,3",
    "stars": null,
    "number_of_reviews": null,
    "price_level": "",
    "open_hours": "",
    "extraction_timestamp": "2025-06-08T03:25:49.335Z",
    "source_name": "google",
    "source_query": "Irrigation Equipment",
    "source_country": "UA",
    "country": "Ukraine",
    "state": "Kyivska oblast",
    "city": "Makariv"
  },
  {
    "source_id": "ChIJi4VMgp9BK0cRHmdTjzAaE_I",
    "name": "Blisk",
    "category": "Blisk",
    "formatted_address": "5,0(2)",
    "phone_number": "+380800336123",
    "source_url": "https://www.google.com/maps/place/Blisk/data=!4m7!3m6!1s0x472b419f824c858b:0xf2131a308f53671e!8m2!3d50.4621068!4d29.8112655!16s%2Fg%2F11vf3x0pgy!19sChIJi4VMgp9BK0cRHmdTjzAaE_I?authuser=0&hl=tr&rclk=1",
    "website_url": "",
    "rating_text": "5,0",
    "stars": null,
    "number_of_reviews": null,
    "price_level": "",
    "open_hours": "",
    "extraction_timestamp": "2025-06-08T03:25:49.336Z",
    "source_name": "google",
    "source_query": "Irrigation Equipment",
    "source_country": "UA",
    "country": "Ukraine",
    "state": "Kyivska oblast",
    "city": "Makariv"
  },
  {
    "source_id": "ChIJJ6vLIXzL1EAR7Y956W96hSk",
    "name": "Півдюйма Будмайдан - товари для тепловодопостачання та водовідведення",
    "category": "Півдюйма Будмайдан - товари для тепловодопостачання та водовідведення",
    "formatted_address": "4,7(48)",
    "phone_number": "+380963020202",
    "source_url": "https://www.google.com/maps/place/%D0%9F%D1%96%D0%B2%D0%B4%D1%8E%D0%B9%D0%BC%D0%B0+%D0%91%D1%83%D0%B4%D0%BC%D0%B0%D0%B9%D0%B4%D0%B0%D0%BD+-+%D1%82%D0%BE%D0%B2%D0%B0%D1%80%D0%B8+%D0%B4%D0%BB%D1%8F+%D1%82%D0%B5%D0%BF%D0%BB%D0%BE%D0%B2%D0%BE%D0%B4%D0%BE%D0%BF%D0%BE%D1%81%D1%82%D0%B0%D1%87%D0%B0%D0%BD%D0%BD%D1%8F+%D1%82%D0%B0+%D0%B2%D0%BE%D0%B4%D0%BE%D0%B2%D1%96%D0%B4%D0%B2%D0%B5%D0%B4%D0%B5%D0%BD%D0%BD%D1%8F/data=!4m7!3m6!1s0x40d4cb7c21cbab27:0x29857a6fe9798fed!8m2!3d50.4397597!4d30.357783!16s%2Fg%2F1w110q65!19sChIJJ6vLIXzL1EAR7Y956W96hSk?authuser=0&hl=tr&rclk=1",
    "website_url": "",
    "rating_text": "4,7",
    "stars": null,
    "number_of_reviews": null,
    "price_level": "",
    "open_hours": "",
    "extraction_timestamp": "2025-06-08T03:25:49.337Z",
    "source_name": "google",
    "source_query": "Irrigation Equipment",
    "source_country": "UA",
    "country": "Ukraine",
    "state": "Kyivska oblast",
    "city": "Makariv"
  },
  {
    "source_id": "ChIJP7sPX_0zK0cR99pBo-ZnivM",
    "name": "Офіційний дилер Husqvarna. Фірмовий магазин Хускварна. Бензиновий та акумуляторний інструмент, садова техніка.",
    "category": "Офіційний дилер Husqvarna. Фірмовий магазин Хускварна. Бензиновий та акумуляторний інструмент, садова техніка.",
    "formatted_address": "Офіційний дилер Husqvarna. Фірмовий магазин Хускварна. Бензиновий та акумуляторний інструмент, садова техніка.",
    "phone_number": "+380669985854",
    "source_url": "https://www.google.com/maps/place/%D0%9E%D1%84%D1%96%D1%86%D1%96%D0%B9%D0%BD%D0%B8%D0%B9+%D0%B4%D0%B8%D0%BB%D0%B5%D1%80+Husqvarna.+%D0%A4%D1%96%D1%80%D0%BC%D0%BE%D0%B2%D0%B8%D0%B9+%D0%BC%D0%B0%D0%B3%D0%B0%D0%B7%D0%B8%D0%BD+%D0%A5%D1%83%D1%81%D0%BA%D0%B2%D0%B0%D1%80%D0%BD%D0%B0.+%D0%91%D0%B5%D0%BD%D0%B7%D0%B8%D0%BD%D0%BE%D0%B2%D0%B8%D0%B9+%D1%82%D0%B0+%D0%B0%D0%BA%D1%83%D0%BC%D1%83%D0%BB%D1%8F%D1%82%D0%BE%D1%80%D0%BD%D0%B8%D0%B9+%D1%96%D0%BD%D1%81%D1%82%D1%80%D1%83%D0%BC%D0%B5%D0%BD%D1%82,+%D1%81%D0%B0%D0%B4%D0%BE%D0%B2%D0%B0+%D1%82%D0%B5%D1%85%D0%BD%D1%96%D0%BA%D0%B0./data=!4m7!3m6!1s0x472b33fd5f0fbb3f:0xf38a67e6a341daf7!8m2!3d50.5215973!4d30.2468443!16s%2Fg%2F11vbcq7m0p!19sChIJP7sPX_0zK0cR99pBo-ZnivM?authuser=0&hl=tr&rclk=1",
    "website_url": "",
    "rating_text": "4,7",
    "stars": null,
    "number_of_reviews": null,
    "price_level": "",
    "open_hours": "",
    "extraction_timestamp": "2025-06-08T03:25:49.338Z",
    "source_name": "google",
    "source_query": "Irrigation Equipment",
    "source_country": "UA",
    "country": "Ukraine",
    "state": "Kyivska oblast",
    "city": "Makariv"
  },
  {
    "source_id": "ChIJw2WQ26nN1EARR4PP1yU0__Y",
    "name": "Садовий Центр Пісардi",
    "category": "Садовий Центр Пісардi",
    "formatted_address": "4,7(294)",
    "phone_number": "+380989255556",
    "source_url": "https://www.google.com/maps/place/%D0%A1%D0%B0%D0%B4%D0%BE%D0%B2%D0%B8%D0%B9+%D0%A6%D0%B5%D0%BD%D1%82%D1%80+%D0%9F%D1%96%D1%81%D0%B0%D1%80%D0%B4i/data=!4m7!3m6!1s0x40d4cda9db9065c3:0xf6ff3425d7cf8347!8m2!3d50.504339!4d30.1888321!16s%2Fg%2F11c575jgrm!19sChIJw2WQ26nN1EARR4PP1yU0__Y?authuser=0&hl=tr&rclk=1",
    "website_url": "",
    "rating_text": "4,7",
    "stars": null,
    "number_of_reviews": null,
    "price_level": "",
    "open_hours": "",
    "extraction_timestamp": "2025-06-08T03:25:49.339Z",
    "source_name": "google",
    "source_query": "Irrigation Equipment",
    "source_country": "UA",
    "country": "Ukraine",
    "state": "Kyivska oblast",
    "city": "Makariv"
  },
  {
    "source_id": "ChIJfZaL8M4zK0cRAZRnYZIqtcA",
    "name": "AQUA WINNER",
    "category": "AQUA WINNER",
    "formatted_address": "5,0(3)",
    "phone_number": "+380674840508",
    "source_url": "https://www.google.com/maps/place/AQUA+WINNER/data=!4m7!3m6!1s0x472b33cef08b967d:0xc0b52a9261679401!8m2!3d50.5286525!4d30.2448537!16s%2Fg%2F11w3zl1814!19sChIJfZaL8M4zK0cRAZRnYZIqtcA?authuser=0&hl=tr&rclk=1",
    "website_url": "",
    "rating_text": "5,0",
    "stars": null,
    "number_of_reviews": null,
    "price_level": "",
    "open_hours": "",
    "extraction_timestamp": "2025-06-08T03:25:49.340Z",
    "source_name": "google",
    "source_query": "Irrigation Equipment",
    "source_country": "UA",
    "country": "Ukraine",
    "state": "Kyivska oblast",
    "city": "Makariv"
  },
  {
    "source_id": "ChIJIRWBgmPM1EARTsCTjS_16ZA",
    "name": "Родон-Агро",
    "category": "Родон-Агро",
    "formatted_address": "4,5(46)",
    "phone_number": "+380993086438",
    "source_url": "https://www.google.com/maps/place/%D0%A0%D0%BE%D0%B4%D0%BE%D0%BD-%D0%90%D0%B3%D1%80%D0%BE/data=!4m7!3m6!1s0x40d4cc6382811521:0x90e9f52f8d93c04e!8m2!3d50.4501333!4d30.3888885!16s%2Fg%2F11dxd2jhz2!19sChIJIRWBgmPM1EARTsCTjS_16ZA?authuser=0&hl=tr&rclk=1",
    "website_url": "",
    "rating_text": "4,5",
    "stars": null,
    "number_of_reviews": null,
    "price_level": "",
    "open_hours": "",
    "extraction_timestamp": "2025-06-08T03:25:49.341Z",
    "source_name": "google",
    "source_query": "Irrigation Equipment",
    "source_country": "UA",
    "country": "Ukraine",
    "state": "Kyivska oblast",
    "city": "Makariv"
  },
  {
    "source_id": "ChIJf4jHN1LM1EARBkfaDZQGDTw",
    "name": "Dr. Sprinkler",
    "category": "Dr. Sprinkler",
    "formatted_address": "4,8(4)",
    "phone_number": "+380965335353",
    "source_url": "https://www.google.com/maps/place/Dr.+Sprinkler/data=!4m7!3m6!1s0x40d4cc5237c7887f:0x3c0d06940dda4706!8m2!3d50.4105845!4d30.558873!16s%2Fg%2F1q6j9h1m6!19sChIJf4jHN1LM1EARBkfaDZQGDTw?authuser=0&hl=tr&rclk=1",
    "website_url": "",
    "rating_text": "4,8",
    "stars": null,
    "number_of_reviews": null,
    "price_level": "",
    "open_hours": "",
    "extraction_timestamp": "2025-06-08T03:25:49.342Z",
    "source_name": "google",
    "source_query": "Irrigation Equipment",
    "source_country": "UA",
    "country": "Ukraine",
    "state": "Kyivska oblast",
    "city": "Makariv"
  },
  {
    "source_id": "ChIJDfv0zywyK0cRLdgAAOk7MRo",
    "name": "Pehas",
    "category": "Pehas",
    "formatted_address": "4,6(38)",
    "phone_number": "+380681881818",
    "source_url": "https://www.google.com/maps/place/Pehas/data=!4m7!3m6!1s0x472b322ccff4fb0d:0x1a313be90000d82d!8m2!3d50.5251564!4d30.2458395!16s%2Fg%2F11b5vpqqtk!19sChIJDfv0zywyK0cRLdgAAOk7MRo?authuser=0&hl=tr&rclk=1",
    "website_url": "",
    "rating_text": "4,6",
    "stars": null,
    "number_of_reviews": null,
    "price_level": "",
    "open_hours": "",
    "extraction_timestamp": "2025-06-08T03:25:49.342Z",
    "source_name": "google",
    "source_query": "Irrigation Equipment",
    "source_country": "UA",
    "country": "Ukraine",
    "state": "Kyivska oblast",
    "city": "Makariv"
  },
  {
    "source_id": "ChIJpzwfx5TN1EARlp_JjIS5kDw",
    "name": "LifeWater - Автономна каналізація, септик, біопрепарати, сепаратор жиру та нафти, хімія для басейнів, повітряний компресор",
    "category": "LifeWater - Автономна каналізація, септик, біопрепарати, сепаратор жиру та нафти, хімія для басейнів, повітряний компресор",
    "formatted_address": "LifeWater - Автономна каналізація, септик, біопрепарати, сепаратор жиру та нафти, хімія для басейнів, повітряний компресор",
    "phone_number": "+380632907747",
    "source_url": "https://www.google.com/maps/place/LifeWater+-+%D0%90%D0%B2%D1%82%D0%BE%D0%BD%D0%BE%D0%BC%D0%BD%D0%B0+%D0%BA%D0%B0%D0%BD%D0%B0%D0%BB%D1%96%D0%B7%D0%B0%D1%86%D1%96%D1%8F,+%D1%81%D0%B5%D0%BF%D1%82%D0%B8%D0%BA,+%D0%B1%D1%96%D0%BE%D0%BF%D1%80%D0%B5%D0%BF%D0%B0%D1%80%D0%B0%D1%82%D0%B8,+%D1%81%D0%B5%D0%BF%D0%B0%D1%80%D0%B0%D1%82%D0%BE%D1%80+%D0%B6%D0%B8%D1%80%D1%83+%D1%82%D0%B0+%D0%BD%D0%B0%D1%84%D1%82%D0%B8,+%D1%85%D1%96%D0%BC%D1%96%D1%8F+%D0%B4%D0%BB%D1%8F+%D0%B1%D0%B0%D1%81%D0%B5%D0%B9%D0%BD%D1%96%D0%B2,+%D0%BF%D0%BE%D0%B2%D1%96%D1%82%D1%80%D1%8F%D0%BD%D0%B8%D0%B9+%D0%BA%D0%BE%D0%BC%D0%BF%D1%80%D0%B5%D1%81%D0%BE%D1%80/data=!4m7!3m6!1s0x40d4cd94c71f3ca7:0x3c90b9848cc99f96!8m2!3d50.4020355!4d30.5326906!16s%2Fg%2F11j2rk38v9!19sChIJpzwfx5TN1EARlp_JjIS5kDw?authuser=0&hl=tr&rclk=1",
    "website_url": "",
    "rating_text": "5,0",
    "stars": null,
    "number_of_reviews": null,
    "price_level": "",
    "open_hours": "",
    "extraction_timestamp": "2025-06-08T03:25:49.343Z",
    "source_name": "google",
    "source_query": "Irrigation Equipment",
    "source_country": "UA",
    "country": "Ukraine",
    "state": "Kyivska oblast",
    "city": "Makariv"
  },
  {
    "source_id": "ChIJlf8KTInJ1EARVa2l9X6ROvY",
    "name": "Hunter Автополив Украина",
    "category": "Hunter Автополив Украина",
    "formatted_address": "5,0(3)",
    "phone_number": "+380509998688",
    "source_url": "https://www.google.com/maps/place/Hunter+%D0%90%D0%B2%D1%82%D0%BE%D0%BF%D0%BE%D0%BB%D0%B8%D0%B2+%D0%A3%D0%BA%D1%80%D0%B0%D0%B8%D0%BD%D0%B0/data=!4m7!3m6!1s0x40d4c9894c0aff95:0xf63a917ef5a5ad55!8m2!3d50.4177962!4d30.4415501!16s%2Fg%2F11ngtbpk5k!19sChIJlf8KTInJ1EARVa2l9X6ROvY?authuser=0&hl=tr&rclk=1",
    "website_url": "",
    "rating_text": "5,0",
    "stars": null,
    "number_of_reviews": null,
    "price_level": "",
    "open_hours": "",
    "extraction_timestamp": "2025-06-08T03:25:49.344Z",
    "source_name": "google",
    "source_query": "Irrigation Equipment",
    "source_country": "UA",
    "country": "Ukraine",
    "state": "Kyivska oblast",
    "city": "Makariv"
  },
  {
    "source_id": "ChIJtTknZjM1K0cRM2l5BC4iQi8",
    "name": "Все для газу води тепла",
    "category": "Все для газу води тепла",
    "formatted_address": "5,0(8)",
    "phone_number": "+380979351513",
    "source_url": "https://www.google.com/maps/place/%D0%92%D1%81%D0%B5+%D0%B4%D0%BB%D1%8F+%D0%B3%D0%B0%D0%B7%D1%83+%D0%B2%D0%BE%D0%B4%D0%B8+%D1%82%D0%B5%D0%BF%D0%BB%D0%B0/data=!4m7!3m6!1s0x472b3533662739b5:0x2f42222e04796933!8m2!3d50.4447521!4d30.225737!16s%2Fg%2F11hgc__24n!19sChIJtTknZjM1K0cRM2l5BC4iQi8?authuser=0&hl=tr&rclk=1",
    "website_url": "",
    "rating_text": "5,0",
    "stars": null,
    "number_of_reviews": null,
    "price_level": "",
    "open_hours": "",
    "extraction_timestamp": "2025-06-08T03:25:49.363Z",
    "source_name": "google",
    "source_query": "Irrigation Equipment",
    "source_country": "UA",
    "country": "Ukraine",
    "state": "Kyivska oblast",
    "city": "Makariv"
  },
  {
    "source_id": "ChIJj9B1EqHP1EARDZgdszuCvLs",
    "name": "Системы полива",
    "category": "Системы полива",
    "formatted_address": "Sulama Ekipmanları Tedarikçisi · Lavrska St, 7а / 19Kapalı ⋅ Açılış zamanı: Pzt 09:00 · +380 99 343 8777",
    "phone_number": "+380993438777",
    "source_url": "https://www.google.com/maps/place/%D0%A1%D0%B8%D1%81%D1%82%D0%B5%D0%BC%D1%8B+%D0%BF%D0%BE%D0%BB%D0%B8%D0%B2%D0%B0/data=!4m7!3m6!1s0x40d4cfa11275d08f:0xbbbc823bb31d980d!8m2!3d50.4368044!4d30.5554264!16s%2Fg%2F11qh89rj21!19sChIJj9B1EqHP1EARDZgdszuCvLs?authuser=0&hl=tr&rclk=1",
    "website_url": "",
    "rating_text": "",
    "stars": null,
    "number_of_reviews": null,
    "price_level": "",
    "open_hours": "",
    "extraction_timestamp": "2025-06-08T03:25:49.364Z",
    "source_name": "google",
    "source_query": "Irrigation Equipment",
    "source_country": "UA",
    "country": "Ukraine",
    "state": "Kyivska oblast",
    "city": "Makariv"
  },
  {
    "source_id": "ChIJAQAAz_PL1EARhCPoirnRnec",
    "name": "Profisad",
    "category": "Profisad",
    "formatted_address": "5,0(11)",
    "phone_number": "+380443533851",
    "source_url": "https://www.google.com/maps/place/Profisad/data=!4m7!3m6!1s0x40d4cbf3cf000001:0xe79dd1b98ae82384!8m2!3d50.3879359!4d30.2407464!16s%2Fg%2F11hyt1c0t8!19sChIJAQAAz_PL1EARhCPoirnRnec?authuser=0&hl=tr&rclk=1",
    "website_url": "",
    "rating_text": "5,0",
    "stars": null,
    "number_of_reviews": null,
    "price_level": "",
    "open_hours": "",
    "extraction_timestamp": "2025-06-08T03:25:49.365Z",
    "source_name": "google",
    "source_query": "Irrigation Equipment",
    "source_country": "UA",
    "country": "Ukraine",
    "state": "Kyivska oblast",
    "city": "Makariv"
  }
]
