[
  {
    "source_id": "ChIJ60XEpQbQ1EARVLf9IomIVYg",
    "name": "Poliv UA",
    "category": "Poliv UA",
    "formatted_address": "4,8(64)",
    "phone_number": "+380443379900",
    "source_url": "https://www.google.com/maps/place/Poliv+UA/data=!4m7!3m6!1s0x40d4d006a5c445eb:0x8855888922fdb754!8m2!3d50.4646434!4d30.6255633!16s%2Fg%2F11clsyjy7n!19sChIJ60XEpQbQ1EARVLf9IomIVYg?authuser=0&hl=tr&rclk=1",
    "website_url": "https://poliv.ua/",
    "rating_text": "4,8",
    "stars": null,
    "number_of_reviews": null,
    "price_level": "",
    "open_hours": "",
    "extraction_timestamp": "2025-06-08T03:34:59.686Z",
    "source_name": "google",
    "source_query": "Irrigation Equipment",
    "source_country": "UA",
    "country": "Ukraine",
    "state": "Kyivska oblast",
    "city": "Motovylivka"
  },
  {
    "source_id": "ChIJL7YR72Cr1EARmJfTow0yb_s",
    "name": "Produkty",
    "category": "Produkty",
    "formatted_address": "5,0(10)",
    "phone_number": "+380986021114",
    "source_url": "https://www.google.com/maps/place/Produkty/data=!4m7!3m6!1s0x40d4ab60ef11b62f:0xfb6f320da3d39798!8m2!3d50.1649486!4d30.054066!16s%2Fg%2F11vf1nv54h!19sChIJL7YR72Cr1EARmJfTow0yb_s?authuser=0&hl=tr&rclk=1",
    "website_url": "",
    "rating_text": "5,0",
    "stars": null,
    "number_of_reviews": null,
    "price_level": "",
    "open_hours": "",
    "extraction_timestamp": "2025-06-08T03:34:59.687Z",
    "source_name": "google",
    "source_query": "Irrigation Equipment",
    "source_country": "UA",
    "country": "Ukraine",
    "state": "Kyivska oblast",
    "city": "Motovylivka"
  },
  {
    "source_id": "ChIJ6askr_ev1EARb6xwE24ND_w",
    "name": "Tov \"Khorsh Ukrayina\"",
    "category": "Tov \"Khorsh Ukrayina\"",
    "formatted_address": "4,9(16)",
    "phone_number": "+380800300409",
    "source_url": "https://www.google.com/maps/place/Tov+%22Khorsh+Ukrayina%22/data=!4m7!3m6!1s0x40d4aff7af24abe9:0xfc0f0d6e1370ac6f!8m2!3d50.1560639!4d30.2237372!16s%2Fg%2F11n88lpbzz!19sChIJ6askr_ev1EARb6xwE24ND_w?authuser=0&hl=tr&rclk=1",
    "website_url": "https://www.horsch.com/ua/home",
    "rating_text": "4,9",
    "stars": null,
    "number_of_reviews": null,
    "price_level": "",
    "open_hours": "",
    "extraction_timestamp": "2025-06-08T03:34:59.687Z",
    "source_name": "google",
    "source_query": "Irrigation Equipment",
    "source_country": "UA",
    "country": "Ukraine",
    "state": "Kyivska oblast",
    "city": "Motovylivka"
  },
  {
    "source_id": "ChIJ1wIvnIWr1EARma5K1V66Bcc",
    "name": "Produktovyy Mahazyn \"Zhovtyy\"",
    "category": "Produktovyy Mahazyn \"Zhovtyy\"",
    "formatted_address": "4,3(66)",
    "phone_number": "+380973317348",
    "source_url": "https://www.google.com/maps/place/Produktovyy+Mahazyn+%22Zhovtyy%22/data=!4m7!3m6!1s0x40d4ab859c2f02d7:0xc705ba5ed54aae99!8m2!3d50.1552961!4d30.0617687!16s%2Fg%2F11gvxzkpnr!19sChIJ1wIvnIWr1EARma5K1V66Bcc?authuser=0&hl=tr&rclk=1",
    "website_url": "",
    "rating_text": "4,3",
    "stars": null,
    "number_of_reviews": null,
    "price_level": "",
    "open_hours": "",
    "extraction_timestamp": "2025-06-08T03:34:59.687Z",
    "source_name": "google",
    "source_query": "Irrigation Equipment",
    "source_country": "UA",
    "country": "Ukraine",
    "state": "Kyivska oblast",
    "city": "Motovylivka"
  },
  {
    "source_id": "ChIJl1vIctfw1EARz_qdFqdgKyY",
    "name": "Ukrayinsʹka Ovocheva Kompaniya, Tov",
    "category": "Ukrayinsʹka Ovocheva Kompaniya, Tov",
    "formatted_address": "Ukrayinsʹka Ovocheva Kompaniya, Tov",
    "phone_number": "+380445865256",
    "source_url": "https://www.google.com/maps/place/Ukrayins%CA%B9ka+Ovocheva+Kompaniya,+Tov/data=!4m7!3m6!1s0x40d4f0d772c85b97:0x262b60a7169dfacf!8m2!3d50.2594112!4d31.1803821!16s%2Fg%2F11xdpj24g!19sChIJl1vIctfw1EARz_qdFqdgKyY?authuser=0&hl=tr&rclk=1",
    "website_url": "https://www.uvc.com.ua/",
    "rating_text": "4,6",
    "stars": null,
    "number_of_reviews": null,
    "price_level": "",
    "open_hours": "",
    "extraction_timestamp": "2025-06-08T03:34:59.688Z",
    "source_name": "google",
    "source_query": "Irrigation Equipment",
    "source_country": "UA",
    "country": "Ukraine",
    "state": "Kyivska oblast",
    "city": "Motovylivka"
  },
  {
    "source_id": "ChIJI26OMACr1EARDGOtgho5czE",
    "name": "Магазин Тепличка",
    "category": "Магазин Тепличка",
    "formatted_address": "5,0(1)",
    "phone_number": "",
    "source_url": "https://www.google.com/maps/place/%D0%9C%D0%B0%D0%B3%D0%B0%D0%B7%D0%B8%D0%BD+%D0%A2%D0%B5%D0%BF%D0%BB%D0%B8%D1%87%D0%BA%D0%B0/data=!4m7!3m6!1s0x40d4ab00308e6e23:0x3173391a82ad630c!8m2!3d50.1531563!4d30.0581666!16s%2Fg%2F11lnn0j11k!19sChIJI26OMACr1EARDGOtgho5czE?authuser=0&hl=tr&rclk=1",
    "website_url": "",
    "rating_text": "5,0",
    "stars": null,
    "number_of_reviews": null,
    "price_level": "",
    "open_hours": "",
    "extraction_timestamp": "2025-06-08T03:34:59.688Z",
    "source_name": "google",
    "source_query": "Irrigation Equipment",
    "source_country": "UA",
    "country": "Ukraine",
    "state": "Kyivska oblast",
    "city": "Motovylivka"
  }
]
