[
  {
    "source_id": "ChIJn44-SHaP00AR1o9ctqrXG0A",
    "name": "Аквамарин",
    "category": "Аквамарин",
    "formatted_address": "4,7(6)",
    "phone_number": "+380975117703",
    "source_url": "https://www.google.com/maps/place/%D0%90%D0%BA%D0%B2%D0%B0%D0%BC%D0%B0%D1%80%D0%B8%D0%BD/data=!4m7!3m6!1s0x40d38f76483e8e9f:0x401bd7aab65c8fd6!8m2!3d49.6502751!4d30.9811621!16s%2Fg%2F11h035tg9j!19sChIJn44-SHaP00AR1o9ctqrXG0A?authuser=0&hl=tr&rclk=1",
    "website_url": "",
    "rating_text": "4,7",
    "stars": null,
    "number_of_reviews": null,
    "price_level": "",
    "open_hours": "",
    "extraction_timestamp": "2025-06-08T03:32:17.065Z",
    "source_name": "google",
    "source_query": "Irrigation Equipment",
    "source_country": "UA",
    "country": "Ukraine",
    "state": "Kyivska oblast",
    "city": "Myronivka"
  },
  {
    "source_id": "ChIJv8fvgLWP00ARLJkMRHs7PQM",
    "name": "Мікс Буд",
    "category": "Мікс Буд",
    "formatted_address": "4,5(406)",
    "phone_number": "+380968992996",
    "source_url": "https://www.google.com/maps/place/%D0%9C%D1%96%D0%BA%D1%81+%D0%91%D1%83%D0%B4/data=!4m7!3m6!1s0x40d38fb580efc7bf:0x33d3b7b440c992c!8m2!3d49.651697!4d30.9777533!16s%2Fg%2F11d_pwc472!19sChIJv8fvgLWP00ARLJkMRHs7PQM?authuser=0&hl=tr&rclk=1",
    "website_url": "",
    "rating_text": "4,5",
    "stars": null,
    "number_of_reviews": null,
    "price_level": "",
    "open_hours": "",
    "extraction_timestamp": "2025-06-08T03:32:17.066Z",
    "source_name": "google",
    "source_query": "Irrigation Equipment",
    "source_country": "UA",
    "country": "Ukraine",
    "state": "Kyivska oblast",
    "city": "Myronivka"
  },
  {
    "source_id": "ChIJaS0ZRDWO00ARJeKaXZ49ekU",
    "name": "Shop \"BikeMaster\"",
    "category": "Shop \"BikeMaster\"",
    "formatted_address": "4,8(62)",
    "phone_number": "+380682050615",
    "source_url": "https://www.google.com/maps/place/Shop+%22BikeMaster%22/data=!4m7!3m6!1s0x40d38e3544192d69:0x457a3d9e5d9ae225!8m2!3d49.6492855!4d30.9820056!16s%2Fg%2F11b5wplzkc!19sChIJaS0ZRDWO00ARJeKaXZ49ekU?authuser=0&hl=tr&rclk=1",
    "website_url": "http://bikemaster.com.ua/",
    "rating_text": "4,8",
    "stars": null,
    "number_of_reviews": null,
    "price_level": "",
    "open_hours": "",
    "extraction_timestamp": "2025-06-08T03:32:17.066Z",
    "source_name": "google",
    "source_query": "Irrigation Equipment",
    "source_country": "UA",
    "country": "Ukraine",
    "state": "Kyivska oblast",
    "city": "Myronivka"
  },
  {
    "source_id": "ChIJGRwYh6iP00ARDBhmLyA5qo4",
    "name": "Dnipro-M",
    "category": "Dnipro-M",
    "formatted_address": "4,2(5)",
    "phone_number": "+380674145113",
    "source_url": "https://www.google.com/maps/place/Dnipro-M/data=!4m7!3m6!1s0x40d38fa887181c19:0x8eaa39202f66180c!8m2!3d49.6601005!4d30.9809133!16s%2Fg%2F11vf5n9g0m!19sChIJGRwYh6iP00ARDBhmLyA5qo4?authuser=0&hl=tr&rclk=1",
    "website_url": "https://dnipro-m.ua/s/KADHIj",
    "rating_text": "4,2",
    "stars": null,
    "number_of_reviews": null,
    "price_level": "",
    "open_hours": "",
    "extraction_timestamp": "2025-06-08T03:32:17.067Z",
    "source_name": "google",
    "source_query": "Irrigation Equipment",
    "source_country": "UA",
    "country": "Ukraine",
    "state": "Kyivska oblast",
    "city": "Myronivka"
  },
  {
    "source_id": "ChIJ46yJSzWO00ARv4kSEMwiT_k",
    "name": "Наш стиль",
    "category": "Наш стиль",
    "formatted_address": "4,8(17)",
    "phone_number": "+380983992584",
    "source_url": "https://www.google.com/maps/place/%D0%9D%D0%B0%D1%88+%D1%81%D1%82%D0%B8%D0%BB%D1%8C/data=!4m7!3m6!1s0x40d38e354b89ace3:0xf94f22cc101289bf!8m2!3d49.6496384!4d30.9808938!16s%2Fg%2F1ptvyvzyr!19sChIJ46yJSzWO00ARv4kSEMwiT_k?authuser=0&hl=tr&rclk=1",
    "website_url": "",
    "rating_text": "4,8",
    "stars": null,
    "number_of_reviews": null,
    "price_level": "",
    "open_hours": "",
    "extraction_timestamp": "2025-06-08T03:32:17.067Z",
    "source_name": "google",
    "source_query": "Irrigation Equipment",
    "source_country": "UA",
    "country": "Ukraine",
    "state": "Kyivska oblast",
    "city": "Myronivka"
  },
  {
    "source_id": "ChIJ0c4VTzWO00AR6pX-nXXk0wE",
    "name": "Садівник",
    "category": "Садівник",
    "formatted_address": "5,0(2)",
    "phone_number": "",
    "source_url": "https://www.google.com/maps/place/%D0%A1%D0%B0%D0%B4%D1%96%D0%B2%D0%BD%D0%B8%D0%BA/data=!4m7!3m6!1s0x40d38e354f15ced1:0x1d3e4759dfe95ea!8m2!3d49.6495155!4d30.9811675!16s%2Fg%2F11cpd1139w!19sChIJ0c4VTzWO00AR6pX-nXXk0wE?authuser=0&hl=tr&rclk=1",
    "website_url": "",
    "rating_text": "5,0",
    "stars": null,
    "number_of_reviews": null,
    "price_level": "",
    "open_hours": "",
    "extraction_timestamp": "2025-06-08T03:32:17.080Z",
    "source_name": "google",
    "source_query": "Irrigation Equipment",
    "source_country": "UA",
    "country": "Ukraine",
    "state": "Kyivska oblast",
    "city": "Myronivka"
  },
  {
    "source_id": "ChIJm66FIZ6P00ARZ6oH4i2ubx0",
    "name": "Прораб",
    "category": "Прораб",
    "formatted_address": "4,5(40)",
    "phone_number": "",
    "source_url": "https://www.google.com/maps/place/%D0%9F%D1%80%D0%BE%D1%80%D0%B0%D0%B1/data=!4m7!3m6!1s0x40d38f9e2185ae9b:0x1d6fae2de207aa67!8m2!3d49.67684!4d30.9675615!16s%2Fg%2F11hb3zldld!19sChIJm66FIZ6P00ARZ6oH4i2ubx0?authuser=0&hl=tr&rclk=1",
    "website_url": "",
    "rating_text": "4,5",
    "stars": null,
    "number_of_reviews": null,
    "price_level": "",
    "open_hours": "",
    "extraction_timestamp": "2025-06-08T03:32:17.081Z",
    "source_name": "google",
    "source_query": "Irrigation Equipment",
    "source_country": "UA",
    "country": "Ukraine",
    "state": "Kyivska oblast",
    "city": "Myronivka"
  },
  {
    "source_id": "ChIJUfl2U5OP00ARcZQKdYNt8tI",
    "name": "ROZETKA",
    "category": "ROZETKA",
    "formatted_address": "4,2(14)",
    "phone_number": "",
    "source_url": "https://www.google.com/maps/place/ROZETKA/data=!4m7!3m6!1s0x40d38f935376f951:0xd2f26d83750a9471!8m2!3d49.6598643!4d30.9837562!16s%2Fg%2F11lcm1rfqv!19sChIJUfl2U5OP00ARcZQKdYNt8tI?authuser=0&hl=tr&rclk=1",
    "website_url": "https://rozetka.com.ua/ua/",
    "rating_text": "4,2",
    "stars": null,
    "number_of_reviews": null,
    "price_level": "",
    "open_hours": "",
    "extraction_timestamp": "2025-06-08T03:32:17.082Z",
    "source_name": "google",
    "source_query": "Irrigation Equipment",
    "source_country": "UA",
    "country": "Ukraine",
    "state": "Kyivska oblast",
    "city": "Myronivka"
  }
]
