[
  {
    "source_id": "ChIJbbfubLorK0cRtn0ujlOn-Fs",
    "name": "NERIS",
    "category": "NERIS",
    "formatted_address": "4,9(49)",
    "phone_number": "+380442292888",
    "source_url": "https://www.google.com/maps/place/NERIS/data=!4m7!3m6!1s0x472b2bba6ceeb76d:0x5bf8a7538e2e7db6!8m2!3d50.6407772!4d30.4242892!16s%2Fg%2F11dybcbsj1!19sChIJbbfubLorK0cRtn0ujlOn-Fs?authuser=0&hl=tr&rclk=1",
    "website_url": "",
    "rating_text": "4,9",
    "stars": null,
    "number_of_reviews": null,
    "price_level": "",
    "open_hours": "",
    "extraction_timestamp": "2025-06-08T03:25:59.575Z",
    "source_name": "google",
    "source_query": "Irrigation Equipment",
    "source_country": "UA",
    "country": "Ukraine",
    "state": "Kyivska oblast",
    "city": "Novi Petrivtsi"
  },
  {
    "source_id": "ChIJ2fF1KZYtK0cRFoUMDT0p8Ng",
    "name": "ТТС Комплект",
    "category": "ТТС Комплект",
    "formatted_address": "5,0(2)",
    "phone_number": "+380679035550",
    "source_url": "https://www.google.com/maps/place/%D0%A2%D0%A2%D0%A1+%D0%9A%D0%BE%D0%BC%D0%BF%D0%BB%D0%B5%D0%BA%D1%82/data=!4m7!3m6!1s0x472b2d962975f1d9:0xd8f0293d0d0c8516!8m2!3d50.5942085!4d30.4691245!16s%2Fg%2F11q25ng8jj!19sChIJ2fF1KZYtK0cRFoUMDT0p8Ng?authuser=0&hl=tr&rclk=1",
    "website_url": "",
    "rating_text": "5,0",
    "stars": null,
    "number_of_reviews": null,
    "price_level": "",
    "open_hours": "",
    "extraction_timestamp": "2025-06-08T03:25:59.576Z",
    "source_name": "google",
    "source_query": "Irrigation Equipment",
    "source_country": "UA",
    "country": "Ukraine",
    "state": "Kyivska oblast",
    "city": "Novi Petrivtsi"
  },
  {
    "source_id": "ChIJ11W2AcUrK0cRLd7wLj4GzcU",
    "name": "UKRINSTAL",
    "category": "UKRINSTAL",
    "formatted_address": "4,7(81)",
    "phone_number": "+380675683527",
    "source_url": "https://www.google.com/maps/place/UKRINSTAL/data=!4m7!3m6!1s0x472b2bc501b655d7:0xc5cd063e2ef0de2d!8m2!3d50.6501516!4d30.4031002!16s%2Fg%2F11cjs792m6!19sChIJ11W2AcUrK0cRLd7wLj4GzcU?authuser=0&hl=tr&rclk=1",
    "website_url": "",
    "rating_text": "4,7",
    "stars": null,
    "number_of_reviews": null,
    "price_level": "",
    "open_hours": "",
    "extraction_timestamp": "2025-06-08T03:25:59.577Z",
    "source_name": "google",
    "source_query": "Irrigation Equipment",
    "source_country": "UA",
    "country": "Ukraine",
    "state": "Kyivska oblast",
    "city": "Novi Petrivtsi"
  },
  {
    "source_id": "ChIJV2UClmTI1EARNdnFqIVYElc",
    "name": "Водоемы УкрСад ТМ",
    "category": "Водоемы УкрСад ТМ",
    "formatted_address": "4,2(5)",
    "phone_number": "+380674701982",
    "source_url": "https://www.google.com/maps/place/%D0%92%D0%BE%D0%B4%D0%BE%D0%B5%D0%BC%D1%8B+%D0%A3%D0%BA%D1%80%D0%A1%D0%B0%D0%B4+%D0%A2%D0%9C/data=!4m7!3m6!1s0x40d4c86496026557:0x57125885a8c5d935!8m2!3d50.620343!4d30.4361692!16s%2Fg%2F1262nx3wv!19sChIJV2UClmTI1EARNdnFqIVYElc?authuser=0&hl=tr&rclk=1",
    "website_url": "",
    "rating_text": "4,2",
    "stars": null,
    "number_of_reviews": null,
    "price_level": "",
    "open_hours": "",
    "extraction_timestamp": "2025-06-08T03:25:59.578Z",
    "source_name": "google",
    "source_query": "Irrigation Equipment",
    "source_country": "UA",
    "country": "Ukraine",
    "state": "Kyivska oblast",
    "city": "Novi Petrivtsi"
  },
  {
    "source_id": "ChIJAQCQgLfO1EARg61mpqK4u_8",
    "name": "ZelGear",
    "category": "ZelGear",
    "formatted_address": "4,9(14)",
    "phone_number": "+380683301112",
    "source_url": "https://www.google.com/maps/place/ZelGear/data=!4m7!3m6!1s0x40d4ceb780900001:0xffbbb8a2a666ad83!8m2!3d50.6410125!4d30.4229412!16s%2Fg%2F11fp8ymngc!19sChIJAQCQgLfO1EARg61mpqK4u_8?authuser=0&hl=tr&rclk=1",
    "website_url": "",
    "rating_text": "4,9",
    "stars": null,
    "number_of_reviews": null,
    "price_level": "",
    "open_hours": "",
    "extraction_timestamp": "2025-06-08T03:25:59.579Z",
    "source_name": "google",
    "source_query": "Irrigation Equipment",
    "source_country": "UA",
    "country": "Ukraine",
    "state": "Kyivska oblast",
    "city": "Novi Petrivtsi"
  },
  {
    "source_id": "ChIJD4bzSAArK0cR71EyCKMT_jM",
    "name": "Filʹtrons",
    "category": "Filʹtrons",
    "formatted_address": "5,0(2)",
    "phone_number": "+380934109652",
    "source_url": "https://www.google.com/maps/place/Fil%CA%B9trons/data=!4m7!3m6!1s0x472b2b0048f3860f:0x33fe13a3083251ef!8m2!3d50.6299188!4d30.439202!16s%2Fg%2F11x33fwh8_!19sChIJD4bzSAArK0cR71EyCKMT_jM?authuser=0&hl=tr&rclk=1",
    "website_url": "",
    "rating_text": "5,0",
    "stars": null,
    "number_of_reviews": null,
    "price_level": "",
    "open_hours": "",
    "extraction_timestamp": "2025-06-08T03:25:59.580Z",
    "source_name": "google",
    "source_query": "Irrigation Equipment",
    "source_country": "UA",
    "country": "Ukraine",
    "state": "Kyivska oblast",
    "city": "Novi Petrivtsi"
  },
  {
    "source_id": "ChIJz_bJGpkrK0cRx_nyfPxG9KQ",
    "name": "Ordana sports",
    "category": "Ordana sports",
    "formatted_address": "4,7(85)",
    "phone_number": "",
    "source_url": "https://www.google.com/maps/place/Ordana+sports/data=!4m7!3m6!1s0x472b2b991ac9f6cf:0xa4f446fc7cf2f9c7!8m2!3d50.6276463!4d30.4218883!16s%2Fg%2F11bzs2cvkm!19sChIJz_bJGpkrK0cRx_nyfPxG9KQ?authuser=0&hl=tr&rclk=1",
    "website_url": "",
    "rating_text": "4,7",
    "stars": null,
    "number_of_reviews": null,
    "price_level": "",
    "open_hours": "",
    "extraction_timestamp": "2025-06-08T03:25:59.581Z",
    "source_name": "google",
    "source_query": "Irrigation Equipment",
    "source_country": "UA",
    "country": "Ukraine",
    "state": "Kyivska oblast",
    "city": "Novi Petrivtsi"
  },
  {
    "source_id": "ChIJJVGKxbErK0cR95rmFb97ojw",
    "name": "Монтаж душевых кабин",
    "category": "Монтаж душевых кабин",
    "formatted_address": "5,0(2)",
    "phone_number": "+380967015105",
    "source_url": "https://www.google.com/maps/place/%D0%9C%D0%BE%D0%BD%D1%82%D0%B0%D0%B6+%D0%B4%D1%83%D1%88%D0%B5%D0%B2%D1%8B%D1%85+%D0%BA%D0%B0%D0%B1%D0%B8%D0%BD/data=!4m7!3m6!1s0x472b2bb1c58a5125:0x3ca27bbf15e69af7!8m2!3d50.6213864!4d30.4444761!16s%2Fg%2F11n0cl96t_!19sChIJJVGKxbErK0cR95rmFb97ojw?authuser=0&hl=tr&rclk=1",
    "website_url": "",
    "rating_text": "5,0",
    "stars": null,
    "number_of_reviews": null,
    "price_level": "",
    "open_hours": "",
    "extraction_timestamp": "2025-06-08T03:25:59.582Z",
    "source_name": "google",
    "source_query": "Irrigation Equipment",
    "source_country": "UA",
    "country": "Ukraine",
    "state": "Kyivska oblast",
    "city": "Novi Petrivtsi"
  },
  {
    "source_id": "ChIJqbIZhtcrK0cRvDh4mW0N1JQ",
    "name": "МІФ Агро",
    "category": "МІФ Агро",
    "formatted_address": "5,0(1)",
    "phone_number": "+380967490320",
    "source_url": "https://www.google.com/maps/place/%D0%9C%D0%86%D0%A4+%D0%90%D0%B3%D1%80%D0%BE/data=!4m7!3m6!1s0x472b2bd78619b2a9:0x94d40d6d997838bc!8m2!3d50.6050475!4d30.4542542!16s%2Fg%2F11wqb5d6ds!19sChIJqbIZhtcrK0cRvDh4mW0N1JQ?authuser=0&hl=tr&rclk=1",
    "website_url": "",
    "rating_text": "5,0",
    "stars": null,
    "number_of_reviews": null,
    "price_level": "",
    "open_hours": "",
    "extraction_timestamp": "2025-06-08T03:25:59.583Z",
    "source_name": "google",
    "source_query": "Irrigation Equipment",
    "source_country": "UA",
    "country": "Ukraine",
    "state": "Kyivska oblast",
    "city": "Novi Petrivtsi"
  },
  {
    "source_id": "ChIJF7V7a7orK0cRlAiPLyA4UNg",
    "name": "Дім Сад Город",
    "category": "Дім Сад Город",
    "formatted_address": "4,8(65)",
    "phone_number": "+380951884741",
    "source_url": "https://www.google.com/maps/place/%D0%94%D1%96%D0%BC+%D0%A1%D0%B0%D0%B4+%D0%93%D0%BE%D1%80%D0%BE%D0%B4/data=!4m7!3m6!1s0x472b2bba6b7bb517:0xd85038202f8f0894!8m2!3d50.6154579!4d30.4475815!16s%2Fg%2F11h7jb2hhx!19sChIJF7V7a7orK0cRlAiPLyA4UNg?authuser=0&hl=tr&rclk=1",
    "website_url": "",
    "rating_text": "4,8",
    "stars": null,
    "number_of_reviews": null,
    "price_level": "",
    "open_hours": "",
    "extraction_timestamp": "2025-06-08T03:25:59.584Z",
    "source_name": "google",
    "source_query": "Irrigation Equipment",
    "source_country": "UA",
    "country": "Ukraine",
    "state": "Kyivska oblast",
    "city": "Novi Petrivtsi"
  },
  {
    "source_id": "ChIJi4Au6wsrK0cRzBjJpGvzxaE",
    "name": "Центр видачі замовлень ЕПІЦЕНТР.ua",
    "category": "Центр видачі замовлень ЕПІЦЕНТР.ua",
    "formatted_address": "4,0(4)",
    "phone_number": "+380800202727",
    "source_url": "https://www.google.com/maps/place/%D0%A6%D0%B5%D0%BD%D1%82%D1%80+%D0%B2%D0%B8%D0%B4%D0%B0%D1%87%D1%96+%D0%B7%D0%B0%D0%BC%D0%BE%D0%B2%D0%BB%D0%B5%D0%BD%D1%8C+%D0%95%D0%9F%D0%86%D0%A6%D0%95%D0%9D%D0%A2%D0%A0.ua/data=!4m7!3m6!1s0x472b2b0beb2e808b:0xa1c5f36ba4c918cc!8m2!3d50.6267553!4d30.4423156!16s%2Fg%2F11vsp4m0k6!19sChIJi4Au6wsrK0cRzBjJpGvzxaE?authuser=0&hl=tr&rclk=1",
    "website_url": "",
    "rating_text": "4,0",
    "stars": null,
    "number_of_reviews": null,
    "price_level": "",
    "open_hours": "",
    "extraction_timestamp": "2025-06-08T03:25:59.585Z",
    "source_name": "google",
    "source_query": "Irrigation Equipment",
    "source_country": "UA",
    "country": "Ukraine",
    "state": "Kyivska oblast",
    "city": "Novi Petrivtsi"
  },
  {
    "source_id": "ChIJaUGeRsbP1EARTDhoEOniruI",
    "name": "Генератор. Інвертор. Акумулятор. Вітрогенератор. Сонячні панелі - Enersun.com.ua",
    "category": "Генератор. Інвертор. Акумулятор. Вітрогенератор. Сонячні панелі - Enersun.com.ua",
    "formatted_address": "5,0(6)",
    "phone_number": "+380997340406",
    "source_url": "https://www.google.com/maps/place/%D0%93%D0%B5%D0%BD%D0%B5%D1%80%D0%B0%D1%82%D0%BE%D1%80.+%D0%86%D0%BD%D0%B2%D0%B5%D1%80%D1%82%D0%BE%D1%80.+%D0%90%D0%BA%D1%83%D0%BC%D1%83%D0%BB%D1%8F%D1%82%D0%BE%D1%80.+%D0%92%D1%96%D1%82%D1%80%D0%BE%D0%B3%D0%B5%D0%BD%D0%B5%D1%80%D0%B0%D1%82%D0%BE%D1%80.+%D0%A1%D0%BE%D0%BD%D1%8F%D1%87%D0%BD%D1%96+%D0%BF%D0%B0%D0%BD%D0%B5%D0%BB%D1%96+-+Enersun.com.ua/data=!4m7!3m6!1s0x40d4cfc6469e4169:0xe2aee2e91068384c!8m2!3d50.6363255!4d30.4202967!16s%2Fg%2F11y1jjrb0t!19sChIJaUGeRsbP1EARTDhoEOniruI?authuser=0&hl=tr&rclk=1",
    "website_url": "",
    "rating_text": "5,0",
    "stars": null,
    "number_of_reviews": null,
    "price_level": "",
    "open_hours": "",
    "extraction_timestamp": "2025-06-08T03:25:59.586Z",
    "source_name": "google",
    "source_query": "Irrigation Equipment",
    "source_country": "UA",
    "country": "Ukraine",
    "state": "Kyivska oblast",
    "city": "Novi Petrivtsi"
  },
  {
    "source_id": "ChIJT1fYW2krK0cRwAdQ5qkaq7g",
    "name": "Ital Market",
    "category": "Ital Market",
    "formatted_address": "5,0(9)",
    "phone_number": "",
    "source_url": "https://www.google.com/maps/place/Ital+Market/data=!4m7!3m6!1s0x472b2b695bd8574f:0xb8ab1aa9e65007c0!8m2!3d50.6097671!4d30.4383013!16s%2Fg%2F11vc6069qd!19sChIJT1fYW2krK0cRwAdQ5qkaq7g?authuser=0&hl=tr&rclk=1",
    "website_url": "",
    "rating_text": "5,0",
    "stars": null,
    "number_of_reviews": null,
    "price_level": "",
    "open_hours": "",
    "extraction_timestamp": "2025-06-08T03:25:59.587Z",
    "source_name": "google",
    "source_query": "Irrigation Equipment",
    "source_country": "UA",
    "country": "Ukraine",
    "state": "Kyivska oblast",
    "city": "Novi Petrivtsi"
  },
  {
    "source_id": "ChIJ8QocqaDU1EARh4sJNJuBm-o",
    "name": "Акваточка - доставка води AquaТочка AQUA.",
    "category": "Акваточка - доставка води AquaТочка AQUA.",
    "formatted_address": "4,7(45)",
    "phone_number": "+380965050535",
    "source_url": "https://www.google.com/maps/place/%D0%90%D0%BA%D0%B2%D0%B0%D1%82%D0%BE%D1%87%D0%BA%D0%B0+-+%D0%B4%D0%BE%D1%81%D1%82%D0%B0%D0%B2%D0%BA%D0%B0+%D0%B2%D0%BE%D0%B4%D0%B8+Aqua%D0%A2%D0%BE%D1%87%D0%BA%D0%B0+AQUA./data=!4m7!3m6!1s0x40d4d4a0a91c0af1:0xea9b819b34098b87!8m2!3d50.586994!4d30.496295!16s%2Fg%2F11b7q50htf!19sChIJ8QocqaDU1EARh4sJNJuBm-o?authuser=0&hl=tr&rclk=1",
    "website_url": "",
    "rating_text": "4,7",
    "stars": null,
    "number_of_reviews": null,
    "price_level": "",
    "open_hours": "",
    "extraction_timestamp": "2025-06-08T03:25:59.588Z",
    "source_name": "google",
    "source_query": "Irrigation Equipment",
    "source_country": "UA",
    "country": "Ukraine",
    "state": "Kyivska oblast",
    "city": "Novi Petrivtsi"
  },
  {
    "source_id": "ChIJid0K-FfT1EARD_2mHntUcbQ",
    "name": "Master",
    "category": "Master",
    "formatted_address": "4,5(316)",
    "phone_number": "+380972122199",
    "source_url": "https://www.google.com/maps/place/Master/data=!4m7!3m6!1s0x40d4d357f80add89:0xb471547b1ea6fd0f!8m2!3d50.5886606!4d30.4875123!16s%2Fg%2F11bwk_qzkx!19sChIJid0K-FfT1EARD_2mHntUcbQ?authuser=0&hl=tr&rclk=1",
    "website_url": "",
    "rating_text": "4,5",
    "stars": null,
    "number_of_reviews": null,
    "price_level": "",
    "open_hours": "",
    "extraction_timestamp": "2025-06-08T03:25:59.588Z",
    "source_name": "google",
    "source_query": "Irrigation Equipment",
    "source_country": "UA",
    "country": "Ukraine",
    "state": "Kyivska oblast",
    "city": "Novi Petrivtsi"
  },
  {
    "source_id": "ChIJ8dOgJcotK0cRU-8qrSKqRA4",
    "name": "Good Moyka",
    "category": "Good Moyka",
    "formatted_address": "4,5(245)",
    "phone_number": "+380977555055",
    "source_url": "https://www.google.com/maps/place/Good+Moyka/data=!4m7!3m6!1s0x472b2dca25a0d3f1:0xe44aa22ad2aef53!8m2!3d50.5990147!4d30.4509369!16s%2Fg%2F11jfdr14xd!19sChIJ8dOgJcotK0cRU-8qrSKqRA4?authuser=0&hl=tr&rclk=1",
    "website_url": "",
    "rating_text": "4,5",
    "stars": null,
    "number_of_reviews": null,
    "price_level": "",
    "open_hours": "",
    "extraction_timestamp": "2025-06-08T03:25:59.589Z",
    "source_name": "google",
    "source_query": "Irrigation Equipment",
    "source_country": "UA",
    "country": "Ukraine",
    "state": "Kyivska oblast",
    "city": "Novi Petrivtsi"
  },
  {
    "source_id": "ChIJ4RmiDXErK0cR6ezOnBYSLdI",
    "name": "ROZETKA",
    "category": "ROZETKA",
    "formatted_address": "4,4(20)",
    "phone_number": "",
    "source_url": "https://www.google.com/maps/place/ROZETKA/data=!4m7!3m6!1s0x472b2b710da219e1:0xd22d12169cceece9!8m2!3d50.62692!4d30.4424967!16s%2Fg%2F11ht1dbrf9!19sChIJ4RmiDXErK0cR6ezOnBYSLdI?authuser=0&hl=tr&rclk=1",
    "website_url": "",
    "rating_text": "4,4",
    "stars": null,
    "number_of_reviews": null,
    "price_level": "",
    "open_hours": "",
    "extraction_timestamp": "2025-06-08T03:25:59.590Z",
    "source_name": "google",
    "source_query": "Irrigation Equipment",
    "source_country": "UA",
    "country": "Ukraine",
    "state": "Kyivska oblast",
    "city": "Novi Petrivtsi"
  },
  {
    "source_id": "ChIJ-ZLC7KfU1EARds65zFTrCq4",
    "name": "Твоя Оселя",
    "category": "Твоя Оселя",
    "formatted_address": "4,8(123)",
    "phone_number": "+380972554611",
    "source_url": "https://www.google.com/maps/place/%D0%A2%D0%B2%D0%BE%D1%8F+%D0%9E%D1%81%D0%B5%D0%BB%D1%8F/data=!4m7!3m6!1s0x40d4d4a7ecc292f9:0xae0aeb54ccb9ce76!8m2!3d50.5894331!4d30.4900652!16s%2Fg%2F11bzzzj11x!19sChIJ-ZLC7KfU1EARds65zFTrCq4?authuser=0&hl=tr&rclk=1",
    "website_url": "",
    "rating_text": "4,8",
    "stars": null,
    "number_of_reviews": null,
    "price_level": "",
    "open_hours": "",
    "extraction_timestamp": "2025-06-08T03:25:59.591Z",
    "source_name": "google",
    "source_query": "Irrigation Equipment",
    "source_country": "UA",
    "country": "Ukraine",
    "state": "Kyivska oblast",
    "city": "Novi Petrivtsi"
  },
  {
    "source_id": "ChIJVdLpaoQtK0cRK2PkInJxRl8",
    "name": "Organicmom",
    "category": "Organicmom",
    "formatted_address": "5,0(11)",
    "phone_number": "+380937914571",
    "source_url": "https://www.google.com/maps/place/Organicmom/data=!4m7!3m6!1s0x472b2d846ae9d255:0x5f46717222e4632b!8m2!3d50.6168018!4d30.4355578!16s%2Fg%2F11h1dgk99f!19sChIJVdLpaoQtK0cRK2PkInJxRl8?authuser=0&hl=tr&rclk=1",
    "website_url": "",
    "rating_text": "5,0",
    "stars": null,
    "number_of_reviews": null,
    "price_level": "",
    "open_hours": "",
    "extraction_timestamp": "2025-06-08T03:25:59.592Z",
    "source_name": "google",
    "source_query": "Irrigation Equipment",
    "source_country": "UA",
    "country": "Ukraine",
    "state": "Kyivska oblast",
    "city": "Novi Petrivtsi"
  },
  {
    "source_id": "ChIJSQ2O2Z4rK0cRRHCoc5C65b8",
    "name": "Pershyy Stolychnyy Khlibozavod",
    "category": "Pershyy Stolychnyy Khlibozavod",
    "formatted_address": "4,3(556) · ₺",
    "phone_number": "+380442284048",
    "source_url": "https://www.google.com/maps/place/Pershyy+Stolychnyy+Khlibozavod/data=!4m7!3m6!1s0x472b2b9ed98e0d49:0xbfe5ba9073a87044!8m2!3d50.626604!4d30.4258549!16s%2Fg%2F1pp2tjyj5!19sChIJSQ2O2Z4rK0cRRHCoc5C65b8?authuser=0&hl=tr&rclk=1",
    "website_url": "",
    "rating_text": "4,3",
    "stars": null,
    "number_of_reviews": null,
    "price_level": "",
    "open_hours": "",
    "extraction_timestamp": "2025-06-08T03:25:59.593Z",
    "source_name": "google",
    "source_query": "Irrigation Equipment",
    "source_country": "UA",
    "country": "Ukraine",
    "state": "Kyivska oblast",
    "city": "Novi Petrivtsi"
  },
  {
    "source_id": "ChIJW5FafmgrK0cRdTTi528HOms",
    "name": "Mahazyn Rechi Dlya Malechi",
    "category": "Mahazyn Rechi Dlya Malechi",
    "formatted_address": "4,4(11)",
    "phone_number": "+380997630591",
    "source_url": "https://www.google.com/maps/place/Mahazyn+Rechi+Dlya+Malechi/data=!4m7!3m6!1s0x472b2b687e5a915b:0x6b3a076fe7e23475!8m2!3d50.6115225!4d30.4509211!16s%2Fg%2F11c37kxny_!19sChIJW5FafmgrK0cRdTTi528HOms?authuser=0&hl=tr&rclk=1",
    "website_url": "",
    "rating_text": "4,4",
    "stars": null,
    "number_of_reviews": null,
    "price_level": "",
    "open_hours": "",
    "extraction_timestamp": "2025-06-08T03:25:59.593Z",
    "source_name": "google",
    "source_query": "Irrigation Equipment",
    "source_country": "UA",
    "country": "Ukraine",
    "state": "Kyivska oblast",
    "city": "Novi Petrivtsi"
  },
  {
    "source_id": "ChIJRSPLhmgrK0cRwcVXFqT8-E0",
    "name": "Tsar-Khlib",
    "category": "Tsar-Khlib",
    "formatted_address": "3,8(122)",
    "phone_number": "+380459646748",
    "source_url": "https://www.google.com/maps/place/Tsar-Khlib/data=!4m7!3m6!1s0x472b2b6886cb2345:0x4df8fca41657c5c1!8m2!3d50.6118535!4d30.4507999!16s%2Fg%2F11dzz5vs3s!19sChIJRSPLhmgrK0cRwcVXFqT8-E0?authuser=0&hl=tr&rclk=1",
    "website_url": "",
    "rating_text": "3,8",
    "stars": null,
    "number_of_reviews": null,
    "price_level": "",
    "open_hours": "",
    "extraction_timestamp": "2025-06-08T03:25:59.594Z",
    "source_name": "google",
    "source_query": "Irrigation Equipment",
    "source_country": "UA",
    "country": "Ukraine",
    "state": "Kyivska oblast",
    "city": "Novi Petrivtsi"
  },
  {
    "source_id": "ChIJJ_DvkXErK0cRBXvWPDvd0h8",
    "name": "Dytyachi Tovary",
    "category": "Dytyachi Tovary",
    "formatted_address": "4,0(2)",
    "phone_number": "+380731593700",
    "source_url": "https://www.google.com/maps/place/Dytyachi+Tovary/data=!4m7!3m6!1s0x472b2b7191eff027:0x1fd2dd3b3cd67b05!8m2!3d50.6189321!4d30.4416037!16s%2Fg%2F11c1s7t3x0!19sChIJJ_DvkXErK0cRBXvWPDvd0h8?authuser=0&hl=tr&rclk=1",
    "website_url": "",
    "rating_text": "4,0",
    "stars": null,
    "number_of_reviews": null,
    "price_level": "",
    "open_hours": "",
    "extraction_timestamp": "2025-06-08T03:25:59.595Z",
    "source_name": "google",
    "source_query": "Irrigation Equipment",
    "source_country": "UA",
    "country": "Ukraine",
    "state": "Kyivska oblast",
    "city": "Novi Petrivtsi"
  },
  {
    "source_id": "ChIJ4W-qBl_T1EARzB0VLIZwkrM",
    "name": "Зоомаркет MasterZoo",
    "category": "Зоомаркет MasterZoo",
    "formatted_address": "4,8(27)",
    "phone_number": "+380936460860",
    "source_url": "https://www.google.com/maps/place/%D0%97%D0%BE%D0%BE%D0%BC%D0%B0%D1%80%D0%BA%D0%B5%D1%82+MasterZoo/data=!4m7!3m6!1s0x40d4d35f06aa6fe1:0xb39270862c151dcc!8m2!3d50.5827607!4d30.487399!16s%2Fg%2F11l2cx0j43!19sChIJ4W-qBl_T1EARzB0VLIZwkrM?authuser=0&hl=tr&rclk=1",
    "website_url": "",
    "rating_text": "4,8",
    "stars": null,
    "number_of_reviews": null,
    "price_level": "",
    "open_hours": "",
    "extraction_timestamp": "2025-06-08T03:25:59.596Z",
    "source_name": "google",
    "source_query": "Irrigation Equipment",
    "source_country": "UA",
    "country": "Ukraine",
    "state": "Kyivska oblast",
    "city": "Novi Petrivtsi"
  },
  {
    "source_id": "ChIJt3c6EXQrK0cRO0DyEGMdmms",
    "name": "Produktovyy Mahazyn",
    "category": "Produktovyy Mahazyn",
    "formatted_address": "3,8(110)",
    "phone_number": "+380673877334",
    "source_url": "https://www.google.com/maps/place/Produktovyy+Mahazyn/data=!4m7!3m6!1s0x472b2b74113a77b7:0x6b9a1d6310f2403b!8m2!3d50.6219931!4d30.4368228!16s%2Fg%2F1pp2vjmw8!19sChIJt3c6EXQrK0cRO0DyEGMdmms?authuser=0&hl=tr&rclk=1",
    "website_url": "",
    "rating_text": "3,8",
    "stars": null,
    "number_of_reviews": null,
    "price_level": "",
    "open_hours": "",
    "extraction_timestamp": "2025-06-08T03:25:59.597Z",
    "source_name": "google",
    "source_query": "Irrigation Equipment",
    "source_country": "UA",
    "country": "Ukraine",
    "state": "Kyivska oblast",
    "city": "Novi Petrivtsi"
  },
  {
    "source_id": "ChIJF2267znP1EAR95P2NsQ8FUI",
    "name": "Lao Parts",
    "category": "Lao Parts",
    "formatted_address": "4,6(23)",
    "phone_number": "+380660193572",
    "source_url": "https://www.google.com/maps/place/Lao+Parts/data=!4m7!3m6!1s0x40d4cf39efba6d17:0x42153cc436f693f7!8m2!3d50.6200049!4d30.4433486!16s%2Fg%2F11clspbmdy!19sChIJF2267znP1EAR95P2NsQ8FUI?authuser=0&hl=tr&rclk=1",
    "website_url": "",
    "rating_text": "4,6",
    "stars": null,
    "number_of_reviews": null,
    "price_level": "",
    "open_hours": "",
    "extraction_timestamp": "2025-06-08T03:25:59.598Z",
    "source_name": "google",
    "source_query": "Irrigation Equipment",
    "source_country": "UA",
    "country": "Ukraine",
    "state": "Kyivska oblast",
    "city": "Novi Petrivtsi"
  },
  {
    "source_id": "ChIJmSuLnnMrK0cRxJHtfoA1IyA",
    "name": "ЛотОК",
    "category": "ЛотОК",
    "formatted_address": "3,6(118)",
    "phone_number": "+380800508504",
    "source_url": "https://www.google.com/maps/place/%D0%9B%D0%BE%D1%82%D0%9E%D0%9A/data=!4m7!3m6!1s0x472b2b739e8b2b99:0x202335807eed91c4!8m2!3d50.617895!4d30.441295!16s%2Fg%2F11ghzryfxd!19sChIJmSuLnnMrK0cRxJHtfoA1IyA?authuser=0&hl=tr&rclk=1",
    "website_url": "",
    "rating_text": "3,6",
    "stars": null,
    "number_of_reviews": null,
    "price_level": "",
    "open_hours": "",
    "extraction_timestamp": "2025-06-08T03:25:59.599Z",
    "source_name": "google",
    "source_query": "Irrigation Equipment",
    "source_country": "UA",
    "country": "Ukraine",
    "state": "Kyivska oblast",
    "city": "Novi Petrivtsi"
  },
  {
    "source_id": "ChIJq8nuwQUrK0cRAz0VnNvo-qU",
    "name": "Аптека «Бажаємо здоров'я»",
    "category": "Аптека «Бажаємо здоров'я»",
    "formatted_address": "5,0(12)",
    "phone_number": "+380673194641",
    "source_url": "https://www.google.com/maps/place/%D0%90%D0%BF%D1%82%D0%B5%D0%BA%D0%B0+%C2%AB%D0%91%D0%B0%D0%B6%D0%B0%D1%94%D0%BC%D0%BE+%D0%B7%D0%B4%D0%BE%D1%80%D0%BE%D0%B2%27%D1%8F%C2%BB/data=!4m7!3m6!1s0x472b2b05c1eec9ab:0xa5fae8db9c153d03!8m2!3d50.63902!4d30.42898!16s%2Fg%2F11vq6m8slh!19sChIJq8nuwQUrK0cRAz0VnNvo-qU?authuser=0&hl=tr&rclk=1",
    "website_url": "",
    "rating_text": "5,0",
    "stars": null,
    "number_of_reviews": null,
    "price_level": "",
    "open_hours": "",
    "extraction_timestamp": "2025-06-08T03:25:59.599Z",
    "source_name": "google",
    "source_query": "Irrigation Equipment",
    "source_country": "UA",
    "country": "Ukraine",
    "state": "Kyivska oblast",
    "city": "Novi Petrivtsi"
  },
  {
    "source_id": "ChIJNY4nq5crK0cRF3vBlTZ5pIQ",
    "name": "Будівельний Двір (Строительный Двор)",
    "category": "Будівельний Двір (Строительный Двор)",
    "formatted_address": "Yapı Malzemeleri Mağazası · Polova St, 1аKapalı ⋅ Açılış saati: 08:00",
    "phone_number": "",
    "source_url": "https://www.google.com/maps/place/%D0%91%D1%83%D0%B4%D1%96%D0%B2%D0%B5%D0%BB%D1%8C%D0%BD%D0%B8%D0%B9+%D0%94%D0%B2%D1%96%D1%80+%28%D0%A1%D1%82%D1%80%D0%BE%D0%B8%D1%82%D0%B5%D0%BB%D1%8C%D0%BD%D1%8B%D0%B9+%D0%94%D0%B2%D0%BE%D1%80%29/data=!4m7!3m6!1s0x472b2b97ab278e35:0x84a4793695c17b17!8m2!3d50.6049783!4d30.4532972!16s%2Fg%2F11spb7xl86!19sChIJNY4nq5crK0cRF3vBlTZ5pIQ?authuser=0&hl=tr&rclk=1",
    "website_url": "",
    "rating_text": "",
    "stars": null,
    "number_of_reviews": null,
    "price_level": "",
    "open_hours": "",
    "extraction_timestamp": "2025-06-08T03:25:59.600Z",
    "source_name": "google",
    "source_query": "Irrigation Equipment",
    "source_country": "UA",
    "country": "Ukraine",
    "state": "Kyivska oblast",
    "city": "Novi Petrivtsi"
  },
  {
    "source_id": "ChIJ-bEPJb8LJ0ERiXBEItR5E5s",
    "name": "Зоомаркет MasterZoo",
    "category": "Зоомаркет MasterZoo",
    "formatted_address": "4,5(16)",
    "phone_number": "+380959446635",
    "source_url": "https://www.google.com/maps/place/%D0%97%D0%BE%D0%BE%D0%BC%D0%B0%D1%80%D0%BA%D0%B5%D1%82+MasterZoo/data=!4m7!3m6!1s0x41270bbf250fb1f9:0x9b1379d422447089!8m2!3d50.5841097!4d30.4952512!16s%2Fg%2F11cm3xwv6t!19sChIJ-bEPJb8LJ0ERiXBEItR5E5s?authuser=0&hl=tr&rclk=1",
    "website_url": "",
    "rating_text": "4,5",
    "stars": null,
    "number_of_reviews": null,
    "price_level": "",
    "open_hours": "",
    "extraction_timestamp": "2025-06-08T03:25:59.601Z",
    "source_name": "google",
    "source_query": "Irrigation Equipment",
    "source_country": "UA",
    "country": "Ukraine",
    "state": "Kyivska oblast",
    "city": "Novi Petrivtsi"
  },
  {
    "source_id": "ChIJObz6fwArK0cRVzh0eaSj-tQ",
    "name": "Novi Petrivtsi",
    "category": "Novi Petrivtsi",
    "formatted_address": "3,0(2)",
    "phone_number": "",
    "source_url": "https://www.google.com/maps/place/Novi+Petrivtsi/data=!4m7!3m6!1s0x472b2b007ffabc39:0xd4faa3a479743857!8m2!3d50.6052194!4d30.4615165!16s%2Fg%2F11vz8yvszh!19sChIJObz6fwArK0cRVzh0eaSj-tQ?authuser=0&hl=tr&rclk=1",
    "website_url": "",
    "rating_text": "3,0",
    "stars": null,
    "number_of_reviews": null,
    "price_level": "",
    "open_hours": "",
    "extraction_timestamp": "2025-06-08T03:25:59.601Z",
    "source_name": "google",
    "source_query": "Irrigation Equipment",
    "source_country": "UA",
    "country": "Ukraine",
    "state": "Kyivska oblast",
    "city": "Novi Petrivtsi"
  },
  {
    "source_id": "ChIJSTYDQ0zT1EARvkh0jFYTeEA",
    "name": "Зоопростір Рятівник",
    "category": "Зоопростір Рятівник",
    "formatted_address": "5,0(2)",
    "phone_number": "+380983794303",
    "source_url": "https://www.google.com/maps/place/%D0%97%D0%BE%D0%BE%D0%BF%D1%80%D0%BE%D1%81%D1%82%D1%96%D1%80+%D0%A0%D1%8F%D1%82%D1%96%D0%B2%D0%BD%D0%B8%D0%BA/data=!4m7!3m6!1s0x40d4d34c43033649:0x407813568c7448be!8m2!3d50.5816993!4d30.4885015!16s%2Fg%2F11vqn96g3q!19sChIJSTYDQ0zT1EARvkh0jFYTeEA?authuser=0&hl=tr&rclk=1",
    "website_url": "",
    "rating_text": "5,0",
    "stars": null,
    "number_of_reviews": null,
    "price_level": "",
    "open_hours": "",
    "extraction_timestamp": "2025-06-08T03:25:59.602Z",
    "source_name": "google",
    "source_query": "Irrigation Equipment",
    "source_country": "UA",
    "country": "Ukraine",
    "state": "Kyivska oblast",
    "city": "Novi Petrivtsi"
  }
]
