[
  {
    "source_id": "ChIJq1OAQEXF1EARIAyoFByGrW4",
    "name": "Ahrarna Industrialʹna Kompaniya",
    "category": "Ahrarna Industrialʹna Kompaniya",
    "formatted_address": "4,8(12)",
    "phone_number": "+380504444184",
    "source_url": "https://www.google.com/maps/place/Ahrarna+Industrial%CA%B9na+Kompaniya/data=!4m7!3m6!1s0x40d4c545408053ab:0x6ead861c14a80c20!8m2!3d50.4090678!4d30.6121652!16s%2Fg%2F1tdk3pn4!19sChIJq1OAQEXF1EARIAyoFByGrW4?authuser=0&hl=tr&rclk=1",
    "website_url": "https://aico.ua/",
    "rating_text": "4,8",
    "stars": null,
    "number_of_reviews": null,
    "price_level": "",
    "open_hours": "",
    "extraction_timestamp": "2025-06-08T03:36:04.575Z",
    "source_name": "google",
    "source_query": "Irrigation Equipment",
    "source_country": "UA",
    "country": "Ukraine",
    "state": "Kyivska oblast",
    "city": "Obukhivs’ka Mis’krada"
  },
  {
    "source_id": "ChIJ3fY-526bw0AREQd61gXWh_A",
    "name": "TerraTarsa Ukraine LLC",
    "category": "TerraTarsa Ukraine LLC",
    "formatted_address": "4,6(75)",
    "phone_number": "+380668900934",
    "source_url": "https://www.google.com/maps/place/TerraTarsa+Ukraine+LLC/data=!4m7!3m6!1s0x40c39b6ee73ef6dd:0xf087d605d67a0711!8m2!3d46.4126419!4d30.7248396!16s%2Fg%2F11cmp9scd1!19sChIJ3fY-526bw0AREQd61gXWh_A?authuser=0&hl=tr&rclk=1",
    "website_url": "http://www.terratarsa.com/",
    "rating_text": "4,6",
    "stars": null,
    "number_of_reviews": null,
    "price_level": "",
    "open_hours": "",
    "extraction_timestamp": "2025-06-08T03:36:04.575Z",
    "source_name": "google",
    "source_query": "Irrigation Equipment",
    "source_country": "UA",
    "country": "Ukraine",
    "state": "Kyivska oblast",
    "city": "Obukhivs’ka Mis’krada"
  },
  {
    "source_id": "ChIJWxt4AlHO1EARIhiDVwPGmbM",
    "name": "Eridon",
    "category": "Eridon",
    "formatted_address": "4,4(96)",
    "phone_number": "+380800408700",
    "source_url": "https://www.google.com/maps/place/Eridon/data=!4m7!3m6!1s0x40d4ce5102781b5b:0xb399c60357831822!8m2!3d50.3907885!4d30.4151779!16s%2Fg%2F1tf_rd2m!19sChIJWxt4AlHO1EARIhiDVwPGmbM?authuser=0&hl=tr&rclk=1",
    "website_url": "https://www.eridon.ua/",
    "rating_text": "4,4",
    "stars": null,
    "number_of_reviews": null,
    "price_level": "",
    "open_hours": "",
    "extraction_timestamp": "2025-06-08T03:36:04.576Z",
    "source_name": "google",
    "source_query": "Irrigation Equipment",
    "source_country": "UA",
    "country": "Ukraine",
    "state": "Kyivska oblast",
    "city": "Obukhivs’ka Mis’krada"
  },
  {
    "source_id": "ChIJvyspK_Xb20AR2e7JF5B4AVI",
    "name": "ТОВ \"АГРО ФІТТІНГ\" (капельный полив и орошение)",
    "category": "ТОВ \"АГРО ФІТТІНГ\" (капельный полив и орошение)",
    "formatted_address": "5,0(1)",
    "phone_number": "+380975353218",
    "source_url": "https://www.google.com/maps/place/%D0%A2%D0%9E%D0%92+%22%D0%90%D0%93%D0%A0%D0%9E+%D0%A4%D0%86%D0%A2%D0%A2%D0%86%D0%9D%D0%93%22+%28%D0%BA%D0%B0%D0%BF%D0%B5%D0%BB%D1%8C%D0%BD%D1%8B%D0%B9+%D0%BF%D0%BE%D0%BB%D0%B8%D0%B2+%D0%B8+%D0%BE%D1%80%D0%BE%D1%88%D0%B5%D0%BD%D0%B8%D0%B5%29/data=!4m7!3m6!1s0x40dbdbf52b292bbf:0x5201789017c9eed9!8m2!3d48.5148108!4d34.6180999!16s%2Fg%2F11jm7chmwc!19sChIJvyspK_Xb20AR2e7JF5B4AVI?authuser=0&hl=tr&rclk=1",
    "website_url": "",
    "rating_text": "5,0",
    "stars": null,
    "number_of_reviews": null,
    "price_level": "",
    "open_hours": "",
    "extraction_timestamp": "2025-06-08T03:36:04.576Z",
    "source_name": "google",
    "source_query": "Irrigation Equipment",
    "source_country": "UA",
    "country": "Ukraine",
    "state": "Kyivska oblast",
    "city": "Obukhivs’ka Mis’krada"
  }
]
