[
  {
    "source_id": "ChIJwQ08K-7Z1EARxHXL6lfbDUw",
    "name": "Сантехніка Електрика Кріплення Maximum",
    "category": "Сантехніка Електрика Кріплення Maximum",
    "formatted_address": "5,0(21)",
    "phone_number": "+380962648688",
    "source_url": "https://www.google.com/maps/place/%D0%A1%D0%B0%D0%BD%D1%82%D0%B5%D1%85%D0%BD%D1%96%D0%BA%D0%B0+%D0%95%D0%BB%D0%B5%D0%BA%D1%82%D1%80%D0%B8%D0%BA%D0%B0+%D0%9A%D1%80%D1%96%D0%BF%D0%BB%D0%B5%D0%BD%D0%BD%D1%8F+Maximum/data=!4m7!3m6!1s0x40d4d9ee2b3c0dc1:0x4c0ddb57eacb75c4!8m2!3d50.0711764!4d31.4695738!16s%2Fg%2F11y1_49gqs!19sChIJwQ08K-7Z1EARxHXL6lfbDUw?authuser=0&hl=tr&rclk=1",
    "website_url": "",
    "rating_text": "5,0",
    "stars": null,
    "number_of_reviews": null,
    "price_level": "",
    "open_hours": "",
    "extraction_timestamp": "2025-06-08T03:25:39.273Z",
    "source_name": "google",
    "source_query": "Irrigation Equipment",
    "source_country": "UA",
    "country": "Ukraine",
    "state": "Kyivska oblast",
    "city": "Pereiaslav-Khmelnytskyi"
  },
  {
    "source_id": "ChIJK2OQhylD1EARuUC__2T4e3E",
    "name": "Kp Pereiaslav-Khmelʹnytsʹke Vyrobnyche Upravlinnya Komunalʹnoho Hospodarstva",
    "category": "Kp Pereiaslav-Khmelʹnytsʹke Vyrobnyche Upravlinnya Komunalʹnoho Hospodarstva",
    "formatted_address": "3,6(25)",
    "phone_number": "+380456751750",
    "source_url": "https://www.google.com/maps/place/Kp+Pereiaslav-Khmel%CA%B9nyts%CA%B9ke+Vyrobnyche+Upravlinnya+Komunal%CA%B9noho+Hospodarstva/data=!4m7!3m6!1s0x40d443298790632b:0x717bf864ffbf40b9!8m2!3d50.0829724!4d31.4394511!16s%2Fg%2F11b6d22hfc!19sChIJK2OQhylD1EARuUC__2T4e3E?authuser=0&hl=tr&rclk=1",
    "website_url": "",
    "rating_text": "3,6",
    "stars": null,
    "number_of_reviews": null,
    "price_level": "",
    "open_hours": "",
    "extraction_timestamp": "2025-06-08T03:25:39.274Z",
    "source_name": "google",
    "source_query": "Irrigation Equipment",
    "source_country": "UA",
    "country": "Ukraine",
    "state": "Kyivska oblast",
    "city": "Pereiaslav-Khmelnytskyi"
  },
  {
    "source_id": "ChIJ2Y4zRthD1EARqZ0hafMC-Ic",
    "name": "Dnipro-M",
    "category": "Dnipro-M",
    "formatted_address": "5,0(5)",
    "phone_number": "+380674145102",
    "source_url": "https://www.google.com/maps/place/Dnipro-M/data=!4m7!3m6!1s0x40d443d846338ed9:0x87f802f369219da9!8m2!3d50.070369!4d31.4445672!16s%2Fg%2F11rcqtqx1l!19sChIJ2Y4zRthD1EARqZ0hafMC-Ic?authuser=0&hl=tr&rclk=1",
    "website_url": "",
    "rating_text": "5,0",
    "stars": null,
    "number_of_reviews": null,
    "price_level": "",
    "open_hours": "",
    "extraction_timestamp": "2025-06-08T03:25:39.275Z",
    "source_name": "google",
    "source_query": "Irrigation Equipment",
    "source_country": "UA",
    "country": "Ukraine",
    "state": "Kyivska oblast",
    "city": "Pereiaslav-Khmelnytskyi"
  },
  {
    "source_id": "ChIJzy5_rsFC1EARj0ZAOwXn1PI",
    "name": "Dnipro",
    "category": "Dnipro",
    "formatted_address": "4,6(515)",
    "phone_number": "",
    "source_url": "https://www.google.com/maps/place/Dnipro/data=!4m7!3m6!1s0x40d442c1ae7f2ecf:0xf2d4e7053b40468f!8m2!3d50.0601854!4d31.4419213!16s%2Fg%2F11dftcc8l5!19sChIJzy5_rsFC1EARj0ZAOwXn1PI?authuser=0&hl=tr&rclk=1",
    "website_url": "",
    "rating_text": "4,6",
    "stars": null,
    "number_of_reviews": null,
    "price_level": "",
    "open_hours": "",
    "extraction_timestamp": "2025-06-08T03:25:39.277Z",
    "source_name": "google",
    "source_query": "Irrigation Equipment",
    "source_country": "UA",
    "country": "Ukraine",
    "state": "Kyivska oblast",
    "city": "Pereiaslav-Khmelnytskyi"
  },
  {
    "source_id": "ChIJva8L_KZD1EARdI0KtEWCbB4",
    "name": "Rozetka",
    "category": "Rozetka",
    "formatted_address": "4,8(25)",
    "phone_number": "",
    "source_url": "https://www.google.com/maps/place/Rozetka/data=!4m7!3m6!1s0x40d443a6fc0bafbd:0x1e6c8245b40a8d74!8m2!3d50.0637719!4d31.444694!16s%2Fg%2F11slf9qhb0!19sChIJva8L_KZD1EARdI0KtEWCbB4?authuser=0&hl=tr&rclk=1",
    "website_url": "",
    "rating_text": "4,8",
    "stars": null,
    "number_of_reviews": null,
    "price_level": "",
    "open_hours": "",
    "extraction_timestamp": "2025-06-08T03:25:39.277Z",
    "source_name": "google",
    "source_query": "Irrigation Equipment",
    "source_country": "UA",
    "country": "Ukraine",
    "state": "Kyivska oblast",
    "city": "Pereiaslav-Khmelnytskyi"
  },
  {
    "source_id": "ChIJK3WS48JC1EAREOGvLm8y_ps",
    "name": "технобудмаркет",
    "category": "технобудмаркет",
    "formatted_address": "4,4(148)",
    "phone_number": "+380633475305",
    "source_url": "https://www.google.com/maps/place/%D1%82%D0%B5%D1%85%D0%BD%D0%BE%D0%B1%D1%83%D0%B4%D0%BC%D0%B0%D1%80%D0%BA%D0%B5%D1%82/data=!4m7!3m6!1s0x40d442c2e392752b:0x9bfe326f2eafe110!8m2!3d50.0648587!4d31.4473027!16s%2Fg%2F11c6dzk061!19sChIJK3WS48JC1EAREOGvLm8y_ps?authuser=0&hl=tr&rclk=1",
    "website_url": "",
    "rating_text": "4,4",
    "stars": null,
    "number_of_reviews": null,
    "price_level": "",
    "open_hours": "",
    "extraction_timestamp": "2025-06-08T03:25:39.279Z",
    "source_name": "google",
    "source_query": "Irrigation Equipment",
    "source_country": "UA",
    "country": "Ukraine",
    "state": "Kyivska oblast",
    "city": "Pereiaslav-Khmelnytskyi"
  },
  {
    "source_id": "ChIJJTND1wxD1EARTJ2y4wMmS9s",
    "name": "Центр видачі замовлень ЕПІЦЕНТР.ua",
    "category": "Центр видачі замовлень ЕПІЦЕНТР.ua",
    "formatted_address": "3,6(12)",
    "phone_number": "+380800202727",
    "source_url": "https://www.google.com/maps/place/%D0%A6%D0%B5%D0%BD%D1%82%D1%80+%D0%B2%D0%B8%D0%B4%D0%B0%D1%87%D1%96+%D0%B7%D0%B0%D0%BC%D0%BE%D0%B2%D0%BB%D0%B5%D0%BD%D1%8C+%D0%95%D0%9F%D0%86%D0%A6%D0%95%D0%9D%D0%A2%D0%A0.ua/data=!4m7!3m6!1s0x40d4430cd7433325:0xdb4b2603e3b29d4c!8m2!3d50.0711445!4d31.4578981!16s%2Fg%2F11rrp3t89_!19sChIJJTND1wxD1EARTJ2y4wMmS9s?authuser=0&hl=tr&rclk=1",
    "website_url": "",
    "rating_text": "3,6",
    "stars": null,
    "number_of_reviews": null,
    "price_level": "",
    "open_hours": "",
    "extraction_timestamp": "2025-06-08T03:25:39.280Z",
    "source_name": "google",
    "source_query": "Irrigation Equipment",
    "source_country": "UA",
    "country": "Ukraine",
    "state": "Kyivska oblast",
    "city": "Pereiaslav-Khmelnytskyi"
  },
  {
    "source_id": "ChIJPX7eyHdD1EARgdXfBWB6B7k",
    "name": "Optova Baza Pereiaslav",
    "category": "Optova Baza Pereiaslav",
    "formatted_address": "4,4(7)",
    "phone_number": "+380938277600",
    "source_url": "https://www.google.com/maps/place/Optova+Baza+Pereiaslav/data=!4m7!3m6!1s0x40d44377c8de7e3d:0xb9077a6005dfd581!8m2!3d50.0777455!4d31.4786664!16s%2Fg%2F11qg_xgy68!19sChIJPX7eyHdD1EARgdXfBWB6B7k?authuser=0&hl=tr&rclk=1",
    "website_url": "",
    "rating_text": "4,4",
    "stars": null,
    "number_of_reviews": null,
    "price_level": "",
    "open_hours": "",
    "extraction_timestamp": "2025-06-08T03:25:39.281Z",
    "source_name": "google",
    "source_query": "Irrigation Equipment",
    "source_country": "UA",
    "country": "Ukraine",
    "state": "Kyivska oblast",
    "city": "Pereiaslav-Khmelnytskyi"
  },
  {
    "source_id": "ChIJxWGicr9C1EAR9EgvIBKyhYE",
    "name": "Укрпромпостач",
    "category": "Укрпромпостач",
    "formatted_address": "4,8(250)",
    "phone_number": "+380994378060",
    "source_url": "https://www.google.com/maps/place/%D0%A3%D0%BA%D1%80%D0%BF%D1%80%D0%BE%D0%BC%D0%BF%D0%BE%D1%81%D1%82%D0%B0%D1%87/data=!4m7!3m6!1s0x40d442bf72a261c5:0x8185b212202f48f4!8m2!3d50.0571122!4d31.437112!16s%2Fg%2F11cn7l0djm!19sChIJxWGicr9C1EAR9EgvIBKyhYE?authuser=0&hl=tr&rclk=1",
    "website_url": "",
    "rating_text": "4,8",
    "stars": null,
    "number_of_reviews": null,
    "price_level": "",
    "open_hours": "",
    "extraction_timestamp": "2025-06-08T03:25:39.282Z",
    "source_name": "google",
    "source_query": "Irrigation Equipment",
    "source_country": "UA",
    "country": "Ukraine",
    "state": "Kyivska oblast",
    "city": "Pereiaslav-Khmelnytskyi"
  },
  {
    "source_id": "ChIJI-pD8rVD1EARY83YOJ1I3Js",
    "name": "Pidshypnyky, Salʹnyky, Klynovi Remeni, Humovi Kilʹtsya",
    "category": "Pidshypnyky, Salʹnyky, Klynovi Remeni, Humovi Kilʹtsya",
    "formatted_address": "Pidshypnyky, Salʹnyky, Klynovi Remeni, Humovi Kilʹtsya",
    "phone_number": "+380987717273",
    "source_url": "https://www.google.com/maps/place/Pidshypnyky,+Sal%CA%B9nyky,+Klynovi+Remeni,+Humovi+Kil%CA%B9tsya/data=!4m7!3m6!1s0x40d443b5f243ea23:0x9bdc489d38d8cd63!8m2!3d50.0778398!4d31.4371661!16s%2Fg%2F11rxplgxxd!19sChIJI-pD8rVD1EARY83YOJ1I3Js?authuser=0&hl=tr&rclk=1",
    "website_url": "",
    "rating_text": "5,0",
    "stars": null,
    "number_of_reviews": null,
    "price_level": "",
    "open_hours": "",
    "extraction_timestamp": "2025-06-08T03:25:39.283Z",
    "source_name": "google",
    "source_query": "Irrigation Equipment",
    "source_country": "UA",
    "country": "Ukraine",
    "state": "Kyivska oblast",
    "city": "Pereiaslav-Khmelnytskyi"
  },
  {
    "source_id": "ChIJwSnBytdC1EARbh5aaUCRiV0",
    "name": "СТРОЙМАТЕРИАЛЫ У ПЕТРОВИЧА",
    "category": "СТРОЙМАТЕРИАЛЫ У ПЕТРОВИЧА",
    "formatted_address": "4,0(22)",
    "phone_number": "+380638867595",
    "source_url": "https://www.google.com/maps/place/%D0%A1%D0%A2%D0%A0%D0%9E%D0%99%D0%9C%D0%90%D0%A2%D0%95%D0%A0%D0%98%D0%90%D0%9B%D0%AB+%D0%A3+%D0%9F%D0%95%D0%A2%D0%A0%D0%9E%D0%92%D0%98%D0%A7%D0%90/data=!4m7!3m6!1s0x40d442d7cac129c1:0x5d899140695a1e6e!8m2!3d50.078277!4d31.441842!16s%2Fg%2F11f5bp87n4!19sChIJwSnBytdC1EARbh5aaUCRiV0?authuser=0&hl=tr&rclk=1",
    "website_url": "",
    "rating_text": "4,0",
    "stars": null,
    "number_of_reviews": null,
    "price_level": "",
    "open_hours": "",
    "extraction_timestamp": "2025-06-08T03:25:39.284Z",
    "source_name": "google",
    "source_query": "Irrigation Equipment",
    "source_country": "UA",
    "country": "Ukraine",
    "state": "Kyivska oblast",
    "city": "Pereiaslav-Khmelnytskyi"
  },
  {
    "source_id": "ChIJjxvnDaTJ1EARimoQjk5lRO8",
    "name": "Питна Вода Organic. Доставка Води. ФОП Хоменко Віталій Вікторович",
    "category": "Питна Вода Organic. Доставка Води. ФОП Хоменко Віталій Вікторович",
    "formatted_address": "5,0(2)",
    "phone_number": "+380937529045",
    "source_url": "https://www.google.com/maps/place/%D0%9F%D0%B8%D1%82%D0%BD%D0%B0+%D0%92%D0%BE%D0%B4%D0%B0+Organic.+%D0%94%D0%BE%D1%81%D1%82%D0%B0%D0%B2%D0%BA%D0%B0+%D0%92%D0%BE%D0%B4%D0%B8.+%D0%A4%D0%9E%D0%9F+%D0%A5%D0%BE%D0%BC%D0%B5%D0%BD%D0%BA%D0%BE+%D0%92%D1%96%D1%82%D0%B0%D0%BB%D1%96%D0%B9+%D0%92%D1%96%D0%BA%D1%82%D0%BE%D1%80%D0%BE%D0%B2%D0%B8%D1%87/data=!4m7!3m6!1s0x40d4c9a40de71b8f:0xef44654e8e106a8a!8m2!3d50.0711556!4d31.4591152!16s%2Fg%2F11vwmnl3kp!19sChIJjxvnDaTJ1EARimoQjk5lRO8?authuser=0&hl=tr&rclk=1",
    "website_url": "",
    "rating_text": "5,0",
    "stars": null,
    "number_of_reviews": null,
    "price_level": "",
    "open_hours": "",
    "extraction_timestamp": "2025-06-08T03:25:39.285Z",
    "source_name": "google",
    "source_query": "Irrigation Equipment",
    "source_country": "UA",
    "country": "Ukraine",
    "state": "Kyivska oblast",
    "city": "Pereiaslav-Khmelnytskyi"
  },
  {
    "source_id": "ChIJtfWOqdtC1EARKuYezZdIefM",
    "name": "Eko Market",
    "category": "Eko Market",
    "formatted_address": "3,8(1.366)",
    "phone_number": "+380800502055",
    "source_url": "https://www.google.com/maps/place/Eko+Market/data=!4m7!3m6!1s0x40d442dba98ef5b5:0xf3794897cd1ee62a!8m2!3d50.0697258!4d31.4450873!16s%2Fg%2F1yg6nq_32!19sChIJtfWOqdtC1EARKuYezZdIefM?authuser=0&hl=tr&rclk=1",
    "website_url": "",
    "rating_text": "3,8",
    "stars": null,
    "number_of_reviews": null,
    "price_level": "",
    "open_hours": "",
    "extraction_timestamp": "2025-06-08T03:25:39.288Z",
    "source_name": "google",
    "source_query": "Irrigation Equipment",
    "source_country": "UA",
    "country": "Ukraine",
    "state": "Kyivska oblast",
    "city": "Pereiaslav-Khmelnytskyi"
  },
  {
    "source_id": "ChIJ78OsXuhC1EARhCCJBUuVJEc",
    "name": "Staryy Dvir",
    "category": "Staryy Dvir",
    "formatted_address": "4,5(111)",
    "phone_number": "+380936862688",
    "source_url": "https://www.google.com/maps/place/Staryy+Dvir/data=!4m7!3m6!1s0x40d442e85eacc3ef:0x4724954b05892084!8m2!3d50.063008!4d31.453816!16s%2Fg%2F11bw3d4528!19sChIJ78OsXuhC1EARhCCJBUuVJEc?authuser=0&hl=tr&rclk=1",
    "website_url": "",
    "rating_text": "4,5",
    "stars": null,
    "number_of_reviews": null,
    "price_level": "",
    "open_hours": "",
    "extraction_timestamp": "2025-06-08T03:25:39.289Z",
    "source_name": "google",
    "source_query": "Irrigation Equipment",
    "source_country": "UA",
    "country": "Ukraine",
    "state": "Kyivska oblast",
    "city": "Pereiaslav-Khmelnytskyi"
  },
  {
    "source_id": "ChIJzaI_T-JD1EARQc-qq5Vku7E",
    "name": "Farmer’s FOOD",
    "category": "Farmer’s FOOD",
    "formatted_address": "4,3(6)",
    "phone_number": "+380687938888",
    "source_url": "https://www.google.com/maps/place/Farmer%E2%80%99s+FOOD/data=!4m7!3m6!1s0x40d443e24f3fa2cd:0xb1bb6495abaacf41!8m2!3d50.0711432!4d31.466628!16s%2Fg%2F11x8xj1fq9!19sChIJzaI_T-JD1EARQc-qq5Vku7E?authuser=0&hl=tr&rclk=1",
    "website_url": "",
    "rating_text": "4,3",
    "stars": null,
    "number_of_reviews": null,
    "price_level": "",
    "open_hours": "",
    "extraction_timestamp": "2025-06-08T03:25:39.290Z",
    "source_name": "google",
    "source_query": "Irrigation Equipment",
    "source_country": "UA",
    "country": "Ukraine",
    "state": "Kyivska oblast",
    "city": "Pereiaslav-Khmelnytskyi"
  },
  {
    "source_id": "ChIJLS-k5z1D1EARN_xTRVnAJkU",
    "name": "СТО VAG-Service Pereyaslav",
    "category": "СТО VAG-Service Pereyaslav",
    "formatted_address": "4,4(68)",
    "phone_number": "+380956567760",
    "source_url": "https://www.google.com/maps/place/%D0%A1%D0%A2%D0%9E+VAG-Service+Pereyaslav/data=!4m7!3m6!1s0x40d4433de7a42f2d:0x4526c0594553fc37!8m2!3d50.0579683!4d31.4431525!16s%2Fg%2F11vdjn0crh!19sChIJLS-k5z1D1EARN_xTRVnAJkU?authuser=0&hl=tr&rclk=1",
    "website_url": "",
    "rating_text": "4,4",
    "stars": null,
    "number_of_reviews": null,
    "price_level": "",
    "open_hours": "",
    "extraction_timestamp": "2025-06-08T03:25:39.291Z",
    "source_name": "google",
    "source_query": "Irrigation Equipment",
    "source_country": "UA",
    "country": "Ukraine",
    "state": "Kyivska oblast",
    "city": "Pereiaslav-Khmelnytskyi"
  },
  {
    "source_id": "ChIJu0FunaND1EARByGb0pR4Ej0",
    "name": "Магазин Сантехніки",
    "category": "Магазин Сантехніки",
    "formatted_address": "",
    "phone_number": "+380935075055",
    "source_url": "https://www.google.com/maps/place/%D0%9C%D0%B0%D0%B3%D0%B0%D0%B7%D0%B8%D0%BD+%D0%A1%D0%B0%D0%BD%D1%82%D0%B5%D1%85%D0%BD%D1%96%D0%BA%D0%B8/data=!4m7!3m6!1s0x40d443a39d6e41bb:0x3d127894d29b2107!8m2!3d50.0693042!4d31.443603!16s%2Fg%2F11fs4z5n_2!19sChIJu0FunaND1EARByGb0pR4Ej0?authuser=0&hl=tr&rclk=1",
    "website_url": "",
    "rating_text": "",
    "stars": null,
    "number_of_reviews": null,
    "price_level": "",
    "open_hours": "",
    "extraction_timestamp": "2025-06-08T03:25:39.292Z",
    "source_name": "google",
    "source_query": "Irrigation Equipment",
    "source_country": "UA",
    "country": "Ukraine",
    "state": "Kyivska oblast",
    "city": "Pereiaslav-Khmelnytskyi"
  },
  {
    "source_id": "ChIJVQ9NJyRD1EARv00c9meN6gg",
    "name": "Budivelʹnyk",
    "category": "Budivelʹnyk",
    "formatted_address": "4,0(1)",
    "phone_number": "+380456771725",
    "source_url": "https://www.google.com/maps/place/Budivel%CA%B9nyk/data=!4m7!3m6!1s0x40d44324274d0f55:0x8ea8d67f61c4dbf!8m2!3d50.06506!4d31.4457423!16s%2Fg%2F11f6123mvn!19sChIJVQ9NJyRD1EARv00c9meN6gg?authuser=0&hl=tr&rclk=1",
    "website_url": "",
    "rating_text": "4,0",
    "stars": null,
    "number_of_reviews": null,
    "price_level": "",
    "open_hours": "",
    "extraction_timestamp": "2025-06-08T03:25:39.293Z",
    "source_name": "google",
    "source_query": "Irrigation Equipment",
    "source_country": "UA",
    "country": "Ukraine",
    "state": "Kyivska oblast",
    "city": "Pereiaslav-Khmelnytskyi"
  },
  {
    "source_id": "ChIJr6KRJt5C1EAR1E5Xpp0Gxvg",
    "name": "Eko Market",
    "category": "Eko Market",
    "formatted_address": "3,7(912)",
    "phone_number": "+380800302055",
    "source_url": "https://www.google.com/maps/place/Eko+Market/data=!4m7!3m6!1s0x40d442de2691a2af:0xf8c6069da6574ed4!8m2!3d50.0711889!4d31.4581171!16s%2Fg%2F11btwhhmns!19sChIJr6KRJt5C1EAR1E5Xpp0Gxvg?authuser=0&hl=tr&rclk=1",
    "website_url": "",
    "rating_text": "3,7",
    "stars": null,
    "number_of_reviews": null,
    "price_level": "",
    "open_hours": "",
    "extraction_timestamp": "2025-06-08T03:25:39.294Z",
    "source_name": "google",
    "source_query": "Irrigation Equipment",
    "source_country": "UA",
    "country": "Ukraine",
    "state": "Kyivska oblast",
    "city": "Pereiaslav-Khmelnytskyi"
  },
  {
    "source_id": "ChIJU-67ndlC1EARVfMt8vHjopQ",
    "name": "Bohdanya",
    "category": "Bohdanya",
    "formatted_address": "4,5(96)",
    "phone_number": "+380677751354",
    "source_url": "https://www.google.com/maps/place/Bohdanya/data=!4m7!3m6!1s0x40d442d99dbbee53:0x94a2e3f1f22df355!8m2!3d50.0735559!4d31.4473714!16s%2Fg%2F11f2vb4mlz!19sChIJU-67ndlC1EARVfMt8vHjopQ?authuser=0&hl=tr&rclk=1",
    "website_url": "",
    "rating_text": "4,5",
    "stars": null,
    "number_of_reviews": null,
    "price_level": "",
    "open_hours": "",
    "extraction_timestamp": "2025-06-08T03:25:39.295Z",
    "source_name": "google",
    "source_query": "Irrigation Equipment",
    "source_country": "UA",
    "country": "Ukraine",
    "state": "Kyivska oblast",
    "city": "Pereiaslav-Khmelnytskyi"
  },
  {
    "source_id": "ChIJpUVLIlND1EARIyHbPUxXvBM",
    "name": "Motobarakholka Mopedy, Mototsykly, Skutery, Velosypedy",
    "category": "Motobarakholka Mopedy, Mototsykly, Skutery, Velosypedy",
    "formatted_address": "Motobarakholka Mopedy, Mototsykly, Skutery, Velosypedy",
    "phone_number": "+380936027865",
    "source_url": "https://www.google.com/maps/place/Motobarakholka+Mopedy,+Mototsykly,+Skutery,+Velosypedy/data=!4m7!3m6!1s0x40d44353224b45a5:0x13bc574c3ddb2123!8m2!3d50.0690602!4d31.4439328!16s%2Fg%2F11g0lkfbb0!19sChIJpUVLIlND1EARIyHbPUxXvBM?authuser=0&hl=tr&rclk=1",
    "website_url": "",
    "rating_text": "4,5",
    "stars": null,
    "number_of_reviews": null,
    "price_level": "",
    "open_hours": "",
    "extraction_timestamp": "2025-06-08T03:25:39.296Z",
    "source_name": "google",
    "source_query": "Irrigation Equipment",
    "source_country": "UA",
    "country": "Ukraine",
    "state": "Kyivska oblast",
    "city": "Pereiaslav-Khmelnytskyi"
  },
  {
    "source_id": "ChIJ24-eFj1D1EAR7u6mw-oux1U",
    "name": "Pp Lyubava",
    "category": "Pp Lyubava",
    "formatted_address": "3,9(166)",
    "phone_number": "+380503536475",
    "source_url": "https://www.google.com/maps/place/Pp+Lyubava/data=!4m7!3m6!1s0x40d4433d169e8fdb:0x55c72eeac3a6eeee!8m2!3d50.0845993!4d31.4733934!16s%2Fg%2F11b6d1l7p0!19sChIJ24-eFj1D1EAR7u6mw-oux1U?authuser=0&hl=tr&rclk=1",
    "website_url": "",
    "rating_text": "3,9",
    "stars": null,
    "number_of_reviews": null,
    "price_level": "",
    "open_hours": "",
    "extraction_timestamp": "2025-06-08T03:25:39.297Z",
    "source_name": "google",
    "source_query": "Irrigation Equipment",
    "source_country": "UA",
    "country": "Ukraine",
    "state": "Kyivska oblast",
    "city": "Pereiaslav-Khmelnytskyi"
  },
  {
    "source_id": "ChIJnT99ZuhC1EARwr7GhxfHfcQ",
    "name": "Ekzotika",
    "category": "Ekzotika",
    "formatted_address": "4,0(47)",
    "phone_number": "",
    "source_url": "https://www.google.com/maps/place/Ekzotika/data=!4m7!3m6!1s0x40d442e8667d3f9d:0xc47dc71787c6bec2!8m2!3d50.0635755!4d31.4541499!16s%2Fg%2F11bw3d2z1j!19sChIJnT99ZuhC1EARwr7GhxfHfcQ?authuser=0&hl=tr&rclk=1",
    "website_url": "",
    "rating_text": "4,0",
    "stars": null,
    "number_of_reviews": null,
    "price_level": "",
    "open_hours": "",
    "extraction_timestamp": "2025-06-08T03:25:39.298Z",
    "source_name": "google",
    "source_query": "Irrigation Equipment",
    "source_country": "UA",
    "country": "Ukraine",
    "state": "Kyivska oblast",
    "city": "Pereiaslav-Khmelnytskyi"
  },
  {
    "source_id": "ChIJc9fre-hC1EARn4zSvMqyLkw",
    "name": "Pereyaslavsʹkyy Tsentr Profesiyno-Tekhnichnoyi Osvity Derzhavnyy Profesiyno-Tekhnichnyy Navchalʹnyy Zaklad",
    "category": "Pereyaslavsʹkyy Tsentr Profesiyno-Tekhnichnoyi Osvity Derzhavnyy Profesiyno-Tekhnichnyy Navchalʹnyy Zaklad",
    "formatted_address": "4,6(10)",
    "phone_number": "+380456752040",
    "source_url": "https://www.google.com/maps/place/Pereyaslavs%CA%B9kyy+Tsentr+Profesiyno-Tekhnichnoyi+Osvity+Derzhavnyy+Profesiyno-Tekhnichnyy+Navchal%CA%B9nyy+Zaklad/data=!4m7!3m6!1s0x40d442e87bebd773:0x4c2eb2cabcd28c9f!8m2!3d50.064032!4d31.454906!16s%2Fg%2F11xc3rc3w!19sChIJc9fre-hC1EARn4zSvMqyLkw?authuser=0&hl=tr&rclk=1",
    "website_url": "",
    "rating_text": "4,6",
    "stars": null,
    "number_of_reviews": null,
    "price_level": "",
    "open_hours": "",
    "extraction_timestamp": "2025-06-08T03:25:39.298Z",
    "source_name": "google",
    "source_query": "Irrigation Equipment",
    "source_country": "UA",
    "country": "Ukraine",
    "state": "Kyivska oblast",
    "city": "Pereiaslav-Khmelnytskyi"
  },
  {
    "source_id": "ChIJMeTHEiJD1EAR3HV4g9IO844",
    "name": "КПІ Сервіс",
    "category": "КПІ Сервіс",
    "formatted_address": "4,4(8)",
    "phone_number": "+380638017334",
    "source_url": "https://www.google.com/maps/place/%D0%9A%D0%9F%D0%86+%D0%A1%D0%B5%D1%80%D0%B2%D1%96%D1%81/data=!4m7!3m6!1s0x40d4432212c7e431:0x8ef30ed2837875dc!8m2!3d50.0647835!4d31.4501952!16s%2Fg%2F11nn1b8m8s!19sChIJMeTHEiJD1EAR3HV4g9IO844?authuser=0&hl=tr&rclk=1",
    "website_url": "",
    "rating_text": "4,4",
    "stars": null,
    "number_of_reviews": null,
    "price_level": "",
    "open_hours": "",
    "extraction_timestamp": "2025-06-08T03:25:39.300Z",
    "source_name": "google",
    "source_query": "Irrigation Equipment",
    "source_country": "UA",
    "country": "Ukraine",
    "state": "Kyivska oblast",
    "city": "Pereiaslav-Khmelnytskyi"
  },
  {
    "source_id": "ChIJjXizP99c1EARSiXGbnhaeg8",
    "name": "Produkty",
    "category": "Produkty",
    "formatted_address": "4,2(22)",
    "phone_number": "",
    "source_url": "https://www.google.com/maps/place/Produkty/data=!4m7!3m6!1s0x40d45cdf3fb3788d:0xf7a5a786ec6254a!8m2!3d50.0904298!4d31.4117286!16s%2Fg%2F11c747k7sq!19sChIJjXizP99c1EARSiXGbnhaeg8?authuser=0&hl=tr&rclk=1",
    "website_url": "",
    "rating_text": "4,2",
    "stars": null,
    "number_of_reviews": null,
    "price_level": "",
    "open_hours": "",
    "extraction_timestamp": "2025-06-08T03:25:39.300Z",
    "source_name": "google",
    "source_query": "Irrigation Equipment",
    "source_country": "UA",
    "country": "Ukraine",
    "state": "Kyivska oblast",
    "city": "Pereiaslav-Khmelnytskyi"
  },
  {
    "source_id": "ChIJLZ6gZ8BC1EAR0LwMyFffjFc",
    "name": "Manho",
    "category": "Manho",
    "formatted_address": "4,2(62)",
    "phone_number": "",
    "source_url": "https://www.google.com/maps/place/Manho/data=!4m7!3m6!1s0x40d442c067a09e2d:0x578cdf57c80cbcd0!8m2!3d50.0589946!4d31.4402106!16s%2Fg%2F11dfjydkkp!19sChIJLZ6gZ8BC1EAR0LwMyFffjFc?authuser=0&hl=tr&rclk=1",
    "website_url": "",
    "rating_text": "4,2",
    "stars": null,
    "number_of_reviews": null,
    "price_level": "",
    "open_hours": "",
    "extraction_timestamp": "2025-06-08T03:25:39.301Z",
    "source_name": "google",
    "source_query": "Irrigation Equipment",
    "source_country": "UA",
    "country": "Ukraine",
    "state": "Kyivska oblast",
    "city": "Pereiaslav-Khmelnytskyi"
  }
]
