[
  {
    "source_id": "ChIJwQ08K-7Z1EARxHXL6lfbDUw",
    "name": "Сантехніка Електрика Кріплення Maximum",
    "category": "Сантехніка Електрика Кріплення Maximum",
    "formatted_address": "5,0(21)",
    "phone_number": "+380962648688",
    "source_url": "https://www.google.com/maps/place/%D0%A1%D0%B0%D0%BD%D1%82%D0%B5%D1%85%D0%BD%D1%96%D0%BA%D0%B0+%D0%95%D0%BB%D0%B5%D0%BA%D1%82%D1%80%D0%B8%D0%BA%D0%B0+%D0%9A%D1%80%D1%96%D0%BF%D0%BB%D0%B5%D0%BD%D0%BD%D1%8F+Maximum/data=!4m7!3m6!1s0x40d4d9ee2b3c0dc1:0x4c0ddb57eacb75c4!8m2!3d50.0711764!4d31.4695738!16s%2Fg%2F11y1_49gqs!19sChIJwQ08K-7Z1EARxHXL6lfbDUw?authuser=0&hl=tr&rclk=1",
    "website_url": "",
    "rating_text": "5,0",
    "stars": null,
    "number_of_reviews": null,
    "price_level": "",
    "open_hours": "",
    "extraction_timestamp": "2025-06-08T03:28:30.505Z",
    "source_name": "google",
    "source_query": "Irrigation Equipment",
    "source_country": "UA",
    "country": "Ukraine",
    "state": "Kyivska oblast",
    "city": "Pereiaslav-Khmelnytskyi Raion"
  },
  {
    "source_id": "ChIJK3WS48JC1EAREOGvLm8y_ps",
    "name": "технобудмаркет",
    "category": "технобудмаркет",
    "formatted_address": "4,4(148)",
    "phone_number": "+380633475305",
    "source_url": "https://www.google.com/maps/place/%D1%82%D0%B5%D1%85%D0%BD%D0%BE%D0%B1%D1%83%D0%B4%D0%BC%D0%B0%D1%80%D0%BA%D0%B5%D1%82/data=!4m7!3m6!1s0x40d442c2e392752b:0x9bfe326f2eafe110!8m2!3d50.0648587!4d31.4473027!16s%2Fg%2F11c6dzk061!19sChIJK3WS48JC1EAREOGvLm8y_ps?authuser=0&hl=tr&rclk=1",
    "website_url": "",
    "rating_text": "4,4",
    "stars": null,
    "number_of_reviews": null,
    "price_level": "",
    "open_hours": "",
    "extraction_timestamp": "2025-06-08T03:28:30.506Z",
    "source_name": "google",
    "source_query": "Irrigation Equipment",
    "source_country": "UA",
    "country": "Ukraine",
    "state": "Kyivska oblast",
    "city": "Pereiaslav-Khmelnytskyi Raion"
  },
  {
    "source_id": "ChIJK2OQhylD1EARuUC__2T4e3E",
    "name": "Kp Pereiaslav-Khmelʹnytsʹke Vyrobnyche Upravlinnya Komunalʹnoho Hospodarstva",
    "category": "Kp Pereiaslav-Khmelʹnytsʹke Vyrobnyche Upravlinnya Komunalʹnoho Hospodarstva",
    "formatted_address": "3,6(25)",
    "phone_number": "+380456751750",
    "source_url": "https://www.google.com/maps/place/Kp+Pereiaslav-Khmel%CA%B9nyts%CA%B9ke+Vyrobnyche+Upravlinnya+Komunal%CA%B9noho+Hospodarstva/data=!4m7!3m6!1s0x40d443298790632b:0x717bf864ffbf40b9!8m2!3d50.0829724!4d31.4394511!16s%2Fg%2F11b6d22hfc!19sChIJK2OQhylD1EARuUC__2T4e3E?authuser=0&hl=tr&rclk=1",
    "website_url": "",
    "rating_text": "3,6",
    "stars": null,
    "number_of_reviews": null,
    "price_level": "",
    "open_hours": "",
    "extraction_timestamp": "2025-06-08T03:28:30.507Z",
    "source_name": "google",
    "source_query": "Irrigation Equipment",
    "source_country": "UA",
    "country": "Ukraine",
    "state": "Kyivska oblast",
    "city": "Pereiaslav-Khmelnytskyi Raion"
  },
  {
    "source_id": "ChIJI-pD8rVD1EARY83YOJ1I3Js",
    "name": "Pidshypnyky, Salʹnyky, Klynovi Remeni, Humovi Kilʹtsya",
    "category": "Pidshypnyky, Salʹnyky, Klynovi Remeni, Humovi Kilʹtsya",
    "formatted_address": "Pidshypnyky, Salʹnyky, Klynovi Remeni, Humovi Kilʹtsya",
    "phone_number": "+380987717273",
    "source_url": "https://www.google.com/maps/place/Pidshypnyky,+Sal%CA%B9nyky,+Klynovi+Remeni,+Humovi+Kil%CA%B9tsya/data=!4m7!3m6!1s0x40d443b5f243ea23:0x9bdc489d38d8cd63!8m2!3d50.0778398!4d31.4371661!16s%2Fg%2F11rxplgxxd!19sChIJI-pD8rVD1EARY83YOJ1I3Js?authuser=0&hl=tr&rclk=1",
    "website_url": "",
    "rating_text": "5,0",
    "stars": null,
    "number_of_reviews": null,
    "price_level": "",
    "open_hours": "",
    "extraction_timestamp": "2025-06-08T03:28:30.508Z",
    "source_name": "google",
    "source_query": "Irrigation Equipment",
    "source_country": "UA",
    "country": "Ukraine",
    "state": "Kyivska oblast",
    "city": "Pereiaslav-Khmelnytskyi Raion"
  },
  {
    "source_id": "ChIJwSnBytdC1EARbh5aaUCRiV0",
    "name": "СТРОЙМАТЕРИАЛЫ У ПЕТРОВИЧА",
    "category": "СТРОЙМАТЕРИАЛЫ У ПЕТРОВИЧА",
    "formatted_address": "4,0(22)",
    "phone_number": "+380638867595",
    "source_url": "https://www.google.com/maps/place/%D0%A1%D0%A2%D0%A0%D0%9E%D0%99%D0%9C%D0%90%D0%A2%D0%95%D0%A0%D0%98%D0%90%D0%9B%D0%AB+%D0%A3+%D0%9F%D0%95%D0%A2%D0%A0%D0%9E%D0%92%D0%98%D0%A7%D0%90/data=!4m7!3m6!1s0x40d442d7cac129c1:0x5d899140695a1e6e!8m2!3d50.078277!4d31.441842!16s%2Fg%2F11f5bp87n4!19sChIJwSnBytdC1EARbh5aaUCRiV0?authuser=0&hl=tr&rclk=1",
    "website_url": "",
    "rating_text": "4,0",
    "stars": null,
    "number_of_reviews": null,
    "price_level": "",
    "open_hours": "",
    "extraction_timestamp": "2025-06-08T03:28:30.509Z",
    "source_name": "google",
    "source_query": "Irrigation Equipment",
    "source_country": "UA",
    "country": "Ukraine",
    "state": "Kyivska oblast",
    "city": "Pereiaslav-Khmelnytskyi Raion"
  },
  {
    "source_id": "ChIJH2XEFGVD1EARTwiuLrgaAfw",
    "name": "Mayster",
    "category": "Mayster",
    "formatted_address": "4,5(2)",
    "phone_number": "+380456753509",
    "source_url": "https://www.google.com/maps/place/Mayster/data=!4m7!3m6!1s0x40d4436514c4651f:0xfc011ab82eae084f!8m2!3d50.065134!4d31.4456689!16s%2Fg%2F11f6126tfd!19sChIJH2XEFGVD1EARTwiuLrgaAfw?authuser=0&hl=tr&rclk=1",
    "website_url": "",
    "rating_text": "4,5",
    "stars": null,
    "number_of_reviews": null,
    "price_level": "",
    "open_hours": "",
    "extraction_timestamp": "2025-06-08T03:28:30.510Z",
    "source_name": "google",
    "source_query": "Irrigation Equipment",
    "source_country": "UA",
    "country": "Ukraine",
    "state": "Kyivska oblast",
    "city": "Pereiaslav-Khmelnytskyi Raion"
  },
  {
    "source_id": "ChIJxWGicr9C1EAR9EgvIBKyhYE",
    "name": "Укрпромпостач",
    "category": "Укрпромпостач",
    "formatted_address": "4,8(250)",
    "phone_number": "+380994378060",
    "source_url": "https://www.google.com/maps/place/%D0%A3%D0%BA%D1%80%D0%BF%D1%80%D0%BE%D0%BC%D0%BF%D0%BE%D1%81%D1%82%D0%B0%D1%87/data=!4m7!3m6!1s0x40d442bf72a261c5:0x8185b212202f48f4!8m2!3d50.0571122!4d31.437112!16s%2Fg%2F11cn7l0djm!19sChIJxWGicr9C1EAR9EgvIBKyhYE?authuser=0&hl=tr&rclk=1",
    "website_url": "",
    "rating_text": "4,8",
    "stars": null,
    "number_of_reviews": null,
    "price_level": "",
    "open_hours": "",
    "extraction_timestamp": "2025-06-08T03:28:30.511Z",
    "source_name": "google",
    "source_query": "Irrigation Equipment",
    "source_country": "UA",
    "country": "Ukraine",
    "state": "Kyivska oblast",
    "city": "Pereiaslav-Khmelnytskyi Raion"
  },
  {
    "source_id": "ChIJjxvnDaTJ1EARimoQjk5lRO8",
    "name": "Питна Вода Organic. Доставка Води. ФОП Хоменко Віталій Вікторович",
    "category": "Питна Вода Organic. Доставка Води. ФОП Хоменко Віталій Вікторович",
    "formatted_address": "5,0(2)",
    "phone_number": "+380937529045",
    "source_url": "https://www.google.com/maps/place/%D0%9F%D0%B8%D1%82%D0%BD%D0%B0+%D0%92%D0%BE%D0%B4%D0%B0+Organic.+%D0%94%D0%BE%D1%81%D1%82%D0%B0%D0%B2%D0%BA%D0%B0+%D0%92%D0%BE%D0%B4%D0%B8.+%D0%A4%D0%9E%D0%9F+%D0%A5%D0%BE%D0%BC%D0%B5%D0%BD%D0%BA%D0%BE+%D0%92%D1%96%D1%82%D0%B0%D0%BB%D1%96%D0%B9+%D0%92%D1%96%D0%BA%D1%82%D0%BE%D1%80%D0%BE%D0%B2%D0%B8%D1%87/data=!4m7!3m6!1s0x40d4c9a40de71b8f:0xef44654e8e106a8a!8m2!3d50.0711556!4d31.4591152!16s%2Fg%2F11vwmnl3kp!19sChIJjxvnDaTJ1EARimoQjk5lRO8?authuser=0&hl=tr&rclk=1",
    "website_url": "",
    "rating_text": "5,0",
    "stars": null,
    "number_of_reviews": null,
    "price_level": "",
    "open_hours": "",
    "extraction_timestamp": "2025-06-08T03:28:30.512Z",
    "source_name": "google",
    "source_query": "Irrigation Equipment",
    "source_country": "UA",
    "country": "Ukraine",
    "state": "Kyivska oblast",
    "city": "Pereiaslav-Khmelnytskyi Raion"
  },
  {
    "source_id": "ChIJiUZFCevF1EARE4VVttpIUBU",
    "name": "Budivelʹnyy Dim",
    "category": "Budivelʹnyy Dim",
    "formatted_address": "3,8(6)",
    "phone_number": "+380981023914",
    "source_url": "https://www.google.com/maps/place/Budivel%CA%B9nyy+Dim/data=!4m7!3m6!1s0x40d4c5eb09454689:0x155048dab6558513!8m2!3d50.0635864!4d31.4421962!16s%2Fg%2F11fk3fjk4f!19sChIJiUZFCevF1EARE4VVttpIUBU?authuser=0&hl=tr&rclk=1",
    "website_url": "",
    "rating_text": "3,8",
    "stars": null,
    "number_of_reviews": null,
    "price_level": "",
    "open_hours": "",
    "extraction_timestamp": "2025-06-08T03:28:30.513Z",
    "source_name": "google",
    "source_query": "Irrigation Equipment",
    "source_country": "UA",
    "country": "Ukraine",
    "state": "Kyivska oblast",
    "city": "Pereiaslav-Khmelnytskyi Raion"
  },
  {
    "source_id": "ChIJ4VRzvvNN1EARnGVq9d0pg8E",
    "name": "P'yatachok",
    "category": "P'yatachok",
    "formatted_address": "4,3(19)",
    "phone_number": "",
    "source_url": "https://www.google.com/maps/place/P%27yatachok/data=!4m7!3m6!1s0x40d44df3be7354e1:0xc18329ddf56a659c!8m2!3d50.2590707!4d31.6676484!16s%2Fg%2F11g6p3_nnx!19sChIJ4VRzvvNN1EARnGVq9d0pg8E?authuser=0&hl=tr&rclk=1",
    "website_url": "",
    "rating_text": "4,3",
    "stars": null,
    "number_of_reviews": null,
    "price_level": "",
    "open_hours": "",
    "extraction_timestamp": "2025-06-08T03:28:30.513Z",
    "source_name": "google",
    "source_query": "Irrigation Equipment",
    "source_country": "UA",
    "country": "Ukraine",
    "state": "Kyivska oblast",
    "city": "Pereiaslav-Khmelnytskyi Raion"
  },
  {
    "source_id": "ChIJ78OsXuhC1EARhCCJBUuVJEc",
    "name": "Staryy Dvir",
    "category": "Staryy Dvir",
    "formatted_address": "4,5(111)",
    "phone_number": "+380936862688",
    "source_url": "https://www.google.com/maps/place/Staryy+Dvir/data=!4m7!3m6!1s0x40d442e85eacc3ef:0x4724954b05892084!8m2!3d50.063008!4d31.453816!16s%2Fg%2F11bw3d4528!19sChIJ78OsXuhC1EARhCCJBUuVJEc?authuser=0&hl=tr&rclk=1",
    "website_url": "",
    "rating_text": "4,5",
    "stars": null,
    "number_of_reviews": null,
    "price_level": "",
    "open_hours": "",
    "extraction_timestamp": "2025-06-08T03:28:30.515Z",
    "source_name": "google",
    "source_query": "Irrigation Equipment",
    "source_country": "UA",
    "country": "Ukraine",
    "state": "Kyivska oblast",
    "city": "Pereiaslav-Khmelnytskyi Raion"
  },
  {
    "source_id": "ChIJl1vIctfw1EARz_qdFqdgKyY",
    "name": "Ukrayinsʹka Ovocheva Kompaniya, Tov",
    "category": "Ukrayinsʹka Ovocheva Kompaniya, Tov",
    "formatted_address": "Ukrayinsʹka Ovocheva Kompaniya, Tov",
    "phone_number": "+380445865256",
    "source_url": "https://www.google.com/maps/place/Ukrayins%CA%B9ka+Ovocheva+Kompaniya,+Tov/data=!4m7!3m6!1s0x40d4f0d772c85b97:0x262b60a7169dfacf!8m2!3d50.2594112!4d31.1803821!16s%2Fg%2F11xdpj24g!19sChIJl1vIctfw1EARz_qdFqdgKyY?authuser=0&hl=tr&rclk=1",
    "website_url": "",
    "rating_text": "4,6",
    "stars": null,
    "number_of_reviews": null,
    "price_level": "",
    "open_hours": "",
    "extraction_timestamp": "2025-06-08T03:28:30.516Z",
    "source_name": "google",
    "source_query": "Irrigation Equipment",
    "source_country": "UA",
    "country": "Ukraine",
    "state": "Kyivska oblast",
    "city": "Pereiaslav-Khmelnytskyi Raion"
  },
  {
    "source_id": "ChIJVQ9NJyRD1EARv00c9meN6gg",
    "name": "Budivelʹnyk",
    "category": "Budivelʹnyk",
    "formatted_address": "4,0(1)",
    "phone_number": "+380456771725",
    "source_url": "https://www.google.com/maps/place/Budivel%CA%B9nyk/data=!4m7!3m6!1s0x40d44324274d0f55:0x8ea8d67f61c4dbf!8m2!3d50.06506!4d31.4457423!16s%2Fg%2F11f6123mvn!19sChIJVQ9NJyRD1EARv00c9meN6gg?authuser=0&hl=tr&rclk=1",
    "website_url": "",
    "rating_text": "4,0",
    "stars": null,
    "number_of_reviews": null,
    "price_level": "",
    "open_hours": "",
    "extraction_timestamp": "2025-06-08T03:28:30.517Z",
    "source_name": "google",
    "source_query": "Irrigation Equipment",
    "source_country": "UA",
    "country": "Ukraine",
    "state": "Kyivska oblast",
    "city": "Pereiaslav-Khmelnytskyi Raion"
  },
  {
    "source_id": "ChIJzaI_T-JD1EARQc-qq5Vku7E",
    "name": "Farmer’s FOOD",
    "category": "Farmer’s FOOD",
    "formatted_address": "4,3(6)",
    "phone_number": "+380687938888",
    "source_url": "https://www.google.com/maps/place/Farmer%E2%80%99s+FOOD/data=!4m7!3m6!1s0x40d443e24f3fa2cd:0xb1bb6495abaacf41!8m2!3d50.0711432!4d31.466628!16s%2Fg%2F11x8xj1fq9!19sChIJzaI_T-JD1EARQc-qq5Vku7E?authuser=0&hl=tr&rclk=1",
    "website_url": "",
    "rating_text": "4,3",
    "stars": null,
    "number_of_reviews": null,
    "price_level": "",
    "open_hours": "",
    "extraction_timestamp": "2025-06-08T03:28:30.518Z",
    "source_name": "google",
    "source_query": "Irrigation Equipment",
    "source_country": "UA",
    "country": "Ukraine",
    "state": "Kyivska oblast",
    "city": "Pereiaslav-Khmelnytskyi Raion"
  },
  {
    "source_id": "ChIJu0FunaND1EARByGb0pR4Ej0",
    "name": "Магазин Сантехніки",
    "category": "Магазин Сантехніки",
    "formatted_address": "",
    "phone_number": "+380935075055",
    "source_url": "https://www.google.com/maps/place/%D0%9C%D0%B0%D0%B3%D0%B0%D0%B7%D0%B8%D0%BD+%D0%A1%D0%B0%D0%BD%D1%82%D0%B5%D1%85%D0%BD%D1%96%D0%BA%D0%B8/data=!4m7!3m6!1s0x40d443a39d6e41bb:0x3d127894d29b2107!8m2!3d50.0693042!4d31.443603!16s%2Fg%2F11fs4z5n_2!19sChIJu0FunaND1EARByGb0pR4Ej0?authuser=0&hl=tr&rclk=1",
    "website_url": "",
    "rating_text": "",
    "stars": null,
    "number_of_reviews": null,
    "price_level": "",
    "open_hours": "",
    "extraction_timestamp": "2025-06-08T03:28:30.519Z",
    "source_name": "google",
    "source_query": "Irrigation Equipment",
    "source_country": "UA",
    "country": "Ukraine",
    "state": "Kyivska oblast",
    "city": "Pereiaslav-Khmelnytskyi Raion"
  },
  {
    "source_id": "ChIJ__8rq8NC1EAR0pKL3uGCXFI",
    "name": "Ассоль",
    "category": "Ассоль",
    "formatted_address": "5,0(4)",
    "phone_number": "+380632605463",
    "source_url": "https://www.google.com/maps/place/%D0%90%D1%81%D1%81%D0%BE%D0%BB%D1%8C/data=!4m7!3m6!1s0x40d442c3ab2bffff:0x525c82e1de8b92d2!8m2!3d50.0641396!4d31.4458291!16s%2Fg%2F11hd21rk81!19sChIJ__8rq8NC1EAR0pKL3uGCXFI?authuser=0&hl=tr&rclk=1",
    "website_url": "",
    "rating_text": "5,0",
    "stars": null,
    "number_of_reviews": null,
    "price_level": "",
    "open_hours": "",
    "extraction_timestamp": "2025-06-08T03:28:30.520Z",
    "source_name": "google",
    "source_query": "Irrigation Equipment",
    "source_country": "UA",
    "country": "Ukraine",
    "state": "Kyivska oblast",
    "city": "Pereiaslav-Khmelnytskyi Raion"
  },
  {
    "source_id": "ChIJJTND1wxD1EARTJ2y4wMmS9s",
    "name": "Центр видачі замовлень ЕПІЦЕНТР.ua",
    "category": "Центр видачі замовлень ЕПІЦЕНТР.ua",
    "formatted_address": "3,6(12)",
    "phone_number": "+380800202727",
    "source_url": "https://www.google.com/maps/place/%D0%A6%D0%B5%D0%BD%D1%82%D1%80+%D0%B2%D0%B8%D0%B4%D0%B0%D1%87%D1%96+%D0%B7%D0%B0%D0%BC%D0%BE%D0%B2%D0%BB%D0%B5%D0%BD%D1%8C+%D0%95%D0%9F%D0%86%D0%A6%D0%95%D0%9D%D0%A2%D0%A0.ua/data=!4m7!3m6!1s0x40d4430cd7433325:0xdb4b2603e3b29d4c!8m2!3d50.0711445!4d31.4578981!16s%2Fg%2F11rrp3t89_!19sChIJJTND1wxD1EARTJ2y4wMmS9s?authuser=0&hl=tr&rclk=1",
    "website_url": "",
    "rating_text": "3,6",
    "stars": null,
    "number_of_reviews": null,
    "price_level": "",
    "open_hours": "",
    "extraction_timestamp": "2025-06-08T03:28:30.522Z",
    "source_name": "google",
    "source_query": "Irrigation Equipment",
    "source_country": "UA",
    "country": "Ukraine",
    "state": "Kyivska oblast",
    "city": "Pereiaslav-Khmelnytskyi Raion"
  },
  {
    "source_id": "ChIJLS-k5z1D1EARN_xTRVnAJkU",
    "name": "СТО VAG-Service Pereyaslav",
    "category": "СТО VAG-Service Pereyaslav",
    "formatted_address": "4,4(68)",
    "phone_number": "+380956567760",
    "source_url": "https://www.google.com/maps/place/%D0%A1%D0%A2%D0%9E+VAG-Service+Pereyaslav/data=!4m7!3m6!1s0x40d4433de7a42f2d:0x4526c0594553fc37!8m2!3d50.0579683!4d31.4431525!16s%2Fg%2F11vdjn0crh!19sChIJLS-k5z1D1EARN_xTRVnAJkU?authuser=0&hl=tr&rclk=1",
    "website_url": "",
    "rating_text": "4,4",
    "stars": null,
    "number_of_reviews": null,
    "price_level": "",
    "open_hours": "",
    "extraction_timestamp": "2025-06-08T03:28:30.523Z",
    "source_name": "google",
    "source_query": "Irrigation Equipment",
    "source_country": "UA",
    "country": "Ukraine",
    "state": "Kyivska oblast",
    "city": "Pereiaslav-Khmelnytskyi Raion"
  },
  {
    "source_id": "ChIJncZJGNVD1EARGEuI-fOU04A",
    "name": "Kurkuma_ua",
    "category": "Kurkuma_ua",
    "formatted_address": "5,0(4)",
    "phone_number": "+380934944214",
    "source_url": "https://www.google.com/maps/place/Kurkuma_ua/data=!4m7!3m6!1s0x40d443d51849c69d:0x80d394f3f9884b18!8m2!3d50.0711833!4d31.4591568!16s%2Fg%2F11vlc39hsh!19sChIJncZJGNVD1EARGEuI-fOU04A?authuser=0&hl=tr&rclk=1",
    "website_url": "",
    "rating_text": "5,0",
    "stars": null,
    "number_of_reviews": null,
    "price_level": "",
    "open_hours": "",
    "extraction_timestamp": "2025-06-08T03:28:30.524Z",
    "source_name": "google",
    "source_query": "Irrigation Equipment",
    "source_country": "UA",
    "country": "Ukraine",
    "state": "Kyivska oblast",
    "city": "Pereiaslav-Khmelnytskyi Raion"
  },
  {
    "source_id": "ChIJm2jv9dBC1EARe1kwA4IBpp0",
    "name": "Укрпромпостач",
    "category": "Укрпромпостач",
    "formatted_address": "4,7(82)",
    "phone_number": "+380665680494",
    "source_url": "https://www.google.com/maps/place/%D0%A3%D0%BA%D1%80%D0%BF%D1%80%D0%BE%D0%BC%D0%BF%D0%BE%D1%81%D1%82%D0%B0%D1%87/data=!4m7!3m6!1s0x40d442d0f5ef689b:0x9da601820330597b!8m2!3d50.071561!4d31.4404348!16s%2Fg%2F11cmsjmd4n!19sChIJm2jv9dBC1EARe1kwA4IBpp0?authuser=0&hl=tr&rclk=1",
    "website_url": "",
    "rating_text": "4,7",
    "stars": null,
    "number_of_reviews": null,
    "price_level": "",
    "open_hours": "",
    "extraction_timestamp": "2025-06-08T03:28:30.525Z",
    "source_name": "google",
    "source_query": "Irrigation Equipment",
    "source_country": "UA",
    "country": "Ukraine",
    "state": "Kyivska oblast",
    "city": "Pereiaslav-Khmelnytskyi Raion"
  },
  {
    "source_id": "ChIJyXFVuc5C1EARXPi4yzIyz2g",
    "name": "\"Kramnychka\"",
    "category": "\"Kramnychka\"",
    "formatted_address": "3,7(31)",
    "phone_number": "",
    "source_url": "https://www.google.com/maps/place/%22Kramnychka%22/data=!4m7!3m6!1s0x40d442ceb95571c9:0x68cf3232cbb8f85c!8m2!3d50.0680329!4d31.4277426!16s%2Fg%2F11g8pydjnz!19sChIJyXFVuc5C1EARXPi4yzIyz2g?authuser=0&hl=tr&rclk=1",
    "website_url": "",
    "rating_text": "3,7",
    "stars": null,
    "number_of_reviews": null,
    "price_level": "",
    "open_hours": "",
    "extraction_timestamp": "2025-06-08T03:28:30.525Z",
    "source_name": "google",
    "source_query": "Irrigation Equipment",
    "source_country": "UA",
    "country": "Ukraine",
    "state": "Kyivska oblast",
    "city": "Pereiaslav-Khmelnytskyi Raion"
  },
  {
    "source_id": "ChIJF9l5wxRD1EARFlTGsdDLYZE",
    "name": "Sonyashnyk",
    "category": "Sonyashnyk",
    "formatted_address": "3,4(69)",
    "phone_number": "",
    "source_url": "https://www.google.com/maps/place/Sonyashnyk/data=!4m7!3m6!1s0x40d44314c379d917:0x9161cbd0b1c65416!8m2!3d50.0879072!4d31.4868566!16s%2Fg%2F11dx9gfm0z!19sChIJF9l5wxRD1EARFlTGsdDLYZE?authuser=0&hl=tr&rclk=1",
    "website_url": "",
    "rating_text": "3,4",
    "stars": null,
    "number_of_reviews": null,
    "price_level": "",
    "open_hours": "",
    "extraction_timestamp": "2025-06-08T03:28:30.526Z",
    "source_name": "google",
    "source_query": "Irrigation Equipment",
    "source_country": "UA",
    "country": "Ukraine",
    "state": "Kyivska oblast",
    "city": "Pereiaslav-Khmelnytskyi Raion"
  },
  {
    "source_id": "ChIJlf8KTInJ1EARVa2l9X6ROvY",
    "name": "Hunter Автополив Украина",
    "category": "Hunter Автополив Украина",
    "formatted_address": "5,0(3)",
    "phone_number": "+380509998688",
    "source_url": "https://www.google.com/maps/place/Hunter+%D0%90%D0%B2%D1%82%D0%BE%D0%BF%D0%BE%D0%BB%D0%B8%D0%B2+%D0%A3%D0%BA%D1%80%D0%B0%D0%B8%D0%BD%D0%B0/data=!4m7!3m6!1s0x40d4c9894c0aff95:0xf63a917ef5a5ad55!8m2!3d50.4177962!4d30.4415501!16s%2Fg%2F11ngtbpk5k!19sChIJlf8KTInJ1EARVa2l9X6ROvY?authuser=0&hl=tr&rclk=1",
    "website_url": "",
    "rating_text": "5,0",
    "stars": null,
    "number_of_reviews": null,
    "price_level": "",
    "open_hours": "",
    "extraction_timestamp": "2025-06-08T03:28:30.527Z",
    "source_name": "google",
    "source_query": "Irrigation Equipment",
    "source_country": "UA",
    "country": "Ukraine",
    "state": "Kyivska oblast",
    "city": "Pereiaslav-Khmelnytskyi Raion"
  },
  {
    "source_id": "ChIJNWobpNtC1EARw2a3T_cS7gQ",
    "name": "Watsons",
    "category": "Watsons",
    "formatted_address": "4,5(46)",
    "phone_number": "+380800300333",
    "source_url": "https://www.google.com/maps/place/Watsons/data=!4m7!3m6!1s0x40d442dba41b6a35:0x4ee12f74fb766c3!8m2!3d50.0697258!4d31.4450873!16s%2Fg%2F11d_7ng60f!19sChIJNWobpNtC1EARw2a3T_cS7gQ?authuser=0&hl=tr&rclk=1",
    "website_url": "",
    "rating_text": "4,5",
    "stars": null,
    "number_of_reviews": null,
    "price_level": "",
    "open_hours": "",
    "extraction_timestamp": "2025-06-08T03:28:30.528Z",
    "source_name": "google",
    "source_query": "Irrigation Equipment",
    "source_country": "UA",
    "country": "Ukraine",
    "state": "Kyivska oblast",
    "city": "Pereiaslav-Khmelnytskyi Raion"
  },
  {
    "source_id": "ChIJ6z8dEIND1EAReOyEfRDS0N0",
    "name": "Apteka Ants",
    "category": "Apteka Ants",
    "formatted_address": "5,0(14)",
    "phone_number": "+380930005900",
    "source_url": "https://www.google.com/maps/place/Apteka+Ants/data=!4m7!3m6!1s0x40d44383101d3feb:0xddd0d2107d84ec78!8m2!3d50.0643899!4d31.4425321!16s%2Fg%2F11w439vgkt!19sChIJ6z8dEIND1EAReOyEfRDS0N0?authuser=0&hl=tr&rclk=1",
    "website_url": "",
    "rating_text": "5,0",
    "stars": null,
    "number_of_reviews": null,
    "price_level": "",
    "open_hours": "",
    "extraction_timestamp": "2025-06-08T03:28:30.529Z",
    "source_name": "google",
    "source_query": "Irrigation Equipment",
    "source_country": "UA",
    "country": "Ukraine",
    "state": "Kyivska oblast",
    "city": "Pereiaslav-Khmelnytskyi Raion"
  },
  {
    "source_id": "ChIJ3d6k1vbv1EARvTBvFhVEhy4",
    "name": "Теплохот - котлы, радиаторы, канализация, теплый пол, трубы и фитинги, запорная арматура",
    "category": "Теплохот - котлы, радиаторы, канализация, теплый пол, трубы и фитинги, запорная арматура",
    "formatted_address": "Теплохот - котлы, радиаторы, канализация, теплый пол, трубы и фитинги, запорная арматура",
    "phone_number": "+380633439199",
    "source_url": "https://www.google.com/maps/place/%D0%A2%D0%B5%D0%BF%D0%BB%D0%BE%D1%85%D0%BE%D1%82+-+%D0%BA%D0%BE%D1%82%D0%BB%D1%8B,+%D1%80%D0%B0%D0%B4%D0%B8%D0%B0%D1%82%D0%BE%D1%80%D1%8B,+%D0%BA%D0%B0%D0%BD%D0%B0%D0%BB%D0%B8%D0%B7%D0%B0%D1%86%D0%B8%D1%8F,+%D1%82%D0%B5%D0%BF%D0%BB%D1%8B%D0%B9+%D0%BF%D0%BE%D0%BB,+%D1%82%D1%80%D1%83%D0%B1%D1%8B+%D0%B8+%D1%84%D0%B8%D1%82%D0%B8%D0%BD%D0%B3%D0%B8,+%D0%B7%D0%B0%D0%BF%D0%BE%D1%80%D0%BD%D0%B0%D1%8F+%D0%B0%D1%80%D0%BC%D0%B0%D1%82%D1%83%D1%80%D0%B0/data=!4m7!3m6!1s0x40d4eff6d6a4dedd:0x2e874415166f30bd!8m2!3d50.3427456!4d30.9649025!16s%2Fg%2F11hyl4sn4l!19sChIJ3d6k1vbv1EARvTBvFhVEhy4?authuser=0&hl=tr&rclk=1",
    "website_url": "",
    "rating_text": "5,0",
    "stars": null,
    "number_of_reviews": null,
    "price_level": "",
    "open_hours": "",
    "extraction_timestamp": "2025-06-08T03:28:30.530Z",
    "source_name": "google",
    "source_query": "Irrigation Equipment",
    "source_country": "UA",
    "country": "Ukraine",
    "state": "Kyivska oblast",
    "city": "Pereiaslav-Khmelnytskyi Raion"
  },
  {
    "source_id": "ChIJIRq7a-lC1EARZX3yxInWD60",
    "name": "Modna Skrynya",
    "category": "Modna Skrynya",
    "formatted_address": "5,0(20)",
    "phone_number": "+380970003219",
    "source_url": "https://www.google.com/maps/place/Modna+Skrynya/data=!4m7!3m6!1s0x40d442e96bbb1a21:0xad0fd689c4f27d65!8m2!3d50.0649872!4d31.4548928!16s%2Fg%2F11gf605f9f!19sChIJIRq7a-lC1EARZX3yxInWD60?authuser=0&hl=tr&rclk=1",
    "website_url": "",
    "rating_text": "5,0",
    "stars": null,
    "number_of_reviews": null,
    "price_level": "",
    "open_hours": "",
    "extraction_timestamp": "2025-06-08T03:28:30.531Z",
    "source_name": "google",
    "source_query": "Irrigation Equipment",
    "source_country": "UA",
    "country": "Ukraine",
    "state": "Kyivska oblast",
    "city": "Pereiaslav-Khmelnytskyi Raion"
  },
  {
    "source_id": "ChIJjXizP99c1EARSiXGbnhaeg8",
    "name": "Produkty",
    "category": "Produkty",
    "formatted_address": "4,2(22)",
    "phone_number": "",
    "source_url": "https://www.google.com/maps/place/Produkty/data=!4m7!3m6!1s0x40d45cdf3fb3788d:0xf7a5a786ec6254a!8m2!3d50.0904298!4d31.4117286!16s%2Fg%2F11c747k7sq!19sChIJjXizP99c1EARSiXGbnhaeg8?authuser=0&hl=tr&rclk=1",
    "website_url": "",
    "rating_text": "4,2",
    "stars": null,
    "number_of_reviews": null,
    "price_level": "",
    "open_hours": "",
    "extraction_timestamp": "2025-06-08T03:28:30.531Z",
    "source_name": "google",
    "source_query": "Irrigation Equipment",
    "source_country": "UA",
    "country": "Ukraine",
    "state": "Kyivska oblast",
    "city": "Pereiaslav-Khmelnytskyi Raion"
  },
  {
    "source_id": "ChIJb_7hK_3J1EARF_q8OVgIOkI",
    "name": "Prof-poliv",
    "category": "Prof-poliv",
    "formatted_address": "",
    "phone_number": "+380679563562",
    "source_url": "https://www.google.com/maps/place/Prof-poliv/data=!4m7!3m6!1s0x40d4c9fd2be1fe6f:0x423a085839bcfa17!8m2!3d48.7673154!4d31.1824374!16s%2Fg%2F11ngth6kgd!19sChIJb_7hK_3J1EARF_q8OVgIOkI?authuser=0&hl=tr&rclk=1",
    "website_url": "",
    "rating_text": "",
    "stars": null,
    "number_of_reviews": null,
    "price_level": "",
    "open_hours": "",
    "extraction_timestamp": "2025-06-08T03:28:30.532Z",
    "source_name": "google",
    "source_query": "Irrigation Equipment",
    "source_country": "UA",
    "country": "Ukraine",
    "state": "Kyivska oblast",
    "city": "Pereiaslav-Khmelnytskyi Raion"
  },
  {
    "source_id": "ChIJWbRTxvBD1EARukj1dbFG-6A",
    "name": "COMFY",
    "category": "COMFY",
    "formatted_address": "4,1(212)",
    "phone_number": "+380800303505",
    "source_url": "https://www.google.com/maps/place/COMFY/data=!4m7!3m6!1s0x40d443f0c653b459:0xa0fb46b175f548ba!8m2!3d50.0702232!4d31.4450796!16s%2Fg%2F11hz7822mm!19sChIJWbRTxvBD1EARukj1dbFG-6A?authuser=0&hl=tr&rclk=1",
    "website_url": "",
    "rating_text": "4,1",
    "stars": null,
    "number_of_reviews": null,
    "price_level": "",
    "open_hours": "",
    "extraction_timestamp": "2025-06-08T03:28:30.533Z",
    "source_name": "google",
    "source_query": "Irrigation Equipment",
    "source_country": "UA",
    "country": "Ukraine",
    "state": "Kyivska oblast",
    "city": "Pereiaslav-Khmelnytskyi Raion"
  },
  {
    "source_id": "ChIJFaDSBgBD1EAR3kT-GFC6ZtQ",
    "name": "Sotsialʹnyy Mahazyn",
    "category": "Sotsialʹnyy Mahazyn",
    "formatted_address": "5,0(2)",
    "phone_number": "+380677707419",
    "source_url": "https://www.google.com/maps/place/Sotsial%CA%B9nyy+Mahazyn/data=!4m7!3m6!1s0x40d4430006d2a015:0xd466ba5018fe44de!8m2!3d50.0678904!4d31.4272848!16s%2Fg%2F11w42d32h_!19sChIJFaDSBgBD1EAR3kT-GFC6ZtQ?authuser=0&hl=tr&rclk=1",
    "website_url": "",
    "rating_text": "5,0",
    "stars": null,
    "number_of_reviews": null,
    "price_level": "",
    "open_hours": "",
    "extraction_timestamp": "2025-06-08T03:28:30.534Z",
    "source_name": "google",
    "source_query": "Irrigation Equipment",
    "source_country": "UA",
    "country": "Ukraine",
    "state": "Kyivska oblast",
    "city": "Pereiaslav-Khmelnytskyi Raion"
  },
  {
    "source_id": "ChIJ_Zxr13_J1EARDJ3-a6YLk_c",
    "name": "Зоомагазин 13 Cats",
    "category": "Зоомагазин 13 Cats",
    "formatted_address": "5,0(2)",
    "phone_number": "+380737303300",
    "source_url": "https://www.google.com/maps/place/%D0%97%D0%BE%D0%BE%D0%BC%D0%B0%D0%B3%D0%B0%D0%B7%D0%B8%D0%BD+13+Cats/data=!4m7!3m6!1s0x40d4c97fd76b9cfd:0xf7930ba66bfe9d0c!8m2!3d50.3695212!4d30.4480119!16s%2Fg%2F11x6js644m!19sChIJ_Zxr13_J1EARDJ3-a6YLk_c?authuser=0&hl=tr&rclk=1",
    "website_url": "",
    "rating_text": "5,0",
    "stars": null,
    "number_of_reviews": null,
    "price_level": "",
    "open_hours": "",
    "extraction_timestamp": "2025-06-08T03:28:30.535Z",
    "source_name": "google",
    "source_query": "Irrigation Equipment",
    "source_country": "UA",
    "country": "Ukraine",
    "state": "Kyivska oblast",
    "city": "Pereiaslav-Khmelnytskyi Raion"
  }
]
