[
  {
    "source_id": "ChIJE60f2DPP1EARCqjSrjIeXBw",
    "name": "СпецПоливСервіс",
    "category": "СпецПоливСервіс",
    "formatted_address": "5,0(17)",
    "phone_number": "+380970822608",
    "source_url": "https://www.google.com/maps/place/%D0%A1%D0%BF%D0%B5%D1%86%D0%9F%D0%BE%D0%BB%D0%B8%D0%B2%D0%A1%D0%B5%D1%80%D0%B2%D1%96%D1%81/data=!4m7!3m6!1s0x40d4cf33d81fad13:0x1c5c1e32aed2a80a!8m2!3d50.463344!4d30.589573!16s%2Fg%2F11h0trxk1!19sChIJE60f2DPP1EARCqjSrjIeXBw?authuser=0&hl=tr&rclk=1",
    "website_url": "http://poliv-service.kiev.ua/",
    "rating_text": "5,0",
    "stars": null,
    "number_of_reviews": null,
    "price_level": "",
    "open_hours": "",
    "extraction_timestamp": "2025-06-08T03:30:20.198Z",
    "source_name": "google",
    "source_query": "Irrigation Equipment",
    "source_country": "UA",
    "country": "Ukraine",
    "state": "Kyivska oblast",
    "city": "Pohreby"
  },
  {
    "source_id": "ChIJ60XEpQbQ1EARVLf9IomIVYg",
    "name": "Poliv UA",
    "category": "Poliv UA",
    "formatted_address": "4,8(64)",
    "phone_number": "+380443379900",
    "source_url": "https://www.google.com/maps/place/Poliv+UA/data=!4m7!3m6!1s0x40d4d006a5c445eb:0x8855888922fdb754!8m2!3d50.4646434!4d30.6255633!16s%2Fg%2F11clsyjy7n!19sChIJ60XEpQbQ1EARVLf9IomIVYg?authuser=0&hl=tr&rclk=1",
    "website_url": "https://poliv.ua/",
    "rating_text": "4,8",
    "stars": null,
    "number_of_reviews": null,
    "price_level": "",
    "open_hours": "",
    "extraction_timestamp": "2025-06-08T03:30:20.199Z",
    "source_name": "google",
    "source_query": "Irrigation Equipment",
    "source_country": "UA",
    "country": "Ukraine",
    "state": "Kyivska oblast",
    "city": "Pohreby"
  },
  {
    "source_id": "ChIJRWEo5irX1EARk92aE5kgMSQ",
    "name": "Tov \"Absolyut-Kaloris\"",
    "category": "Tov \"Absolyut-Kaloris\"",
    "formatted_address": "4,8(27)",
    "phone_number": "+380975598855",
    "source_url": "https://www.google.com/maps/place/Tov+%22Absolyut-Kaloris%22/data=!4m7!3m6!1s0x40d4d72ae6286145:0x24312099139add93!8m2!3d50.5429508!4d30.6533095!16s%2Fg%2F11d_2g800w!19sChIJRWEo5irX1EARk92aE5kgMSQ?authuser=0&hl=tr&rclk=1",
    "website_url": "",
    "rating_text": "4,8",
    "stars": null,
    "number_of_reviews": null,
    "price_level": "",
    "open_hours": "",
    "extraction_timestamp": "2025-06-08T03:30:20.200Z",
    "source_name": "google",
    "source_query": "Irrigation Equipment",
    "source_country": "UA",
    "country": "Ukraine",
    "state": "Kyivska oblast",
    "city": "Pohreby"
  },
  {
    "source_id": "ChIJ6e9f0lzX1EARNNVH7YcWBps",
    "name": "Green House",
    "category": "Green House",
    "formatted_address": "4,9(16)",
    "phone_number": "+380987770699",
    "source_url": "https://www.google.com/maps/place/Green+House/data=!4m7!3m6!1s0x40d4d75cd25fefe9:0x9b061687ed47d534!8m2!3d50.5525814!4d30.666319!16s%2Fg%2F11fn9fcj_3!19sChIJ6e9f0lzX1EARNNVH7YcWBps?authuser=0&hl=tr&rclk=1",
    "website_url": "https://greenhouseukr.wixsite.com/kiev",
    "rating_text": "4,9",
    "stars": null,
    "number_of_reviews": null,
    "price_level": "",
    "open_hours": "",
    "extraction_timestamp": "2025-06-08T03:30:20.201Z",
    "source_name": "google",
    "source_query": "Irrigation Equipment",
    "source_country": "UA",
    "country": "Ukraine",
    "state": "Kyivska oblast",
    "city": "Pohreby"
  },
  {
    "source_id": "ChIJf4jHN1LM1EARBkfaDZQGDTw",
    "name": "Dr. Sprinkler",
    "category": "Dr. Sprinkler",
    "formatted_address": "4,8(4)",
    "phone_number": "+380965335353",
    "source_url": "https://www.google.com/maps/place/Dr.+Sprinkler/data=!4m7!3m6!1s0x40d4cc5237c7887f:0x3c0d06940dda4706!8m2!3d50.4105845!4d30.558873!16s%2Fg%2F1q6j9h1m6!19sChIJf4jHN1LM1EARBkfaDZQGDTw?authuser=0&hl=tr&rclk=1",
    "website_url": "http://www.dr-sprinkler.com.ua/",
    "rating_text": "4,8",
    "stars": null,
    "number_of_reviews": null,
    "price_level": "",
    "open_hours": "",
    "extraction_timestamp": "2025-06-08T03:30:20.202Z",
    "source_name": "google",
    "source_query": "Irrigation Equipment",
    "source_country": "UA",
    "country": "Ukraine",
    "state": "Kyivska oblast",
    "city": "Pohreby"
  },
  {
    "source_id": "ChIJ56q7V0XR1EARi-X6gIWXyMk",
    "name": "Lowara",
    "category": "Lowara",
    "formatted_address": "5,0(2)",
    "phone_number": "+380443531010",
    "source_url": "https://www.google.com/maps/place/Lowara/data=!4m7!3m6!1s0x40d4d14557bbaae7:0xc9c8978580fae58b!8m2!3d50.5320268!4d30.6063071!16s%2Fg%2F11fq4npkkm!19sChIJ56q7V0XR1EARi-X6gIWXyMk?authuser=0&hl=tr&rclk=1",
    "website_url": "https://lowara.ua/",
    "rating_text": "5,0",
    "stars": null,
    "number_of_reviews": null,
    "price_level": "",
    "open_hours": "",
    "extraction_timestamp": "2025-06-08T03:30:20.204Z",
    "source_name": "google",
    "source_query": "Irrigation Equipment",
    "source_country": "UA",
    "country": "Ukraine",
    "state": "Kyivska oblast",
    "city": "Pohreby"
  },
  {
    "source_id": "ChIJq1OAQEXF1EARIAyoFByGrW4",
    "name": "Ahrarna Industrialʹna Kompaniya",
    "category": "Ahrarna Industrialʹna Kompaniya",
    "formatted_address": "4,8(12)",
    "phone_number": "+380504444184",
    "source_url": "https://www.google.com/maps/place/Ahrarna+Industrial%CA%B9na+Kompaniya/data=!4m7!3m6!1s0x40d4c545408053ab:0x6ead861c14a80c20!8m2!3d50.4090678!4d30.6121652!16s%2Fg%2F1tdk3pn4!19sChIJq1OAQEXF1EARIAyoFByGrW4?authuser=0&hl=tr&rclk=1",
    "website_url": "https://aico.ua/",
    "rating_text": "4,8",
    "stars": null,
    "number_of_reviews": null,
    "price_level": "",
    "open_hours": "",
    "extraction_timestamp": "2025-06-08T03:30:20.205Z",
    "source_name": "google",
    "source_query": "Irrigation Equipment",
    "source_country": "UA",
    "country": "Ukraine",
    "state": "Kyivska oblast",
    "city": "Pohreby"
  },
  {
    "source_id": "ChIJCYu5h1HM1EARx7Y3PlVk1Qg",
    "name": "Магазин \"Все для полива\"",
    "category": "Магазин \"Все для полива\"",
    "formatted_address": "4,1(20)",
    "phone_number": "+380443377471",
    "source_url": "https://www.google.com/maps/place/%D0%9C%D0%B0%D0%B3%D0%B0%D0%B7%D0%B8%D0%BD+%22%D0%92%D1%81%D0%B5+%D0%B4%D0%BB%D1%8F+%D0%BF%D0%BE%D0%BB%D0%B8%D0%B2%D0%B0%22/data=!4m7!3m6!1s0x40d4cc5187b98b09:0x8d564553e37b6c7!8m2!3d50.4670475!4d30.4167422!16s%2Fg%2F11bw2kmh2k!19sChIJCYu5h1HM1EARx7Y3PlVk1Qg?authuser=0&hl=tr&rclk=1",
    "website_url": "http://www.irrigator.com.ua/",
    "rating_text": "4,1",
    "stars": null,
    "number_of_reviews": null,
    "price_level": "",
    "open_hours": "",
    "extraction_timestamp": "2025-06-08T03:30:20.206Z",
    "source_name": "google",
    "source_query": "Irrigation Equipment",
    "source_country": "UA",
    "country": "Ukraine",
    "state": "Kyivska oblast",
    "city": "Pohreby"
  },
  {
    "source_id": "ChIJq6p6ek3J1EAR_QyV4w95Pkw",
    "name": "Системы полива",
    "category": "Системы полива",
    "formatted_address": "Çim Yağmurlama Sistemi Yüklenicisi · Zhylianska St, 48/50+380 67 190 9989",
    "phone_number": "+380671909989",
    "source_url": "https://www.google.com/maps/place/%D0%A1%D0%B8%D1%81%D1%82%D0%B5%D0%BC%D1%8B+%D0%BF%D0%BE%D0%BB%D0%B8%D0%B2%D0%B0/data=!4m7!3m6!1s0x40d4c94d7a7aaaab:0x4c3e790fe3950cfd!8m2!3d50.434722!4d30.5063037!16s%2Fg%2F11fp8ykcbj!19sChIJq6p6ek3J1EAR_QyV4w95Pkw?authuser=0&hl=tr&rclk=1",
    "website_url": "https://irrigation.kiev.ua/",
    "rating_text": "",
    "stars": null,
    "number_of_reviews": null,
    "price_level": "",
    "open_hours": "",
    "extraction_timestamp": "2025-06-08T03:30:20.207Z",
    "source_name": "google",
    "source_query": "Irrigation Equipment",
    "source_country": "UA",
    "country": "Ukraine",
    "state": "Kyivska oblast",
    "city": "Pohreby"
  },
  {
    "source_id": "ChIJS0c1uUjR1EARUXOquFaIzrs",
    "name": "Anzhio Troyeshchyna",
    "category": "Anzhio Troyeshchyna",
    "formatted_address": "4,4(276)",
    "phone_number": "+380982109854",
    "source_url": "https://www.google.com/maps/place/Anzhio+Troyeshchyna/data=!4m7!3m6!1s0x40d4d148b935474b:0xbbce8856b8aa7351!8m2!3d50.5443938!4d30.6039181!16s%2Fg%2F11hbmvbykv!19sChIJS0c1uUjR1EARUXOquFaIzrs?authuser=0&hl=tr&rclk=1",
    "website_url": "https://angio.com.ua/",
    "rating_text": "4,4",
    "stars": null,
    "number_of_reviews": null,
    "price_level": "",
    "open_hours": "",
    "extraction_timestamp": "2025-06-08T03:30:20.208Z",
    "source_name": "google",
    "source_query": "Irrigation Equipment",
    "source_country": "UA",
    "country": "Ukraine",
    "state": "Kyivska oblast",
    "city": "Pohreby"
  },
  {
    "source_id": "ChIJya87MEiIVQQRwkDgJtHCmaU",
    "name": "Aquavolt",
    "category": "Aquavolt",
    "formatted_address": "5,0(28)",
    "phone_number": "+380662207676",
    "source_url": "https://www.google.com/maps/place/Aquavolt/data=!4m7!3m6!1s0x4558848303bafc9:0xa599c2d126e040c2!8m2!3d50.5328063!4d30.6027373!16s%2Fg%2F11l_0rj7sk!19sChIJya87MEiIVQQRwkDgJtHCmaU?authuser=0&hl=tr&rclk=1",
    "website_url": "https://aquavolt.kiev.ua/",
    "rating_text": "5,0",
    "stars": null,
    "number_of_reviews": null,
    "price_level": "",
    "open_hours": "",
    "extraction_timestamp": "2025-06-08T03:30:20.209Z",
    "source_name": "google",
    "source_query": "Irrigation Equipment",
    "source_country": "UA",
    "country": "Ukraine",
    "state": "Kyivska oblast",
    "city": "Pohreby"
  },
  {
    "source_id": "ChIJFTom9crW1EARdD53qx9drhQ",
    "name": "Polimin",
    "category": "Polimin",
    "formatted_address": "3,6(7)",
    "phone_number": "+380633252090",
    "source_url": "https://www.google.com/maps/place/Polimin/data=!4m7!3m6!1s0x40d4d6caf5263a15:0x14ae5d1fab773e74!8m2!3d50.5531017!4d30.6275177!16s%2Fg%2F12qg2grlk!19sChIJFTom9crW1EARdD53qx9drhQ?authuser=0&hl=tr&rclk=1",
    "website_url": "",
    "rating_text": "3,6",
    "stars": null,
    "number_of_reviews": null,
    "price_level": "",
    "open_hours": "",
    "extraction_timestamp": "2025-06-08T03:30:20.210Z",
    "source_name": "google",
    "source_query": "Irrigation Equipment",
    "source_country": "UA",
    "country": "Ukraine",
    "state": "Kyivska oblast",
    "city": "Pohreby"
  },
  {
    "source_id": "ChIJq6p6ek3J1EAR_uPnwIFdwFY",
    "name": "Системы полива",
    "category": "Системы полива",
    "formatted_address": "Çim Yağmurlama Sistemi Yüklenicisi · Volynska St, 48/50+380 67 190 9989",
    "phone_number": "+380671909989",
    "source_url": "https://www.google.com/maps/place/%D0%A1%D0%B8%D1%81%D1%82%D0%B5%D0%BC%D1%8B+%D0%BF%D0%BE%D0%BB%D0%B8%D0%B2%D0%B0/data=!4m7!3m6!1s0x40d4c94d7a7aaaab:0x56c05d81c0e7e3fe!8m2!3d50.4177962!4d30.4415501!16s%2Fg%2F11hys__3kz!19sChIJq6p6ek3J1EAR_uPnwIFdwFY?authuser=0&hl=tr&rclk=1",
    "website_url": "https://irrigation.kiev.ua/",
    "rating_text": "",
    "stars": null,
    "number_of_reviews": null,
    "price_level": "",
    "open_hours": "",
    "extraction_timestamp": "2025-06-08T03:30:20.211Z",
    "source_name": "google",
    "source_query": "Irrigation Equipment",
    "source_country": "UA",
    "country": "Ukraine",
    "state": "Kyivska oblast",
    "city": "Pohreby"
  },
  {
    "source_id": "ChIJ3boyPfLR1EARHGy0a53-c2o",
    "name": "Повірка Лічильників Води",
    "category": "Повірка Лічильників Води",
    "formatted_address": "3,6(16)",
    "phone_number": "+380443449871",
    "source_url": "https://www.google.com/maps/place/%D0%9F%D0%BE%D0%B2%D1%96%D1%80%D0%BA%D0%B0+%D0%9B%D1%96%D1%87%D0%B8%D0%BB%D1%8C%D0%BD%D0%B8%D0%BA%D1%96%D0%B2+%D0%92%D0%BE%D0%B4%D0%B8/data=!4m7!3m6!1s0x40d4d1f23d32badd:0x6a73fe9d6bb46c1c!8m2!3d50.5344468!4d30.5970451!16s%2Fg%2F11hdjbqnqt!19sChIJ3boyPfLR1EARHGy0a53-c2o?authuser=0&hl=tr&rclk=1",
    "website_url": "https://kiev.povirka.tech/",
    "rating_text": "3,6",
    "stars": null,
    "number_of_reviews": null,
    "price_level": "",
    "open_hours": "",
    "extraction_timestamp": "2025-06-08T03:30:20.212Z",
    "source_name": "google",
    "source_query": "Irrigation Equipment",
    "source_country": "UA",
    "country": "Ukraine",
    "state": "Kyivska oblast",
    "city": "Pohreby"
  },
  {
    "source_id": "ChIJWYqRA47N1EARkkE67r70qwg",
    "name": "Автополив",
    "category": "Автополив",
    "formatted_address": "Çim Yağmurlama Sistemi Yüklenicisi · Kyrylivska St, 160а+380 44 362 8781",
    "phone_number": "+380443628781",
    "source_url": "https://www.google.com/maps/place/%D0%90%D0%B2%D1%82%D0%BE%D0%BF%D0%BE%D0%BB%D0%B8%D0%B2/data=!4m7!3m6!1s0x40d4cd8e03918a59:0x8abf4beee3a4192!8m2!3d50.4942658!4d30.4620993!16s%2Fg%2F11j0jl5tks!19sChIJWYqRA47N1EARkkE67r70qwg?authuser=0&hl=tr&rclk=1",
    "website_url": "http://polivaka.com.ua/kontakty/",
    "rating_text": "",
    "stars": null,
    "number_of_reviews": null,
    "price_level": "",
    "open_hours": "",
    "extraction_timestamp": "2025-06-08T03:30:20.213Z",
    "source_name": "google",
    "source_query": "Irrigation Equipment",
    "source_country": "UA",
    "country": "Ukraine",
    "state": "Kyivska oblast",
    "city": "Pohreby"
  },
  {
    "source_id": "ChIJ2esx7yrX1EARoVc0nuREEoE",
    "name": "Beles Ukraina",
    "category": "Beles Ukraina",
    "formatted_address": "4,4(64)",
    "phone_number": "+380443834010",
    "source_url": "https://www.google.com/maps/place/Beles+Ukraina/data=!4m7!3m6!1s0x40d4d72aef31ebd9:0x811244e49e3457a1!8m2!3d50.5431671!4d30.6539668!16s%2Fg%2F1v2pnqyt!19sChIJ2esx7yrX1EARoVc0nuREEoE?authuser=0&hl=tr&rclk=1",
    "website_url": "http://www.beles.com.ua/",
    "rating_text": "4,4",
    "stars": null,
    "number_of_reviews": null,
    "price_level": "",
    "open_hours": "",
    "extraction_timestamp": "2025-06-08T03:30:20.214Z",
    "source_name": "google",
    "source_query": "Irrigation Equipment",
    "source_country": "UA",
    "country": "Ukraine",
    "state": "Kyivska oblast",
    "city": "Pohreby"
  },
  {
    "source_id": "ChIJq6oezwbQ1EAR7Q1Ij8JwnNI",
    "name": "Автополив",
    "category": "Автополив",
    "formatted_address": "Çim Yağmurlama Sistemi Yüklenicisi · Myropilska St, 3+380 44 337 6873",
    "phone_number": "+380443376873",
    "source_url": "https://www.google.com/maps/place/%D0%90%D0%B2%D1%82%D0%BE%D0%BF%D0%BE%D0%BB%D0%B8%D0%B2/data=!4m7!3m6!1s0x40d4d006cf1eaaab:0xd29c70c28f480ded!8m2!3d50.4638401!4d30.6270239!16s%2Fg%2F11flzgv6g0!19sChIJq6oezwbQ1EAR7Q1Ij8JwnNI?authuser=0&hl=tr&rclk=1",
    "website_url": "https://kapli.kiev.ua/contact",
    "rating_text": "",
    "stars": null,
    "number_of_reviews": null,
    "price_level": "",
    "open_hours": "",
    "extraction_timestamp": "2025-06-08T03:30:20.238Z",
    "source_name": "google",
    "source_query": "Irrigation Equipment",
    "source_country": "UA",
    "country": "Ukraine",
    "state": "Kyivska oblast",
    "city": "Pohreby"
  },
  {
    "source_id": "ChIJHYQk8jvZ1EARTyehGRwTk7E",
    "name": "Kyyivhuma",
    "category": "Kyyivhuma",
    "formatted_address": "4,5(39)",
    "phone_number": "+380443645670",
    "source_url": "https://www.google.com/maps/place/Kyyivhuma/data=!4m7!3m6!1s0x40d4d93bf224841d:0xb193131c19a1274f!8m2!3d50.5196346!4d30.8292838!16s%2Fg%2F11b6ql__1p!19sChIJHYQk8jvZ1EARTyehGRwTk7E?authuser=0&hl=tr&rclk=1",
    "website_url": "http://www.kievguma.ua/",
    "rating_text": "4,5",
    "stars": null,
    "number_of_reviews": null,
    "price_level": "",
    "open_hours": "",
    "extraction_timestamp": "2025-06-08T03:30:20.239Z",
    "source_name": "google",
    "source_query": "Irrigation Equipment",
    "source_country": "UA",
    "country": "Ukraine",
    "state": "Kyivska oblast",
    "city": "Pohreby"
  },
  {
    "source_id": "ChIJcTpie8rR1EAR3VF5QxU28qA",
    "name": "НАСОС",
    "category": "НАСОС",
    "formatted_address": "Pompa Tedarikçisi · Myloslavska St, 31вKapalı ⋅ Açılış zamanı: Pzt 09:00 · +380 44 353 1010",
    "phone_number": "+380443531010",
    "source_url": "https://www.google.com/maps/place/%D0%9D%D0%90%D0%A1%D0%9E%D0%A1/data=!4m7!3m6!1s0x40d4d1ca7b623a71:0xa0f23615437951dd!8m2!3d50.5326201!4d30.6066075!16s%2Fg%2F11j825j8dr!19sChIJcTpie8rR1EAR3VF5QxU28qA?authuser=0&hl=tr&rclk=1",
    "website_url": "https://nasos.ua/",
    "rating_text": "",
    "stars": null,
    "number_of_reviews": null,
    "price_level": "",
    "open_hours": "",
    "extraction_timestamp": "2025-06-08T03:30:20.240Z",
    "source_name": "google",
    "source_query": "Irrigation Equipment",
    "source_country": "UA",
    "country": "Ukraine",
    "state": "Kyivska oblast",
    "city": "Pohreby"
  }
]
