[
  {
    "source_id": "ChIJa1_M3Wtz00AR-MQ6Z1j6fmk",
    "name": "SHOPLobko",
    "category": "SHOPLobko",
    "formatted_address": "5,0(1)",
    "phone_number": "",
    "source_url": "https://www.google.com/maps/place/SHOPLobko/data=!4m7!3m6!1s0x40d3736bddcc5f6b:0x697efa58673ac4f8!8m2!3d49.6850192!4d30.472293!16s%2Fg%2F11ry994m6q!19sChIJa1_M3Wtz00AR-MQ6Z1j6fmk?authuser=0&hl=tr&rclk=1",
    "website_url": "",
    "rating_text": "5,0",
    "stars": null,
    "number_of_reviews": null,
    "price_level": "",
    "open_hours": "",
    "extraction_timestamp": "2025-06-08T03:37:37.424Z",
    "source_name": "google",
    "source_query": "Irrigation Equipment",
    "source_country": "UA",
    "country": "Ukraine",
    "state": "Kyivska oblast",
    "city": "Rokytne"
  },
  {
    "source_id": "ChIJH0ZUTFFx00ARkZR9gHHKsOs",
    "name": "Mahazyn \"Budivelʹnyk\"",
    "category": "Mahazyn \"Budivelʹnyk\"",
    "formatted_address": "5,0(1)",
    "phone_number": "",
    "source_url": "https://www.google.com/maps/place/Mahazyn+%22Budivel%CA%B9nyk%22/data=!4m7!3m6!1s0x40d371514c54461f:0xebb0ca71807d9491!8m2!3d49.6876542!4d30.4718881!16s%2Fg%2F11p6wv_qw2!19sChIJH0ZUTFFx00ARkZR9gHHKsOs?authuser=0&hl=tr&rclk=1",
    "website_url": "",
    "rating_text": "5,0",
    "stars": null,
    "number_of_reviews": null,
    "price_level": "",
    "open_hours": "",
    "extraction_timestamp": "2025-06-08T03:37:37.424Z",
    "source_name": "google",
    "source_query": "Irrigation Equipment",
    "source_country": "UA",
    "country": "Ukraine",
    "state": "Kyivska oblast",
    "city": "Rokytne"
  },
  {
    "source_id": "ChIJN0v5sxZl1UYRJt06hOZN5v4",
    "name": "Наша Ряба",
    "category": "Наша Ряба",
    "formatted_address": "5,0(1)",
    "phone_number": "+380800500001",
    "source_url": "https://www.google.com/maps/place/%D0%9D%D0%B0%D1%88%D0%B0+%D0%A0%D1%8F%D0%B1%D0%B0/data=!4m7!3m6!1s0x46d56516b3f94b37:0xfee64de6843add26!8m2!3d49.6891668!4d30.5011593!16s%2Fg%2F11jprfdd48!19sChIJN0v5sxZl1UYRJt06hOZN5v4?authuser=0&hl=tr&rclk=1",
    "website_url": "",
    "rating_text": "5,0",
    "stars": null,
    "number_of_reviews": null,
    "price_level": "",
    "open_hours": "",
    "extraction_timestamp": "2025-06-08T03:37:37.425Z",
    "source_name": "google",
    "source_query": "Irrigation Equipment",
    "source_country": "UA",
    "country": "Ukraine",
    "state": "Kyivska oblast",
    "city": "Rokytne"
  },
  {
    "source_id": "ChIJ89sVIVZx00AR3PowTZG0OJA",
    "name": "Rokitnyansky Market",
    "category": "Rokitnyansky Market",
    "formatted_address": "3,6(607)",
    "phone_number": "",
    "source_url": "https://www.google.com/maps/place/Rokitnyansky+Market/data=!4m7!3m6!1s0x40d371562115dbf3:0x9038b4914d30fadc!8m2!3d49.6878003!4d30.4711303!16s%2Fg%2F11dfj89b62!19sChIJ89sVIVZx00AR3PowTZG0OJA?authuser=0&hl=tr&rclk=1",
    "website_url": "",
    "rating_text": "3,6",
    "stars": null,
    "number_of_reviews": null,
    "price_level": "",
    "open_hours": "",
    "extraction_timestamp": "2025-06-08T03:37:37.426Z",
    "source_name": "google",
    "source_query": "Irrigation Equipment",
    "source_country": "UA",
    "country": "Ukraine",
    "state": "Kyivska oblast",
    "city": "Rokytne"
  },
  {
    "source_id": "ChIJhYjK8uRz00AR2vtkD2c7934",
    "name": "Рокитне",
    "category": "Рокитне",
    "formatted_address": "4,2(82)",
    "phone_number": "",
    "source_url": "https://www.google.com/maps/place/%D0%A0%D0%BE%D0%BA%D0%B8%D1%82%D0%BD%D0%B5/data=!4m7!3m6!1s0x40d373e4f2ca8885:0x7ef73b670f64fbda!8m2!3d49.6846706!4d30.456828!16s%2Fg%2F11c1n25dx7!19sChIJhYjK8uRz00AR2vtkD2c7934?authuser=0&hl=tr&rclk=1",
    "website_url": "",
    "rating_text": "4,2",
    "stars": null,
    "number_of_reviews": null,
    "price_level": "",
    "open_hours": "",
    "extraction_timestamp": "2025-06-08T03:37:37.427Z",
    "source_name": "google",
    "source_query": "Irrigation Equipment",
    "source_country": "UA",
    "country": "Ukraine",
    "state": "Kyivska oblast",
    "city": "Rokytne"
  },
  {
    "source_id": "ChIJXxf_-PRz00ARk2g-RVnN7To",
    "name": "СЦ SmartFix - Ремонт мобільної та комп'ютерної техніки",
    "category": "СЦ SmartFix - Ремонт мобільної та комп'ютерної техніки",
    "formatted_address": "5,0(32)",
    "phone_number": "+380930777887",
    "source_url": "https://www.google.com/maps/place/%D0%A1%D0%A6+SmartFix+-+%D0%A0%D0%B5%D0%BC%D0%BE%D0%BD%D1%82+%D0%BC%D0%BE%D0%B1%D1%96%D0%BB%D1%8C%D0%BD%D0%BE%D1%97+%D1%82%D0%B0+%D0%BA%D0%BE%D0%BC%D0%BF%27%D1%8E%D1%82%D0%B5%D1%80%D0%BD%D0%BE%D1%97+%D1%82%D0%B5%D1%85%D0%BD%D1%96%D0%BA%D0%B8/data=!4m7!3m6!1s0x40d373f4f8ff175f:0x3aedcd59453e6893!8m2!3d49.6849636!4d30.4702839!16s%2Fg%2F11y3q7yh5t!19sChIJXxf_-PRz00ARk2g-RVnN7To?authuser=0&hl=tr&rclk=1",
    "website_url": "",
    "rating_text": "5,0",
    "stars": null,
    "number_of_reviews": null,
    "price_level": "",
    "open_hours": "",
    "extraction_timestamp": "2025-06-08T03:37:37.428Z",
    "source_name": "google",
    "source_query": "Irrigation Equipment",
    "source_country": "UA",
    "country": "Ukraine",
    "state": "Kyivska oblast",
    "city": "Rokytne"
  },
  {
    "source_id": "ChIJYyU9lq_N1EARqoG8SYko8go",
    "name": "Лайф Гарден",
    "category": "Лайф Гарден",
    "formatted_address": "3,9(7)",
    "phone_number": "+380503719090",
    "source_url": "https://www.google.com/maps/place/%D0%9B%D0%B0%D0%B9%D1%84+%D0%93%D0%B0%D1%80%D0%B4%D0%B5%D0%BD/data=!4m7!3m6!1s0x40d4cdaf963d2563:0xaf2288949bc81aa!8m2!3d50.45748!4d30.3824706!16s%2Fg%2F11gr60b225!19sChIJYyU9lq_N1EARqoG8SYko8go?authuser=0&hl=tr&rclk=1",
    "website_url": "",
    "rating_text": "3,9",
    "stars": null,
    "number_of_reviews": null,
    "price_level": "",
    "open_hours": "",
    "extraction_timestamp": "2025-06-08T03:37:37.428Z",
    "source_name": "google",
    "source_query": "Irrigation Equipment",
    "source_country": "UA",
    "country": "Ukraine",
    "state": "Kyivska oblast",
    "city": "Rokytne"
  },
  {
    "source_id": "ChIJeyC52sFz00AR3rWOl6ahWGs",
    "name": "Druzhba",
    "category": "Druzhba",
    "formatted_address": "4,3(48)",
    "phone_number": "",
    "source_url": "https://www.google.com/maps/place/Druzhba/data=!4m7!3m6!1s0x40d373c1dab9207b:0x6b58a1a6978eb5de!8m2!3d49.6746799!4d30.4638748!16s%2Fg%2F11h1v71yrb!19sChIJeyC52sFz00AR3rWOl6ahWGs?authuser=0&hl=tr&rclk=1",
    "website_url": "",
    "rating_text": "4,3",
    "stars": null,
    "number_of_reviews": null,
    "price_level": "",
    "open_hours": "",
    "extraction_timestamp": "2025-06-08T03:37:37.429Z",
    "source_name": "google",
    "source_query": "Irrigation Equipment",
    "source_country": "UA",
    "country": "Ukraine",
    "state": "Kyivska oblast",
    "city": "Rokytne"
  },
  {
    "source_id": "ChIJq0Ndj-xx00AR28jJYWVXXSE",
    "name": "Наша Ряба",
    "category": "Наша Ряба",
    "formatted_address": "Kasap · вул. Ігоря Зінича, 7Kapalı ⋅ Açılış saati: 09:00 · +380 800 500 001",
    "phone_number": "+380800500001",
    "source_url": "https://www.google.com/maps/place/%D0%9D%D0%B0%D1%88%D0%B0+%D0%A0%D1%8F%D0%B1%D0%B0/data=!4m7!3m6!1s0x40d371ec8f5d43ab:0x215d576561c9c8db!8m2!3d49.6913849!4d30.485317!16s%2Fg%2F11k6l6p4fs!19sChIJq0Ndj-xx00AR28jJYWVXXSE?authuser=0&hl=tr&rclk=1",
    "website_url": "",
    "rating_text": "",
    "stars": null,
    "number_of_reviews": null,
    "price_level": "",
    "open_hours": "",
    "extraction_timestamp": "2025-06-08T03:37:37.429Z",
    "source_name": "google",
    "source_query": "Irrigation Equipment",
    "source_country": "UA",
    "country": "Ukraine",
    "state": "Kyivska oblast",
    "city": "Rokytne"
  },
  {
    "source_id": "ChIJMaPiUABx00ARqei4rFJlF0o",
    "name": "Продукти+Маршалок",
    "category": "Продукти+Маршалок",
    "formatted_address": "5,0(3)",
    "phone_number": "+380987711763",
    "source_url": "https://www.google.com/maps/place/%D0%9F%D1%80%D0%BE%D0%B4%D1%83%D0%BA%D1%82%D0%B8%2B%D0%9C%D0%B0%D1%80%D1%88%D0%B0%D0%BB%D0%BE%D0%BA/data=!4m7!3m6!1s0x40d3710050e2a331:0x4a176552acb8e8a9!8m2!3d49.6897867!4d30.4770818!16s%2Fg%2F11y7k78ccg!19sChIJMaPiUABx00ARqei4rFJlF0o?authuser=0&hl=tr&rclk=1",
    "website_url": "",
    "rating_text": "5,0",
    "stars": null,
    "number_of_reviews": null,
    "price_level": "",
    "open_hours": "",
    "extraction_timestamp": "2025-06-08T03:37:37.430Z",
    "source_name": "google",
    "source_query": "Irrigation Equipment",
    "source_country": "UA",
    "country": "Ukraine",
    "state": "Kyivska oblast",
    "city": "Rokytne"
  },
  {
    "source_id": "ChIJk9zuYV5z00ARD1i-8moR3x8",
    "name": "Cto",
    "category": "Cto",
    "formatted_address": "",
    "phone_number": "+380667344778",
    "source_url": "https://www.google.com/maps/place/Cto/data=!4m7!3m6!1s0x40d3735e61eedc93:0x1fdf116af2be580f!8m2!3d49.6843172!4d30.4630418!16s%2Fg%2F11ww75vn4j!19sChIJk9zuYV5z00ARD1i-8moR3x8?authuser=0&hl=tr&rclk=1",
    "website_url": "",
    "rating_text": "",
    "stars": null,
    "number_of_reviews": null,
    "price_level": "",
    "open_hours": "",
    "extraction_timestamp": "2025-06-08T03:37:37.431Z",
    "source_name": "google",
    "source_query": "Irrigation Equipment",
    "source_country": "UA",
    "country": "Ukraine",
    "state": "Kyivska oblast",
    "city": "Rokytne"
  },
  {
    "source_id": "ChIJd4WjOf5z00ARecIJubF13Jw",
    "name": "Фора",
    "category": "Фора",
    "formatted_address": "3,9(189)",
    "phone_number": "+380800301230",
    "source_url": "https://www.google.com/maps/place/%D0%A4%D0%BE%D1%80%D0%B0/data=!4m7!3m6!1s0x40d373fe39a38577:0x9cdc75b1b909c279!8m2!3d49.685523!4d30.4746591!16s%2Fg%2F1pp2tywbn!19sChIJd4WjOf5z00ARecIJubF13Jw?authuser=0&hl=tr&rclk=1",
    "website_url": "",
    "rating_text": "3,9",
    "stars": null,
    "number_of_reviews": null,
    "price_level": "",
    "open_hours": "",
    "extraction_timestamp": "2025-06-08T03:37:37.431Z",
    "source_name": "google",
    "source_query": "Irrigation Equipment",
    "source_country": "UA",
    "country": "Ukraine",
    "state": "Kyivska oblast",
    "city": "Rokytne"
  },
  {
    "source_id": "ChIJGVs7mbpx00ARfHWGBf7hXPM",
    "name": "Ukrzoovetprompostach",
    "category": "Ukrzoovetprompostach",
    "formatted_address": "Veteriner İlaçları · Игоря, Зинеча, 117Kapalı ⋅ Açılış saati: 10:00 · +380 4562 53671",
    "phone_number": "+380456253671",
    "source_url": "https://www.google.com/maps/place/Ukrzoovetprompostach/data=!4m7!3m6!1s0x40d371ba993b5b19:0xf35ce1fe0586757c!8m2!3d49.6911802!4d30.4780154!16s%2Fg%2F11g4dwqrtw!19sChIJGVs7mbpx00ARfHWGBf7hXPM?authuser=0&hl=tr&rclk=1",
    "website_url": "",
    "rating_text": "",
    "stars": null,
    "number_of_reviews": null,
    "price_level": "",
    "open_hours": "",
    "extraction_timestamp": "2025-06-08T03:37:37.432Z",
    "source_name": "google",
    "source_query": "Irrigation Equipment",
    "source_country": "UA",
    "country": "Ukraine",
    "state": "Kyivska oblast",
    "city": "Rokytne"
  },
  {
    "source_id": "ChIJtdfdk0Z300ARImS-CPXmRUs",
    "name": "ПанРукастий",
    "category": "ПанРукастий",
    "formatted_address": "Yapı Malzemeleri Mağazası · Vulytsya Zavodsʹka, 37Kapalı ⋅ Açılış saati: 08:00 · +380 97 141 5474",
    "phone_number": "+380971415474",
    "source_url": "https://www.google.com/maps/place/%D0%9F%D0%B0%D0%BD%D0%A0%D1%83%D0%BA%D0%B0%D1%81%D1%82%D0%B8%D0%B9/data=!4m7!3m6!1s0x40d3774693ddd7b5:0x4b45e6f508be6422!8m2!3d49.6830682!4d30.4663404!16s%2Fg%2F11rg794ts1!19sChIJtdfdk0Z300ARImS-CPXmRUs?authuser=0&hl=tr&rclk=1",
    "website_url": "",
    "rating_text": "",
    "stars": null,
    "number_of_reviews": null,
    "price_level": "",
    "open_hours": "",
    "extraction_timestamp": "2025-06-08T03:37:37.433Z",
    "source_name": "google",
    "source_query": "Irrigation Equipment",
    "source_country": "UA",
    "country": "Ukraine",
    "state": "Kyivska oblast",
    "city": "Rokytne"
  },
  {
    "source_id": "ChIJZzlcA_5z00ARQoTfOkuVQ90",
    "name": "Atb",
    "category": "Atb",
    "formatted_address": "3,9(771)",
    "phone_number": "+380800500415",
    "source_url": "https://www.google.com/maps/place/Atb/data=!4m7!3m6!1s0x40d373fe035c3967:0xdd43954b3adf8442!8m2!3d49.6863722!4d30.4739425!16s%2Fg%2F11c531qrrx!19sChIJZzlcA_5z00ARQoTfOkuVQ90?authuser=0&hl=tr&rclk=1",
    "website_url": "",
    "rating_text": "3,9",
    "stars": null,
    "number_of_reviews": null,
    "price_level": "",
    "open_hours": "",
    "extraction_timestamp": "2025-06-08T03:37:37.433Z",
    "source_name": "google",
    "source_query": "Irrigation Equipment",
    "source_country": "UA",
    "country": "Ukraine",
    "state": "Kyivska oblast",
    "city": "Rokytne"
  },
  {
    "source_id": "ChIJjdDa38Fx00ARCbXEBIqKapU",
    "name": "Vetapteka Bdzhilʹnytstvo Kombikorm Merezha Tsentr",
    "category": "Vetapteka Bdzhilʹnytstvo Kombikorm Merezha Tsentr",
    "formatted_address": "Veteriner İlaçları · Vulytsya Lisna, 41Kapalı ⋅ Açılış saati: 08:00 · +380 67 355 3199",
    "phone_number": "+380673553199",
    "source_url": "https://www.google.com/maps/place/Vetapteka+Bdzhil%CA%B9nytstvo+Kombikorm+Merezha+Tsentr/data=!4m7!3m6!1s0x40d371c1dfdad08d:0x956a8a8a04c4b509!8m2!3d49.6871708!4d30.4764805!16s%2Fg%2F11vk03fj8b!19sChIJjdDa38Fx00ARCbXEBIqKapU?authuser=0&hl=tr&rclk=1",
    "website_url": "",
    "rating_text": "",
    "stars": null,
    "number_of_reviews": null,
    "price_level": "",
    "open_hours": "",
    "extraction_timestamp": "2025-06-08T03:37:37.434Z",
    "source_name": "google",
    "source_query": "Irrigation Equipment",
    "source_country": "UA",
    "country": "Ukraine",
    "state": "Kyivska oblast",
    "city": "Rokytne"
  },
  {
    "source_id": "ChIJLZeZwcBx00ARfIwUFPKIDN8",
    "name": "Наша Ряба",
    "category": "Наша Ряба",
    "formatted_address": "Kasap · Vulytsya Vokzalʹna, 74Kapalı ⋅ Açılış saati: 09:00 · +380 800 500 001",
    "phone_number": "+380800500001",
    "source_url": "https://www.google.com/maps/place/%D0%9D%D0%B0%D1%88%D0%B0+%D0%A0%D1%8F%D0%B1%D0%B0/data=!4m7!3m6!1s0x40d371c0c199972d:0xdf0c88f214148c7c!8m2!3d49.6910918!4d30.4811868!16s%2Fg%2F11jrk7wnq8!19sChIJLZeZwcBx00ARfIwUFPKIDN8?authuser=0&hl=tr&rclk=1",
    "website_url": "",
    "rating_text": "",
    "stars": null,
    "number_of_reviews": null,
    "price_level": "",
    "open_hours": "",
    "extraction_timestamp": "2025-06-08T03:37:37.435Z",
    "source_name": "google",
    "source_query": "Irrigation Equipment",
    "source_country": "UA",
    "country": "Ukraine",
    "state": "Kyivska oblast",
    "city": "Rokytne"
  },
  {
    "source_id": "ChIJVfvfZK5z00AR9earnD614Xs",
    "name": "Kiosk Coffee",
    "category": "Kiosk Coffee",
    "formatted_address": "5,0(16)",
    "phone_number": "+380973218927",
    "source_url": "https://www.google.com/maps/place/Kiosk+Coffee/data=!4m7!3m6!1s0x40d373ae64dffb55:0x7be1b53e9cabe6f5!8m2!3d49.6855085!4d30.4742818!16s%2Fg%2F11lkt3yt68!19sChIJVfvfZK5z00AR9earnD614Xs?authuser=0&hl=tr&rclk=1",
    "website_url": "",
    "rating_text": "5,0",
    "stars": null,
    "number_of_reviews": null,
    "price_level": "",
    "open_hours": "",
    "extraction_timestamp": "2025-06-08T03:37:37.435Z",
    "source_name": "google",
    "source_query": "Irrigation Equipment",
    "source_country": "UA",
    "country": "Ukraine",
    "state": "Kyivska oblast",
    "city": "Rokytne"
  },
  {
    "source_id": "ChIJv0MUXedz00ARRlXxPAjXYSA",
    "name": "Наша Ряба",
    "category": "Наша Ряба",
    "formatted_address": "Kasap · Vulytsya Zavodsʹka, 19Kapalı ⋅ Açılış saati: 09:00 · +380 800 500 001",
    "phone_number": "+380800500001",
    "source_url": "https://www.google.com/maps/place/%D0%9D%D0%B0%D1%88%D0%B0+%D0%A0%D1%8F%D0%B1%D0%B0/data=!4m7!3m6!1s0x40d373e75d1443bf:0x2061d7083cf15546!8m2!3d49.683856!4d30.4689021!16s%2Fg%2F11k6l6x19z!19sChIJv0MUXedz00ARRlXxPAjXYSA?authuser=0&hl=tr&rclk=1",
    "website_url": "",
    "rating_text": "",
    "stars": null,
    "number_of_reviews": null,
    "price_level": "",
    "open_hours": "",
    "extraction_timestamp": "2025-06-08T03:37:37.436Z",
    "source_name": "google",
    "source_query": "Irrigation Equipment",
    "source_country": "UA",
    "country": "Ukraine",
    "state": "Kyivska oblast",
    "city": "Rokytne"
  },
  {
    "source_id": "ChIJVxNIIjRx00ARyVHenFeW6Ck",
    "name": "Карапишівські ковбаси",
    "category": "Карапишівські ковбаси",
    "formatted_address": "3,0(2)",
    "phone_number": "",
    "source_url": "https://www.google.com/maps/place/%D0%9A%D0%B0%D1%80%D0%B0%D0%BF%D0%B8%D1%88%D1%96%D0%B2%D1%81%D1%8C%D0%BA%D1%96+%D0%BA%D0%BE%D0%B2%D0%B1%D0%B0%D1%81%D0%B8/data=!4m7!3m6!1s0x40d3713422481357:0x29e896579cde51c9!8m2!3d49.6890191!4d30.4767397!16s%2Fg%2F11p63vpyh5!19sChIJVxNIIjRx00ARyVHenFeW6Ck?authuser=0&hl=tr&rclk=1",
    "website_url": "",
    "rating_text": "3,0",
    "stars": null,
    "number_of_reviews": null,
    "price_level": "",
    "open_hours": "",
    "extraction_timestamp": "2025-06-08T03:37:37.436Z",
    "source_name": "google",
    "source_query": "Irrigation Equipment",
    "source_country": "UA",
    "country": "Ukraine",
    "state": "Kyivska oblast",
    "city": "Rokytne"
  },
  {
    "source_id": "ChIJn9HnVTPL1EAR4di2zqeFqrc",
    "name": "Ландшафтна компанія Garden House",
    "category": "Ландшафтна компанія Garden House",
    "formatted_address": "4,6(67)",
    "phone_number": "+380995461100",
    "source_url": "https://www.google.com/maps/place/%D0%9B%D0%B0%D0%BD%D0%B4%D1%88%D0%B0%D1%84%D1%82%D0%BD%D0%B0+%D0%BA%D0%BE%D0%BC%D0%BF%D0%B0%D0%BD%D1%96%D1%8F+Garden+House/data=!4m7!3m6!1s0x40d4cb3355e7d19f:0xb7aa85a7ceb6d8e1!8m2!3d50.4364812!4d30.2859854!16s%2Fg%2F11b6d5j_72!19sChIJn9HnVTPL1EAR4di2zqeFqrc?authuser=0&hl=tr&rclk=1",
    "website_url": "",
    "rating_text": "4,6",
    "stars": null,
    "number_of_reviews": null,
    "price_level": "",
    "open_hours": "",
    "extraction_timestamp": "2025-06-08T03:37:37.437Z",
    "source_name": "google",
    "source_query": "Irrigation Equipment",
    "source_country": "UA",
    "country": "Ukraine",
    "state": "Kyivska oblast",
    "city": "Rokytne"
  },
  {
    "source_id": "ChIJDx10apXN1EARCeJXmA3AFk0",
    "name": "Ecosoft - центр чистої води",
    "category": "Ecosoft - центр чистої води",
    "formatted_address": "5,0(4)",
    "phone_number": "+380981015000",
    "source_url": "https://www.google.com/maps/place/Ecosoft+-+%D1%86%D0%B5%D0%BD%D1%82%D1%80+%D1%87%D0%B8%D1%81%D1%82%D0%BE%D1%97+%D0%B2%D0%BE%D0%B4%D0%B8/data=!4m7!3m6!1s0x40d4cd956a741d0f:0x4d16c00d9857e209!8m2!3d50.3469638!4d30.419739!16s%2Fg%2F11q8xbjn2n!19sChIJDx10apXN1EARCeJXmA3AFk0?authuser=0&hl=tr&rclk=1",
    "website_url": "",
    "rating_text": "5,0",
    "stars": null,
    "number_of_reviews": null,
    "price_level": "",
    "open_hours": "",
    "extraction_timestamp": "2025-06-08T03:37:37.438Z",
    "source_name": "google",
    "source_query": "Irrigation Equipment",
    "source_country": "UA",
    "country": "Ukraine",
    "state": "Kyivska oblast",
    "city": "Rokytne"
  },
  {
    "source_id": "ChIJf5EQNhHP1EARyFIa0TSoUMU",
    "name": "ТОВ \"Стрім-Енерджі Компані\"",
    "category": "ТОВ \"Стрім-Енерджі Компані\"",
    "formatted_address": "5,0(4)",
    "phone_number": "+380509855819",
    "source_url": "https://www.google.com/maps/place/%D0%A2%D0%9E%D0%92+%22%D0%A1%D1%82%D1%80%D1%96%D0%BC-%D0%95%D0%BD%D0%B5%D1%80%D0%B4%D0%B6%D1%96+%D0%9A%D0%BE%D0%BC%D0%BF%D0%B0%D0%BD%D1%96%22/data=!4m7!3m6!1s0x40d4cf113610917f:0xc550a834d11a52c8!8m2!3d50.4520424!4d30.6416021!16s%2Fg%2F11gwp6m4rt!19sChIJf5EQNhHP1EARyFIa0TSoUMU?authuser=0&hl=tr&rclk=1",
    "website_url": "",
    "rating_text": "5,0",
    "stars": null,
    "number_of_reviews": null,
    "price_level": "",
    "open_hours": "",
    "extraction_timestamp": "2025-06-08T03:37:37.438Z",
    "source_name": "google",
    "source_query": "Irrigation Equipment",
    "source_country": "UA",
    "country": "Ukraine",
    "state": "Kyivska oblast",
    "city": "Rokytne"
  },
  {
    "source_id": "ChIJz29ug2_J1EARzaZ7tmeMv4s",
    "name": "Інтернет-магазин LETO Сад від А до Я",
    "category": "Інтернет-магазин LETO Сад від А до Я",
    "formatted_address": "4,7(218)",
    "phone_number": "+380442291160",
    "source_url": "https://www.google.com/maps/place/%D0%86%D0%BD%D1%82%D0%B5%D1%80%D0%BD%D0%B5%D1%82-%D0%BC%D0%B0%D0%B3%D0%B0%D0%B7%D0%B8%D0%BD+LETO+%D0%A1%D0%B0%D0%B4+%D0%B2%D1%96%D0%B4+%D0%90+%D0%B4%D0%BE+%D0%AF/data=!4m7!3m6!1s0x40d4c96f836e6fcf:0x8bbf8c67b67ba6cd!8m2!3d50.396095!4d30.4154559!16s%2Fg%2F1vtzfr1m!19sChIJz29ug2_J1EARzaZ7tmeMv4s?authuser=0&hl=tr&rclk=1",
    "website_url": "",
    "rating_text": "4,7",
    "stars": null,
    "number_of_reviews": null,
    "price_level": "",
    "open_hours": "",
    "extraction_timestamp": "2025-06-08T03:37:37.439Z",
    "source_name": "google",
    "source_query": "Irrigation Equipment",
    "source_country": "UA",
    "country": "Ukraine",
    "state": "Kyivska oblast",
    "city": "Rokytne"
  },
  {
    "source_id": "ChIJlf8KTInJ1EARVa2l9X6ROvY",
    "name": "Hunter Автополив Украина",
    "category": "Hunter Автополив Украина",
    "formatted_address": "5,0(3)",
    "phone_number": "+380509998688",
    "source_url": "https://www.google.com/maps/place/Hunter+%D0%90%D0%B2%D1%82%D0%BE%D0%BF%D0%BE%D0%BB%D0%B8%D0%B2+%D0%A3%D0%BA%D1%80%D0%B0%D0%B8%D0%BD%D0%B0/data=!4m7!3m6!1s0x40d4c9894c0aff95:0xf63a917ef5a5ad55!8m2!3d50.4177962!4d30.4415501!16s%2Fg%2F11ngtbpk5k!19sChIJlf8KTInJ1EARVa2l9X6ROvY?authuser=0&hl=tr&rclk=1",
    "website_url": "",
    "rating_text": "5,0",
    "stars": null,
    "number_of_reviews": null,
    "price_level": "",
    "open_hours": "",
    "extraction_timestamp": "2025-06-08T03:37:37.440Z",
    "source_name": "google",
    "source_query": "Irrigation Equipment",
    "source_country": "UA",
    "country": "Ukraine",
    "state": "Kyivska oblast",
    "city": "Rokytne"
  },
  {
    "source_id": "ChIJn-d47iNV00ARU9xVc3Jn5kw",
    "name": "Агросвіт магазин насіння, добрив та засобів захисту рослин у Юнака",
    "category": "Агросвіт магазин насіння, добрив та засобів захисту рослин у Юнака",
    "formatted_address": "Агросвіт магазин насіння, добрив та засобів захисту рослин у Юнака",
    "phone_number": "+380972391155",
    "source_url": "https://www.google.com/maps/place/%D0%90%D0%B3%D1%80%D0%BE%D1%81%D0%B2%D1%96%D1%82+%D0%BC%D0%B0%D0%B3%D0%B0%D0%B7%D0%B8%D0%BD+%D0%BD%D0%B0%D1%81%D1%96%D0%BD%D0%BD%D1%8F,+%D0%B4%D0%BE%D0%B1%D1%80%D0%B8%D0%B2+%D1%82%D0%B0+%D0%B7%D0%B0%D1%81%D0%BE%D0%B1%D1%96%D0%B2+%D0%B7%D0%B0%D1%85%D0%B8%D1%81%D1%82%D1%83+%D1%80%D0%BE%D1%81%D0%BB%D0%B8%D0%BD+%D1%83+%D0%AE%D0%BD%D0%B0%D0%BA%D0%B0/data=!4m7!3m6!1s0x40d35523ee78e79f:0x4ce667727355dc53!8m2!3d50.0778089!4d29.911051!16s%2Fg%2F11rcfdp11k!19sChIJn-d47iNV00ARU9xVc3Jn5kw?authuser=0&hl=tr&rclk=1",
    "website_url": "",
    "rating_text": "5,0",
    "stars": null,
    "number_of_reviews": null,
    "price_level": "",
    "open_hours": "",
    "extraction_timestamp": "2025-06-08T03:37:37.440Z",
    "source_name": "google",
    "source_query": "Irrigation Equipment",
    "source_country": "UA",
    "country": "Ukraine",
    "state": "Kyivska oblast",
    "city": "Rokytne"
  },
  {
    "source_id": "ChIJkXv1l6XF1EARB2BiserVpEA",
    "name": "Cascade Aqua - Ландшафтная Компания",
    "category": "Cascade Aqua - Ландшафтная Компания",
    "formatted_address": "5,0(3)",
    "phone_number": "+380674031580",
    "source_url": "https://www.google.com/maps/place/Cascade+Aqua+-+%D0%9B%D0%B0%D0%BD%D0%B4%D1%88%D0%B0%D1%84%D1%82%D0%BD%D0%B0%D1%8F+%D0%9A%D0%BE%D0%BC%D0%BF%D0%B0%D0%BD%D0%B8%D1%8F/data=!4m7!3m6!1s0x40d4c5a597f57b91:0x40a4d5eab1626007!8m2!3d50.4285014!4d30.6698685!16s%2Fg%2F11gpn8vbph!19sChIJkXv1l6XF1EARB2BiserVpEA?authuser=0&hl=tr&rclk=1",
    "website_url": "",
    "rating_text": "5,0",
    "stars": null,
    "number_of_reviews": null,
    "price_level": "",
    "open_hours": "",
    "extraction_timestamp": "2025-06-08T03:37:37.458Z",
    "source_name": "google",
    "source_query": "Irrigation Equipment",
    "source_country": "UA",
    "country": "Ukraine",
    "state": "Kyivska oblast",
    "city": "Rokytne"
  },
  {
    "source_id": "ChIJQ9yX4i-l1EAR51raZps-G50",
    "name": "Mahazyn Santekhniky-Elektryky \"Vezha-Akva\"",
    "category": "Mahazyn Santekhniky-Elektryky \"Vezha-Akva\"",
    "formatted_address": "4,8(24)",
    "phone_number": "+380935687319",
    "source_url": "https://www.google.com/maps/place/Mahazyn+Santekhniky-Elektryky+%22Vezha-Akva%22/data=!4m7!3m6!1s0x40d4a52fe297dc43:0x9d1b3e9b66da5ae7!8m2!3d50.167179!4d30.337173!16s%2Fg%2F11fzfbxt_d!19sChIJQ9yX4i-l1EAR51raZps-G50?authuser=0&hl=tr&rclk=1",
    "website_url": "",
    "rating_text": "4,8",
    "stars": null,
    "number_of_reviews": null,
    "price_level": "",
    "open_hours": "",
    "extraction_timestamp": "2025-06-08T03:37:37.458Z",
    "source_name": "google",
    "source_query": "Irrigation Equipment",
    "source_country": "UA",
    "country": "Ukraine",
    "state": "Kyivska oblast",
    "city": "Rokytne"
  },
  {
    "source_id": "ChIJj9B1EqHP1EARDZgdszuCvLs",
    "name": "Системы полива",
    "category": "Системы полива",
    "formatted_address": "Sulama Ekipmanları Tedarikçisi · Lavrska St, 7а / 19Kapalı ⋅ Açılış zamanı: Pzt 09:00 · +380 99 343 8777",
    "phone_number": "+380993438777",
    "source_url": "https://www.google.com/maps/place/%D0%A1%D0%B8%D1%81%D1%82%D0%B5%D0%BC%D1%8B+%D0%BF%D0%BE%D0%BB%D0%B8%D0%B2%D0%B0/data=!4m7!3m6!1s0x40d4cfa11275d08f:0xbbbc823bb31d980d!8m2!3d50.4368044!4d30.5554264!16s%2Fg%2F11qh89rj21!19sChIJj9B1EqHP1EARDZgdszuCvLs?authuser=0&hl=tr&rclk=1",
    "website_url": "",
    "rating_text": "",
    "stars": null,
    "number_of_reviews": null,
    "price_level": "",
    "open_hours": "",
    "extraction_timestamp": "2025-06-08T03:37:37.459Z",
    "source_name": "google",
    "source_query": "Irrigation Equipment",
    "source_country": "UA",
    "country": "Ukraine",
    "state": "Kyivska oblast",
    "city": "Rokytne"
  },
  {
    "source_id": "ChIJf4jHN1LM1EARBkfaDZQGDTw",
    "name": "Dr. Sprinkler",
    "category": "Dr. Sprinkler",
    "formatted_address": "4,8(4)",
    "phone_number": "+380965335353",
    "source_url": "https://www.google.com/maps/place/Dr.+Sprinkler/data=!4m7!3m6!1s0x40d4cc5237c7887f:0x3c0d06940dda4706!8m2!3d50.4105845!4d30.558873!16s%2Fg%2F1q6j9h1m6!19sChIJf4jHN1LM1EARBkfaDZQGDTw?authuser=0&hl=tr&rclk=1",
    "website_url": "",
    "rating_text": "4,8",
    "stars": null,
    "number_of_reviews": null,
    "price_level": "",
    "open_hours": "",
    "extraction_timestamp": "2025-06-08T03:37:37.460Z",
    "source_name": "google",
    "source_query": "Irrigation Equipment",
    "source_country": "UA",
    "country": "Ukraine",
    "state": "Kyivska oblast",
    "city": "Rokytne"
  },
  {
    "source_id": "ChIJuXdaApwj1UAR6rJ6f4SGl9Q",
    "name": "Kyiv Home",
    "category": "Kyiv Home",
    "formatted_address": "4,5(23)",
    "phone_number": "+380972333007",
    "source_url": "https://www.google.com/maps/place/Kyiv+Home/data=!4m7!3m6!1s0x40d5239c025a77b9:0xd49786847f7ab2ea!8m2!3d50.4901858!4d30.5773563!16s%2Fg%2F11c3x9gl35!19sChIJuXdaApwj1UAR6rJ6f4SGl9Q?authuser=0&hl=tr&rclk=1",
    "website_url": "",
    "rating_text": "4,5",
    "stars": null,
    "number_of_reviews": null,
    "price_level": "",
    "open_hours": "",
    "extraction_timestamp": "2025-06-08T03:37:37.460Z",
    "source_name": "google",
    "source_query": "Irrigation Equipment",
    "source_country": "UA",
    "country": "Ukraine",
    "state": "Kyivska oblast",
    "city": "Rokytne"
  }
]
