[
  {
    "source_id": "ChIJ60XEpQbQ1EARVLf9IomIVYg",
    "name": "Poliv UA",
    "category": "Poliv UA",
    "formatted_address": "4,8(64)",
    "phone_number": "+380443379900",
    "source_url": "https://www.google.com/maps/place/Poliv+UA/data=!4m7!3m6!1s0x40d4d006a5c445eb:0x8855888922fdb754!8m2!3d50.4646434!4d30.6255633!16s%2Fg%2F11clsyjy7n!19sChIJ60XEpQbQ1EARVLf9IomIVYg?authuser=0&hl=tr&rclk=1",
    "website_url": "https://poliv.ua/",
    "rating_text": "4,8",
    "stars": null,
    "number_of_reviews": null,
    "price_level": "",
    "open_hours": "",
    "extraction_timestamp": "2025-06-08T03:36:49.736Z",
    "source_name": "google",
    "source_query": "Irrigation Equipment",
    "source_country": "UA",
    "country": "Ukraine",
    "state": "Kyivska oblast",
    "city": "Rokytne Raion"
  },
  {
    "source_id": "ChIJRa3o2hDG1EARvFwMiTpym0k",
    "name": "ЭВКАЛИПТ Р КОМПАНИЯ",
    "category": "ЭВКАЛИПТ Р КОМПАНИЯ",
    "formatted_address": "4,9(41)",
    "phone_number": "+380933654300",
    "source_url": "https://www.google.com/maps/place/%D0%AD%D0%92%D0%9A%D0%90%D0%9B%D0%98%D0%9F%D0%A2+%D0%A0+%D0%9A%D0%9E%D0%9C%D0%9F%D0%90%D0%9D%D0%98%D0%AF/data=!4m7!3m6!1s0x40d4c610dae8ad45:0x499b723a890c5cbc!8m2!3d50.360383!4d30.47321!16s%2Fg%2F11xhrr_g1!19sChIJRa3o2hDG1EARvFwMiTpym0k?authuser=0&hl=tr&rclk=1",
    "website_url": "http://www.evkalipt.com.ua/",
    "rating_text": "4,9",
    "stars": null,
    "number_of_reviews": null,
    "price_level": "",
    "open_hours": "",
    "extraction_timestamp": "2025-06-08T03:36:49.737Z",
    "source_name": "google",
    "source_query": "Irrigation Equipment",
    "source_country": "UA",
    "country": "Ukraine",
    "state": "Kyivska oblast",
    "city": "Rokytne Raion"
  },
  {
    "source_id": "ChIJ5XxAkt3L1EARKAadCejxqLE",
    "name": "Інтернет-Магазин полива Aqua Price (все для полива, оборудование для автоматического полива и ручного орошения)",
    "category": "Інтернет-Магазин полива Aqua Price (все для полива, оборудование для автоматического полива и ручного орошения)",
    "formatted_address": "Інтернет-Магазин полива Aqua Price (все для полива, оборудование для автоматического полива и ручного орошения)",
    "phone_number": "+380960773337",
    "source_url": "https://www.google.com/maps/place/%D0%86%D0%BD%D1%82%D0%B5%D1%80%D0%BD%D0%B5%D1%82-%D0%9C%D0%B0%D0%B3%D0%B0%D0%B7%D0%B8%D0%BD+%D0%BF%D0%BE%D0%BB%D0%B8%D0%B2%D0%B0+Aqua+Price+%28%D0%B2%D1%81%D0%B5+%D0%B4%D0%BB%D1%8F+%D0%BF%D0%BE%D0%BB%D0%B8%D0%B2%D0%B0,+%D0%BE%D0%B1%D0%BE%D1%80%D1%83%D0%B4%D0%BE%D0%B2%D0%B0%D0%BD%D0%B8%D0%B5+%D0%B4%D0%BB%D1%8F+%D0%B0%D0%B2%D1%82%D0%BE%D0%BC%D0%B0%D1%82%D0%B8%D1%87%D0%B5%D1%81%D0%BA%D0%BE%D0%B3%D0%BE+%D0%BF%D0%BE%D0%BB%D0%B8%D0%B2%D0%B0+%D0%B8+%D1%80%D1%83%D1%87%D0%BD%D0%BE%D0%B3%D0%BE+%D0%BE%D1%80%D0%BE%D1%88%D0%B5%D0%BD%D0%B8%D1%8F%29/data=!4m7!3m6!1s0x40d4cbdd92407ce5:0xb1a8f1e8099d0628!8m2!3d50.4275904!4d30.3497723!16s%2Fg%2F11qyk5wysc!19sChIJ5XxAkt3L1EARKAadCejxqLE?authuser=0&hl=tr&rclk=1",
    "website_url": "https://www.aquaprice.com.ua/",
    "rating_text": "5,0",
    "stars": null,
    "number_of_reviews": null,
    "price_level": "Web sitesiYol tarifi",
    "open_hours": "",
    "extraction_timestamp": "2025-06-08T03:36:49.739Z",
    "source_name": "google",
    "source_query": "Irrigation Equipment",
    "source_country": "UA",
    "country": "Ukraine",
    "state": "Kyivska oblast",
    "city": "Rokytne Raion"
  },
  {
    "source_id": "ChIJE60f2DPP1EARCqjSrjIeXBw",
    "name": "СпецПоливСервіс",
    "category": "СпецПоливСервіс",
    "formatted_address": "5,0(17)",
    "phone_number": "+380970822608",
    "source_url": "https://www.google.com/maps/place/%D0%A1%D0%BF%D0%B5%D1%86%D0%9F%D0%BE%D0%BB%D0%B8%D0%B2%D0%A1%D0%B5%D1%80%D0%B2%D1%96%D1%81/data=!4m7!3m6!1s0x40d4cf33d81fad13:0x1c5c1e32aed2a80a!8m2!3d50.463344!4d30.589573!16s%2Fg%2F11h0trxk1!19sChIJE60f2DPP1EARCqjSrjIeXBw?authuser=0&hl=tr&rclk=1",
    "website_url": "http://poliv-service.kiev.ua/",
    "rating_text": "5,0",
    "stars": null,
    "number_of_reviews": null,
    "price_level": "",
    "open_hours": "",
    "extraction_timestamp": "2025-06-08T03:36:49.740Z",
    "source_name": "google",
    "source_query": "Irrigation Equipment",
    "source_country": "UA",
    "country": "Ukraine",
    "state": "Kyivska oblast",
    "city": "Rokytne Raion"
  },
  {
    "source_id": "ChIJl1vIctfw1EARz_qdFqdgKyY",
    "name": "Ukrayinsʹka Ovocheva Kompaniya, Tov",
    "category": "Ukrayinsʹka Ovocheva Kompaniya, Tov",
    "formatted_address": "Ukrayinsʹka Ovocheva Kompaniya, Tov",
    "phone_number": "+380445865256",
    "source_url": "https://www.google.com/maps/place/Ukrayins%CA%B9ka+Ovocheva+Kompaniya,+Tov/data=!4m7!3m6!1s0x40d4f0d772c85b97:0x262b60a7169dfacf!8m2!3d50.2594112!4d31.1803821!16s%2Fg%2F11xdpj24g!19sChIJl1vIctfw1EARz_qdFqdgKyY?authuser=0&hl=tr&rclk=1",
    "website_url": "https://www.uvc.com.ua/",
    "rating_text": "4,6",
    "stars": null,
    "number_of_reviews": null,
    "price_level": "",
    "open_hours": "",
    "extraction_timestamp": "2025-06-08T03:36:49.763Z",
    "source_name": "google",
    "source_query": "Irrigation Equipment",
    "source_country": "UA",
    "country": "Ukraine",
    "state": "Kyivska oblast",
    "city": "Rokytne Raion"
  },
  {
    "source_id": "ChIJQ1JAj8vI1EAR1qZ8UsJac2k",
    "name": "Raysʹkyy Sad",
    "category": "Raysʹkyy Sad",
    "formatted_address": "4,9(43)",
    "phone_number": "+380976926256",
    "source_url": "https://www.google.com/maps/place/Rays%CA%B9kyy+Sad/data=!4m7!3m6!1s0x40d4c8cb8f405243:0x69735ac2527ca6d6!8m2!3d50.4361127!4d30.3544201!16s%2Fg%2F11f3tv4m_2!19sChIJQ1JAj8vI1EAR1qZ8UsJac2k?authuser=0&hl=tr&rclk=1",
    "website_url": "http://raysad.com.ua/",
    "rating_text": "4,9",
    "stars": null,
    "number_of_reviews": null,
    "price_level": "",
    "open_hours": "",
    "extraction_timestamp": "2025-06-08T03:36:49.764Z",
    "source_name": "google",
    "source_query": "Irrigation Equipment",
    "source_country": "UA",
    "country": "Ukraine",
    "state": "Kyivska oblast",
    "city": "Rokytne Raion"
  },
  {
    "source_id": "ChIJm50hmqrF1EARS0hOa7cJqSM",
    "name": "Дельта Терм (Осокорки)",
    "category": "Дельта Терм (Осокорки)",
    "formatted_address": "4,5(65)",
    "phone_number": "+380443322202",
    "source_url": "https://www.google.com/maps/place/%D0%94%D0%B5%D0%BB%D1%8C%D1%82%D0%B0+%D0%A2%D0%B5%D1%80%D0%BC+%28%D0%9E%D1%81%D0%BE%D0%BA%D0%BE%D1%80%D0%BA%D0%B8%29/data=!4m7!3m6!1s0x40d4c5aa9a219d9b:0x23a909b76b4e484b!8m2!3d50.3831474!4d30.6113073!16s%2Fg%2F11cm_q6rbh!19sChIJm50hmqrF1EARS0hOa7cJqSM?authuser=0&hl=tr&rclk=1",
    "website_url": "http://delta-term.ua/",
    "rating_text": "4,5",
    "stars": null,
    "number_of_reviews": null,
    "price_level": "",
    "open_hours": "",
    "extraction_timestamp": "2025-06-08T03:36:49.765Z",
    "source_name": "google",
    "source_query": "Irrigation Equipment",
    "source_country": "UA",
    "country": "Ukraine",
    "state": "Kyivska oblast",
    "city": "Rokytne Raion"
  },
  {
    "source_id": "ChIJJ4t1qfRp00ARnrQ-nykPKko",
    "name": "Pivdyuyma Bila Tserkva - Tovary Dlya Teplovodopostachannya Ta Vodovidvedennya",
    "category": "Pivdyuyma Bila Tserkva - Tovary Dlya Teplovodopostachannya Ta Vodovidvedennya",
    "formatted_address": "5,0(4)",
    "phone_number": "+380669454545",
    "source_url": "https://www.google.com/maps/place/Pivdyuyma+Bila+Tserkva+-+Tovary+Dlya+Teplovodopostachannya+Ta+Vodovidvedennya/data=!4m7!3m6!1s0x40d369f4a9758b27:0x4a2a0f299f3eb49e!8m2!3d49.7848696!4d30.1692441!16s%2Fg%2F11ldrd8jt4!19sChIJJ4t1qfRp00ARnrQ-nykPKko?authuser=0&hl=tr&rclk=1",
    "website_url": "https://www.pivduyma.ua/location?location_id=19",
    "rating_text": "5,0",
    "stars": null,
    "number_of_reviews": null,
    "price_level": "",
    "open_hours": "",
    "extraction_timestamp": "2025-06-08T03:36:49.766Z",
    "source_name": "google",
    "source_query": "Irrigation Equipment",
    "source_country": "UA",
    "country": "Ukraine",
    "state": "Kyivska oblast",
    "city": "Rokytne Raion"
  },
  {
    "source_id": "ChIJETZI2UKX1EARG1R3UAQw2mY",
    "name": "Tov \"Spektr-Ahro\"",
    "category": "Tov \"Spektr-Ahro\"",
    "formatted_address": "4,4(66)",
    "phone_number": "+380445209430",
    "source_url": "https://www.google.com/maps/place/Tov+%22Spektr-Ahro%22/data=!4m7!3m6!1s0x40d49742d9483611:0x66da30045077541b!8m2!3d50.1354884!4d30.695849!16s%2Fg%2F124ymr59z!19sChIJETZI2UKX1EARG1R3UAQw2mY?authuser=0&hl=tr&rclk=1",
    "website_url": "http://spectr-agro.com/",
    "rating_text": "4,4",
    "stars": null,
    "number_of_reviews": null,
    "price_level": "",
    "open_hours": "",
    "extraction_timestamp": "2025-06-08T03:36:49.767Z",
    "source_name": "google",
    "source_query": "Irrigation Equipment",
    "source_country": "UA",
    "country": "Ukraine",
    "state": "Kyivska oblast",
    "city": "Rokytne Raion"
  },
  {
    "source_id": "ChIJ9_rxu-6B1EAR7pSR0ggxq8U",
    "name": "Автеп - Опалення та енергетика",
    "category": "Автеп - Опалення та енергетика",
    "formatted_address": "4,8(12)",
    "phone_number": "+380504631011",
    "source_url": "https://www.google.com/maps/place/%D0%90%D0%B2%D1%82%D0%B5%D0%BF+-+%D0%9E%D0%BF%D0%B0%D0%BB%D0%B5%D0%BD%D0%BD%D1%8F+%D1%82%D0%B0+%D0%B5%D0%BD%D0%B5%D1%80%D0%B3%D0%B5%D1%82%D0%B8%D0%BA%D0%B0/data=!4m7!3m6!1s0x40d481eebbf1faf7:0xc5ab3108d29194ee!8m2!3d49.8638233!4d30.8273423!16s%2Fg%2F11htqyt6jy!19sChIJ9_rxu-6B1EAR7pSR0ggxq8U?authuser=0&hl=tr&rclk=1",
    "website_url": "https://avtep.kiev.ua/",
    "rating_text": "4,8",
    "stars": null,
    "number_of_reviews": null,
    "price_level": "",
    "open_hours": "",
    "extraction_timestamp": "2025-06-08T03:36:49.768Z",
    "source_name": "google",
    "source_query": "Irrigation Equipment",
    "source_country": "UA",
    "country": "Ukraine",
    "state": "Kyivska oblast",
    "city": "Rokytne Raion"
  },
  {
    "source_id": "ChIJn9HnVTPL1EAR4di2zqeFqrc",
    "name": "Ландшафтна компанія Garden House",
    "category": "Ландшафтна компанія Garden House",
    "formatted_address": "4,6(67)",
    "phone_number": "+380995461100",
    "source_url": "https://www.google.com/maps/place/%D0%9B%D0%B0%D0%BD%D0%B4%D1%88%D0%B0%D1%84%D1%82%D0%BD%D0%B0+%D0%BA%D0%BE%D0%BC%D0%BF%D0%B0%D0%BD%D1%96%D1%8F+Garden+House/data=!4m7!3m6!1s0x40d4cb3355e7d19f:0xb7aa85a7ceb6d8e1!8m2!3d50.4364812!4d30.2859854!16s%2Fg%2F11b6d5j_72!19sChIJn9HnVTPL1EAR4di2zqeFqrc?authuser=0&hl=tr&rclk=1",
    "website_url": "https://garden-house.ua/",
    "rating_text": "4,6",
    "stars": null,
    "number_of_reviews": null,
    "price_level": "",
    "open_hours": "",
    "extraction_timestamp": "2025-06-08T03:36:49.769Z",
    "source_name": "google",
    "source_query": "Irrigation Equipment",
    "source_country": "UA",
    "country": "Ukraine",
    "state": "Kyivska oblast",
    "city": "Rokytne Raion"
  },
  {
    "source_id": "ChIJM6VAOVjI1EARInyqFZ8ENUU",
    "name": "Hazon Mayster",
    "category": "Hazon Mayster",
    "formatted_address": "5,0(13)",
    "phone_number": "+380503588967",
    "source_url": "https://www.google.com/maps/place/Hazon+Mayster/data=!4m7!3m6!1s0x40d4c8583940a533:0x4535049f15aa7c22!8m2!3d50.3744949!4d30.4632499!16s%2Fg%2F1hhwqhx1t!19sChIJM6VAOVjI1EARInyqFZ8ENUU?authuser=0&hl=tr&rclk=1",
    "website_url": "https://gazon-master.com.ua/uk/",
    "rating_text": "5,0",
    "stars": null,
    "number_of_reviews": null,
    "price_level": "",
    "open_hours": "",
    "extraction_timestamp": "2025-06-08T03:36:49.770Z",
    "source_name": "google",
    "source_query": "Irrigation Equipment",
    "source_country": "UA",
    "country": "Ukraine",
    "state": "Kyivska oblast",
    "city": "Rokytne Raion"
  },
  {
    "source_id": "ChIJ6e9f0lzX1EARNNVH7YcWBps",
    "name": "Green House",
    "category": "Green House",
    "formatted_address": "4,9(16)",
    "phone_number": "+380987770699",
    "source_url": "https://www.google.com/maps/place/Green+House/data=!4m7!3m6!1s0x40d4d75cd25fefe9:0x9b061687ed47d534!8m2!3d50.5525814!4d30.666319!16s%2Fg%2F11fn9fcj_3!19sChIJ6e9f0lzX1EARNNVH7YcWBps?authuser=0&hl=tr&rclk=1",
    "website_url": "https://greenhouseukr.wixsite.com/kiev",
    "rating_text": "4,9",
    "stars": null,
    "number_of_reviews": null,
    "price_level": "",
    "open_hours": "",
    "extraction_timestamp": "2025-06-08T03:36:49.771Z",
    "source_name": "google",
    "source_query": "Irrigation Equipment",
    "source_country": "UA",
    "country": "Ukraine",
    "state": "Kyivska oblast",
    "city": "Rokytne Raion"
  },
  {
    "source_id": "ChIJlf8KTInJ1EARVa2l9X6ROvY",
    "name": "Hunter Автополив Украина",
    "category": "Hunter Автополив Украина",
    "formatted_address": "5,0(3)",
    "phone_number": "+380509998688",
    "source_url": "https://www.google.com/maps/place/Hunter+%D0%90%D0%B2%D1%82%D0%BE%D0%BF%D0%BE%D0%BB%D0%B8%D0%B2+%D0%A3%D0%BA%D1%80%D0%B0%D0%B8%D0%BD%D0%B0/data=!4m7!3m6!1s0x40d4c9894c0aff95:0xf63a917ef5a5ad55!8m2!3d50.4177962!4d30.4415501!16s%2Fg%2F11ngtbpk5k!19sChIJlf8KTInJ1EARVa2l9X6ROvY?authuser=0&hl=tr&rclk=1",
    "website_url": "https://hunter.org.ua/",
    "rating_text": "5,0",
    "stars": null,
    "number_of_reviews": null,
    "price_level": "",
    "open_hours": "",
    "extraction_timestamp": "2025-06-08T03:36:49.773Z",
    "source_name": "google",
    "source_query": "Irrigation Equipment",
    "source_country": "UA",
    "country": "Ukraine",
    "state": "Kyivska oblast",
    "city": "Rokytne Raion"
  },
  {
    "source_id": "ChIJi4Qz-Pfb1EAR_HYNsM1EFVE",
    "name": "GreenEra ГрінЕра - Інтернет-магазин ємностей та резервуарів, каналізаційних системи в Києві та Україні",
    "category": "GreenEra ГрінЕра - Інтернет-магазин ємностей та резервуарів, каналізаційних системи в Києві та Україні",
    "formatted_address": "GreenEra ГрінЕра - Інтернет-магазин ємностей та резервуарів, каналізаційних системи в Києві та Україні",
    "phone_number": "+380980894808",
    "source_url": "https://www.google.com/maps/place/GreenEra+%D0%93%D1%80%D1%96%D0%BD%D0%95%D1%80%D0%B0+-+%D0%86%D0%BD%D1%82%D0%B5%D1%80%D0%BD%D0%B5%D1%82-%D0%BC%D0%B0%D0%B3%D0%B0%D0%B7%D0%B8%D0%BD+%D1%94%D0%BC%D0%BD%D0%BE%D1%81%D1%82%D0%B5%D0%B9+%D1%82%D0%B0+%D1%80%D0%B5%D0%B7%D0%B5%D1%80%D0%B2%D1%83%D0%B0%D1%80%D1%96%D0%B2,+%D0%BA%D0%B0%D0%BD%D0%B0%D0%BB%D1%96%D0%B7%D0%B0%D1%86%D1%96%D0%B9%D0%BD%D0%B8%D1%85+%D1%81%D0%B8%D1%81%D1%82%D0%B5%D0%BC%D0%B8+%D0%B2+%D0%9A%D0%B8%D1%94%D0%B2%D1%96+%D1%82%D0%B0+%D0%A3%D0%BA%D1%80%D0%B0%D1%97%D0%BD%D1%96/data=!4m7!3m6!1s0x40d4dbf7f833848b:0x511544cdb00d76fc!8m2!3d50.1495746!4d30.7492831!16s%2Fg%2F11j59q0b66!19sChIJi4Qz-Pfb1EAR_HYNsM1EFVE?authuser=0&hl=tr&rclk=1",
    "website_url": "https://greenera.com.ua/",
    "rating_text": "5,0",
    "stars": null,
    "number_of_reviews": null,
    "price_level": "",
    "open_hours": "",
    "extraction_timestamp": "2025-06-08T03:36:49.774Z",
    "source_name": "google",
    "source_query": "Irrigation Equipment",
    "source_country": "UA",
    "country": "Ukraine",
    "state": "Kyivska oblast",
    "city": "Rokytne Raion"
  },
  {
    "source_id": "ChIJq1OAQEXF1EARIAyoFByGrW4",
    "name": "Ahrarna Industrialʹna Kompaniya",
    "category": "Ahrarna Industrialʹna Kompaniya",
    "formatted_address": "4,8(12)",
    "phone_number": "+380504444184",
    "source_url": "https://www.google.com/maps/place/Ahrarna+Industrial%CA%B9na+Kompaniya/data=!4m7!3m6!1s0x40d4c545408053ab:0x6ead861c14a80c20!8m2!3d50.4090678!4d30.6121652!16s%2Fg%2F1tdk3pn4!19sChIJq1OAQEXF1EARIAyoFByGrW4?authuser=0&hl=tr&rclk=1",
    "website_url": "https://aico.ua/",
    "rating_text": "4,8",
    "stars": null,
    "number_of_reviews": null,
    "price_level": "",
    "open_hours": "",
    "extraction_timestamp": "2025-06-08T03:36:49.775Z",
    "source_name": "google",
    "source_query": "Irrigation Equipment",
    "source_country": "UA",
    "country": "Ukraine",
    "state": "Kyivska oblast",
    "city": "Rokytne Raion"
  },
  {
    "source_id": "ChIJkXv1l6XF1EARB2BiserVpEA",
    "name": "Cascade Aqua - Ландшафтная Компания",
    "category": "Cascade Aqua - Ландшафтная Компания",
    "formatted_address": "5,0(3)",
    "phone_number": "+380674031580",
    "source_url": "https://www.google.com/maps/place/Cascade+Aqua+-+%D0%9B%D0%B0%D0%BD%D0%B4%D1%88%D0%B0%D1%84%D1%82%D0%BD%D0%B0%D1%8F+%D0%9A%D0%BE%D0%BC%D0%BF%D0%B0%D0%BD%D0%B8%D1%8F/data=!4m7!3m6!1s0x40d4c5a597f57b91:0x40a4d5eab1626007!8m2!3d50.4285014!4d30.6698685!16s%2Fg%2F11gpn8vbph!19sChIJkXv1l6XF1EARB2BiserVpEA?authuser=0&hl=tr&rclk=1",
    "website_url": "",
    "rating_text": "5,0",
    "stars": null,
    "number_of_reviews": null,
    "price_level": "",
    "open_hours": "",
    "extraction_timestamp": "2025-06-08T03:36:49.775Z",
    "source_name": "google",
    "source_query": "Irrigation Equipment",
    "source_country": "UA",
    "country": "Ukraine",
    "state": "Kyivska oblast",
    "city": "Rokytne Raion"
  },
  {
    "source_id": "ChIJf5EQNhHP1EARyFIa0TSoUMU",
    "name": "ТОВ \"Стрім-Енерджі Компані\"",
    "category": "ТОВ \"Стрім-Енерджі Компані\"",
    "formatted_address": "5,0(4)",
    "phone_number": "+380509855819",
    "source_url": "https://www.google.com/maps/place/%D0%A2%D0%9E%D0%92+%22%D0%A1%D1%82%D1%80%D1%96%D0%BC-%D0%95%D0%BD%D0%B5%D1%80%D0%B4%D0%B6%D1%96+%D0%9A%D0%BE%D0%BC%D0%BF%D0%B0%D0%BD%D1%96%22/data=!4m7!3m6!1s0x40d4cf113610917f:0xc550a834d11a52c8!8m2!3d50.4520424!4d30.6416021!16s%2Fg%2F11gwp6m4rt!19sChIJf5EQNhHP1EARyFIa0TSoUMU?authuser=0&hl=tr&rclk=1",
    "website_url": "https://st-energy.com.ua/",
    "rating_text": "5,0",
    "stars": null,
    "number_of_reviews": null,
    "price_level": "",
    "open_hours": "",
    "extraction_timestamp": "2025-06-08T03:36:49.776Z",
    "source_name": "google",
    "source_query": "Irrigation Equipment",
    "source_country": "UA",
    "country": "Ukraine",
    "state": "Kyivska oblast",
    "city": "Rokytne Raion"
  },
  {
    "source_id": "ChIJEWSxdh_I1EARf0k-kMeYU0w",
    "name": "Садово-дизайнерський центр «Shoni»",
    "category": "Садово-дизайнерський центр «Shoni»",
    "formatted_address": "4,7(103)",
    "phone_number": "+380932595599",
    "source_url": "https://www.google.com/maps/place/%D0%A1%D0%B0%D0%B4%D0%BE%D0%B2%D0%BE-%D0%B4%D0%B8%D0%B7%D0%B0%D0%B9%D0%BD%D0%B5%D1%80%D1%81%D1%8C%D0%BA%D0%B8%D0%B9+%D1%86%D0%B5%D0%BD%D1%82%D1%80+%C2%ABShoni%C2%BB/data=!4m7!3m6!1s0x40d4c81f76b16411:0x4c5398c7903e497f!8m2!3d50.332836!4d30.4394607!16s%2Fg%2F1tl4bk0t!19sChIJEWSxdh_I1EARf0k-kMeYU0w?authuser=0&hl=tr&rclk=1",
    "website_url": "http://shoni.kiev.ua/",
    "rating_text": "4,7",
    "stars": null,
    "number_of_reviews": null,
    "price_level": "",
    "open_hours": "",
    "extraction_timestamp": "2025-06-08T03:36:49.777Z",
    "source_name": "google",
    "source_query": "Irrigation Equipment",
    "source_country": "UA",
    "country": "Ukraine",
    "state": "Kyivska oblast",
    "city": "Rokytne Raion"
  },
  {
    "source_id": "ChIJWxt4AlHO1EARIhiDVwPGmbM",
    "name": "Eridon",
    "category": "Eridon",
    "formatted_address": "4,4(96)",
    "phone_number": "+380800408700",
    "source_url": "https://www.google.com/maps/place/Eridon/data=!4m7!3m6!1s0x40d4ce5102781b5b:0xb399c60357831822!8m2!3d50.3907885!4d30.4151779!16s%2Fg%2F1tf_rd2m!19sChIJWxt4AlHO1EARIhiDVwPGmbM?authuser=0&hl=tr&rclk=1",
    "website_url": "https://www.eridon.ua/",
    "rating_text": "4,4",
    "stars": null,
    "number_of_reviews": null,
    "price_level": "",
    "open_hours": "",
    "extraction_timestamp": "2025-06-08T03:36:49.778Z",
    "source_name": "google",
    "source_query": "Irrigation Equipment",
    "source_country": "UA",
    "country": "Ukraine",
    "state": "Kyivska oblast",
    "city": "Rokytne Raion"
  },
  {
    "source_id": "ChIJ-Z_-w2OV1EARyHVprSy6HP8",
    "name": "Kozyn Golf Club",
    "category": "Kozyn Golf Club",
    "formatted_address": "4,6(313)",
    "phone_number": "+380976192020",
    "source_url": "https://www.google.com/maps/place/Kozyn+Golf+Club/data=!4m7!3m6!1s0x40d49563c3fe9ff9:0xff1cba2cad6975c8!8m2!3d50.2315588!4d30.6755383!16s%2Fg%2F11dxqjp23x!19sChIJ-Z_-w2OV1EARyHVprSy6HP8?authuser=0&hl=tr&rclk=1",
    "website_url": "http://2640948.aikon.web.hosting-test.net/",
    "rating_text": "4,6",
    "stars": null,
    "number_of_reviews": null,
    "price_level": "",
    "open_hours": "",
    "extraction_timestamp": "2025-06-08T03:36:49.779Z",
    "source_name": "google",
    "source_query": "Irrigation Equipment",
    "source_country": "UA",
    "country": "Ukraine",
    "state": "Kyivska oblast",
    "city": "Rokytne Raion"
  },
  {
    "source_id": "ChIJ89sVIVZx00AR3PowTZG0OJA",
    "name": "Rokitnyansky Market",
    "category": "Rokitnyansky Market",
    "formatted_address": "3,6(607)",
    "phone_number": "",
    "source_url": "https://www.google.com/maps/place/Rokitnyansky+Market/data=!4m7!3m6!1s0x40d371562115dbf3:0x9038b4914d30fadc!8m2!3d49.6878003!4d30.4711303!16s%2Fg%2F11dfj89b62!19sChIJ89sVIVZx00AR3PowTZG0OJA?authuser=0&hl=tr&rclk=1",
    "website_url": "",
    "rating_text": "3,6",
    "stars": null,
    "number_of_reviews": null,
    "price_level": "",
    "open_hours": "",
    "extraction_timestamp": "2025-06-08T03:36:49.780Z",
    "source_name": "google",
    "source_query": "Irrigation Equipment",
    "source_country": "UA",
    "country": "Ukraine",
    "state": "Kyivska oblast",
    "city": "Rokytne Raion"
  },
  {
    "source_id": "ChIJuXdaApwj1UAR6rJ6f4SGl9Q",
    "name": "Kyiv Home",
    "category": "Kyiv Home",
    "formatted_address": "4,5(23)",
    "phone_number": "+380972333007",
    "source_url": "https://www.google.com/maps/place/Kyiv+Home/data=!4m7!3m6!1s0x40d5239c025a77b9:0xd49786847f7ab2ea!8m2!3d50.4901858!4d30.5773563!16s%2Fg%2F11c3x9gl35!19sChIJuXdaApwj1UAR6rJ6f4SGl9Q?authuser=0&hl=tr&rclk=1",
    "website_url": "https://kievrem.com.ua/",
    "rating_text": "4,5",
    "stars": null,
    "number_of_reviews": null,
    "price_level": "",
    "open_hours": "",
    "extraction_timestamp": "2025-06-08T03:36:49.780Z",
    "source_name": "google",
    "source_query": "Irrigation Equipment",
    "source_country": "UA",
    "country": "Ukraine",
    "state": "Kyivska oblast",
    "city": "Rokytne Raion"
  },
  {
    "source_id": "ChIJa1_M3Wtz00AR-MQ6Z1j6fmk",
    "name": "SHOPLobko",
    "category": "SHOPLobko",
    "formatted_address": "5,0(1)",
    "phone_number": "",
    "source_url": "https://www.google.com/maps/place/SHOPLobko/data=!4m7!3m6!1s0x40d3736bddcc5f6b:0x697efa58673ac4f8!8m2!3d49.6850192!4d30.472293!16s%2Fg%2F11ry994m6q!19sChIJa1_M3Wtz00AR-MQ6Z1j6fmk?authuser=0&hl=tr&rclk=1",
    "website_url": "",
    "rating_text": "5,0",
    "stars": null,
    "number_of_reviews": null,
    "price_level": "",
    "open_hours": "",
    "extraction_timestamp": "2025-06-08T03:36:49.781Z",
    "source_name": "google",
    "source_query": "Irrigation Equipment",
    "source_country": "UA",
    "country": "Ukraine",
    "state": "Kyivska oblast",
    "city": "Rokytne Raion"
  },
  {
    "source_id": "ChIJ5dUqQp2x1EARPeEoyGpO-K4",
    "name": "Ahropromkholdynh Arenda Spetstekhnyky",
    "category": "Ahropromkholdynh Arenda Spetstekhnyky",
    "formatted_address": "5,0(3)",
    "phone_number": "+380672426377",
    "source_url": "https://www.google.com/maps/place/Ahropromkholdynh+Arenda+Spetstekhnyky/data=!4m7!3m6!1s0x40d4b19d422ad5e5:0xaef84e6ac828e13d!8m2!3d50.2246541!4d30.3200193!16s%2Fg%2F11hf1xw_kn!19sChIJ5dUqQp2x1EARPeEoyGpO-K4?authuser=0&hl=tr&rclk=1",
    "website_url": "https://aph-tehnik.com/",
    "rating_text": "5,0",
    "stars": null,
    "number_of_reviews": null,
    "price_level": "",
    "open_hours": "",
    "extraction_timestamp": "2025-06-08T03:36:49.782Z",
    "source_name": "google",
    "source_query": "Irrigation Equipment",
    "source_country": "UA",
    "country": "Ukraine",
    "state": "Kyivska oblast",
    "city": "Rokytne Raion"
  },
  {
    "source_id": "ChIJj9B1EqHP1EARDZgdszuCvLs",
    "name": "Системы полива",
    "category": "Системы полива",
    "formatted_address": "Sulama Ekipmanları Tedarikçisi · Lavrska St, 7а / 19Kapalı ⋅ Açılış zamanı: Pzt 09:00 · +380 99 343 8777",
    "phone_number": "+380993438777",
    "source_url": "https://www.google.com/maps/place/%D0%A1%D0%B8%D1%81%D1%82%D0%B5%D0%BC%D1%8B+%D0%BF%D0%BE%D0%BB%D0%B8%D0%B2%D0%B0/data=!4m7!3m6!1s0x40d4cfa11275d08f:0xbbbc823bb31d980d!8m2!3d50.4368044!4d30.5554264!16s%2Fg%2F11qh89rj21!19sChIJj9B1EqHP1EARDZgdszuCvLs?authuser=0&hl=tr&rclk=1",
    "website_url": "http://syspoliv.com.ua/",
    "rating_text": "",
    "stars": null,
    "number_of_reviews": null,
    "price_level": "",
    "open_hours": "",
    "extraction_timestamp": "2025-06-08T03:36:49.783Z",
    "source_name": "google",
    "source_query": "Irrigation Equipment",
    "source_country": "UA",
    "country": "Ukraine",
    "state": "Kyivska oblast",
    "city": "Rokytne Raion"
  },
  {
    "source_id": "ChIJN0v5sxZl1UYRJt06hOZN5v4",
    "name": "Наша Ряба",
    "category": "Наша Ряба",
    "formatted_address": "5,0(1)",
    "phone_number": "+380800500001",
    "source_url": "https://www.google.com/maps/place/%D0%9D%D0%B0%D1%88%D0%B0+%D0%A0%D1%8F%D0%B1%D0%B0/data=!4m7!3m6!1s0x46d56516b3f94b37:0xfee64de6843add26!8m2!3d49.6891668!4d30.5011593!16s%2Fg%2F11jprfdd48!19sChIJN0v5sxZl1UYRJt06hOZN5v4?authuser=0&hl=tr&rclk=1",
    "website_url": "https://ryaba.ua/",
    "rating_text": "5,0",
    "stars": null,
    "number_of_reviews": null,
    "price_level": "",
    "open_hours": "",
    "extraction_timestamp": "2025-06-08T03:36:49.784Z",
    "source_name": "google",
    "source_query": "Irrigation Equipment",
    "source_country": "UA",
    "country": "Ukraine",
    "state": "Kyivska oblast",
    "city": "Rokytne Raion"
  },
  {
    "source_id": "ChIJTe1g7f-X1EARX2FmLPA7MlU",
    "name": "Omela - Horshchyky Dlya Kvitiv",
    "category": "Omela - Horshchyky Dlya Kvitiv",
    "formatted_address": "4,3(28)",
    "phone_number": "+380661473212",
    "source_url": "https://www.google.com/maps/place/Omela+-+Horshchyky+Dlya+Kvitiv/data=!4m7!3m6!1s0x40d497ffed60ed4d:0x55323bf02c66615f!8m2!3d50.1374012!4d30.6656045!16s%2Fg%2F11fk03y0gp!19sChIJTe1g7f-X1EARX2FmLPA7MlU?authuser=0&hl=tr&rclk=1",
    "website_url": "https://omela-ua.com/",
    "rating_text": "4,3",
    "stars": null,
    "number_of_reviews": null,
    "price_level": "",
    "open_hours": "",
    "extraction_timestamp": "2025-06-08T03:36:49.785Z",
    "source_name": "google",
    "source_query": "Irrigation Equipment",
    "source_country": "UA",
    "country": "Ukraine",
    "state": "Kyivska oblast",
    "city": "Rokytne Raion"
  },
  {
    "source_id": "ChIJH0ZUTFFx00ARkZR9gHHKsOs",
    "name": "Mahazyn \"Budivelʹnyk\"",
    "category": "Mahazyn \"Budivelʹnyk\"",
    "formatted_address": "5,0(1)",
    "phone_number": "",
    "source_url": "https://www.google.com/maps/place/Mahazyn+%22Budivel%CA%B9nyk%22/data=!4m7!3m6!1s0x40d371514c54461f:0xebb0ca71807d9491!8m2!3d49.6876542!4d30.4718881!16s%2Fg%2F11p6wv_qw2!19sChIJH0ZUTFFx00ARkZR9gHHKsOs?authuser=0&hl=tr&rclk=1",
    "website_url": "",
    "rating_text": "5,0",
    "stars": null,
    "number_of_reviews": null,
    "price_level": "",
    "open_hours": "",
    "extraction_timestamp": "2025-06-08T03:36:49.785Z",
    "source_name": "google",
    "source_query": "Irrigation Equipment",
    "source_country": "UA",
    "country": "Ukraine",
    "state": "Kyivska oblast",
    "city": "Rokytne Raion"
  },
  {
    "source_id": "ChIJhYjK8uRz00AR2vtkD2c7934",
    "name": "Рокитне",
    "category": "Рокитне",
    "formatted_address": "4,2(82)",
    "phone_number": "",
    "source_url": "https://www.google.com/maps/place/%D0%A0%D0%BE%D0%BA%D0%B8%D1%82%D0%BD%D0%B5/data=!4m7!3m6!1s0x40d373e4f2ca8885:0x7ef73b670f64fbda!8m2!3d49.6846706!4d30.456828!16s%2Fg%2F11c1n25dx7!19sChIJhYjK8uRz00AR2vtkD2c7934?authuser=0&hl=tr&rclk=1",
    "website_url": "",
    "rating_text": "4,2",
    "stars": null,
    "number_of_reviews": null,
    "price_level": "",
    "open_hours": "",
    "extraction_timestamp": "2025-06-08T03:36:49.786Z",
    "source_name": "google",
    "source_query": "Irrigation Equipment",
    "source_country": "UA",
    "country": "Ukraine",
    "state": "Kyivska oblast",
    "city": "Rokytne Raion"
  },
  {
    "source_id": "ChIJW73WdL_O1EARXXiJqQdW7kw",
    "name": "Ирригационные системы",
    "category": "Ирригационные системы",
    "formatted_address": "Sulama Ekipmanları Tedarikçisi · Solomianska St, 1Kapalı ⋅ Açılış zamanı: Pzt 09:00 · +380 96 114 5050",
    "phone_number": "+380961145050",
    "source_url": "https://www.google.com/maps/place/%D0%98%D1%80%D1%80%D0%B8%D0%B3%D0%B0%D1%86%D0%B8%D0%BE%D0%BD%D0%BD%D1%8B%D0%B5+%D1%81%D0%B8%D1%81%D1%82%D0%B5%D0%BC%D1%8B/data=!4m7!3m6!1s0x40d4cebf74d6bd5b:0x4cee5607a989785d!8m2!3d50.4307294!4d30.4732198!16s%2Fg%2F11rj5kysmm!19sChIJW73WdL_O1EARXXiJqQdW7kw?authuser=0&hl=tr&rclk=1",
    "website_url": "",
    "rating_text": "",
    "stars": null,
    "number_of_reviews": null,
    "price_level": "",
    "open_hours": "",
    "extraction_timestamp": "2025-06-08T03:36:49.786Z",
    "source_name": "google",
    "source_query": "Irrigation Equipment",
    "source_country": "UA",
    "country": "Ukraine",
    "state": "Kyivska oblast",
    "city": "Rokytne Raion"
  },
  {
    "source_id": "ChIJGS1C0-OW1EARFGYF-Hizzmc",
    "name": "Promyslovyy Supermarket \"Kazka\"",
    "category": "Promyslovyy Supermarket \"Kazka\"",
    "formatted_address": "4,2(132)",
    "phone_number": "+380445909787",
    "source_url": "https://www.google.com/maps/place/Promyslovyy+Supermarket+%22Kazka%22/data=!4m7!3m6!1s0x40d496e3d3422d19:0x67ceb378f8056614!8m2!3d50.1332367!4d30.6572145!16s%2Fg%2F11f24x3tkt!19sChIJGS1C0-OW1EARFGYF-Hizzmc?authuser=0&hl=tr&rclk=1",
    "website_url": "http://ogvr.com.ua/ua/supermarket/",
    "rating_text": "4,2",
    "stars": null,
    "number_of_reviews": null,
    "price_level": "",
    "open_hours": "",
    "extraction_timestamp": "2025-06-08T03:36:49.787Z",
    "source_name": "google",
    "source_query": "Irrigation Equipment",
    "source_country": "UA",
    "country": "Ukraine",
    "state": "Kyivska oblast",
    "city": "Rokytne Raion"
  },
  {
    "source_id": "ChIJ8dsRixjR1EARoXe2z7DsZeY",
    "name": "Ukladka Hazona Pod Klyuch Y Avtopolyv Hazona V Kyeve - Vydenflora",
    "category": "Ukladka Hazona Pod Klyuch Y Avtopolyv Hazona V Kyeve - Vydenflora",
    "formatted_address": "5,0(2)",
    "phone_number": "+380984505511",
    "source_url": "https://www.google.com/maps/place/Ukladka+Hazona+Pod+Klyuch+Y+Avtopolyv+Hazona+V+Kyeve+-+Vydenflora/data=!4m7!3m6!1s0x40d4d1188b11dbf1:0xe665ecb0cfb677a1!8m2!3d50.4285014!4d30.6698685!16s%2Fg%2F1pyqm5xpx!19sChIJ8dsRixjR1EARoXe2z7DsZeY?authuser=0&hl=tr&rclk=1",
    "website_url": "https://videnflora.com.ua/",
    "rating_text": "5,0",
    "stars": null,
    "number_of_reviews": null,
    "price_level": "",
    "open_hours": "",
    "extraction_timestamp": "2025-06-08T03:36:49.788Z",
    "source_name": "google",
    "source_query": "Irrigation Equipment",
    "source_country": "UA",
    "country": "Ukraine",
    "state": "Kyivska oblast",
    "city": "Rokytne Raion"
  },
  {
    "source_id": "ChIJ54yZgEPB1EARFNOdIi_FAJ4",
    "name": "Beshtor",
    "category": "Beshtor",
    "formatted_address": "2,0(1)",
    "phone_number": "+380635316556",
    "source_url": "https://www.google.com/maps/place/Beshtor/data=!4m7!3m6!1s0x40d4c14380998ce7:0x9e00c52f229dd314!8m2!3d50.448501!4d30.515775!16s%2Fg%2F11h64qhl6p!19sChIJ54yZgEPB1EARFNOdIi_FAJ4?authuser=0&hl=tr&rclk=1",
    "website_url": "",
    "rating_text": "2,0",
    "stars": null,
    "number_of_reviews": null,
    "price_level": "",
    "open_hours": "",
    "extraction_timestamp": "2025-06-08T03:36:49.789Z",
    "source_name": "google",
    "source_query": "Irrigation Equipment",
    "source_country": "UA",
    "country": "Ukraine",
    "state": "Kyivska oblast",
    "city": "Rokytne Raion"
  },
  {
    "source_id": "ChIJb458cOKx1EAR0FUVRxUzRPQ",
    "name": "Ahropolyv, Tov",
    "category": "Ahropolyv, Tov",
    "formatted_address": "Ahropolyv, Tov",
    "phone_number": "+380662142696",
    "source_url": "https://www.google.com/maps/place/Ahropolyv,+Tov/data=!4m7!3m6!1s0x40d4b1e2707c8e6f:0xf4443315471555d0!8m2!3d50.2174685!4d30.2524756!16s%2Fg%2F11vzs0ymkr!19sChIJb458cOKx1EAR0FUVRxUzRPQ?authuser=0&hl=tr&rclk=1",
    "website_url": "http://agropolyv.com.ua/",
    "rating_text": "",
    "stars": null,
    "number_of_reviews": null,
    "price_level": "",
    "open_hours": "",
    "extraction_timestamp": "2025-06-08T03:36:49.790Z",
    "source_name": "google",
    "source_query": "Irrigation Equipment",
    "source_country": "UA",
    "country": "Ukraine",
    "state": "Kyivska oblast",
    "city": "Rokytne Raion"
  }
]
