[
  {
    "source_id": "ChIJ60XEpQbQ1EARVLf9IomIVYg",
    "name": "Poliv UA",
    "category": "Poliv UA",
    "formatted_address": "4,8(64)",
    "phone_number": "+380443379900",
    "source_url": "https://www.google.com/maps/place/Poliv+UA/data=!4m7!3m6!1s0x40d4d006a5c445eb:0x8855888922fdb754!8m2!3d50.4646434!4d30.6255633!16s%2Fg%2F11clsyjy7n!19sChIJ60XEpQbQ1EARVLf9IomIVYg?authuser=0&hl=tr&rclk=1",
    "website_url": "",
    "rating_text": "4,8",
    "stars": null,
    "number_of_reviews": null,
    "price_level": "",
    "open_hours": "",
    "extraction_timestamp": "2025-06-08T03:36:21.053Z",
    "source_name": "google",
    "source_query": "Irrigation Equipment",
    "source_country": "UA",
    "country": "Ukraine",
    "state": "Kyivska oblast",
    "city": "Rzhyshchiv"
  },
  {
    "source_id": "ChIJYyU9lq_N1EARqoG8SYko8go",
    "name": "Лайф Гарден",
    "category": "Лайф Гарден",
    "formatted_address": "3,9(7)",
    "phone_number": "+380503719090",
    "source_url": "https://www.google.com/maps/place/%D0%9B%D0%B0%D0%B9%D1%84+%D0%93%D0%B0%D1%80%D0%B4%D0%B5%D0%BD/data=!4m7!3m6!1s0x40d4cdaf963d2563:0xaf2288949bc81aa!8m2!3d50.45748!4d30.3824706!16s%2Fg%2F11gr60b225!19sChIJYyU9lq_N1EARqoG8SYko8go?authuser=0&hl=tr&rclk=1",
    "website_url": "",
    "rating_text": "3,9",
    "stars": null,
    "number_of_reviews": null,
    "price_level": "",
    "open_hours": "",
    "extraction_timestamp": "2025-06-08T03:36:21.054Z",
    "source_name": "google",
    "source_query": "Irrigation Equipment",
    "source_country": "UA",
    "country": "Ukraine",
    "state": "Kyivska oblast",
    "city": "Rzhyshchiv"
  },
  {
    "source_id": "ChIJM6VAOVjI1EARInyqFZ8ENUU",
    "name": "Hazon Mayster",
    "category": "Hazon Mayster",
    "formatted_address": "5,0(13)",
    "phone_number": "+380503588967",
    "source_url": "https://www.google.com/maps/place/Hazon+Mayster/data=!4m7!3m6!1s0x40d4c8583940a533:0x4535049f15aa7c22!8m2!3d50.3744949!4d30.4632499!16s%2Fg%2F1hhwqhx1t!19sChIJM6VAOVjI1EARInyqFZ8ENUU?authuser=0&hl=tr&rclk=1",
    "website_url": "",
    "rating_text": "5,0",
    "stars": null,
    "number_of_reviews": null,
    "price_level": "",
    "open_hours": "",
    "extraction_timestamp": "2025-06-08T03:36:21.054Z",
    "source_name": "google",
    "source_query": "Irrigation Equipment",
    "source_country": "UA",
    "country": "Ukraine",
    "state": "Kyivska oblast",
    "city": "Rzhyshchiv"
  },
  {
    "source_id": "ChIJj4sRZih91EARspHeGr3aFrk",
    "name": "Fora",
    "category": "Fora",
    "formatted_address": "3,9(426)",
    "phone_number": "+380800301230",
    "source_url": "https://www.google.com/maps/place/Fora/data=!4m7!3m6!1s0x40d47d2866118b8f:0xb916dabd1ade91b2!8m2!3d49.9706813!4d31.0433267!16s%2Fg%2F11btly1sm2!19sChIJj4sRZih91EARspHeGr3aFrk?authuser=0&hl=tr&rclk=1",
    "website_url": "",
    "rating_text": "3,9",
    "stars": null,
    "number_of_reviews": null,
    "price_level": "",
    "open_hours": "",
    "extraction_timestamp": "2025-06-08T03:36:21.055Z",
    "source_name": "google",
    "source_query": "Irrigation Equipment",
    "source_country": "UA",
    "country": "Ukraine",
    "state": "Kyivska oblast",
    "city": "Rzhyshchiv"
  },
  {
    "source_id": "ChIJG3j3WwB91EAR1u5YE0u0lpU",
    "name": "Ukrayinsʹke Kurcha",
    "category": "Ukrayinsʹke Kurcha",
    "formatted_address": "5,0(1)",
    "phone_number": "",
    "source_url": "https://www.google.com/maps/place/Ukrayins%CA%B9ke+Kurcha/data=!4m7!3m6!1s0x40d47d005bf7781b:0x9596b44b1358eed6!8m2!3d49.9581424!4d31.0542017!16s%2Fg%2F11vyr87hn0!19sChIJG3j3WwB91EAR1u5YE0u0lpU?authuser=0&hl=tr&rclk=1",
    "website_url": "",
    "rating_text": "5,0",
    "stars": null,
    "number_of_reviews": null,
    "price_level": "",
    "open_hours": "",
    "extraction_timestamp": "2025-06-08T03:36:21.055Z",
    "source_name": "google",
    "source_query": "Irrigation Equipment",
    "source_country": "UA",
    "country": "Ukraine",
    "state": "Kyivska oblast",
    "city": "Rzhyshchiv"
  },
  {
    "source_id": "ChIJY8gEYABj1EARx3qnA55gU04",
    "name": "Optovo-Rozdribnyy Sklad-Mahazyn",
    "category": "Optovo-Rozdribnyy Sklad-Mahazyn",
    "formatted_address": "1,0(1)",
    "phone_number": "",
    "source_url": "https://www.google.com/maps/place/Optovo-Rozdribnyy+Sklad-Mahazyn/data=!4m7!3m6!1s0x40d463006004c863:0x4e53609e03a77ac7!8m2!3d49.9792349!4d31.0488135!16s%2Fg%2F11x8zn50ts!19sChIJY8gEYABj1EARx3qnA55gU04?authuser=0&hl=tr&rclk=1",
    "website_url": "",
    "rating_text": "1,0",
    "stars": null,
    "number_of_reviews": null,
    "price_level": "",
    "open_hours": "",
    "extraction_timestamp": "2025-06-08T03:36:21.055Z",
    "source_name": "google",
    "source_query": "Irrigation Equipment",
    "source_country": "UA",
    "country": "Ukraine",
    "state": "Kyivska oblast",
    "city": "Rzhyshchiv"
  },
  {
    "source_id": "ChIJq1OAQEXF1EARIAyoFByGrW4",
    "name": "Ahrarna Industrialʹna Kompaniya",
    "category": "Ahrarna Industrialʹna Kompaniya",
    "formatted_address": "4,8(12)",
    "phone_number": "+380504444184",
    "source_url": "https://www.google.com/maps/place/Ahrarna+Industrial%CA%B9na+Kompaniya/data=!4m7!3m6!1s0x40d4c545408053ab:0x6ead861c14a80c20!8m2!3d50.4090678!4d30.6121652!16s%2Fg%2F1tdk3pn4!19sChIJq1OAQEXF1EARIAyoFByGrW4?authuser=0&hl=tr&rclk=1",
    "website_url": "",
    "rating_text": "4,8",
    "stars": null,
    "number_of_reviews": null,
    "price_level": "",
    "open_hours": "",
    "extraction_timestamp": "2025-06-08T03:36:21.056Z",
    "source_name": "google",
    "source_query": "Irrigation Equipment",
    "source_country": "UA",
    "country": "Ukraine",
    "state": "Kyivska oblast",
    "city": "Rzhyshchiv"
  },
  {
    "source_id": "ChIJf4jHN1LM1EARBkfaDZQGDTw",
    "name": "Dr. Sprinkler",
    "category": "Dr. Sprinkler",
    "formatted_address": "4,8(4)",
    "phone_number": "+380965335353",
    "source_url": "https://www.google.com/maps/place/Dr.+Sprinkler/data=!4m7!3m6!1s0x40d4cc5237c7887f:0x3c0d06940dda4706!8m2!3d50.4105845!4d30.558873!16s%2Fg%2F1q6j9h1m6!19sChIJf4jHN1LM1EARBkfaDZQGDTw?authuser=0&hl=tr&rclk=1",
    "website_url": "",
    "rating_text": "4,8",
    "stars": null,
    "number_of_reviews": null,
    "price_level": "",
    "open_hours": "",
    "extraction_timestamp": "2025-06-08T03:36:21.056Z",
    "source_name": "google",
    "source_query": "Irrigation Equipment",
    "source_country": "UA",
    "country": "Ukraine",
    "state": "Kyivska oblast",
    "city": "Rzhyshchiv"
  },
  {
    "source_id": "ChIJIyzUYtNi1EARfe6Ie_gIXBM",
    "name": "Mahazyn \"Chayok\"",
    "category": "Mahazyn \"Chayok\"",
    "formatted_address": "4,8(55)",
    "phone_number": "+380732238689",
    "source_url": "https://www.google.com/maps/place/Mahazyn+%22Chayok%22/data=!4m7!3m6!1s0x40d462d362d42c23:0x135c08f87b88ee7d!8m2!3d49.9698568!4d31.0436376!16s%2Fg%2F11g6cv9805!19sChIJIyzUYtNi1EARfe6Ie_gIXBM?authuser=0&hl=tr&rclk=1",
    "website_url": "",
    "rating_text": "4,8",
    "stars": null,
    "number_of_reviews": null,
    "price_level": "",
    "open_hours": "",
    "extraction_timestamp": "2025-06-08T03:36:21.056Z",
    "source_name": "google",
    "source_query": "Irrigation Equipment",
    "source_country": "UA",
    "country": "Ukraine",
    "state": "Kyivska oblast",
    "city": "Rzhyshchiv"
  },
  {
    "source_id": "ChIJE8eL4YJ91EARPoimpvCloc4",
    "name": "Епіцентр Express",
    "category": "Епіцентр Express",
    "formatted_address": "4,3(6)",
    "phone_number": "+380800202727",
    "source_url": "https://www.google.com/maps/place/%D0%95%D0%BF%D1%96%D1%86%D0%B5%D0%BD%D1%82%D1%80+Express/data=!4m7!3m6!1s0x40d47d82e18bc713:0xcea1a5f0a6a6883e!8m2!3d49.9710015!4d31.0418299!16s%2Fg%2F11vrjnby7k!19sChIJE8eL4YJ91EARPoimpvCloc4?authuser=0&hl=tr&rclk=1",
    "website_url": "",
    "rating_text": "4,3",
    "stars": null,
    "number_of_reviews": null,
    "price_level": "",
    "open_hours": "",
    "extraction_timestamp": "2025-06-08T03:36:21.056Z",
    "source_name": "google",
    "source_query": "Irrigation Equipment",
    "source_country": "UA",
    "country": "Ukraine",
    "state": "Kyivska oblast",
    "city": "Rzhyshchiv"
  },
  {
    "source_id": "ChIJGzGhE2p91EARh-tf0gYP2DM",
    "name": "Наша Ряба",
    "category": "Наша Ряба",
    "formatted_address": "5,0(1)",
    "phone_number": "+380800500001",
    "source_url": "https://www.google.com/maps/place/%D0%9D%D0%B0%D1%88%D0%B0+%D0%A0%D1%8F%D0%B1%D0%B0/data=!4m7!3m6!1s0x40d47d6a13a1311b:0x33d80f06d25feb87!8m2!3d49.9687195!4d31.0421092!16s%2Fg%2F11k6l5w3zd!19sChIJGzGhE2p91EARh-tf0gYP2DM?authuser=0&hl=tr&rclk=1",
    "website_url": "",
    "rating_text": "5,0",
    "stars": null,
    "number_of_reviews": null,
    "price_level": "",
    "open_hours": "",
    "extraction_timestamp": "2025-06-08T03:36:21.057Z",
    "source_name": "google",
    "source_query": "Irrigation Equipment",
    "source_country": "UA",
    "country": "Ukraine",
    "state": "Kyivska oblast",
    "city": "Rzhyshchiv"
  },
  {
    "source_id": "ChIJrfrZAyx91EARxtcajDzpGdc",
    "name": "Хозяйственный магазин",
    "category": "Хозяйственный магазин",
    "formatted_address": "4,0(3)",
    "phone_number": "",
    "source_url": "https://www.google.com/maps/place/%D0%A5%D0%BE%D0%B7%D1%8F%D0%B9%D1%81%D1%82%D0%B2%D0%B5%D0%BD%D0%BD%D1%8B%D0%B9+%D0%BC%D0%B0%D0%B3%D0%B0%D0%B7%D0%B8%D0%BD/data=!4m7!3m6!1s0x40d47d2c03d9faad:0xd719e93c8c1ad7c6!8m2!3d49.9660727!4d31.0430005!16s%2Fg%2F11f__67qsx!19sChIJrfrZAyx91EARxtcajDzpGdc?authuser=0&hl=tr&rclk=1",
    "website_url": "",
    "rating_text": "4,0",
    "stars": null,
    "number_of_reviews": null,
    "price_level": "",
    "open_hours": "",
    "extraction_timestamp": "2025-06-08T03:36:21.057Z",
    "source_name": "google",
    "source_query": "Irrigation Equipment",
    "source_country": "UA",
    "country": "Ukraine",
    "state": "Kyivska oblast",
    "city": "Rzhyshchiv"
  },
  {
    "source_id": "ChIJO2LFQeF91EARUAii1twAuag",
    "name": "Карапишівські ковбаси",
    "category": "Карапишівські ковбаси",
    "formatted_address": "5,0(2)",
    "phone_number": "+380457431223",
    "source_url": "https://www.google.com/maps/place/%D0%9A%D0%B0%D1%80%D0%B0%D0%BF%D0%B8%D1%88%D1%96%D0%B2%D1%81%D1%8C%D0%BA%D1%96+%D0%BA%D0%BE%D0%B2%D0%B1%D0%B0%D1%81%D0%B8/data=!4m7!3m6!1s0x40d47de141c5623b:0xa8b900dcd6a20850!8m2!3d49.9690018!4d31.0423891!16s%2Fg%2F11rb434g9j!19sChIJO2LFQeF91EARUAii1twAuag?authuser=0&hl=tr&rclk=1",
    "website_url": "",
    "rating_text": "5,0",
    "stars": null,
    "number_of_reviews": null,
    "price_level": "",
    "open_hours": "",
    "extraction_timestamp": "2025-06-08T03:36:21.057Z",
    "source_name": "google",
    "source_query": "Irrigation Equipment",
    "source_country": "UA",
    "country": "Ukraine",
    "state": "Kyivska oblast",
    "city": "Rzhyshchiv"
  },
  {
    "source_id": "ChIJW73WdL_O1EARXXiJqQdW7kw",
    "name": "Ирригационные системы",
    "category": "Ирригационные системы",
    "formatted_address": "Sulama Ekipmanları Tedarikçisi · Solomianska St, 1Kapalı ⋅ Açılış zamanı: Pzt 09:00 · +380 96 114 5050",
    "phone_number": "+380961145050",
    "source_url": "https://www.google.com/maps/place/%D0%98%D1%80%D1%80%D0%B8%D0%B3%D0%B0%D1%86%D0%B8%D0%BE%D0%BD%D0%BD%D1%8B%D0%B5+%D1%81%D0%B8%D1%81%D1%82%D0%B5%D0%BC%D1%8B/data=!4m7!3m6!1s0x40d4cebf74d6bd5b:0x4cee5607a989785d!8m2!3d50.4307294!4d30.4732198!16s%2Fg%2F11rj5kysmm!19sChIJW73WdL_O1EARXXiJqQdW7kw?authuser=0&hl=tr&rclk=1",
    "website_url": "",
    "rating_text": "",
    "stars": null,
    "number_of_reviews": null,
    "price_level": "",
    "open_hours": "",
    "extraction_timestamp": "2025-06-08T03:36:21.057Z",
    "source_name": "google",
    "source_query": "Irrigation Equipment",
    "source_country": "UA",
    "country": "Ukraine",
    "state": "Kyivska oblast",
    "city": "Rzhyshchiv"
  },
  {
    "source_id": "ChIJMbPs1kJj1EAR4JHJBYNMG8s",
    "name": "PokatushkiUA | Покатушки ЮА",
    "category": "PokatushkiUA | Покатушки ЮА",
    "formatted_address": "4,9(31)",
    "phone_number": "+380979260051",
    "source_url": "https://www.google.com/maps/place/PokatushkiUA+%7C+%D0%9F%D0%BE%D0%BA%D0%B0%D1%82%D1%83%D1%88%D0%BA%D0%B8+%D0%AE%D0%90/data=!4m7!3m6!1s0x40d46342d6ecb331:0xcb1b4c8305c991e0!8m2!3d49.9742896!4d31.0561226!16s%2Fg%2F11pwhlpxtr!19sChIJMbPs1kJj1EAR4JHJBYNMG8s?authuser=0&hl=tr&rclk=1",
    "website_url": "",
    "rating_text": "4,9",
    "stars": null,
    "number_of_reviews": null,
    "price_level": "",
    "open_hours": "",
    "extraction_timestamp": "2025-06-08T03:36:21.057Z",
    "source_name": "google",
    "source_query": "Irrigation Equipment",
    "source_country": "UA",
    "country": "Ukraine",
    "state": "Kyivska oblast",
    "city": "Rzhyshchiv"
  }
]
