[
  {
    "source_id": "ChIJlYI3orMx00AR_HtZVUkV6L4",
    "name": "Kalyna",
    "category": "Kalyna",
    "formatted_address": "4,6(57)",
    "phone_number": "",
    "source_url": "https://www.google.com/maps/place/Kalyna/data=!4m7!3m6!1s0x40d331b3a2378295:0xbee8154955597bfc!8m2!3d49.7361408!4d29.639786!16s%2Fg%2F11j0v02zfy!19sChIJlYI3orMx00AR_HtZVUkV6L4?authuser=0&hl=tr&rclk=1",
    "website_url": "",
    "rating_text": "4,6",
    "stars": null,
    "number_of_reviews": null,
    "price_level": "",
    "open_hours": "",
    "extraction_timestamp": "2025-06-08T03:32:56.982Z",
    "source_name": "google",
    "source_query": "Irrigation Equipment",
    "source_country": "UA",
    "country": "Ukraine",
    "state": "Kyivska oblast",
    "city": "Skvyra"
  },
  {
    "source_id": "ChIJP46U94o300AR4HcCcuNHQq0",
    "name": "Lyudmyla",
    "category": "Lyudmyla",
    "formatted_address": "4,6(95)",
    "phone_number": "",
    "source_url": "https://www.google.com/maps/place/Lyudmyla/data=!4m7!3m6!1s0x40d3378af7948e3f:0xad4247e3720277e0!8m2!3d49.7398907!4d29.6686492!16s%2Fg%2F11ffm190q0!19sChIJP46U94o300AR4HcCcuNHQq0?authuser=0&hl=tr&rclk=1",
    "website_url": "",
    "rating_text": "4,6",
    "stars": null,
    "number_of_reviews": null,
    "price_level": "",
    "open_hours": "",
    "extraction_timestamp": "2025-06-08T03:32:56.984Z",
    "source_name": "google",
    "source_query": "Irrigation Equipment",
    "source_country": "UA",
    "country": "Ukraine",
    "state": "Kyivska oblast",
    "city": "Skvyra"
  },
  {
    "source_id": "ChIJz9SmVMo200ARVRTkD0c773o",
    "name": "Avtozapchastyny",
    "category": "Avtozapchastyny",
    "formatted_address": "4,2(26)",
    "phone_number": "",
    "source_url": "https://www.google.com/maps/place/Avtozapchastyny/data=!4m7!3m6!1s0x40d336ca54a6d4cf:0x7aef3b470fe41455!8m2!3d49.7405017!4d29.6682276!16s%2Fg%2F11c1nct02z!19sChIJz9SmVMo200ARVRTkD0c773o?authuser=0&hl=tr&rclk=1",
    "website_url": "",
    "rating_text": "4,2",
    "stars": null,
    "number_of_reviews": null,
    "price_level": "",
    "open_hours": "",
    "extraction_timestamp": "2025-06-08T03:32:57.006Z",
    "source_name": "google",
    "source_query": "Irrigation Equipment",
    "source_country": "UA",
    "country": "Ukraine",
    "state": "Kyivska oblast",
    "city": "Skvyra"
  },
  {
    "source_id": "ChIJeeHtGfgx00ARoNpgwvoslCM",
    "name": "Фора",
    "category": "Фора",
    "formatted_address": "4,5(258)",
    "phone_number": "+380800301230",
    "source_url": "https://www.google.com/maps/place/%D0%A4%D0%BE%D1%80%D0%B0/data=!4m7!3m6!1s0x40d331f819ede179:0x23942cfac260daa0!8m2!3d49.734045!4d29.6630187!16s%2Fg%2F11ll7kg27x!19sChIJeeHtGfgx00ARoNpgwvoslCM?authuser=0&hl=tr&rclk=1",
    "website_url": "",
    "rating_text": "4,5",
    "stars": null,
    "number_of_reviews": null,
    "price_level": "",
    "open_hours": "",
    "extraction_timestamp": "2025-06-08T03:32:57.009Z",
    "source_name": "google",
    "source_query": "Irrigation Equipment",
    "source_country": "UA",
    "country": "Ukraine",
    "state": "Kyivska oblast",
    "city": "Skvyra"
  },
  {
    "source_id": "ChIJ03wWJdYx00ARXVHm9ssURjA",
    "name": "Halyna",
    "category": "Halyna",
    "formatted_address": "4,5(43)",
    "phone_number": "",
    "source_url": "https://www.google.com/maps/place/Halyna/data=!4m7!3m6!1s0x40d331d625167cd3:0x304614cbf6e6515d!8m2!3d49.7364534!4d29.6468507!16s%2Fg%2F11h8916p_q!19sChIJ03wWJdYx00ARXVHm9ssURjA?authuser=0&hl=tr&rclk=1",
    "website_url": "",
    "rating_text": "4,5",
    "stars": null,
    "number_of_reviews": null,
    "price_level": "",
    "open_hours": "",
    "extraction_timestamp": "2025-06-08T03:32:57.009Z",
    "source_name": "google",
    "source_query": "Irrigation Equipment",
    "source_country": "UA",
    "country": "Ukraine",
    "state": "Kyivska oblast",
    "city": "Skvyra"
  },
  {
    "source_id": "ChIJJ1ORMNgx00ARhGb8vEgp11w",
    "name": "Светлана",
    "category": "Светлана",
    "formatted_address": "3,7(43)",
    "phone_number": "+380984187777",
    "source_url": "https://www.google.com/maps/place/%D0%A1%D0%B2%D0%B5%D1%82%D0%BB%D0%B0%D0%BD%D0%B0/data=!4m7!3m6!1s0x40d331d830915327:0x5cd72948bcfc6684!8m2!3d49.7311036!4d29.6656026!16s%2Fg%2F11gnsx7g11!19sChIJJ1ORMNgx00ARhGb8vEgp11w?authuser=0&hl=tr&rclk=1",
    "website_url": "",
    "rating_text": "3,7",
    "stars": null,
    "number_of_reviews": null,
    "price_level": "",
    "open_hours": "",
    "extraction_timestamp": "2025-06-08T03:32:57.011Z",
    "source_name": "google",
    "source_query": "Irrigation Equipment",
    "source_country": "UA",
    "country": "Ukraine",
    "state": "Kyivska oblast",
    "city": "Skvyra"
  },
  {
    "source_id": "ChIJGRnATfIx00ARYFfSxx8ztNk",
    "name": "Snizhynka",
    "category": "Snizhynka",
    "formatted_address": "4,0(1)",
    "phone_number": "",
    "source_url": "https://www.google.com/maps/place/Snizhynka/data=!4m7!3m6!1s0x40d331f24dc01919:0xd9b4331fc7d25760!8m2!3d49.7370656!4d29.6388863!16s%2Fg%2F11pxx1wjgn!19sChIJGRnATfIx00ARYFfSxx8ztNk?authuser=0&hl=tr&rclk=1",
    "website_url": "",
    "rating_text": "4,0",
    "stars": null,
    "number_of_reviews": null,
    "price_level": "",
    "open_hours": "",
    "extraction_timestamp": "2025-06-08T03:32:57.011Z",
    "source_name": "google",
    "source_query": "Irrigation Equipment",
    "source_country": "UA",
    "country": "Ukraine",
    "state": "Kyivska oblast",
    "city": "Skvyra"
  },
  {
    "source_id": "ChIJ0-5kL5M300AR3Ndxm7LjJpk",
    "name": "Merkuriy",
    "category": "Merkuriy",
    "formatted_address": "5,0(2)",
    "phone_number": "",
    "source_url": "https://www.google.com/maps/place/Merkuriy/data=!4m7!3m6!1s0x40d337932f64eed3:0x9926e3b29b71d7dc!8m2!3d49.738145!4d29.6701695!16s%2Fg%2F11p5rhnc29!19sChIJ0-5kL5M300AR3Ndxm7LjJpk?authuser=0&hl=tr&rclk=1",
    "website_url": "",
    "rating_text": "5,0",
    "stars": null,
    "number_of_reviews": null,
    "price_level": "",
    "open_hours": "",
    "extraction_timestamp": "2025-06-08T03:32:57.012Z",
    "source_name": "google",
    "source_query": "Irrigation Equipment",
    "source_country": "UA",
    "country": "Ukraine",
    "state": "Kyivska oblast",
    "city": "Skvyra"
  },
  {
    "source_id": "ChIJ7R876g0x00ARpPV7JTKG4bw",
    "name": "Карапуз",
    "category": "Карапуз",
    "formatted_address": "4,8(5)",
    "phone_number": "+380979446967",
    "source_url": "https://www.google.com/maps/place/%D0%9A%D0%B0%D1%80%D0%B0%D0%BF%D1%83%D0%B7/data=!4m7!3m6!1s0x40d3310dea3b1fed:0xbce18632257bf5a4!8m2!3d49.7321912!4d29.664049!16s%2Fg%2F11j9641n67!19sChIJ7R876g0x00ARpPV7JTKG4bw?authuser=0&hl=tr&rclk=1",
    "website_url": "",
    "rating_text": "4,8",
    "stars": null,
    "number_of_reviews": null,
    "price_level": "",
    "open_hours": "",
    "extraction_timestamp": "2025-06-08T03:32:57.014Z",
    "source_name": "google",
    "source_query": "Irrigation Equipment",
    "source_country": "UA",
    "country": "Ukraine",
    "state": "Kyivska oblast",
    "city": "Skvyra"
  },
  {
    "source_id": "ChIJNxZqgzox00ARQMYuTN2lNjA",
    "name": "Produkty",
    "category": "Produkty",
    "formatted_address": "5,0(1)",
    "phone_number": "",
    "source_url": "https://www.google.com/maps/place/Produkty/data=!4m7!3m6!1s0x40d3313a836a1637:0x3036a5dd4c2ec640!8m2!3d49.7365612!4d29.6269251!16s%2Fg%2F11rcwc5y08!19sChIJNxZqgzox00ARQMYuTN2lNjA?authuser=0&hl=tr&rclk=1",
    "website_url": "",
    "rating_text": "5,0",
    "stars": null,
    "number_of_reviews": null,
    "price_level": "",
    "open_hours": "",
    "extraction_timestamp": "2025-06-08T03:32:57.014Z",
    "source_name": "google",
    "source_query": "Irrigation Equipment",
    "source_country": "UA",
    "country": "Ukraine",
    "state": "Kyivska oblast",
    "city": "Skvyra"
  },
  {
    "source_id": "ChIJtbgoUU4x00ARrz4BflDlOvE",
    "name": "Хвилинка",
    "category": "Хвилинка",
    "formatted_address": "3,0(79)",
    "phone_number": "",
    "source_url": "https://www.google.com/maps/place/%D0%A5%D0%B2%D0%B8%D0%BB%D0%B8%D0%BD%D0%BA%D0%B0/data=!4m7!3m6!1s0x40d3314e5128b8b5:0xf13ae5507e013eaf!8m2!3d49.7363302!4d29.643826!16s%2Fg%2F11fyzd5c1c!19sChIJtbgoUU4x00ARrz4BflDlOvE?authuser=0&hl=tr&rclk=1",
    "website_url": "",
    "rating_text": "3,0",
    "stars": null,
    "number_of_reviews": null,
    "price_level": "",
    "open_hours": "",
    "extraction_timestamp": "2025-06-08T03:32:57.015Z",
    "source_name": "google",
    "source_query": "Irrigation Equipment",
    "source_country": "UA",
    "country": "Ukraine",
    "state": "Kyivska oblast",
    "city": "Skvyra"
  },
  {
    "source_id": "ChIJcfEF10s300AR5RpJj8ytWFY",
    "name": "Mahazyn",
    "category": "Mahazyn",
    "formatted_address": "5,0(1)",
    "phone_number": "",
    "source_url": "https://www.google.com/maps/place/Mahazyn/data=!4m7!3m6!1s0x40d3374bd705f171:0x5658adcc8f491ae5!8m2!3d49.7452826!4d29.6537284!16s%2Fg%2F11y1zlc__6!19sChIJcfEF10s300AR5RpJj8ytWFY?authuser=0&hl=tr&rclk=1",
    "website_url": "",
    "rating_text": "5,0",
    "stars": null,
    "number_of_reviews": null,
    "price_level": "",
    "open_hours": "",
    "extraction_timestamp": "2025-06-08T03:32:57.016Z",
    "source_name": "google",
    "source_query": "Irrigation Equipment",
    "source_country": "UA",
    "country": "Ukraine",
    "state": "Kyivska oblast",
    "city": "Skvyra"
  },
  {
    "source_id": "ChIJSQqPRc0x00AR6TaFUQgnDT4",
    "name": "Магазин _»Тетяна»",
    "category": "Магазин _»Тетяна»",
    "formatted_address": "5,0(3)",
    "phone_number": "",
    "source_url": "https://www.google.com/maps/place/%D0%9C%D0%B0%D0%B3%D0%B0%D0%B7%D0%B8%D0%BD+_%C2%BB%D0%A2%D0%B5%D1%82%D1%8F%D0%BD%D0%B0%C2%BB/data=!4m7!3m6!1s0x40d331cd458f0a49:0x3e0d2708518536e9!8m2!3d49.721184!4d29.6731257!16s%2Fg%2F11q7zzsdp2!19sChIJSQqPRc0x00AR6TaFUQgnDT4?authuser=0&hl=tr&rclk=1",
    "website_url": "",
    "rating_text": "5,0",
    "stars": null,
    "number_of_reviews": null,
    "price_level": "",
    "open_hours": "",
    "extraction_timestamp": "2025-06-08T03:32:57.016Z",
    "source_name": "google",
    "source_query": "Irrigation Equipment",
    "source_country": "UA",
    "country": "Ukraine",
    "state": "Kyivska oblast",
    "city": "Skvyra"
  },
  {
    "source_id": "ChIJ_yDPQ1I300AR9QxYanoup1k",
    "name": "Hradus",
    "category": "Hradus",
    "formatted_address": "5,0(1)",
    "phone_number": "",
    "source_url": "https://www.google.com/maps/place/Hradus/data=!4m7!3m6!1s0x40d3375243cf20ff:0x59a72e7a6a580cf5!8m2!3d49.7382447!4d29.6701829!16s%2Fg%2F11rcwcc02x!19sChIJ_yDPQ1I300AR9QxYanoup1k?authuser=0&hl=tr&rclk=1",
    "website_url": "",
    "rating_text": "5,0",
    "stars": null,
    "number_of_reviews": null,
    "price_level": "",
    "open_hours": "",
    "extraction_timestamp": "2025-06-08T03:32:57.017Z",
    "source_name": "google",
    "source_query": "Irrigation Equipment",
    "source_country": "UA",
    "country": "Ukraine",
    "state": "Kyivska oblast",
    "city": "Skvyra"
  },
  {
    "source_id": "ChIJd-I2OJYx00ARcUGopzDbI4E",
    "name": "Наша Ряба",
    "category": "Наша Ряба",
    "formatted_address": "1,0(3)",
    "phone_number": "+380800500001",
    "source_url": "https://www.google.com/maps/place/%D0%9D%D0%B0%D1%88%D0%B0+%D0%A0%D1%8F%D0%B1%D0%B0/data=!4m7!3m6!1s0x40d331963836e277:0x8123db30a7a84171!8m2!3d49.7314995!4d29.6664818!16s%2Fg%2F11k6l6xnw4!19sChIJd-I2OJYx00ARcUGopzDbI4E?authuser=0&hl=tr&rclk=1",
    "website_url": "",
    "rating_text": "1,0",
    "stars": null,
    "number_of_reviews": null,
    "price_level": "",
    "open_hours": "",
    "extraction_timestamp": "2025-06-08T03:32:57.018Z",
    "source_name": "google",
    "source_query": "Irrigation Equipment",
    "source_country": "UA",
    "country": "Ukraine",
    "state": "Kyivska oblast",
    "city": "Skvyra"
  },
  {
    "source_id": "ChIJc14HteUx00ARtkoAmEuYtSk",
    "name": "Lebidʹ",
    "category": "Lebidʹ",
    "formatted_address": "1,0(3)",
    "phone_number": "",
    "source_url": "https://www.google.com/maps/place/Lebid%CA%B9/data=!4m7!3m6!1s0x40d331e5b5075e73:0x29b5984b98004ab6!8m2!3d49.7357254!4d29.6622876!16s%2Fg%2F11r4y5g12v!19sChIJc14HteUx00ARtkoAmEuYtSk?authuser=0&hl=tr&rclk=1",
    "website_url": "",
    "rating_text": "1,0",
    "stars": null,
    "number_of_reviews": null,
    "price_level": "",
    "open_hours": "",
    "extraction_timestamp": "2025-06-08T03:32:57.019Z",
    "source_name": "google",
    "source_query": "Irrigation Equipment",
    "source_country": "UA",
    "country": "Ukraine",
    "state": "Kyivska oblast",
    "city": "Skvyra"
  },
  {
    "source_id": "ChIJkUY5XgAx00ARRMIPmGZwJ0E",
    "name": "Produkty Na Yarkakh",
    "category": "Produkty Na Yarkakh",
    "formatted_address": "4,8(4)",
    "phone_number": "",
    "source_url": "https://www.google.com/maps/place/Produkty+Na+Yarkakh/data=!4m7!3m6!1s0x40d331005e394691:0x41277066980fc244!8m2!3d49.7299653!4d29.6430109!16s%2Fg%2F11lmjr85cx!19sChIJkUY5XgAx00ARRMIPmGZwJ0E?authuser=0&hl=tr&rclk=1",
    "website_url": "",
    "rating_text": "4,8",
    "stars": null,
    "number_of_reviews": null,
    "price_level": "",
    "open_hours": "",
    "extraction_timestamp": "2025-06-08T03:32:57.020Z",
    "source_name": "google",
    "source_query": "Irrigation Equipment",
    "source_country": "UA",
    "country": "Ukraine",
    "state": "Kyivska oblast",
    "city": "Skvyra"
  },
  {
    "source_id": "ChIJi65qHKMx00ARWtm6cuOqMPg",
    "name": "Наша Ряба",
    "category": "Наша Ряба",
    "formatted_address": "1,0(1)",
    "phone_number": "+380800500001",
    "source_url": "https://www.google.com/maps/place/%D0%9D%D0%B0%D1%88%D0%B0+%D0%A0%D1%8F%D0%B1%D0%B0/data=!4m7!3m6!1s0x40d331a31c6aae8b:0xf830aae372bad95a!8m2!3d49.7359713!4d29.667952!16s%2Fg%2F11k6l6pmrf!19sChIJi65qHKMx00ARWtm6cuOqMPg?authuser=0&hl=tr&rclk=1",
    "website_url": "",
    "rating_text": "1,0",
    "stars": null,
    "number_of_reviews": null,
    "price_level": "",
    "open_hours": "",
    "extraction_timestamp": "2025-06-08T03:32:57.021Z",
    "source_name": "google",
    "source_query": "Irrigation Equipment",
    "source_country": "UA",
    "country": "Ukraine",
    "state": "Kyivska oblast",
    "city": "Skvyra"
  },
  {
    "source_id": "ChIJAf-6HjQx00ARM2UsV-8fhJ4",
    "name": "ATB-Market",
    "category": "ATB-Market",
    "formatted_address": "3,9(1.225)",
    "phone_number": "+380800500415",
    "source_url": "https://www.google.com/maps/place/ATB-Market/data=!4m7!3m6!1s0x40d331341ebaff01:0x9e841fef572c6533!8m2!3d49.7332729!4d29.6635982!16s%2Fg%2F1hhvx3l8y!19sChIJAf-6HjQx00ARM2UsV-8fhJ4?authuser=0&hl=tr&rclk=1",
    "website_url": "",
    "rating_text": "3,9",
    "stars": null,
    "number_of_reviews": null,
    "price_level": "",
    "open_hours": "",
    "extraction_timestamp": "2025-06-08T03:32:57.023Z",
    "source_name": "google",
    "source_query": "Irrigation Equipment",
    "source_country": "UA",
    "country": "Ukraine",
    "state": "Kyivska oblast",
    "city": "Skvyra"
  },
  {
    "source_id": "ChIJD4J3884x00ARfXx_8TUFuj4",
    "name": "Vita",
    "category": "Vita",
    "formatted_address": "1,5(2)",
    "phone_number": "",
    "source_url": "https://www.google.com/maps/place/Vita/data=!4m7!3m6!1s0x40d331cef377820f:0x3eba0535f17f7c7d!8m2!3d49.7313812!4d29.6667258!16s%2Fg%2F11p5fx424n!19sChIJD4J3884x00ARfXx_8TUFuj4?authuser=0&hl=tr&rclk=1",
    "website_url": "",
    "rating_text": "1,5",
    "stars": null,
    "number_of_reviews": null,
    "price_level": "",
    "open_hours": "",
    "extraction_timestamp": "2025-06-08T03:32:57.024Z",
    "source_name": "google",
    "source_query": "Irrigation Equipment",
    "source_country": "UA",
    "country": "Ukraine",
    "state": "Kyivska oblast",
    "city": "Skvyra"
  },
  {
    "source_id": "ChIJJxv9YNsx00ART6XTru1pf-0",
    "name": "Zolotyy Klyuchyk",
    "category": "Zolotyy Klyuchyk",
    "formatted_address": "4,0(1)",
    "phone_number": "",
    "source_url": "https://www.google.com/maps/place/Zolotyy+Klyuchyk/data=!4m7!3m6!1s0x40d331db60fd1b27:0xed7f69edaed3a54f!8m2!3d49.7301571!4d29.661993!16s%2Fg%2F11fr__mk4z!19sChIJJxv9YNsx00ART6XTru1pf-0?authuser=0&hl=tr&rclk=1",
    "website_url": "",
    "rating_text": "4,0",
    "stars": null,
    "number_of_reviews": null,
    "price_level": "",
    "open_hours": "",
    "extraction_timestamp": "2025-06-08T03:32:57.025Z",
    "source_name": "google",
    "source_query": "Irrigation Equipment",
    "source_country": "UA",
    "country": "Ukraine",
    "state": "Kyivska oblast",
    "city": "Skvyra"
  },
  {
    "source_id": "ChIJsw_8Ar4300AR8KwCErH1NEc",
    "name": "Arielʹ",
    "category": "Arielʹ",
    "formatted_address": "5,0(2)",
    "phone_number": "",
    "source_url": "https://www.google.com/maps/place/Ariel%CA%B9/data=!4m7!3m6!1s0x40d337be02fc0fb3:0x4734f5b11202acf0!8m2!3d49.739097!4d29.6709431!16s%2Fg%2F11r9cr61_1!19sChIJsw_8Ar4300AR8KwCErH1NEc?authuser=0&hl=tr&rclk=1",
    "website_url": "",
    "rating_text": "5,0",
    "stars": null,
    "number_of_reviews": null,
    "price_level": "",
    "open_hours": "",
    "extraction_timestamp": "2025-06-08T03:32:57.025Z",
    "source_name": "google",
    "source_query": "Irrigation Equipment",
    "source_country": "UA",
    "country": "Ukraine",
    "state": "Kyivska oblast",
    "city": "Skvyra"
  },
  {
    "source_id": "ChIJzffiSlcx00ARx2zKu1DMQTk",
    "name": "THRASH! ТРАШ Маркет Super",
    "category": "THRASH! ТРАШ Маркет Super",
    "formatted_address": "2,3(6)",
    "phone_number": "+380800300890",
    "source_url": "https://www.google.com/maps/place/THRASH!+%D0%A2%D0%A0%D0%90%D0%A8+%D0%9C%D0%B0%D1%80%D0%BA%D0%B5%D1%82+Super/data=!4m7!3m6!1s0x40d331574ae2f7cd:0x3941cc50bbca6cc7!8m2!3d49.7315896!4d29.665972!16s%2Fg%2F11wxhc13hv!19sChIJzffiSlcx00ARx2zKu1DMQTk?authuser=0&hl=tr&rclk=1",
    "website_url": "",
    "rating_text": "2,3",
    "stars": null,
    "number_of_reviews": null,
    "price_level": "",
    "open_hours": "",
    "extraction_timestamp": "2025-06-08T03:32:57.026Z",
    "source_name": "google",
    "source_query": "Irrigation Equipment",
    "source_country": "UA",
    "country": "Ukraine",
    "state": "Kyivska oblast",
    "city": "Skvyra"
  },
  {
    "source_id": "ChIJjRyWDsIx00ARTrA0OUxnbP4",
    "name": "Магазин",
    "category": "Магазин",
    "formatted_address": "4,5(2)",
    "phone_number": "",
    "source_url": "https://www.google.com/maps/place/%D0%9C%D0%B0%D0%B3%D0%B0%D0%B7%D0%B8%D0%BD/data=!4m7!3m6!1s0x40d331c20e961c8d:0xfe6c674c3934b04e!8m2!3d49.7217978!4d29.6841312!16s%2Fg%2F11ry3pgbq0!19sChIJjRyWDsIx00ARTrA0OUxnbP4?authuser=0&hl=tr&rclk=1",
    "website_url": "",
    "rating_text": "4,5",
    "stars": null,
    "number_of_reviews": null,
    "price_level": "",
    "open_hours": "",
    "extraction_timestamp": "2025-06-08T03:32:57.027Z",
    "source_name": "google",
    "source_query": "Irrigation Equipment",
    "source_country": "UA",
    "country": "Ukraine",
    "state": "Kyivska oblast",
    "city": "Skvyra"
  },
  {
    "source_id": "ChIJKV91FDEx00ARkzDXgHbeqD0",
    "name": "COFFEEPLUS",
    "category": "COFFEEPLUS",
    "formatted_address": "4,3(220) · ₺₺",
    "phone_number": "",
    "source_url": "https://www.google.com/maps/place/COFFEEPLUS/data=!4m7!3m6!1s0x40d3313114755f29:0x3da8de7680d73093!8m2!3d49.7309934!4d29.6650905!16s%2Fg%2F11f50x7s4w!19sChIJKV91FDEx00ARkzDXgHbeqD0?authuser=0&hl=tr&rclk=1",
    "website_url": "",
    "rating_text": "4,3",
    "stars": null,
    "number_of_reviews": null,
    "price_level": "",
    "open_hours": "",
    "extraction_timestamp": "2025-06-08T03:32:57.028Z",
    "source_name": "google",
    "source_query": "Irrigation Equipment",
    "source_country": "UA",
    "country": "Ukraine",
    "state": "Kyivska oblast",
    "city": "Skvyra"
  },
  {
    "source_id": "ChIJa32JbMsx00ARuO4a3ALcFJE",
    "name": "Mahazyn Roza",
    "category": "Mahazyn Roza",
    "formatted_address": "3,2(5)",
    "phone_number": "",
    "source_url": "https://www.google.com/maps/place/Mahazyn+Roza/data=!4m7!3m6!1s0x40d331cb6c897d6b:0x9114dc02dc1aeeb8!8m2!3d49.7386886!4d29.6318609!16s%2Fg%2F11r_dhw63k!19sChIJa32JbMsx00ARuO4a3ALcFJE?authuser=0&hl=tr&rclk=1",
    "website_url": "",
    "rating_text": "3,2",
    "stars": null,
    "number_of_reviews": null,
    "price_level": "",
    "open_hours": "",
    "extraction_timestamp": "2025-06-08T03:32:57.028Z",
    "source_name": "google",
    "source_query": "Irrigation Equipment",
    "source_country": "UA",
    "country": "Ukraine",
    "state": "Kyivska oblast",
    "city": "Skvyra"
  },
  {
    "source_id": "ChIJVzUOrQ8x00AR-vW7lrNr4v8",
    "name": "EVA",
    "category": "EVA",
    "formatted_address": "4,1(13)",
    "phone_number": "+380800303700",
    "source_url": "https://www.google.com/maps/place/EVA/data=!4m7!3m6!1s0x40d3310fad0e3557:0xffe26bb396bbf5fa!8m2!3d49.7313785!4d29.6656877!16s%2Fg%2F11f7byxhv8!19sChIJVzUOrQ8x00AR-vW7lrNr4v8?authuser=0&hl=tr&rclk=1",
    "website_url": "",
    "rating_text": "4,1",
    "stars": null,
    "number_of_reviews": null,
    "price_level": "",
    "open_hours": "",
    "extraction_timestamp": "2025-06-08T03:32:57.029Z",
    "source_name": "google",
    "source_query": "Irrigation Equipment",
    "source_country": "UA",
    "country": "Ukraine",
    "state": "Kyivska oblast",
    "city": "Skvyra"
  },
  {
    "source_id": "ChIJbfwKqbMx00ARD0tQgcGooB0",
    "name": "Chornobylʹsʹkyy Mahazyn",
    "category": "Chornobylʹsʹkyy Mahazyn",
    "formatted_address": "5,0(3)",
    "phone_number": "",
    "source_url": "https://www.google.com/maps/place/Chornobyl%CA%B9s%CA%B9kyy+Mahazyn/data=!4m7!3m6!1s0x40d331b3a90afc6d:0x1da0a8c181504b0f!8m2!3d49.7358379!4d29.6317621!16s%2Fg%2F11ngtg581z!19sChIJbfwKqbMx00ARD0tQgcGooB0?authuser=0&hl=tr&rclk=1",
    "website_url": "",
    "rating_text": "5,0",
    "stars": null,
    "number_of_reviews": null,
    "price_level": "",
    "open_hours": "",
    "extraction_timestamp": "2025-06-08T03:32:57.030Z",
    "source_name": "google",
    "source_query": "Irrigation Equipment",
    "source_country": "UA",
    "country": "Ukraine",
    "state": "Kyivska oblast",
    "city": "Skvyra"
  }
]
