[
  {
    "source_id": "ChIJga88JVVD00ARcp5Bi26Iv8M",
    "name": "Послуги екскаватора Перевозка зерна Зерновоз",
    "category": "Послуги екскаватора Перевозка зерна Зерновоз",
    "formatted_address": "5,0(5)",
    "phone_number": "+380678995050",
    "source_url": "https://www.google.com/maps/place/%D0%9F%D0%BE%D1%81%D0%BB%D1%83%D0%B3%D0%B8+%D0%B5%D0%BA%D1%81%D0%BA%D0%B0%D0%B2%D0%B0%D1%82%D0%BE%D1%80%D0%B0+%D0%9F%D0%B5%D1%80%D0%B5%D0%B2%D0%BE%D0%B7%D0%BA%D0%B0+%D0%B7%D0%B5%D1%80%D0%BD%D0%B0+%D0%97%D0%B5%D1%80%D0%BD%D0%BE%D0%B2%D0%BE%D0%B7/data=!4m7!3m6!1s0x40d34355253caf81:0xc3bf886e8b419e72!8m2!3d49.8239963!4d30.1149024!16s%2Fg%2F11fv1j04m6!19sChIJga88JVVD00ARcp5Bi26Iv8M?authuser=0&hl=tr&rclk=1",
    "website_url": "",
    "rating_text": "5,0",
    "stars": null,
    "number_of_reviews": null,
    "price_level": "",
    "open_hours": "",
    "extraction_timestamp": "2025-06-08T03:38:24.513Z",
    "source_name": "google",
    "source_query": "Irrigation Equipment",
    "source_country": "UA",
    "country": "Ukraine",
    "state": "Kyivska oblast",
    "city": "Skvyrs’kyy Rayon"
  },
  {
    "source_id": "ChIJyXVltORB00ARbSs2yuZN8nk",
    "name": "Garden center \"Eden Flora\"",
    "category": "Garden center \"Eden Flora\"",
    "formatted_address": "4,5(54)",
    "phone_number": "+380975175185",
    "source_url": "https://www.google.com/maps/place/Garden+center+%22Eden+Flora%22/data=!4m7!3m6!1s0x40d341e4b46575c9:0x79f24de6ca362b6d!8m2!3d49.8169597!4d30.0584651!16s%2Fg%2F1pp2ty6qp!19sChIJyXVltORB00ARbSs2yuZN8nk?authuser=0&hl=tr&rclk=1",
    "website_url": "",
    "rating_text": "4,5",
    "stars": null,
    "number_of_reviews": null,
    "price_level": "",
    "open_hours": "",
    "extraction_timestamp": "2025-06-08T03:38:24.514Z",
    "source_name": "google",
    "source_query": "Irrigation Equipment",
    "source_country": "UA",
    "country": "Ukraine",
    "state": "Kyivska oblast",
    "city": "Skvyrs’kyy Rayon"
  },
  {
    "source_id": "ChIJSx0DZuZD00ARLEKIhbB_wO4",
    "name": "Technointer Group",
    "category": "Technointer Group",
    "formatted_address": "5,0(1)",
    "phone_number": "+380443831182",
    "source_url": "https://www.google.com/maps/place/Technointer+Group/data=!4m7!3m6!1s0x40d343e666031d4b:0xeec07fb08588422c!8m2!3d49.8201219!4d30.0799327!16s%2Fg%2F11j0w78j83!19sChIJSx0DZuZD00ARLEKIhbB_wO4?authuser=0&hl=tr&rclk=1",
    "website_url": "",
    "rating_text": "5,0",
    "stars": null,
    "number_of_reviews": null,
    "price_level": "",
    "open_hours": "",
    "extraction_timestamp": "2025-06-08T03:38:24.515Z",
    "source_name": "google",
    "source_query": "Irrigation Equipment",
    "source_country": "UA",
    "country": "Ukraine",
    "state": "Kyivska oblast",
    "city": "Skvyrs’kyy Rayon"
  },
  {
    "source_id": "ChIJp0OH251K00ARzeYPKgKSDPo",
    "name": "Water mill",
    "category": "Water mill",
    "formatted_address": "4,7(69)",
    "phone_number": "+380504909945",
    "source_url": "https://www.google.com/maps/place/Water+mill/data=!4m7!3m6!1s0x40d34a9ddb8743a7:0xfa0c92022a0fe6cd!8m2!3d49.8380558!4d29.6346475!16s%2Fg%2F11h031p8c!19sChIJp0OH251K00ARzeYPKgKSDPo?authuser=0&hl=tr&rclk=1",
    "website_url": "",
    "rating_text": "4,7",
    "stars": null,
    "number_of_reviews": null,
    "price_level": "",
    "open_hours": "",
    "extraction_timestamp": "2025-06-08T03:38:24.515Z",
    "source_name": "google",
    "source_query": "Irrigation Equipment",
    "source_country": "UA",
    "country": "Ukraine",
    "state": "Kyivska oblast",
    "city": "Skvyrs’kyy Rayon"
  },
  {
    "source_id": "ChIJf-pdQqxV00ARkMunme4QYPM",
    "name": "Ниагара Трейд - системы отопления и сантехника",
    "category": "Ниагара Трейд - системы отопления и сантехника",
    "formatted_address": "4,4(20)",
    "phone_number": "+380950103468",
    "source_url": "https://www.google.com/maps/place/%D0%9D%D0%B8%D0%B0%D0%B3%D0%B0%D1%80%D0%B0+%D0%A2%D1%80%D0%B5%D0%B9%D0%B4+-+%D1%81%D0%B8%D1%81%D1%82%D0%B5%D0%BC%D1%8B+%D0%BE%D1%82%D0%BE%D0%BF%D0%BB%D0%B5%D0%BD%D0%B8%D1%8F+%D0%B8+%D1%81%D0%B0%D0%BD%D1%82%D0%B5%D1%85%D0%BD%D0%B8%D0%BA%D0%B0/data=!4m7!3m6!1s0x40d355ac425dea7f:0xf36010ee99a7cb90!8m2!3d50.0807405!4d29.9350904!16s%2Fg%2F11j54bdk3s!19sChIJf-pdQqxV00ARkMunme4QYPM?authuser=0&hl=tr&rclk=1",
    "website_url": "",
    "rating_text": "4,4",
    "stars": null,
    "number_of_reviews": null,
    "price_level": "",
    "open_hours": "",
    "extraction_timestamp": "2025-06-08T03:38:24.517Z",
    "source_name": "google",
    "source_query": "Irrigation Equipment",
    "source_country": "UA",
    "country": "Ukraine",
    "state": "Kyivska oblast",
    "city": "Skvyrs’kyy Rayon"
  },
  {
    "source_id": "ChIJ4xEHzxJD00ARTf9YFP2J-hQ",
    "name": "Гарячая Точка",
    "category": "Гарячая Точка",
    "formatted_address": "4,3(10)",
    "phone_number": "+380673253338",
    "source_url": "https://www.google.com/maps/place/%D0%93%D0%B0%D1%80%D1%8F%D1%87%D0%B0%D1%8F+%D0%A2%D0%BE%D1%87%D0%BA%D0%B0/data=!4m7!3m6!1s0x40d34312cf0711e3:0x14fa89fd1458ff4d!8m2!3d49.797482!4d30.125242!16s%2Fg%2F11gh5lwhs1!19sChIJ4xEHzxJD00ARTf9YFP2J-hQ?authuser=0&hl=tr&rclk=1",
    "website_url": "",
    "rating_text": "4,3",
    "stars": null,
    "number_of_reviews": null,
    "price_level": "",
    "open_hours": "",
    "extraction_timestamp": "2025-06-08T03:38:24.518Z",
    "source_name": "google",
    "source_query": "Irrigation Equipment",
    "source_country": "UA",
    "country": "Ukraine",
    "state": "Kyivska oblast",
    "city": "Skvyrs’kyy Rayon"
  },
  {
    "source_id": "ChIJn-ZaXFFC00ARhmvdUHoWYQA",
    "name": "Энергия сервис",
    "category": "Энергия сервис",
    "formatted_address": "5,0(7)",
    "phone_number": "+380672467777",
    "source_url": "https://www.google.com/maps/place/%D0%AD%D0%BD%D0%B5%D1%80%D0%B3%D0%B8%D1%8F+%D1%81%D0%B5%D1%80%D0%B2%D0%B8%D1%81/data=!4m7!3m6!1s0x40d342515c5ae69f:0x61167a50dd6b86!8m2!3d49.8270987!4d30.1195068!16s%2Fg%2F11x98t_0y!19sChIJn-ZaXFFC00ARhmvdUHoWYQA?authuser=0&hl=tr&rclk=1",
    "website_url": "",
    "rating_text": "5,0",
    "stars": null,
    "number_of_reviews": null,
    "price_level": "",
    "open_hours": "",
    "extraction_timestamp": "2025-06-08T03:38:24.518Z",
    "source_name": "google",
    "source_query": "Irrigation Equipment",
    "source_country": "UA",
    "country": "Ukraine",
    "state": "Kyivska oblast",
    "city": "Skvyrs’kyy Rayon"
  },
  {
    "source_id": "ChIJo5WfDLdG00ARVbBlfLoCXMs",
    "name": "Skrynʹka",
    "category": "Skrynʹka",
    "formatted_address": "4,3(87)",
    "phone_number": "",
    "source_url": "https://www.google.com/maps/place/Skryn%CA%B9ka/data=!4m7!3m6!1s0x40d346b70c9f95a3:0xcb5c02ba7c65b055!8m2!3d49.8062318!4d29.9910254!16s%2Fg%2F11clydwp1w!19sChIJo5WfDLdG00ARVbBlfLoCXMs?authuser=0&hl=tr&rclk=1",
    "website_url": "",
    "rating_text": "4,3",
    "stars": null,
    "number_of_reviews": null,
    "price_level": "",
    "open_hours": "",
    "extraction_timestamp": "2025-06-08T03:38:24.519Z",
    "source_name": "google",
    "source_query": "Irrigation Equipment",
    "source_country": "UA",
    "country": "Ukraine",
    "state": "Kyivska oblast",
    "city": "Skvyrs’kyy Rayon"
  },
  {
    "source_id": "ChIJn-d47iNV00ARU9xVc3Jn5kw",
    "name": "Агросвіт магазин насіння, добрив та засобів захисту рослин у Юнака",
    "category": "Агросвіт магазин насіння, добрив та засобів захисту рослин у Юнака",
    "formatted_address": "Агросвіт магазин насіння, добрив та засобів захисту рослин у Юнака",
    "phone_number": "+380972391155",
    "source_url": "https://www.google.com/maps/place/%D0%90%D0%B3%D1%80%D0%BE%D1%81%D0%B2%D1%96%D1%82+%D0%BC%D0%B0%D0%B3%D0%B0%D0%B7%D0%B8%D0%BD+%D0%BD%D0%B0%D1%81%D1%96%D0%BD%D0%BD%D1%8F,+%D0%B4%D0%BE%D0%B1%D1%80%D0%B8%D0%B2+%D1%82%D0%B0+%D0%B7%D0%B0%D1%81%D0%BE%D0%B1%D1%96%D0%B2+%D0%B7%D0%B0%D1%85%D0%B8%D1%81%D1%82%D1%83+%D1%80%D0%BE%D1%81%D0%BB%D0%B8%D0%BD+%D1%83+%D0%AE%D0%BD%D0%B0%D0%BA%D0%B0/data=!4m7!3m6!1s0x40d35523ee78e79f:0x4ce667727355dc53!8m2!3d50.0778089!4d29.911051!16s%2Fg%2F11rcfdp11k!19sChIJn-d47iNV00ARU9xVc3Jn5kw?authuser=0&hl=tr&rclk=1",
    "website_url": "",
    "rating_text": "5,0",
    "stars": null,
    "number_of_reviews": null,
    "price_level": "",
    "open_hours": "",
    "extraction_timestamp": "2025-06-08T03:38:24.520Z",
    "source_name": "google",
    "source_query": "Irrigation Equipment",
    "source_country": "UA",
    "country": "Ukraine",
    "state": "Kyivska oblast",
    "city": "Skvyrs’kyy Rayon"
  },
  {
    "source_id": "ChIJTbaZ-PRD00ARIv4BNnBJPpI",
    "name": "СантехProf",
    "category": "СантехProf",
    "formatted_address": "5,0(4)",
    "phone_number": "+380981061880",
    "source_url": "https://www.google.com/maps/place/%D0%A1%D0%B0%D0%BD%D1%82%D0%B5%D1%85Prof/data=!4m7!3m6!1s0x40d343f4f899b64d:0x923e49703601fe22!8m2!3d49.8127475!4d30.0864586!16s%2Fg%2F11n_xsdshc!19sChIJTbaZ-PRD00ARIv4BNnBJPpI?authuser=0&hl=tr&rclk=1",
    "website_url": "",
    "rating_text": "5,0",
    "stars": null,
    "number_of_reviews": null,
    "price_level": "",
    "open_hours": "",
    "extraction_timestamp": "2025-06-08T03:38:24.520Z",
    "source_name": "google",
    "source_query": "Irrigation Equipment",
    "source_country": "UA",
    "country": "Ukraine",
    "state": "Kyivska oblast",
    "city": "Skvyrs’kyy Rayon"
  },
  {
    "source_id": "ChIJNVbW4gBH00ARgAT_diCSdl0",
    "name": "Будівельно Промислово Господарський",
    "category": "Будівельно Промислово Господарський",
    "formatted_address": "Mağaza · Європейська, 29 аKapalı ⋅ Açılış saati: 08:00 · +380 98 760 3951",
    "phone_number": "+380987603951",
    "source_url": "https://www.google.com/maps/place/%D0%91%D1%83%D0%B4%D1%96%D0%B2%D0%B5%D0%BB%D1%8C%D0%BD%D0%BE+%D0%9F%D1%80%D0%BE%D0%BC%D0%B8%D1%81%D0%BB%D0%BE%D0%B2%D0%BE+%D0%93%D0%BE%D1%81%D0%BF%D0%BE%D0%B4%D0%B0%D1%80%D1%81%D1%8C%D0%BA%D0%B8%D0%B9/data=!4m7!3m6!1s0x40d34700e2d65635:0x5d76922076ff0480!8m2!3d49.8082033!4d30.0056489!16s%2Fg%2F11vkf29vvz!19sChIJNVbW4gBH00ARgAT_diCSdl0?authuser=0&hl=tr&rclk=1",
    "website_url": "",
    "rating_text": "",
    "stars": null,
    "number_of_reviews": null,
    "price_level": "",
    "open_hours": "",
    "extraction_timestamp": "2025-06-08T03:38:24.521Z",
    "source_name": "google",
    "source_query": "Irrigation Equipment",
    "source_country": "UA",
    "country": "Ukraine",
    "state": "Kyivska oblast",
    "city": "Skvyrs’kyy Rayon"
  },
  {
    "source_id": "ChIJFSANCgBV00ARd9iB4lmGwpc",
    "name": "GWater - автомат питної води",
    "category": "GWater - автомат питної води",
    "formatted_address": "4,3(6)",
    "phone_number": "",
    "source_url": "https://www.google.com/maps/place/GWater+-+%D0%B0%D0%B2%D1%82%D0%BE%D0%BC%D0%B0%D1%82+%D0%BF%D0%B8%D1%82%D0%BD%D0%BE%D1%97+%D0%B2%D0%BE%D0%B4%D0%B8/data=!4m7!3m6!1s0x40d355000a0d2015:0x97c28659e281d877!8m2!3d50.0809749!4d29.901199!16s%2Fg%2F11wxhftbn0!19sChIJFSANCgBV00ARd9iB4lmGwpc?authuser=0&hl=tr&rclk=1",
    "website_url": "",
    "rating_text": "4,3",
    "stars": null,
    "number_of_reviews": null,
    "price_level": "",
    "open_hours": "",
    "extraction_timestamp": "2025-06-08T03:38:24.521Z",
    "source_name": "google",
    "source_query": "Irrigation Equipment",
    "source_country": "UA",
    "country": "Ukraine",
    "state": "Kyivska oblast",
    "city": "Skvyrs’kyy Rayon"
  },
  {
    "source_id": "ChIJN_WbaixH00ARTHoBc4x8KgY",
    "name": "вєточка",
    "category": "вєточка",
    "formatted_address": "4,5(37)",
    "phone_number": "",
    "source_url": "https://www.google.com/maps/place/%D0%B2%D1%94%D1%82%D0%BE%D1%87%D0%BA%D0%B0/data=!4m7!3m6!1s0x40d3472c6a9bf537:0x62a7c8c73017a4c!8m2!3d49.7990751!4d29.9966129!16s%2Fg%2F11h206591x!19sChIJN_WbaixH00ARTHoBc4x8KgY?authuser=0&hl=tr&rclk=1",
    "website_url": "",
    "rating_text": "4,5",
    "stars": null,
    "number_of_reviews": null,
    "price_level": "",
    "open_hours": "",
    "extraction_timestamp": "2025-06-08T03:38:24.522Z",
    "source_name": "google",
    "source_query": "Irrigation Equipment",
    "source_country": "UA",
    "country": "Ukraine",
    "state": "Kyivska oblast",
    "city": "Skvyrs’kyy Rayon"
  },
  {
    "source_id": "ChIJuZ4Na9vI1EARQG8rPxVBlkU",
    "name": "Магазин полива. K-Rain, Hunter, RainBird",
    "category": "Магазин полива. K-Rain, Hunter, RainBird",
    "formatted_address": "Магазин полива. K-Rain, Hunter, RainBird",
    "phone_number": "+380501088779",
    "source_url": "https://www.google.com/maps/place/%D0%9C%D0%B0%D0%B3%D0%B0%D0%B7%D0%B8%D0%BD+%D0%BF%D0%BE%D0%BB%D0%B8%D0%B2%D0%B0.+K-Rain,+Hunter,+RainBird/data=!4m7!3m6!1s0x40d4c8db6b0d9eb9:0x459641153f2b6f40!8m2!3d50.3918125!4d30.4850044!16s%2Fg%2F11hbp9s62p!19sChIJuZ4Na9vI1EARQG8rPxVBlkU?authuser=0&hl=tr&rclk=1",
    "website_url": "",
    "rating_text": "4,7",
    "stars": null,
    "number_of_reviews": null,
    "price_level": "",
    "open_hours": "",
    "extraction_timestamp": "2025-06-08T03:38:24.522Z",
    "source_name": "google",
    "source_query": "Irrigation Equipment",
    "source_country": "UA",
    "country": "Ukraine",
    "state": "Kyivska oblast",
    "city": "Skvyrs’kyy Rayon"
  },
  {
    "source_id": "ChIJlYI3orMx00AR_HtZVUkV6L4",
    "name": "Kalyna",
    "category": "Kalyna",
    "formatted_address": "4,6(57)",
    "phone_number": "",
    "source_url": "https://www.google.com/maps/place/Kalyna/data=!4m7!3m6!1s0x40d331b3a2378295:0xbee8154955597bfc!8m2!3d49.7361408!4d29.639786!16s%2Fg%2F11j0v02zfy!19sChIJlYI3orMx00AR_HtZVUkV6L4?authuser=0&hl=tr&rclk=1",
    "website_url": "",
    "rating_text": "4,6",
    "stars": null,
    "number_of_reviews": null,
    "price_level": "",
    "open_hours": "",
    "extraction_timestamp": "2025-06-08T03:38:24.523Z",
    "source_name": "google",
    "source_query": "Irrigation Equipment",
    "source_country": "UA",
    "country": "Ukraine",
    "state": "Kyivska oblast",
    "city": "Skvyrs’kyy Rayon"
  },
  {
    "source_id": "ChIJ5zDacjND00ARu_QSvUY83i4",
    "name": "\"Bud Shop Mah-N Bud Materialiv",
    "category": "\"Bud Shop Mah-N Bud Materialiv",
    "formatted_address": "5,0(7)",
    "phone_number": "+380672902204",
    "source_url": "https://www.google.com/maps/place/%22Bud+Shop+Mah-N+Bud+Materialiv/data=!4m7!3m6!1s0x40d3433372da30e7:0x2ede3c46bd12f4bb!8m2!3d49.8153151!4d30.0464282!16s%2Fg%2F11rfc6020_!19sChIJ5zDacjND00ARu_QSvUY83i4?authuser=0&hl=tr&rclk=1",
    "website_url": "",
    "rating_text": "5,0",
    "stars": null,
    "number_of_reviews": null,
    "price_level": "",
    "open_hours": "",
    "extraction_timestamp": "2025-06-08T03:38:24.523Z",
    "source_name": "google",
    "source_query": "Irrigation Equipment",
    "source_country": "UA",
    "country": "Ukraine",
    "state": "Kyivska oblast",
    "city": "Skvyrs’kyy Rayon"
  },
  {
    "source_id": "ChIJx0VVjbJG00ARfJvD8Q0bMaQ",
    "name": "Olesya",
    "category": "Olesya",
    "formatted_address": "4,0(172)",
    "phone_number": "",
    "source_url": "https://www.google.com/maps/place/Olesya/data=!4m7!3m6!1s0x40d346b28d5545c7:0xa4311b0df1c39b7c!8m2!3d49.8084498!4d30.00665!16s%2Fg%2F1hf5ysmq9!19sChIJx0VVjbJG00ARfJvD8Q0bMaQ?authuser=0&hl=tr&rclk=1",
    "website_url": "",
    "rating_text": "4,0",
    "stars": null,
    "number_of_reviews": null,
    "price_level": "",
    "open_hours": "",
    "extraction_timestamp": "2025-06-08T03:38:24.524Z",
    "source_name": "google",
    "source_query": "Irrigation Equipment",
    "source_country": "UA",
    "country": "Ukraine",
    "state": "Kyivska oblast",
    "city": "Skvyrs’kyy Rayon"
  },
  {
    "source_id": "ChIJSQqmsMdN00ARloImOFpwSP8",
    "name": "Mini Mahazyn",
    "category": "Mini Mahazyn",
    "formatted_address": "4,4(34)",
    "phone_number": "",
    "source_url": "https://www.google.com/maps/place/Mini+Mahazyn/data=!4m7!3m6!1s0x40d34dc7b0a60a49:0xff48705a38268296!8m2!3d49.9144028!4d29.8229281!16s%2Fg%2F11gynjpc17!19sChIJSQqmsMdN00ARloImOFpwSP8?authuser=0&hl=tr&rclk=1",
    "website_url": "",
    "rating_text": "4,4",
    "stars": null,
    "number_of_reviews": null,
    "price_level": "",
    "open_hours": "",
    "extraction_timestamp": "2025-06-08T03:38:24.524Z",
    "source_name": "google",
    "source_query": "Irrigation Equipment",
    "source_country": "UA",
    "country": "Ukraine",
    "state": "Kyivska oblast",
    "city": "Skvyrs’kyy Rayon"
  },
  {
    "source_id": "ChIJq1OAQEXF1EARIAyoFByGrW4",
    "name": "Ahrarna Industrialʹna Kompaniya",
    "category": "Ahrarna Industrialʹna Kompaniya",
    "formatted_address": "4,8(12)",
    "phone_number": "+380504444184",
    "source_url": "https://www.google.com/maps/place/Ahrarna+Industrial%CA%B9na+Kompaniya/data=!4m7!3m6!1s0x40d4c545408053ab:0x6ead861c14a80c20!8m2!3d50.4090678!4d30.6121652!16s%2Fg%2F1tdk3pn4!19sChIJq1OAQEXF1EARIAyoFByGrW4?authuser=0&hl=tr&rclk=1",
    "website_url": "",
    "rating_text": "4,8",
    "stars": null,
    "number_of_reviews": null,
    "price_level": "",
    "open_hours": "",
    "extraction_timestamp": "2025-06-08T03:38:24.525Z",
    "source_name": "google",
    "source_query": "Irrigation Equipment",
    "source_country": "UA",
    "country": "Ukraine",
    "state": "Kyivska oblast",
    "city": "Skvyrs’kyy Rayon"
  },
  {
    "source_id": "ChIJyfdRXURD00ARKr6eSl6EJpc",
    "name": "Кіоск \"Поляна\"",
    "category": "Кіоск \"Поляна\"",
    "formatted_address": "Mağaza · Skvyrs'ke Hwy, 264Kapalı ⋅ Açılış saati: 08:00",
    "phone_number": "",
    "source_url": "https://www.google.com/maps/place/%D0%9A%D1%96%D0%BE%D1%81%D0%BA+%22%D0%9F%D0%BE%D0%BB%D1%8F%D0%BD%D0%B0%22/data=!4m7!3m6!1s0x40d343445d51f7c9:0x9726845e4a9ebe2a!8m2!3d49.8222119!4d30.0645941!16s%2Fg%2F11ydcbl4wh!19sChIJyfdRXURD00ARKr6eSl6EJpc?authuser=0&hl=tr&rclk=1",
    "website_url": "",
    "rating_text": "",
    "stars": null,
    "number_of_reviews": null,
    "price_level": "",
    "open_hours": "",
    "extraction_timestamp": "2025-06-08T03:38:24.525Z",
    "source_name": "google",
    "source_query": "Irrigation Equipment",
    "source_country": "UA",
    "country": "Ukraine",
    "state": "Kyivska oblast",
    "city": "Skvyrs’kyy Rayon"
  },
  {
    "source_id": "ChIJlf8KTInJ1EARVa2l9X6ROvY",
    "name": "Hunter Автополив Украина",
    "category": "Hunter Автополив Украина",
    "formatted_address": "5,0(3)",
    "phone_number": "+380509998688",
    "source_url": "https://www.google.com/maps/place/Hunter+%D0%90%D0%B2%D1%82%D0%BE%D0%BF%D0%BE%D0%BB%D0%B8%D0%B2+%D0%A3%D0%BA%D1%80%D0%B0%D0%B8%D0%BD%D0%B0/data=!4m7!3m6!1s0x40d4c9894c0aff95:0xf63a917ef5a5ad55!8m2!3d50.4177962!4d30.4415501!16s%2Fg%2F11ngtbpk5k!19sChIJlf8KTInJ1EARVa2l9X6ROvY?authuser=0&hl=tr&rclk=1",
    "website_url": "",
    "rating_text": "5,0",
    "stars": null,
    "number_of_reviews": null,
    "price_level": "",
    "open_hours": "",
    "extraction_timestamp": "2025-06-08T03:38:24.526Z",
    "source_name": "google",
    "source_query": "Irrigation Equipment",
    "source_country": "UA",
    "country": "Ukraine",
    "state": "Kyivska oblast",
    "city": "Skvyrs’kyy Rayon"
  },
  {
    "source_id": "ChIJE3xa2ozJ1EARSfKzXkD-7LM",
    "name": "Domosvit",
    "category": "Domosvit",
    "formatted_address": "4,0(586)",
    "phone_number": "+380974219424",
    "source_url": "https://www.google.com/maps/place/Domosvit/data=!4m7!3m6!1s0x40d4c98cda5a7c13:0xb3ecfe405eb3f249!8m2!3d50.3707689!4d30.379256!16s%2Fg%2F1tdpklkh!19sChIJE3xa2ozJ1EARSfKzXkD-7LM?authuser=0&hl=tr&rclk=1",
    "website_url": "",
    "rating_text": "4,0",
    "stars": null,
    "number_of_reviews": null,
    "price_level": "",
    "open_hours": "",
    "extraction_timestamp": "2025-06-08T03:38:24.527Z",
    "source_name": "google",
    "source_query": "Irrigation Equipment",
    "source_country": "UA",
    "country": "Ukraine",
    "state": "Kyivska oblast",
    "city": "Skvyrs’kyy Rayon"
  },
  {
    "source_id": "ChIJQ9yX4i-l1EAR51raZps-G50",
    "name": "Mahazyn Santekhniky-Elektryky \"Vezha-Akva\"",
    "category": "Mahazyn Santekhniky-Elektryky \"Vezha-Akva\"",
    "formatted_address": "4,8(24)",
    "phone_number": "+380935687319",
    "source_url": "https://www.google.com/maps/place/Mahazyn+Santekhniky-Elektryky+%22Vezha-Akva%22/data=!4m7!3m6!1s0x40d4a52fe297dc43:0x9d1b3e9b66da5ae7!8m2!3d50.167179!4d30.337173!16s%2Fg%2F11fzfbxt_d!19sChIJQ9yX4i-l1EAR51raZps-G50?authuser=0&hl=tr&rclk=1",
    "website_url": "",
    "rating_text": "4,8",
    "stars": null,
    "number_of_reviews": null,
    "price_level": "",
    "open_hours": "",
    "extraction_timestamp": "2025-06-08T03:38:24.528Z",
    "source_name": "google",
    "source_query": "Irrigation Equipment",
    "source_country": "UA",
    "country": "Ukraine",
    "state": "Kyivska oblast",
    "city": "Skvyrs’kyy Rayon"
  },
  {
    "source_id": "ChIJ5XxAkt3L1EARKAadCejxqLE",
    "name": "Інтернет-Магазин полива Aqua Price (все для полива, оборудование для автоматического полива и ручного орошения)",
    "category": "Інтернет-Магазин полива Aqua Price (все для полива, оборудование для автоматического полива и ручного орошения)",
    "formatted_address": "Інтернет-Магазин полива Aqua Price (все для полива, оборудование для автоматического полива и ручного орошения)",
    "phone_number": "+380960773337",
    "source_url": "https://www.google.com/maps/place/%D0%86%D0%BD%D1%82%D0%B5%D1%80%D0%BD%D0%B5%D1%82-%D0%9C%D0%B0%D0%B3%D0%B0%D0%B7%D0%B8%D0%BD+%D0%BF%D0%BE%D0%BB%D0%B8%D0%B2%D0%B0+Aqua+Price+%28%D0%B2%D1%81%D0%B5+%D0%B4%D0%BB%D1%8F+%D0%BF%D0%BE%D0%BB%D0%B8%D0%B2%D0%B0,+%D0%BE%D0%B1%D0%BE%D1%80%D1%83%D0%B4%D0%BE%D0%B2%D0%B0%D0%BD%D0%B8%D0%B5+%D0%B4%D0%BB%D1%8F+%D0%B0%D0%B2%D1%82%D0%BE%D0%BC%D0%B0%D1%82%D0%B8%D1%87%D0%B5%D1%81%D0%BA%D0%BE%D0%B3%D0%BE+%D0%BF%D0%BE%D0%BB%D0%B8%D0%B2%D0%B0+%D0%B8+%D1%80%D1%83%D1%87%D0%BD%D0%BE%D0%B3%D0%BE+%D0%BE%D1%80%D0%BE%D1%88%D0%B5%D0%BD%D0%B8%D1%8F%29/data=!4m7!3m6!1s0x40d4cbdd92407ce5:0xb1a8f1e8099d0628!8m2!3d50.4275904!4d30.3497723!16s%2Fg%2F11qyk5wysc!19sChIJ5XxAkt3L1EARKAadCejxqLE?authuser=0&hl=tr&rclk=1",
    "website_url": "",
    "rating_text": "5,0",
    "stars": null,
    "number_of_reviews": null,
    "price_level": "",
    "open_hours": "",
    "extraction_timestamp": "2025-06-08T03:38:24.528Z",
    "source_name": "google",
    "source_query": "Irrigation Equipment",
    "source_country": "UA",
    "country": "Ukraine",
    "state": "Kyivska oblast",
    "city": "Skvyrs’kyy Rayon"
  },
  {
    "source_id": "ChIJb458cOKx1EAR0FUVRxUzRPQ",
    "name": "Ahropolyv, Tov",
    "category": "Ahropolyv, Tov",
    "formatted_address": "Ahropolyv, Tov",
    "phone_number": "+380662142696",
    "source_url": "https://www.google.com/maps/place/Ahropolyv,+Tov/data=!4m7!3m6!1s0x40d4b1e2707c8e6f:0xf4443315471555d0!8m2!3d50.2174685!4d30.2524756!16s%2Fg%2F11vzs0ymkr!19sChIJb458cOKx1EAR0FUVRxUzRPQ?authuser=0&hl=tr&rclk=1",
    "website_url": "",
    "rating_text": "",
    "stars": null,
    "number_of_reviews": null,
    "price_level": "",
    "open_hours": "",
    "extraction_timestamp": "2025-06-08T03:38:24.529Z",
    "source_name": "google",
    "source_query": "Irrigation Equipment",
    "source_country": "UA",
    "country": "Ukraine",
    "state": "Kyivska oblast",
    "city": "Skvyrs’kyy Rayon"
  },
  {
    "source_id": "ChIJ_4-8T1G71EARRGVPZ2z7FiY",
    "name": "Mayster-Santekhnik",
    "category": "Mayster-Santekhnik",
    "formatted_address": "4,8(20)",
    "phone_number": "+380667578437",
    "source_url": "https://www.google.com/maps/place/Mayster-Santekhnik/data=!4m7!3m6!1s0x40d4bb514fbc8fff:0x2616fb6c674f6544!8m2!3d50.1871364!4d30.3003079!16s%2Fg%2F11ffw6rxcf!19sChIJ_4-8T1G71EARRGVPZ2z7FiY?authuser=0&hl=tr&rclk=1",
    "website_url": "",
    "rating_text": "4,8",
    "stars": null,
    "number_of_reviews": null,
    "price_level": "",
    "open_hours": "",
    "extraction_timestamp": "2025-06-08T03:38:24.530Z",
    "source_name": "google",
    "source_query": "Irrigation Equipment",
    "source_country": "UA",
    "country": "Ukraine",
    "state": "Kyivska oblast",
    "city": "Skvyrs’kyy Rayon"
  },
  {
    "source_id": "ChIJpXddJlLI1EARvX2Niu0cQ7Q",
    "name": "ПАНДА групп обладнання для нафтобаз, насоси вибухозахісні АТЕХ",
    "category": "ПАНДА групп обладнання для нафтобаз, насоси вибухозахісні АТЕХ",
    "formatted_address": "ПАНДА групп обладнання для нафтобаз, насоси вибухозахісні АТЕХ",
    "phone_number": "+380957941719",
    "source_url": "https://www.google.com/maps/place/%D0%9F%D0%90%D0%9D%D0%94%D0%90+%D0%B3%D1%80%D1%83%D0%BF%D0%BF+%D0%BE%D0%B1%D0%BB%D0%B0%D0%B4%D0%BD%D0%B0%D0%BD%D0%BD%D1%8F+%D0%B4%D0%BB%D1%8F+%D0%BD%D0%B0%D1%84%D1%82%D0%BE%D0%B1%D0%B0%D0%B7,+%D0%BD%D0%B0%D1%81%D0%BE%D1%81%D0%B8+%D0%B2%D0%B8%D0%B1%D1%83%D1%85%D0%BE%D0%B7%D0%B0%D1%85%D1%96%D1%81%D0%BD%D1%96+%D0%90%D0%A2%D0%95%D0%A5/data=!4m7!3m6!1s0x40d4c852265d77a5:0xb4431ced8a8d7dbd!8m2!3d50.3035813!4d30.3702163!16s%2Fg%2F1hm3p15g1!19sChIJpXddJlLI1EARvX2Niu0cQ7Q?authuser=0&hl=tr&rclk=1",
    "website_url": "",
    "rating_text": "",
    "stars": null,
    "number_of_reviews": null,
    "price_level": "",
    "open_hours": "",
    "extraction_timestamp": "2025-06-08T03:38:24.531Z",
    "source_name": "google",
    "source_query": "Irrigation Equipment",
    "source_country": "UA",
    "country": "Ukraine",
    "state": "Kyivska oblast",
    "city": "Skvyrs’kyy Rayon"
  },
  {
    "source_id": "ChIJj0u_G-_J1EARCMyAfd3YBdA",
    "name": "Art Green",
    "category": "Art Green",
    "formatted_address": "5,0(7)",
    "phone_number": "",
    "source_url": "https://www.google.com/maps/place/Art+Green/data=!4m7!3m6!1s0x40d4c9ef1bbf4b8f:0xd005d8dd7d80cc08!8m2!3d50.3569659!4d30.4366525!16s%2Fg%2F11w_t53108!19sChIJj0u_G-_J1EARCMyAfd3YBdA?authuser=0&hl=tr&rclk=1",
    "website_url": "",
    "rating_text": "5,0",
    "stars": null,
    "number_of_reviews": null,
    "price_level": "",
    "open_hours": "",
    "extraction_timestamp": "2025-06-08T03:38:24.532Z",
    "source_name": "google",
    "source_query": "Irrigation Equipment",
    "source_country": "UA",
    "country": "Ukraine",
    "state": "Kyivska oblast",
    "city": "Skvyrs’kyy Rayon"
  },
  {
    "source_id": "ChIJPcqk7m3J1EARHAdcEh2m6ZM",
    "name": "Сантехник Дмитрий Разумный",
    "category": "Сантехник Дмитрий Разумный",
    "formatted_address": "3,0(4)",
    "phone_number": "+380914819247",
    "source_url": "https://www.google.com/maps/place/%D0%A1%D0%B0%D0%BD%D1%82%D0%B5%D1%85%D0%BD%D0%B8%D0%BA+%D0%94%D0%BC%D0%B8%D1%82%D1%80%D0%B8%D0%B9+%D0%A0%D0%B0%D0%B7%D1%83%D0%BC%D0%BD%D1%8B%D0%B9/data=!4m7!3m6!1s0x40d4c96deea4ca3d:0x93e9a61d125c071c!8m2!3d50.3815549!4d30.3795194!16s%2Fg%2F11n94z105t!19sChIJPcqk7m3J1EARHAdcEh2m6ZM?authuser=0&hl=tr&rclk=1",
    "website_url": "",
    "rating_text": "3,0",
    "stars": null,
    "number_of_reviews": null,
    "price_level": "",
    "open_hours": "",
    "extraction_timestamp": "2025-06-08T03:38:24.533Z",
    "source_name": "google",
    "source_query": "Irrigation Equipment",
    "source_country": "UA",
    "country": "Ukraine",
    "state": "Kyivska oblast",
    "city": "Skvyrs’kyy Rayon"
  },
  {
    "source_id": "ChIJ5dUqQp2x1EARPeEoyGpO-K4",
    "name": "Ahropromkholdynh Arenda Spetstekhnyky",
    "category": "Ahropromkholdynh Arenda Spetstekhnyky",
    "formatted_address": "5,0(3)",
    "phone_number": "+380672426377",
    "source_url": "https://www.google.com/maps/place/Ahropromkholdynh+Arenda+Spetstekhnyky/data=!4m7!3m6!1s0x40d4b19d422ad5e5:0xaef84e6ac828e13d!8m2!3d50.2246541!4d30.3200193!16s%2Fg%2F11hf1xw_kn!19sChIJ5dUqQp2x1EARPeEoyGpO-K4?authuser=0&hl=tr&rclk=1",
    "website_url": "",
    "rating_text": "5,0",
    "stars": null,
    "number_of_reviews": null,
    "price_level": "",
    "open_hours": "",
    "extraction_timestamp": "2025-06-08T03:38:24.534Z",
    "source_name": "google",
    "source_query": "Irrigation Equipment",
    "source_country": "UA",
    "country": "Ukraine",
    "state": "Kyivska oblast",
    "city": "Skvyrs’kyy Rayon"
  }
]
