[
  {
    "source_id": "ChIJ94O2IPdl1UYRi7BEXNU7wjE",
    "name": "Mayster",
    "category": "Mayster",
    "formatted_address": "4,4(168)",
    "phone_number": "+380956628012",
    "source_url": "https://www.google.com/maps/place/Mayster/data=!4m7!3m6!1s0x46d565f720b683f7:0x31c23bd55c44b08b!8m2!3d51.5177166!4d30.7654454!16s%2Fg%2F1pp2vk6hr!19sChIJ94O2IPdl1UYRi7BEXNU7wjE?authuser=0&hl=tr&rclk=1",
    "website_url": "",
    "rating_text": "4,4",
    "stars": null,
    "number_of_reviews": null,
    "price_level": "",
    "open_hours": "",
    "extraction_timestamp": "2025-06-08T03:35:56.310Z",
    "source_name": "google",
    "source_query": "Irrigation Equipment",
    "source_country": "UA",
    "country": "Ukraine",
    "state": "Kyivska oblast",
    "city": "Slavutych"
  },
  {
    "source_id": "ChIJoS3ysvJl1UYRLxTJwOxaRKQ",
    "name": "Arho",
    "category": "Arho",
    "formatted_address": "4,4(107)",
    "phone_number": "+380504657047",
    "source_url": "https://www.google.com/maps/place/Arho/data=!4m7!3m6!1s0x46d565f2b2f22da1:0xa4445aecc0c9142f!8m2!3d51.5164077!4d30.7491876!16s%2Fg%2F12vtwv9nx!19sChIJoS3ysvJl1UYRLxTJwOxaRKQ?authuser=0&hl=tr&rclk=1",
    "website_url": "",
    "rating_text": "4,4",
    "stars": null,
    "number_of_reviews": null,
    "price_level": "",
    "open_hours": "",
    "extraction_timestamp": "2025-06-08T03:35:56.312Z",
    "source_name": "google",
    "source_query": "Irrigation Equipment",
    "source_country": "UA",
    "country": "Ukraine",
    "state": "Kyivska oblast",
    "city": "Slavutych"
  },
  {
    "source_id": "ChIJx7j-p-xl1UYRsjeV_utQez0",
    "name": "Сантехник Славутич",
    "category": "Сантехник Славутич",
    "formatted_address": "5,0(1)",
    "phone_number": "+380678668612",
    "source_url": "https://www.google.com/maps/place/%D0%A1%D0%B0%D0%BD%D1%82%D0%B5%D1%85%D0%BD%D0%B8%D0%BA+%D0%A1%D0%BB%D0%B0%D0%B2%D1%83%D1%82%D0%B8%D1%87/data=!4m7!3m6!1s0x46d565eca7feb8c7:0x3d7b50ebfe9537b2!8m2!3d51.5193121!4d30.7682965!16s%2Fg%2F11np4syx6b!19sChIJx7j-p-xl1UYRsjeV_utQez0?authuser=0&hl=tr&rclk=1",
    "website_url": "",
    "rating_text": "5,0",
    "stars": null,
    "number_of_reviews": null,
    "price_level": "",
    "open_hours": "",
    "extraction_timestamp": "2025-06-08T03:35:56.312Z",
    "source_name": "google",
    "source_query": "Irrigation Equipment",
    "source_country": "UA",
    "country": "Ukraine",
    "state": "Kyivska oblast",
    "city": "Slavutych"
  },
  {
    "source_id": "ChIJg0tJhtpl1UYRlTcrzthXHVU",
    "name": "Центр видачі замовлень ЕПІЦЕНТР.ua",
    "category": "Центр видачі замовлень ЕПІЦЕНТР.ua",
    "formatted_address": "4,5(2)",
    "phone_number": "+380800202727",
    "source_url": "https://www.google.com/maps/place/%D0%A6%D0%B5%D0%BD%D1%82%D1%80+%D0%B2%D0%B8%D0%B4%D0%B0%D1%87%D1%96+%D0%B7%D0%B0%D0%BC%D0%BE%D0%B2%D0%BB%D0%B5%D0%BD%D1%8C+%D0%95%D0%9F%D0%86%D0%A6%D0%95%D0%9D%D0%A2%D0%A0.ua/data=!4m7!3m6!1s0x46d565da86494b83:0x551d57d8ce2b3795!8m2!3d51.5210453!4d30.7562324!16s%2Fg%2F11vj_0nyft!19sChIJg0tJhtpl1UYRlTcrzthXHVU?authuser=0&hl=tr&rclk=1",
    "website_url": "",
    "rating_text": "4,5",
    "stars": null,
    "number_of_reviews": null,
    "price_level": "",
    "open_hours": "",
    "extraction_timestamp": "2025-06-08T03:35:56.313Z",
    "source_name": "google",
    "source_query": "Irrigation Equipment",
    "source_country": "UA",
    "country": "Ukraine",
    "state": "Kyivska oblast",
    "city": "Slavutych"
  },
  {
    "source_id": "ChIJ1biqIh9l1UYRssGEVkVcDBo",
    "name": "ROZETKA",
    "category": "ROZETKA",
    "formatted_address": "4,6(9)",
    "phone_number": "",
    "source_url": "https://www.google.com/maps/place/ROZETKA/data=!4m7!3m6!1s0x46d5651f22aab8d5:0x1a0c5c455684c1b2!8m2!3d51.521792!4d30.76351!16s%2Fg%2F11smgcrp0g!19sChIJ1biqIh9l1UYRssGEVkVcDBo?authuser=0&hl=tr&rclk=1",
    "website_url": "",
    "rating_text": "4,6",
    "stars": null,
    "number_of_reviews": null,
    "price_level": "",
    "open_hours": "",
    "extraction_timestamp": "2025-06-08T03:35:56.314Z",
    "source_name": "google",
    "source_query": "Irrigation Equipment",
    "source_country": "UA",
    "country": "Ukraine",
    "state": "Kyivska oblast",
    "city": "Slavutych"
  },
  {
    "source_id": "ChIJQw1KE2Fv1UYR0uI1n9GAsyQ",
    "name": "Продуктовий магазин \"Лотос\"",
    "category": "Продуктовий магазин \"Лотос\"",
    "formatted_address": "4,4(119)",
    "phone_number": "",
    "source_url": "https://www.google.com/maps/place/%D0%9F%D1%80%D0%BE%D0%B4%D1%83%D0%BA%D1%82%D0%BE%D0%B2%D0%B8%D0%B9+%D0%BC%D0%B0%D0%B3%D0%B0%D0%B7%D0%B8%D0%BD+%22%D0%9B%D0%BE%D1%82%D0%BE%D1%81%22/data=!4m7!3m6!1s0x46d56f61134a0d43:0x24b380d19f35e2d2!8m2!3d51.5288109!4d30.7563731!16s%2Fg%2F11byp84tbs!19sChIJQw1KE2Fv1UYR0uI1n9GAsyQ?authuser=0&hl=tr&rclk=1",
    "website_url": "",
    "rating_text": "4,4",
    "stars": null,
    "number_of_reviews": null,
    "price_level": "",
    "open_hours": "",
    "extraction_timestamp": "2025-06-08T03:35:56.314Z",
    "source_name": "google",
    "source_query": "Irrigation Equipment",
    "source_country": "UA",
    "country": "Ukraine",
    "state": "Kyivska oblast",
    "city": "Slavutych"
  },
  {
    "source_id": "ChIJ4QJsw_Rl1UYRYyWP13Rjhko",
    "name": "Soyuz",
    "category": "Soyuz",
    "formatted_address": "3,4(548)",
    "phone_number": "+380800502277",
    "source_url": "https://www.google.com/maps/place/Soyuz/data=!4m7!3m6!1s0x46d565f4c36c02e1:0x4a866374d78f2563!8m2!3d51.5211111!4d30.7563889!16s%2Fg%2F1jkyw_m43!19sChIJ4QJsw_Rl1UYRYyWP13Rjhko?authuser=0&hl=tr&rclk=1",
    "website_url": "",
    "rating_text": "3,4",
    "stars": null,
    "number_of_reviews": null,
    "price_level": "",
    "open_hours": "",
    "extraction_timestamp": "2025-06-08T03:35:56.315Z",
    "source_name": "google",
    "source_query": "Irrigation Equipment",
    "source_country": "UA",
    "country": "Ukraine",
    "state": "Kyivska oblast",
    "city": "Slavutych"
  },
  {
    "source_id": "ChIJlzFf1Pdl1UYRslCRWTBQQjY",
    "name": "Nord",
    "category": "Nord",
    "formatted_address": "4,6(5)",
    "phone_number": "",
    "source_url": "https://www.google.com/maps/place/Nord/data=!4m7!3m6!1s0x46d565f7d45f3197:0x36425030599150b2!8m2!3d51.5207778!4d30.7697409!16s%2Fg%2F11g71_68y0!19sChIJlzFf1Pdl1UYRslCRWTBQQjY?authuser=0&hl=tr&rclk=1",
    "website_url": "",
    "rating_text": "4,6",
    "stars": null,
    "number_of_reviews": null,
    "price_level": "",
    "open_hours": "",
    "extraction_timestamp": "2025-06-08T03:35:56.316Z",
    "source_name": "google",
    "source_query": "Irrigation Equipment",
    "source_country": "UA",
    "country": "Ukraine",
    "state": "Kyivska oblast",
    "city": "Slavutych"
  },
  {
    "source_id": "ChIJUQQ0o_Zl1UYR-2LZq5dDzmk",
    "name": "Hamma",
    "category": "Hamma",
    "formatted_address": "3,7(95)",
    "phone_number": "+380457922499",
    "source_url": "https://www.google.com/maps/place/Hamma/data=!4m7!3m6!1s0x46d565f6a3340451:0x69ce4397abd962fb!8m2!3d51.5184648!4d30.7627517!16s%2Fg%2F1pp2vk6jz!19sChIJUQQ0o_Zl1UYR-2LZq5dDzmk?authuser=0&hl=tr&rclk=1",
    "website_url": "",
    "rating_text": "3,7",
    "stars": null,
    "number_of_reviews": null,
    "price_level": "",
    "open_hours": "",
    "extraction_timestamp": "2025-06-08T03:35:56.317Z",
    "source_name": "google",
    "source_query": "Irrigation Equipment",
    "source_country": "UA",
    "country": "Ukraine",
    "state": "Kyivska oblast",
    "city": "Slavutych"
  },
  {
    "source_id": "ChIJy0PPrdZl1UYR84pWj_hCxT8",
    "name": "MarkTim",
    "category": "MarkTim",
    "formatted_address": "4,9(31)",
    "phone_number": "+380664620998",
    "source_url": "https://www.google.com/maps/place/MarkTim/data=!4m7!3m6!1s0x46d565d6adcf43cb:0x3fc542f88f568af3!8m2!3d51.5198285!4d30.7572943!16s%2Fg%2F11rg9mf4h4!19sChIJy0PPrdZl1UYR84pWj_hCxT8?authuser=0&hl=tr&rclk=1",
    "website_url": "",
    "rating_text": "4,9",
    "stars": null,
    "number_of_reviews": null,
    "price_level": "",
    "open_hours": "",
    "extraction_timestamp": "2025-06-08T03:35:56.317Z",
    "source_name": "google",
    "source_query": "Irrigation Equipment",
    "source_country": "UA",
    "country": "Ukraine",
    "state": "Kyivska oblast",
    "city": "Slavutych"
  },
  {
    "source_id": "ChIJWcJHL_Jl1UYRxnlY2G5-JJ8",
    "name": "City Market",
    "category": "City Market",
    "formatted_address": "3,7(120)",
    "phone_number": "+380509086428",
    "source_url": "https://www.google.com/maps/place/City+Market/data=!4m7!3m6!1s0x46d565f22f47c259:0x9f247e6ed85879c6!8m2!3d51.5154017!4d30.757042!16s%2Fg%2F11fy2l2xjg!19sChIJWcJHL_Jl1UYRxnlY2G5-JJ8?authuser=0&hl=tr&rclk=1",
    "website_url": "",
    "rating_text": "3,7",
    "stars": null,
    "number_of_reviews": null,
    "price_level": "",
    "open_hours": "",
    "extraction_timestamp": "2025-06-08T03:35:56.318Z",
    "source_name": "google",
    "source_query": "Irrigation Equipment",
    "source_country": "UA",
    "country": "Ukraine",
    "state": "Kyivska oblast",
    "city": "Slavutych"
  },
  {
    "source_id": "ChIJJynAYIpl1UYRW3tGF028hJY",
    "name": "Fora",
    "category": "Fora",
    "formatted_address": "4,4(562)",
    "phone_number": "+380800301230",
    "source_url": "https://www.google.com/maps/place/Fora/data=!4m7!3m6!1s0x46d5658a60c02927:0x9684bc4d17467b5b!8m2!3d51.5218152!4d30.7634156!16s%2Fg%2F11fl46fg4m!19sChIJJynAYIpl1UYRW3tGF028hJY?authuser=0&hl=tr&rclk=1",
    "website_url": "",
    "rating_text": "4,4",
    "stars": null,
    "number_of_reviews": null,
    "price_level": "",
    "open_hours": "",
    "extraction_timestamp": "2025-06-08T03:35:56.319Z",
    "source_name": "google",
    "source_query": "Irrigation Equipment",
    "source_country": "UA",
    "country": "Ukraine",
    "state": "Kyivska oblast",
    "city": "Slavutych"
  },
  {
    "source_id": "ChIJ5wuuMQBl1UYRiRBOocpZF6o",
    "name": "Ваша вода",
    "category": "Ваша вода",
    "formatted_address": "5,0(1)",
    "phone_number": "+380991405515",
    "source_url": "https://www.google.com/maps/place/%D0%92%D0%B0%D1%88%D0%B0+%D0%B2%D0%BE%D0%B4%D0%B0/data=!4m7!3m6!1s0x46d5650031ae0be7:0xaa1759caa14e1089!8m2!3d51.5225215!4d30.7603096!16s%2Fg%2F11wqzgtb7h!19sChIJ5wuuMQBl1UYRiRBOocpZF6o?authuser=0&hl=tr&rclk=1",
    "website_url": "",
    "rating_text": "5,0",
    "stars": null,
    "number_of_reviews": null,
    "price_level": "",
    "open_hours": "",
    "extraction_timestamp": "2025-06-08T03:35:56.320Z",
    "source_name": "google",
    "source_query": "Irrigation Equipment",
    "source_country": "UA",
    "country": "Ukraine",
    "state": "Kyivska oblast",
    "city": "Slavutych"
  },
  {
    "source_id": "ChIJL76g0opl1UYRv4CUo59Jnyc",
    "name": "ATB-Market",
    "category": "ATB-Market",
    "formatted_address": "4,0(1.050)",
    "phone_number": "+380660848555",
    "source_url": "https://www.google.com/maps/place/ATB-Market/data=!4m7!3m6!1s0x46d5658ad2a0be2f:0x279f499fa39480bf!8m2!3d51.5225414!4d30.7567264!16s%2Fg%2F11r998fzr!19sChIJL76g0opl1UYRv4CUo59Jnyc?authuser=0&hl=tr&rclk=1",
    "website_url": "",
    "rating_text": "4,0",
    "stars": null,
    "number_of_reviews": null,
    "price_level": "",
    "open_hours": "",
    "extraction_timestamp": "2025-06-08T03:35:56.322Z",
    "source_name": "google",
    "source_query": "Irrigation Equipment",
    "source_country": "UA",
    "country": "Ukraine",
    "state": "Kyivska oblast",
    "city": "Slavutych"
  },
  {
    "source_id": "ChIJqXFYhPFl1UYRuXfLXHM6pzk",
    "name": "LADA-TAVRIA-SENS-LANOS",
    "category": "LADA-TAVRIA-SENS-LANOS",
    "formatted_address": "4,2(11)",
    "phone_number": "+380507808164",
    "source_url": "https://www.google.com/maps/place/LADA-TAVRIA-SENS-LANOS/data=!4m7!3m6!1s0x46d565f1845871a9:0x39a73a735ccb77b9!8m2!3d51.5153482!4d30.7580831!16s%2Fg%2F1hm2kncl6!19sChIJqXFYhPFl1UYRuXfLXHM6pzk?authuser=0&hl=tr&rclk=1",
    "website_url": "",
    "rating_text": "4,2",
    "stars": null,
    "number_of_reviews": null,
    "price_level": "",
    "open_hours": "",
    "extraction_timestamp": "2025-06-08T03:35:56.323Z",
    "source_name": "google",
    "source_query": "Irrigation Equipment",
    "source_country": "UA",
    "country": "Ukraine",
    "state": "Kyivska oblast",
    "city": "Slavutych"
  },
  {
    "source_id": "ChIJJ9zdywdl1UYRTu9G2_QHq0s",
    "name": "Kit I Pes",
    "category": "Kit I Pes",
    "formatted_address": "5,0(6)",
    "phone_number": "",
    "source_url": "https://www.google.com/maps/place/Kit+I+Pes/data=!4m7!3m6!1s0x46d56507cbdddc27:0x4bab07f4db46ef4e!8m2!3d51.5219202!4d30.763549!16s%2Fg%2F11j4yxm1w6!19sChIJJ9zdywdl1UYRTu9G2_QHq0s?authuser=0&hl=tr&rclk=1",
    "website_url": "",
    "rating_text": "5,0",
    "stars": null,
    "number_of_reviews": null,
    "price_level": "",
    "open_hours": "",
    "extraction_timestamp": "2025-06-08T03:35:56.323Z",
    "source_name": "google",
    "source_query": "Irrigation Equipment",
    "source_country": "UA",
    "country": "Ukraine",
    "state": "Kyivska oblast",
    "city": "Slavutych"
  },
  {
    "source_id": "ChIJtxTzCQBl1UYRklLrtN_hwHE",
    "name": "Магазин «МʼясоРибка»",
    "category": "Магазин «МʼясоРибка»",
    "formatted_address": "5,0(1)",
    "phone_number": "+380660879597",
    "source_url": "https://www.google.com/maps/place/%D0%9C%D0%B0%D0%B3%D0%B0%D0%B7%D0%B8%D0%BD+%C2%AB%D0%9C%CA%BC%D1%8F%D1%81%D0%BE%D0%A0%D0%B8%D0%B1%D0%BA%D0%B0%C2%BB/data=!4m7!3m6!1s0x46d5650009f314b7:0x71c0e1dfb4eb5292!8m2!3d51.5225215!4d30.7603096!16s%2Fg%2F11w9zjn2fv!19sChIJtxTzCQBl1UYRklLrtN_hwHE?authuser=0&hl=tr&rclk=1",
    "website_url": "",
    "rating_text": "5,0",
    "stars": null,
    "number_of_reviews": null,
    "price_level": "",
    "open_hours": "",
    "extraction_timestamp": "2025-06-08T03:35:56.324Z",
    "source_name": "google",
    "source_query": "Irrigation Equipment",
    "source_country": "UA",
    "country": "Ukraine",
    "state": "Kyivska oblast",
    "city": "Slavutych"
  },
  {
    "source_id": "ChIJ2b-ohopl1UYRcY7UzuJGD_0",
    "name": "Yenisey",
    "category": "Yenisey",
    "formatted_address": "4,7(7)",
    "phone_number": "",
    "source_url": "https://www.google.com/maps/place/Yenisey/data=!4m7!3m6!1s0x46d5658a86a8bfd9:0xfd0f46e2ced48e71!8m2!3d51.5249675!4d30.7547919!16s%2Fg%2F11dftp9btk!19sChIJ2b-ohopl1UYRcY7UzuJGD_0?authuser=0&hl=tr&rclk=1",
    "website_url": "",
    "rating_text": "4,7",
    "stars": null,
    "number_of_reviews": null,
    "price_level": "",
    "open_hours": "",
    "extraction_timestamp": "2025-06-08T03:35:56.324Z",
    "source_name": "google",
    "source_query": "Irrigation Equipment",
    "source_country": "UA",
    "country": "Ukraine",
    "state": "Kyivska oblast",
    "city": "Slavutych"
  },
  {
    "source_id": "ChIJNVf7DfVl1UYRAMZuk7QyB0g",
    "name": "Café «Kolobok»",
    "category": "Café «Kolobok»",
    "formatted_address": "4,6(338) · ₺",
    "phone_number": "+380954027515",
    "source_url": "https://www.google.com/maps/place/Caf%C3%A9+%C2%ABKolobok%C2%BB/data=!4m7!3m6!1s0x46d565f50dfb5735:0x480732b4936ec600!8m2!3d51.5221457!4d30.7597178!16s%2Fg%2F1pp2ty6f9!19sChIJNVf7DfVl1UYRAMZuk7QyB0g?authuser=0&hl=tr&rclk=1",
    "website_url": "",
    "rating_text": "4,6",
    "stars": null,
    "number_of_reviews": null,
    "price_level": "",
    "open_hours": "",
    "extraction_timestamp": "2025-06-08T03:35:56.326Z",
    "source_name": "google",
    "source_query": "Irrigation Equipment",
    "source_country": "UA",
    "country": "Ukraine",
    "state": "Kyivska oblast",
    "city": "Slavutych"
  },
  {
    "source_id": "ChIJscDnOepl1UYRFVzs99HNC7U",
    "name": "Dyvotsin - Mahazyn Sklad Nyzʹkykh Tsin",
    "category": "Dyvotsin - Mahazyn Sklad Nyzʹkykh Tsin",
    "formatted_address": "3,3(6)",
    "phone_number": "+380675256808",
    "source_url": "https://www.google.com/maps/place/Dyvotsin+-+Mahazyn+Sklad+Nyz%CA%B9kykh+Tsin/data=!4m7!3m6!1s0x46d565ea39e7c0b1:0xb50bcdd1f7ec5c15!8m2!3d51.516459!4d30.7497987!16s%2Fg%2F11lnmv49b5!19sChIJscDnOepl1UYRFVzs99HNC7U?authuser=0&hl=tr&rclk=1",
    "website_url": "",
    "rating_text": "3,3",
    "stars": null,
    "number_of_reviews": null,
    "price_level": "",
    "open_hours": "",
    "extraction_timestamp": "2025-06-08T03:35:56.326Z",
    "source_name": "google",
    "source_query": "Irrigation Equipment",
    "source_country": "UA",
    "country": "Ukraine",
    "state": "Kyivska oblast",
    "city": "Slavutych"
  },
  {
    "source_id": "ChIJh91NHfZl1UYRJppw0Q-N8fM",
    "name": "Kvartal",
    "category": "Kvartal",
    "formatted_address": "3,4(433)",
    "phone_number": "+380457929587",
    "source_url": "https://www.google.com/maps/place/Kvartal/data=!4m7!3m6!1s0x46d565f61d4ddd87:0xf3f18d0fd1709a26!8m2!3d51.5225607!4d30.7603491!16s%2Fg%2F11cmpyk084!19sChIJh91NHfZl1UYRJppw0Q-N8fM?authuser=0&hl=tr&rclk=1",
    "website_url": "",
    "rating_text": "3,4",
    "stars": null,
    "number_of_reviews": null,
    "price_level": "",
    "open_hours": "",
    "extraction_timestamp": "2025-06-08T03:35:56.348Z",
    "source_name": "google",
    "source_query": "Irrigation Equipment",
    "source_country": "UA",
    "country": "Ukraine",
    "state": "Kyivska oblast",
    "city": "Slavutych"
  },
  {
    "source_id": "ChIJd1h3SJBl1UYRKGnGBASs74s",
    "name": "Prostor",
    "category": "Prostor",
    "formatted_address": "5,0(1)",
    "phone_number": "+380800600200",
    "source_url": "https://www.google.com/maps/place/Prostor/data=!4m7!3m6!1s0x46d5659048775877:0x8befac0404c66928!8m2!3d51.5219753!4d30.7610082!16s%2Fg%2F11vr4jgy4m!19sChIJd1h3SJBl1UYRKGnGBASs74s?authuser=0&hl=tr&rclk=1",
    "website_url": "",
    "rating_text": "5,0",
    "stars": null,
    "number_of_reviews": null,
    "price_level": "",
    "open_hours": "",
    "extraction_timestamp": "2025-06-08T03:35:56.349Z",
    "source_name": "google",
    "source_query": "Irrigation Equipment",
    "source_country": "UA",
    "country": "Ukraine",
    "state": "Kyivska oblast",
    "city": "Slavutych"
  },
  {
    "source_id": "ChIJoe_PcGRl1UYRI7AvC2LVvxw",
    "name": "Аптека АНЦ",
    "category": "Аптека АНЦ",
    "formatted_address": "4,6(18)",
    "phone_number": "+380930005900",
    "source_url": "https://www.google.com/maps/place/%D0%90%D0%BF%D1%82%D0%B5%D0%BA%D0%B0+%D0%90%D0%9D%D0%A6/data=!4m7!3m6!1s0x46d5656470cfefa1:0x1cbfd5620b2fb023!8m2!3d51.5221!4d30.7563!16s%2Fg%2F11fnv91zsg!19sChIJoe_PcGRl1UYRI7AvC2LVvxw?authuser=0&hl=tr&rclk=1",
    "website_url": "",
    "rating_text": "4,6",
    "stars": null,
    "number_of_reviews": null,
    "price_level": "",
    "open_hours": "",
    "extraction_timestamp": "2025-06-08T03:35:56.350Z",
    "source_name": "google",
    "source_query": "Irrigation Equipment",
    "source_country": "UA",
    "country": "Ukraine",
    "state": "Kyivska oblast",
    "city": "Slavutych"
  },
  {
    "source_id": "ChIJlVgoPABl1UYRIUH3mrDoO-I",
    "name": "THRASH! ТРАШ! Маркет Super",
    "category": "THRASH! ТРАШ! Маркет Super",
    "formatted_address": "5,0(2)",
    "phone_number": "",
    "source_url": "https://www.google.com/maps/place/THRASH!+%D0%A2%D0%A0%D0%90%D0%A8!+%D0%9C%D0%B0%D1%80%D0%BA%D0%B5%D1%82+Super/data=!4m7!3m6!1s0x46d565003c285895:0xe23be8b09af74121!8m2!3d51.5166526!4d30.7551232!16s%2Fg%2F11y8vlr4p7!19sChIJlVgoPABl1UYRIUH3mrDoO-I?authuser=0&hl=tr&rclk=1",
    "website_url": "",
    "rating_text": "5,0",
    "stars": null,
    "number_of_reviews": null,
    "price_level": "",
    "open_hours": "",
    "extraction_timestamp": "2025-06-08T03:35:56.350Z",
    "source_name": "google",
    "source_query": "Irrigation Equipment",
    "source_country": "UA",
    "country": "Ukraine",
    "state": "Kyivska oblast",
    "city": "Slavutych"
  },
  {
    "source_id": "ChIJ3dlaPgBl1UYRRMrclT9uZ7U",
    "name": "Zoomahazyn \"Kotya\"",
    "category": "Zoomahazyn \"Kotya\"",
    "formatted_address": "5,0(5)",
    "phone_number": "+380662756132",
    "source_url": "https://www.google.com/maps/place/Zoomahazyn+%22Kotya%22/data=!4m7!3m6!1s0x46d565003e5ad9dd:0xb5676e3f95dcca44!8m2!3d51.5184352!4d30.76371!16s%2Fg%2F11y3t961q9!19sChIJ3dlaPgBl1UYRRMrclT9uZ7U?authuser=0&hl=tr&rclk=1",
    "website_url": "",
    "rating_text": "5,0",
    "stars": null,
    "number_of_reviews": null,
    "price_level": "",
    "open_hours": "",
    "extraction_timestamp": "2025-06-08T03:35:56.351Z",
    "source_name": "google",
    "source_query": "Irrigation Equipment",
    "source_country": "UA",
    "country": "Ukraine",
    "state": "Kyivska oblast",
    "city": "Slavutych"
  },
  {
    "source_id": "ChIJAQB0tmFv1UYRuNrWR6_MHGA",
    "name": "Med-Servys",
    "category": "Med-Servys",
    "formatted_address": "2,7(7)",
    "phone_number": "+380457921932",
    "source_url": "https://www.google.com/maps/place/Med-Servys/data=!4m7!3m6!1s0x46d56f61b6740001:0x601cccaf47d6dab8!8m2!3d51.5266894!4d30.7556192!16s%2Fg%2F11f01vcfgk!19sChIJAQB0tmFv1UYRuNrWR6_MHGA?authuser=0&hl=tr&rclk=1",
    "website_url": "",
    "rating_text": "2,7",
    "stars": null,
    "number_of_reviews": null,
    "price_level": "",
    "open_hours": "",
    "extraction_timestamp": "2025-06-08T03:35:56.352Z",
    "source_name": "google",
    "source_query": "Irrigation Equipment",
    "source_country": "UA",
    "country": "Ukraine",
    "state": "Kyivska oblast",
    "city": "Slavutych"
  },
  {
    "source_id": "ChIJ2wWlDABv1UYRfIN3D-fka04",
    "name": "Thrash!",
    "category": "Thrash!",
    "formatted_address": "3,8(17)",
    "phone_number": "+380800300890",
    "source_url": "https://www.google.com/maps/place/Thrash!/data=!4m7!3m6!1s0x46d56f000ca505db:0x4e6be4e70f77837c!8m2!3d51.5259201!4d30.7589368!16s%2Fg%2F11vz7hfjk_!19sChIJ2wWlDABv1UYRfIN3D-fka04?authuser=0&hl=tr&rclk=1",
    "website_url": "",
    "rating_text": "3,8",
    "stars": null,
    "number_of_reviews": null,
    "price_level": "",
    "open_hours": "",
    "extraction_timestamp": "2025-06-08T03:35:56.353Z",
    "source_name": "google",
    "source_query": "Irrigation Equipment",
    "source_country": "UA",
    "country": "Ukraine",
    "state": "Kyivska oblast",
    "city": "Slavutych"
  },
  {
    "source_id": "ChIJn90xudZl1UYRQoCkgrp-asU",
    "name": "Аптека «Бажаємо здоров'я»",
    "category": "Аптека «Бажаємо здоров'я»",
    "formatted_address": "5,0(3)",
    "phone_number": "+380633655702",
    "source_url": "https://www.google.com/maps/place/%D0%90%D0%BF%D1%82%D0%B5%D0%BA%D0%B0+%C2%AB%D0%91%D0%B0%D0%B6%D0%B0%D1%94%D0%BC%D0%BE+%D0%B7%D0%B4%D0%BE%D1%80%D0%BE%D0%B2%27%D1%8F%C2%BB/data=!4m7!3m6!1s0x46d565d6b931dd9f:0xc56a7eba82a48042!8m2!3d51.51604!4d30.7537899!16s%2Fg%2F11y2htjkxv!19sChIJn90xudZl1UYRQoCkgrp-asU?authuser=0&hl=tr&rclk=1",
    "website_url": "",
    "rating_text": "5,0",
    "stars": null,
    "number_of_reviews": null,
    "price_level": "",
    "open_hours": "",
    "extraction_timestamp": "2025-06-08T03:35:56.354Z",
    "source_name": "google",
    "source_query": "Irrigation Equipment",
    "source_country": "UA",
    "country": "Ukraine",
    "state": "Kyivska oblast",
    "city": "Slavutych"
  },
  {
    "source_id": "ChIJRUbCjUFl1UYRyNnjCrZIGGw",
    "name": "Avrora",
    "category": "Avrora",
    "formatted_address": "5,0(2)",
    "phone_number": "+380800300066",
    "source_url": "https://www.google.com/maps/place/Avrora/data=!4m7!3m6!1s0x46d565418dc24645:0x6c1848b60ae3d9c8!8m2!3d51.5219049!4d30.759945!16s%2Fg%2F11l32_kq1j!19sChIJRUbCjUFl1UYRyNnjCrZIGGw?authuser=0&hl=tr&rclk=1",
    "website_url": "",
    "rating_text": "5,0",
    "stars": null,
    "number_of_reviews": null,
    "price_level": "",
    "open_hours": "",
    "extraction_timestamp": "2025-06-08T03:35:56.355Z",
    "source_name": "google",
    "source_query": "Irrigation Equipment",
    "source_country": "UA",
    "country": "Ukraine",
    "state": "Kyivska oblast",
    "city": "Slavutych"
  },
  {
    "source_id": "ChIJt7VEsmVl1UYRd8cE9YyWDAU",
    "name": "Kharchi",
    "category": "Kharchi",
    "formatted_address": "4,3(7)",
    "phone_number": "+380457923912",
    "source_url": "https://www.google.com/maps/place/Kharchi/data=!4m7!3m6!1s0x46d56565b244b5b7:0x50c968cf504c777!8m2!3d51.5176362!4d30.7508485!16s%2Fg%2F11llb0dgbl!19sChIJt7VEsmVl1UYRd8cE9YyWDAU?authuser=0&hl=tr&rclk=1",
    "website_url": "",
    "rating_text": "4,3",
    "stars": null,
    "number_of_reviews": null,
    "price_level": "",
    "open_hours": "",
    "extraction_timestamp": "2025-06-08T03:35:56.356Z",
    "source_name": "google",
    "source_query": "Irrigation Equipment",
    "source_country": "UA",
    "country": "Ukraine",
    "state": "Kyivska oblast",
    "city": "Slavutych"
  }
]
