[
  {
    "source_id": "ChIJg3oSEAAB00ARyfRNQlR5Hug",
    "name": "Piramida",
    "category": "Piramida",
    "formatted_address": "5,0(2)",
    "phone_number": "",
    "source_url": "https://www.google.com/maps/place/Piramida/data=!4m7!3m6!1s0x40d3010010127a83:0xe81e7954424df4c9!8m2!3d49.3844004!4d30.1927086!16s%2Fg%2F11wvqjx_7_!19sChIJg3oSEAAB00ARyfRNQlR5Hug?authuser=0&hl=tr&rclk=1",
    "website_url": "",
    "rating_text": "5,0",
    "stars": null,
    "number_of_reviews": null,
    "price_level": "",
    "open_hours": "",
    "extraction_timestamp": "2025-06-08T03:37:27.626Z",
    "source_name": "google",
    "source_query": "Irrigation Equipment",
    "source_country": "UA",
    "country": "Ukraine",
    "state": "Kyivska oblast",
    "city": "Stavyshche"
  },
  {
    "source_id": "ChIJXeASAcoB00ARrXLIIdA5nPY",
    "name": "Tsentr Vydachi Zamovlenʹ Epitsentr",
    "category": "Tsentr Vydachi Zamovlenʹ Epitsentr",
    "formatted_address": "3,0(2)",
    "phone_number": "+380800202727",
    "source_url": "https://www.google.com/maps/place/Tsentr+Vydachi+Zamovlen%CA%B9+Epitsentr/data=!4m7!3m6!1s0x40d301ca0112e05d:0xf69c39d021c872ad!8m2!3d49.3856633!4d30.2019333!16s%2Fg%2F11vm3wc2cg!19sChIJXeASAcoB00ARrXLIIdA5nPY?authuser=0&hl=tr&rclk=1",
    "website_url": "",
    "rating_text": "3,0",
    "stars": null,
    "number_of_reviews": null,
    "price_level": "",
    "open_hours": "",
    "extraction_timestamp": "2025-06-08T03:37:27.649Z",
    "source_name": "google",
    "source_query": "Irrigation Equipment",
    "source_country": "UA",
    "country": "Ukraine",
    "state": "Kyivska oblast",
    "city": "Stavyshche"
  },
  {
    "source_id": "ChIJRevkQQAB00AR1sEDunICUYU",
    "name": "Mahazyn Santekhnik",
    "category": "Mahazyn Santekhnik",
    "formatted_address": "Yapı Malzemeleri Mağazası · вул. Георгія Нагаївського, 2Kapalı ⋅ Açılış zamanı: Pzt 08:00 · +380 96 131 3106",
    "phone_number": "+380961313106",
    "source_url": "https://www.google.com/maps/place/Mahazyn+Santekhnik/data=!4m7!3m6!1s0x40d3010041e4eb45:0x85510272ba03c1d6!8m2!3d49.3842937!4d30.1993437!16s%2Fg%2F11x8g8k25y!19sChIJRevkQQAB00AR1sEDunICUYU?authuser=0&hl=tr&rclk=1",
    "website_url": "",
    "rating_text": "",
    "stars": null,
    "number_of_reviews": null,
    "price_level": "",
    "open_hours": "",
    "extraction_timestamp": "2025-06-08T03:37:27.650Z",
    "source_name": "google",
    "source_query": "Irrigation Equipment",
    "source_country": "UA",
    "country": "Ukraine",
    "state": "Kyivska oblast",
    "city": "Stavyshche"
  },
  {
    "source_id": "ChIJ02UR2BkB00ARTK92fJHzUAQ",
    "name": "Minimarket \"Sofimaks\"",
    "category": "Minimarket \"Sofimaks\"",
    "formatted_address": "4,0(75)",
    "phone_number": "",
    "source_url": "https://www.google.com/maps/place/Minimarket+%22Sofimaks%22/data=!4m7!3m6!1s0x40d30119d81165d3:0x450f3917c76af4c!8m2!3d49.386115!4d30.1837419!16s%2Fg%2F11gfd5bb4q!19sChIJ02UR2BkB00ARTK92fJHzUAQ?authuser=0&hl=tr&rclk=1",
    "website_url": "",
    "rating_text": "4,0",
    "stars": null,
    "number_of_reviews": null,
    "price_level": "",
    "open_hours": "",
    "extraction_timestamp": "2025-06-08T03:37:27.650Z",
    "source_name": "google",
    "source_query": "Irrigation Equipment",
    "source_country": "UA",
    "country": "Ukraine",
    "state": "Kyivska oblast",
    "city": "Stavyshche"
  },
  {
    "source_id": "ChIJmdcdqh8B00ARZ80kb5KrbZ8",
    "name": "Stavysche market",
    "category": "Stavysche market",
    "formatted_address": "3,6(434)",
    "phone_number": "",
    "source_url": "https://www.google.com/maps/place/Stavysche+market/data=!4m7!3m6!1s0x40d3011faa1dd799:0x9f6dab926f24cd67!8m2!3d49.3838661!4d30.1953955!16s%2Fg%2F11dxt22yq5!19sChIJmdcdqh8B00ARZ80kb5KrbZ8?authuser=0&hl=tr&rclk=1",
    "website_url": "",
    "rating_text": "3,6",
    "stars": null,
    "number_of_reviews": null,
    "price_level": "",
    "open_hours": "",
    "extraction_timestamp": "2025-06-08T03:37:27.651Z",
    "source_name": "google",
    "source_query": "Irrigation Equipment",
    "source_country": "UA",
    "country": "Ukraine",
    "state": "Kyivska oblast",
    "city": "Stavyshche"
  },
  {
    "source_id": "ChIJ-e3rWMsB00ARs5FvQKTx6uw",
    "name": "Mlyn",
    "category": "Mlyn",
    "formatted_address": "4,1(51)",
    "phone_number": "+380977959711",
    "source_url": "https://www.google.com/maps/place/Mlyn/data=!4m7!3m6!1s0x40d301cb58ebedf9:0xeceaf1a4406f91b3!8m2!3d49.3916591!4d30.2049325!16s%2Fg%2F11fmd74mjl!19sChIJ-e3rWMsB00ARs5FvQKTx6uw?authuser=0&hl=tr&rclk=1",
    "website_url": "",
    "rating_text": "4,1",
    "stars": null,
    "number_of_reviews": null,
    "price_level": "",
    "open_hours": "",
    "extraction_timestamp": "2025-06-08T03:37:27.651Z",
    "source_name": "google",
    "source_query": "Irrigation Equipment",
    "source_country": "UA",
    "country": "Ukraine",
    "state": "Kyivska oblast",
    "city": "Stavyshche"
  },
  {
    "source_id": "ChIJJ6s5KhkB00ARDd8ry7hys60",
    "name": "Магазин \"Еврика\"",
    "category": "Магазин \"Еврика\"",
    "formatted_address": "4,0(186)",
    "phone_number": "+380679049692",
    "source_url": "https://www.google.com/maps/place/%D0%9C%D0%B0%D0%B3%D0%B0%D0%B7%D0%B8%D0%BD+%22%D0%95%D0%B2%D1%80%D0%B8%D0%BA%D0%B0%22/data=!4m7!3m6!1s0x40d301192a39ab27:0xadb372b8cb2bdf0d!8m2!3d49.3846813!4d30.1911368!16s%2Fg%2F11c1qb0gyv!19sChIJJ6s5KhkB00ARDd8ry7hys60?authuser=0&hl=tr&rclk=1",
    "website_url": "",
    "rating_text": "4,0",
    "stars": null,
    "number_of_reviews": null,
    "price_level": "",
    "open_hours": "",
    "extraction_timestamp": "2025-06-08T03:37:27.652Z",
    "source_name": "google",
    "source_query": "Irrigation Equipment",
    "source_country": "UA",
    "country": "Ukraine",
    "state": "Kyivska oblast",
    "city": "Stavyshche"
  },
  {
    "source_id": "ChIJAQsfyx4B00ARN2gMKYHudJo",
    "name": "Фора",
    "category": "Фора",
    "formatted_address": "4,1(246)",
    "phone_number": "+380800301230",
    "source_url": "https://www.google.com/maps/place/%D0%A4%D0%BE%D1%80%D0%B0/data=!4m7!3m6!1s0x40d3011ecb1f0b01:0x9a74ee81290c6837!8m2!3d49.3837369!4d30.1905233!16s%2Fg%2F11bzr9mldj!19sChIJAQsfyx4B00ARN2gMKYHudJo?authuser=0&hl=tr&rclk=1",
    "website_url": "",
    "rating_text": "4,1",
    "stars": null,
    "number_of_reviews": null,
    "price_level": "",
    "open_hours": "",
    "extraction_timestamp": "2025-06-08T03:37:27.653Z",
    "source_name": "google",
    "source_query": "Irrigation Equipment",
    "source_country": "UA",
    "country": "Ukraine",
    "state": "Kyivska oblast",
    "city": "Stavyshche"
  },
  {
    "source_id": "ChIJ60XEpQbQ1EARVLf9IomIVYg",
    "name": "Poliv UA",
    "category": "Poliv UA",
    "formatted_address": "4,8(64)",
    "phone_number": "+380443379900",
    "source_url": "https://www.google.com/maps/place/Poliv+UA/data=!4m7!3m6!1s0x40d4d006a5c445eb:0x8855888922fdb754!8m2!3d50.4646434!4d30.6255633!16s%2Fg%2F11clsyjy7n!19sChIJ60XEpQbQ1EARVLf9IomIVYg?authuser=0&hl=tr&rclk=1",
    "website_url": "",
    "rating_text": "4,8",
    "stars": null,
    "number_of_reviews": null,
    "price_level": "",
    "open_hours": "",
    "extraction_timestamp": "2025-06-08T03:37:27.653Z",
    "source_name": "google",
    "source_query": "Irrigation Equipment",
    "source_country": "UA",
    "country": "Ukraine",
    "state": "Kyivska oblast",
    "city": "Stavyshche"
  },
  {
    "source_id": "ChIJ5TStzQwB00AR98TLcTViFwY",
    "name": "SPAR",
    "category": "SPAR",
    "formatted_address": "4,3(23)",
    "phone_number": "+380800501418",
    "source_url": "https://www.google.com/maps/place/SPAR/data=!4m7!3m6!1s0x40d3010ccdad34e5:0x617623571cbc4f7!8m2!3d49.3883894!4d30.1758542!16s%2Fg%2F11pkxpjg8w!19sChIJ5TStzQwB00AR98TLcTViFwY?authuser=0&hl=tr&rclk=1",
    "website_url": "",
    "rating_text": "4,3",
    "stars": null,
    "number_of_reviews": null,
    "price_level": "",
    "open_hours": "",
    "extraction_timestamp": "2025-06-08T03:37:27.654Z",
    "source_name": "google",
    "source_query": "Irrigation Equipment",
    "source_country": "UA",
    "country": "Ukraine",
    "state": "Kyivska oblast",
    "city": "Stavyshche"
  },
  {
    "source_id": "ChIJ1f2n0x4B00ARt6Geq8IJ16c",
    "name": "Русь",
    "category": "Русь",
    "formatted_address": "3,3(24)",
    "phone_number": "",
    "source_url": "https://www.google.com/maps/place/%D0%A0%D1%83%D1%81%D1%8C/data=!4m7!3m6!1s0x40d3011ed3a7fdd5:0xa7d709c2ab9ea1b7!8m2!3d49.3841767!4d30.1912167!16s%2Fg%2F11c1qw5p6b!19sChIJ1f2n0x4B00ARt6Geq8IJ16c?authuser=0&hl=tr&rclk=1",
    "website_url": "",
    "rating_text": "3,3",
    "stars": null,
    "number_of_reviews": null,
    "price_level": "",
    "open_hours": "",
    "extraction_timestamp": "2025-06-08T03:37:27.655Z",
    "source_name": "google",
    "source_query": "Irrigation Equipment",
    "source_country": "UA",
    "country": "Ukraine",
    "state": "Kyivska oblast",
    "city": "Stavyshche"
  },
  {
    "source_id": "ChIJJbecshoB00ARFil0Y7LVZD4",
    "name": "Ukrzoovetprompostach",
    "category": "Ukrzoovetprompostach",
    "formatted_address": "Veteriner İlaçları · Vul. Nezalezhnosti, 5/1Kapalı ⋅ Açılış saati: 10:00 · +380 4564 52534",
    "phone_number": "+380456452534",
    "source_url": "https://www.google.com/maps/place/Ukrzoovetprompostach/data=!4m7!3m6!1s0x40d3011ab29cb725:0x3e64d5b263742916!8m2!3d49.3866718!4d30.1899546!16s%2Fg%2F11g4f5m_vv!19sChIJJbecshoB00ARFil0Y7LVZD4?authuser=0&hl=tr&rclk=1",
    "website_url": "",
    "rating_text": "",
    "stars": null,
    "number_of_reviews": null,
    "price_level": "",
    "open_hours": "",
    "extraction_timestamp": "2025-06-08T03:37:27.656Z",
    "source_name": "google",
    "source_query": "Irrigation Equipment",
    "source_country": "UA",
    "country": "Ukraine",
    "state": "Kyivska oblast",
    "city": "Stavyshche"
  },
  {
    "source_id": "ChIJJyR11FYx00ARVhpEoXVREoI",
    "name": "Магазин іграшок \"Рукавичка\"",
    "category": "Магазин іграшок \"Рукавичка\"",
    "formatted_address": "5,0(6)",
    "phone_number": "+380676641400",
    "source_url": "https://www.google.com/maps/place/%D0%9C%D0%B0%D0%B3%D0%B0%D0%B7%D0%B8%D0%BD+%D1%96%D0%B3%D1%80%D0%B0%D1%88%D0%BE%D0%BA+%22%D0%A0%D1%83%D0%BA%D0%B0%D0%B2%D0%B8%D1%87%D0%BA%D0%B0%22/data=!4m7!3m6!1s0x40d33156d4752427:0x82125175a1441a56!8m2!3d49.3862595!4d30.189621!16s%2Fg%2F11sgkspk9_!19sChIJJyR11FYx00ARVhpEoXVREoI?authuser=0&hl=tr&rclk=1",
    "website_url": "",
    "rating_text": "5,0",
    "stars": null,
    "number_of_reviews": null,
    "price_level": "",
    "open_hours": "",
    "extraction_timestamp": "2025-06-08T03:37:27.657Z",
    "source_name": "google",
    "source_query": "Irrigation Equipment",
    "source_country": "UA",
    "country": "Ukraine",
    "state": "Kyivska oblast",
    "city": "Stavyshche"
  },
  {
    "source_id": "ChIJeQ6xzh4B00ARz9qClzVgQM0",
    "name": "Mini Pekarnya",
    "category": "Mini Pekarnya",
    "formatted_address": "4,4(5)",
    "phone_number": "",
    "source_url": "https://www.google.com/maps/place/Mini+Pekarnya/data=!4m7!3m6!1s0x40d3011eceb10e79:0xcd4060359782dacf!8m2!3d49.3837498!4d30.1910764!16s%2Fg%2F11f0kvkl20!19sChIJeQ6xzh4B00ARz9qClzVgQM0?authuser=0&hl=tr&rclk=1",
    "website_url": "",
    "rating_text": "4,4",
    "stars": null,
    "number_of_reviews": null,
    "price_level": "",
    "open_hours": "",
    "extraction_timestamp": "2025-06-08T03:37:27.657Z",
    "source_name": "google",
    "source_query": "Irrigation Equipment",
    "source_country": "UA",
    "country": "Ukraine",
    "state": "Kyivska oblast",
    "city": "Stavyshche"
  },
  {
    "source_id": "ChIJC7DEaQAB00ARNJ9ZIUMAkVQ",
    "name": "Аврора",
    "category": "Аврора",
    "formatted_address": "5,0(1)",
    "phone_number": "+380800300066",
    "source_url": "https://www.google.com/maps/place/%D0%90%D0%B2%D1%80%D0%BE%D1%80%D0%B0/data=!4m7!3m6!1s0x40d3010069c4b00b:0x5491004321599f34!8m2!3d49.387323!4d30.179826!16s%2Fg%2F11lyt3vfbm!19sChIJC7DEaQAB00ARNJ9ZIUMAkVQ?authuser=0&hl=tr&rclk=1",
    "website_url": "",
    "rating_text": "5,0",
    "stars": null,
    "number_of_reviews": null,
    "price_level": "",
    "open_hours": "",
    "extraction_timestamp": "2025-06-08T03:37:27.658Z",
    "source_name": "google",
    "source_query": "Irrigation Equipment",
    "source_country": "UA",
    "country": "Ukraine",
    "state": "Kyivska oblast",
    "city": "Stavyshche"
  },
  {
    "source_id": "ChIJ-fxIYAAB00ARoBk9WTCvxfE",
    "name": "CoffeeYok",
    "category": "CoffeeYok",
    "formatted_address": "4,5(30)",
    "phone_number": "+380662669520",
    "source_url": "https://www.google.com/maps/place/CoffeeYok/data=!4m7!3m6!1s0x40d301006048fcf9:0xf1c5af30593d19a0!8m2!3d49.3851934!4d30.190061!16s%2Fg%2F11y57mrznj!19sChIJ-fxIYAAB00ARoBk9WTCvxfE?authuser=0&hl=tr&rclk=1",
    "website_url": "",
    "rating_text": "4,5",
    "stars": null,
    "number_of_reviews": null,
    "price_level": "",
    "open_hours": "",
    "extraction_timestamp": "2025-06-08T03:37:27.658Z",
    "source_name": "google",
    "source_query": "Irrigation Equipment",
    "source_country": "UA",
    "country": "Ukraine",
    "state": "Kyivska oblast",
    "city": "Stavyshche"
  },
  {
    "source_id": "ChIJeyLySYQB00ARX2RuJvcVhOM",
    "name": "Avrora",
    "category": "Avrora",
    "formatted_address": "4,5(2)",
    "phone_number": "+380800300066",
    "source_url": "https://www.google.com/maps/place/Avrora/data=!4m7!3m6!1s0x40d3018449f2227b:0xe38415f7266e645f!8m2!3d49.385079!4d30.190454!16s%2Fg%2F11vxqtzlxg!19sChIJeyLySYQB00ARX2RuJvcVhOM?authuser=0&hl=tr&rclk=1",
    "website_url": "",
    "rating_text": "4,5",
    "stars": null,
    "number_of_reviews": null,
    "price_level": "",
    "open_hours": "",
    "extraction_timestamp": "2025-06-08T03:37:27.659Z",
    "source_name": "google",
    "source_query": "Irrigation Equipment",
    "source_country": "UA",
    "country": "Ukraine",
    "state": "Kyivska oblast",
    "city": "Stavyshche"
  },
  {
    "source_id": "ChIJ48RjdwAB00ARG9I5-v4_jxg",
    "name": "Магазин Andy",
    "category": "Магазин Andy",
    "formatted_address": "Mağaza · Vulytsya Serhiya Tsymbala, 26Kapalı ⋅ Açılış saati: 08:00",
    "phone_number": "",
    "source_url": "https://www.google.com/maps/place/%D0%9C%D0%B0%D0%B3%D0%B0%D0%B7%D0%B8%D0%BD+Andy/data=!4m7!3m6!1s0x40d301007763c4e3:0x188f3ffefa39d21b!8m2!3d49.3870278!4d30.1825903!16s%2Fg%2F11wq9q5k_0!19sChIJ48RjdwAB00ARG9I5-v4_jxg?authuser=0&hl=tr&rclk=1",
    "website_url": "",
    "rating_text": "",
    "stars": null,
    "number_of_reviews": null,
    "price_level": "",
    "open_hours": "",
    "extraction_timestamp": "2025-06-08T03:37:27.659Z",
    "source_name": "google",
    "source_query": "Irrigation Equipment",
    "source_country": "UA",
    "country": "Ukraine",
    "state": "Kyivska oblast",
    "city": "Stavyshche"
  },
  {
    "source_id": "ChIJ9cRoP9AB00ARIHTYpVrwI4c",
    "name": "Аптека «Бажаємо здоров'я»",
    "category": "Аптека «Бажаємо здоров'я»",
    "formatted_address": "4,8(5)",
    "phone_number": "+380673896254",
    "source_url": "https://www.google.com/maps/place/%D0%90%D0%BF%D1%82%D0%B5%D0%BA%D0%B0+%C2%AB%D0%91%D0%B0%D0%B6%D0%B0%D1%94%D0%BC%D0%BE+%D0%B7%D0%B4%D0%BE%D1%80%D0%BE%D0%B2%27%D1%8F%C2%BB/data=!4m7!3m6!1s0x40d301d03f68c4f5:0x8723f05aa5d87420!8m2!3d49.3880088!4d30.1755421!16s%2Fg%2F11vyq21rh5!19sChIJ9cRoP9AB00ARIHTYpVrwI4c?authuser=0&hl=tr&rclk=1",
    "website_url": "",
    "rating_text": "4,8",
    "stars": null,
    "number_of_reviews": null,
    "price_level": "",
    "open_hours": "",
    "extraction_timestamp": "2025-06-08T03:37:27.660Z",
    "source_name": "google",
    "source_query": "Irrigation Equipment",
    "source_country": "UA",
    "country": "Ukraine",
    "state": "Kyivska oblast",
    "city": "Stavyshche"
  },
  {
    "source_id": "ChIJF3HET6G61EARGuJc-pbCy4s",
    "name": "Бурение скважин в Киеве и области ЧП \"Любимцев\" STDM",
    "category": "Бурение скважин в Киеве и области ЧП \"Любимцев\" STDM",
    "formatted_address": "4,6(91)",
    "phone_number": "+380976209359",
    "source_url": "https://www.google.com/maps/place/%D0%91%D1%83%D1%80%D0%B5%D0%BD%D0%B8%D0%B5+%D1%81%D0%BA%D0%B2%D0%B0%D0%B6%D0%B8%D0%BD+%D0%B2+%D0%9A%D0%B8%D0%B5%D0%B2%D0%B5+%D0%B8+%D0%BE%D0%B1%D0%BB%D0%B0%D1%81%D1%82%D0%B8+%D0%A7%D0%9F+%22%D0%9B%D1%8E%D0%B1%D0%B8%D0%BC%D1%86%D0%B5%D0%B2%22+STDM/data=!4m7!3m6!1s0x40d4baa14fc47117:0x8bcbc296fa5ce21a!8m2!3d50.3761144!4d30.4586448!16s%2Fg%2F11hblkp7yt!19sChIJF3HET6G61EARGuJc-pbCy4s?authuser=0&hl=tr&rclk=1",
    "website_url": "",
    "rating_text": "4,6",
    "stars": null,
    "number_of_reviews": null,
    "price_level": "",
    "open_hours": "",
    "extraction_timestamp": "2025-06-08T03:37:27.661Z",
    "source_name": "google",
    "source_query": "Irrigation Equipment",
    "source_country": "UA",
    "country": "Ukraine",
    "state": "Kyivska oblast",
    "city": "Stavyshche"
  },
  {
    "source_id": "ChIJn9HnVTPL1EAR4di2zqeFqrc",
    "name": "Ландшафтна компанія Garden House",
    "category": "Ландшафтна компанія Garden House",
    "formatted_address": "4,6(67)",
    "phone_number": "+380995461100",
    "source_url": "https://www.google.com/maps/place/%D0%9B%D0%B0%D0%BD%D0%B4%D1%88%D0%B0%D1%84%D1%82%D0%BD%D0%B0+%D0%BA%D0%BE%D0%BC%D0%BF%D0%B0%D0%BD%D1%96%D1%8F+Garden+House/data=!4m7!3m6!1s0x40d4cb3355e7d19f:0xb7aa85a7ceb6d8e1!8m2!3d50.4364812!4d30.2859854!16s%2Fg%2F11b6d5j_72!19sChIJn9HnVTPL1EAR4di2zqeFqrc?authuser=0&hl=tr&rclk=1",
    "website_url": "",
    "rating_text": "4,6",
    "stars": null,
    "number_of_reviews": null,
    "price_level": "",
    "open_hours": "",
    "extraction_timestamp": "2025-06-08T03:37:27.661Z",
    "source_name": "google",
    "source_query": "Irrigation Equipment",
    "source_country": "UA",
    "country": "Ukraine",
    "state": "Kyivska oblast",
    "city": "Stavyshche"
  },
  {
    "source_id": "ChIJM6VAOVjI1EARInyqFZ8ENUU",
    "name": "Hazon Mayster",
    "category": "Hazon Mayster",
    "formatted_address": "5,0(13)",
    "phone_number": "+380503588967",
    "source_url": "https://www.google.com/maps/place/Hazon+Mayster/data=!4m7!3m6!1s0x40d4c8583940a533:0x4535049f15aa7c22!8m2!3d50.3744949!4d30.4632499!16s%2Fg%2F1hhwqhx1t!19sChIJM6VAOVjI1EARInyqFZ8ENUU?authuser=0&hl=tr&rclk=1",
    "website_url": "",
    "rating_text": "5,0",
    "stars": null,
    "number_of_reviews": null,
    "price_level": "",
    "open_hours": "",
    "extraction_timestamp": "2025-06-08T03:37:27.662Z",
    "source_name": "google",
    "source_query": "Irrigation Equipment",
    "source_country": "UA",
    "country": "Ukraine",
    "state": "Kyivska oblast",
    "city": "Stavyshche"
  },
  {
    "source_id": "ChIJMz28ANHL1EARyBdtJKLMzhk",
    "name": "Водяной теплый пол",
    "category": "Водяной теплый пол",
    "formatted_address": "4,9(35)",
    "phone_number": "+380967972497",
    "source_url": "https://www.google.com/maps/place/%D0%92%D0%BE%D0%B4%D1%8F%D0%BD%D0%BE%D0%B9+%D1%82%D0%B5%D0%BF%D0%BB%D1%8B%D0%B9+%D0%BF%D0%BE%D0%BB/data=!4m7!3m6!1s0x40d4cbd100bc3d33:0x19cecca2246d17c8!8m2!3d50.3992431!4d30.3842827!16s%2Fg%2F11hb72dnwk!19sChIJMz28ANHL1EARyBdtJKLMzhk?authuser=0&hl=tr&rclk=1",
    "website_url": "",
    "rating_text": "4,9",
    "stars": null,
    "number_of_reviews": null,
    "price_level": "",
    "open_hours": "",
    "extraction_timestamp": "2025-06-08T03:37:27.662Z",
    "source_name": "google",
    "source_query": "Irrigation Equipment",
    "source_country": "UA",
    "country": "Ukraine",
    "state": "Kyivska oblast",
    "city": "Stavyshche"
  },
  {
    "source_id": "ChIJP9ybKIfO1EARlSRW6NroOQ4",
    "name": "Септик kiev - автономная канализация и септики",
    "category": "Септик kiev - автономная канализация и септики",
    "formatted_address": "4,4(34)",
    "phone_number": "+380673190252",
    "source_url": "https://www.google.com/maps/place/%D0%A1%D0%B5%D0%BF%D1%82%D0%B8%D0%BA+kiev+-+%D0%B0%D0%B2%D1%82%D0%BE%D0%BD%D0%BE%D0%BC%D0%BD%D0%B0%D1%8F+%D0%BA%D0%B0%D0%BD%D0%B0%D0%BB%D0%B8%D0%B7%D0%B0%D1%86%D0%B8%D1%8F+%D0%B8+%D1%81%D0%B5%D0%BF%D1%82%D0%B8%D0%BA%D0%B8/data=!4m7!3m6!1s0x40d4ce87289bdc3f:0xe39e8dae8562495!8m2!3d50.4530665!4d30.4740385!16s%2Fg%2F11c54c78qg!19sChIJP9ybKIfO1EARlSRW6NroOQ4?authuser=0&hl=tr&rclk=1",
    "website_url": "",
    "rating_text": "4,4",
    "stars": null,
    "number_of_reviews": null,
    "price_level": "",
    "open_hours": "",
    "extraction_timestamp": "2025-06-08T03:37:27.663Z",
    "source_name": "google",
    "source_query": "Irrigation Equipment",
    "source_country": "UA",
    "country": "Ukraine",
    "state": "Kyivska oblast",
    "city": "Stavyshche"
  },
  {
    "source_id": "ChIJ5xKVZebN1EARHjETGuuUr1M",
    "name": "Акваторія - Інженерно-геологічна компанія",
    "category": "Акваторія - Інженерно-геологічна компанія",
    "formatted_address": "4,8(195)",
    "phone_number": "+380977001010",
    "source_url": "https://www.google.com/maps/place/%D0%90%D0%BA%D0%B2%D0%B0%D1%82%D0%BE%D1%80%D1%96%D1%8F+-+%D0%86%D0%BD%D0%B6%D0%B5%D0%BD%D0%B5%D1%80%D0%BD%D0%BE-%D0%B3%D0%B5%D0%BE%D0%BB%D0%BE%D0%B3%D1%96%D1%87%D0%BD%D0%B0+%D0%BA%D0%BE%D0%BC%D0%BF%D0%B0%D0%BD%D1%96%D1%8F/data=!4m7!3m6!1s0x40d4cde6659512e7:0x53af94eb1a13311e!8m2!3d50.481647!4d30.4815991!16s%2Fg%2F11cmt0slhb!19sChIJ5xKVZebN1EARHjETGuuUr1M?authuser=0&hl=tr&rclk=1",
    "website_url": "",
    "rating_text": "4,8",
    "stars": null,
    "number_of_reviews": null,
    "price_level": "",
    "open_hours": "",
    "extraction_timestamp": "2025-06-08T03:37:27.663Z",
    "source_name": "google",
    "source_query": "Irrigation Equipment",
    "source_country": "UA",
    "country": "Ukraine",
    "state": "Kyivska oblast",
    "city": "Stavyshche"
  },
  {
    "source_id": "ChIJiWgZtIrD1EARErWtm6ne4SI",
    "name": "Укрспецарматура - Трубопровідна арматура",
    "category": "Укрспецарматура - Трубопровідна арматура",
    "formatted_address": "4,9(51)",
    "phone_number": "+380674731991",
    "source_url": "https://www.google.com/maps/place/%D0%A3%D0%BA%D1%80%D1%81%D0%BF%D0%B5%D1%86%D0%B0%D1%80%D0%BC%D0%B0%D1%82%D1%83%D1%80%D0%B0+-+%D0%A2%D1%80%D1%83%D0%B1%D0%BE%D0%BF%D1%80%D0%BE%D0%B2%D1%96%D0%B4%D0%BD%D0%B0+%D0%B0%D1%80%D0%BC%D0%B0%D1%82%D1%83%D1%80%D0%B0/data=!4m7!3m6!1s0x40d4c38ab4196889:0x22e1dea99badb512!8m2!3d50.3674604!4d30.6780966!16s%2Fg%2F11q1dh1x_2!19sChIJiWgZtIrD1EARErWtm6ne4SI?authuser=0&hl=tr&rclk=1",
    "website_url": "",
    "rating_text": "4,9",
    "stars": null,
    "number_of_reviews": null,
    "price_level": "",
    "open_hours": "",
    "extraction_timestamp": "2025-06-08T03:37:27.664Z",
    "source_name": "google",
    "source_query": "Irrigation Equipment",
    "source_country": "UA",
    "country": "Ukraine",
    "state": "Kyivska oblast",
    "city": "Stavyshche"
  },
  {
    "source_id": "ChIJn-d47iNV00ARU9xVc3Jn5kw",
    "name": "Агросвіт магазин насіння, добрив та засобів захисту рослин у Юнака",
    "category": "Агросвіт магазин насіння, добрив та засобів захисту рослин у Юнака",
    "formatted_address": "Агросвіт магазин насіння, добрив та засобів захисту рослин у Юнака",
    "phone_number": "+380972391155",
    "source_url": "https://www.google.com/maps/place/%D0%90%D0%B3%D1%80%D0%BE%D1%81%D0%B2%D1%96%D1%82+%D0%BC%D0%B0%D0%B3%D0%B0%D0%B7%D0%B8%D0%BD+%D0%BD%D0%B0%D1%81%D1%96%D0%BD%D0%BD%D1%8F,+%D0%B4%D0%BE%D0%B1%D1%80%D0%B8%D0%B2+%D1%82%D0%B0+%D0%B7%D0%B0%D1%81%D0%BE%D0%B1%D1%96%D0%B2+%D0%B7%D0%B0%D1%85%D0%B8%D1%81%D1%82%D1%83+%D1%80%D0%BE%D1%81%D0%BB%D0%B8%D0%BD+%D1%83+%D0%AE%D0%BD%D0%B0%D0%BA%D0%B0/data=!4m7!3m6!1s0x40d35523ee78e79f:0x4ce667727355dc53!8m2!3d50.0778089!4d29.911051!16s%2Fg%2F11rcfdp11k!19sChIJn-d47iNV00ARU9xVc3Jn5kw?authuser=0&hl=tr&rclk=1",
    "website_url": "",
    "rating_text": "5,0",
    "stars": null,
    "number_of_reviews": null,
    "price_level": "",
    "open_hours": "",
    "extraction_timestamp": "2025-06-08T03:37:27.665Z",
    "source_name": "google",
    "source_query": "Irrigation Equipment",
    "source_country": "UA",
    "country": "Ukraine",
    "state": "Kyivska oblast",
    "city": "Stavyshche"
  },
  {
    "source_id": "ChIJf4jHN1LM1EARBkfaDZQGDTw",
    "name": "Dr. Sprinkler",
    "category": "Dr. Sprinkler",
    "formatted_address": "4,8(4)",
    "phone_number": "+380965335353",
    "source_url": "https://www.google.com/maps/place/Dr.+Sprinkler/data=!4m7!3m6!1s0x40d4cc5237c7887f:0x3c0d06940dda4706!8m2!3d50.4105845!4d30.558873!16s%2Fg%2F1q6j9h1m6!19sChIJf4jHN1LM1EARBkfaDZQGDTw?authuser=0&hl=tr&rclk=1",
    "website_url": "",
    "rating_text": "4,8",
    "stars": null,
    "number_of_reviews": null,
    "price_level": "",
    "open_hours": "",
    "extraction_timestamp": "2025-06-08T03:37:27.666Z",
    "source_name": "google",
    "source_query": "Irrigation Equipment",
    "source_country": "UA",
    "country": "Ukraine",
    "state": "Kyivska oblast",
    "city": "Stavyshche"
  },
  {
    "source_id": "ChIJga88JVVD00ARcp5Bi26Iv8M",
    "name": "Послуги екскаватора Перевозка зерна Зерновоз",
    "category": "Послуги екскаватора Перевозка зерна Зерновоз",
    "formatted_address": "5,0(5)",
    "phone_number": "+380678995050",
    "source_url": "https://www.google.com/maps/place/%D0%9F%D0%BE%D1%81%D0%BB%D1%83%D0%B3%D0%B8+%D0%B5%D0%BA%D1%81%D0%BA%D0%B0%D0%B2%D0%B0%D1%82%D0%BE%D1%80%D0%B0+%D0%9F%D0%B5%D1%80%D0%B5%D0%B2%D0%BE%D0%B7%D0%BA%D0%B0+%D0%B7%D0%B5%D1%80%D0%BD%D0%B0+%D0%97%D0%B5%D1%80%D0%BD%D0%BE%D0%B2%D0%BE%D0%B7/data=!4m7!3m6!1s0x40d34355253caf81:0xc3bf886e8b419e72!8m2!3d49.8239963!4d30.1149024!16s%2Fg%2F11fv1j04m6!19sChIJga88JVVD00ARcp5Bi26Iv8M?authuser=0&hl=tr&rclk=1",
    "website_url": "",
    "rating_text": "5,0",
    "stars": null,
    "number_of_reviews": null,
    "price_level": "",
    "open_hours": "",
    "extraction_timestamp": "2025-06-08T03:37:27.667Z",
    "source_name": "google",
    "source_query": "Irrigation Equipment",
    "source_country": "UA",
    "country": "Ukraine",
    "state": "Kyivska oblast",
    "city": "Stavyshche"
  },
  {
    "source_id": "ChIJ-1RC-x_J1EARORXzfxD2K08",
    "name": "Pivdyuyma Na Teremkakh",
    "category": "Pivdyuyma Na Teremkakh",
    "formatted_address": "4,7(53)",
    "phone_number": "+380682030303",
    "source_url": "https://www.google.com/maps/place/Pivdyuyma+Na+Teremkakh/data=!4m7!3m6!1s0x40d4c91ffb4254fb:0x4f2bf6107ff31539!8m2!3d50.3899122!4d30.4652596!16s%2Fg%2F12lrvg12k!19sChIJ-1RC-x_J1EARORXzfxD2K08?authuser=0&hl=tr&rclk=1",
    "website_url": "",
    "rating_text": "4,7",
    "stars": null,
    "number_of_reviews": null,
    "price_level": "",
    "open_hours": "",
    "extraction_timestamp": "2025-06-08T03:37:27.668Z",
    "source_name": "google",
    "source_query": "Irrigation Equipment",
    "source_country": "UA",
    "country": "Ukraine",
    "state": "Kyivska oblast",
    "city": "Stavyshche"
  },
  {
    "source_id": "ChIJw2WQ26nN1EARR4PP1yU0__Y",
    "name": "Садовий Центр Пісардi",
    "category": "Садовий Центр Пісардi",
    "formatted_address": "4,7(294)",
    "phone_number": "+380989255556",
    "source_url": "https://www.google.com/maps/place/%D0%A1%D0%B0%D0%B4%D0%BE%D0%B2%D0%B8%D0%B9+%D0%A6%D0%B5%D0%BD%D1%82%D1%80+%D0%9F%D1%96%D1%81%D0%B0%D1%80%D0%B4i/data=!4m7!3m6!1s0x40d4cda9db9065c3:0xf6ff3425d7cf8347!8m2!3d50.504339!4d30.1888321!16s%2Fg%2F11c575jgrm!19sChIJw2WQ26nN1EARR4PP1yU0__Y?authuser=0&hl=tr&rclk=1",
    "website_url": "",
    "rating_text": "4,7",
    "stars": null,
    "number_of_reviews": null,
    "price_level": "",
    "open_hours": "",
    "extraction_timestamp": "2025-06-08T03:37:27.669Z",
    "source_name": "google",
    "source_query": "Irrigation Equipment",
    "source_country": "UA",
    "country": "Ukraine",
    "state": "Kyivska oblast",
    "city": "Stavyshche"
  }
]
