[
  {
    "source_id": "ChIJY6oV5iOh00ARj6Vq-e_vLc4",
    "name": "Магазин Майстер",
    "category": "Магазин Майстер",
    "formatted_address": "5,0(1)",
    "phone_number": "+380674475688",
    "source_url": "https://www.google.com/maps/place/%D0%9C%D0%B0%D0%B3%D0%B0%D0%B7%D0%B8%D0%BD+%D0%9C%D0%B0%D0%B9%D1%81%D1%82%D0%B5%D1%80/data=!4m7!3m6!1s0x40d3a123e615aa63:0xce2defeff96aa58f!8m2!3d49.5590206!4d30.5048658!16s%2Fg%2F11xfpx3cj9!19sChIJY6oV5iOh00ARj6Vq-e_vLc4?authuser=0&hl=tr&rclk=1",
    "website_url": "",
    "rating_text": "5,0",
    "stars": null,
    "number_of_reviews": null,
    "price_level": "",
    "open_hours": "",
    "extraction_timestamp": "2025-06-08T03:25:12.775Z",
    "source_name": "google",
    "source_query": "Irrigation Equipment",
    "source_country": "UA",
    "country": "Ukraine",
    "state": "Kyivska oblast",
    "city": "Tarashcha"
  },
  {
    "source_id": "ChIJey4OF6Ch00ARuj_3U-ClY3Y",
    "name": "Avto I Silʹhosp Zapchastyny",
    "category": "Avto I Silʹhosp Zapchastyny",
    "formatted_address": "5,0(2)",
    "phone_number": "+380967905132",
    "source_url": "https://www.google.com/maps/place/Avto+I+Sil%CA%B9hosp+Zapchastyny/data=!4m7!3m6!1s0x40d3a1a0170e2e7b:0x7663a5e053f73fba!8m2!3d49.5651653!4d30.5070759!16s%2Fg%2F11wwfw5g28!19sChIJey4OF6Ch00ARuj_3U-ClY3Y?authuser=0&hl=tr&rclk=1",
    "website_url": "",
    "rating_text": "5,0",
    "stars": null,
    "number_of_reviews": null,
    "price_level": "",
    "open_hours": "",
    "extraction_timestamp": "2025-06-08T03:25:12.807Z",
    "source_name": "google",
    "source_query": "Irrigation Equipment",
    "source_country": "UA",
    "country": "Ukraine",
    "state": "Kyivska oblast",
    "city": "Tarashcha"
  },
  {
    "source_id": "ChIJ1SA6Be2h00AR1fg6ERivntw",
    "name": "Все для дому",
    "category": "Все для дому",
    "formatted_address": "5,0(3)",
    "phone_number": "",
    "source_url": "https://www.google.com/maps/place/%D0%92%D1%81%D0%B5+%D0%B4%D0%BB%D1%8F+%D0%B4%D0%BE%D0%BC%D1%83/data=!4m7!3m6!1s0x40d3a1ed053a20d5:0xdc9eaf18113af8d5!8m2!3d49.5607021!4d30.5036835!16s%2Fg%2F11nmt6k9sm!19sChIJ1SA6Be2h00AR1fg6ERivntw?authuser=0&hl=tr&rclk=1",
    "website_url": "",
    "rating_text": "5,0",
    "stars": null,
    "number_of_reviews": null,
    "price_level": "",
    "open_hours": "",
    "extraction_timestamp": "2025-06-08T03:25:12.809Z",
    "source_name": "google",
    "source_query": "Irrigation Equipment",
    "source_country": "UA",
    "country": "Ukraine",
    "state": "Kyivska oblast",
    "city": "Tarashcha"
  },
  {
    "source_id": "ChIJF_3zJYig00ARYDoN1LAzz8M",
    "name": "Internet-Mahazyn Uspishnyy Vybir",
    "category": "Internet-Mahazyn Uspishnyy Vybir",
    "formatted_address": "4,1(58)",
    "phone_number": "+380978139764",
    "source_url": "https://www.google.com/maps/place/Internet-Mahazyn+Uspishnyy+Vybir/data=!4m7!3m6!1s0x40d3a08825f3fd17:0xc3cf33b0d40d3a60!8m2!3d49.5572699!4d30.4997235!16s%2Fg%2F11cmds8rx_!19sChIJF_3zJYig00ARYDoN1LAzz8M?authuser=0&hl=tr&rclk=1",
    "website_url": "",
    "rating_text": "4,1",
    "stars": null,
    "number_of_reviews": null,
    "price_level": "",
    "open_hours": "",
    "extraction_timestamp": "2025-06-08T03:25:12.810Z",
    "source_name": "google",
    "source_query": "Irrigation Equipment",
    "source_country": "UA",
    "country": "Ukraine",
    "state": "Kyivska oblast",
    "city": "Tarashcha"
  },
  {
    "source_id": "ChIJbc60sFqh00ARjAaDW0zO0C0",
    "name": "Trash",
    "category": "Trash",
    "formatted_address": "5,0(1)",
    "phone_number": "",
    "source_url": "https://www.google.com/maps/place/Trash/data=!4m7!3m6!1s0x40d3a15ab0b4ce6d:0x2dd0ce4c5b83068c!8m2!3d49.554935!4d30.5027813!16s%2Fg%2F11vc57yv8j!19sChIJbc60sFqh00ARjAaDW0zO0C0?authuser=0&hl=tr&rclk=1",
    "website_url": "",
    "rating_text": "5,0",
    "stars": null,
    "number_of_reviews": null,
    "price_level": "",
    "open_hours": "",
    "extraction_timestamp": "2025-06-08T03:25:12.811Z",
    "source_name": "google",
    "source_query": "Irrigation Equipment",
    "source_country": "UA",
    "country": "Ukraine",
    "state": "Kyivska oblast",
    "city": "Tarashcha"
  },
  {
    "source_id": "ChIJ3fY-526bw0AREQd61gXWh_A",
    "name": "TerraTarsa Ukraine LLC",
    "category": "TerraTarsa Ukraine LLC",
    "formatted_address": "4,6(75)",
    "phone_number": "+380668900934",
    "source_url": "https://www.google.com/maps/place/TerraTarsa+Ukraine+LLC/data=!4m7!3m6!1s0x40c39b6ee73ef6dd:0xf087d605d67a0711!8m2!3d46.4126419!4d30.7248396!16s%2Fg%2F11cmp9scd1!19sChIJ3fY-526bw0AREQd61gXWh_A?authuser=0&hl=tr&rclk=1",
    "website_url": "",
    "rating_text": "4,6",
    "stars": null,
    "number_of_reviews": null,
    "price_level": "",
    "open_hours": "",
    "extraction_timestamp": "2025-06-08T03:25:12.812Z",
    "source_name": "google",
    "source_query": "Irrigation Equipment",
    "source_country": "UA",
    "country": "Ukraine",
    "state": "Kyivska oblast",
    "city": "Tarashcha"
  },
  {
    "source_id": "ChIJlzHycXKg00ARTtokK19jiPs",
    "name": "Basketful",
    "category": "Basketful",
    "formatted_address": "4,1(75)",
    "phone_number": "+380661084776",
    "source_url": "https://www.google.com/maps/place/Basketful/data=!4m7!3m6!1s0x40d3a07271f23197:0xfb88635f2b24da4e!8m2!3d49.5618394!4d30.5053573!16s%2Fg%2F11c5309901!19sChIJlzHycXKg00ARTtokK19jiPs?authuser=0&hl=tr&rclk=1",
    "website_url": "",
    "rating_text": "4,1",
    "stars": null,
    "number_of_reviews": null,
    "price_level": "",
    "open_hours": "",
    "extraction_timestamp": "2025-06-08T03:25:12.814Z",
    "source_name": "google",
    "source_query": "Irrigation Equipment",
    "source_country": "UA",
    "country": "Ukraine",
    "state": "Kyivska oblast",
    "city": "Tarashcha"
  },
  {
    "source_id": "ChIJe-DBeaeh00ARFoGUqzUJAvk",
    "name": "Avtomahazyn Olimp Avto",
    "category": "Avtomahazyn Olimp Avto",
    "formatted_address": "5,0(9)",
    "phone_number": "+380955358218",
    "source_url": "https://www.google.com/maps/place/Avtomahazyn+Olimp+Avto/data=!4m7!3m6!1s0x40d3a1a779c1e07b:0xf9020935ab948116!8m2!3d49.5664653!4d30.5082458!16s%2Fg%2F11rbyt79hd!19sChIJe-DBeaeh00ARFoGUqzUJAvk?authuser=0&hl=tr&rclk=1",
    "website_url": "",
    "rating_text": "5,0",
    "stars": null,
    "number_of_reviews": null,
    "price_level": "",
    "open_hours": "",
    "extraction_timestamp": "2025-06-08T03:25:12.816Z",
    "source_name": "google",
    "source_query": "Irrigation Equipment",
    "source_country": "UA",
    "country": "Ukraine",
    "state": "Kyivska oblast",
    "city": "Tarashcha"
  },
  {
    "source_id": "ChIJ8V9VdgCh00ARhnEB09YdpDk",
    "name": "Resurs",
    "category": "Resurs",
    "formatted_address": "1,0(1)",
    "phone_number": "",
    "source_url": "https://www.google.com/maps/place/Resurs/data=!4m7!3m6!1s0x40d3a10076555ff1:0x39a41dd6d3017186!8m2!3d49.5609768!4d30.5034702!16s%2Fg%2F11y3ptnyh_!19sChIJ8V9VdgCh00ARhnEB09YdpDk?authuser=0&hl=tr&rclk=1",
    "website_url": "",
    "rating_text": "1,0",
    "stars": null,
    "number_of_reviews": null,
    "price_level": "",
    "open_hours": "",
    "extraction_timestamp": "2025-06-08T03:25:12.816Z",
    "source_name": "google",
    "source_query": "Irrigation Equipment",
    "source_country": "UA",
    "country": "Ukraine",
    "state": "Kyivska oblast",
    "city": "Tarashcha"
  },
  {
    "source_id": "ChIJ7e0SgHKg00ARPY9BkbmHinI",
    "name": "Фора",
    "category": "Фора",
    "formatted_address": "4,0(343)",
    "phone_number": "+380800301230",
    "source_url": "https://www.google.com/maps/place/%D0%A4%D0%BE%D1%80%D0%B0/data=!4m7!3m6!1s0x40d3a0728012eded:0x728a87b991418f3d!8m2!3d49.5619641!4d30.5069967!16s%2Fg%2F11c0rp08f1!19sChIJ7e0SgHKg00ARPY9BkbmHinI?authuser=0&hl=tr&rclk=1",
    "website_url": "",
    "rating_text": "4,0",
    "stars": null,
    "number_of_reviews": null,
    "price_level": "",
    "open_hours": "",
    "extraction_timestamp": "2025-06-08T03:25:12.817Z",
    "source_name": "google",
    "source_query": "Irrigation Equipment",
    "source_country": "UA",
    "country": "Ukraine",
    "state": "Kyivska oblast",
    "city": "Tarashcha"
  },
  {
    "source_id": "ChIJzwt2wWOg00AR7msm7_POmTc",
    "name": "Сенат",
    "category": "Сенат",
    "formatted_address": "3,3(66)",
    "phone_number": "",
    "source_url": "https://www.google.com/maps/place/%D0%A1%D0%B5%D0%BD%D0%B0%D1%82/data=!4m7!3m6!1s0x40d3a063c1760bcf:0x3799cef3ef266bee!8m2!3d49.5488151!4d30.498927!16s%2Fg%2F11dx8r3f23!19sChIJzwt2wWOg00AR7msm7_POmTc?authuser=0&hl=tr&rclk=1",
    "website_url": "",
    "rating_text": "3,3",
    "stars": null,
    "number_of_reviews": null,
    "price_level": "",
    "open_hours": "",
    "extraction_timestamp": "2025-06-08T03:25:12.818Z",
    "source_name": "google",
    "source_query": "Irrigation Equipment",
    "source_country": "UA",
    "country": "Ukraine",
    "state": "Kyivska oblast",
    "city": "Tarashcha"
  },
  {
    "source_id": "ChIJp_wvKW6g00ARAL_yuc8j1RM",
    "name": "Shans",
    "category": "Shans",
    "formatted_address": "3,6(47)",
    "phone_number": "",
    "source_url": "https://www.google.com/maps/place/Shans/data=!4m7!3m6!1s0x40d3a06e292ffca7:0x13d523cfb9f2bf00!8m2!3d49.5577365!4d30.5022653!16s%2Fg%2F11c52lqq1s!19sChIJp_wvKW6g00ARAL_yuc8j1RM?authuser=0&hl=tr&rclk=1",
    "website_url": "",
    "rating_text": "3,6",
    "stars": null,
    "number_of_reviews": null,
    "price_level": "",
    "open_hours": "",
    "extraction_timestamp": "2025-06-08T03:25:12.819Z",
    "source_name": "google",
    "source_query": "Irrigation Equipment",
    "source_country": "UA",
    "country": "Ukraine",
    "state": "Kyivska oblast",
    "city": "Tarashcha"
  },
  {
    "source_id": "ChIJyR8lcEGh00AREppflays_qg",
    "name": "Наша Ряба",
    "category": "Наша Ряба",
    "formatted_address": "5,0(1)",
    "phone_number": "+380800500001",
    "source_url": "https://www.google.com/maps/place/%D0%9D%D0%B0%D1%88%D0%B0+%D0%A0%D1%8F%D0%B1%D0%B0/data=!4m7!3m6!1s0x40d3a14170251fc9:0xa8feacac955f9a12!8m2!3d49.5563243!4d30.50278!16s%2Fg%2F11jprfct8d!19sChIJyR8lcEGh00AREppflays_qg?authuser=0&hl=tr&rclk=1",
    "website_url": "",
    "rating_text": "5,0",
    "stars": null,
    "number_of_reviews": null,
    "price_level": "",
    "open_hours": "",
    "extraction_timestamp": "2025-06-08T03:25:12.820Z",
    "source_name": "google",
    "source_query": "Irrigation Equipment",
    "source_country": "UA",
    "country": "Ukraine",
    "state": "Kyivska oblast",
    "city": "Tarashcha"
  },
  {
    "source_id": "ChIJf0uRsruh00ARpsJB664LoqQ",
    "name": "Nasha Ryaba",
    "category": "Nasha Ryaba",
    "formatted_address": "Kasap · Ринок, місце 110, Heroiv Nebesnoi Sotni St, 19Açık ⋅ Kapanış saati: 14:00 · +380 800 500 001",
    "phone_number": "+380800500001",
    "source_url": "https://www.google.com/maps/place/Nasha+Ryaba/data=!4m7!3m6!1s0x40d3a1bbb2914b7f:0xa4a20baeeb41c2a6!8m2!3d49.5610405!4d30.494603!16s%2Fg%2F11hrdmn201!19sChIJf0uRsruh00ARpsJB664LoqQ?authuser=0&hl=tr&rclk=1",
    "website_url": "",
    "rating_text": "",
    "stars": null,
    "number_of_reviews": null,
    "price_level": "",
    "open_hours": "",
    "extraction_timestamp": "2025-06-08T03:25:12.821Z",
    "source_name": "google",
    "source_query": "Irrigation Equipment",
    "source_country": "UA",
    "country": "Ukraine",
    "state": "Kyivska oblast",
    "city": "Tarashcha"
  },
  {
    "source_id": "ChIJ6QMjOwCh00AR_DA76_g1a6c",
    "name": "Budivelʹnyy Sklad Mahazyn Tsentralʹnyy",
    "category": "Budivelʹnyy Sklad Mahazyn Tsentralʹnyy",
    "formatted_address": "Nalbur · Vul. Sikevycha Volodymyra, 48",
    "phone_number": "",
    "source_url": "https://www.google.com/maps/place/Budivel%CA%B9nyy+Sklad+Mahazyn+Tsentral%CA%B9nyy/data=!4m7!3m6!1s0x40d3a1003b2303e9:0xa76b35f8eb3b30fc!8m2!3d49.5578586!4d30.4942072!16s%2Fg%2F11wn6sdq7h!19sChIJ6QMjOwCh00AR_DA76_g1a6c?authuser=0&hl=tr&rclk=1",
    "website_url": "",
    "rating_text": "",
    "stars": null,
    "number_of_reviews": null,
    "price_level": "",
    "open_hours": "",
    "extraction_timestamp": "2025-06-08T03:25:12.821Z",
    "source_name": "google",
    "source_query": "Irrigation Equipment",
    "source_country": "UA",
    "country": "Ukraine",
    "state": "Kyivska oblast",
    "city": "Tarashcha"
  },
  {
    "source_id": "ChIJEVaNpY2h00ARkQS26iny8qg",
    "name": "Absolyut 2",
    "category": "Absolyut 2",
    "formatted_address": "5,0(1)",
    "phone_number": "",
    "source_url": "https://www.google.com/maps/place/Absolyut+2/data=!4m7!3m6!1s0x40d3a18da58d5611:0xa8f2f229eab60491!8m2!3d49.5593168!4d30.498609!16s%2Fg%2F11l5d0qk12!19sChIJEVaNpY2h00ARkQS26iny8qg?authuser=0&hl=tr&rclk=1",
    "website_url": "",
    "rating_text": "5,0",
    "stars": null,
    "number_of_reviews": null,
    "price_level": "",
    "open_hours": "",
    "extraction_timestamp": "2025-06-08T03:25:12.821Z",
    "source_name": "google",
    "source_query": "Irrigation Equipment",
    "source_country": "UA",
    "country": "Ukraine",
    "state": "Kyivska oblast",
    "city": "Tarashcha"
  },
  {
    "source_id": "ChIJO0y6nLeh00ARhg0TrHyKdec",
    "name": "Укрзооветпромпостач",
    "category": "Укрзооветпромпостач",
    "formatted_address": "1,0(1)",
    "phone_number": "+380456651189",
    "source_url": "https://www.google.com/maps/place/%D0%A3%D0%BA%D1%80%D0%B7%D0%BE%D0%BE%D0%B2%D0%B5%D1%82%D0%BF%D1%80%D0%BE%D0%BC%D0%BF%D0%BE%D1%81%D1%82%D0%B0%D1%87/data=!4m7!3m6!1s0x40d3a1b79cba4c3b:0xe7758a7cac130d86!8m2!3d49.5619951!4d30.4973909!16s%2Fg%2F11gmbxyd1f!19sChIJO0y6nLeh00ARhg0TrHyKdec?authuser=0&hl=tr&rclk=1",
    "website_url": "",
    "rating_text": "1,0",
    "stars": null,
    "number_of_reviews": null,
    "price_level": "",
    "open_hours": "",
    "extraction_timestamp": "2025-06-08T03:25:12.823Z",
    "source_name": "google",
    "source_query": "Irrigation Equipment",
    "source_country": "UA",
    "country": "Ukraine",
    "state": "Kyivska oblast",
    "city": "Tarashcha"
  },
  {
    "source_id": "ChIJe4U2Ihyh00ARLDV-mp_jBas",
    "name": "Beer House",
    "category": "Beer House",
    "formatted_address": "3,7(3)",
    "phone_number": "",
    "source_url": "https://www.google.com/maps/place/Beer+House/data=!4m7!3m6!1s0x40d3a11c2236857b:0xab05e39f9a7e352c!8m2!3d49.5544506!4d30.5040056!16s%2Fg%2F11q1glj7h4!19sChIJe4U2Ihyh00ARLDV-mp_jBas?authuser=0&hl=tr&rclk=1",
    "website_url": "",
    "rating_text": "3,7",
    "stars": null,
    "number_of_reviews": null,
    "price_level": "",
    "open_hours": "",
    "extraction_timestamp": "2025-06-08T03:25:12.823Z",
    "source_name": "google",
    "source_query": "Irrigation Equipment",
    "source_country": "UA",
    "country": "Ukraine",
    "state": "Kyivska oblast",
    "city": "Tarashcha"
  },
  {
    "source_id": "ChIJSUMk9kWh00ARaI7OVv6O-aw",
    "name": "Mahazyn \"Kum\"",
    "category": "Mahazyn \"Kum\"",
    "formatted_address": "3,5(4)",
    "phone_number": "",
    "source_url": "https://www.google.com/maps/place/Mahazyn+%22Kum%22/data=!4m7!3m6!1s0x40d3a145f6244349:0xacf98efe56ce8e68!8m2!3d49.5622006!4d30.4961539!16s%2Fg%2F11gr3rs64v!19sChIJSUMk9kWh00ARaI7OVv6O-aw?authuser=0&hl=tr&rclk=1",
    "website_url": "",
    "rating_text": "3,5",
    "stars": null,
    "number_of_reviews": null,
    "price_level": "",
    "open_hours": "",
    "extraction_timestamp": "2025-06-08T03:25:12.824Z",
    "source_name": "google",
    "source_query": "Irrigation Equipment",
    "source_country": "UA",
    "country": "Ukraine",
    "state": "Kyivska oblast",
    "city": "Tarashcha"
  },
  {
    "source_id": "ChIJ1d-NiG-g00AR2dK3PakiCNc",
    "name": "EVA",
    "category": "EVA",
    "formatted_address": "4,4(214)",
    "phone_number": "+380800303700",
    "source_url": "https://www.google.com/maps/place/EVA/data=!4m7!3m6!1s0x40d3a06f888ddfd5:0xd70822a93db7d2d9!8m2!3d49.5550881!4d30.5025215!16s%2Fg%2F11c52l6hvx!19sChIJ1d-NiG-g00AR2dK3PakiCNc?authuser=0&hl=tr&rclk=1",
    "website_url": "",
    "rating_text": "4,4",
    "stars": null,
    "number_of_reviews": null,
    "price_level": "",
    "open_hours": "",
    "extraction_timestamp": "2025-06-08T03:25:12.825Z",
    "source_name": "google",
    "source_query": "Irrigation Equipment",
    "source_country": "UA",
    "country": "Ukraine",
    "state": "Kyivska oblast",
    "city": "Tarashcha"
  },
  {
    "source_id": "ChIJC60MDqHL1EARTW2Ay3GDw-I",
    "name": "Ekoservis. Baseyny, Obladnannya, Khimiya",
    "category": "Ekoservis. Baseyny, Obladnannya, Khimiya",
    "formatted_address": "Ekoservis. Baseyny, Obladnannya, Khimiya",
    "phone_number": "+380981119984",
    "source_url": "https://www.google.com/maps/place/Ekoservis.+Baseyny,+Obladnannya,+Khimiya/data=!4m7!3m6!1s0x40d4cba10e0cad0b:0xe2c38371cb806d4d!8m2!3d50.4280397!4d30.3492145!16s%2Fg%2F11llyhxcx4!19sChIJC60MDqHL1EARTW2Ay3GDw-I?authuser=0&hl=tr&rclk=1",
    "website_url": "",
    "rating_text": "5,0",
    "stars": null,
    "number_of_reviews": null,
    "price_level": "",
    "open_hours": "",
    "extraction_timestamp": "2025-06-08T03:25:12.826Z",
    "source_name": "google",
    "source_query": "Irrigation Equipment",
    "source_country": "UA",
    "country": "Ukraine",
    "state": "Kyivska oblast",
    "city": "Tarashcha"
  },
  {
    "source_id": "ChIJn9HnVTPL1EAR4di2zqeFqrc",
    "name": "Ландшафтна компанія Garden House",
    "category": "Ландшафтна компанія Garden House",
    "formatted_address": "4,6(67)",
    "phone_number": "+380995461100",
    "source_url": "https://www.google.com/maps/place/%D0%9B%D0%B0%D0%BD%D0%B4%D1%88%D0%B0%D1%84%D1%82%D0%BD%D0%B0+%D0%BA%D0%BE%D0%BC%D0%BF%D0%B0%D0%BD%D1%96%D1%8F+Garden+House/data=!4m7!3m6!1s0x40d4cb3355e7d19f:0xb7aa85a7ceb6d8e1!8m2!3d50.4364812!4d30.2859854!16s%2Fg%2F11b6d5j_72!19sChIJn9HnVTPL1EAR4di2zqeFqrc?authuser=0&hl=tr&rclk=1",
    "website_url": "",
    "rating_text": "4,6",
    "stars": null,
    "number_of_reviews": null,
    "price_level": "",
    "open_hours": "",
    "extraction_timestamp": "2025-06-08T03:25:12.827Z",
    "source_name": "google",
    "source_query": "Irrigation Equipment",
    "source_country": "UA",
    "country": "Ukraine",
    "state": "Kyivska oblast",
    "city": "Tarashcha"
  },
  {
    "source_id": "ChIJg8L_bR_O1EARLmcqNvrRohM",
    "name": "Instal Ukraine",
    "category": "Instal Ukraine",
    "formatted_address": "3,3(84)",
    "phone_number": "+380673641212",
    "source_url": "https://www.google.com/maps/place/Instal+Ukraine/data=!4m7!3m6!1s0x40d4ce1f6dffc283:0x13a2d1fa362a672e!8m2!3d50.4833158!4d30.5023994!16s%2Fg%2F1ptybmz4r!19sChIJg8L_bR_O1EARLmcqNvrRohM?authuser=0&hl=tr&rclk=1",
    "website_url": "",
    "rating_text": "3,3",
    "stars": null,
    "number_of_reviews": null,
    "price_level": "",
    "open_hours": "",
    "extraction_timestamp": "2025-06-08T03:25:12.828Z",
    "source_name": "google",
    "source_query": "Irrigation Equipment",
    "source_country": "UA",
    "country": "Ukraine",
    "state": "Kyivska oblast",
    "city": "Tarashcha"
  },
  {
    "source_id": "ChIJ152cZtPn1EARTTwsvaVUuVM",
    "name": "ЭЛЕГАНТ-БОРИСПОЛЬ ЧП",
    "category": "ЭЛЕГАНТ-БОРИСПОЛЬ ЧП",
    "formatted_address": "4,6(53)",
    "phone_number": "+380459553330",
    "source_url": "https://www.google.com/maps/place/%D0%AD%D0%9B%D0%95%D0%93%D0%90%D0%9D%D0%A2-%D0%91%D0%9E%D0%A0%D0%98%D0%A1%D0%9F%D0%9E%D0%9B%D0%AC+%D0%A7%D0%9F/data=!4m7!3m6!1s0x40d4e7d3669c9dd7:0x53b954a5bd2c3c4d!8m2!3d50.3764415!4d30.9434215!16s%2Fg%2F11xc97rry!19sChIJ152cZtPn1EARTTwsvaVUuVM?authuser=0&hl=tr&rclk=1",
    "website_url": "",
    "rating_text": "4,6",
    "stars": null,
    "number_of_reviews": null,
    "price_level": "",
    "open_hours": "",
    "extraction_timestamp": "2025-06-08T03:25:12.829Z",
    "source_name": "google",
    "source_query": "Irrigation Equipment",
    "source_country": "UA",
    "country": "Ukraine",
    "state": "Kyivska oblast",
    "city": "Tarashcha"
  },
  {
    "source_id": "ChIJPyrBujbK1EARrYFfxhxcwgM",
    "name": "办公文具 Kantstovary - Papirus",
    "category": "办公文具 Kantstovary - Papirus",
    "formatted_address": "4,8(1.250)",
    "phone_number": "+380445018862",
    "source_url": "https://www.google.com/maps/place/%E5%8A%9E%E5%85%AC%E6%96%87%E5%85%B7+Kantstovary+-+Papirus/data=!4m7!3m6!1s0x40d4ca36bac12a3f:0x3c25c1cc65f81ad!8m2!3d50.390962!4d30.3580836!16s%2Fg%2F11byl3bpy_!19sChIJPyrBujbK1EARrYFfxhxcwgM?authuser=0&hl=tr&rclk=1",
    "website_url": "",
    "rating_text": "4,8",
    "stars": null,
    "number_of_reviews": null,
    "price_level": "",
    "open_hours": "",
    "extraction_timestamp": "2025-06-08T03:25:12.832Z",
    "source_name": "google",
    "source_query": "Irrigation Equipment",
    "source_country": "UA",
    "country": "Ukraine",
    "state": "Kyivska oblast",
    "city": "Tarashcha"
  },
  {
    "source_id": "ChIJ85dw0ETP1EARv29oLrSWZ2c",
    "name": "Vybir K",
    "category": "Vybir K",
    "formatted_address": "4,7(72)",
    "phone_number": "+380444943687",
    "source_url": "https://www.google.com/maps/place/Vybir+K/data=!4m7!3m6!1s0x40d4cf44d07097f3:0x676796b42e686fbf!8m2!3d50.403143!4d30.566191!16s%2Fg%2F1tt89sdw!19sChIJ85dw0ETP1EARv29oLrSWZ2c?authuser=0&hl=tr&rclk=1",
    "website_url": "",
    "rating_text": "4,7",
    "stars": null,
    "number_of_reviews": null,
    "price_level": "",
    "open_hours": "",
    "extraction_timestamp": "2025-06-08T03:25:12.833Z",
    "source_name": "google",
    "source_query": "Irrigation Equipment",
    "source_country": "UA",
    "country": "Ukraine",
    "state": "Kyivska oblast",
    "city": "Tarashcha"
  },
  {
    "source_id": "ChIJazwI2obO1EARLaOZmfgsA-E",
    "name": "Продажа насосов ТМ Pedrollo",
    "category": "Продажа насосов ТМ Pedrollo",
    "formatted_address": "5,0(9)",
    "phone_number": "+380939722611",
    "source_url": "https://www.google.com/maps/place/%D0%9F%D1%80%D0%BE%D0%B4%D0%B0%D0%B6%D0%B0+%D0%BD%D0%B0%D1%81%D0%BE%D1%81%D0%BE%D0%B2+%D0%A2%D0%9C+Pedrollo/data=!4m7!3m6!1s0x40d4ce86da083c6b:0xe1032cf89999a32d!8m2!3d50.4529811!4d30.4738884!16s%2Fg%2F1hhwdkrl9!19sChIJazwI2obO1EARLaOZmfgsA-E?authuser=0&hl=tr&rclk=1",
    "website_url": "",
    "rating_text": "5,0",
    "stars": null,
    "number_of_reviews": null,
    "price_level": "",
    "open_hours": "",
    "extraction_timestamp": "2025-06-08T03:25:12.834Z",
    "source_name": "google",
    "source_query": "Irrigation Equipment",
    "source_country": "UA",
    "country": "Ukraine",
    "state": "Kyivska oblast",
    "city": "Tarashcha"
  },
  {
    "source_id": "ChIJJ96QO17M1EAR7op59hvVvLs",
    "name": "Світ змішувачів - Мир Смесителей - Сантехника, Смесители Для Кухни, Смесители Для Ванны, Душевые Системы",
    "category": "Світ змішувачів - Мир Смесителей - Сантехника, Смесители Для Кухни, Смесители Для Ванны, Душевые Системы",
    "formatted_address": "Світ змішувачів - Мир Смесителей - Сантехника, Смесители Для Кухни, Смесители Для Ванны, Душевые Системы",
    "phone_number": "+380965992002",
    "source_url": "https://www.google.com/maps/place/%D0%A1%D0%B2%D1%96%D1%82+%D0%B7%D0%BC%D1%96%D1%88%D1%83%D0%B2%D0%B0%D1%87%D1%96%D0%B2+-+%D0%9C%D0%B8%D1%80+%D0%A1%D0%BC%D0%B5%D1%81%D0%B8%D1%82%D0%B5%D0%BB%D0%B5%D0%B9+-+%D0%A1%D0%B0%D0%BD%D1%82%D0%B5%D1%85%D0%BD%D0%B8%D0%BA%D0%B0,+%D0%A1%D0%BC%D0%B5%D1%81%D0%B8%D1%82%D0%B5%D0%BB%D0%B8+%D0%94%D0%BB%D1%8F+%D0%9A%D1%83%D1%85%D0%BD%D0%B8,+%D0%A1%D0%BC%D0%B5%D1%81%D0%B8%D1%82%D0%B5%D0%BB%D0%B8+%D0%94%D0%BB%D1%8F+%D0%92%D0%B0%D0%BD%D0%BD%D1%8B,+%D0%94%D1%83%D1%88%D0%B5%D0%B2%D1%8B%D0%B5+%D0%A1%D0%B8%D1%81%D1%82%D0%B5%D0%BC%D1%8B/data=!4m7!3m6!1s0x40d4cc5e3b90de27:0xbbbcd51bf6798aee!8m2!3d50.4570344!4d30.3957582!16s%2Fg%2F11b8zw8t8g!19sChIJJ96QO17M1EAR7op59hvVvLs?authuser=0&hl=tr&rclk=1",
    "website_url": "",
    "rating_text": "4,5",
    "stars": null,
    "number_of_reviews": null,
    "price_level": "",
    "open_hours": "",
    "extraction_timestamp": "2025-06-08T03:25:12.835Z",
    "source_name": "google",
    "source_query": "Irrigation Equipment",
    "source_country": "UA",
    "country": "Ukraine",
    "state": "Kyivska oblast",
    "city": "Tarashcha"
  },
  {
    "source_id": "ChIJdxpXRNnI1EARRm0QT2ufjUk",
    "name": "Teploradistʹ",
    "category": "Teploradistʹ",
    "formatted_address": "4,8(533)",
    "phone_number": "+380674785155",
    "source_url": "https://www.google.com/maps/place/Teploradist%CA%B9/data=!4m7!3m6!1s0x40d4c8d944571a77:0x498d9f6b4f106d46!8m2!3d50.4491115!4d30.4440367!16s%2Fg%2F11cmyyjnjy!19sChIJdxpXRNnI1EARRm0QT2ufjUk?authuser=0&hl=tr&rclk=1",
    "website_url": "",
    "rating_text": "4,8",
    "stars": null,
    "number_of_reviews": null,
    "price_level": "",
    "open_hours": "",
    "extraction_timestamp": "2025-06-08T03:25:12.836Z",
    "source_name": "google",
    "source_query": "Irrigation Equipment",
    "source_country": "UA",
    "country": "Ukraine",
    "state": "Kyivska oblast",
    "city": "Tarashcha"
  }
]
