[
  {
    "source_id": "ChIJpStL4E3n0kARCces3mQ_q-4",
    "name": "Obriy",
    "category": "Obriy",
    "formatted_address": "4,0(151)",
    "phone_number": "+380678106499",
    "source_url": "https://www.google.com/maps/place/Obriy/data=!4m7!3m6!1s0x40d2e74de04b2ba5:0xeeab3f64deacc709!8m2!3d49.3724218!4d29.6768245!16s%2Fg%2F11g9q5bjnd!19sChIJpStL4E3n0kARCces3mQ_q-4?authuser=0&hl=tr&rclk=1",
    "website_url": "",
    "rating_text": "4,0",
    "stars": null,
    "number_of_reviews": null,
    "price_level": "",
    "open_hours": "",
    "extraction_timestamp": "2025-06-08T03:31:07.965Z",
    "source_name": "google",
    "source_query": "Irrigation Equipment",
    "source_country": "UA",
    "country": "Ukraine",
    "state": "Kyivska oblast",
    "city": "Tetiiv"
  },
  {
    "source_id": "ChIJy2lTEEnn0kARR3POUrEbSgs",
    "name": "Mahazyn \"M'yaso Ptytsya\"",
    "category": "Mahazyn \"M'yaso Ptytsya\"",
    "formatted_address": "4,0(128)",
    "phone_number": "+380958943253",
    "source_url": "https://www.google.com/maps/place/Mahazyn+%22M%27yaso+Ptytsya%22/data=!4m7!3m6!1s0x40d2e749105369cb:0xb4a1bb152ce7347!8m2!3d49.3666981!4d29.6959567!16s%2Fg%2F11gb3qxjrq!19sChIJy2lTEEnn0kARR3POUrEbSgs?authuser=0&hl=tr&rclk=1",
    "website_url": "",
    "rating_text": "4,0",
    "stars": null,
    "number_of_reviews": null,
    "price_level": "",
    "open_hours": "",
    "extraction_timestamp": "2025-06-08T03:31:07.966Z",
    "source_name": "google",
    "source_query": "Irrigation Equipment",
    "source_country": "UA",
    "country": "Ukraine",
    "state": "Kyivska oblast",
    "city": "Tetiiv"
  },
  {
    "source_id": "ChIJrRxt11rn0kARArjHOFvXWjE",
    "name": "Mahazyn Produkty",
    "category": "Mahazyn Produkty",
    "formatted_address": "4,1(222)",
    "phone_number": "+380987787778",
    "source_url": "https://www.google.com/maps/place/Mahazyn+Produkty/data=!4m7!3m6!1s0x40d2e75ad76d1cad:0x315ad75b38c7b802!8m2!3d49.3671646!4d29.6679246!16s%2Fg%2F11hbvv8d84!19sChIJrRxt11rn0kARArjHOFvXWjE?authuser=0&hl=tr&rclk=1",
    "website_url": "",
    "rating_text": "4,1",
    "stars": null,
    "number_of_reviews": null,
    "price_level": "",
    "open_hours": "",
    "extraction_timestamp": "2025-06-08T03:31:07.967Z",
    "source_name": "google",
    "source_query": "Irrigation Equipment",
    "source_country": "UA",
    "country": "Ukraine",
    "state": "Kyivska oblast",
    "city": "Tetiiv"
  },
  {
    "source_id": "ChIJt4evMEXn0kARJw-0Xv40148",
    "name": "Вікторія",
    "category": "Вікторія",
    "formatted_address": "4,4(44)",
    "phone_number": "+380963763668",
    "source_url": "https://www.google.com/maps/place/%D0%92%D1%96%D0%BA%D1%82%D0%BE%D1%80%D1%96%D1%8F/data=!4m7!3m6!1s0x40d2e74530af87b7:0x8fd734fe5eb40f27!8m2!3d49.3626359!4d29.6606438!16s%2Fg%2F11h0v8pxf2!19sChIJt4evMEXn0kARJw-0Xv40148?authuser=0&hl=tr&rclk=1",
    "website_url": "",
    "rating_text": "4,4",
    "stars": null,
    "number_of_reviews": null,
    "price_level": "",
    "open_hours": "",
    "extraction_timestamp": "2025-06-08T03:31:07.968Z",
    "source_name": "google",
    "source_query": "Irrigation Equipment",
    "source_country": "UA",
    "country": "Ukraine",
    "state": "Kyivska oblast",
    "city": "Tetiiv"
  },
  {
    "source_id": "ChIJWY0NH7bn0kARbo6RPpIKVis",
    "name": "Olimp",
    "category": "Olimp",
    "formatted_address": "4,9(17)",
    "phone_number": "+380675674246",
    "source_url": "https://www.google.com/maps/place/Olimp/data=!4m7!3m6!1s0x40d2e7b61f0d8d59:0x2b560a923e918e6e!8m2!3d49.3677447!4d29.659646!16s%2Fg%2F11rccg6npp!19sChIJWY0NH7bn0kARbo6RPpIKVis?authuser=0&hl=tr&rclk=1",
    "website_url": "",
    "rating_text": "4,9",
    "stars": null,
    "number_of_reviews": null,
    "price_level": "",
    "open_hours": "",
    "extraction_timestamp": "2025-06-08T03:31:07.968Z",
    "source_name": "google",
    "source_query": "Irrigation Equipment",
    "source_country": "UA",
    "country": "Ukraine",
    "state": "Kyivska oblast",
    "city": "Tetiiv"
  },
  {
    "source_id": "ChIJh795Zkrn0kAR2yBL7CgkijI",
    "name": "ФОП ХОМЕНКО М-н «СЛАВУТИЧ» ПРОДУКТИ",
    "category": "ФОП ХОМЕНКО М-н «СЛАВУТИЧ» ПРОДУКТИ",
    "formatted_address": "3,4(5)",
    "phone_number": "+380672777772",
    "source_url": "https://www.google.com/maps/place/%D0%A4%D0%9E%D0%9F+%D0%A5%D0%9E%D0%9C%D0%95%D0%9D%D0%9A%D0%9E+%D0%9C-%D0%BD+%C2%AB%D0%A1%D0%9B%D0%90%D0%92%D0%A3%D0%A2%D0%98%D0%A7%C2%BB+%D0%9F%D0%A0%D0%9E%D0%94%D0%A3%D0%9A%D0%A2%D0%98/data=!4m7!3m6!1s0x40d2e74a6679bf87:0x328a2428ec4b20db!8m2!3d49.3671867!4d29.7049345!16s%2Fg%2F11b6dyl121!19sChIJh795Zkrn0kAR2yBL7CgkijI?authuser=0&hl=tr&rclk=1",
    "website_url": "",
    "rating_text": "3,4",
    "stars": null,
    "number_of_reviews": null,
    "price_level": "",
    "open_hours": "",
    "extraction_timestamp": "2025-06-08T03:31:07.969Z",
    "source_name": "google",
    "source_query": "Irrigation Equipment",
    "source_country": "UA",
    "country": "Ukraine",
    "state": "Kyivska oblast",
    "city": "Tetiiv"
  },
  {
    "source_id": "ChIJ7YC9S0fn0kAR1BoV0txN9ps",
    "name": "Veterynarnyy Kiosk",
    "category": "Veterynarnyy Kiosk",
    "formatted_address": "4,5(96)",
    "phone_number": "",
    "source_url": "https://www.google.com/maps/place/Veterynarnyy+Kiosk/data=!4m7!3m6!1s0x40d2e7474bbd80ed:0x9bf64ddcd2151ad4!8m2!3d49.3609613!4d29.6784925!16s%2Fg%2F11f0kvfpjf!19sChIJ7YC9S0fn0kAR1BoV0txN9ps?authuser=0&hl=tr&rclk=1",
    "website_url": "",
    "rating_text": "4,5",
    "stars": null,
    "number_of_reviews": null,
    "price_level": "",
    "open_hours": "",
    "extraction_timestamp": "2025-06-08T03:31:07.970Z",
    "source_name": "google",
    "source_query": "Irrigation Equipment",
    "source_country": "UA",
    "country": "Ukraine",
    "state": "Kyivska oblast",
    "city": "Tetiiv"
  },
  {
    "source_id": "ChIJVUtMUSbn0kARAR9tniLSFOY",
    "name": "Автомаркет \"Перехрестя\"",
    "category": "Автомаркет \"Перехрестя\"",
    "formatted_address": "4,6(39)",
    "phone_number": "+380969348246",
    "source_url": "https://www.google.com/maps/place/%D0%90%D0%B2%D1%82%D0%BE%D0%BC%D0%B0%D1%80%D0%BA%D0%B5%D1%82+%22%D0%9F%D0%B5%D1%80%D0%B5%D1%85%D1%80%D0%B5%D1%81%D1%82%D1%8F%22/data=!4m7!3m6!1s0x40d2e726514c4b55:0xe614d2229e6d1f01!8m2!3d49.3694731!4d29.6724743!16s%2Fg%2F11n092c5yn!19sChIJVUtMUSbn0kARAR9tniLSFOY?authuser=0&hl=tr&rclk=1",
    "website_url": "",
    "rating_text": "4,6",
    "stars": null,
    "number_of_reviews": null,
    "price_level": "",
    "open_hours": "",
    "extraction_timestamp": "2025-06-08T03:31:07.971Z",
    "source_name": "google",
    "source_query": "Irrigation Equipment",
    "source_country": "UA",
    "country": "Ukraine",
    "state": "Kyivska oblast",
    "city": "Tetiiv"
  },
  {
    "source_id": "ChIJu_9fU0nn0kARP_WfsW4DsNc",
    "name": "Fora",
    "category": "Fora",
    "formatted_address": "4,0(421)",
    "phone_number": "+380800301230",
    "source_url": "https://www.google.com/maps/place/Fora/data=!4m7!3m6!1s0x40d2e749535fffbb:0xd7b0036eb19ff53f!8m2!3d49.3701697!4d29.6826696!16s%2Fg%2F11b6drfvkh!19sChIJu_9fU0nn0kARP_WfsW4DsNc?authuser=0&hl=tr&rclk=1",
    "website_url": "",
    "rating_text": "4,0",
    "stars": null,
    "number_of_reviews": null,
    "price_level": "",
    "open_hours": "",
    "extraction_timestamp": "2025-06-08T03:31:07.971Z",
    "source_name": "google",
    "source_query": "Irrigation Equipment",
    "source_country": "UA",
    "country": "Ukraine",
    "state": "Kyivska oblast",
    "city": "Tetiiv"
  },
  {
    "source_id": "ChIJ7XsZ_1Hn0kARjUX2RnsQ1Zw",
    "name": "Vetapteka",
    "category": "Vetapteka",
    "formatted_address": "4,4(105)",
    "phone_number": "",
    "source_url": "https://www.google.com/maps/place/Vetapteka/data=!4m7!3m6!1s0x40d2e751ff197bed:0x9cd5107b46f6458d!8m2!3d49.3727302!4d29.6747348!16s%2Fg%2F11f0kqcd_3!19sChIJ7XsZ_1Hn0kARjUX2RnsQ1Zw?authuser=0&hl=tr&rclk=1",
    "website_url": "",
    "rating_text": "4,4",
    "stars": null,
    "number_of_reviews": null,
    "price_level": "",
    "open_hours": "",
    "extraction_timestamp": "2025-06-08T03:31:07.972Z",
    "source_name": "google",
    "source_query": "Irrigation Equipment",
    "source_country": "UA",
    "country": "Ukraine",
    "state": "Kyivska oblast",
    "city": "Tetiiv"
  },
  {
    "source_id": "ChIJfXPX_C7n0kARqeZSuZHtnZk",
    "name": "Hipermarket \"Materyk\"",
    "category": "Hipermarket \"Materyk\"",
    "formatted_address": "5,0(1)",
    "phone_number": "",
    "source_url": "https://www.google.com/maps/place/Hipermarket+%22Materyk%22/data=!4m7!3m6!1s0x40d2e72efcd7737d:0x999ded91b952e6a9!8m2!3d49.3701697!4d29.6826696!16s%2Fg%2F11x6102h7c!19sChIJfXPX_C7n0kARqeZSuZHtnZk?authuser=0&hl=tr&rclk=1",
    "website_url": "",
    "rating_text": "5,0",
    "stars": null,
    "number_of_reviews": null,
    "price_level": "",
    "open_hours": "",
    "extraction_timestamp": "2025-06-08T03:31:07.972Z",
    "source_name": "google",
    "source_query": "Irrigation Equipment",
    "source_country": "UA",
    "country": "Ukraine",
    "state": "Kyivska oblast",
    "city": "Tetiiv"
  },
  {
    "source_id": "ChIJ26EzRwDn0kAR1OIZXgp1Law",
    "name": "Магазин продуктів опт-роздіб «Славутич»",
    "category": "Магазин продуктів опт-роздіб «Славутич»",
    "formatted_address": "5,0(1)",
    "phone_number": "",
    "source_url": "https://www.google.com/maps/place/%D0%9C%D0%B0%D0%B3%D0%B0%D0%B7%D0%B8%D0%BD+%D0%BF%D1%80%D0%BE%D0%B4%D1%83%D0%BA%D1%82%D1%96%D0%B2+%D0%BE%D0%BF%D1%82-%D1%80%D0%BE%D0%B7%D0%B4%D1%96%D0%B1+%C2%AB%D0%A1%D0%BB%D0%B0%D0%B2%D1%83%D1%82%D0%B8%D1%87%C2%BB/data=!4m7!3m6!1s0x40d2e7004733a1db:0xac2d750a5e19e2d4!8m2!3d49.3671909!4d29.7049342!16s%2Fg%2F11wjdjj049!19sChIJ26EzRwDn0kAR1OIZXgp1Law?authuser=0&hl=tr&rclk=1",
    "website_url": "",
    "rating_text": "5,0",
    "stars": null,
    "number_of_reviews": null,
    "price_level": "",
    "open_hours": "",
    "extraction_timestamp": "2025-06-08T03:31:07.973Z",
    "source_name": "google",
    "source_query": "Irrigation Equipment",
    "source_country": "UA",
    "country": "Ukraine",
    "state": "Kyivska oblast",
    "city": "Tetiiv"
  },
  {
    "source_id": "ChIJZTpTPwDn0kAR23wKfBoYGkw",
    "name": "Техносвіт",
    "category": "Техносвіт",
    "formatted_address": "3,0(2)",
    "phone_number": "",
    "source_url": "https://www.google.com/maps/place/%D0%A2%D0%B5%D1%85%D0%BD%D0%BE%D1%81%D0%B2%D1%96%D1%82/data=!4m7!3m6!1s0x40d2e7003f533a65:0x4c1a181a7c0a7cdb!8m2!3d49.3709034!4d29.6818736!16s%2Fg%2F11lckylg7w!19sChIJZTpTPwDn0kAR23wKfBoYGkw?authuser=0&hl=tr&rclk=1",
    "website_url": "",
    "rating_text": "3,0",
    "stars": null,
    "number_of_reviews": null,
    "price_level": "",
    "open_hours": "",
    "extraction_timestamp": "2025-06-08T03:31:07.973Z",
    "source_name": "google",
    "source_query": "Irrigation Equipment",
    "source_country": "UA",
    "country": "Ukraine",
    "state": "Kyivska oblast",
    "city": "Tetiiv"
  },
  {
    "source_id": "ChIJY78K2Kvn0kARaRbFKlO4E8Q",
    "name": "M-N Smak",
    "category": "M-N Smak",
    "formatted_address": "4,5(6)",
    "phone_number": "+380673269556",
    "source_url": "https://www.google.com/maps/place/M-N+Smak/data=!4m7!3m6!1s0x40d2e7abd80abf63:0xc413b8532ac51669!8m2!3d49.3593678!4d29.6986755!16s%2Fg%2F11q253_lmn!19sChIJY78K2Kvn0kARaRbFKlO4E8Q?authuser=0&hl=tr&rclk=1",
    "website_url": "",
    "rating_text": "4,5",
    "stars": null,
    "number_of_reviews": null,
    "price_level": "",
    "open_hours": "",
    "extraction_timestamp": "2025-06-08T03:31:07.974Z",
    "source_name": "google",
    "source_query": "Irrigation Equipment",
    "source_country": "UA",
    "country": "Ukraine",
    "state": "Kyivska oblast",
    "city": "Tetiiv"
  },
  {
    "source_id": "ChIJryxLsaHf0kARt3cnWjSMOlw",
    "name": "ЗооветМаркет\"Домашня ферма\"",
    "category": "ЗооветМаркет\"Домашня ферма\"",
    "formatted_address": "5,0(1)",
    "phone_number": "+380963136195",
    "source_url": "https://www.google.com/maps/place/%D0%97%D0%BE%D0%BE%D0%B2%D0%B5%D1%82%D0%9C%D0%B0%D1%80%D0%BA%D0%B5%D1%82%22%D0%94%D0%BE%D0%BC%D0%B0%D1%88%D0%BD%D1%8F+%D1%84%D0%B5%D1%80%D0%BC%D0%B0%22/data=!4m7!3m6!1s0x40d2dfa1b14b2caf:0x5c3a8c345a2777b7!8m2!3d49.3806895!4d29.6653647!16s%2Fg%2F11whtzfd8q!19sChIJryxLsaHf0kARt3cnWjSMOlw?authuser=0&hl=tr&rclk=1",
    "website_url": "",
    "rating_text": "5,0",
    "stars": null,
    "number_of_reviews": null,
    "price_level": "",
    "open_hours": "",
    "extraction_timestamp": "2025-06-08T03:31:07.974Z",
    "source_name": "google",
    "source_query": "Irrigation Equipment",
    "source_country": "UA",
    "country": "Ukraine",
    "state": "Kyivska oblast",
    "city": "Tetiiv"
  },
  {
    "source_id": "ChIJZ50wE0nn0kARzqOPYgcLcFI",
    "name": "Кузя",
    "category": "Кузя",
    "formatted_address": "5,0(3)",
    "phone_number": "+380971434400",
    "source_url": "https://www.google.com/maps/place/%D0%9A%D1%83%D0%B7%D1%8F/data=!4m7!3m6!1s0x40d2e74913309d67:0x52700b07628fa3ce!8m2!3d49.36903!4d29.683427!16s%2Fg%2F1hm2qphqz!19sChIJZ50wE0nn0kARzqOPYgcLcFI?authuser=0&hl=tr&rclk=1",
    "website_url": "",
    "rating_text": "5,0",
    "stars": null,
    "number_of_reviews": null,
    "price_level": "",
    "open_hours": "",
    "extraction_timestamp": "2025-06-08T03:31:07.975Z",
    "source_name": "google",
    "source_query": "Irrigation Equipment",
    "source_country": "UA",
    "country": "Ukraine",
    "state": "Kyivska oblast",
    "city": "Tetiiv"
  },
  {
    "source_id": "ChIJJRgN5Tbn0kAR9w--q4j8yH0",
    "name": "VETDoctor",
    "category": "VETDoctor",
    "formatted_address": "5,0(2)",
    "phone_number": "+380997670989",
    "source_url": "https://www.google.com/maps/place/VETDoctor/data=!4m7!3m6!1s0x40d2e736e50d1825:0x7dc8fc88abbe0ff7!8m2!3d49.3750983!4d29.6716112!16s%2Fg%2F11vysfhl5b!19sChIJJRgN5Tbn0kAR9w--q4j8yH0?authuser=0&hl=tr&rclk=1",
    "website_url": "",
    "rating_text": "5,0",
    "stars": null,
    "number_of_reviews": null,
    "price_level": "",
    "open_hours": "",
    "extraction_timestamp": "2025-06-08T03:31:07.975Z",
    "source_name": "google",
    "source_query": "Irrigation Equipment",
    "source_country": "UA",
    "country": "Ukraine",
    "state": "Kyivska oblast",
    "city": "Tetiiv"
  },
  {
    "source_id": "ChIJq2h7drLf0kARvI0HxiX_Bls",
    "name": "Viktoriya",
    "category": "Viktoriya",
    "formatted_address": "4,1(8)",
    "phone_number": "",
    "source_url": "https://www.google.com/maps/place/Viktoriya/data=!4m7!3m6!1s0x40d2dfb2767b68ab:0x5b06ff25c6078dbc!8m2!3d49.3822654!4d29.6637922!16s%2Fg%2F11r9bqrjb4!19sChIJq2h7drLf0kARvI0HxiX_Bls?authuser=0&hl=tr&rclk=1",
    "website_url": "",
    "rating_text": "4,1",
    "stars": null,
    "number_of_reviews": null,
    "price_level": "",
    "open_hours": "",
    "extraction_timestamp": "2025-06-08T03:31:07.976Z",
    "source_name": "google",
    "source_query": "Irrigation Equipment",
    "source_country": "UA",
    "country": "Ukraine",
    "state": "Kyivska oblast",
    "city": "Tetiiv"
  },
  {
    "source_id": "ChIJdxz7klXn0kARx-H1W8t4IiY",
    "name": "Ekonom Plyus",
    "category": "Ekonom Plyus",
    "formatted_address": "3,1(22)",
    "phone_number": "+380678884005",
    "source_url": "https://www.google.com/maps/place/Ekonom+Plyus/data=!4m7!3m6!1s0x40d2e75592fb1c77:0x262278cb5bf5e1c7!8m2!3d49.3671646!4d29.6679246!16s%2Fg%2F11h_7tsj89!19sChIJdxz7klXn0kARx-H1W8t4IiY?authuser=0&hl=tr&rclk=1",
    "website_url": "",
    "rating_text": "3,1",
    "stars": null,
    "number_of_reviews": null,
    "price_level": "",
    "open_hours": "",
    "extraction_timestamp": "2025-06-08T03:31:07.977Z",
    "source_name": "google",
    "source_query": "Irrigation Equipment",
    "source_country": "UA",
    "country": "Ukraine",
    "state": "Kyivska oblast",
    "city": "Tetiiv"
  },
  {
    "source_id": "ChIJV3g-cgDn0kARBNy8wui82A4",
    "name": "«Тетіїв Ферма» Магазин м. Тетіїв",
    "category": "«Тетіїв Ферма» Магазин м. Тетіїв",
    "formatted_address": "Bakkal · Vul. Tsvitkova, 7Kapalı ⋅ Açılış saati: 09:00 · +380 96 969 4282",
    "phone_number": "+380969694282",
    "source_url": "https://www.google.com/maps/place/%C2%AB%D0%A2%D0%B5%D1%82%D1%96%D1%97%D0%B2+%D0%A4%D0%B5%D1%80%D0%BC%D0%B0%C2%BB+%D0%9C%D0%B0%D0%B3%D0%B0%D0%B7%D0%B8%D0%BD+%D0%BC.+%D0%A2%D0%B5%D1%82%D1%96%D1%97%D0%B2/data=!4m7!3m6!1s0x40d2e700723e7857:0xed8bce8c2bcdc04!8m2!3d49.368577!4d29.6842142!16s%2Fg%2F11xfshrz66!19sChIJV3g-cgDn0kARBNy8wui82A4?authuser=0&hl=tr&rclk=1",
    "website_url": "",
    "rating_text": "",
    "stars": null,
    "number_of_reviews": null,
    "price_level": "",
    "open_hours": "",
    "extraction_timestamp": "2025-06-08T03:31:07.977Z",
    "source_name": "google",
    "source_query": "Irrigation Equipment",
    "source_country": "UA",
    "country": "Ukraine",
    "state": "Kyivska oblast",
    "city": "Tetiiv"
  },
  {
    "source_id": "ChIJDfcXH23n0kARl-kb6F-ngok",
    "name": "GoodMag",
    "category": "GoodMag",
    "formatted_address": "5,0(1)",
    "phone_number": "+380500347173",
    "source_url": "https://www.google.com/maps/place/GoodMag/data=!4m7!3m6!1s0x40d2e76d1f17f70d:0x8982a75fe81be997!8m2!3d49.3653834!4d29.6843414!16s%2Fg%2F11q7zy4g44!19sChIJDfcXH23n0kARl-kb6F-ngok?authuser=0&hl=tr&rclk=1",
    "website_url": "",
    "rating_text": "5,0",
    "stars": null,
    "number_of_reviews": null,
    "price_level": "",
    "open_hours": "",
    "extraction_timestamp": "2025-06-08T03:31:07.978Z",
    "source_name": "google",
    "source_query": "Irrigation Equipment",
    "source_country": "UA",
    "country": "Ukraine",
    "state": "Kyivska oblast",
    "city": "Tetiiv"
  },
  {
    "source_id": "ChIJZ6oHSLrn0kAR9c6sYENhL3g",
    "name": "Atb",
    "category": "Atb",
    "formatted_address": "4,5(154)",
    "phone_number": "+380800500415",
    "source_url": "https://www.google.com/maps/place/Atb/data=!4m7!3m6!1s0x40d2e7ba4807aa67:0x782f614360accef5!8m2!3d49.3725452!4d29.6757091!16s%2Fg%2F11px8vp83f!19sChIJZ6oHSLrn0kAR9c6sYENhL3g?authuser=0&hl=tr&rclk=1",
    "website_url": "",
    "rating_text": "4,5",
    "stars": null,
    "number_of_reviews": null,
    "price_level": "",
    "open_hours": "",
    "extraction_timestamp": "2025-06-08T03:31:07.979Z",
    "source_name": "google",
    "source_query": "Irrigation Equipment",
    "source_country": "UA",
    "country": "Ukraine",
    "state": "Kyivska oblast",
    "city": "Tetiiv"
  },
  {
    "source_id": "ChIJrTDrVkfn0kARPfsOYO0NGAk",
    "name": "Drayv",
    "category": "Drayv",
    "formatted_address": "3,8(22)",
    "phone_number": "",
    "source_url": "https://www.google.com/maps/place/Drayv/data=!4m7!3m6!1s0x40d2e74756eb30ad:0x9180ded600efb3d!8m2!3d49.3607995!4d29.6798055!16s%2Fg%2F11f0kvbxk3!19sChIJrTDrVkfn0kARPfsOYO0NGAk?authuser=0&hl=tr&rclk=1",
    "website_url": "",
    "rating_text": "3,8",
    "stars": null,
    "number_of_reviews": null,
    "price_level": "",
    "open_hours": "",
    "extraction_timestamp": "2025-06-08T03:31:07.979Z",
    "source_name": "google",
    "source_query": "Irrigation Equipment",
    "source_country": "UA",
    "country": "Ukraine",
    "state": "Kyivska oblast",
    "city": "Tetiiv"
  },
  {
    "source_id": "ChIJ2f5y-jPh0kAR2ygQ7Q-nfEM",
    "name": "Berezhok",
    "category": "Berezhok",
    "formatted_address": "4,0(5)",
    "phone_number": "",
    "source_url": "https://www.google.com/maps/place/Berezhok/data=!4m7!3m6!1s0x40d2e133fa72fed9:0x437ca70fed1028db!8m2!3d49.3840979!4d29.6869554!16s%2Fg%2F11q2t274dq!19sChIJ2f5y-jPh0kAR2ygQ7Q-nfEM?authuser=0&hl=tr&rclk=1",
    "website_url": "",
    "rating_text": "4,0",
    "stars": null,
    "number_of_reviews": null,
    "price_level": "",
    "open_hours": "",
    "extraction_timestamp": "2025-06-08T03:31:07.979Z",
    "source_name": "google",
    "source_query": "Irrigation Equipment",
    "source_country": "UA",
    "country": "Ukraine",
    "state": "Kyivska oblast",
    "city": "Tetiiv"
  },
  {
    "source_id": "ChIJYWcRPwDn0kARPBCrQsrgk4k",
    "name": "Puzya, Dytyachyy Mahazyn",
    "category": "Puzya, Dytyachyy Mahazyn",
    "formatted_address": "Puzya, Dytyachyy Mahazyn",
    "phone_number": "",
    "source_url": "https://www.google.com/maps/place/Puzya,+Dytyachyy+Mahazyn/data=!4m7!3m6!1s0x40d2e7003f116761:0x8993e0ca42ab103c!8m2!3d49.3694556!4d29.6835485!16s%2Fg%2F11vs7t0g8_!19sChIJYWcRPwDn0kARPBCrQsrgk4k?authuser=0&hl=tr&rclk=1",
    "website_url": "",
    "rating_text": "4,3",
    "stars": null,
    "number_of_reviews": null,
    "price_level": "",
    "open_hours": "",
    "extraction_timestamp": "2025-06-08T03:31:07.980Z",
    "source_name": "google",
    "source_query": "Irrigation Equipment",
    "source_country": "UA",
    "country": "Ukraine",
    "state": "Kyivska oblast",
    "city": "Tetiiv"
  },
  {
    "source_id": "ChIJdZiGJWTL1EARDF2aaU8yzVc",
    "name": "Blisk",
    "category": "Blisk",
    "formatted_address": "4,8(22)",
    "phone_number": "+380800336123",
    "source_url": "https://www.google.com/maps/place/Blisk/data=!4m7!3m6!1s0x40d4cb6425869875:0x57cd324f699a5d0c!8m2!3d49.368931!4d29.682825!16s%2Fg%2F11f6mq6cx6!19sChIJdZiGJWTL1EARDF2aaU8yzVc?authuser=0&hl=tr&rclk=1",
    "website_url": "",
    "rating_text": "4,8",
    "stars": null,
    "number_of_reviews": null,
    "price_level": "",
    "open_hours": "",
    "extraction_timestamp": "2025-06-08T03:31:07.981Z",
    "source_name": "google",
    "source_query": "Irrigation Equipment",
    "source_country": "UA",
    "country": "Ukraine",
    "state": "Kyivska oblast",
    "city": "Tetiiv"
  },
  {
    "source_id": "ChIJS_uWkgLn0kARdNFxUfh3b-8",
    "name": "Аптека «Бажаємо здоров'я»",
    "category": "Аптека «Бажаємо здоров'я»",
    "formatted_address": "5,0(8)",
    "phone_number": "+380732674748",
    "source_url": "https://www.google.com/maps/place/%D0%90%D0%BF%D1%82%D0%B5%D0%BA%D0%B0+%C2%AB%D0%91%D0%B0%D0%B6%D0%B0%D1%94%D0%BC%D0%BE+%D0%B7%D0%B4%D0%BE%D1%80%D0%BE%D0%B2%27%D1%8F%C2%BB/data=!4m7!3m6!1s0x40d2e7029296fb4b:0xef6f77f85171d174!8m2!3d49.3654492!4d29.684565!16s%2Fg%2F11vqzrh93q!19sChIJS_uWkgLn0kARdNFxUfh3b-8?authuser=0&hl=tr&rclk=1",
    "website_url": "",
    "rating_text": "5,0",
    "stars": null,
    "number_of_reviews": null,
    "price_level": "",
    "open_hours": "",
    "extraction_timestamp": "2025-06-08T03:31:07.981Z",
    "source_name": "google",
    "source_query": "Irrigation Equipment",
    "source_country": "UA",
    "country": "Ukraine",
    "state": "Kyivska oblast",
    "city": "Tetiiv"
  },
  {
    "source_id": "ChIJsRHSFz_n0kARpJkATbDzNEU",
    "name": "Риба Морська та Океанічна",
    "category": "Риба Морська та Океанічна",
    "formatted_address": "3,0(1)",
    "phone_number": "+380987139158",
    "source_url": "https://www.google.com/maps/place/%D0%A0%D0%B8%D0%B1%D0%B0+%D0%9C%D0%BE%D1%80%D1%81%D1%8C%D0%BA%D0%B0+%D1%82%D0%B0+%D0%9E%D0%BA%D0%B5%D0%B0%D0%BD%D1%96%D1%87%D0%BD%D0%B0/data=!4m7!3m6!1s0x40d2e73f17d211b1:0x4534f3b04d0099a4!8m2!3d49.3660425!4d29.6651351!16s%2Fg%2F11ls_87gsy!19sChIJsRHSFz_n0kARpJkATbDzNEU?authuser=0&hl=tr&rclk=1",
    "website_url": "",
    "rating_text": "3,0",
    "stars": null,
    "number_of_reviews": null,
    "price_level": "",
    "open_hours": "",
    "extraction_timestamp": "2025-06-08T03:31:07.982Z",
    "source_name": "google",
    "source_query": "Irrigation Equipment",
    "source_country": "UA",
    "country": "Ukraine",
    "state": "Kyivska oblast",
    "city": "Tetiiv"
  },
  {
    "source_id": "ChIJfUPoFgDn0kARF4L6Sq2oet0",
    "name": "Аврора",
    "category": "Аврора",
    "formatted_address": "5,0(1)",
    "phone_number": "+380800300066",
    "source_url": "https://www.google.com/maps/place/%D0%90%D0%B2%D1%80%D0%BE%D1%80%D0%B0/data=!4m7!3m6!1s0x40d2e70016e8437d:0xdd7aa8ad4afa8217!8m2!3d49.370368!4d29.6824671!16s%2Fg%2F11x189b30d!19sChIJfUPoFgDn0kARF4L6Sq2oet0?authuser=0&hl=tr&rclk=1",
    "website_url": "",
    "rating_text": "5,0",
    "stars": null,
    "number_of_reviews": null,
    "price_level": "",
    "open_hours": "",
    "extraction_timestamp": "2025-06-08T03:31:07.983Z",
    "source_name": "google",
    "source_query": "Irrigation Equipment",
    "source_country": "UA",
    "country": "Ukraine",
    "state": "Kyivska oblast",
    "city": "Tetiiv"
  },
  {
    "source_id": "ChIJRxQoKgDn0kARtkb2wuKRduM",
    "name": "Mahazyn Lyudmyla",
    "category": "Mahazyn Lyudmyla",
    "formatted_address": "5,0(1)",
    "phone_number": "+380637474649",
    "source_url": "https://www.google.com/maps/place/Mahazyn+Lyudmyla/data=!4m7!3m6!1s0x40d2e7002a281447:0xe37691e2c2f646b6!8m2!3d49.3802193!4d29.6650543!16s%2Fg%2F11vqbcds5g!19sChIJRxQoKgDn0kARtkb2wuKRduM?authuser=0&hl=tr&rclk=1",
    "website_url": "",
    "rating_text": "5,0",
    "stars": null,
    "number_of_reviews": null,
    "price_level": "",
    "open_hours": "",
    "extraction_timestamp": "2025-06-08T03:31:07.983Z",
    "source_name": "google",
    "source_query": "Irrigation Equipment",
    "source_country": "UA",
    "country": "Ukraine",
    "state": "Kyivska oblast",
    "city": "Tetiiv"
  },
  {
    "source_id": "ChIJhy25Bgfn0kAReoF8TNZfKuE",
    "name": "Kvadrat",
    "category": "Kvadrat",
    "formatted_address": "",
    "phone_number": "+380973749211",
    "source_url": "https://www.google.com/maps/place/Kvadrat/data=!4m7!3m6!1s0x40d2e70706b92d87:0xe12a5fd64c7c817a!8m2!3d49.36117!4d29.6816738!16s%2Fg%2F11vzs0h7nv!19sChIJhy25Bgfn0kAReoF8TNZfKuE?authuser=0&hl=tr&rclk=1",
    "website_url": "",
    "rating_text": "",
    "stars": null,
    "number_of_reviews": null,
    "price_level": "",
    "open_hours": "",
    "extraction_timestamp": "2025-06-08T03:31:07.984Z",
    "source_name": "google",
    "source_query": "Irrigation Equipment",
    "source_country": "UA",
    "country": "Ukraine",
    "state": "Kyivska oblast",
    "city": "Tetiiv"
  }
]
