[
  {
    "source_id": "ChIJ863XKt3f1EARolcICFEk-TQ",
    "name": "Dim Vody",
    "category": "Dim Vody",
    "formatted_address": "5,0(6)",
    "phone_number": "+380636650150",
    "source_url": "https://www.google.com/maps/place/Dim+Vody/data=!4m7!3m6!1s0x40d4dfdd2ad7adf3:0x34f92451080857a2!8m2!3d50.487513!4d30.8812471!16s%2Fg%2F11vjh22pw3!19sChIJ863XKt3f1EARolcICFEk-TQ?authuser=0&hl=tr&rclk=1",
    "website_url": "",
    "rating_text": "5,0",
    "stars": null,
    "number_of_reviews": null,
    "price_level": "",
    "open_hours": "",
    "extraction_timestamp": "2025-06-08T03:28:47.635Z",
    "source_name": "google",
    "source_query": "Irrigation Equipment",
    "source_country": "UA",
    "country": "Ukraine",
    "state": "Kyivska oblast",
    "city": "Trebukhiv"
  },
  {
    "source_id": "ChIJ-3-1yYne1EARgrndaz-xYLY",
    "name": "Demos",
    "category": "Demos",
    "formatted_address": "3,8(112)",
    "phone_number": "+380459471299",
    "source_url": "https://www.google.com/maps/place/Demos/data=!4m7!3m6!1s0x40d4de89c9b57ffb:0xb660b13f6bddb982!8m2!3d50.4856011!4d30.895012!16s%2Fg%2F11c585l57s!19sChIJ-3-1yYne1EARgrndaz-xYLY?authuser=0&hl=tr&rclk=1",
    "website_url": "",
    "rating_text": "3,8",
    "stars": null,
    "number_of_reviews": null,
    "price_level": "",
    "open_hours": "",
    "extraction_timestamp": "2025-06-08T03:28:47.636Z",
    "source_name": "google",
    "source_query": "Irrigation Equipment",
    "source_country": "UA",
    "country": "Ukraine",
    "state": "Kyivska oblast",
    "city": "Trebukhiv"
  },
  {
    "source_id": "ChIJq1OAQEXF1EARIAyoFByGrW4",
    "name": "Ahrarna Industrialʹna Kompaniya",
    "category": "Ahrarna Industrialʹna Kompaniya",
    "formatted_address": "4,8(12)",
    "phone_number": "+380504444184",
    "source_url": "https://www.google.com/maps/place/Ahrarna+Industrial%CA%B9na+Kompaniya/data=!4m7!3m6!1s0x40d4c545408053ab:0x6ead861c14a80c20!8m2!3d50.4090678!4d30.6121652!16s%2Fg%2F1tdk3pn4!19sChIJq1OAQEXF1EARIAyoFByGrW4?authuser=0&hl=tr&rclk=1",
    "website_url": "",
    "rating_text": "4,8",
    "stars": null,
    "number_of_reviews": null,
    "price_level": "",
    "open_hours": "",
    "extraction_timestamp": "2025-06-08T03:28:47.637Z",
    "source_name": "google",
    "source_query": "Irrigation Equipment",
    "source_country": "UA",
    "country": "Ukraine",
    "state": "Kyivska oblast",
    "city": "Trebukhiv"
  },
  {
    "source_id": "ChIJnWlEgGLe1EAREImgMamOf8A",
    "name": "Rynok",
    "category": "Rynok",
    "formatted_address": "4,0(191)",
    "phone_number": "",
    "source_url": "https://www.google.com/maps/place/Rynok/data=!4m7!3m6!1s0x40d4de628044699d:0xc07f8ea931a08910!8m2!3d50.4844444!4d30.8963889!16s%2Fg%2F11h1kt__x!19sChIJnWlEgGLe1EAREImgMamOf8A?authuser=0&hl=tr&rclk=1",
    "website_url": "",
    "rating_text": "4,0",
    "stars": null,
    "number_of_reviews": null,
    "price_level": "",
    "open_hours": "",
    "extraction_timestamp": "2025-06-08T03:28:47.639Z",
    "source_name": "google",
    "source_query": "Irrigation Equipment",
    "source_country": "UA",
    "country": "Ukraine",
    "state": "Kyivska oblast",
    "city": "Trebukhiv"
  },
  {
    "source_id": "ChIJwSmas4_e1EARfwGPknu79TA",
    "name": "Kashtan",
    "category": "Kashtan",
    "formatted_address": "4,4(425)",
    "phone_number": "",
    "source_url": "https://www.google.com/maps/place/Kashtan/data=!4m7!3m6!1s0x40d4de8fb39a29c1:0x30f5bb7b928f017f!8m2!3d50.4877668!4d30.8838368!16s%2Fg%2F1pp2tyw3z!19sChIJwSmas4_e1EARfwGPknu79TA?authuser=0&hl=tr&rclk=1",
    "website_url": "",
    "rating_text": "4,4",
    "stars": null,
    "number_of_reviews": null,
    "price_level": "",
    "open_hours": "",
    "extraction_timestamp": "2025-06-08T03:28:47.640Z",
    "source_name": "google",
    "source_query": "Irrigation Equipment",
    "source_country": "UA",
    "country": "Ukraine",
    "state": "Kyivska oblast",
    "city": "Trebukhiv"
  },
  {
    "source_id": "ChIJWa-AfuTf1EARpAG63m7yxbg",
    "name": "Снабженец",
    "category": "Снабженец",
    "formatted_address": "5,0(3)",
    "phone_number": "+380631092400",
    "source_url": "https://www.google.com/maps/place/%D0%A1%D0%BD%D0%B0%D0%B1%D0%B6%D0%B5%D0%BD%D0%B5%D1%86/data=!4m7!3m6!1s0x40d4dfe47e80af59:0xb8c5f26edeba01a4!8m2!3d50.4842927!4d30.8968811!16s%2Fg%2F11nlbnxvl9!19sChIJWa-AfuTf1EARpAG63m7yxbg?authuser=0&hl=tr&rclk=1",
    "website_url": "",
    "rating_text": "5,0",
    "stars": null,
    "number_of_reviews": null,
    "price_level": "",
    "open_hours": "",
    "extraction_timestamp": "2025-06-08T03:28:47.641Z",
    "source_name": "google",
    "source_query": "Irrigation Equipment",
    "source_country": "UA",
    "country": "Ukraine",
    "state": "Kyivska oblast",
    "city": "Trebukhiv"
  },
  {
    "source_id": "ChIJY7_P7HDe1EARGcET4wA-Nrc",
    "name": "Магазин \"Грушка\"",
    "category": "Магазин \"Грушка\"",
    "formatted_address": "4,4(109)",
    "phone_number": "+380961172891",
    "source_url": "https://www.google.com/maps/place/%D0%9C%D0%B0%D0%B3%D0%B0%D0%B7%D0%B8%D0%BD+%22%D0%93%D1%80%D1%83%D1%88%D0%BA%D0%B0%22/data=!4m7!3m6!1s0x40d4de70eccfbf63:0xb7363e00e313c119!8m2!3d50.4747155!4d30.9068119!16s%2Fg%2F11c1v33nm9!19sChIJY7_P7HDe1EARGcET4wA-Nrc?authuser=0&hl=tr&rclk=1",
    "website_url": "",
    "rating_text": "4,4",
    "stars": null,
    "number_of_reviews": null,
    "price_level": "",
    "open_hours": "",
    "extraction_timestamp": "2025-06-08T03:28:47.642Z",
    "source_name": "google",
    "source_query": "Irrigation Equipment",
    "source_country": "UA",
    "country": "Ukraine",
    "state": "Kyivska oblast",
    "city": "Trebukhiv"
  },
  {
    "source_id": "ChIJd5AjKQDf1EAROaR-yOl3riE",
    "name": "Mahazyn \"Zhovtenʹ\"",
    "category": "Mahazyn \"Zhovtenʹ\"",
    "formatted_address": "5,0(1)",
    "phone_number": "",
    "source_url": "https://www.google.com/maps/place/Mahazyn+%22Zhovten%CA%B9%22/data=!4m7!3m6!1s0x40d4df0029239077:0x21ae77e9c87ea439!8m2!3d50.4825787!4d30.913176!16s%2Fg%2F11vx3zyxs3!19sChIJd5AjKQDf1EAROaR-yOl3riE?authuser=0&hl=tr&rclk=1",
    "website_url": "",
    "rating_text": "5,0",
    "stars": null,
    "number_of_reviews": null,
    "price_level": "",
    "open_hours": "",
    "extraction_timestamp": "2025-06-08T03:28:47.643Z",
    "source_name": "google",
    "source_query": "Irrigation Equipment",
    "source_country": "UA",
    "country": "Ukraine",
    "state": "Kyivska oblast",
    "city": "Trebukhiv"
  },
  {
    "source_id": "ChIJl1lE6o_e1EARfFmTNEalZTY",
    "name": "Супермаркет RC",
    "category": "Супермаркет RC",
    "formatted_address": "3,7(186)",
    "phone_number": "",
    "source_url": "https://www.google.com/maps/place/%D0%A1%D1%83%D0%BF%D0%B5%D1%80%D0%BC%D0%B0%D1%80%D0%BA%D0%B5%D1%82+RC/data=!4m7!3m6!1s0x40d4de8fea445997:0x3665a5463493597c!8m2!3d50.4876707!4d30.8819581!16s%2Fg%2F11f29xvzx_!19sChIJl1lE6o_e1EARfFmTNEalZTY?authuser=0&hl=tr&rclk=1",
    "website_url": "",
    "rating_text": "3,7",
    "stars": null,
    "number_of_reviews": null,
    "price_level": "",
    "open_hours": "",
    "extraction_timestamp": "2025-06-08T03:28:47.644Z",
    "source_name": "google",
    "source_query": "Irrigation Equipment",
    "source_country": "UA",
    "country": "Ukraine",
    "state": "Kyivska oblast",
    "city": "Trebukhiv"
  },
  {
    "source_id": "ChIJIV3XzIbe1EARW83ipIkhtjY",
    "name": "Hendelyk",
    "category": "Hendelyk",
    "formatted_address": "2,8(46)",
    "phone_number": "",
    "source_url": "https://www.google.com/maps/place/Hendelyk/data=!4m7!3m6!1s0x40d4de86ccd75d21:0x36b62189a4e2cd5b!8m2!3d50.4796309!4d30.8837942!16s%2Fg%2F1pp2tyw4m!19sChIJIV3XzIbe1EARW83ipIkhtjY?authuser=0&hl=tr&rclk=1",
    "website_url": "",
    "rating_text": "2,8",
    "stars": null,
    "number_of_reviews": null,
    "price_level": "",
    "open_hours": "",
    "extraction_timestamp": "2025-06-08T03:28:47.644Z",
    "source_name": "google",
    "source_query": "Irrigation Equipment",
    "source_country": "UA",
    "country": "Ukraine",
    "state": "Kyivska oblast",
    "city": "Trebukhiv"
  },
  {
    "source_id": "ChIJH7zHCI_e1EARaDoptFCSxDo",
    "name": "Fora",
    "category": "Fora",
    "formatted_address": "4,1(331)",
    "phone_number": "+380800301230",
    "source_url": "https://www.google.com/maps/place/Fora/data=!4m7!3m6!1s0x40d4de8f08c7bc1f:0x3ac49250b4293a68!8m2!3d50.4870187!4d30.8849913!16s%2Fg%2F11cs05sh99!19sChIJH7zHCI_e1EARaDoptFCSxDo?authuser=0&hl=tr&rclk=1",
    "website_url": "",
    "rating_text": "4,1",
    "stars": null,
    "number_of_reviews": null,
    "price_level": "",
    "open_hours": "",
    "extraction_timestamp": "2025-06-08T03:28:47.645Z",
    "source_name": "google",
    "source_query": "Irrigation Equipment",
    "source_country": "UA",
    "country": "Ukraine",
    "state": "Kyivska oblast",
    "city": "Trebukhiv"
  },
  {
    "source_id": "ChIJNV4Umfze1EARUOgqTJ9URCE",
    "name": "Prodtovary",
    "category": "Prodtovary",
    "formatted_address": "3,7(7)",
    "phone_number": "",
    "source_url": "https://www.google.com/maps/place/Prodtovary/data=!4m7!3m6!1s0x40d4defc99145e35:0x2144549f4c2ae850!8m2!3d50.5074863!4d30.9073929!16s%2Fg%2F11c1th7rn7!19sChIJNV4Umfze1EARUOgqTJ9URCE?authuser=0&hl=tr&rclk=1",
    "website_url": "",
    "rating_text": "3,7",
    "stars": null,
    "number_of_reviews": null,
    "price_level": "",
    "open_hours": "",
    "extraction_timestamp": "2025-06-08T03:28:47.646Z",
    "source_name": "google",
    "source_query": "Irrigation Equipment",
    "source_country": "UA",
    "country": "Ukraine",
    "state": "Kyivska oblast",
    "city": "Trebukhiv"
  },
  {
    "source_id": "ChIJx9HKCvbf1EARcb8ol_zXiWk",
    "name": "Аптека «Бажаємо здоров'я»",
    "category": "Аптека «Бажаємо здоров'я»",
    "formatted_address": "5,0(1)",
    "phone_number": "+380981803907",
    "source_url": "https://www.google.com/maps/place/%D0%90%D0%BF%D1%82%D0%B5%D0%BA%D0%B0+%C2%AB%D0%91%D0%B0%D0%B6%D0%B0%D1%94%D0%BC%D0%BE+%D0%B7%D0%B4%D0%BE%D1%80%D0%BE%D0%B2%27%D1%8F%C2%BB/data=!4m7!3m6!1s0x40d4dff60acad1c7:0x6989d7fc9728bf71!8m2!3d50.4854686!4d30.8948215!16s%2Fg%2F11xdk1jhxy!19sChIJx9HKCvbf1EARcb8ol_zXiWk?authuser=0&hl=tr&rclk=1",
    "website_url": "",
    "rating_text": "5,0",
    "stars": null,
    "number_of_reviews": null,
    "price_level": "",
    "open_hours": "",
    "extraction_timestamp": "2025-06-08T03:28:47.647Z",
    "source_name": "google",
    "source_query": "Irrigation Equipment",
    "source_country": "UA",
    "country": "Ukraine",
    "state": "Kyivska oblast",
    "city": "Trebukhiv"
  },
  {
    "source_id": "ChIJWxt4AlHO1EARIhiDVwPGmbM",
    "name": "Eridon",
    "category": "Eridon",
    "formatted_address": "4,4(96)",
    "phone_number": "+380800408700",
    "source_url": "https://www.google.com/maps/place/Eridon/data=!4m7!3m6!1s0x40d4ce5102781b5b:0xb399c60357831822!8m2!3d50.3907885!4d30.4151779!16s%2Fg%2F1tf_rd2m!19sChIJWxt4AlHO1EARIhiDVwPGmbM?authuser=0&hl=tr&rclk=1",
    "website_url": "",
    "rating_text": "4,4",
    "stars": null,
    "number_of_reviews": null,
    "price_level": "",
    "open_hours": "",
    "extraction_timestamp": "2025-06-08T03:28:47.649Z",
    "source_name": "google",
    "source_query": "Irrigation Equipment",
    "source_country": "UA",
    "country": "Ukraine",
    "state": "Kyivska oblast",
    "city": "Trebukhiv"
  },
  {
    "source_id": "ChIJ0x2iMYje1EARDhDnIJ29pf0",
    "name": "Bazhayemo Zdorov'ya",
    "category": "Bazhayemo Zdorov'ya",
    "formatted_address": "4,5(23)",
    "phone_number": "+380933924739",
    "source_url": "https://www.google.com/maps/place/Bazhayemo+Zdorov%27ya/data=!4m7!3m6!1s0x40d4de8831a21dd3:0xfda5bd9d20e7100e!8m2!3d50.4844169!4d30.8947271!16s%2Fg%2F11g6rbf0cy!19sChIJ0x2iMYje1EARDhDnIJ29pf0?authuser=0&hl=tr&rclk=1",
    "website_url": "",
    "rating_text": "4,5",
    "stars": null,
    "number_of_reviews": null,
    "price_level": "",
    "open_hours": "",
    "extraction_timestamp": "2025-06-08T03:28:47.650Z",
    "source_name": "google",
    "source_query": "Irrigation Equipment",
    "source_country": "UA",
    "country": "Ukraine",
    "state": "Kyivska oblast",
    "city": "Trebukhiv"
  },
  {
    "source_id": "ChIJkWLiB4_e1EARzmE9S6_y7A4",
    "name": "Tochka",
    "category": "Tochka",
    "formatted_address": "4,6(119) · ₺₺",
    "phone_number": "+380504477817",
    "source_url": "https://www.google.com/maps/place/Tochka/data=!4m7!3m6!1s0x40d4de8f07e26291:0xeecf2af4b3d61ce!8m2!3d50.4871526!4d30.8847263!16s%2Fg%2F11bxg0g7n5!19sChIJkWLiB4_e1EARzmE9S6_y7A4?authuser=0&hl=tr&rclk=1",
    "website_url": "",
    "rating_text": "4,6",
    "stars": null,
    "number_of_reviews": null,
    "price_level": "",
    "open_hours": "",
    "extraction_timestamp": "2025-06-08T03:28:47.652Z",
    "source_name": "google",
    "source_query": "Irrigation Equipment",
    "source_country": "UA",
    "country": "Ukraine",
    "state": "Kyivska oblast",
    "city": "Trebukhiv"
  },
  {
    "source_id": "ChIJEQViYgDf1EAR45-Eld2crHE",
    "name": "Аврора",
    "category": "Аврора",
    "formatted_address": "4,1(8)",
    "phone_number": "+380800300066",
    "source_url": "https://www.google.com/maps/place/%D0%90%D0%B2%D1%80%D0%BE%D1%80%D0%B0/data=!4m7!3m6!1s0x40d4df0062620511:0x71ac9cdd95849fe3!8m2!3d50.485471!4d30.8948871!16s%2Fg%2F11vz9qd3v5!19sChIJEQViYgDf1EAR45-Eld2crHE?authuser=0&hl=tr&rclk=1",
    "website_url": "",
    "rating_text": "4,1",
    "stars": null,
    "number_of_reviews": null,
    "price_level": "",
    "open_hours": "",
    "extraction_timestamp": "2025-06-08T03:28:47.653Z",
    "source_name": "google",
    "source_query": "Irrigation Equipment",
    "source_country": "UA",
    "country": "Ukraine",
    "state": "Kyivska oblast",
    "city": "Trebukhiv"
  },
  {
    "source_id": "ChIJxxFC-RXK1EAR2rc9a2uY2EA",
    "name": "АГРО-ДОМ — ножи к сельскохозяйственной технике от производителя",
    "category": "АГРО-ДОМ — ножи к сельскохозяйственной технике от производителя",
    "formatted_address": "5,0(1)",
    "phone_number": "+380674425207",
    "source_url": "https://www.google.com/maps/place/%D0%90%D0%93%D0%A0%D0%9E-%D0%94%D0%9E%D0%9C+%E2%80%94+%D0%BD%D0%BE%D0%B6%D0%B8+%D0%BA+%D1%81%D0%B5%D0%BB%D1%8C%D1%81%D0%BA%D0%BE%D1%85%D0%BE%D0%B7%D1%8F%D0%B9%D1%81%D1%82%D0%B2%D0%B5%D0%BD%D0%BD%D0%BE%D0%B9+%D1%82%D0%B5%D1%85%D0%BD%D0%B8%D0%BA%D0%B5+%D0%BE%D1%82+%D0%BF%D1%80%D0%BE%D0%B8%D0%B7%D0%B2%D0%BE%D0%B4%D0%B8%D1%82%D0%B5%D0%BB%D1%8F/data=!4m7!3m6!1s0x40d4ca15f94211c7:0x40d8986b6b3db7da!8m2!3d50.3804438!4d30.3436091!16s%2Fg%2F11fyxbsr5c!19sChIJxxFC-RXK1EAR2rc9a2uY2EA?authuser=0&hl=tr&rclk=1",
    "website_url": "",
    "rating_text": "5,0",
    "stars": null,
    "number_of_reviews": null,
    "price_level": "",
    "open_hours": "",
    "extraction_timestamp": "2025-06-08T03:28:47.654Z",
    "source_name": "google",
    "source_query": "Irrigation Equipment",
    "source_country": "UA",
    "country": "Ukraine",
    "state": "Kyivska oblast",
    "city": "Trebukhiv"
  },
  {
    "source_id": "ChIJybFzLvvf1EARd3W62QoJzck",
    "name": "The Cafe",
    "category": "The Cafe",
    "formatted_address": "5,0(1)",
    "phone_number": "",
    "source_url": "https://www.google.com/maps/place/The+Cafe/data=!4m7!3m6!1s0x40d4dffb2e73b1c9:0xc9cd090ad9ba7577!8m2!3d50.5017913!4d30.9213179!16s%2Fg%2F11vf21lv9g!19sChIJybFzLvvf1EARd3W62QoJzck?authuser=0&hl=tr&rclk=1",
    "website_url": "",
    "rating_text": "5,0",
    "stars": null,
    "number_of_reviews": null,
    "price_level": "",
    "open_hours": "",
    "extraction_timestamp": "2025-06-08T03:28:47.655Z",
    "source_name": "google",
    "source_query": "Irrigation Equipment",
    "source_country": "UA",
    "country": "Ukraine",
    "state": "Kyivska oblast",
    "city": "Trebukhiv"
  },
  {
    "source_id": "ChIJs9Xb_Ozf1EAREx4KJcquzRQ",
    "name": "Flat White",
    "category": "Flat White",
    "formatted_address": "5,0(2)",
    "phone_number": "",
    "source_url": "https://www.google.com/maps/place/Flat+White/data=!4m7!3m6!1s0x40d4dfecfcdbd5b3:0x14cdaeca250a1e13!8m2!3d50.4877531!4d30.8841903!16s%2Fg%2F11rsfs_ly3!19sChIJs9Xb_Ozf1EAREx4KJcquzRQ?authuser=0&hl=tr&rclk=1",
    "website_url": "",
    "rating_text": "5,0",
    "stars": null,
    "number_of_reviews": null,
    "price_level": "",
    "open_hours": "",
    "extraction_timestamp": "2025-06-08T03:28:47.655Z",
    "source_name": "google",
    "source_query": "Irrigation Equipment",
    "source_country": "UA",
    "country": "Ukraine",
    "state": "Kyivska oblast",
    "city": "Trebukhiv"
  }
]
