[
  {
    "source_id": "ChIJETZI2UKX1EARG1R3UAQw2mY",
    "name": "Tov \"Spektr-Ahro\"",
    "category": "Tov \"Spektr-Ahro\"",
    "formatted_address": "4,4(66)",
    "phone_number": "+380445209430",
    "source_url": "https://www.google.com/maps/place/Tov+%22Spektr-Ahro%22/data=!4m7!3m6!1s0x40d49742d9483611:0x66da30045077541b!8m2!3d50.1354884!4d30.695849!16s%2Fg%2F124ymr59z!19sChIJETZI2UKX1EARG1R3UAQw2mY?authuser=0&hl=tr&rclk=1",
    "website_url": "",
    "rating_text": "4,4",
    "stars": null,
    "number_of_reviews": null,
    "price_level": "",
    "open_hours": "",
    "extraction_timestamp": "2025-06-08T03:29:53.398Z",
    "source_name": "google",
    "source_query": "Irrigation Equipment",
    "source_country": "UA",
    "country": "Ukraine",
    "state": "Kyivska oblast",
    "city": "Ukrainka"
  },
  {
    "source_id": "ChIJn7SKus2R1EARfY3fm0aHypA",
    "name": "Будівельний магазин \"Котлован\"",
    "category": "Будівельний магазин \"Котлован\"",
    "formatted_address": "4,5(134)",
    "phone_number": "+380680749424",
    "source_url": "https://www.google.com/maps/place/%D0%91%D1%83%D0%B4%D1%96%D0%B2%D0%B5%D0%BB%D1%8C%D0%BD%D0%B8%D0%B9+%D0%BC%D0%B0%D0%B3%D0%B0%D0%B7%D0%B8%D0%BD+%22%D0%9A%D0%BE%D1%82%D0%BB%D0%BE%D0%B2%D0%B0%D0%BD%22/data=!4m7!3m6!1s0x40d491cdba8ab49f:0x90ca87469bdf8d7d!8m2!3d50.1457662!4d30.7469481!16s%2Fg%2F11fly_872_!19sChIJn7SKus2R1EARfY3fm0aHypA?authuser=0&hl=tr&rclk=1",
    "website_url": "",
    "rating_text": "4,5",
    "stars": null,
    "number_of_reviews": null,
    "price_level": "",
    "open_hours": "",
    "extraction_timestamp": "2025-06-08T03:29:53.399Z",
    "source_name": "google",
    "source_query": "Irrigation Equipment",
    "source_country": "UA",
    "country": "Ukraine",
    "state": "Kyivska oblast",
    "city": "Ukrainka"
  },
  {
    "source_id": "ChIJ60XEpQbQ1EARVLf9IomIVYg",
    "name": "Poliv UA",
    "category": "Poliv UA",
    "formatted_address": "4,8(64)",
    "phone_number": "+380443379900",
    "source_url": "https://www.google.com/maps/place/Poliv+UA/data=!4m7!3m6!1s0x40d4d006a5c445eb:0x8855888922fdb754!8m2!3d50.4646434!4d30.6255633!16s%2Fg%2F11clsyjy7n!19sChIJ60XEpQbQ1EARVLf9IomIVYg?authuser=0&hl=tr&rclk=1",
    "website_url": "",
    "rating_text": "4,8",
    "stars": null,
    "number_of_reviews": null,
    "price_level": "",
    "open_hours": "",
    "extraction_timestamp": "2025-06-08T03:29:53.401Z",
    "source_name": "google",
    "source_query": "Irrigation Equipment",
    "source_country": "UA",
    "country": "Ukraine",
    "state": "Kyivska oblast",
    "city": "Ukrainka"
  },
  {
    "source_id": "ChIJi4Qz-Pfb1EAR_HYNsM1EFVE",
    "name": "GreenEra ГрінЕра - Інтернет-магазин ємностей та резервуарів, каналізаційних системи в Києві та Україні",
    "category": "GreenEra ГрінЕра - Інтернет-магазин ємностей та резервуарів, каналізаційних системи в Києві та Україні",
    "formatted_address": "GreenEra ГрінЕра - Інтернет-магазин ємностей та резервуарів, каналізаційних системи в Києві та Україні",
    "phone_number": "+380980894808",
    "source_url": "https://www.google.com/maps/place/GreenEra+%D0%93%D1%80%D1%96%D0%BD%D0%95%D1%80%D0%B0+-+%D0%86%D0%BD%D1%82%D0%B5%D1%80%D0%BD%D0%B5%D1%82-%D0%BC%D0%B0%D0%B3%D0%B0%D0%B7%D0%B8%D0%BD+%D1%94%D0%BC%D0%BD%D0%BE%D1%81%D1%82%D0%B5%D0%B9+%D1%82%D0%B0+%D1%80%D0%B5%D0%B7%D0%B5%D1%80%D0%B2%D1%83%D0%B0%D1%80%D1%96%D0%B2,+%D0%BA%D0%B0%D0%BD%D0%B0%D0%BB%D1%96%D0%B7%D0%B0%D1%86%D1%96%D0%B9%D0%BD%D0%B8%D1%85+%D1%81%D0%B8%D1%81%D1%82%D0%B5%D0%BC%D0%B8+%D0%B2+%D0%9A%D0%B8%D1%94%D0%B2%D1%96+%D1%82%D0%B0+%D0%A3%D0%BA%D1%80%D0%B0%D1%97%D0%BD%D1%96/data=!4m7!3m6!1s0x40d4dbf7f833848b:0x511544cdb00d76fc!8m2!3d50.1495746!4d30.7492831!16s%2Fg%2F11j59q0b66!19sChIJi4Qz-Pfb1EAR_HYNsM1EFVE?authuser=0&hl=tr&rclk=1",
    "website_url": "",
    "rating_text": "5,0",
    "stars": null,
    "number_of_reviews": null,
    "price_level": "",
    "open_hours": "",
    "extraction_timestamp": "2025-06-08T03:29:53.402Z",
    "source_name": "google",
    "source_query": "Irrigation Equipment",
    "source_country": "UA",
    "country": "Ukraine",
    "state": "Kyivska oblast",
    "city": "Ukrainka"
  },
  {
    "source_id": "ChIJB7xyqPyT1EARjrEG4OTBWJU",
    "name": "Pro100velik",
    "category": "Pro100velik",
    "formatted_address": "5,0(14)",
    "phone_number": "+380669007516",
    "source_url": "https://www.google.com/maps/place/Pro100velik/data=!4m7!3m6!1s0x40d493fca872bc07:0x9558c1e4e006b18e!8m2!3d50.1460477!4d30.7537412!16s%2Fg%2F11c2r5_6vf!19sChIJB7xyqPyT1EARjrEG4OTBWJU?authuser=0&hl=tr&rclk=1",
    "website_url": "",
    "rating_text": "5,0",
    "stars": null,
    "number_of_reviews": null,
    "price_level": "",
    "open_hours": "",
    "extraction_timestamp": "2025-06-08T03:29:53.404Z",
    "source_name": "google",
    "source_query": "Irrigation Equipment",
    "source_country": "UA",
    "country": "Ukraine",
    "state": "Kyivska oblast",
    "city": "Ukrainka"
  },
  {
    "source_id": "ChIJRa3o2hDG1EARvFwMiTpym0k",
    "name": "ЭВКАЛИПТ Р КОМПАНИЯ",
    "category": "ЭВКАЛИПТ Р КОМПАНИЯ",
    "formatted_address": "4,9(41)",
    "phone_number": "+380933654300",
    "source_url": "https://www.google.com/maps/place/%D0%AD%D0%92%D0%9A%D0%90%D0%9B%D0%98%D0%9F%D0%A2+%D0%A0+%D0%9A%D0%9E%D0%9C%D0%9F%D0%90%D0%9D%D0%98%D0%AF/data=!4m7!3m6!1s0x40d4c610dae8ad45:0x499b723a890c5cbc!8m2!3d50.360383!4d30.47321!16s%2Fg%2F11xhrr_g1!19sChIJRa3o2hDG1EARvFwMiTpym0k?authuser=0&hl=tr&rclk=1",
    "website_url": "",
    "rating_text": "4,9",
    "stars": null,
    "number_of_reviews": null,
    "price_level": "",
    "open_hours": "",
    "extraction_timestamp": "2025-06-08T03:29:53.405Z",
    "source_name": "google",
    "source_query": "Irrigation Equipment",
    "source_country": "UA",
    "country": "Ukraine",
    "state": "Kyivska oblast",
    "city": "Ukrainka"
  },
  {
    "source_id": "ChIJE4t55MaT1EARnvX9lF5EGVU",
    "name": "ROZETKA",
    "category": "ROZETKA",
    "formatted_address": "5,0(13)",
    "phone_number": "",
    "source_url": "https://www.google.com/maps/place/ROZETKA/data=!4m7!3m6!1s0x40d493c6e4798b13:0x5519445e94fdf59e!8m2!3d50.1526683!4d30.7482994!16s%2Fg%2F11vm2vxvns!19sChIJE4t55MaT1EARnvX9lF5EGVU?authuser=0&hl=tr&rclk=1",
    "website_url": "",
    "rating_text": "5,0",
    "stars": null,
    "number_of_reviews": null,
    "price_level": "",
    "open_hours": "",
    "extraction_timestamp": "2025-06-08T03:29:53.407Z",
    "source_name": "google",
    "source_query": "Irrigation Equipment",
    "source_country": "UA",
    "country": "Ukraine",
    "state": "Kyivska oblast",
    "city": "Ukrainka"
  },
  {
    "source_id": "ChIJ_bPRIFmR1EARw-tLiiBpE4I",
    "name": "Eko Market",
    "category": "Eko Market",
    "formatted_address": "3,4(1.769)",
    "phone_number": "+380800302055",
    "source_url": "https://www.google.com/maps/place/Eko+Market/data=!4m7!3m6!1s0x40d4915920d1b3fd:0x821369208a4bebc3!8m2!3d50.14563!4d30.7493673!16s%2Fg%2F11b6rt0c3c!19sChIJ_bPRIFmR1EARw-tLiiBpE4I?authuser=0&hl=tr&rclk=1",
    "website_url": "",
    "rating_text": "3,4",
    "stars": null,
    "number_of_reviews": null,
    "price_level": "",
    "open_hours": "",
    "extraction_timestamp": "2025-06-08T03:29:53.410Z",
    "source_name": "google",
    "source_query": "Irrigation Equipment",
    "source_country": "UA",
    "country": "Ukraine",
    "state": "Kyivska oblast",
    "city": "Ukrainka"
  },
  {
    "source_id": "ChIJG9jp7_6T1EARc22KbpcHsMw",
    "name": "Produkty",
    "category": "Produkty",
    "formatted_address": "4,4(29)",
    "phone_number": "",
    "source_url": "https://www.google.com/maps/place/Produkty/data=!4m7!3m6!1s0x40d493feefe9d81b:0xccb007976e8a6d73!8m2!3d50.155077!4d30.7392359!16s%2Fg%2F11f03m3mrg!19sChIJG9jp7_6T1EARc22KbpcHsMw?authuser=0&hl=tr&rclk=1",
    "website_url": "",
    "rating_text": "4,4",
    "stars": null,
    "number_of_reviews": null,
    "price_level": "",
    "open_hours": "",
    "extraction_timestamp": "2025-06-08T03:29:53.411Z",
    "source_name": "google",
    "source_query": "Irrigation Equipment",
    "source_country": "UA",
    "country": "Ukraine",
    "state": "Kyivska oblast",
    "city": "Ukrainka"
  },
  {
    "source_id": "ChIJX_6Igc2W1EARSXW4-lhFIjU",
    "name": "ТОВ \"Валром Украина\"",
    "category": "ТОВ \"Валром Украина\"",
    "formatted_address": "4,4(23)",
    "phone_number": "+380457278058",
    "source_url": "https://www.google.com/maps/place/%D0%A2%D0%9E%D0%92+%22%D0%92%D0%B0%D0%BB%D1%80%D0%BE%D0%BC+%D0%A3%D0%BA%D1%80%D0%B0%D0%B8%D0%BD%D0%B0%22/data=!4m7!3m6!1s0x40d496cd8188fe5f:0x35224558fab87549!8m2!3d50.130097!4d30.698032!16s%2Fg%2F1tgn37j7!19sChIJX_6Igc2W1EARSXW4-lhFIjU?authuser=0&hl=tr&rclk=1",
    "website_url": "",
    "rating_text": "4,4",
    "stars": null,
    "number_of_reviews": null,
    "price_level": "",
    "open_hours": "",
    "extraction_timestamp": "2025-06-08T03:29:53.412Z",
    "source_name": "google",
    "source_query": "Irrigation Equipment",
    "source_country": "UA",
    "country": "Ukraine",
    "state": "Kyivska oblast",
    "city": "Ukrainka"
  },
  {
    "source_id": "ChIJ343NHQyR1EAReJUHJ2azqRI",
    "name": "ROZETKA",
    "category": "ROZETKA",
    "formatted_address": "4,7(15)",
    "phone_number": "",
    "source_url": "https://www.google.com/maps/place/ROZETKA/data=!4m7!3m6!1s0x40d4910c1dcd8ddf:0x12a9b36627079578!8m2!3d50.148248!4d30.7457971!16s%2Fg%2F11rmwpb_nm!19sChIJ343NHQyR1EAReJUHJ2azqRI?authuser=0&hl=tr&rclk=1",
    "website_url": "",
    "rating_text": "4,7",
    "stars": null,
    "number_of_reviews": null,
    "price_level": "",
    "open_hours": "",
    "extraction_timestamp": "2025-06-08T03:29:53.412Z",
    "source_name": "google",
    "source_query": "Irrigation Equipment",
    "source_country": "UA",
    "country": "Ukraine",
    "state": "Kyivska oblast",
    "city": "Ukrainka"
  },
  {
    "source_id": "ChIJy8itleKT1EARgRC_59-FCFs",
    "name": "Berizka.",
    "category": "Berizka.",
    "formatted_address": "3,6(102)",
    "phone_number": "+380991112233",
    "source_url": "https://www.google.com/maps/place/Berizka./data=!4m7!3m6!1s0x40d493e295adc8cb:0x5b0885dfe7bf1081!8m2!3d50.1499568!4d30.7495795!16s%2Fg%2F11c5t3fv45!19sChIJy8itleKT1EARgRC_59-FCFs?authuser=0&hl=tr&rclk=1",
    "website_url": "",
    "rating_text": "3,6",
    "stars": null,
    "number_of_reviews": null,
    "price_level": "",
    "open_hours": "",
    "extraction_timestamp": "2025-06-08T03:29:53.414Z",
    "source_name": "google",
    "source_query": "Irrigation Equipment",
    "source_country": "UA",
    "country": "Ukraine",
    "state": "Kyivska oblast",
    "city": "Ukrainka"
  },
  {
    "source_id": "ChIJXwkGoeKT1EAR41o3oCw_HDE",
    "name": "Ideal",
    "category": "Ideal",
    "formatted_address": "3,7(58)",
    "phone_number": "",
    "source_url": "https://www.google.com/maps/place/Ideal/data=!4m7!3m6!1s0x40d493e2a106095f:0x311c3f2ca0375ae3!8m2!3d50.1492687!4d30.7479148!16s%2Fg%2F11fy4b8yl3!19sChIJXwkGoeKT1EAR41o3oCw_HDE?authuser=0&hl=tr&rclk=1",
    "website_url": "",
    "rating_text": "3,7",
    "stars": null,
    "number_of_reviews": null,
    "price_level": "",
    "open_hours": "",
    "extraction_timestamp": "2025-06-08T03:29:53.415Z",
    "source_name": "google",
    "source_query": "Irrigation Equipment",
    "source_country": "UA",
    "country": "Ukraine",
    "state": "Kyivska oblast",
    "city": "Ukrainka"
  },
  {
    "source_id": "ChIJnc5_GlvJ1EARl164nILNZe8",
    "name": "BOTTLE drinkmarket",
    "category": "BOTTLE drinkmarket",
    "formatted_address": "4,1(58)",
    "phone_number": "+380991998665",
    "source_url": "https://www.google.com/maps/place/BOTTLE+drinkmarket/data=!4m7!3m6!1s0x40d4c95b1a7fce9d:0xef65cd829cb85e97!8m2!3d50.1526527!4d30.7405824!16s%2Fg%2F11gw2mtmy8!19sChIJnc5_GlvJ1EARl164nILNZe8?authuser=0&hl=tr&rclk=1",
    "website_url": "",
    "rating_text": "4,1",
    "stars": null,
    "number_of_reviews": null,
    "price_level": "",
    "open_hours": "",
    "extraction_timestamp": "2025-06-08T03:29:53.416Z",
    "source_name": "google",
    "source_query": "Irrigation Equipment",
    "source_country": "UA",
    "country": "Ukraine",
    "state": "Kyivska oblast",
    "city": "Ukrainka"
  },
  {
    "source_id": "ChIJVw3sHVmR1EARV0wcVs0y2SA",
    "name": "Рынок Украинка",
    "category": "Рынок Украинка",
    "formatted_address": "3,8(1.595)",
    "phone_number": "",
    "source_url": "https://www.google.com/maps/place/%D0%A0%D1%8B%D0%BD%D0%BE%D0%BA+%D0%A3%D0%BA%D1%80%D0%B0%D0%B8%D0%BD%D0%BA%D0%B0/data=!4m7!3m6!1s0x40d491591dec0d57:0x20d932cd561c4c57!8m2!3d50.1457577!4d30.7492022!16s%2Fg%2F11bw3b95jf!19sChIJVw3sHVmR1EARV0wcVs0y2SA?authuser=0&hl=tr&rclk=1",
    "website_url": "",
    "rating_text": "3,8",
    "stars": null,
    "number_of_reviews": null,
    "price_level": "",
    "open_hours": "",
    "extraction_timestamp": "2025-06-08T03:29:53.418Z",
    "source_name": "google",
    "source_query": "Irrigation Equipment",
    "source_country": "UA",
    "country": "Ukraine",
    "state": "Kyivska oblast",
    "city": "Ukrainka"
  },
  {
    "source_id": "ChIJh92K7b2T1EARpRu9c6U0sWc",
    "name": "Українське Курче",
    "category": "Українське Курче",
    "formatted_address": "5,0(1)",
    "phone_number": "+380800500001",
    "source_url": "https://www.google.com/maps/place/%D0%A3%D0%BA%D1%80%D0%B0%D1%97%D0%BD%D1%81%D1%8C%D0%BA%D0%B5+%D0%9A%D1%83%D1%80%D1%87%D0%B5/data=!4m7!3m6!1s0x40d493bded8add87:0x67b134a573bd1ba5!8m2!3d50.1508662!4d30.7501534!16s%2Fg%2F11jprf47br!19sChIJh92K7b2T1EARpRu9c6U0sWc?authuser=0&hl=tr&rclk=1",
    "website_url": "",
    "rating_text": "5,0",
    "stars": null,
    "number_of_reviews": null,
    "price_level": "",
    "open_hours": "",
    "extraction_timestamp": "2025-06-08T03:29:53.419Z",
    "source_name": "google",
    "source_query": "Irrigation Equipment",
    "source_country": "UA",
    "country": "Ukraine",
    "state": "Kyivska oblast",
    "city": "Ukrainka"
  },
  {
    "source_id": "ChIJyb2AR5KR1EARVyij_fZf6LI",
    "name": "Epitsentr",
    "category": "Epitsentr",
    "formatted_address": "3,2(6)",
    "phone_number": "",
    "source_url": "https://www.google.com/maps/place/Epitsentr/data=!4m7!3m6!1s0x40d491924780bdc9:0xb2e85ff6fda32857!8m2!3d50.1465017!4d30.7536205!16s%2Fg%2F11l5xrqcv4!19sChIJyb2AR5KR1EARVyij_fZf6LI?authuser=0&hl=tr&rclk=1",
    "website_url": "",
    "rating_text": "3,2",
    "stars": null,
    "number_of_reviews": null,
    "price_level": "",
    "open_hours": "",
    "extraction_timestamp": "2025-06-08T03:29:53.420Z",
    "source_name": "google",
    "source_query": "Irrigation Equipment",
    "source_country": "UA",
    "country": "Ukraine",
    "state": "Kyivska oblast",
    "city": "Ukrainka"
  },
  {
    "source_id": "ChIJ82h-XcOT1EARNNwSvfjIsQY",
    "name": "Ekonom",
    "category": "Ekonom",
    "formatted_address": "3,6(156)",
    "phone_number": "+380678884005",
    "source_url": "https://www.google.com/maps/place/Ekonom/data=!4m7!3m6!1s0x40d493c35d7e68f3:0x6b1c8f8bd12dc34!8m2!3d50.1542617!4d30.7469512!16s%2Fg%2F11ddwv3tcj!19sChIJ82h-XcOT1EARNNwSvfjIsQY?authuser=0&hl=tr&rclk=1",
    "website_url": "",
    "rating_text": "3,6",
    "stars": null,
    "number_of_reviews": null,
    "price_level": "",
    "open_hours": "",
    "extraction_timestamp": "2025-06-08T03:29:53.421Z",
    "source_name": "google",
    "source_query": "Irrigation Equipment",
    "source_country": "UA",
    "country": "Ukraine",
    "state": "Kyivska oblast",
    "city": "Ukrainka"
  },
  {
    "source_id": "ChIJLQqHkP2T1EARlW2R9crSQ80",
    "name": "ФОРА",
    "category": "ФОРА",
    "formatted_address": "3,8(708)",
    "phone_number": "+380800301230",
    "source_url": "https://www.google.com/maps/place/%D0%A4%D0%9E%D0%A0%D0%90/data=!4m7!3m6!1s0x40d493fd90870a2d:0xcd43d2caf5916d95!8m2!3d50.15172!4d30.744026!16s%2Fg%2F11b6d75xlx!19sChIJLQqHkP2T1EARlW2R9crSQ80?authuser=0&hl=tr&rclk=1",
    "website_url": "",
    "rating_text": "3,8",
    "stars": null,
    "number_of_reviews": null,
    "price_level": "",
    "open_hours": "",
    "extraction_timestamp": "2025-06-08T03:29:53.422Z",
    "source_name": "google",
    "source_query": "Irrigation Equipment",
    "source_country": "UA",
    "country": "Ukraine",
    "state": "Kyivska oblast",
    "city": "Ukrainka"
  },
  {
    "source_id": "ChIJybb4TJSR1EARV-Wfh2XAEGY",
    "name": "Kitpes",
    "category": "Kitpes",
    "formatted_address": "5,0(1)",
    "phone_number": "+380939008006",
    "source_url": "https://www.google.com/maps/place/Kitpes/data=!4m7!3m6!1s0x40d491944cf8b6c9:0x6610c065879fe557!8m2!3d50.145602!4d30.7501917!16s%2Fg%2F11vdk9gdbq!19sChIJybb4TJSR1EARV-Wfh2XAEGY?authuser=0&hl=tr&rclk=1",
    "website_url": "",
    "rating_text": "5,0",
    "stars": null,
    "number_of_reviews": null,
    "price_level": "",
    "open_hours": "",
    "extraction_timestamp": "2025-06-08T03:29:53.423Z",
    "source_name": "google",
    "source_query": "Irrigation Equipment",
    "source_country": "UA",
    "country": "Ukraine",
    "state": "Kyivska oblast",
    "city": "Ukrainka"
  },
  {
    "source_id": "ChIJLSWTE07E1EAR7y2QpmxfDRE",
    "name": "Tov \"Masterhaz\"",
    "category": "Tov \"Masterhaz\"",
    "formatted_address": "4,4(5.607)",
    "phone_number": "+380445852241",
    "source_url": "https://www.google.com/maps/place/Tov+%22Masterhaz%22/data=!4m7!3m6!1s0x40d4c44e1393252d:0x110d5f6ca6902def!8m2!3d50.395227!4d30.641546!16s%2Fg%2F11btxgh2m_!19sChIJLSWTE07E1EAR7y2QpmxfDRE?authuser=0&hl=tr&rclk=1",
    "website_url": "",
    "rating_text": "4,4",
    "stars": null,
    "number_of_reviews": null,
    "price_level": "",
    "open_hours": "",
    "extraction_timestamp": "2025-06-08T03:29:53.425Z",
    "source_name": "google",
    "source_query": "Irrigation Equipment",
    "source_country": "UA",
    "country": "Ukraine",
    "state": "Kyivska oblast",
    "city": "Ukrainka"
  },
  {
    "source_id": "ChIJwzU3193F1EARXmYnrV6YZeY",
    "name": "KMV",
    "category": "KMV",
    "formatted_address": "Постачальник обладнання для водопостачання · Solomii Krushel'nyts'koi St, 1324 saat açık · +380 63 253 1420",
    "phone_number": "+380632531420",
    "source_url": "https://www.google.com/maps/place/KMV/data=!4m7!3m6!1s0x40d4c5ddd73735c3:0xe665985ead27665e!8m2!3d50.3913345!4d30.6476648!16s%2Fg%2F11vbjx25mq!19sChIJwzU3193F1EARXmYnrV6YZeY?authuser=0&hl=tr&rclk=1",
    "website_url": "",
    "rating_text": "",
    "stars": null,
    "number_of_reviews": null,
    "price_level": "",
    "open_hours": "",
    "extraction_timestamp": "2025-06-08T03:29:53.427Z",
    "source_name": "google",
    "source_query": "Irrigation Equipment",
    "source_country": "UA",
    "country": "Ukraine",
    "state": "Kyivska oblast",
    "city": "Ukrainka"
  },
  {
    "source_id": "ChIJf5EQNhHP1EARyFIa0TSoUMU",
    "name": "ТОВ \"Стрім-Енерджі Компані\"",
    "category": "ТОВ \"Стрім-Енерджі Компані\"",
    "formatted_address": "5,0(4)",
    "phone_number": "+380509855819",
    "source_url": "https://www.google.com/maps/place/%D0%A2%D0%9E%D0%92+%22%D0%A1%D1%82%D1%80%D1%96%D0%BC-%D0%95%D0%BD%D0%B5%D1%80%D0%B4%D0%B6%D1%96+%D0%9A%D0%BE%D0%BC%D0%BF%D0%B0%D0%BD%D1%96%22/data=!4m7!3m6!1s0x40d4cf113610917f:0xc550a834d11a52c8!8m2!3d50.4520424!4d30.6416021!16s%2Fg%2F11gwp6m4rt!19sChIJf5EQNhHP1EARyFIa0TSoUMU?authuser=0&hl=tr&rclk=1",
    "website_url": "",
    "rating_text": "5,0",
    "stars": null,
    "number_of_reviews": null,
    "price_level": "",
    "open_hours": "",
    "extraction_timestamp": "2025-06-08T03:29:53.428Z",
    "source_name": "google",
    "source_query": "Irrigation Equipment",
    "source_country": "UA",
    "country": "Ukraine",
    "state": "Kyivska oblast",
    "city": "Ukrainka"
  },
  {
    "source_id": "ChIJz29ug2_J1EARzaZ7tmeMv4s",
    "name": "Інтернет-магазин LETO Сад від А до Я",
    "category": "Інтернет-магазин LETO Сад від А до Я",
    "formatted_address": "4,7(218)",
    "phone_number": "+380442291160",
    "source_url": "https://www.google.com/maps/place/%D0%86%D0%BD%D1%82%D0%B5%D1%80%D0%BD%D0%B5%D1%82-%D0%BC%D0%B0%D0%B3%D0%B0%D0%B7%D0%B8%D0%BD+LETO+%D0%A1%D0%B0%D0%B4+%D0%B2%D1%96%D0%B4+%D0%90+%D0%B4%D0%BE+%D0%AF/data=!4m7!3m6!1s0x40d4c96f836e6fcf:0x8bbf8c67b67ba6cd!8m2!3d50.396095!4d30.4154559!16s%2Fg%2F1vtzfr1m!19sChIJz29ug2_J1EARzaZ7tmeMv4s?authuser=0&hl=tr&rclk=1",
    "website_url": "",
    "rating_text": "4,7",
    "stars": null,
    "number_of_reviews": null,
    "price_level": "",
    "open_hours": "",
    "extraction_timestamp": "2025-06-08T03:29:53.429Z",
    "source_name": "google",
    "source_query": "Irrigation Equipment",
    "source_country": "UA",
    "country": "Ukraine",
    "state": "Kyivska oblast",
    "city": "Ukrainka"
  },
  {
    "source_id": "ChIJb458cOKx1EAR0FUVRxUzRPQ",
    "name": "Ahropolyv, Tov",
    "category": "Ahropolyv, Tov",
    "formatted_address": "Ahropolyv, Tov",
    "phone_number": "+380662142696",
    "source_url": "https://www.google.com/maps/place/Ahropolyv,+Tov/data=!4m7!3m6!1s0x40d4b1e2707c8e6f:0xf4443315471555d0!8m2!3d50.2174685!4d30.2524756!16s%2Fg%2F11vzs0ymkr!19sChIJb458cOKx1EAR0FUVRxUzRPQ?authuser=0&hl=tr&rclk=1",
    "website_url": "",
    "rating_text": "",
    "stars": null,
    "number_of_reviews": null,
    "price_level": "",
    "open_hours": "",
    "extraction_timestamp": "2025-06-08T03:29:53.430Z",
    "source_name": "google",
    "source_query": "Irrigation Equipment",
    "source_country": "UA",
    "country": "Ukraine",
    "state": "Kyivska oblast",
    "city": "Ukrainka"
  },
  {
    "source_id": "ChIJrzUBBJDD1EARrMGKpFaVvYk",
    "name": "Tov \"Promtekhvod\"",
    "category": "Tov \"Promtekhvod\"",
    "formatted_address": "5,0(3)",
    "phone_number": "+380675057766",
    "source_url": "https://www.google.com/maps/place/Tov+%22Promtekhvod%22/data=!4m7!3m6!1s0x40d4c390040135af:0x89bd9556a48ac1ac!8m2!3d50.376938!4d30.70696!16s%2Fg%2F11yg33z_t!19sChIJrzUBBJDD1EARrMGKpFaVvYk?authuser=0&hl=tr&rclk=1",
    "website_url": "",
    "rating_text": "5,0",
    "stars": null,
    "number_of_reviews": null,
    "price_level": "",
    "open_hours": "",
    "extraction_timestamp": "2025-06-08T03:29:53.431Z",
    "source_name": "google",
    "source_query": "Irrigation Equipment",
    "source_country": "UA",
    "country": "Ukraine",
    "state": "Kyivska oblast",
    "city": "Ukrainka"
  },
  {
    "source_id": "ChIJkXv1l6XF1EARB2BiserVpEA",
    "name": "Cascade Aqua - Ландшафтная Компания",
    "category": "Cascade Aqua - Ландшафтная Компания",
    "formatted_address": "5,0(3)",
    "phone_number": "+380674031580",
    "source_url": "https://www.google.com/maps/place/Cascade+Aqua+-+%D0%9B%D0%B0%D0%BD%D0%B4%D1%88%D0%B0%D1%84%D1%82%D0%BD%D0%B0%D1%8F+%D0%9A%D0%BE%D0%BC%D0%BF%D0%B0%D0%BD%D0%B8%D1%8F/data=!4m7!3m6!1s0x40d4c5a597f57b91:0x40a4d5eab1626007!8m2!3d50.4285014!4d30.6698685!16s%2Fg%2F11gpn8vbph!19sChIJkXv1l6XF1EARB2BiserVpEA?authuser=0&hl=tr&rclk=1",
    "website_url": "",
    "rating_text": "5,0",
    "stars": null,
    "number_of_reviews": null,
    "price_level": "",
    "open_hours": "",
    "extraction_timestamp": "2025-06-08T03:29:53.432Z",
    "source_name": "google",
    "source_query": "Irrigation Equipment",
    "source_country": "UA",
    "country": "Ukraine",
    "state": "Kyivska oblast",
    "city": "Ukrainka"
  },
  {
    "source_id": "ChIJa_Kex83M1EARFoBhNk8UrgI",
    "name": "Порядочний Сантехнік - Expert Master",
    "category": "Порядочний Сантехнік - Expert Master",
    "formatted_address": "4,8(79)",
    "phone_number": "+380636415840",
    "source_url": "https://www.google.com/maps/place/%D0%9F%D0%BE%D1%80%D1%8F%D0%B4%D0%BE%D1%87%D0%BD%D0%B8%D0%B9+%D0%A1%D0%B0%D0%BD%D1%82%D0%B5%D1%85%D0%BD%D1%96%D0%BA+-+Expert+Master/data=!4m7!3m6!1s0x40d4cccdc79ef26b:0x2ae144f36618016!8m2!3d50.3805025!4d30.5364521!16s%2Fg%2F11c5s4t1f1!19sChIJa_Kex83M1EARFoBhNk8UrgI?authuser=0&hl=tr&rclk=1",
    "website_url": "",
    "rating_text": "4,8",
    "stars": null,
    "number_of_reviews": null,
    "price_level": "",
    "open_hours": "",
    "extraction_timestamp": "2025-06-08T03:29:53.433Z",
    "source_name": "google",
    "source_query": "Irrigation Equipment",
    "source_country": "UA",
    "country": "Ukraine",
    "state": "Kyivska oblast",
    "city": "Ukrainka"
  },
  {
    "source_id": "ChIJW73WdL_O1EARXXiJqQdW7kw",
    "name": "Ирригационные системы",
    "category": "Ирригационные системы",
    "formatted_address": "Sulama Ekipmanları Tedarikçisi · Solomianska St, 1Kapalı ⋅ Açılış zamanı: Pzt 09:00 · +380 96 114 5050",
    "phone_number": "+380961145050",
    "source_url": "https://www.google.com/maps/place/%D0%98%D1%80%D1%80%D0%B8%D0%B3%D0%B0%D1%86%D0%B8%D0%BE%D0%BD%D0%BD%D1%8B%D0%B5+%D1%81%D0%B8%D1%81%D1%82%D0%B5%D0%BC%D1%8B/data=!4m7!3m6!1s0x40d4cebf74d6bd5b:0x4cee5607a989785d!8m2!3d50.4307294!4d30.4732198!16s%2Fg%2F11rj5kysmm!19sChIJW73WdL_O1EARXXiJqQdW7kw?authuser=0&hl=tr&rclk=1",
    "website_url": "",
    "rating_text": "",
    "stars": null,
    "number_of_reviews": null,
    "price_level": "",
    "open_hours": "",
    "extraction_timestamp": "2025-06-08T03:29:53.434Z",
    "source_name": "google",
    "source_query": "Irrigation Equipment",
    "source_country": "UA",
    "country": "Ukraine",
    "state": "Kyivska oblast",
    "city": "Ukrainka"
  },
  {
    "source_id": "ChIJTe1g7f-X1EARX2FmLPA7MlU",
    "name": "Omela - Horshchyky Dlya Kvitiv",
    "category": "Omela - Horshchyky Dlya Kvitiv",
    "formatted_address": "4,3(28)",
    "phone_number": "+380661473212",
    "source_url": "https://www.google.com/maps/place/Omela+-+Horshchyky+Dlya+Kvitiv/data=!4m7!3m6!1s0x40d497ffed60ed4d:0x55323bf02c66615f!8m2!3d50.1374012!4d30.6656045!16s%2Fg%2F11fk03y0gp!19sChIJTe1g7f-X1EARX2FmLPA7MlU?authuser=0&hl=tr&rclk=1",
    "website_url": "",
    "rating_text": "4,3",
    "stars": null,
    "number_of_reviews": null,
    "price_level": "",
    "open_hours": "",
    "extraction_timestamp": "2025-06-08T03:29:53.435Z",
    "source_name": "google",
    "source_query": "Irrigation Equipment",
    "source_country": "UA",
    "country": "Ukraine",
    "state": "Kyivska oblast",
    "city": "Ukrainka"
  },
  {
    "source_id": "ChIJ3dQYZkPH1EARzC_l4JiUvVA",
    "name": "САДМАРКЕТ",
    "category": "САДМАРКЕТ",
    "formatted_address": "5,0(72)",
    "phone_number": "+380733613928",
    "source_url": "https://www.google.com/maps/place/%D0%A1%D0%90%D0%94%D0%9C%D0%90%D0%A0%D0%9A%D0%95%D0%A2/data=!4m7!3m6!1s0x40d4c7436618d4dd:0x50bd9498e0e52fcc!8m2!3d50.3593426!4d30.5539388!16s%2Fg%2F11vyfhbfz2!19sChIJ3dQYZkPH1EARzC_l4JiUvVA?authuser=0&hl=tr&rclk=1",
    "website_url": "",
    "rating_text": "5,0",
    "stars": null,
    "number_of_reviews": null,
    "price_level": "",
    "open_hours": "",
    "extraction_timestamp": "2025-06-08T03:29:53.435Z",
    "source_name": "google",
    "source_query": "Irrigation Equipment",
    "source_country": "UA",
    "country": "Ukraine",
    "state": "Kyivska oblast",
    "city": "Ukrainka"
  }
]
