[
  {
    "source_id": "ChIJIR8P-ZXmKGARLJYpNNde4Qo",
    "name": "Буріння свердловин \"E2 Group\"",
    "category": "Буріння свердловин \"E2 Group\"",
    "formatted_address": "5,0(19)",
    "phone_number": "+380679884477",
    "source_url": "https://www.google.com/maps/place/%D0%91%D1%83%D1%80%D1%96%D0%BD%D0%BD%D1%8F+%D1%81%D0%B2%D0%B5%D1%80%D0%B4%D0%BB%D0%BE%D0%B2%D0%B8%D0%BD+%22E2+Group%22/data=!4m7!3m6!1s0x6028e695f90f1f21:0xae15ed73429962c!8m2!3d50.180203!4d30.3122504!16s%2Fg%2F11vlc0lhkg!19sChIJIR8P-ZXmKGARLJYpNNde4Qo?authuser=0&hl=tr&rclk=1",
    "website_url": "",
    "rating_text": "5,0",
    "stars": null,
    "number_of_reviews": null,
    "price_level": "",
    "open_hours": "",
    "extraction_timestamp": "2025-06-08T03:33:43.400Z",
    "source_name": "google",
    "source_query": "Irrigation Equipment",
    "source_country": "UA",
    "country": "Ukraine",
    "state": "Kyivska oblast",
    "city": "Vasylkiv"
  },
  {
    "source_id": "ChIJnx-B7rCl1EAR2E6xclMg5NY",
    "name": "Акватерм",
    "category": "Акватерм",
    "formatted_address": "5,0(5)",
    "phone_number": "+380688909090",
    "source_url": "https://www.google.com/maps/place/%D0%90%D0%BA%D0%B2%D0%B0%D1%82%D0%B5%D1%80%D0%BC/data=!4m7!3m6!1s0x40d4a5b0ee811f9f:0xd6e4205372b14ed8!8m2!3d50.1644093!4d30.3310193!16s%2Fg%2F11gsn0c8fp!19sChIJnx-B7rCl1EAR2E6xclMg5NY?authuser=0&hl=tr&rclk=1",
    "website_url": "",
    "rating_text": "5,0",
    "stars": null,
    "number_of_reviews": null,
    "price_level": "",
    "open_hours": "",
    "extraction_timestamp": "2025-06-08T03:33:43.401Z",
    "source_name": "google",
    "source_query": "Irrigation Equipment",
    "source_country": "UA",
    "country": "Ukraine",
    "state": "Kyivska oblast",
    "city": "Vasylkiv"
  },
  {
    "source_id": "ChIJ1X0j2e-l1EARzhJkX2LhbdE",
    "name": "Бурение скважин, буровая компания \"Білий Лебідь\"",
    "category": "Бурение скважин, буровая компания \"Білий Лебідь\"",
    "formatted_address": "Бурение скважин, буровая компания \"Білий Лебідь\"",
    "phone_number": "+380960070406",
    "source_url": "https://www.google.com/maps/place/%D0%91%D1%83%D1%80%D0%B5%D0%BD%D0%B8%D0%B5+%D1%81%D0%BA%D0%B2%D0%B0%D0%B6%D0%B8%D0%BD,+%D0%B1%D1%83%D1%80%D0%BE%D0%B2%D0%B0%D1%8F+%D0%BA%D0%BE%D0%BC%D0%BF%D0%B0%D0%BD%D0%B8%D1%8F+%22%D0%91%D1%96%D0%BB%D0%B8%D0%B9+%D0%9B%D0%B5%D0%B1%D1%96%D0%B4%D1%8C%22/data=!4m7!3m6!1s0x40d4a5efd9237dd5:0xd16de1625f6412ce!8m2!3d50.180534!4d30.3123528!16s%2Fg%2F11j_vwg1vj!19sChIJ1X0j2e-l1EARzhJkX2LhbdE?authuser=0&hl=tr&rclk=1",
    "website_url": "",
    "rating_text": "4,2",
    "stars": null,
    "number_of_reviews": null,
    "price_level": "",
    "open_hours": "",
    "extraction_timestamp": "2025-06-08T03:33:43.401Z",
    "source_name": "google",
    "source_query": "Irrigation Equipment",
    "source_country": "UA",
    "country": "Ukraine",
    "state": "Kyivska oblast",
    "city": "Vasylkiv"
  },
  {
    "source_id": "ChIJQ9yX4i-l1EAR51raZps-G50",
    "name": "Mahazyn Santekhniky-Elektryky \"Vezha-Akva\"",
    "category": "Mahazyn Santekhniky-Elektryky \"Vezha-Akva\"",
    "formatted_address": "4,8(24)",
    "phone_number": "+380935687319",
    "source_url": "https://www.google.com/maps/place/Mahazyn+Santekhniky-Elektryky+%22Vezha-Akva%22/data=!4m7!3m6!1s0x40d4a52fe297dc43:0x9d1b3e9b66da5ae7!8m2!3d50.167179!4d30.337173!16s%2Fg%2F11fzfbxt_d!19sChIJQ9yX4i-l1EAR51raZps-G50?authuser=0&hl=tr&rclk=1",
    "website_url": "",
    "rating_text": "4,8",
    "stars": null,
    "number_of_reviews": null,
    "price_level": "",
    "open_hours": "",
    "extraction_timestamp": "2025-06-08T03:33:43.402Z",
    "source_name": "google",
    "source_query": "Irrigation Equipment",
    "source_country": "UA",
    "country": "Ukraine",
    "state": "Kyivska oblast",
    "city": "Vasylkiv"
  },
  {
    "source_id": "ChIJx4QoM8-x1EAR1hPrdH0RuCg",
    "name": "Tov \"Mehaplast-Komplekt\"",
    "category": "Tov \"Mehaplast-Komplekt\"",
    "formatted_address": "5,0(1)",
    "phone_number": "+380675406760",
    "source_url": "https://www.google.com/maps/place/Tov+%22Mehaplast-Komplekt%22/data=!4m7!3m6!1s0x40d4b1cf332884c7:0x28b8117d74eb13d6!8m2!3d50.2169225!4d30.2863188!16s%2Fg%2F11qqynhvln!19sChIJx4QoM8-x1EAR1hPrdH0RuCg?authuser=0&hl=tr&rclk=1",
    "website_url": "",
    "rating_text": "5,0",
    "stars": null,
    "number_of_reviews": null,
    "price_level": "",
    "open_hours": "",
    "extraction_timestamp": "2025-06-08T03:33:43.402Z",
    "source_name": "google",
    "source_query": "Irrigation Equipment",
    "source_country": "UA",
    "country": "Ukraine",
    "state": "Kyivska oblast",
    "city": "Vasylkiv"
  },
  {
    "source_id": "ChIJaQFEUVKl1EAR3tVcAMPW46o",
    "name": "Santik",
    "category": "Santik",
    "formatted_address": "4,4(166)",
    "phone_number": "",
    "source_url": "https://www.google.com/maps/place/Santik/data=!4m7!3m6!1s0x40d4a55251440169:0xaae3d6c3005cd5de!8m2!3d50.1737359!4d30.3282434!16s%2Fg%2F119wjwbjq!19sChIJaQFEUVKl1EAR3tVcAMPW46o?authuser=0&hl=tr&rclk=1",
    "website_url": "",
    "rating_text": "4,4",
    "stars": null,
    "number_of_reviews": null,
    "price_level": "",
    "open_hours": "",
    "extraction_timestamp": "2025-06-08T03:33:43.402Z",
    "source_name": "google",
    "source_query": "Irrigation Equipment",
    "source_country": "UA",
    "country": "Ukraine",
    "state": "Kyivska oblast",
    "city": "Vasylkiv"
  },
  {
    "source_id": "ChIJ_2Il1kml1EARQScXMJXMCrc",
    "name": "Zhyelyezyaka",
    "category": "Zhyelyezyaka",
    "formatted_address": "4,5(1.020)",
    "phone_number": "+380674531234",
    "source_url": "https://www.google.com/maps/place/Zhyelyezyaka/data=!4m7!3m6!1s0x40d4a549d62562ff:0xb70acc9530172741!8m2!3d50.1730061!4d30.327131!16s%2Fg%2F11c46lx24s!19sChIJ_2Il1kml1EARQScXMJXMCrc?authuser=0&hl=tr&rclk=1",
    "website_url": "",
    "rating_text": "4,5",
    "stars": null,
    "number_of_reviews": null,
    "price_level": "",
    "open_hours": "",
    "extraction_timestamp": "2025-06-08T03:33:43.403Z",
    "source_name": "google",
    "source_query": "Irrigation Equipment",
    "source_country": "UA",
    "country": "Ukraine",
    "state": "Kyivska oblast",
    "city": "Vasylkiv"
  },
  {
    "source_id": "ChIJQ8aobTal1EARimHYd0eI9Z8",
    "name": "магазин сантехніки Футорка",
    "category": "магазин сантехніки Футорка",
    "formatted_address": "4,5(18)",
    "phone_number": "+380638145438",
    "source_url": "https://www.google.com/maps/place/%D0%BC%D0%B0%D0%B3%D0%B0%D0%B7%D0%B8%D0%BD+%D1%81%D0%B0%D0%BD%D1%82%D0%B5%D1%85%D0%BD%D1%96%D0%BA%D0%B8+%D0%A4%D1%83%D1%82%D0%BE%D1%80%D0%BA%D0%B0/data=!4m7!3m6!1s0x40d4a5366da8c643:0x9ff5884777d8618a!8m2!3d50.1737745!4d30.3282149!16s%2Fg%2F11c4b3c5v2!19sChIJQ8aobTal1EARimHYd0eI9Z8?authuser=0&hl=tr&rclk=1",
    "website_url": "",
    "rating_text": "4,5",
    "stars": null,
    "number_of_reviews": null,
    "price_level": "",
    "open_hours": "",
    "extraction_timestamp": "2025-06-08T03:33:43.403Z",
    "source_name": "google",
    "source_query": "Irrigation Equipment",
    "source_country": "UA",
    "country": "Ukraine",
    "state": "Kyivska oblast",
    "city": "Vasylkiv"
  },
  {
    "source_id": "ChIJ_4-8T1G71EARRGVPZ2z7FiY",
    "name": "Mayster-Santekhnik",
    "category": "Mayster-Santekhnik",
    "formatted_address": "4,8(20)",
    "phone_number": "+380667578437",
    "source_url": "https://www.google.com/maps/place/Mayster-Santekhnik/data=!4m7!3m6!1s0x40d4bb514fbc8fff:0x2616fb6c674f6544!8m2!3d50.1871364!4d30.3003079!16s%2Fg%2F11ffw6rxcf!19sChIJ_4-8T1G71EARRGVPZ2z7FiY?authuser=0&hl=tr&rclk=1",
    "website_url": "",
    "rating_text": "4,8",
    "stars": null,
    "number_of_reviews": null,
    "price_level": "",
    "open_hours": "",
    "extraction_timestamp": "2025-06-08T03:33:43.404Z",
    "source_name": "google",
    "source_query": "Irrigation Equipment",
    "source_country": "UA",
    "country": "Ukraine",
    "state": "Kyivska oblast",
    "city": "Vasylkiv"
  },
  {
    "source_id": "ChIJWbirk8yl1EARutwSu4s4APo",
    "name": "Ahromahazyn \"Urozhay\"",
    "category": "Ahromahazyn \"Urozhay\"",
    "formatted_address": "4,7(38)",
    "phone_number": "+380968047198",
    "source_url": "https://www.google.com/maps/place/Ahromahazyn+%22Urozhay%22/data=!4m7!3m6!1s0x40d4a5cc93abb859:0xfa00388bbb12dcba!8m2!3d50.1674138!4d30.3331201!16s%2Fg%2F11g4jh2p9c!19sChIJWbirk8yl1EARutwSu4s4APo?authuser=0&hl=tr&rclk=1",
    "website_url": "",
    "rating_text": "4,7",
    "stars": null,
    "number_of_reviews": null,
    "price_level": "",
    "open_hours": "",
    "extraction_timestamp": "2025-06-08T03:33:43.404Z",
    "source_name": "google",
    "source_query": "Irrigation Equipment",
    "source_country": "UA",
    "country": "Ukraine",
    "state": "Kyivska oblast",
    "city": "Vasylkiv"
  },
  {
    "source_id": "ChIJI04Rh-UzK0cRaOHI-WJFYdc",
    "name": "Ecosoft - центр чистої води",
    "category": "Ecosoft - центр чистої води",
    "formatted_address": "4,6(10)",
    "phone_number": "+380937339883",
    "source_url": "https://www.google.com/maps/place/Ecosoft+-+%D1%86%D0%B5%D0%BD%D1%82%D1%80+%D1%87%D0%B8%D1%81%D1%82%D0%BE%D1%97+%D0%B2%D0%BE%D0%B4%D0%B8/data=!4m7!3m6!1s0x472b33e587114e23:0xd7614562f9c8e168!8m2!3d50.1768667!4d30.3177265!16s%2Fg%2F11vpjc90z5!19sChIJI04Rh-UzK0cRaOHI-WJFYdc?authuser=0&hl=tr&rclk=1",
    "website_url": "",
    "rating_text": "4,6",
    "stars": null,
    "number_of_reviews": null,
    "price_level": "",
    "open_hours": "",
    "extraction_timestamp": "2025-06-08T03:33:43.404Z",
    "source_name": "google",
    "source_query": "Irrigation Equipment",
    "source_country": "UA",
    "country": "Ukraine",
    "state": "Kyivska oblast",
    "city": "Vasylkiv"
  },
  {
    "source_id": "ChIJV0Vpbgmvc0ERLboN6-FJL0g",
    "name": "ATS",
    "category": "ATS",
    "formatted_address": "4,5(119)",
    "phone_number": "+380442902900",
    "source_url": "https://www.google.com/maps/place/ATS/data=!4m7!3m6!1s0x4173af096e694557:0x482f49e1eb0dba2d!8m2!3d50.2173169!4d30.2522621!16s%2Fg%2F11b5wknq5d!19sChIJV0Vpbgmvc0ERLboN6-FJL0g?authuser=0&hl=tr&rclk=1",
    "website_url": "",
    "rating_text": "4,5",
    "stars": null,
    "number_of_reviews": null,
    "price_level": "",
    "open_hours": "",
    "extraction_timestamp": "2025-06-08T03:33:43.404Z",
    "source_name": "google",
    "source_query": "Irrigation Equipment",
    "source_country": "UA",
    "country": "Ukraine",
    "state": "Kyivska oblast",
    "city": "Vasylkiv"
  },
  {
    "source_id": "ChIJUYSQKjal1EARNfeVc6n4kWc",
    "name": "магазин питної води \"НЕПТУН\"",
    "category": "магазин питної води \"НЕПТУН\"",
    "formatted_address": "4,4(25)",
    "phone_number": "+380673741234",
    "source_url": "https://www.google.com/maps/place/%D0%BC%D0%B0%D0%B3%D0%B0%D0%B7%D0%B8%D0%BD+%D0%BF%D0%B8%D1%82%D0%BD%D0%BE%D1%97+%D0%B2%D0%BE%D0%B4%D0%B8+%22%D0%9D%D0%95%D0%9F%D0%A2%D0%A3%D0%9D%22/data=!4m7!3m6!1s0x40d4a5362a908451:0x6791f8a97395f735!8m2!3d50.1722286!4d30.3266714!16s%2Fg%2F11g9g0yls9!19sChIJUYSQKjal1EARNfeVc6n4kWc?authuser=0&hl=tr&rclk=1",
    "website_url": "",
    "rating_text": "4,4",
    "stars": null,
    "number_of_reviews": null,
    "price_level": "",
    "open_hours": "",
    "extraction_timestamp": "2025-06-08T03:33:43.405Z",
    "source_name": "google",
    "source_query": "Irrigation Equipment",
    "source_country": "UA",
    "country": "Ukraine",
    "state": "Kyivska oblast",
    "city": "Vasylkiv"
  },
  {
    "source_id": "ChIJvwtiKEml1EARGeYwdAqPwYw",
    "name": "Impulʹs",
    "category": "Impulʹs",
    "formatted_address": "4,3(166)",
    "phone_number": "+380951554122",
    "source_url": "https://www.google.com/maps/place/Impul%CA%B9s/data=!4m7!3m6!1s0x40d4a54928620bbf:0x8cc18f0a7430e619!8m2!3d50.1749775!4d30.318029!16s%2Fg%2F11_j_rff2!19sChIJvwtiKEml1EARGeYwdAqPwYw?authuser=0&hl=tr&rclk=1",
    "website_url": "",
    "rating_text": "4,3",
    "stars": null,
    "number_of_reviews": null,
    "price_level": "",
    "open_hours": "",
    "extraction_timestamp": "2025-06-08T03:33:43.405Z",
    "source_name": "google",
    "source_query": "Irrigation Equipment",
    "source_country": "UA",
    "country": "Ukraine",
    "state": "Kyivska oblast",
    "city": "Vasylkiv"
  },
  {
    "source_id": "ChIJ5dUqQp2x1EARPeEoyGpO-K4",
    "name": "Ahropromkholdynh Arenda Spetstekhnyky",
    "category": "Ahropromkholdynh Arenda Spetstekhnyky",
    "formatted_address": "5,0(3)",
    "phone_number": "+380672426377",
    "source_url": "https://www.google.com/maps/place/Ahropromkholdynh+Arenda+Spetstekhnyky/data=!4m7!3m6!1s0x40d4b19d422ad5e5:0xaef84e6ac828e13d!8m2!3d50.2246541!4d30.3200193!16s%2Fg%2F11hf1xw_kn!19sChIJ5dUqQp2x1EARPeEoyGpO-K4?authuser=0&hl=tr&rclk=1",
    "website_url": "",
    "rating_text": "5,0",
    "stars": null,
    "number_of_reviews": null,
    "price_level": "",
    "open_hours": "",
    "extraction_timestamp": "2025-06-08T03:33:43.406Z",
    "source_name": "google",
    "source_query": "Irrigation Equipment",
    "source_country": "UA",
    "country": "Ukraine",
    "state": "Kyivska oblast",
    "city": "Vasylkiv"
  },
  {
    "source_id": "ChIJb458cOKx1EAR0FUVRxUzRPQ",
    "name": "Ahropolyv, Tov",
    "category": "Ahropolyv, Tov",
    "formatted_address": "Ahropolyv, Tov",
    "phone_number": "+380662142696",
    "source_url": "https://www.google.com/maps/place/Ahropolyv,+Tov/data=!4m7!3m6!1s0x40d4b1e2707c8e6f:0xf4443315471555d0!8m2!3d50.2174685!4d30.2524756!16s%2Fg%2F11vzs0ymkr!19sChIJb458cOKx1EAR0FUVRxUzRPQ?authuser=0&hl=tr&rclk=1",
    "website_url": "",
    "rating_text": "",
    "stars": null,
    "number_of_reviews": null,
    "price_level": "",
    "open_hours": "",
    "extraction_timestamp": "2025-06-08T03:33:43.406Z",
    "source_name": "google",
    "source_query": "Irrigation Equipment",
    "source_country": "UA",
    "country": "Ukraine",
    "state": "Kyivska oblast",
    "city": "Vasylkiv"
  },
  {
    "source_id": "ChIJ11tuyz6x1EARAMAohiNPPvs",
    "name": "Vodomet",
    "category": "Vodomet",
    "formatted_address": "5,0(1)",
    "phone_number": "+380975016289",
    "source_url": "https://www.google.com/maps/place/Vodomet/data=!4m7!3m6!1s0x40d4b13ecb6e5bd7:0xfb3e4f238628c000!8m2!3d50.2108749!4d30.3179621!16s%2Fg%2F11x8cf9586!19sChIJ11tuyz6x1EARAMAohiNPPvs?authuser=0&hl=tr&rclk=1",
    "website_url": "",
    "rating_text": "5,0",
    "stars": null,
    "number_of_reviews": null,
    "price_level": "",
    "open_hours": "",
    "extraction_timestamp": "2025-06-08T03:33:43.406Z",
    "source_name": "google",
    "source_query": "Irrigation Equipment",
    "source_country": "UA",
    "country": "Ukraine",
    "state": "Kyivska oblast",
    "city": "Vasylkiv"
  },
  {
    "source_id": "ChIJZ7aKUE-l1EAR7x6_fiRjCiU",
    "name": "Okko",
    "category": "Okko",
    "formatted_address": "4,4(936)",
    "phone_number": "+380800501101",
    "source_url": "https://www.google.com/maps/place/Okko/data=!4m7!3m6!1s0x40d4a54f508ab667:0x250a63247ebf1eef!8m2!3d50.1735173!4d30.3148277!16s%2Fg%2F11c3k4_jqn!19sChIJZ7aKUE-l1EAR7x6_fiRjCiU?authuser=0&hl=tr&rclk=1",
    "website_url": "",
    "rating_text": "4,4",
    "stars": null,
    "number_of_reviews": null,
    "price_level": "",
    "open_hours": "",
    "extraction_timestamp": "2025-06-08T03:33:43.407Z",
    "source_name": "google",
    "source_query": "Irrigation Equipment",
    "source_country": "UA",
    "country": "Ukraine",
    "state": "Kyivska oblast",
    "city": "Vasylkiv"
  },
  {
    "source_id": "ChIJV0bSyhax1EARONB5tYNuvf0",
    "name": "Kombikorm Tm Ahroprohres",
    "category": "Kombikorm Tm Ahroprohres",
    "formatted_address": "4,6(16)",
    "phone_number": "+380991845958",
    "source_url": "https://www.google.com/maps/place/Kombikorm+Tm+Ahroprohres/data=!4m7!3m6!1s0x40d4b116cad24657:0xfdbd6e83b579d038!8m2!3d50.2267846!4d30.2296107!16s%2Fg%2F11g2xds5j0!19sChIJV0bSyhax1EARONB5tYNuvf0?authuser=0&hl=tr&rclk=1",
    "website_url": "",
    "rating_text": "4,6",
    "stars": null,
    "number_of_reviews": null,
    "price_level": "",
    "open_hours": "",
    "extraction_timestamp": "2025-06-08T03:33:43.407Z",
    "source_name": "google",
    "source_query": "Irrigation Equipment",
    "source_country": "UA",
    "country": "Ukraine",
    "state": "Kyivska oblast",
    "city": "Vasylkiv"
  },
  {
    "source_id": "ChIJRah5W1Kl1EAR6k-s2azHEb0",
    "name": "Khytryak",
    "category": "Khytryak",
    "formatted_address": "3,7(622)",
    "phone_number": "",
    "source_url": "https://www.google.com/maps/place/Khytryak/data=!4m7!3m6!1s0x40d4a5525b79a845:0xbd11c7acd9ac4fea!8m2!3d50.1813823!4d30.3123269!16s%2Fg%2F11gbfm_xw7!19sChIJRah5W1Kl1EAR6k-s2azHEb0?authuser=0&hl=tr&rclk=1",
    "website_url": "",
    "rating_text": "3,7",
    "stars": null,
    "number_of_reviews": null,
    "price_level": "",
    "open_hours": "",
    "extraction_timestamp": "2025-06-08T03:33:43.407Z",
    "source_name": "google",
    "source_query": "Irrigation Equipment",
    "source_country": "UA",
    "country": "Ukraine",
    "state": "Kyivska oblast",
    "city": "Vasylkiv"
  },
  {
    "source_id": "ChIJGXC03v-l1EARYW2JzVktqJ0",
    "name": "Stroytelʹ",
    "category": "Stroytelʹ",
    "formatted_address": "4,0(2)",
    "phone_number": "",
    "source_url": "https://www.google.com/maps/place/Stroytel%CA%B9/data=!4m7!3m6!1s0x40d4a5ffdeb47019:0x9da82d59cd896d61!8m2!3d50.1728802!4d30.3264807!16s%2Fg%2F11fj36__g0!19sChIJGXC03v-l1EARYW2JzVktqJ0?authuser=0&hl=tr&rclk=1",
    "website_url": "",
    "rating_text": "4,0",
    "stars": null,
    "number_of_reviews": null,
    "price_level": "",
    "open_hours": "",
    "extraction_timestamp": "2025-06-08T03:33:43.407Z",
    "source_name": "google",
    "source_query": "Irrigation Equipment",
    "source_country": "UA",
    "country": "Ukraine",
    "state": "Kyivska oblast",
    "city": "Vasylkiv"
  },
  {
    "source_id": "ChIJNVP1hgCw1EARjlES_KLkxJ0",
    "name": "Струмок",
    "category": "Струмок",
    "formatted_address": "3,7(37)",
    "phone_number": "",
    "source_url": "https://www.google.com/maps/place/%D0%A1%D1%82%D1%80%D1%83%D0%BC%D0%BE%D0%BA/data=!4m7!3m6!1s0x40d4b00086f55335:0x9dc4e4a2fc12518e!8m2!3d50.1901308!4d30.3048719!16s%2Fg%2F11f0kqrh4l!19sChIJNVP1hgCw1EARjlES_KLkxJ0?authuser=0&hl=tr&rclk=1",
    "website_url": "",
    "rating_text": "3,7",
    "stars": null,
    "number_of_reviews": null,
    "price_level": "",
    "open_hours": "",
    "extraction_timestamp": "2025-06-08T03:33:43.407Z",
    "source_name": "google",
    "source_query": "Irrigation Equipment",
    "source_country": "UA",
    "country": "Ukraine",
    "state": "Kyivska oblast",
    "city": "Vasylkiv"
  },
  {
    "source_id": "ChIJxXF3Skyl1EARZmwkUjttIZ4",
    "name": "Teplo Plyus",
    "category": "Teplo Plyus",
    "formatted_address": "5,0(3)",
    "phone_number": "+380997339883",
    "source_url": "https://www.google.com/maps/place/Teplo+Plyus/data=!4m7!3m6!1s0x40d4a54c4a7771c5:0x9e216d3b52246c66!8m2!3d50.1769402!4d30.3176859!16s%2Fg%2F11vdhkp_64!19sChIJxXF3Skyl1EARZmwkUjttIZ4?authuser=0&hl=tr&rclk=1",
    "website_url": "",
    "rating_text": "5,0",
    "stars": null,
    "number_of_reviews": null,
    "price_level": "",
    "open_hours": "",
    "extraction_timestamp": "2025-06-08T03:33:43.408Z",
    "source_name": "google",
    "source_query": "Irrigation Equipment",
    "source_country": "UA",
    "country": "Ukraine",
    "state": "Kyivska oblast",
    "city": "Vasylkiv"
  },
  {
    "source_id": "ChIJAQAN56S61EAR5BYAFAl8_wU",
    "name": "тов оазис",
    "category": "тов оазис",
    "formatted_address": "2,3(8)",
    "phone_number": "+380983008080",
    "source_url": "https://www.google.com/maps/place/%D1%82%D0%BE%D0%B2+%D0%BE%D0%B0%D0%B7%D0%B8%D1%81/data=!4m7!3m6!1s0x40d4baa4e70d0001:0x5ff7c09140016e4!8m2!3d50.19488!4d30.3284408!16s%2Fg%2F11flzfg957!19sChIJAQAN56S61EAR5BYAFAl8_wU?authuser=0&hl=tr&rclk=1",
    "website_url": "",
    "rating_text": "2,3",
    "stars": null,
    "number_of_reviews": null,
    "price_level": "",
    "open_hours": "",
    "extraction_timestamp": "2025-06-08T03:33:43.425Z",
    "source_name": "google",
    "source_query": "Irrigation Equipment",
    "source_country": "UA",
    "country": "Ukraine",
    "state": "Kyivska oblast",
    "city": "Vasylkiv"
  },
  {
    "source_id": "ChIJTauG0jel1EARMiCzY58dPNM",
    "name": "Collective farm market",
    "category": "Collective farm market",
    "formatted_address": "3,8(1.611)",
    "phone_number": "",
    "source_url": "https://www.google.com/maps/place/Collective+farm+market/data=!4m7!3m6!1s0x40d4a537d286ab4d:0xd33c1d9f63b32032!8m2!3d50.1721043!4d30.3257414!16s%2Fg%2F11crzvlx94!19sChIJTauG0jel1EARMiCzY58dPNM?authuser=0&hl=tr&rclk=1",
    "website_url": "",
    "rating_text": "3,8",
    "stars": null,
    "number_of_reviews": null,
    "price_level": "",
    "open_hours": "",
    "extraction_timestamp": "2025-06-08T03:33:43.427Z",
    "source_name": "google",
    "source_query": "Irrigation Equipment",
    "source_country": "UA",
    "country": "Ukraine",
    "state": "Kyivska oblast",
    "city": "Vasylkiv"
  },
  {
    "source_id": "ChIJt9dQ3viv1EARsnCFu4PGLXY",
    "name": "Slonchak",
    "category": "Slonchak",
    "formatted_address": "4,2(20)",
    "phone_number": "",
    "source_url": "https://www.google.com/maps/place/Slonchak/data=!4m7!3m6!1s0x40d4aff8de50d7b7:0x762dc683bb8570b2!8m2!3d50.1834096!4d30.2933113!16s%2Fg%2F11b6gngt9w!19sChIJt9dQ3viv1EARsnCFu4PGLXY?authuser=0&hl=tr&rclk=1",
    "website_url": "",
    "rating_text": "4,2",
    "stars": null,
    "number_of_reviews": null,
    "price_level": "",
    "open_hours": "",
    "extraction_timestamp": "2025-06-08T03:33:43.428Z",
    "source_name": "google",
    "source_query": "Irrigation Equipment",
    "source_country": "UA",
    "country": "Ukraine",
    "state": "Kyivska oblast",
    "city": "Vasylkiv"
  },
  {
    "source_id": "ChIJyaRazf-v1EAR9zG75oghsF8",
    "name": "Marlboro",
    "category": "Marlboro",
    "formatted_address": "3,9(164)",
    "phone_number": "",
    "source_url": "https://www.google.com/maps/place/Marlboro/data=!4m7!3m6!1s0x40d4afffcd5aa4c9:0x5fb02188e6bb31f7!8m2!3d50.1880592!4d30.2986733!16s%2Fg%2F11csr1bb80!19sChIJyaRazf-v1EAR9zG75oghsF8?authuser=0&hl=tr&rclk=1",
    "website_url": "",
    "rating_text": "3,9",
    "stars": null,
    "number_of_reviews": null,
    "price_level": "",
    "open_hours": "",
    "extraction_timestamp": "2025-06-08T03:33:43.428Z",
    "source_name": "google",
    "source_query": "Irrigation Equipment",
    "source_country": "UA",
    "country": "Ukraine",
    "state": "Kyivska oblast",
    "city": "Vasylkiv"
  },
  {
    "source_id": "ChIJE5ej5D6l1EARg-l4zqa3ny4",
    "name": "Телерадіотовари",
    "category": "Телерадіотовари",
    "formatted_address": "4,9(128)",
    "phone_number": "+380677871577",
    "source_url": "https://www.google.com/maps/place/%D0%A2%D0%B5%D0%BB%D0%B5%D1%80%D0%B0%D0%B4%D1%96%D0%BE%D1%82%D0%BE%D0%B2%D0%B0%D1%80%D0%B8/data=!4m7!3m6!1s0x40d4a53ee4a39713:0x2e9fb7a6ce78e983!8m2!3d50.1730412!4d30.3250176!16s%2Fg%2F11gjwrhtq1!19sChIJE5ej5D6l1EARg-l4zqa3ny4?authuser=0&hl=tr&rclk=1",
    "website_url": "",
    "rating_text": "4,9",
    "stars": null,
    "number_of_reviews": null,
    "price_level": "",
    "open_hours": "",
    "extraction_timestamp": "2025-06-08T03:33:43.429Z",
    "source_name": "google",
    "source_query": "Irrigation Equipment",
    "source_country": "UA",
    "country": "Ukraine",
    "state": "Kyivska oblast",
    "city": "Vasylkiv"
  },
  {
    "source_id": "ChIJ93I4m_2x1EARn2UJ2mrKZZE",
    "name": "Servismayster",
    "category": "Servismayster",
    "formatted_address": "5,0(24)",
    "phone_number": "+380954361442",
    "source_url": "https://www.google.com/maps/place/Servismayster/data=!4m7!3m6!1s0x40d4b1fd9b3872f7:0x9165ca6ada09659f!8m2!3d50.2165899!4d30.3254862!16s%2Fg%2F11y4v632fv!19sChIJ93I4m_2x1EARn2UJ2mrKZZE?authuser=0&hl=tr&rclk=1",
    "website_url": "",
    "rating_text": "5,0",
    "stars": null,
    "number_of_reviews": null,
    "price_level": "",
    "open_hours": "",
    "extraction_timestamp": "2025-06-08T03:33:43.430Z",
    "source_name": "google",
    "source_query": "Irrigation Equipment",
    "source_country": "UA",
    "country": "Ukraine",
    "state": "Kyivska oblast",
    "city": "Vasylkiv"
  },
  {
    "source_id": "ChIJeTRulX-l1EARMwbX8N-ti64",
    "name": "GreenUP",
    "category": "GreenUP",
    "formatted_address": "5,0(56)",
    "phone_number": "+380984560836",
    "source_url": "https://www.google.com/maps/place/GreenUP/data=!4m7!3m6!1s0x40d4a57f956e3479:0xae8baddff0d70633!8m2!3d50.1796693!4d30.3136278!16s%2Fg%2F11vl443fs9!19sChIJeTRulX-l1EARMwbX8N-ti64?authuser=0&hl=tr&rclk=1",
    "website_url": "",
    "rating_text": "5,0",
    "stars": null,
    "number_of_reviews": null,
    "price_level": "",
    "open_hours": "",
    "extraction_timestamp": "2025-06-08T03:33:43.432Z",
    "source_name": "google",
    "source_query": "Irrigation Equipment",
    "source_country": "UA",
    "country": "Ukraine",
    "state": "Kyivska oblast",
    "city": "Vasylkiv"
  },
  {
    "source_id": "ChIJ8UinFVOl1EARyWqLlkDAwfY",
    "name": "Mahazyn Biloyar Vasylkiv",
    "category": "Mahazyn Biloyar Vasylkiv",
    "formatted_address": "4,0(4)",
    "phone_number": "+380976304554",
    "source_url": "https://www.google.com/maps/place/Mahazyn+Biloyar+Vasylkiv/data=!4m7!3m6!1s0x40d4a55315a748f1:0xf6c1c040968b6ac9!8m2!3d50.1649598!4d30.332154!16s%2Fg%2F11pkk5b6tz!19sChIJ8UinFVOl1EARyWqLlkDAwfY?authuser=0&hl=tr&rclk=1",
    "website_url": "",
    "rating_text": "4,0",
    "stars": null,
    "number_of_reviews": null,
    "price_level": "",
    "open_hours": "",
    "extraction_timestamp": "2025-06-08T03:33:43.433Z",
    "source_name": "google",
    "source_query": "Irrigation Equipment",
    "source_country": "UA",
    "country": "Ukraine",
    "state": "Kyivska oblast",
    "city": "Vasylkiv"
  },
  {
    "source_id": "ChIJc_KHozql1EAROctth9jF57g",
    "name": "Rendytelʹ",
    "category": "Rendytelʹ",
    "formatted_address": "3,8(151)",
    "phone_number": "",
    "source_url": "https://www.google.com/maps/place/Rendytel%CA%B9/data=!4m7!3m6!1s0x40d4a53aa387f273:0xb8e7c5d8876dcb39!8m2!3d50.1666437!4d30.3345809!16s%2Fg%2F11dxlb3dxb!19sChIJc_KHozql1EAROctth9jF57g?authuser=0&hl=tr&rclk=1",
    "website_url": "",
    "rating_text": "3,8",
    "stars": null,
    "number_of_reviews": null,
    "price_level": "",
    "open_hours": "",
    "extraction_timestamp": "2025-06-08T03:33:43.434Z",
    "source_name": "google",
    "source_query": "Irrigation Equipment",
    "source_country": "UA",
    "country": "Ukraine",
    "state": "Kyivska oblast",
    "city": "Vasylkiv"
  }
]
