[
  {
    "source_id": "ChIJN2BtvgC31EARxYICGhfXx5w",
    "name": "Panda - Pumping Equipment",
    "category": "Panda - Pumping Equipment",
    "formatted_address": "4,8(37)",
    "phone_number": "+380507446666",
    "source_url": "https://www.google.com/maps/place/Panda+-+Pumping+Equipment/data=!4m7!3m6!1s0x40d4b700be6d6037:0x9cc7d7171a0282c5!8m2!3d50.3034942!4d30.3700837!16s%2Fg%2F11cm410w_8!19sChIJN2BtvgC31EARxYICGhfXx5w?authuser=0&hl=tr&rclk=1",
    "website_url": "",
    "rating_text": "4,8",
    "stars": null,
    "number_of_reviews": null,
    "price_level": "",
    "open_hours": "",
    "extraction_timestamp": "2025-06-08T03:33:24.357Z",
    "source_name": "google",
    "source_query": "Irrigation Equipment",
    "source_country": "UA",
    "country": "Ukraine",
    "state": "Kyivska oblast",
    "city": "Vasylkiv Raion"
  },
  {
    "source_id": "ChIJIR8P-ZXmKGARLJYpNNde4Qo",
    "name": "Буріння свердловин \"E2 Group\"",
    "category": "Буріння свердловин \"E2 Group\"",
    "formatted_address": "5,0(19)",
    "phone_number": "+380679884477",
    "source_url": "https://www.google.com/maps/place/%D0%91%D1%83%D1%80%D1%96%D0%BD%D0%BD%D1%8F+%D1%81%D0%B2%D0%B5%D1%80%D0%B4%D0%BB%D0%BE%D0%B2%D0%B8%D0%BD+%22E2+Group%22/data=!4m7!3m6!1s0x6028e695f90f1f21:0xae15ed73429962c!8m2!3d50.180203!4d30.3122504!16s%2Fg%2F11vlc0lhkg!19sChIJIR8P-ZXmKGARLJYpNNde4Qo?authuser=0&hl=tr&rclk=1",
    "website_url": "",
    "rating_text": "5,0",
    "stars": null,
    "number_of_reviews": null,
    "price_level": "",
    "open_hours": "",
    "extraction_timestamp": "2025-06-08T03:33:24.358Z",
    "source_name": "google",
    "source_query": "Irrigation Equipment",
    "source_country": "UA",
    "country": "Ukraine",
    "state": "Kyivska oblast",
    "city": "Vasylkiv Raion"
  },
  {
    "source_id": "ChIJnx-B7rCl1EAR2E6xclMg5NY",
    "name": "Акватерм",
    "category": "Акватерм",
    "formatted_address": "5,0(5)",
    "phone_number": "+380688909090",
    "source_url": "https://www.google.com/maps/place/%D0%90%D0%BA%D0%B2%D0%B0%D1%82%D0%B5%D1%80%D0%BC/data=!4m7!3m6!1s0x40d4a5b0ee811f9f:0xd6e4205372b14ed8!8m2!3d50.1644093!4d30.3310193!16s%2Fg%2F11gsn0c8fp!19sChIJnx-B7rCl1EAR2E6xclMg5NY?authuser=0&hl=tr&rclk=1",
    "website_url": "",
    "rating_text": "5,0",
    "stars": null,
    "number_of_reviews": null,
    "price_level": "",
    "open_hours": "",
    "extraction_timestamp": "2025-06-08T03:33:24.381Z",
    "source_name": "google",
    "source_query": "Irrigation Equipment",
    "source_country": "UA",
    "country": "Ukraine",
    "state": "Kyivska oblast",
    "city": "Vasylkiv Raion"
  },
  {
    "source_id": "ChIJRa3o2hDG1EARvFwMiTpym0k",
    "name": "ЭВКАЛИПТ Р КОМПАНИЯ",
    "category": "ЭВКАЛИПТ Р КОМПАНИЯ",
    "formatted_address": "4,9(41)",
    "phone_number": "+380933654300",
    "source_url": "https://www.google.com/maps/place/%D0%AD%D0%92%D0%9A%D0%90%D0%9B%D0%98%D0%9F%D0%A2+%D0%A0+%D0%9A%D0%9E%D0%9C%D0%9F%D0%90%D0%9D%D0%98%D0%AF/data=!4m7!3m6!1s0x40d4c610dae8ad45:0x499b723a890c5cbc!8m2!3d50.360383!4d30.47321!16s%2Fg%2F11xhrr_g1!19sChIJRa3o2hDG1EARvFwMiTpym0k?authuser=0&hl=tr&rclk=1",
    "website_url": "",
    "rating_text": "4,9",
    "stars": null,
    "number_of_reviews": null,
    "price_level": "",
    "open_hours": "",
    "extraction_timestamp": "2025-06-08T03:33:24.382Z",
    "source_name": "google",
    "source_query": "Irrigation Equipment",
    "source_country": "UA",
    "country": "Ukraine",
    "state": "Kyivska oblast",
    "city": "Vasylkiv Raion"
  },
  {
    "source_id": "ChIJ1X0j2e-l1EARzhJkX2LhbdE",
    "name": "Бурение скважин, буровая компания \"Білий Лебідь\"",
    "category": "Бурение скважин, буровая компания \"Білий Лебідь\"",
    "formatted_address": "Бурение скважин, буровая компания \"Білий Лебідь\"",
    "phone_number": "+380960070406",
    "source_url": "https://www.google.com/maps/place/%D0%91%D1%83%D1%80%D0%B5%D0%BD%D0%B8%D0%B5+%D1%81%D0%BA%D0%B2%D0%B0%D0%B6%D0%B8%D0%BD,+%D0%B1%D1%83%D1%80%D0%BE%D0%B2%D0%B0%D1%8F+%D0%BA%D0%BE%D0%BC%D0%BF%D0%B0%D0%BD%D0%B8%D1%8F+%22%D0%91%D1%96%D0%BB%D0%B8%D0%B9+%D0%9B%D0%B5%D0%B1%D1%96%D0%B4%D1%8C%22/data=!4m7!3m6!1s0x40d4a5efd9237dd5:0xd16de1625f6412ce!8m2!3d50.180534!4d30.3123528!16s%2Fg%2F11j_vwg1vj!19sChIJ1X0j2e-l1EARzhJkX2LhbdE?authuser=0&hl=tr&rclk=1",
    "website_url": "",
    "rating_text": "4,2",
    "stars": null,
    "number_of_reviews": null,
    "price_level": "",
    "open_hours": "",
    "extraction_timestamp": "2025-06-08T03:33:24.383Z",
    "source_name": "google",
    "source_query": "Irrigation Equipment",
    "source_country": "UA",
    "country": "Ukraine",
    "state": "Kyivska oblast",
    "city": "Vasylkiv Raion"
  },
  {
    "source_id": "ChIJQ9yX4i-l1EAR51raZps-G50",
    "name": "Mahazyn Santekhniky-Elektryky \"Vezha-Akva\"",
    "category": "Mahazyn Santekhniky-Elektryky \"Vezha-Akva\"",
    "formatted_address": "4,8(24)",
    "phone_number": "+380935687319",
    "source_url": "https://www.google.com/maps/place/Mahazyn+Santekhniky-Elektryky+%22Vezha-Akva%22/data=!4m7!3m6!1s0x40d4a52fe297dc43:0x9d1b3e9b66da5ae7!8m2!3d50.167179!4d30.337173!16s%2Fg%2F11fzfbxt_d!19sChIJQ9yX4i-l1EAR51raZps-G50?authuser=0&hl=tr&rclk=1",
    "website_url": "",
    "rating_text": "4,8",
    "stars": null,
    "number_of_reviews": null,
    "price_level": "",
    "open_hours": "",
    "extraction_timestamp": "2025-06-08T03:33:24.384Z",
    "source_name": "google",
    "source_query": "Irrigation Equipment",
    "source_country": "UA",
    "country": "Ukraine",
    "state": "Kyivska oblast",
    "city": "Vasylkiv Raion"
  },
  {
    "source_id": "ChIJV0Vpbgmvc0ERLboN6-FJL0g",
    "name": "ATS",
    "category": "ATS",
    "formatted_address": "4,5(119)",
    "phone_number": "+380442902900",
    "source_url": "https://www.google.com/maps/place/ATS/data=!4m7!3m6!1s0x4173af096e694557:0x482f49e1eb0dba2d!8m2!3d50.2173169!4d30.2522621!16s%2Fg%2F11b5wknq5d!19sChIJV0Vpbgmvc0ERLboN6-FJL0g?authuser=0&hl=tr&rclk=1",
    "website_url": "",
    "rating_text": "4,5",
    "stars": null,
    "number_of_reviews": null,
    "price_level": "",
    "open_hours": "",
    "extraction_timestamp": "2025-06-08T03:33:24.385Z",
    "source_name": "google",
    "source_query": "Irrigation Equipment",
    "source_country": "UA",
    "country": "Ukraine",
    "state": "Kyivska oblast",
    "city": "Vasylkiv Raion"
  },
  {
    "source_id": "ChIJx4QoM8-x1EAR1hPrdH0RuCg",
    "name": "Tov \"Mehaplast-Komplekt\"",
    "category": "Tov \"Mehaplast-Komplekt\"",
    "formatted_address": "5,0(1)",
    "phone_number": "+380675406760",
    "source_url": "https://www.google.com/maps/place/Tov+%22Mehaplast-Komplekt%22/data=!4m7!3m6!1s0x40d4b1cf332884c7:0x28b8117d74eb13d6!8m2!3d50.2169225!4d30.2863188!16s%2Fg%2F11qqynhvln!19sChIJx4QoM8-x1EAR1hPrdH0RuCg?authuser=0&hl=tr&rclk=1",
    "website_url": "",
    "rating_text": "5,0",
    "stars": null,
    "number_of_reviews": null,
    "price_level": "",
    "open_hours": "",
    "extraction_timestamp": "2025-06-08T03:33:24.386Z",
    "source_name": "google",
    "source_query": "Irrigation Equipment",
    "source_country": "UA",
    "country": "Ukraine",
    "state": "Kyivska oblast",
    "city": "Vasylkiv Raion"
  },
  {
    "source_id": "ChIJ_2Il1kml1EARQScXMJXMCrc",
    "name": "Zhyelyezyaka",
    "category": "Zhyelyezyaka",
    "formatted_address": "4,5(1.020)",
    "phone_number": "+380674531234",
    "source_url": "https://www.google.com/maps/place/Zhyelyezyaka/data=!4m7!3m6!1s0x40d4a549d62562ff:0xb70acc9530172741!8m2!3d50.1730061!4d30.327131!16s%2Fg%2F11c46lx24s!19sChIJ_2Il1kml1EARQScXMJXMCrc?authuser=0&hl=tr&rclk=1",
    "website_url": "",
    "rating_text": "4,5",
    "stars": null,
    "number_of_reviews": null,
    "price_level": "",
    "open_hours": "",
    "extraction_timestamp": "2025-06-08T03:33:24.388Z",
    "source_name": "google",
    "source_query": "Irrigation Equipment",
    "source_country": "UA",
    "country": "Ukraine",
    "state": "Kyivska oblast",
    "city": "Vasylkiv Raion"
  },
  {
    "source_id": "ChIJQ8aobTal1EARimHYd0eI9Z8",
    "name": "магазин сантехніки Футорка",
    "category": "магазин сантехніки Футорка",
    "formatted_address": "4,5(18)",
    "phone_number": "+380638145438",
    "source_url": "https://www.google.com/maps/place/%D0%BC%D0%B0%D0%B3%D0%B0%D0%B7%D0%B8%D0%BD+%D1%81%D0%B0%D0%BD%D1%82%D0%B5%D1%85%D0%BD%D1%96%D0%BA%D0%B8+%D0%A4%D1%83%D1%82%D0%BE%D1%80%D0%BA%D0%B0/data=!4m7!3m6!1s0x40d4a5366da8c643:0x9ff5884777d8618a!8m2!3d50.1737745!4d30.3282149!16s%2Fg%2F11c4b3c5v2!19sChIJQ8aobTal1EARimHYd0eI9Z8?authuser=0&hl=tr&rclk=1",
    "website_url": "",
    "rating_text": "4,5",
    "stars": null,
    "number_of_reviews": null,
    "price_level": "",
    "open_hours": "",
    "extraction_timestamp": "2025-06-08T03:33:24.389Z",
    "source_name": "google",
    "source_query": "Irrigation Equipment",
    "source_country": "UA",
    "country": "Ukraine",
    "state": "Kyivska oblast",
    "city": "Vasylkiv Raion"
  },
  {
    "source_id": "ChIJLRDF4Tql1EARkntBhLchNFg",
    "name": "Teplo Plyus",
    "category": "Teplo Plyus",
    "formatted_address": "4,6(67)",
    "phone_number": "+380950084034",
    "source_url": "https://www.google.com/maps/place/Teplo+Plyus/data=!4m7!3m6!1s0x40d4a53ae1c5102d:0x583421b784417b92!8m2!3d50.1645568!4d30.3299098!16s%2Fg%2F1hc3h8dkk!19sChIJLRDF4Tql1EARkntBhLchNFg?authuser=0&hl=tr&rclk=1",
    "website_url": "",
    "rating_text": "4,6",
    "stars": null,
    "number_of_reviews": null,
    "price_level": "",
    "open_hours": "",
    "extraction_timestamp": "2025-06-08T03:33:24.390Z",
    "source_name": "google",
    "source_query": "Irrigation Equipment",
    "source_country": "UA",
    "country": "Ukraine",
    "state": "Kyivska oblast",
    "city": "Vasylkiv Raion"
  },
  {
    "source_id": "ChIJ_4-8T1G71EARRGVPZ2z7FiY",
    "name": "Mayster-Santekhnik",
    "category": "Mayster-Santekhnik",
    "formatted_address": "4,8(20)",
    "phone_number": "+380667578437",
    "source_url": "https://www.google.com/maps/place/Mayster-Santekhnik/data=!4m7!3m6!1s0x40d4bb514fbc8fff:0x2616fb6c674f6544!8m2!3d50.1871364!4d30.3003079!16s%2Fg%2F11ffw6rxcf!19sChIJ_4-8T1G71EARRGVPZ2z7FiY?authuser=0&hl=tr&rclk=1",
    "website_url": "",
    "rating_text": "4,8",
    "stars": null,
    "number_of_reviews": null,
    "price_level": "",
    "open_hours": "",
    "extraction_timestamp": "2025-06-08T03:33:24.390Z",
    "source_name": "google",
    "source_query": "Irrigation Equipment",
    "source_country": "UA",
    "country": "Ukraine",
    "state": "Kyivska oblast",
    "city": "Vasylkiv Raion"
  },
  {
    "source_id": "ChIJWbirk8yl1EARutwSu4s4APo",
    "name": "Ahromahazyn \"Urozhay\"",
    "category": "Ahromahazyn \"Urozhay\"",
    "formatted_address": "4,7(38)",
    "phone_number": "+380968047198",
    "source_url": "https://www.google.com/maps/place/Ahromahazyn+%22Urozhay%22/data=!4m7!3m6!1s0x40d4a5cc93abb859:0xfa00388bbb12dcba!8m2!3d50.1674138!4d30.3331201!16s%2Fg%2F11g4jh2p9c!19sChIJWbirk8yl1EARutwSu4s4APo?authuser=0&hl=tr&rclk=1",
    "website_url": "",
    "rating_text": "4,7",
    "stars": null,
    "number_of_reviews": null,
    "price_level": "",
    "open_hours": "",
    "extraction_timestamp": "2025-06-08T03:33:24.391Z",
    "source_name": "google",
    "source_query": "Irrigation Equipment",
    "source_country": "UA",
    "country": "Ukraine",
    "state": "Kyivska oblast",
    "city": "Vasylkiv Raion"
  },
  {
    "source_id": "ChIJc4dPLAuZ1EARRN1TMl-zDh8",
    "name": "Water Dream - автоматичні системи зрошення",
    "category": "Water Dream - автоматичні системи зрошення",
    "formatted_address": "4,1(12)",
    "phone_number": "+380980989080",
    "source_url": "https://www.google.com/maps/place/Water+Dream+-+%D0%B0%D0%B2%D1%82%D0%BE%D0%BC%D0%B0%D1%82%D0%B8%D1%87%D0%BD%D1%96+%D1%81%D0%B8%D1%81%D1%82%D0%B5%D0%BC%D0%B8+%D0%B7%D1%80%D0%BE%D1%88%D0%B5%D0%BD%D0%BD%D1%8F/data=!4m7!3m6!1s0x40d4990b2c4f8773:0x1f0eb35f3253dd44!8m2!3d50.0836315!4d30.6040333!16s%2Fg%2F11h6yqf7b4!19sChIJc4dPLAuZ1EARRN1TMl-zDh8?authuser=0&hl=tr&rclk=1",
    "website_url": "",
    "rating_text": "4,1",
    "stars": null,
    "number_of_reviews": null,
    "price_level": "",
    "open_hours": "",
    "extraction_timestamp": "2025-06-08T03:33:24.392Z",
    "source_name": "google",
    "source_query": "Irrigation Equipment",
    "source_country": "UA",
    "country": "Ukraine",
    "state": "Kyivska oblast",
    "city": "Vasylkiv Raion"
  },
  {
    "source_id": "ChIJ5dUqQp2x1EARPeEoyGpO-K4",
    "name": "Ahropromkholdynh Arenda Spetstekhnyky",
    "category": "Ahropromkholdynh Arenda Spetstekhnyky",
    "formatted_address": "5,0(3)",
    "phone_number": "+380672426377",
    "source_url": "https://www.google.com/maps/place/Ahropromkholdynh+Arenda+Spetstekhnyky/data=!4m7!3m6!1s0x40d4b19d422ad5e5:0xaef84e6ac828e13d!8m2!3d50.2246541!4d30.3200193!16s%2Fg%2F11hf1xw_kn!19sChIJ5dUqQp2x1EARPeEoyGpO-K4?authuser=0&hl=tr&rclk=1",
    "website_url": "",
    "rating_text": "5,0",
    "stars": null,
    "number_of_reviews": null,
    "price_level": "",
    "open_hours": "",
    "extraction_timestamp": "2025-06-08T03:33:24.392Z",
    "source_name": "google",
    "source_query": "Irrigation Equipment",
    "source_country": "UA",
    "country": "Ukraine",
    "state": "Kyivska oblast",
    "city": "Vasylkiv Raion"
  },
  {
    "source_id": "ChIJUYSQKjal1EARNfeVc6n4kWc",
    "name": "магазин питної води \"НЕПТУН\"",
    "category": "магазин питної води \"НЕПТУН\"",
    "formatted_address": "4,4(25)",
    "phone_number": "+380673741234",
    "source_url": "https://www.google.com/maps/place/%D0%BC%D0%B0%D0%B3%D0%B0%D0%B7%D0%B8%D0%BD+%D0%BF%D0%B8%D1%82%D0%BD%D0%BE%D1%97+%D0%B2%D0%BE%D0%B4%D0%B8+%22%D0%9D%D0%95%D0%9F%D0%A2%D0%A3%D0%9D%22/data=!4m7!3m6!1s0x40d4a5362a908451:0x6791f8a97395f735!8m2!3d50.1722286!4d30.3266714!16s%2Fg%2F11g9g0yls9!19sChIJUYSQKjal1EARNfeVc6n4kWc?authuser=0&hl=tr&rclk=1",
    "website_url": "",
    "rating_text": "4,4",
    "stars": null,
    "number_of_reviews": null,
    "price_level": "",
    "open_hours": "",
    "extraction_timestamp": "2025-06-08T03:33:24.393Z",
    "source_name": "google",
    "source_query": "Irrigation Equipment",
    "source_country": "UA",
    "country": "Ukraine",
    "state": "Kyivska oblast",
    "city": "Vasylkiv Raion"
  },
  {
    "source_id": "ChIJQ0VMW7m31EARSHbSPpVNOig",
    "name": "Burinnya Sverdlovyn \"Dzherelo\" - Burova Kompaniya",
    "category": "Burinnya Sverdlovyn \"Dzherelo\" - Burova Kompaniya",
    "formatted_address": "4,1(15)",
    "phone_number": "+380962584141",
    "source_url": "https://www.google.com/maps/place/Burinnya+Sverdlovyn+%22Dzherelo%22+-+Burova+Kompaniya/data=!4m7!3m6!1s0x40d4b7b95b4c4543:0x283a4d953ed27648!8m2!3d50.3273673!4d30.4417798!16s%2Fg%2F11ght1mkzj!19sChIJQ0VMW7m31EARSHbSPpVNOig?authuser=0&hl=tr&rclk=1",
    "website_url": "",
    "rating_text": "4,1",
    "stars": null,
    "number_of_reviews": null,
    "price_level": "",
    "open_hours": "",
    "extraction_timestamp": "2025-06-08T03:33:24.394Z",
    "source_name": "google",
    "source_query": "Irrigation Equipment",
    "source_country": "UA",
    "country": "Ukraine",
    "state": "Kyivska oblast",
    "city": "Vasylkiv Raion"
  },
  {
    "source_id": "ChIJb458cOKx1EAR0FUVRxUzRPQ",
    "name": "Ahropolyv, Tov",
    "category": "Ahropolyv, Tov",
    "formatted_address": "Ahropolyv, Tov",
    "phone_number": "+380662142696",
    "source_url": "https://www.google.com/maps/place/Ahropolyv,+Tov/data=!4m7!3m6!1s0x40d4b1e2707c8e6f:0xf4443315471555d0!8m2!3d50.2174685!4d30.2524756!16s%2Fg%2F11vzs0ymkr!19sChIJb458cOKx1EAR0FUVRxUzRPQ?authuser=0&hl=tr&rclk=1",
    "website_url": "",
    "rating_text": "",
    "stars": null,
    "number_of_reviews": null,
    "price_level": "",
    "open_hours": "",
    "extraction_timestamp": "2025-06-08T03:33:24.395Z",
    "source_name": "google",
    "source_query": "Irrigation Equipment",
    "source_country": "UA",
    "country": "Ukraine",
    "state": "Kyivska oblast",
    "city": "Vasylkiv Raion"
  },
  {
    "source_id": "ChIJEWSxdh_I1EARf0k-kMeYU0w",
    "name": "Садово-дизайнерський центр «Shoni»",
    "category": "Садово-дизайнерський центр «Shoni»",
    "formatted_address": "4,7(103)",
    "phone_number": "+380932595599",
    "source_url": "https://www.google.com/maps/place/%D0%A1%D0%B0%D0%B4%D0%BE%D0%B2%D0%BE-%D0%B4%D0%B8%D0%B7%D0%B0%D0%B9%D0%BD%D0%B5%D1%80%D1%81%D1%8C%D0%BA%D0%B8%D0%B9+%D1%86%D0%B5%D0%BD%D1%82%D1%80+%C2%ABShoni%C2%BB/data=!4m7!3m6!1s0x40d4c81f76b16411:0x4c5398c7903e497f!8m2!3d50.332836!4d30.4394607!16s%2Fg%2F1tl4bk0t!19sChIJEWSxdh_I1EARf0k-kMeYU0w?authuser=0&hl=tr&rclk=1",
    "website_url": "",
    "rating_text": "4,7",
    "stars": null,
    "number_of_reviews": null,
    "price_level": "",
    "open_hours": "",
    "extraction_timestamp": "2025-06-08T03:33:24.396Z",
    "source_name": "google",
    "source_query": "Irrigation Equipment",
    "source_country": "UA",
    "country": "Ukraine",
    "state": "Kyivska oblast",
    "city": "Vasylkiv Raion"
  },
  {
    "source_id": "ChIJV0bSyhax1EARONB5tYNuvf0",
    "name": "Kombikorm Tm Ahroprohres",
    "category": "Kombikorm Tm Ahroprohres",
    "formatted_address": "4,6(16)",
    "phone_number": "+380991845958",
    "source_url": "https://www.google.com/maps/place/Kombikorm+Tm+Ahroprohres/data=!4m7!3m6!1s0x40d4b116cad24657:0xfdbd6e83b579d038!8m2!3d50.2267846!4d30.2296107!16s%2Fg%2F11g2xds5j0!19sChIJV0bSyhax1EARONB5tYNuvf0?authuser=0&hl=tr&rclk=1",
    "website_url": "",
    "rating_text": "4,6",
    "stars": null,
    "number_of_reviews": null,
    "price_level": "",
    "open_hours": "",
    "extraction_timestamp": "2025-06-08T03:33:24.396Z",
    "source_name": "google",
    "source_query": "Irrigation Equipment",
    "source_country": "UA",
    "country": "Ukraine",
    "state": "Kyivska oblast",
    "city": "Vasylkiv Raion"
  },
  {
    "source_id": "ChIJa_Kex83M1EARFoBhNk8UrgI",
    "name": "Порядочний Сантехнік - Expert Master",
    "category": "Порядочний Сантехнік - Expert Master",
    "formatted_address": "4,8(79)",
    "phone_number": "+380636415840",
    "source_url": "https://www.google.com/maps/place/%D0%9F%D0%BE%D1%80%D1%8F%D0%B4%D0%BE%D1%87%D0%BD%D0%B8%D0%B9+%D0%A1%D0%B0%D0%BD%D1%82%D0%B5%D1%85%D0%BD%D1%96%D0%BA+-+Expert+Master/data=!4m7!3m6!1s0x40d4cccdc79ef26b:0x2ae144f36618016!8m2!3d50.3805025!4d30.5364521!16s%2Fg%2F11c5s4t1f1!19sChIJa_Kex83M1EARFoBhNk8UrgI?authuser=0&hl=tr&rclk=1",
    "website_url": "",
    "rating_text": "4,8",
    "stars": null,
    "number_of_reviews": null,
    "price_level": "",
    "open_hours": "",
    "extraction_timestamp": "2025-06-08T03:33:24.397Z",
    "source_name": "google",
    "source_query": "Irrigation Equipment",
    "source_country": "UA",
    "country": "Ukraine",
    "state": "Kyivska oblast",
    "city": "Vasylkiv Raion"
  },
  {
    "source_id": "ChIJDx10apXN1EARCeJXmA3AFk0",
    "name": "Ecosoft - центр чистої води",
    "category": "Ecosoft - центр чистої води",
    "formatted_address": "5,0(4)",
    "phone_number": "+380981015000",
    "source_url": "https://www.google.com/maps/place/Ecosoft+-+%D1%86%D0%B5%D0%BD%D1%82%D1%80+%D1%87%D0%B8%D1%81%D1%82%D0%BE%D1%97+%D0%B2%D0%BE%D0%B4%D0%B8/data=!4m7!3m6!1s0x40d4cd956a741d0f:0x4d16c00d9857e209!8m2!3d50.3469638!4d30.419739!16s%2Fg%2F11q8xbjn2n!19sChIJDx10apXN1EARCeJXmA3AFk0?authuser=0&hl=tr&rclk=1",
    "website_url": "",
    "rating_text": "5,0",
    "stars": null,
    "number_of_reviews": null,
    "price_level": "",
    "open_hours": "",
    "extraction_timestamp": "2025-06-08T03:33:24.398Z",
    "source_name": "google",
    "source_query": "Irrigation Equipment",
    "source_country": "UA",
    "country": "Ukraine",
    "state": "Kyivska oblast",
    "city": "Vasylkiv Raion"
  },
  {
    "source_id": "ChIJS6JAwg_N1EARAfM007kuYIM",
    "name": "SantehMaster (СантехМастер)",
    "category": "SantehMaster (СантехМастер)",
    "formatted_address": "4,7(131)",
    "phone_number": "+380445920850",
    "source_url": "https://www.google.com/maps/place/SantehMaster+%28%D0%A1%D0%B0%D0%BD%D1%82%D0%B5%D1%85%D0%9C%D0%B0%D1%81%D1%82%D0%B5%D1%80%29/data=!4m7!3m6!1s0x40d4cd0fc240a24b:0x83602eb9d334f301!8m2!3d50.404303!4d30.3332779!16s%2Fg%2F11b6c3r_g0!19sChIJS6JAwg_N1EARAfM007kuYIM?authuser=0&hl=tr&rclk=1",
    "website_url": "",
    "rating_text": "4,7",
    "stars": null,
    "number_of_reviews": null,
    "price_level": "",
    "open_hours": "",
    "extraction_timestamp": "2025-06-08T03:33:24.398Z",
    "source_name": "google",
    "source_query": "Irrigation Equipment",
    "source_country": "UA",
    "country": "Ukraine",
    "state": "Kyivska oblast",
    "city": "Vasylkiv Raion"
  },
  {
    "source_id": "ChIJH92H-OHN1EAR8y6NQ7A6p38",
    "name": "Stonepools",
    "category": "Stonepools",
    "formatted_address": "5,0(3)",
    "phone_number": "+380675052416",
    "source_url": "https://www.google.com/maps/place/Stonepools/data=!4m7!3m6!1s0x40d4cde1f887dd1f:0x7fa73ab0438d2ef3!8m2!3d50.3316264!4d30.3180888!16s%2Fg%2F11c5h2tm27!19sChIJH92H-OHN1EAR8y6NQ7A6p38?authuser=0&hl=tr&rclk=1",
    "website_url": "",
    "rating_text": "5,0",
    "stars": null,
    "number_of_reviews": null,
    "price_level": "",
    "open_hours": "",
    "extraction_timestamp": "2025-06-08T03:33:24.399Z",
    "source_name": "google",
    "source_query": "Irrigation Equipment",
    "source_country": "UA",
    "country": "Ukraine",
    "state": "Kyivska oblast",
    "city": "Vasylkiv Raion"
  },
  {
    "source_id": "ChIJpXddJlLI1EARvX2Niu0cQ7Q",
    "name": "ПАНДА групп обладнання для нафтобаз, насоси вибухозахісні АТЕХ",
    "category": "ПАНДА групп обладнання для нафтобаз, насоси вибухозахісні АТЕХ",
    "formatted_address": "ПАНДА групп обладнання для нафтобаз, насоси вибухозахісні АТЕХ",
    "phone_number": "+380957941719",
    "source_url": "https://www.google.com/maps/place/%D0%9F%D0%90%D0%9D%D0%94%D0%90+%D0%B3%D1%80%D1%83%D0%BF%D0%BF+%D0%BE%D0%B1%D0%BB%D0%B0%D0%B4%D0%BD%D0%B0%D0%BD%D0%BD%D1%8F+%D0%B4%D0%BB%D1%8F+%D0%BD%D0%B0%D1%84%D1%82%D0%BE%D0%B1%D0%B0%D0%B7,+%D0%BD%D0%B0%D1%81%D0%BE%D1%81%D0%B8+%D0%B2%D0%B8%D0%B1%D1%83%D1%85%D0%BE%D0%B7%D0%B0%D1%85%D1%96%D1%81%D0%BD%D1%96+%D0%90%D0%A2%D0%95%D0%A5/data=!4m7!3m6!1s0x40d4c852265d77a5:0xb4431ced8a8d7dbd!8m2!3d50.3035813!4d30.3702163!16s%2Fg%2F1hm3p15g1!19sChIJpXddJlLI1EARvX2Niu0cQ7Q?authuser=0&hl=tr&rclk=1",
    "website_url": "",
    "rating_text": "",
    "stars": null,
    "number_of_reviews": null,
    "price_level": "",
    "open_hours": "",
    "extraction_timestamp": "2025-06-08T03:33:24.400Z",
    "source_name": "google",
    "source_query": "Irrigation Equipment",
    "source_country": "UA",
    "country": "Ukraine",
    "state": "Kyivska oblast",
    "city": "Vasylkiv Raion"
  },
  {
    "source_id": "ChIJ_XFbu33L1EARKeiH1o7xvl8",
    "name": "Строительство бассейнов ООО \"Аква Буд Инжиниринг\"",
    "category": "Строительство бассейнов ООО \"Аква Буд Инжиниринг\"",
    "formatted_address": "",
    "phone_number": "+380445928884",
    "source_url": "https://www.google.com/maps/place/%D0%A1%D1%82%D1%80%D0%BE%D0%B8%D1%82%D0%B5%D0%BB%D1%8C%D1%81%D1%82%D0%B2%D0%BE+%D0%B1%D0%B0%D1%81%D1%81%D0%B5%D0%B9%D0%BD%D0%BE%D0%B2+%D0%9E%D0%9E%D0%9E+%22%D0%90%D0%BA%D0%B2%D0%B0+%D0%91%D1%83%D0%B4+%D0%98%D0%BD%D0%B6%D0%B8%D0%BD%D0%B8%D1%80%D0%B8%D0%BD%D0%B3%22/data=!4m7!3m6!1s0x40d4cb7dbb5b71fd:0x5fbef18ed687e829!8m2!3d50.2965798!4d30.5330388!16s%2Fg%2F11dxhzh7fj!19sChIJ_XFbu33L1EARKeiH1o7xvl8?authuser=0&hl=tr&rclk=1",
    "website_url": "",
    "rating_text": "",
    "stars": null,
    "number_of_reviews": null,
    "price_level": "",
    "open_hours": "",
    "extraction_timestamp": "2025-06-08T03:33:24.401Z",
    "source_name": "google",
    "source_query": "Irrigation Equipment",
    "source_country": "UA",
    "country": "Ukraine",
    "state": "Kyivska oblast",
    "city": "Vasylkiv Raion"
  },
  {
    "source_id": "ChIJj0u_G-_J1EARCMyAfd3YBdA",
    "name": "Art Green",
    "category": "Art Green",
    "formatted_address": "5,0(7)",
    "phone_number": "",
    "source_url": "https://www.google.com/maps/place/Art+Green/data=!4m7!3m6!1s0x40d4c9ef1bbf4b8f:0xd005d8dd7d80cc08!8m2!3d50.3569659!4d30.4366525!16s%2Fg%2F11w_t53108!19sChIJj0u_G-_J1EARCMyAfd3YBdA?authuser=0&hl=tr&rclk=1",
    "website_url": "",
    "rating_text": "5,0",
    "stars": null,
    "number_of_reviews": null,
    "price_level": "",
    "open_hours": "",
    "extraction_timestamp": "2025-06-08T03:33:24.401Z",
    "source_name": "google",
    "source_query": "Irrigation Equipment",
    "source_country": "UA",
    "country": "Ukraine",
    "state": "Kyivska oblast",
    "city": "Vasylkiv Raion"
  },
  {
    "source_id": "ChIJTe1g7f-X1EARX2FmLPA7MlU",
    "name": "Omela - Horshchyky Dlya Kvitiv",
    "category": "Omela - Horshchyky Dlya Kvitiv",
    "formatted_address": "4,3(28)",
    "phone_number": "+380661473212",
    "source_url": "https://www.google.com/maps/place/Omela+-+Horshchyky+Dlya+Kvitiv/data=!4m7!3m6!1s0x40d497ffed60ed4d:0x55323bf02c66615f!8m2!3d50.1374012!4d30.6656045!16s%2Fg%2F11fk03y0gp!19sChIJTe1g7f-X1EARX2FmLPA7MlU?authuser=0&hl=tr&rclk=1",
    "website_url": "",
    "rating_text": "4,3",
    "stars": null,
    "number_of_reviews": null,
    "price_level": "",
    "open_hours": "",
    "extraction_timestamp": "2025-06-08T03:33:24.402Z",
    "source_name": "google",
    "source_query": "Irrigation Equipment",
    "source_country": "UA",
    "country": "Ukraine",
    "state": "Kyivska oblast",
    "city": "Vasylkiv Raion"
  },
  {
    "source_id": "ChIJ93I4m_2x1EARn2UJ2mrKZZE",
    "name": "Servismayster",
    "category": "Servismayster",
    "formatted_address": "5,0(24)",
    "phone_number": "+380954361442",
    "source_url": "https://www.google.com/maps/place/Servismayster/data=!4m7!3m6!1s0x40d4b1fd9b3872f7:0x9165ca6ada09659f!8m2!3d50.2165899!4d30.3254862!16s%2Fg%2F11y4v632fv!19sChIJ93I4m_2x1EARn2UJ2mrKZZE?authuser=0&hl=tr&rclk=1",
    "website_url": "",
    "rating_text": "5,0",
    "stars": null,
    "number_of_reviews": null,
    "price_level": "",
    "open_hours": "",
    "extraction_timestamp": "2025-06-08T03:33:24.404Z",
    "source_name": "google",
    "source_query": "Irrigation Equipment",
    "source_country": "UA",
    "country": "Ukraine",
    "state": "Kyivska oblast",
    "city": "Vasylkiv Raion"
  },
  {
    "source_id": "ChIJE5ej5D6l1EARg-l4zqa3ny4",
    "name": "Телерадіотовари",
    "category": "Телерадіотовари",
    "formatted_address": "4,9(128)",
    "phone_number": "+380677871577",
    "source_url": "https://www.google.com/maps/place/%D0%A2%D0%B5%D0%BB%D0%B5%D1%80%D0%B0%D0%B4%D1%96%D0%BE%D1%82%D0%BE%D0%B2%D0%B0%D1%80%D0%B8/data=!4m7!3m6!1s0x40d4a53ee4a39713:0x2e9fb7a6ce78e983!8m2!3d50.1730412!4d30.3250176!16s%2Fg%2F11gjwrhtq1!19sChIJE5ej5D6l1EARg-l4zqa3ny4?authuser=0&hl=tr&rclk=1",
    "website_url": "",
    "rating_text": "4,9",
    "stars": null,
    "number_of_reviews": null,
    "price_level": "",
    "open_hours": "",
    "extraction_timestamp": "2025-06-08T03:33:24.405Z",
    "source_name": "google",
    "source_query": "Irrigation Equipment",
    "source_country": "UA",
    "country": "Ukraine",
    "state": "Kyivska oblast",
    "city": "Vasylkiv Raion"
  },
  {
    "source_id": "ChIJMzAlGvzO1EARWJXXznkJjKQ",
    "name": "ЮФП Груп (UFP Group) - компания по продаже пожарного оборудования",
    "category": "ЮФП Груп (UFP Group) - компания по продаже пожарного оборудования",
    "formatted_address": "5,0(11)",
    "phone_number": "+380444962820",
    "source_url": "https://www.google.com/maps/place/%D0%AE%D0%A4%D0%9F+%D0%93%D1%80%D1%83%D0%BF+%28UFP+Group%29+-+%D0%BA%D0%BE%D0%BC%D0%BF%D0%B0%D0%BD%D0%B8%D1%8F+%D0%BF%D0%BE+%D0%BF%D1%80%D0%BE%D0%B4%D0%B0%D0%B6%D0%B5+%D0%BF%D0%BE%D0%B6%D0%B0%D1%80%D0%BD%D0%BE%D0%B3%D0%BE+%D0%BE%D0%B1%D0%BE%D1%80%D1%83%D0%B4%D0%BE%D0%B2%D0%B0%D0%BD%D0%B8%D1%8F/data=!4m7!3m6!1s0x40d4cefc1a253033:0xa48c0979ced79558!8m2!3d50.3937018!4d30.4854047!16s%2Fg%2F12htc6r34!19sChIJMzAlGvzO1EARWJXXznkJjKQ?authuser=0&hl=tr&rclk=1",
    "website_url": "",
    "rating_text": "5,0",
    "stars": null,
    "number_of_reviews": null,
    "price_level": "",
    "open_hours": "",
    "extraction_timestamp": "2025-06-08T03:33:24.406Z",
    "source_name": "google",
    "source_query": "Irrigation Equipment",
    "source_country": "UA",
    "country": "Ukraine",
    "state": "Kyivska oblast",
    "city": "Vasylkiv Raion"
  }
]
