[
  {
    "source_id": "ChIJ6x0khq0n1UARzL9tMc9I9D4",
    "name": "Ip \"Koka-Kola Beveridzhyz Ukraine Limited\"",
    "category": "Ip \"Koka-Kola Beveridzhyz Ukraine Limited\"",
    "formatted_address": "3,8(240)",
    "phone_number": "+380444900707",
    "source_url": "https://www.google.com/maps/place/Ip+%22Koka-Kola+Beveridzhyz+Ukraine+Limited%22/data=!4m7!3m6!1s0x40d527ad86241deb:0x3ef448cf316dbfcc!8m2!3d50.6110038!4d30.8720494!16s%2Fg%2F1pp2x8pkr!19sChIJ6x0khq0n1UARzL9tMc9I9D4?authuser=0&hl=tr&rclk=1",
    "website_url": "http://www.coca-cola.ua/",
    "rating_text": "3,8",
    "stars": null,
    "number_of_reviews": null,
    "price_level": "",
    "open_hours": "",
    "extraction_timestamp": "2025-06-08T03:25:29.139Z",
    "source_name": "google",
    "source_query": "Irrigation Equipment",
    "source_country": "UA",
    "country": "Ukraine",
    "state": "Kyivska oblast",
    "city": "Velyka Dymerka"
  },
  {
    "source_id": "ChIJ60XEpQbQ1EARVLf9IomIVYg",
    "name": "Poliv UA",
    "category": "Poliv UA",
    "formatted_address": "4,8(64)",
    "phone_number": "+380443379900",
    "source_url": "https://www.google.com/maps/place/Poliv+UA/data=!4m7!3m6!1s0x40d4d006a5c445eb:0x8855888922fdb754!8m2!3d50.4646434!4d30.6255633!16s%2Fg%2F11clsyjy7n!19sChIJ60XEpQbQ1EARVLf9IomIVYg?authuser=0&hl=tr&rclk=1",
    "website_url": "https://poliv.ua/",
    "rating_text": "4,8",
    "stars": null,
    "number_of_reviews": null,
    "price_level": "",
    "open_hours": "",
    "extraction_timestamp": "2025-06-08T03:25:29.150Z",
    "source_name": "google",
    "source_query": "Irrigation Equipment",
    "source_country": "UA",
    "country": "Ukraine",
    "state": "Kyivska oblast",
    "city": "Velyka Dymerka"
  },
  {
    "source_id": "ChIJMXHOGBcn1UARbye1pevKdFA",
    "name": "Avtomahazyn Vaz, Haz, Zaz, Shevrole.mahazyn Khoztovary",
    "category": "Avtomahazyn Vaz, Haz, Zaz, Shevrole.mahazyn Khoztovary",
    "formatted_address": "Avtomahazyn Vaz, Haz, Zaz, Shevrole.mahazyn Khoztovary",
    "phone_number": "+380681458883",
    "source_url": "https://www.google.com/maps/place/Avtomahazyn+Vaz,+Haz,+Zaz,+Shevrole.mahazyn+Khoztovary/data=!4m7!3m6!1s0x40d5271718ce7131:0x5074caeba5b5276f!8m2!3d50.5922317!4d30.9009674!16s%2Fg%2F11c5wzn7p4!19sChIJMXHOGBcn1UARbye1pevKdFA?authuser=0&hl=tr&rclk=1",
    "website_url": "https://buynow.net.ua/",
    "rating_text": "4,4",
    "stars": null,
    "number_of_reviews": null,
    "price_level": "",
    "open_hours": "",
    "extraction_timestamp": "2025-06-08T03:25:29.150Z",
    "source_name": "google",
    "source_query": "Irrigation Equipment",
    "source_country": "UA",
    "country": "Ukraine",
    "state": "Kyivska oblast",
    "city": "Velyka Dymerka"
  },
  {
    "source_id": "ChIJv1JElJDZ1EARUKtN4INThhU",
    "name": "Doyilʹni Aparaty",
    "category": "Doyilʹni Aparaty",
    "formatted_address": "5,0(1)",
    "phone_number": "+380984541219",
    "source_url": "https://www.google.com/maps/place/Doyil%CA%B9ni+Aparaty/data=!4m7!3m6!1s0x40d4d990944452bf:0x15865383e04dab50!8m2!3d50.5116253!4d30.7886245!16s%2Fg%2F11w9xsd1hf!19sChIJv1JElJDZ1EARUKtN4INThhU?authuser=0&hl=tr&rclk=1",
    "website_url": "https://tech-area.com.ua/",
    "rating_text": "5,0",
    "stars": null,
    "number_of_reviews": null,
    "price_level": "",
    "open_hours": "",
    "extraction_timestamp": "2025-06-08T03:25:29.150Z",
    "source_name": "google",
    "source_query": "Irrigation Equipment",
    "source_country": "UA",
    "country": "Ukraine",
    "state": "Kyivska oblast",
    "city": "Velyka Dymerka"
  },
  {
    "source_id": "ChIJSeftshcn1UARzK3_ZHxZwNY",
    "name": "Budmaterialy",
    "category": "Budmaterialy",
    "formatted_address": "4,5(46)",
    "phone_number": "+380687758749",
    "source_url": "https://www.google.com/maps/place/Budmaterialy/data=!4m7!3m6!1s0x40d52717b2ede749:0xd6c0597c64ffadcc!8m2!3d50.5913758!4d30.9032595!16s%2Fg%2F11ddx07xqq!19sChIJSeftshcn1UARzK3_ZHxZwNY?authuser=0&hl=tr&rclk=1",
    "website_url": "",
    "rating_text": "4,5",
    "stars": null,
    "number_of_reviews": null,
    "price_level": "",
    "open_hours": "",
    "extraction_timestamp": "2025-06-08T03:25:29.151Z",
    "source_name": "google",
    "source_query": "Irrigation Equipment",
    "source_country": "UA",
    "country": "Ukraine",
    "state": "Kyivska oblast",
    "city": "Velyka Dymerka"
  },
  {
    "source_id": "ChIJYyU9lq_N1EARqoG8SYko8go",
    "name": "Лайф Гарден",
    "category": "Лайф Гарден",
    "formatted_address": "3,9(7)",
    "phone_number": "+380503719090",
    "source_url": "https://www.google.com/maps/place/%D0%9B%D0%B0%D0%B9%D1%84+%D0%93%D0%B0%D1%80%D0%B4%D0%B5%D0%BD/data=!4m7!3m6!1s0x40d4cdaf963d2563:0xaf2288949bc81aa!8m2!3d50.45748!4d30.3824706!16s%2Fg%2F11gr60b225!19sChIJYyU9lq_N1EARqoG8SYko8go?authuser=0&hl=tr&rclk=1",
    "website_url": "",
    "rating_text": "3,9",
    "stars": null,
    "number_of_reviews": null,
    "price_level": "",
    "open_hours": "",
    "extraction_timestamp": "2025-06-08T03:25:29.151Z",
    "source_name": "google",
    "source_query": "Irrigation Equipment",
    "source_country": "UA",
    "country": "Ukraine",
    "state": "Kyivska oblast",
    "city": "Velyka Dymerka"
  },
  {
    "source_id": "ChIJbZdlAhcn1UARu-M8-4gx4sY",
    "name": "Фора",
    "category": "Фора",
    "formatted_address": "3,9(472)",
    "phone_number": "+380800301230",
    "source_url": "https://www.google.com/maps/place/%D0%A4%D0%BE%D1%80%D0%B0/data=!4m7!3m6!1s0x40d527170265976d:0xc6e23188fb3ce3bb!8m2!3d50.5917098!4d30.9016334!16s%2Fg%2F11c0y56d4l!19sChIJbZdlAhcn1UARu-M8-4gx4sY?authuser=0&hl=tr&rclk=1",
    "website_url": "https://fora.ua/",
    "rating_text": "3,9",
    "stars": null,
    "number_of_reviews": null,
    "price_level": "",
    "open_hours": "",
    "extraction_timestamp": "2025-06-08T03:25:29.151Z",
    "source_name": "google",
    "source_query": "Irrigation Equipment",
    "source_country": "UA",
    "country": "Ukraine",
    "state": "Kyivska oblast",
    "city": "Velyka Dymerka"
  },
  {
    "source_id": "ChIJf4jHN1LM1EARBkfaDZQGDTw",
    "name": "Dr. Sprinkler",
    "category": "Dr. Sprinkler",
    "formatted_address": "4,8(4)",
    "phone_number": "+380965335353",
    "source_url": "https://www.google.com/maps/place/Dr.+Sprinkler/data=!4m7!3m6!1s0x40d4cc5237c7887f:0x3c0d06940dda4706!8m2!3d50.4105845!4d30.558873!16s%2Fg%2F1q6j9h1m6!19sChIJf4jHN1LM1EARBkfaDZQGDTw?authuser=0&hl=tr&rclk=1",
    "website_url": "http://www.dr-sprinkler.com.ua/",
    "rating_text": "4,8",
    "stars": null,
    "number_of_reviews": null,
    "price_level": "",
    "open_hours": "",
    "extraction_timestamp": "2025-06-08T03:25:29.152Z",
    "source_name": "google",
    "source_query": "Irrigation Equipment",
    "source_country": "UA",
    "country": "Ukraine",
    "state": "Kyivska oblast",
    "city": "Velyka Dymerka"
  },
  {
    "source_id": "ChIJDZTZs8wn1UARFGlg-TURq0M",
    "name": "Мережа маркетів «Бадьорий»",
    "category": "Мережа маркетів «Бадьорий»",
    "formatted_address": "Mağaza · Vulytsya Bobrytsʹka, 6Kapalı ⋅ Açılış saati: 08:00",
    "phone_number": "",
    "source_url": "https://www.google.com/maps/place/%D0%9C%D0%B5%D1%80%D0%B5%D0%B6%D0%B0+%D0%BC%D0%B0%D1%80%D0%BA%D0%B5%D1%82%D1%96%D0%B2+%C2%AB%D0%91%D0%B0%D0%B4%D1%8C%D0%BE%D1%80%D0%B8%D0%B9%C2%BB/data=!4m7!3m6!1s0x40d527ccb3d9940d:0x43ab1135f9606914!8m2!3d50.5913707!4d30.9032349!16s%2Fg%2F11y5059xjg!19sChIJDZTZs8wn1UARFGlg-TURq0M?authuser=0&hl=tr&rclk=1",
    "website_url": "https://badyorui.com.ua/",
    "rating_text": "",
    "stars": null,
    "number_of_reviews": null,
    "price_level": "",
    "open_hours": "",
    "extraction_timestamp": "2025-06-08T03:25:29.152Z",
    "source_name": "google",
    "source_query": "Irrigation Equipment",
    "source_country": "UA",
    "country": "Ukraine",
    "state": "Kyivska oblast",
    "city": "Velyka Dymerka"
  }
]
