[
  {
    "source_id": "ChIJt_ATWA8Z00ARSaj5BwUnk5U",
    "name": "Lotos",
    "category": "Lotos",
    "formatted_address": "5,0(3)",
    "phone_number": "",
    "source_url": "https://www.google.com/maps/place/Lotos/data=!4m7!3m6!1s0x40d3190f5813f0b7:0x9593270507f9a849!8m2!3d49.5238173!4d29.9261973!16s%2Fg%2F11b7dzxg41!19sChIJt_ATWA8Z00ARSaj5BwUnk5U?authuser=0&hl=tr&rclk=1",
    "website_url": "",
    "rating_text": "5,0",
    "stars": null,
    "number_of_reviews": null,
    "price_level": "",
    "open_hours": "",
    "extraction_timestamp": "2025-06-08T03:29:05.873Z",
    "source_name": "google",
    "source_query": "Irrigation Equipment",
    "source_country": "UA",
    "country": "Ukraine",
    "state": "Kyivska oblast",
    "city": "Volodarka"
  },
  {
    "source_id": "ChIJA0Z3Nw8Z00AR5HTS5vuwD4M",
    "name": "Подвальчик",
    "category": "Подвальчик",
    "formatted_address": "4,2(19)",
    "phone_number": "",
    "source_url": "https://www.google.com/maps/place/%D0%9F%D0%BE%D0%B4%D0%B2%D0%B0%D0%BB%D1%8C%D1%87%D0%B8%D0%BA/data=!4m7!3m6!1s0x40d3190f37774603:0x830fb0fbe6d274e4!8m2!3d49.5234287!4d29.9283261!16s%2Fg%2F11c54b51k0!19sChIJA0Z3Nw8Z00AR5HTS5vuwD4M?authuser=0&hl=tr&rclk=1",
    "website_url": "",
    "rating_text": "4,2",
    "stars": null,
    "number_of_reviews": null,
    "price_level": "",
    "open_hours": "",
    "extraction_timestamp": "2025-06-08T03:29:05.874Z",
    "source_name": "google",
    "source_query": "Irrigation Equipment",
    "source_country": "UA",
    "country": "Ukraine",
    "state": "Kyivska oblast",
    "city": "Volodarka"
  },
  {
    "source_id": "ChIJrXE93yMZ00ARD2Gs8JN8Jy4",
    "name": "Наша Ряба",
    "category": "Наша Ряба",
    "formatted_address": "5,0(1)",
    "phone_number": "+380800500001",
    "source_url": "https://www.google.com/maps/place/%D0%9D%D0%B0%D1%88%D0%B0+%D0%A0%D1%8F%D0%B1%D0%B0/data=!4m7!3m6!1s0x40d31923df3d71ad:0x2e277c93f0ac610f!8m2!3d49.5223509!4d29.9291206!16s%2Fg%2F11k6l655fk!19sChIJrXE93yMZ00ARD2Gs8JN8Jy4?authuser=0&hl=tr&rclk=1",
    "website_url": "",
    "rating_text": "5,0",
    "stars": null,
    "number_of_reviews": null,
    "price_level": "",
    "open_hours": "",
    "extraction_timestamp": "2025-06-08T03:29:05.878Z",
    "source_name": "google",
    "source_query": "Irrigation Equipment",
    "source_country": "UA",
    "country": "Ukraine",
    "state": "Kyivska oblast",
    "city": "Volodarka"
  },
  {
    "source_id": "ChIJre0-7wgZ00ARhqqf8W3BJaI",
    "name": "Oberih",
    "category": "Oberih",
    "formatted_address": "3,9(273)",
    "phone_number": "",
    "source_url": "https://www.google.com/maps/place/Oberih/data=!4m7!3m6!1s0x40d31908ef3eedad:0xa225c16df19faa86!8m2!3d49.5251446!4d29.9310105!16s%2Fg%2F11bw4sfk3d!19sChIJre0-7wgZ00ARhqqf8W3BJaI?authuser=0&hl=tr&rclk=1",
    "website_url": "",
    "rating_text": "3,9",
    "stars": null,
    "number_of_reviews": null,
    "price_level": "",
    "open_hours": "",
    "extraction_timestamp": "2025-06-08T03:29:05.879Z",
    "source_name": "google",
    "source_query": "Irrigation Equipment",
    "source_country": "UA",
    "country": "Ukraine",
    "state": "Kyivska oblast",
    "city": "Volodarka"
  },
  {
    "source_id": "ChIJr_ydVA8Z00ARFJvbKXDwVF8",
    "name": "Рынок \"Олексій\"",
    "category": "Рынок \"Олексій\"",
    "formatted_address": "3,4(14)",
    "phone_number": "",
    "source_url": "https://www.google.com/maps/place/%D0%A0%D1%8B%D0%BD%D0%BE%D0%BA+%22%D0%9E%D0%BB%D0%B5%D0%BA%D1%81%D1%96%D0%B9%22/data=!4m7!3m6!1s0x40d3190f549dfcaf:0x5f54f07029db9b14!8m2!3d49.5242943!4d29.9272166!16s%2Fg%2F1pp2vc2w5!19sChIJr_ydVA8Z00ARFJvbKXDwVF8?authuser=0&hl=tr&rclk=1",
    "website_url": "",
    "rating_text": "3,4",
    "stars": null,
    "number_of_reviews": null,
    "price_level": "",
    "open_hours": "",
    "extraction_timestamp": "2025-06-08T03:29:05.879Z",
    "source_name": "google",
    "source_query": "Irrigation Equipment",
    "source_country": "UA",
    "country": "Ukraine",
    "state": "Kyivska oblast",
    "city": "Volodarka"
  },
  {
    "source_id": "ChIJg7Qq9GMZ00ARmuJ0Opjboic",
    "name": "3 ДІЖКИ",
    "category": "3 ДІЖКИ",
    "formatted_address": "4,9(10)",
    "phone_number": "+380986199395",
    "source_url": "https://www.google.com/maps/place/3+%D0%94%D0%86%D0%96%D0%9A%D0%98/data=!4m7!3m6!1s0x40d31963f42ab483:0x27a2db983a74e29a!8m2!3d49.5236271!4d29.9265854!16s%2Fg%2F11x7wmbwdk!19sChIJg7Qq9GMZ00ARmuJ0Opjboic?authuser=0&hl=tr&rclk=1",
    "website_url": "",
    "rating_text": "4,9",
    "stars": null,
    "number_of_reviews": null,
    "price_level": "",
    "open_hours": "",
    "extraction_timestamp": "2025-06-08T03:29:05.881Z",
    "source_name": "google",
    "source_query": "Irrigation Equipment",
    "source_country": "UA",
    "country": "Ukraine",
    "state": "Kyivska oblast",
    "city": "Volodarka"
  },
  {
    "source_id": "ChIJFVtCsAgZ00ARE5o-BLjJYrA",
    "name": "Flea Market",
    "category": "Flea Market",
    "formatted_address": "3,4(41)",
    "phone_number": "",
    "source_url": "https://www.google.com/maps/place/Flea+Market/data=!4m7!3m6!1s0x40d31908b0425b15:0xb062c9b8043e9a13!8m2!3d49.5246599!4d29.9284423!16s%2Fg%2F1pp2vc0jw!19sChIJFVtCsAgZ00ARE5o-BLjJYrA?authuser=0&hl=tr&rclk=1",
    "website_url": "",
    "rating_text": "3,4",
    "stars": null,
    "number_of_reviews": null,
    "price_level": "",
    "open_hours": "",
    "extraction_timestamp": "2025-06-08T03:29:05.882Z",
    "source_name": "google",
    "source_query": "Irrigation Equipment",
    "source_country": "UA",
    "country": "Ukraine",
    "state": "Kyivska oblast",
    "city": "Volodarka"
  },
  {
    "source_id": "ChIJeawMLw8Z00ARefRUtmDFI8E",
    "name": "Veterinary pharmacy",
    "category": "Veterinary pharmacy",
    "formatted_address": "5,0(10)",
    "phone_number": "",
    "source_url": "https://www.google.com/maps/place/Veterinary+pharmacy/data=!4m7!3m6!1s0x40d3190f2f0cac79:0xc123c560b654f479!8m2!3d49.5232113!4d29.9292684!16s%2Fg%2F1pp2vcfkg!19sChIJeawMLw8Z00ARefRUtmDFI8E?authuser=0&hl=tr&rclk=1",
    "website_url": "",
    "rating_text": "5,0",
    "stars": null,
    "number_of_reviews": null,
    "price_level": "",
    "open_hours": "",
    "extraction_timestamp": "2025-06-08T03:29:05.883Z",
    "source_name": "google",
    "source_query": "Irrigation Equipment",
    "source_country": "UA",
    "country": "Ukraine",
    "state": "Kyivska oblast",
    "city": "Volodarka"
  },
  {
    "source_id": "ChIJSV061JcZ00ARv09e5E1gTS8",
    "name": "Fora",
    "category": "Fora",
    "formatted_address": "3,9(8)",
    "phone_number": "+380800301230",
    "source_url": "https://www.google.com/maps/place/Fora/data=!4m7!3m6!1s0x40d31997d43a5d49:0x2f4d604de45e4fbf!8m2!3d49.5233349!4d29.928174!16s%2Fg%2F11vk4mg96k!19sChIJSV061JcZ00ARv09e5E1gTS8?authuser=0&hl=tr&rclk=1",
    "website_url": "",
    "rating_text": "3,9",
    "stars": null,
    "number_of_reviews": null,
    "price_level": "",
    "open_hours": "",
    "extraction_timestamp": "2025-06-08T03:29:05.884Z",
    "source_name": "google",
    "source_query": "Irrigation Equipment",
    "source_country": "UA",
    "country": "Ukraine",
    "state": "Kyivska oblast",
    "city": "Volodarka"
  },
  {
    "source_id": "ChIJH5OnUA8Z00ARX88eQbvMDok",
    "name": "Фаворит",
    "category": "Фаворит",
    "formatted_address": "4,0(2)",
    "phone_number": "",
    "source_url": "https://www.google.com/maps/place/%D0%A4%D0%B0%D0%B2%D0%BE%D1%80%D0%B8%D1%82/data=!4m7!3m6!1s0x40d3190f50a7931f:0x890eccbb411ecf5f!8m2!3d49.5238703!4d29.9267574!16s%2Fg%2F11fz9k73j0!19sChIJH5OnUA8Z00ARX88eQbvMDok?authuser=0&hl=tr&rclk=1",
    "website_url": "",
    "rating_text": "4,0",
    "stars": null,
    "number_of_reviews": null,
    "price_level": "",
    "open_hours": "",
    "extraction_timestamp": "2025-06-08T03:29:05.885Z",
    "source_name": "google",
    "source_query": "Irrigation Equipment",
    "source_country": "UA",
    "country": "Ukraine",
    "state": "Kyivska oblast",
    "city": "Volodarka"
  },
  {
    "source_id": "ChIJOWpTpC4Z00ARQMuhKEL7y-g",
    "name": "\"Za Kermom\" Avtomahazyn",
    "category": "\"Za Kermom\" Avtomahazyn",
    "formatted_address": "5,0(3)",
    "phone_number": "+380505355398",
    "source_url": "https://www.google.com/maps/place/%22Za+Kermom%22+Avtomahazyn/data=!4m7!3m6!1s0x40d3192ea4536a39:0xe8cbfb4228a1cb40!8m2!3d49.5346922!4d29.9051517!16s%2Fg%2F11lkt2kr82!19sChIJOWpTpC4Z00ARQMuhKEL7y-g?authuser=0&hl=tr&rclk=1",
    "website_url": "",
    "rating_text": "5,0",
    "stars": null,
    "number_of_reviews": null,
    "price_level": "",
    "open_hours": "",
    "extraction_timestamp": "2025-06-08T03:29:05.887Z",
    "source_name": "google",
    "source_query": "Irrigation Equipment",
    "source_country": "UA",
    "country": "Ukraine",
    "state": "Kyivska oblast",
    "city": "Volodarka"
  },
  {
    "source_id": "ChIJwQCNYj0Z00ARq7x3atcu4yU",
    "name": "Povnyy Koshyk",
    "category": "Povnyy Koshyk",
    "formatted_address": "5,0(1)",
    "phone_number": "",
    "source_url": "https://www.google.com/maps/place/Povnyy+Koshyk/data=!4m7!3m6!1s0x40d3193d628d00c1:0x25e32ed76a77bcab!8m2!3d49.5247678!4d29.9308497!16s%2Fg%2F11ngjjv_yq!19sChIJwQCNYj0Z00ARq7x3atcu4yU?authuser=0&hl=tr&rclk=1",
    "website_url": "",
    "rating_text": "5,0",
    "stars": null,
    "number_of_reviews": null,
    "price_level": "",
    "open_hours": "",
    "extraction_timestamp": "2025-06-08T03:29:05.888Z",
    "source_name": "google",
    "source_query": "Irrigation Equipment",
    "source_country": "UA",
    "country": "Ukraine",
    "state": "Kyivska oblast",
    "city": "Volodarka"
  },
  {
    "source_id": "ChIJPdikSQAZ00AR_9IuPddir1s",
    "name": "Flaminho, Produktovyy Mahazyn",
    "category": "Flaminho, Produktovyy Mahazyn",
    "formatted_address": "Flaminho, Produktovyy Mahazyn",
    "phone_number": "",
    "source_url": "https://www.google.com/maps/place/Flaminho,+Produktovyy+Mahazyn/data=!4m7!3m6!1s0x40d3190049a4d83d:0x5baf62d73d2ed2ff!8m2!3d49.5181487!4d29.9142547!16s%2Fg%2F11x8z_4vq8!19sChIJPdikSQAZ00AR_9IuPddir1s?authuser=0&hl=tr&rclk=1",
    "website_url": "",
    "rating_text": "",
    "stars": null,
    "number_of_reviews": null,
    "price_level": "",
    "open_hours": "",
    "extraction_timestamp": "2025-06-08T03:29:05.888Z",
    "source_name": "google",
    "source_query": "Irrigation Equipment",
    "source_country": "UA",
    "country": "Ukraine",
    "state": "Kyivska oblast",
    "city": "Volodarka"
  },
  {
    "source_id": "ChIJ3RzPmkoZ00ARcXSSV1Yz-vg",
    "name": "Аптека «Бажаємо здоров'я»",
    "category": "Аптека «Бажаємо здоров'я»",
    "formatted_address": "5,0(2)",
    "phone_number": "+380632459325",
    "source_url": "https://www.google.com/maps/place/%D0%90%D0%BF%D1%82%D0%B5%D0%BA%D0%B0+%C2%AB%D0%91%D0%B0%D0%B6%D0%B0%D1%94%D0%BC%D0%BE+%D0%B7%D0%B4%D0%BE%D1%80%D0%BE%D0%B2%27%D1%8F%C2%BB/data=!4m7!3m6!1s0x40d3194a9acf1cdd:0xf8fa335657927471!8m2!3d49.523193!4d29.92748!16s%2Fg%2F11vrkkgr04!19sChIJ3RzPmkoZ00ARcXSSV1Yz-vg?authuser=0&hl=tr&rclk=1",
    "website_url": "",
    "rating_text": "5,0",
    "stars": null,
    "number_of_reviews": null,
    "price_level": "",
    "open_hours": "",
    "extraction_timestamp": "2025-06-08T03:29:05.890Z",
    "source_name": "google",
    "source_query": "Irrigation Equipment",
    "source_country": "UA",
    "country": "Ukraine",
    "state": "Kyivska oblast",
    "city": "Volodarka"
  },
  {
    "source_id": "ChIJoSEDAkIZ00ARM0f1GOqijVs",
    "name": "Apteka \"Podorozhnyk\"",
    "category": "Apteka \"Podorozhnyk\"",
    "formatted_address": "5,0(3)",
    "phone_number": "+380672406109",
    "source_url": "https://www.google.com/maps/place/Apteka+%22Podorozhnyk%22/data=!4m7!3m6!1s0x40d31942020321a1:0x5b8da2ea18f54733!8m2!3d49.525349!4d29.9270287!16s%2Fg%2F11mv3jv77h!19sChIJoSEDAkIZ00ARM0f1GOqijVs?authuser=0&hl=tr&rclk=1",
    "website_url": "",
    "rating_text": "5,0",
    "stars": null,
    "number_of_reviews": null,
    "price_level": "",
    "open_hours": "",
    "extraction_timestamp": "2025-06-08T03:29:05.892Z",
    "source_name": "google",
    "source_query": "Irrigation Equipment",
    "source_country": "UA",
    "country": "Ukraine",
    "state": "Kyivska oblast",
    "city": "Volodarka"
  },
  {
    "source_id": "ChIJnzBTk0sZ00AR9hZjt6xvmoE",
    "name": "Avrora",
    "category": "Avrora",
    "formatted_address": "4,1(9)",
    "phone_number": "+380800300066",
    "source_url": "https://www.google.com/maps/place/Avrora/data=!4m7!3m6!1s0x40d3194b9353309f:0x819a6facb76316f6!8m2!3d49.5235115!4d29.927992!16s%2Fg%2F11vb0snq_r!19sChIJnzBTk0sZ00AR9hZjt6xvmoE?authuser=0&hl=tr&rclk=1",
    "website_url": "",
    "rating_text": "4,1",
    "stars": null,
    "number_of_reviews": null,
    "price_level": "",
    "open_hours": "",
    "extraction_timestamp": "2025-06-08T03:29:05.894Z",
    "source_name": "google",
    "source_query": "Irrigation Equipment",
    "source_country": "UA",
    "country": "Ukraine",
    "state": "Kyivska oblast",
    "city": "Volodarka"
  },
  {
    "source_id": "ChIJbXLlIEMZ00AR3Xa0kQ3n2dM",
    "name": "Mahazyn \"Domovyk\"",
    "category": "Mahazyn \"Domovyk\"",
    "formatted_address": "Mağaza · Armiiska St, 1Kapalı ⋅ Açılış saati: 10:00 · +380 68 730 0644",
    "phone_number": "+380687300644",
    "source_url": "https://www.google.com/maps/place/Mahazyn+%22Domovyk%22/data=!4m7!3m6!1s0x40d3194320e5726d:0xd3d9e70d91b476dd!8m2!3d49.5240668!4d29.9275846!16s%2Fg%2F11pc1zlf89!19sChIJbXLlIEMZ00AR3Xa0kQ3n2dM?authuser=0&hl=tr&rclk=1",
    "website_url": "",
    "rating_text": "",
    "stars": null,
    "number_of_reviews": null,
    "price_level": "",
    "open_hours": "",
    "extraction_timestamp": "2025-06-08T03:29:05.895Z",
    "source_name": "google",
    "source_query": "Irrigation Equipment",
    "source_country": "UA",
    "country": "Ukraine",
    "state": "Kyivska oblast",
    "city": "Volodarka"
  },
  {
    "source_id": "ChIJo5i0xI0Z00ARDJvBz7JT3No",
    "name": "Apteka Optovykh Tsin",
    "category": "Apteka Optovykh Tsin",
    "formatted_address": "4,0(2)",
    "phone_number": "+380800505911",
    "source_url": "https://www.google.com/maps/place/Apteka+Optovykh+Tsin/data=!4m7!3m6!1s0x40d3198dc4b498a3:0xdadc53b2cfc19b0c!8m2!3d49.524192!4d29.92649!16s%2Fg%2F11vc5hfqr5!19sChIJo5i0xI0Z00ARDJvBz7JT3No?authuser=0&hl=tr&rclk=1",
    "website_url": "",
    "rating_text": "4,0",
    "stars": null,
    "number_of_reviews": null,
    "price_level": "",
    "open_hours": "",
    "extraction_timestamp": "2025-06-08T03:29:05.896Z",
    "source_name": "google",
    "source_query": "Irrigation Equipment",
    "source_country": "UA",
    "country": "Ukraine",
    "state": "Kyivska oblast",
    "city": "Volodarka"
  },
  {
    "source_id": "ChIJ3zMmOuoZ00AR3naJHku7zQI",
    "name": "Apteka \"Podorozhnyk\"",
    "category": "Apteka \"Podorozhnyk\"",
    "formatted_address": "5,0(5)",
    "phone_number": "+380800303111",
    "source_url": "https://www.google.com/maps/place/Apteka+%22Podorozhnyk%22/data=!4m7!3m6!1s0x40d319ea3a2633df:0x2cdbb4b1e8976de!8m2!3d49.5240193!4d29.9266259!16s%2Fg%2F11w2fts2lq!19sChIJ3zMmOuoZ00AR3naJHku7zQI?authuser=0&hl=tr&rclk=1",
    "website_url": "",
    "rating_text": "5,0",
    "stars": null,
    "number_of_reviews": null,
    "price_level": "",
    "open_hours": "",
    "extraction_timestamp": "2025-06-08T03:29:05.898Z",
    "source_name": "google",
    "source_query": "Irrigation Equipment",
    "source_country": "UA",
    "country": "Ukraine",
    "state": "Kyivska oblast",
    "city": "Volodarka"
  },
  {
    "source_id": "ChIJ8xFtZ7sZ00ARavgMqUDzsZA",
    "name": "Blisk",
    "category": "Blisk",
    "formatted_address": "4,8(4)",
    "phone_number": "+380800336123",
    "source_url": "https://www.google.com/maps/place/Blisk/data=!4m7!3m6!1s0x40d319bb676d11f3:0x90b1f340a90cf86a!8m2!3d49.5224437!4d29.9290824!16s%2Fg%2F11gj6c8p67!19sChIJ8xFtZ7sZ00ARavgMqUDzsZA?authuser=0&hl=tr&rclk=1",
    "website_url": "",
    "rating_text": "4,8",
    "stars": null,
    "number_of_reviews": null,
    "price_level": "",
    "open_hours": "",
    "extraction_timestamp": "2025-06-08T03:29:05.899Z",
    "source_name": "google",
    "source_query": "Irrigation Equipment",
    "source_country": "UA",
    "country": "Ukraine",
    "state": "Kyivska oblast",
    "city": "Volodarka"
  },
  {
    "source_id": "ChIJqV9JAZgZ00ARAWfZgQWcOhU",
    "name": "Fayna Apteka",
    "category": "Fayna Apteka",
    "formatted_address": "5,0(1)",
    "phone_number": "+380687307366",
    "source_url": "https://www.google.com/maps/place/Fayna+Apteka/data=!4m7!3m6!1s0x40d3199801495fa9:0x153a9c0581d96701!8m2!3d49.5231719!4d29.9291524!16s%2Fg%2F11qpm1vdnn!19sChIJqV9JAZgZ00ARAWfZgQWcOhU?authuser=0&hl=tr&rclk=1",
    "website_url": "",
    "rating_text": "5,0",
    "stars": null,
    "number_of_reviews": null,
    "price_level": "",
    "open_hours": "",
    "extraction_timestamp": "2025-06-08T03:29:05.900Z",
    "source_name": "google",
    "source_query": "Irrigation Equipment",
    "source_country": "UA",
    "country": "Ukraine",
    "state": "Kyivska oblast",
    "city": "Volodarka"
  },
  {
    "source_id": "ChIJr2-x3e4Z00ARBzC0LYkvqPk",
    "name": "Apteka Adonis",
    "category": "Apteka Adonis",
    "formatted_address": "1,0(1)",
    "phone_number": "+380675494423",
    "source_url": "https://www.google.com/maps/place/Apteka+Adonis/data=!4m7!3m6!1s0x40d319eeddb16faf:0xf9a82f892db43007!8m2!3d49.5242445!4d29.9262306!16s%2Fg%2F11pcrrr4g3!19sChIJr2-x3e4Z00ARBzC0LYkvqPk?authuser=0&hl=tr&rclk=1",
    "website_url": "",
    "rating_text": "1,0",
    "stars": null,
    "number_of_reviews": null,
    "price_level": "",
    "open_hours": "",
    "extraction_timestamp": "2025-06-08T03:29:05.903Z",
    "source_name": "google",
    "source_query": "Irrigation Equipment",
    "source_country": "UA",
    "country": "Ukraine",
    "state": "Kyivska oblast",
    "city": "Volodarka"
  },
  {
    "source_id": "ChIJexVuFmAZ00ARtw8_OYPcPPI",
    "name": "CREAM",
    "category": "CREAM",
    "formatted_address": "3,7(3)",
    "phone_number": "+380991154330",
    "source_url": "https://www.google.com/maps/place/CREAM/data=!4m7!3m6!1s0x40d31960166e157b:0xf23cdc83393f0fb7!8m2!3d49.5236384!4d29.9286558!16s%2Fg%2F11y4h6h5n4!19sChIJexVuFmAZ00ARtw8_OYPcPPI?authuser=0&hl=tr&rclk=1",
    "website_url": "",
    "rating_text": "3,7",
    "stars": null,
    "number_of_reviews": null,
    "price_level": "",
    "open_hours": "",
    "extraction_timestamp": "2025-06-08T03:29:05.907Z",
    "source_name": "google",
    "source_query": "Irrigation Equipment",
    "source_country": "UA",
    "country": "Ukraine",
    "state": "Kyivska oblast",
    "city": "Volodarka"
  },
  {
    "source_id": "ChIJCbFgLNYZ00ARjvKL-Qp2q_E",
    "name": "Khom",
    "category": "Khom",
    "formatted_address": "Mağaza · Vulytsya Polʹova, 50+380 93 808 9878",
    "phone_number": "+380938089878",
    "source_url": "https://www.google.com/maps/place/Khom/data=!4m7!3m6!1s0x40d319d62c60b109:0xf1ab760af98bf28e!8m2!3d49.5247707!4d29.9021764!16s%2Fg%2F11x2w94tr2!19sChIJCbFgLNYZ00ARjvKL-Qp2q_E?authuser=0&hl=tr&rclk=1",
    "website_url": "",
    "rating_text": "",
    "stars": null,
    "number_of_reviews": null,
    "price_level": "",
    "open_hours": "",
    "extraction_timestamp": "2025-06-08T03:29:05.908Z",
    "source_name": "google",
    "source_query": "Irrigation Equipment",
    "source_country": "UA",
    "country": "Ukraine",
    "state": "Kyivska oblast",
    "city": "Volodarka"
  },
  {
    "source_id": "ChIJWRSz6nYZ00ARki4PUepYowI",
    "name": "JOIA vegan",
    "category": "JOIA vegan",
    "formatted_address": "Kozmetik mağazası · Vul.kotsyubynsʹkoho, 29БKapalı ⋅ Açılış zamanı: Pzt 09:00 · +380 800 332 742",
    "phone_number": "+380800332742",
    "source_url": "https://www.google.com/maps/place/JOIA+vegan/data=!4m7!3m6!1s0x40d31976eab31459:0x2a358ea510f2e92!8m2!3d49.5267903!4d29.932894!16s%2Fg%2F11xfrm3s51!19sChIJWRSz6nYZ00ARki4PUepYowI?authuser=0&hl=tr&rclk=1",
    "website_url": "",
    "rating_text": "",
    "stars": null,
    "number_of_reviews": null,
    "price_level": "",
    "open_hours": "",
    "extraction_timestamp": "2025-06-08T03:29:05.910Z",
    "source_name": "google",
    "source_query": "Irrigation Equipment",
    "source_country": "UA",
    "country": "Ukraine",
    "state": "Kyivska oblast",
    "city": "Volodarka"
  },
  {
    "source_id": "ChIJjWi1yA8Z00ARhEbp9D7jP8s",
    "name": "Torshun",
    "category": "Torshun",
    "formatted_address": "",
    "phone_number": "+380983350555",
    "source_url": "https://www.google.com/maps/place/Torshun/data=!4m7!3m6!1s0x40d3190fc8b5688d:0xcb3fe33ef4e94684!8m2!3d49.5203072!4d29.9256894!16s%2Fg%2F11hdy2dyq4!19sChIJjWi1yA8Z00ARhEbp9D7jP8s?authuser=0&hl=tr&rclk=1",
    "website_url": "",
    "rating_text": "",
    "stars": null,
    "number_of_reviews": null,
    "price_level": "",
    "open_hours": "",
    "extraction_timestamp": "2025-06-08T03:29:05.911Z",
    "source_name": "google",
    "source_query": "Irrigation Equipment",
    "source_country": "UA",
    "country": "Ukraine",
    "state": "Kyivska oblast",
    "city": "Volodarka"
  },
  {
    "source_id": "ChIJsfK-STEZ00ARj8NlMOoGXKM",
    "name": "Автозапчастини",
    "category": "Автозапчастини",
    "formatted_address": "Otomobil Yedek Parça Mağazası · вулиця Кооперативна, 8Kapalı ⋅ Açılış saati: 08:00 · +380 68 958 4592",
    "phone_number": "+380689584592",
    "source_url": "https://www.google.com/maps/place/%D0%90%D0%B2%D1%82%D0%BE%D0%B7%D0%B0%D0%BF%D1%87%D0%B0%D1%81%D1%82%D0%B8%D0%BD%D0%B8/data=!4m7!3m6!1s0x40d3193149bef2b1:0xa35c06ea3065c38f!8m2!3d49.5236942!4d29.9266966!16s%2Fg%2F11vzrz_3xj!19sChIJsfK-STEZ00ARj8NlMOoGXKM?authuser=0&hl=tr&rclk=1",
    "website_url": "",
    "rating_text": "",
    "stars": null,
    "number_of_reviews": null,
    "price_level": "",
    "open_hours": "",
    "extraction_timestamp": "2025-06-08T03:29:05.913Z",
    "source_name": "google",
    "source_query": "Irrigation Equipment",
    "source_country": "UA",
    "country": "Ukraine",
    "state": "Kyivska oblast",
    "city": "Volodarka"
  },
  {
    "source_id": "ChIJJ4t1qfRp00ARnrQ-nykPKko",
    "name": "Pivdyuyma Bila Tserkva - Tovary Dlya Teplovodopostachannya Ta Vodovidvedennya",
    "category": "Pivdyuyma Bila Tserkva - Tovary Dlya Teplovodopostachannya Ta Vodovidvedennya",
    "formatted_address": "5,0(4)",
    "phone_number": "+380669454545",
    "source_url": "https://www.google.com/maps/place/Pivdyuyma+Bila+Tserkva+-+Tovary+Dlya+Teplovodopostachannya+Ta+Vodovidvedennya/data=!4m7!3m6!1s0x40d369f4a9758b27:0x4a2a0f299f3eb49e!8m2!3d49.7848696!4d30.1692441!16s%2Fg%2F11ldrd8jt4!19sChIJJ4t1qfRp00ARnrQ-nykPKko?authuser=0&hl=tr&rclk=1",
    "website_url": "",
    "rating_text": "5,0",
    "stars": null,
    "number_of_reviews": null,
    "price_level": "",
    "open_hours": "",
    "extraction_timestamp": "2025-06-08T03:29:05.915Z",
    "source_name": "google",
    "source_query": "Irrigation Equipment",
    "source_country": "UA",
    "country": "Ukraine",
    "state": "Kyivska oblast",
    "city": "Volodarka"
  }
]
