[
  {
    "source_id": "ChIJ2fF1KZYtK0cRFoUMDT0p8Ng",
    "name": "ТТС Комплект",
    "category": "ТТС Комплект",
    "formatted_address": "5,0(2)",
    "phone_number": "+380679035550",
    "source_url": "https://www.google.com/maps/place/%D0%A2%D0%A2%D0%A1+%D0%9A%D0%BE%D0%BC%D0%BF%D0%BB%D0%B5%D0%BA%D1%82/data=!4m7!3m6!1s0x472b2d962975f1d9:0xd8f0293d0d0c8516!8m2!3d50.5942085!4d30.4691245!16s%2Fg%2F11q25ng8jj!19sChIJ2fF1KZYtK0cRFoUMDT0p8Ng?authuser=0&hl=tr&rclk=1",
    "website_url": "",
    "rating_text": "5,0",
    "stars": null,
    "number_of_reviews": null,
    "price_level": "",
    "open_hours": "",
    "extraction_timestamp": "2025-06-08T03:27:07.453Z",
    "source_name": "google",
    "source_query": "Irrigation Equipment",
    "source_country": "UA",
    "country": "Ukraine",
    "state": "Kyivska oblast",
    "city": "Vyshhorod"
  },
  {
    "source_id": "ChIJyaarBM4rK0cRzbAPgpYSiIo",
    "name": "OASE Ukraine",
    "category": "OASE Ukraine",
    "formatted_address": "4,6(18)",
    "phone_number": "+380509541114",
    "source_url": "https://www.google.com/maps/place/OASE+Ukraine/data=!4m7!3m6!1s0x472b2bce04aba6c9:0x8a881296820fb0cd!8m2!3d50.6060532!4d30.4664502!16s%2Fg%2F11bw1zr3t9!19sChIJyaarBM4rK0cRzbAPgpYSiIo?authuser=0&hl=tr&rclk=1",
    "website_url": "",
    "rating_text": "4,6",
    "stars": null,
    "number_of_reviews": null,
    "price_level": "",
    "open_hours": "",
    "extraction_timestamp": "2025-06-08T03:27:07.454Z",
    "source_name": "google",
    "source_query": "Irrigation Equipment",
    "source_country": "UA",
    "country": "Ukraine",
    "state": "Kyivska oblast",
    "city": "Vyshhorod"
  },
  {
    "source_id": "ChIJid0K-FfT1EARD_2mHntUcbQ",
    "name": "Master",
    "category": "Master",
    "formatted_address": "4,5(316)",
    "phone_number": "+380972122199",
    "source_url": "https://www.google.com/maps/place/Master/data=!4m7!3m6!1s0x40d4d357f80add89:0xb471547b1ea6fd0f!8m2!3d50.5886606!4d30.4875123!16s%2Fg%2F11bwk_qzkx!19sChIJid0K-FfT1EARD_2mHntUcbQ?authuser=0&hl=tr&rclk=1",
    "website_url": "",
    "rating_text": "4,5",
    "stars": null,
    "number_of_reviews": null,
    "price_level": "",
    "open_hours": "",
    "extraction_timestamp": "2025-06-08T03:27:07.456Z",
    "source_name": "google",
    "source_query": "Irrigation Equipment",
    "source_country": "UA",
    "country": "Ukraine",
    "state": "Kyivska oblast",
    "city": "Vyshhorod"
  },
  {
    "source_id": "ChIJDa5mi17T1EAR7EYDD62220k",
    "name": "UKRINSTAL",
    "category": "UKRINSTAL",
    "formatted_address": "4,3(23)",
    "phone_number": "+380675676653",
    "source_url": "https://www.google.com/maps/place/UKRINSTAL/data=!4m7!3m6!1s0x40d4d35e8b66ae0d:0x49dbb6ad0f0346ec!8m2!3d50.582835!4d30.494726!16s%2Fg%2F11dxld54xs!19sChIJDa5mi17T1EAR7EYDD62220k?authuser=0&hl=tr&rclk=1",
    "website_url": "",
    "rating_text": "4,3",
    "stars": null,
    "number_of_reviews": null,
    "price_level": "",
    "open_hours": "",
    "extraction_timestamp": "2025-06-08T03:27:07.458Z",
    "source_name": "google",
    "source_query": "Irrigation Equipment",
    "source_country": "UA",
    "country": "Ukraine",
    "state": "Kyivska oblast",
    "city": "Vyshhorod"
  },
  {
    "source_id": "ChIJ61DZlPHT1EAR8hvTh0Iuk4w",
    "name": "PEDROLLO - Офіційний магазин, продаж, ремонт, обслуговування. Купити насоси Pedrollo",
    "category": "PEDROLLO - Офіційний магазин, продаж, ремонт, обслуговування. Купити насоси Pedrollo",
    "formatted_address": "PEDROLLO - Офіційний магазин, продаж, ремонт, обслуговування. Купити насоси Pedrollo",
    "phone_number": "+380931001474",
    "source_url": "https://www.google.com/maps/place/PEDROLLO+-+%D0%9E%D1%84%D1%96%D1%86%D1%96%D0%B9%D0%BD%D0%B8%D0%B9+%D0%BC%D0%B0%D0%B3%D0%B0%D0%B7%D0%B8%D0%BD,+%D0%BF%D1%80%D0%BE%D0%B4%D0%B0%D0%B6,+%D1%80%D0%B5%D0%BC%D0%BE%D0%BD%D1%82,+%D0%BE%D0%B1%D1%81%D0%BB%D1%83%D0%B3%D0%BE%D0%B2%D1%83%D0%B2%D0%B0%D0%BD%D0%BD%D1%8F.+%D0%9A%D1%83%D0%BF%D0%B8%D1%82%D0%B8+%D0%BD%D0%B0%D1%81%D0%BE%D1%81%D0%B8+Pedrollo/data=!4m7!3m6!1s0x40d4d3f194d950eb:0x8c932e4287d31bf2!8m2!3d50.5236231!4d30.4818187!16s%2Fg%2F11h9gty2nk!19sChIJ61DZlPHT1EAR8hvTh0Iuk4w?authuser=0&hl=tr&rclk=1",
    "website_url": "",
    "rating_text": "4,9",
    "stars": null,
    "number_of_reviews": null,
    "price_level": "",
    "open_hours": "",
    "extraction_timestamp": "2025-06-08T03:27:07.460Z",
    "source_name": "google",
    "source_query": "Irrigation Equipment",
    "source_country": "UA",
    "country": "Ukraine",
    "state": "Kyivska oblast",
    "city": "Vyshhorod"
  },
  {
    "source_id": "ChIJYyU9lq_N1EARqoG8SYko8go",
    "name": "Лайф Гарден",
    "category": "Лайф Гарден",
    "formatted_address": "3,9(7)",
    "phone_number": "+380503719090",
    "source_url": "https://www.google.com/maps/place/%D0%9B%D0%B0%D0%B9%D1%84+%D0%93%D0%B0%D1%80%D0%B4%D0%B5%D0%BD/data=!4m7!3m6!1s0x40d4cdaf963d2563:0xaf2288949bc81aa!8m2!3d50.45748!4d30.3824706!16s%2Fg%2F11gr60b225!19sChIJYyU9lq_N1EARqoG8SYko8go?authuser=0&hl=tr&rclk=1",
    "website_url": "",
    "rating_text": "3,9",
    "stars": null,
    "number_of_reviews": null,
    "price_level": "",
    "open_hours": "",
    "extraction_timestamp": "2025-06-08T03:27:07.461Z",
    "source_name": "google",
    "source_query": "Irrigation Equipment",
    "source_country": "UA",
    "country": "Ukraine",
    "state": "Kyivska oblast",
    "city": "Vyshhorod"
  },
  {
    "source_id": "ChIJ-ZLC7KfU1EARds65zFTrCq4",
    "name": "Твоя Оселя",
    "category": "Твоя Оселя",
    "formatted_address": "4,8(123)",
    "phone_number": "+380972554611",
    "source_url": "https://www.google.com/maps/place/%D0%A2%D0%B2%D0%BE%D1%8F+%D0%9E%D1%81%D0%B5%D0%BB%D1%8F/data=!4m7!3m6!1s0x40d4d4a7ecc292f9:0xae0aeb54ccb9ce76!8m2!3d50.5894331!4d30.4900652!16s%2Fg%2F11bzzzj11x!19sChIJ-ZLC7KfU1EARds65zFTrCq4?authuser=0&hl=tr&rclk=1",
    "website_url": "",
    "rating_text": "4,8",
    "stars": null,
    "number_of_reviews": null,
    "price_level": "",
    "open_hours": "",
    "extraction_timestamp": "2025-06-08T03:27:07.462Z",
    "source_name": "google",
    "source_query": "Irrigation Equipment",
    "source_country": "UA",
    "country": "Ukraine",
    "state": "Kyivska oblast",
    "city": "Vyshhorod"
  },
  {
    "source_id": "ChIJ11W2AcUrK0cRLd7wLj4GzcU",
    "name": "UKRINSTAL",
    "category": "UKRINSTAL",
    "formatted_address": "4,7(81)",
    "phone_number": "+380675683527",
    "source_url": "https://www.google.com/maps/place/UKRINSTAL/data=!4m7!3m6!1s0x472b2bc501b655d7:0xc5cd063e2ef0de2d!8m2!3d50.6501516!4d30.4031002!16s%2Fg%2F11cjs792m6!19sChIJ11W2AcUrK0cRLd7wLj4GzcU?authuser=0&hl=tr&rclk=1",
    "website_url": "",
    "rating_text": "4,7",
    "stars": null,
    "number_of_reviews": null,
    "price_level": "",
    "open_hours": "",
    "extraction_timestamp": "2025-06-08T03:27:07.464Z",
    "source_name": "google",
    "source_query": "Irrigation Equipment",
    "source_country": "UA",
    "country": "Ukraine",
    "state": "Kyivska oblast",
    "city": "Vyshhorod"
  },
  {
    "source_id": "ChIJ8QocqaDU1EARh4sJNJuBm-o",
    "name": "Акваточка - доставка води AquaТочка AQUA.",
    "category": "Акваточка - доставка води AquaТочка AQUA.",
    "formatted_address": "4,7(45)",
    "phone_number": "+380965050535",
    "source_url": "https://www.google.com/maps/place/%D0%90%D0%BA%D0%B2%D0%B0%D1%82%D0%BE%D1%87%D0%BA%D0%B0+-+%D0%B4%D0%BE%D1%81%D1%82%D0%B0%D0%B2%D0%BA%D0%B0+%D0%B2%D0%BE%D0%B4%D0%B8+Aqua%D0%A2%D0%BE%D1%87%D0%BA%D0%B0+AQUA./data=!4m7!3m6!1s0x40d4d4a0a91c0af1:0xea9b819b34098b87!8m2!3d50.586994!4d30.496295!16s%2Fg%2F11b7q50htf!19sChIJ8QocqaDU1EARh4sJNJuBm-o?authuser=0&hl=tr&rclk=1",
    "website_url": "",
    "rating_text": "4,7",
    "stars": null,
    "number_of_reviews": null,
    "price_level": "",
    "open_hours": "",
    "extraction_timestamp": "2025-06-08T03:27:07.465Z",
    "source_name": "google",
    "source_query": "Irrigation Equipment",
    "source_country": "UA",
    "country": "Ukraine",
    "state": "Kyivska oblast",
    "city": "Vyshhorod"
  }
]
