[
  {
    "source_id": "ChIJYyU9lq_N1EARqoG8SYko8go",
    "name": "Лайф Гарден",
    "category": "Лайф Гарден",
    "formatted_address": "3,9(7)",
    "phone_number": "+380503719090",
    "source_url": "https://www.google.com/maps/place/%D0%9B%D0%B0%D0%B9%D1%84+%D0%93%D0%B0%D1%80%D0%B4%D0%B5%D0%BD/data=!4m7!3m6!1s0x40d4cdaf963d2563:0xaf2288949bc81aa!8m2!3d50.45748!4d30.3824706!16s%2Fg%2F11gr60b225!19sChIJYyU9lq_N1EARqoG8SYko8go?authuser=0&hl=tr&rclk=1",
    "website_url": "",
    "rating_text": "3,9",
    "stars": null,
    "number_of_reviews": null,
    "price_level": "",
    "open_hours": "",
    "extraction_timestamp": "2025-06-08T03:35:25.386Z",
    "source_name": "google",
    "source_query": "Irrigation Equipment",
    "source_country": "UA",
    "country": "Ukraine",
    "state": "Kyivska oblast",
    "city": "Vyshgorodskiy Rayon"
  },
  {
    "source_id": "ChIJyaarBM4rK0cRzbAPgpYSiIo",
    "name": "OASE Ukraine",
    "category": "OASE Ukraine",
    "formatted_address": "4,6(18)",
    "phone_number": "+380509541114",
    "source_url": "https://www.google.com/maps/place/OASE+Ukraine/data=!4m7!3m6!1s0x472b2bce04aba6c9:0x8a881296820fb0cd!8m2!3d50.6060532!4d30.4664502!16s%2Fg%2F11bw1zr3t9!19sChIJyaarBM4rK0cRzbAPgpYSiIo?authuser=0&hl=tr&rclk=1",
    "website_url": "http://oase-ukraine.com/",
    "rating_text": "4,6",
    "stars": null,
    "number_of_reviews": null,
    "price_level": "",
    "open_hours": "",
    "extraction_timestamp": "2025-06-08T03:35:25.387Z",
    "source_name": "google",
    "source_query": "Irrigation Equipment",
    "source_country": "UA",
    "country": "Ukraine",
    "state": "Kyivska oblast",
    "city": "Vyshgorodskiy Rayon"
  },
  {
    "source_id": "ChIJV2UClmTI1EARNdnFqIVYElc",
    "name": "Водоемы УкрСад ТМ",
    "category": "Водоемы УкрСад ТМ",
    "formatted_address": "4,2(5)",
    "phone_number": "+380674701982",
    "source_url": "https://www.google.com/maps/place/%D0%92%D0%BE%D0%B4%D0%BE%D0%B5%D0%BC%D1%8B+%D0%A3%D0%BA%D1%80%D0%A1%D0%B0%D0%B4+%D0%A2%D0%9C/data=!4m7!3m6!1s0x40d4c86496026557:0x57125885a8c5d935!8m2!3d50.620343!4d30.4361692!16s%2Fg%2F1262nx3wv!19sChIJV2UClmTI1EARNdnFqIVYElc?authuser=0&hl=tr&rclk=1",
    "website_url": "",
    "rating_text": "4,2",
    "stars": null,
    "number_of_reviews": null,
    "price_level": "",
    "open_hours": "",
    "extraction_timestamp": "2025-06-08T03:35:25.387Z",
    "source_name": "google",
    "source_query": "Irrigation Equipment",
    "source_country": "UA",
    "country": "Ukraine",
    "state": "Kyivska oblast",
    "city": "Vyshgorodskiy Rayon"
  },
  {
    "source_id": "ChIJf4jHN1LM1EARBkfaDZQGDTw",
    "name": "Dr. Sprinkler",
    "category": "Dr. Sprinkler",
    "formatted_address": "4,8(4)",
    "phone_number": "+380965335353",
    "source_url": "https://www.google.com/maps/place/Dr.+Sprinkler/data=!4m7!3m6!1s0x40d4cc5237c7887f:0x3c0d06940dda4706!8m2!3d50.4105845!4d30.558873!16s%2Fg%2F1q6j9h1m6!19sChIJf4jHN1LM1EARBkfaDZQGDTw?authuser=0&hl=tr&rclk=1",
    "website_url": "http://www.dr-sprinkler.com.ua/",
    "rating_text": "4,8",
    "stars": null,
    "number_of_reviews": null,
    "price_level": "",
    "open_hours": "",
    "extraction_timestamp": "2025-06-08T03:35:25.387Z",
    "source_name": "google",
    "source_query": "Irrigation Equipment",
    "source_country": "UA",
    "country": "Ukraine",
    "state": "Kyivska oblast",
    "city": "Vyshgorodskiy Rayon"
  },
  {
    "source_id": "ChIJ-dqgC9vV1EARVCVjJ8GgOdY",
    "name": "BWT Aqua. Автомат питної води № 540",
    "category": "BWT Aqua. Автомат питної води № 540",
    "formatted_address": "1,0(2)",
    "phone_number": "+380672641122",
    "source_url": "https://www.google.com/maps/place/BWT+Aqua.+%D0%90%D0%B2%D1%82%D0%BE%D0%BC%D0%B0%D1%82+%D0%BF%D0%B8%D1%82%D0%BD%D0%BE%D1%97+%D0%B2%D0%BE%D0%B4%D0%B8+%E2%84%96+540/data=!4m7!3m6!1s0x40d4d5db0ba0daf9:0xd639a0c127632554!8m2!3d50.586936!4d30.496169!16s%2Fg%2F11rsrqcn6d!19sChIJ-dqgC9vV1EARVCVjJ8GgOdY?authuser=0&hl=tr&rclk=1",
    "website_url": "https://bwtaqua.com.ua/",
    "rating_text": "1,0",
    "stars": null,
    "number_of_reviews": null,
    "price_level": "",
    "open_hours": "",
    "extraction_timestamp": "2025-06-08T03:35:25.388Z",
    "source_name": "google",
    "source_query": "Irrigation Equipment",
    "source_country": "UA",
    "country": "Ukraine",
    "state": "Kyivska oblast",
    "city": "Vyshgorodskiy Rayon"
  },
  {
    "source_id": "ChIJq6p6ek3J1EAR_QyV4w95Pkw",
    "name": "Системы полива",
    "category": "Системы полива",
    "formatted_address": "Çim Yağmurlama Sistemi Yüklenicisi · Zhylianska St, 48/50+380 67 190 9989",
    "phone_number": "+380671909989",
    "source_url": "https://www.google.com/maps/place/%D0%A1%D0%B8%D1%81%D1%82%D0%B5%D0%BC%D1%8B+%D0%BF%D0%BE%D0%BB%D0%B8%D0%B2%D0%B0/data=!4m7!3m6!1s0x40d4c94d7a7aaaab:0x4c3e790fe3950cfd!8m2!3d50.434722!4d30.5063037!16s%2Fg%2F11fp8ykcbj!19sChIJq6p6ek3J1EAR_QyV4w95Pkw?authuser=0&hl=tr&rclk=1",
    "website_url": "https://irrigation.kiev.ua/",
    "rating_text": "",
    "stars": null,
    "number_of_reviews": null,
    "price_level": "",
    "open_hours": "",
    "extraction_timestamp": "2025-06-08T03:35:25.388Z",
    "source_name": "google",
    "source_query": "Irrigation Equipment",
    "source_country": "UA",
    "country": "Ukraine",
    "state": "Kyivska oblast",
    "city": "Vyshgorodskiy Rayon"
  },
  {
    "source_id": "ChIJq6p6ek3J1EAR_uPnwIFdwFY",
    "name": "Системы полива",
    "category": "Системы полива",
    "formatted_address": "Çim Yağmurlama Sistemi Yüklenicisi · Volynska St, 48/50+380 67 190 9989",
    "phone_number": "+380671909989",
    "source_url": "https://www.google.com/maps/place/%D0%A1%D0%B8%D1%81%D1%82%D0%B5%D0%BC%D1%8B+%D0%BF%D0%BE%D0%BB%D0%B8%D0%B2%D0%B0/data=!4m7!3m6!1s0x40d4c94d7a7aaaab:0x56c05d81c0e7e3fe!8m2!3d50.4177962!4d30.4415501!16s%2Fg%2F11hys__3kz!19sChIJq6p6ek3J1EAR_uPnwIFdwFY?authuser=0&hl=tr&rclk=1",
    "website_url": "https://irrigation.kiev.ua/",
    "rating_text": "",
    "stars": null,
    "number_of_reviews": null,
    "price_level": "",
    "open_hours": "",
    "extraction_timestamp": "2025-06-08T03:35:25.388Z",
    "source_name": "google",
    "source_query": "Irrigation Equipment",
    "source_country": "UA",
    "country": "Ukraine",
    "state": "Kyivska oblast",
    "city": "Vyshgorodskiy Rayon"
  },
  {
    "source_id": "ChIJ3fY-526bw0AREQd61gXWh_A",
    "name": "TerraTarsa Ukraine LLC",
    "category": "TerraTarsa Ukraine LLC",
    "formatted_address": "4,6(75)",
    "phone_number": "+380668900934",
    "source_url": "https://www.google.com/maps/place/TerraTarsa+Ukraine+LLC/data=!4m7!3m6!1s0x40c39b6ee73ef6dd:0xf087d605d67a0711!8m2!3d46.4126419!4d30.7248396!16s%2Fg%2F11cmp9scd1!19sChIJ3fY-526bw0AREQd61gXWh_A?authuser=0&hl=tr&rclk=1",
    "website_url": "http://www.terratarsa.com/",
    "rating_text": "4,6",
    "stars": null,
    "number_of_reviews": null,
    "price_level": "",
    "open_hours": "",
    "extraction_timestamp": "2025-06-08T03:35:25.388Z",
    "source_name": "google",
    "source_query": "Irrigation Equipment",
    "source_country": "UA",
    "country": "Ukraine",
    "state": "Kyivska oblast",
    "city": "Vyshgorodskiy Rayon"
  },
  {
    "source_id": "ChIJWxt4AlHO1EARIhiDVwPGmbM",
    "name": "Eridon",
    "category": "Eridon",
    "formatted_address": "4,4(96)",
    "phone_number": "+380800408700",
    "source_url": "https://www.google.com/maps/place/Eridon/data=!4m7!3m6!1s0x40d4ce5102781b5b:0xb399c60357831822!8m2!3d50.3907885!4d30.4151779!16s%2Fg%2F1tf_rd2m!19sChIJWxt4AlHO1EARIhiDVwPGmbM?authuser=0&hl=tr&rclk=1",
    "website_url": "https://www.eridon.ua/",
    "rating_text": "4,4",
    "stars": null,
    "number_of_reviews": null,
    "price_level": "",
    "open_hours": "",
    "extraction_timestamp": "2025-06-08T03:35:25.389Z",
    "source_name": "google",
    "source_query": "Irrigation Equipment",
    "source_country": "UA",
    "country": "Ukraine",
    "state": "Kyivska oblast",
    "city": "Vyshgorodskiy Rayon"
  },
  {
    "source_id": "ChIJ91d-Rc3L1EAR5jSBxiEnAl4",
    "name": "Avtomatycheskyy Polyv",
    "category": "Avtomatycheskyy Polyv",
    "formatted_address": "Çim Yağmurlama Sistemi Yüklenicisi · Sviatoiuriivska St, 24, кв. 13Kapalı ⋅ Açılış saati: 09:00 · +380 93 045 2967",
    "phone_number": "+380930452967",
    "source_url": "https://www.google.com/maps/place/Avtomatycheskyy+Polyv/data=!4m7!3m6!1s0x40d4cbcd457e57f7:0x5e022721c68134e6!8m2!3d50.3808688!4d30.3723999!16s%2Fg%2F11fsxhtxbn!19sChIJ91d-Rc3L1EAR5jSBxiEnAl4?authuser=0&hl=tr&rclk=1",
    "website_url": "https://hunterpoliv.com.ua/",
    "rating_text": "",
    "stars": null,
    "number_of_reviews": null,
    "price_level": "",
    "open_hours": "",
    "extraction_timestamp": "2025-06-08T03:35:25.389Z",
    "source_name": "google",
    "source_query": "Irrigation Equipment",
    "source_country": "UA",
    "country": "Ukraine",
    "state": "Kyivska oblast",
    "city": "Vyshgorodskiy Rayon"
  },
  {
    "source_id": "ChIJEX0eGE0rK0cRk6n3AIcwIj8",
    "name": "SPECTRUM",
    "category": "SPECTRUM",
    "formatted_address": "4,5(2)",
    "phone_number": "+380674736969",
    "source_url": "https://www.google.com/maps/place/SPECTRUM/data=!4m7!3m6!1s0x472b2b4d181e7d11:0x3f22308700f7a993!8m2!3d50.6040092!4d30.4833941!16s%2Fg%2F11flzg_7c8!19sChIJEX0eGE0rK0cRk6n3AIcwIj8?authuser=0&hl=tr&rclk=1",
    "website_url": "",
    "rating_text": "4,5",
    "stars": null,
    "number_of_reviews": null,
    "price_level": "",
    "open_hours": "",
    "extraction_timestamp": "2025-06-08T03:35:25.389Z",
    "source_name": "google",
    "source_query": "Irrigation Equipment",
    "source_country": "UA",
    "country": "Ukraine",
    "state": "Kyivska oblast",
    "city": "Vyshgorodskiy Rayon"
  },
  {
    "source_id": "ChIJ33OnUI_S1EARs8AXNeMV8DY",
    "name": "BVS БудВодСервис",
    "category": "BVS БудВодСервис",
    "formatted_address": "",
    "phone_number": "+380509022076",
    "source_url": "https://www.google.com/maps/place/BVS+%D0%91%D1%83%D0%B4%D0%92%D0%BE%D0%B4%D0%A1%D0%B5%D1%80%D0%B2%D0%B8%D1%81/data=!4m7!3m6!1s0x40d4d28f50a773df:0x36f015e33517c0b3!8m2!3d50.3665665!4d30.713577!16s%2Fg%2F11bttk5s2v!19sChIJ33OnUI_S1EARs8AXNeMV8DY?authuser=0&hl=tr&rclk=1",
    "website_url": "",
    "rating_text": "",
    "stars": null,
    "number_of_reviews": null,
    "price_level": "",
    "open_hours": "",
    "extraction_timestamp": "2025-06-08T03:35:25.389Z",
    "source_name": "google",
    "source_query": "Irrigation Equipment",
    "source_country": "UA",
    "country": "Ukraine",
    "state": "Kyivska oblast",
    "city": "Vyshgorodskiy Rayon"
  }
]
