[
  {
    "source_id": "ChIJ32poUIVN1EARy3QJLKQieBs",
    "name": "Zdorova Voda",
    "category": "Zdorova Voda",
    "formatted_address": "5,0(3)",
    "phone_number": "+380672502520",
    "source_url": "https://www.google.com/maps/place/Zdorova+Voda/data=!4m7!3m6!1s0x40d44d8550686adf:0x1b7822a42c0974cb!8m2!3d50.2598551!4d31.7733027!16s%2Fg%2F11vzrypvj9!19sChIJ32poUIVN1EARy3QJLKQieBs?authuser=0&hl=tr&rclk=1",
    "website_url": "",
    "rating_text": "5,0",
    "stars": null,
    "number_of_reviews": null,
    "price_level": "",
    "open_hours": "",
    "extraction_timestamp": "2025-06-08T03:32:38.056Z",
    "source_name": "google",
    "source_query": "Irrigation Equipment",
    "source_country": "UA",
    "country": "Ukraine",
    "state": "Kyivska oblast",
    "city": "Yahotyn"
  },
  {
    "source_id": "ChIJzbCPXc5N1EARrVqbLJc_4k8",
    "name": "ROZETKA",
    "category": "ROZETKA",
    "formatted_address": "4,6(32)",
    "phone_number": "",
    "source_url": "https://www.google.com/maps/place/ROZETKA/data=!4m7!3m6!1s0x40d44dce5d8fb0cd:0x4fe23f972c9b5aad!8m2!3d50.2800283!4d31.7623577!16s%2Fg%2F11vb4504pc!19sChIJzbCPXc5N1EARrVqbLJc_4k8?authuser=0&hl=tr&rclk=1",
    "website_url": "",
    "rating_text": "4,6",
    "stars": null,
    "number_of_reviews": null,
    "price_level": "",
    "open_hours": "",
    "extraction_timestamp": "2025-06-08T03:32:38.057Z",
    "source_name": "google",
    "source_query": "Irrigation Equipment",
    "source_country": "UA",
    "country": "Ukraine",
    "state": "Kyivska oblast",
    "city": "Yahotyn"
  },
  {
    "source_id": "ChIJt346OwBN1EARHDxDEFMsi4g",
    "name": "Tsentr Vydachi Zamovlenʹ Epitsentr",
    "category": "Tsentr Vydachi Zamovlenʹ Epitsentr",
    "formatted_address": "5,0(3)",
    "phone_number": "",
    "source_url": "https://www.google.com/maps/place/Tsentr+Vydachi+Zamovlen%CA%B9+Epitsentr/data=!4m7!3m6!1s0x40d44d003b3a7eb7:0x888b2c5310433c1c!8m2!3d50.2765028!4d31.7647117!16s%2Fg%2F11vm0vslp9!19sChIJt346OwBN1EARHDxDEFMsi4g?authuser=0&hl=tr&rclk=1",
    "website_url": "",
    "rating_text": "5,0",
    "stars": null,
    "number_of_reviews": null,
    "price_level": "",
    "open_hours": "",
    "extraction_timestamp": "2025-06-08T03:32:38.058Z",
    "source_name": "google",
    "source_query": "Irrigation Equipment",
    "source_country": "UA",
    "country": "Ukraine",
    "state": "Kyivska oblast",
    "city": "Yahotyn"
  },
  {
    "source_id": "ChIJz-Q9QBlN1EARawGZrM8mikI",
    "name": "Sadovyy Market",
    "category": "Sadovyy Market",
    "formatted_address": "5,0(1)",
    "phone_number": "+380663339793",
    "source_url": "https://www.google.com/maps/place/Sadovyy+Market/data=!4m7!3m6!1s0x40d44d19403de4cf:0x428a26cfac99016b!8m2!3d50.2834499!4d31.7562447!16s%2Fg%2F11q1tdf1kb!19sChIJz-Q9QBlN1EARawGZrM8mikI?authuser=0&hl=tr&rclk=1",
    "website_url": "",
    "rating_text": "5,0",
    "stars": null,
    "number_of_reviews": null,
    "price_level": "",
    "open_hours": "",
    "extraction_timestamp": "2025-06-08T03:32:38.059Z",
    "source_name": "google",
    "source_query": "Irrigation Equipment",
    "source_country": "UA",
    "country": "Ukraine",
    "state": "Kyivska oblast",
    "city": "Yahotyn"
  },
  {
    "source_id": "ChIJqzzUYmBM1EARWvmOURsqdzI",
    "name": "Torhovyy Kvartal \"Produkty\"",
    "category": "Torhovyy Kvartal \"Produkty\"",
    "formatted_address": "4,2(17)",
    "phone_number": "",
    "source_url": "https://www.google.com/maps/place/Torhovyy+Kvartal+%22Produkty%22/data=!4m7!3m6!1s0x40d44c6062d43cab:0x32772a1b518ef95a!8m2!3d50.2526521!4d31.7677701!16s%2Fg%2F11g9qw1qw4!19sChIJqzzUYmBM1EARWvmOURsqdzI?authuser=0&hl=tr&rclk=1",
    "website_url": "",
    "rating_text": "4,2",
    "stars": null,
    "number_of_reviews": null,
    "price_level": "",
    "open_hours": "",
    "extraction_timestamp": "2025-06-08T03:32:38.059Z",
    "source_name": "google",
    "source_query": "Irrigation Equipment",
    "source_country": "UA",
    "country": "Ukraine",
    "state": "Kyivska oblast",
    "city": "Yahotyn"
  },
  {
    "source_id": "ChIJXVdpGyVN1EAR3Najlc5IiA0",
    "name": "Tov Fitotsentr Yevhena Tovstukhy",
    "category": "Tov Fitotsentr Yevhena Tovstukhy",
    "formatted_address": "4,9(7)",
    "phone_number": "+380987273075",
    "source_url": "https://www.google.com/maps/place/Tov+Fitotsentr+Yevhena+Tovstukhy/data=!4m7!3m6!1s0x40d44d251b69575d:0xd8848ce95a3d6dc!8m2!3d50.290435!4d31.757433!16s%2Fg%2F11b6d2n9fv!19sChIJXVdpGyVN1EAR3Najlc5IiA0?authuser=0&hl=tr&rclk=1",
    "website_url": "",
    "rating_text": "4,9",
    "stars": null,
    "number_of_reviews": null,
    "price_level": "",
    "open_hours": "",
    "extraction_timestamp": "2025-06-08T03:32:38.060Z",
    "source_name": "google",
    "source_query": "Irrigation Equipment",
    "source_country": "UA",
    "country": "Ukraine",
    "state": "Kyivska oblast",
    "city": "Yahotyn"
  },
  {
    "source_id": "ChIJLVI_c-BM1EARu4NogSdgbhQ",
    "name": "Fora",
    "category": "Fora",
    "formatted_address": "4,3(546)",
    "phone_number": "+380800301230",
    "source_url": "https://www.google.com/maps/place/Fora/data=!4m7!3m6!1s0x40d44ce0733f522d:0x146e6027816883bb!8m2!3d50.2793367!4d31.7625451!16s%2Fg%2F11b71zmbjg!19sChIJLVI_c-BM1EARu4NogSdgbhQ?authuser=0&hl=tr&rclk=1",
    "website_url": "",
    "rating_text": "4,3",
    "stars": null,
    "number_of_reviews": null,
    "price_level": "",
    "open_hours": "",
    "extraction_timestamp": "2025-06-08T03:32:38.061Z",
    "source_name": "google",
    "source_query": "Irrigation Equipment",
    "source_country": "UA",
    "country": "Ukraine",
    "state": "Kyivska oblast",
    "city": "Yahotyn"
  },
  {
    "source_id": "ChIJVRjvJMJL1EAR1hrZa8t7SVA",
    "name": "Tsikavyy Mahazynchyk",
    "category": "Tsikavyy Mahazynchyk",
    "formatted_address": "4,7(44)",
    "phone_number": "",
    "source_url": "https://www.google.com/maps/place/Tsikavyy+Mahazynchyk/data=!4m7!3m6!1s0x40d44bc224ef1855:0x50497bcb6bd91ad6!8m2!3d50.2153638!4d31.8030757!16s%2Fg%2F11fy_qcv6h!19sChIJVRjvJMJL1EAR1hrZa8t7SVA?authuser=0&hl=tr&rclk=1",
    "website_url": "",
    "rating_text": "4,7",
    "stars": null,
    "number_of_reviews": null,
    "price_level": "",
    "open_hours": "",
    "extraction_timestamp": "2025-06-08T03:32:38.062Z",
    "source_name": "google",
    "source_query": "Irrigation Equipment",
    "source_country": "UA",
    "country": "Ukraine",
    "state": "Kyivska oblast",
    "city": "Yahotyn"
  },
  {
    "source_id": "ChIJx6uk7ltN1EARRltlU74h9D4",
    "name": "М’ясні делікатеси «Укрпромпостач-95»",
    "category": "М’ясні делікатеси «Укрпромпостач-95»",
    "formatted_address": "1,8(5)",
    "phone_number": "+380682249987",
    "source_url": "https://www.google.com/maps/place/%D0%9C%E2%80%99%D1%8F%D1%81%D0%BD%D1%96+%D0%B4%D0%B5%D0%BB%D1%96%D0%BA%D0%B0%D1%82%D0%B5%D1%81%D0%B8+%C2%AB%D0%A3%D0%BA%D1%80%D0%BF%D1%80%D0%BE%D0%BC%D0%BF%D0%BE%D1%81%D1%82%D0%B0%D1%87-95%C2%BB/data=!4m7!3m6!1s0x40d44d5beea4abc7:0x3ef421be53655b46!8m2!3d50.2660629!4d31.7723431!16s%2Fg%2F11sg_kw5v7!19sChIJx6uk7ltN1EARRltlU74h9D4?authuser=0&hl=tr&rclk=1",
    "website_url": "",
    "rating_text": "1,8",
    "stars": null,
    "number_of_reviews": null,
    "price_level": "",
    "open_hours": "",
    "extraction_timestamp": "2025-06-08T03:32:38.063Z",
    "source_name": "google",
    "source_query": "Irrigation Equipment",
    "source_country": "UA",
    "country": "Ukraine",
    "state": "Kyivska oblast",
    "city": "Yahotyn"
  },
  {
    "source_id": "ChIJlf_dAc9N1EARC2Ue5IQ1RS4",
    "name": "Ласуня",
    "category": "Ласуня",
    "formatted_address": "4,5(16)",
    "phone_number": "",
    "source_url": "https://www.google.com/maps/place/%D0%9B%D0%B0%D1%81%D1%83%D0%BD%D1%8F/data=!4m7!3m6!1s0x40d44dcf01ddff95:0x2e453584e41e650b!8m2!3d50.2382076!4d31.78182!16s%2Fg%2F11rfq35zn3!19sChIJlf_dAc9N1EARC2Ue5IQ1RS4?authuser=0&hl=tr&rclk=1",
    "website_url": "",
    "rating_text": "4,5",
    "stars": null,
    "number_of_reviews": null,
    "price_level": "",
    "open_hours": "",
    "extraction_timestamp": "2025-06-08T03:32:38.063Z",
    "source_name": "google",
    "source_query": "Irrigation Equipment",
    "source_country": "UA",
    "country": "Ukraine",
    "state": "Kyivska oblast",
    "city": "Yahotyn"
  },
  {
    "source_id": "ChIJSeCNq0RL1EARkzC1e9NQjP8",
    "name": "Kolosok",
    "category": "Kolosok",
    "formatted_address": "5,0(2)",
    "phone_number": "",
    "source_url": "https://www.google.com/maps/place/Kolosok/data=!4m7!3m6!1s0x40d44b44ab8de049:0xff8c50d37bb53093!8m2!3d50.2392478!4d31.7938307!16s%2Fg%2F11hf7zmjx3!19sChIJSeCNq0RL1EARkzC1e9NQjP8?authuser=0&hl=tr&rclk=1",
    "website_url": "",
    "rating_text": "5,0",
    "stars": null,
    "number_of_reviews": null,
    "price_level": "",
    "open_hours": "",
    "extraction_timestamp": "2025-06-08T03:32:38.064Z",
    "source_name": "google",
    "source_query": "Irrigation Equipment",
    "source_country": "UA",
    "country": "Ukraine",
    "state": "Kyivska oblast",
    "city": "Yahotyn"
  },
  {
    "source_id": "ChIJyUSGpC9L1EARy4YVThyENcw",
    "name": "Магазин автозапчастин Автолідер",
    "category": "Магазин автозапчастин Автолідер",
    "formatted_address": "4,7(12)",
    "phone_number": "+380987806205",
    "source_url": "https://www.google.com/maps/place/%D0%9C%D0%B0%D0%B3%D0%B0%D0%B7%D0%B8%D0%BD+%D0%B0%D0%B2%D1%82%D0%BE%D0%B7%D0%B0%D0%BF%D1%87%D0%B0%D1%81%D1%82%D0%B8%D0%BD+%D0%90%D0%B2%D1%82%D0%BE%D0%BB%D1%96%D0%B4%D0%B5%D1%80/data=!4m7!3m6!1s0x40d44b2fa48644c9:0xcc35841c4e1586cb!8m2!3d50.2418691!4d31.7812955!16s%2Fg%2F11hxztd94t!19sChIJyUSGpC9L1EARy4YVThyENcw?authuser=0&hl=tr&rclk=1",
    "website_url": "",
    "rating_text": "4,7",
    "stars": null,
    "number_of_reviews": null,
    "price_level": "",
    "open_hours": "",
    "extraction_timestamp": "2025-06-08T03:32:38.065Z",
    "source_name": "google",
    "source_query": "Irrigation Equipment",
    "source_country": "UA",
    "country": "Ukraine",
    "state": "Kyivska oblast",
    "city": "Yahotyn"
  },
  {
    "source_id": "ChIJt9k5S3ZN1EARPTCCOSIFxfA",
    "name": "Фора",
    "category": "Фора",
    "formatted_address": "4,5(573)",
    "phone_number": "+380800301230",
    "source_url": "https://www.google.com/maps/place/%D0%A4%D0%BE%D1%80%D0%B0/data=!4m7!3m6!1s0x40d44d764b39d9b7:0xf0c505223982303d!8m2!3d50.2533105!4d31.7664296!16s%2Fg%2F11jvkqtb3d!19sChIJt9k5S3ZN1EARPTCCOSIFxfA?authuser=0&hl=tr&rclk=1",
    "website_url": "",
    "rating_text": "4,5",
    "stars": null,
    "number_of_reviews": null,
    "price_level": "",
    "open_hours": "",
    "extraction_timestamp": "2025-06-08T03:32:38.066Z",
    "source_name": "google",
    "source_query": "Irrigation Equipment",
    "source_country": "UA",
    "country": "Ukraine",
    "state": "Kyivska oblast",
    "city": "Yahotyn"
  },
  {
    "source_id": "ChIJ9UQJlxNN1EARz23A460FE08",
    "name": "Точка мінімальних цін",
    "category": "Точка мінімальних цін",
    "formatted_address": "3,9(15)",
    "phone_number": "+380633003229",
    "source_url": "https://www.google.com/maps/place/%D0%A2%D0%BE%D1%87%D0%BA%D0%B0+%D0%BC%D1%96%D0%BD%D1%96%D0%BC%D0%B0%D0%BB%D1%8C%D0%BD%D0%B8%D1%85+%D1%86%D1%96%D0%BD/data=!4m7!3m6!1s0x40d44d13970944f5:0x4f1305ade3c06dcf!8m2!3d50.2771515!4d31.7632974!16s%2Fg%2F11nn058mgd!19sChIJ9UQJlxNN1EARz23A460FE08?authuser=0&hl=tr&rclk=1",
    "website_url": "",
    "rating_text": "3,9",
    "stars": null,
    "number_of_reviews": null,
    "price_level": "",
    "open_hours": "",
    "extraction_timestamp": "2025-06-08T03:32:38.067Z",
    "source_name": "google",
    "source_query": "Irrigation Equipment",
    "source_country": "UA",
    "country": "Ukraine",
    "state": "Kyivska oblast",
    "city": "Yahotyn"
  },
  {
    "source_id": "ChIJm0XTi3BM1EARaB4V9I81Sd0",
    "name": "AUTODETAL",
    "category": "AUTODETAL",
    "formatted_address": "4,5(36)",
    "phone_number": "+380678780760",
    "source_url": "https://www.google.com/maps/place/AUTODETAL/data=!4m7!3m6!1s0x40d44c708bd3459b:0xdd49358ff4151e68!8m2!3d50.2415303!4d31.7810944!16s%2Fg%2F11gcdv04bx!19sChIJm0XTi3BM1EARaB4V9I81Sd0?authuser=0&hl=tr&rclk=1",
    "website_url": "",
    "rating_text": "4,5",
    "stars": null,
    "number_of_reviews": null,
    "price_level": "",
    "open_hours": "",
    "extraction_timestamp": "2025-06-08T03:32:38.068Z",
    "source_name": "google",
    "source_query": "Irrigation Equipment",
    "source_country": "UA",
    "country": "Ukraine",
    "state": "Kyivska oblast",
    "city": "Yahotyn"
  },
  {
    "source_id": "ChIJT3GyeoxL1EARNJZhVTgwaEA",
    "name": "Avtomahazyn \"Avtotovary\"",
    "category": "Avtomahazyn \"Avtotovary\"",
    "formatted_address": "4,6(27)",
    "phone_number": "+380990722007",
    "source_url": "https://www.google.com/maps/place/Avtomahazyn+%22Avtotovary%22/data=!4m7!3m6!1s0x40d44b8c7ab2714f:0x4068303855619634!8m2!3d50.2398537!4d31.8013139!16s%2Fg%2F11j4n6_985!19sChIJT3GyeoxL1EARNJZhVTgwaEA?authuser=0&hl=tr&rclk=1",
    "website_url": "",
    "rating_text": "4,6",
    "stars": null,
    "number_of_reviews": null,
    "price_level": "",
    "open_hours": "",
    "extraction_timestamp": "2025-06-08T03:32:38.068Z",
    "source_name": "google",
    "source_query": "Irrigation Equipment",
    "source_country": "UA",
    "country": "Ukraine",
    "state": "Kyivska oblast",
    "city": "Yahotyn"
  },
  {
    "source_id": "ChIJnZ1nnTBN1EARCeiLKbK9vbs",
    "name": "\"",
    "category": "\"",
    "formatted_address": "5,0(1)",
    "phone_number": "+380684926527",
    "source_url": "https://www.google.com/maps/place/%22/data=!4m7!3m6!1s0x40d44d309d679d9d:0xbbbdbdb2298be809!8m2!3d50.2380553!4d31.7815914!16s%2Fg%2F11sq5pw_n9!19sChIJnZ1nnTBN1EARCeiLKbK9vbs?authuser=0&hl=tr&rclk=1",
    "website_url": "",
    "rating_text": "5,0",
    "stars": null,
    "number_of_reviews": null,
    "price_level": "",
    "open_hours": "",
    "extraction_timestamp": "2025-06-08T03:32:38.069Z",
    "source_name": "google",
    "source_query": "Irrigation Equipment",
    "source_country": "UA",
    "country": "Ukraine",
    "state": "Kyivska oblast",
    "city": "Yahotyn"
  },
  {
    "source_id": "ChIJ8ZutAwBN1EARA8J2Ihb9vbo",
    "name": "МаркетОпт",
    "category": "МаркетОпт",
    "formatted_address": "5,0(2)",
    "phone_number": "",
    "source_url": "https://www.google.com/maps/place/%D0%9C%D0%B0%D1%80%D0%BA%D0%B5%D1%82%D0%9E%D0%BF%D1%82/data=!4m7!3m6!1s0x40d44d0003ad9bf1:0xbabdfd162276c203!8m2!3d50.252007!4d31.7685189!16s%2Fg%2F11y6kw4tjv!19sChIJ8ZutAwBN1EARA8J2Ihb9vbo?authuser=0&hl=tr&rclk=1",
    "website_url": "",
    "rating_text": "5,0",
    "stars": null,
    "number_of_reviews": null,
    "price_level": "",
    "open_hours": "",
    "extraction_timestamp": "2025-06-08T03:32:38.070Z",
    "source_name": "google",
    "source_query": "Irrigation Equipment",
    "source_country": "UA",
    "country": "Ukraine",
    "state": "Kyivska oblast",
    "city": "Yahotyn"
  },
  {
    "source_id": "ChIJJVKnlu9M1EARa1TqDyy33KU",
    "name": "Mahnat",
    "category": "Mahnat",
    "formatted_address": "3,6(88)",
    "phone_number": "+380457553037",
    "source_url": "https://www.google.com/maps/place/Mahnat/data=!4m7!3m6!1s0x40d44cef96a75225:0xa5dcb72c0fea546b!8m2!3d50.2684129!4d31.7682631!16s%2Fg%2F11f045p58j!19sChIJJVKnlu9M1EARa1TqDyy33KU?authuser=0&hl=tr&rclk=1",
    "website_url": "",
    "rating_text": "3,6",
    "stars": null,
    "number_of_reviews": null,
    "price_level": "",
    "open_hours": "",
    "extraction_timestamp": "2025-06-08T03:32:38.070Z",
    "source_name": "google",
    "source_query": "Irrigation Equipment",
    "source_country": "UA",
    "country": "Ukraine",
    "state": "Kyivska oblast",
    "city": "Yahotyn"
  },
  {
    "source_id": "ChIJVQWbnodM1EARu6M1bhll1DE",
    "name": "Market \"Rybonʹka-2\"",
    "category": "Market \"Rybonʹka-2\"",
    "formatted_address": "3,6(182)",
    "phone_number": "",
    "source_url": "https://www.google.com/maps/place/Market+%22Rybon%CA%B9ka-2%22/data=!4m7!3m6!1s0x40d44c879e9b0555:0x31d465196e35a3bb!8m2!3d50.2501974!4d31.7882271!16s%2Fg%2F11f3rgc3mv!19sChIJVQWbnodM1EARu6M1bhll1DE?authuser=0&hl=tr&rclk=1",
    "website_url": "",
    "rating_text": "3,6",
    "stars": null,
    "number_of_reviews": null,
    "price_level": "",
    "open_hours": "",
    "extraction_timestamp": "2025-06-08T03:32:38.071Z",
    "source_name": "google",
    "source_query": "Irrigation Equipment",
    "source_country": "UA",
    "country": "Ukraine",
    "state": "Kyivska oblast",
    "city": "Yahotyn"
  },
  {
    "source_id": "ChIJTQafBiFN1EARN2HhEY4T_60",
    "name": "Fortuna",
    "category": "Fortuna",
    "formatted_address": "3,4(79)",
    "phone_number": "+380457522148",
    "source_url": "https://www.google.com/maps/place/Fortuna/data=!4m7!3m6!1s0x40d44d21069f064d:0xadff138e11e16137!8m2!3d50.2838853!4d31.7598683!16s%2Fg%2F11f2xv3k0n!19sChIJTQafBiFN1EARN2HhEY4T_60?authuser=0&hl=tr&rclk=1",
    "website_url": "",
    "rating_text": "3,4",
    "stars": null,
    "number_of_reviews": null,
    "price_level": "",
    "open_hours": "",
    "extraction_timestamp": "2025-06-08T03:32:38.072Z",
    "source_name": "google",
    "source_query": "Irrigation Equipment",
    "source_country": "UA",
    "country": "Ukraine",
    "state": "Kyivska oblast",
    "city": "Yahotyn"
  },
  {
    "source_id": "ChIJwy7Qb4BM1EARdb4nax_cN5c",
    "name": "\"Bazhayemo Zdorov'ya\"",
    "category": "\"Bazhayemo Zdorov'ya\"",
    "formatted_address": "4,2(11)",
    "phone_number": "+380935080744",
    "source_url": "https://www.google.com/maps/place/%22Bazhayemo+Zdorov%27ya%22/data=!4m7!3m6!1s0x40d44c806fd02ec3:0x9737dc1f6b27be75!8m2!3d50.245379!4d31.789885!16s%2Fg%2F11f3ggdb0z!19sChIJwy7Qb4BM1EARdb4nax_cN5c?authuser=0&hl=tr&rclk=1",
    "website_url": "",
    "rating_text": "4,2",
    "stars": null,
    "number_of_reviews": null,
    "price_level": "",
    "open_hours": "",
    "extraction_timestamp": "2025-06-08T03:32:38.072Z",
    "source_name": "google",
    "source_query": "Irrigation Equipment",
    "source_country": "UA",
    "country": "Ukraine",
    "state": "Kyivska oblast",
    "city": "Yahotyn"
  },
  {
    "source_id": "ChIJUW87cABN1EARzPrNb7aMaLs",
    "name": "P'yatachok",
    "category": "P'yatachok",
    "formatted_address": "5,0(1)",
    "phone_number": "",
    "source_url": "https://www.google.com/maps/place/P%27yatachok/data=!4m7!3m6!1s0x40d44d00703b6f51:0xbb688cb66fcdfacc!8m2!3d50.2741745!4d31.7641596!16s%2Fg%2F11vxyhvnnh!19sChIJUW87cABN1EARzPrNb7aMaLs?authuser=0&hl=tr&rclk=1",
    "website_url": "",
    "rating_text": "5,0",
    "stars": null,
    "number_of_reviews": null,
    "price_level": "",
    "open_hours": "",
    "extraction_timestamp": "2025-06-08T03:32:38.073Z",
    "source_name": "google",
    "source_query": "Irrigation Equipment",
    "source_country": "UA",
    "country": "Ukraine",
    "state": "Kyivska oblast",
    "city": "Yahotyn"
  },
  {
    "source_id": "ChIJ3yDlNeFM1EARoFvDEcBYDtA",
    "name": "EVA",
    "category": "EVA",
    "formatted_address": "4,3(208)",
    "phone_number": "+380800303700",
    "source_url": "https://www.google.com/maps/place/EVA/data=!4m7!3m6!1s0x40d44ce135e520df:0xd00e58c011c35ba0!8m2!3d50.2750166!4d31.7641792!16s%2Fg%2F11bx9q6dmh!19sChIJ3yDlNeFM1EARoFvDEcBYDtA?authuser=0&hl=tr&rclk=1",
    "website_url": "",
    "rating_text": "4,3",
    "stars": null,
    "number_of_reviews": null,
    "price_level": "",
    "open_hours": "",
    "extraction_timestamp": "2025-06-08T03:32:38.074Z",
    "source_name": "google",
    "source_query": "Irrigation Equipment",
    "source_country": "UA",
    "country": "Ukraine",
    "state": "Kyivska oblast",
    "city": "Yahotyn"
  },
  {
    "source_id": "ChIJvergOTJN1EARiHl3T7qtWVQ",
    "name": "Магазин \"Косметичка\"",
    "category": "Магазин \"Косметичка\"",
    "formatted_address": "5,0(2)",
    "phone_number": "+380963995506",
    "source_url": "https://www.google.com/maps/place/%D0%9C%D0%B0%D0%B3%D0%B0%D0%B7%D0%B8%D0%BD+%22%D0%9A%D0%BE%D1%81%D0%BC%D0%B5%D1%82%D0%B8%D1%87%D0%BA%D0%B0%22/data=!4m7!3m6!1s0x40d44d3239e0eabd:0x5459adba4f777988!8m2!3d50.2484624!4d31.789144!16s%2Fg%2F11j96sy0s3!19sChIJvergOTJN1EARiHl3T7qtWVQ?authuser=0&hl=tr&rclk=1",
    "website_url": "",
    "rating_text": "5,0",
    "stars": null,
    "number_of_reviews": null,
    "price_level": "",
    "open_hours": "",
    "extraction_timestamp": "2025-06-08T03:32:38.075Z",
    "source_name": "google",
    "source_query": "Irrigation Equipment",
    "source_country": "UA",
    "country": "Ukraine",
    "state": "Kyivska oblast",
    "city": "Yahotyn"
  },
  {
    "source_id": "ChIJ3Uz1auBM1EARXfXcCXfqTmY",
    "name": "Luna",
    "category": "Luna",
    "formatted_address": "4,0(28)",
    "phone_number": "",
    "source_url": "https://www.google.com/maps/place/Luna/data=!4m7!3m6!1s0x40d44ce06af54cdd:0x664eea7709dcf55d!8m2!3d50.2786935!4d31.7619639!16s%2Fg%2F11fy4v18jk!19sChIJ3Uz1auBM1EARXfXcCXfqTmY?authuser=0&hl=tr&rclk=1",
    "website_url": "",
    "rating_text": "4,0",
    "stars": null,
    "number_of_reviews": null,
    "price_level": "",
    "open_hours": "",
    "extraction_timestamp": "2025-06-08T03:32:38.075Z",
    "source_name": "google",
    "source_query": "Irrigation Equipment",
    "source_country": "UA",
    "country": "Ukraine",
    "state": "Kyivska oblast",
    "city": "Yahotyn"
  },
  {
    "source_id": "ChIJJzBNnXhM1EARJcsMnGX6hhc",
    "name": "M-N \"Rybonʹka\"",
    "category": "M-N \"Rybonʹka\"",
    "formatted_address": "3,9(56)",
    "phone_number": "+380934679005",
    "source_url": "https://www.google.com/maps/place/M-N+%22Rybon%CA%B9ka%22/data=!4m7!3m6!1s0x40d44c789d4d3027:0x1786fa659c0ccb25!8m2!3d50.2402785!4d31.7913148!16s%2Fg%2F1tz74h9g!19sChIJJzBNnXhM1EARJcsMnGX6hhc?authuser=0&hl=tr&rclk=1",
    "website_url": "",
    "rating_text": "3,9",
    "stars": null,
    "number_of_reviews": null,
    "price_level": "",
    "open_hours": "",
    "extraction_timestamp": "2025-06-08T03:32:38.076Z",
    "source_name": "google",
    "source_query": "Irrigation Equipment",
    "source_country": "UA",
    "country": "Ukraine",
    "state": "Kyivska oblast",
    "city": "Yahotyn"
  },
  {
    "source_id": "ChIJqep3OyRN1EAR-qDlWFAbyk8",
    "name": "Автомагазин \"У дяді Колі\"",
    "category": "Автомагазин \"У дяді Колі\"",
    "formatted_address": "4,2(52)",
    "phone_number": "+380979938303",
    "source_url": "https://www.google.com/maps/place/%D0%90%D0%B2%D1%82%D0%BE%D0%BC%D0%B0%D0%B3%D0%B0%D0%B7%D0%B8%D0%BD+%22%D0%A3+%D0%B4%D1%8F%D0%B4%D1%96+%D0%9A%D0%BE%D0%BB%D1%96%22/data=!4m7!3m6!1s0x40d44d243b77eaa9:0x4fca1b5058e5a0fa!8m2!3d50.2883366!4d31.7595447!16s%2Fg%2F11g6bpjn1m!19sChIJqep3OyRN1EAR-qDlWFAbyk8?authuser=0&hl=tr&rclk=1",
    "website_url": "",
    "rating_text": "4,2",
    "stars": null,
    "number_of_reviews": null,
    "price_level": "",
    "open_hours": "",
    "extraction_timestamp": "2025-06-08T03:32:38.077Z",
    "source_name": "google",
    "source_query": "Irrigation Equipment",
    "source_country": "UA",
    "country": "Ukraine",
    "state": "Kyivska oblast",
    "city": "Yahotyn"
  },
  {
    "source_id": "ChIJXdCrOLdN1EARXwUN71w2aUs",
    "name": "Магазин \"СОВА\"",
    "category": "Магазин \"СОВА\"",
    "formatted_address": "4,7(7)",
    "phone_number": "",
    "source_url": "https://www.google.com/maps/place/%D0%9C%D0%B0%D0%B3%D0%B0%D0%B7%D0%B8%D0%BD+%22%D0%A1%D0%9E%D0%92%D0%90%22/data=!4m7!3m6!1s0x40d44db738abd05d:0x4b69365cef0d055f!8m2!3d50.2524543!4d31.780092!16s%2Fg%2F11fhk_hgth!19sChIJXdCrOLdN1EARXwUN71w2aUs?authuser=0&hl=tr&rclk=1",
    "website_url": "",
    "rating_text": "4,7",
    "stars": null,
    "number_of_reviews": null,
    "price_level": "",
    "open_hours": "",
    "extraction_timestamp": "2025-06-08T03:32:38.077Z",
    "source_name": "google",
    "source_query": "Irrigation Equipment",
    "source_country": "UA",
    "country": "Ukraine",
    "state": "Kyivska oblast",
    "city": "Yahotyn"
  }
]
