[
  {
    "source_id": "ChIJrSy5HhCm1UARfrAVIaJyJV0",
    "name": "Sadovyy Mini-Market",
    "category": "Sadovyy Mini-Market",
    "formatted_address": "4,7(28)",
    "phone_number": "+380939098623",
    "source_url": "https://www.google.com/maps/place/Sadovyy+Mini-Market/data=!4m7!3m6!1s0x40d5a6101eb92cad:0x5d2572a22115b07e!8m2!3d50.4964448!4d31.7715562!16s%2Fg%2F11dzsqm2nm!19sChIJrSy5HhCm1UARfrAVIaJyJV0?authuser=0&hl=tr&rclk=1",
    "website_url": "",
    "rating_text": "4,7",
    "stars": null,
    "number_of_reviews": null,
    "price_level": "",
    "open_hours": "",
    "extraction_timestamp": "2025-06-08T03:28:38.873Z",
    "source_name": "google",
    "source_query": "Irrigation Equipment",
    "source_country": "UA",
    "country": "Ukraine",
    "state": "Kyivska oblast",
    "city": "Zgurovka"
  },
  {
    "source_id": "ChIJKeb6nP6l1UARYiRq1h86J60",
    "name": "Будівельна Сила",
    "category": "Будівельна Сила",
    "formatted_address": "4,7(18)",
    "phone_number": "+380970829737",
    "source_url": "https://www.google.com/maps/place/%D0%91%D1%83%D0%B4%D1%96%D0%B2%D0%B5%D0%BB%D1%8C%D0%BD%D0%B0+%D0%A1%D0%B8%D0%BB%D0%B0/data=!4m7!3m6!1s0x40d5a5fe9cfae629:0xad273a1fd66a2462!8m2!3d50.4857492!4d31.7847669!16s%2Fg%2F11c619v3vm!19sChIJKeb6nP6l1UARYiRq1h86J60?authuser=0&hl=tr&rclk=1",
    "website_url": "",
    "rating_text": "4,7",
    "stars": null,
    "number_of_reviews": null,
    "price_level": "",
    "open_hours": "",
    "extraction_timestamp": "2025-06-08T03:28:38.873Z",
    "source_name": "google",
    "source_query": "Irrigation Equipment",
    "source_country": "UA",
    "country": "Ukraine",
    "state": "Kyivska oblast",
    "city": "Zgurovka"
  },
  {
    "source_id": "ChIJqyJ6cj2m1UARASQId6y5TsQ",
    "name": "Mahazyn Santekhniky",
    "category": "Mahazyn Santekhniky",
    "formatted_address": "4,7(10)",
    "phone_number": "",
    "source_url": "https://www.google.com/maps/place/Mahazyn+Santekhniky/data=!4m7!3m6!1s0x40d5a63d727a22ab:0xc44eb9ac77082401!8m2!3d50.5019886!4d31.7566262!16s%2Fg%2F11c5x100pg!19sChIJqyJ6cj2m1UARASQId6y5TsQ?authuser=0&hl=tr&rclk=1",
    "website_url": "",
    "rating_text": "4,7",
    "stars": null,
    "number_of_reviews": null,
    "price_level": "",
    "open_hours": "",
    "extraction_timestamp": "2025-06-08T03:28:38.873Z",
    "source_name": "google",
    "source_query": "Irrigation Equipment",
    "source_country": "UA",
    "country": "Ukraine",
    "state": "Kyivska oblast",
    "city": "Zgurovka"
  },
  {
    "source_id": "ChIJBycqhDOn1UARel8GRnWlI-Q",
    "name": "Minimarket \"Ovochevyy\"",
    "category": "Minimarket \"Ovochevyy\"",
    "formatted_address": "5,0(1)",
    "phone_number": "+380975202042",
    "source_url": "https://www.google.com/maps/place/Minimarket+%22Ovochevyy%22/data=!4m7!3m6!1s0x40d5a733842a2707:0xe423a57546065f7a!8m2!3d50.499717!4d31.773483!16s%2Fg%2F11jwv56wzm!19sChIJBycqhDOn1UARel8GRnWlI-Q?authuser=0&hl=tr&rclk=1",
    "website_url": "",
    "rating_text": "5,0",
    "stars": null,
    "number_of_reviews": null,
    "price_level": "",
    "open_hours": "",
    "extraction_timestamp": "2025-06-08T03:28:38.874Z",
    "source_name": "google",
    "source_query": "Irrigation Equipment",
    "source_country": "UA",
    "country": "Ukraine",
    "state": "Kyivska oblast",
    "city": "Zgurovka"
  },
  {
    "source_id": "ChIJE_UtMhSm1UARQgzTHcYQuvE",
    "name": "Zghurivka market",
    "category": "Zghurivka market",
    "formatted_address": "3,8(605)",
    "phone_number": "",
    "source_url": "https://www.google.com/maps/place/Zghurivka+market/data=!4m7!3m6!1s0x40d5a614322df513:0xf1ba10c61dd30c42!8m2!3d50.5035499!4d31.7669032!16s%2Fg%2F11z0y77r_!19sChIJE_UtMhSm1UARQgzTHcYQuvE?authuser=0&hl=tr&rclk=1",
    "website_url": "",
    "rating_text": "3,8",
    "stars": null,
    "number_of_reviews": null,
    "price_level": "",
    "open_hours": "",
    "extraction_timestamp": "2025-06-08T03:28:38.874Z",
    "source_name": "google",
    "source_query": "Irrigation Equipment",
    "source_country": "UA",
    "country": "Ukraine",
    "state": "Kyivska oblast",
    "city": "Zgurovka"
  },
  {
    "source_id": "ChIJ3-n80Aam1UARt9yCeFfu96U",
    "name": "Sitrotsekh",
    "category": "Sitrotsekh",
    "formatted_address": "4,5(54)",
    "phone_number": "",
    "source_url": "https://www.google.com/maps/place/Sitrotsekh/data=!4m7!3m6!1s0x40d5a606d0fce9df:0xa5f7ee577882dcb7!8m2!3d50.4886164!4d31.7763451!16s%2Fg%2F11c6cby0kv!19sChIJ3-n80Aam1UARt9yCeFfu96U?authuser=0&hl=tr&rclk=1",
    "website_url": "",
    "rating_text": "4,5",
    "stars": null,
    "number_of_reviews": null,
    "price_level": "",
    "open_hours": "",
    "extraction_timestamp": "2025-06-08T03:28:38.874Z",
    "source_name": "google",
    "source_query": "Irrigation Equipment",
    "source_country": "UA",
    "country": "Ukraine",
    "state": "Kyivska oblast",
    "city": "Zgurovka"
  },
  {
    "source_id": "ChIJrbnegW6m1UAR9L1sfsARtns",
    "name": "Pp Dobrovolʹsʹkyy V.m. - Магазин",
    "category": "Pp Dobrovolʹsʹkyy V.m. - Магазин",
    "formatted_address": "4,1(95)",
    "phone_number": "+380457050194",
    "source_url": "https://www.google.com/maps/place/Pp+Dobrovol%CA%B9s%CA%B9kyy+V.m.+-+%D0%9C%D0%B0%D0%B3%D0%B0%D0%B7%D0%B8%D0%BD/data=!4m7!3m6!1s0x40d5a66e81deb9ad:0x7bb611c07e6cbdf4!8m2!3d50.5092751!4d31.7823967!16s%2Fg%2F1jgm12by5!19sChIJrbnegW6m1UAR9L1sfsARtns?authuser=0&hl=tr&rclk=1",
    "website_url": "",
    "rating_text": "4,1",
    "stars": null,
    "number_of_reviews": null,
    "price_level": "",
    "open_hours": "",
    "extraction_timestamp": "2025-06-08T03:28:38.874Z",
    "source_name": "google",
    "source_query": "Irrigation Equipment",
    "source_country": "UA",
    "country": "Ukraine",
    "state": "Kyivska oblast",
    "city": "Zgurovka"
  },
  {
    "source_id": "ChIJCYZHLv-l1UARKtwxaQfKUtw",
    "name": "Maksym",
    "category": "Maksym",
    "formatted_address": "3,9(54)",
    "phone_number": "",
    "source_url": "https://www.google.com/maps/place/Maksym/data=!4m7!3m6!1s0x40d5a5ff2e478609:0xdc52ca076931dc2a!8m2!3d50.4823468!4d31.7837249!16s%2Fg%2F11clytqtgy!19sChIJCYZHLv-l1UARKtwxaQfKUtw?authuser=0&hl=tr&rclk=1",
    "website_url": "",
    "rating_text": "3,9",
    "stars": null,
    "number_of_reviews": null,
    "price_level": "",
    "open_hours": "",
    "extraction_timestamp": "2025-06-08T03:28:38.874Z",
    "source_name": "google",
    "source_query": "Irrigation Equipment",
    "source_country": "UA",
    "country": "Ukraine",
    "state": "Kyivska oblast",
    "city": "Zgurovka"
  },
  {
    "source_id": "ChIJzYV2OKGn1UAR5M6-E9Cnczw",
    "name": "Наша Ряба",
    "category": "Наша Ряба",
    "formatted_address": "4,0(1)",
    "phone_number": "+380800500001",
    "source_url": "https://www.google.com/maps/place/%D0%9D%D0%B0%D1%88%D0%B0+%D0%A0%D1%8F%D0%B1%D0%B0/data=!4m7!3m6!1s0x40d5a7a1387685cd:0x3c73a7d013becee4!8m2!3d50.4983457!4d31.774777!16s%2Fg%2F11jprfhzf7!19sChIJzYV2OKGn1UAR5M6-E9Cnczw?authuser=0&hl=tr&rclk=1",
    "website_url": "",
    "rating_text": "4,0",
    "stars": null,
    "number_of_reviews": null,
    "price_level": "",
    "open_hours": "",
    "extraction_timestamp": "2025-06-08T03:28:38.875Z",
    "source_name": "google",
    "source_query": "Irrigation Equipment",
    "source_country": "UA",
    "country": "Ukraine",
    "state": "Kyivska oblast",
    "city": "Zgurovka"
  },
  {
    "source_id": "ChIJebECED2m1UARKL1jGOqMd3U",
    "name": "Міні-маркет 《Козаківський》",
    "category": "Міні-маркет 《Козаківський》",
    "formatted_address": "4,3(4)",
    "phone_number": "",
    "source_url": "https://www.google.com/maps/place/%D0%9C%D1%96%D0%BD%D1%96-%D0%BC%D0%B0%D1%80%D0%BA%D0%B5%D1%82+%E3%80%8A%D0%9A%D0%BE%D0%B7%D0%B0%D0%BA%D1%96%D0%B2%D1%81%D1%8C%D0%BA%D0%B8%D0%B9%E3%80%8B/data=!4m7!3m6!1s0x40d5a63d1002b179:0x75778cea1863bd28!8m2!3d50.5023243!4d31.7554478!16s%2Fg%2F11gg91pz3f!19sChIJebECED2m1UARKL1jGOqMd3U?authuser=0&hl=tr&rclk=1",
    "website_url": "",
    "rating_text": "4,3",
    "stars": null,
    "number_of_reviews": null,
    "price_level": "",
    "open_hours": "",
    "extraction_timestamp": "2025-06-08T03:28:38.875Z",
    "source_name": "google",
    "source_query": "Irrigation Equipment",
    "source_country": "UA",
    "country": "Ukraine",
    "state": "Kyivska oblast",
    "city": "Zgurovka"
  },
  {
    "source_id": "ChIJA3hpP2an1UARc6SqHzcOdq0",
    "name": "Fora",
    "category": "Fora",
    "formatted_address": "4,5(10)",
    "phone_number": "+380800301230",
    "source_url": "https://www.google.com/maps/place/Fora/data=!4m7!3m6!1s0x40d5a7663f697803:0xad760e371faaa473!8m2!3d50.499717!4d31.773483!16s%2Fg%2F11lmnvvzqw!19sChIJA3hpP2an1UARc6SqHzcOdq0?authuser=0&hl=tr&rclk=1",
    "website_url": "",
    "rating_text": "4,5",
    "stars": null,
    "number_of_reviews": null,
    "price_level": "",
    "open_hours": "",
    "extraction_timestamp": "2025-06-08T03:28:38.875Z",
    "source_name": "google",
    "source_query": "Irrigation Equipment",
    "source_country": "UA",
    "country": "Ukraine",
    "state": "Kyivska oblast",
    "city": "Zgurovka"
  }
]
