[
  {
    "source_id": "ChIJX6FK56QRREARYN8v2gebtWE",
    "name": "Shimge Water Pump Georgia",
    "category": "Shimge Water Pump Georgia",
    "formatted_address": "5,0(1)",
    "phone_number": "+995595797104",
    "source_url": "https://www.google.com/maps/place/Shimge+Water+Pump+Georgia/data=!4m7!3m6!1s0x404411a4e74aa15f:0x61b59b07da2fdf60!8m2!3d41.693303!4d45.0003375!16s%2Fg%2F11f7shlq75!19sChIJX6FK56QRREARYN8v2gebtWE?authuser=0&hl=tr&rclk=1",
    "website_url": "http://facebook.com/shimgegeorgia/",
    "rating_text": "5,0",
    "stars": null,
    "number_of_reviews": null,
    "price_level": "",
    "open_hours": "",
    "extraction_timestamp": "2025-06-07T15:14:56.978Z",
    "source_name": "google",
    "source_query": "Irrigation Equipment",
    "source_country": "GE",
    "country": "Georgia",
    "state": "Kvemo Kartli",
    "city": "Didi Lilo"
  },
  {
    "source_id": "ChIJa_e9WgBtREAR4uEZ4KOYLB4",
    "name": "LCC Water Technologies",
    "category": "LCC Water Technologies",
    "formatted_address": "5,0(1)",
    "phone_number": "+995595890770",
    "source_url": "https://www.google.com/maps/place/LCC+Water+Technologies/data=!4m7!3m6!1s0x40446d005abdf76b:0x1e2c98a3e019e1e2!8m2!3d41.7641193!4d44.78055!16s%2Fg%2F11lcgsvg8v!19sChIJa_e9WgBtREAR4uEZ4KOYLB4?authuser=0&hl=tr&rclk=1",
    "website_url": "http://www.water-tech.ge/",
    "rating_text": "5,0",
    "stars": null,
    "number_of_reviews": null,
    "price_level": "",
    "open_hours": "",
    "extraction_timestamp": "2025-06-07T15:14:56.979Z",
    "source_name": "google",
    "source_query": "Irrigation Equipment",
    "source_country": "GE",
    "country": "Georgia",
    "state": "Kvemo Kartli",
    "city": "Didi Lilo"
  },
  {
    "source_id": "ChIJaWTbpWIPREAR45JMg8eqmOk",
    "name": "Turko",
    "category": "Turko",
    "formatted_address": "4,8(15)",
    "phone_number": "+995551648800",
    "source_url": "https://www.google.com/maps/place/Turko/data=!4m7!3m6!1s0x40440f62a5db6469:0xe998aac7834c92e3!8m2!3d41.6687209!4d44.8845735!16s%2Fg%2F11h6r1cvf1!19sChIJaWTbpWIPREAR45JMg8eqmOk?authuser=0&hl=tr&rclk=1",
    "website_url": "http://www.turko.ge/",
    "rating_text": "4,8",
    "stars": null,
    "number_of_reviews": null,
    "price_level": "",
    "open_hours": "",
    "extraction_timestamp": "2025-06-07T15:14:56.979Z",
    "source_name": "google",
    "source_query": "Irrigation Equipment",
    "source_country": "GE",
    "country": "Georgia",
    "state": "Kvemo Kartli",
    "city": "Didi Lilo"
  },
  {
    "source_id": "ChIJgWMjlHIOREAR3EkifjlPjv0",
    "name": "Gardi",
    "category": "Gardi",
    "formatted_address": "5,0(4)",
    "phone_number": "+995322424600",
    "source_url": "https://www.google.com/maps/place/Gardi/data=!4m7!3m6!1s0x40440e7294236381:0xfd8e4f397e2249dc!8m2!3d41.6960247!4d44.9519235!16s%2Fg%2F11dyb9qvhw!19sChIJgWMjlHIOREAR3EkifjlPjv0?authuser=0&hl=tr&rclk=1",
    "website_url": "http://www.gardis.ge/",
    "rating_text": "5,0",
    "stars": null,
    "number_of_reviews": null,
    "price_level": "",
    "open_hours": "",
    "extraction_timestamp": "2025-06-07T15:14:56.990Z",
    "source_name": "google",
    "source_query": "Irrigation Equipment",
    "source_country": "GE",
    "country": "Georgia",
    "state": "Kvemo Kartli",
    "city": "Didi Lilo"
  },
  {
    "source_id": "ChIJSa9TvLsRREARdKVcNqF3v1I",
    "name": "HydroLine - ჰიდროლაინი",
    "category": "HydroLine - ჰიდროლაინი",
    "formatted_address": "Sulama Ekipmanları Tedarikçisi · ლოჭინის ხიდის მიმდებარედ, Kakheti HwyKapalı ⋅ Açılış zamanı: Pzt 09:30 · +995 595 39 00 06",
    "phone_number": "+995595390006",
    "source_url": "https://www.google.com/maps/place/HydroLine+-+%E1%83%B0%E1%83%98%E1%83%93%E1%83%A0%E1%83%9D%E1%83%9A%E1%83%90%E1%83%98%E1%83%9C%E1%83%98/data=!4m7!3m6!1s0x404411bbbc53af49:0x52bf77a1365ca574!8m2!3d41.6894486!4d45.0112949!16s%2Fg%2F11x2srbq32!19sChIJSa9TvLsRREARdKVcNqF3v1I?authuser=0&hl=tr&rclk=1",
    "website_url": "https://www.hydroline.ge/",
    "rating_text": "",
    "stars": null,
    "number_of_reviews": null,
    "price_level": "",
    "open_hours": "",
    "extraction_timestamp": "2025-06-07T15:14:56.991Z",
    "source_name": "google",
    "source_query": "Irrigation Equipment",
    "source_country": "GE",
    "country": "Georgia",
    "state": "Kvemo Kartli",
    "city": "Didi Lilo"
  },
  {
    "source_id": "ChIJb6M3SFVzREARlHBJkz3apvc",
    "name": "Agrow",
    "category": "Agrow",
    "formatted_address": "5,0(4)",
    "phone_number": "+995558797722",
    "source_url": "https://www.google.com/maps/place/Agrow/data=!4m7!3m6!1s0x404473554837a36f:0xf7a6da3d93497094!8m2!3d41.7332144!4d44.7892222!16s%2Fg%2F11qb3j0ry8!19sChIJb6M3SFVzREARlHBJkz3apvc?authuser=0&hl=tr&rclk=1",
    "website_url": "http://agrow.ge/",
    "rating_text": "5,0",
    "stars": null,
    "number_of_reviews": null,
    "price_level": "",
    "open_hours": "",
    "extraction_timestamp": "2025-06-07T15:14:56.991Z",
    "source_name": "google",
    "source_query": "Irrigation Equipment",
    "source_country": "GE",
    "country": "Georgia",
    "state": "Kvemo Kartli",
    "city": "Didi Lilo"
  },
  {
    "source_id": "ChIJ56VKvQgRREARe92l7yL2aY4",
    "name": "GARDI SYSTEMS",
    "category": "GARDI SYSTEMS",
    "formatted_address": "",
    "phone_number": "+995322424600",
    "source_url": "https://www.google.com/maps/place/GARDI+SYSTEMS/data=!4m7!3m6!1s0x40441108bd4aa5e7:0x8e69f622efa5dd7b!8m2!3d41.6922508!4d44.9824749!16s%2Fg%2F11trj9cyth!19sChIJ56VKvQgRREARe92l7yL2aY4?authuser=0&hl=tr&rclk=1",
    "website_url": "http://gardis.ge/",
    "rating_text": "",
    "stars": null,
    "number_of_reviews": null,
    "price_level": "",
    "open_hours": "",
    "extraction_timestamp": "2025-06-07T15:14:56.992Z",
    "source_name": "google",
    "source_query": "Irrigation Equipment",
    "source_country": "GE",
    "country": "Georgia",
    "state": "Kvemo Kartli",
    "city": "Didi Lilo"
  },
  {
    "source_id": "ChIJPxeCtdpzREARAqxYNKKp5HI",
    "name": "შპს ტუმბო Tumbo LLC",
    "category": "შპს ტუმბო Tumbo LLC",
    "formatted_address": "4,8(14)",
    "phone_number": "+995322437437",
    "source_url": "https://www.google.com/maps/place/%E1%83%A8%E1%83%9E%E1%83%A1+%E1%83%A2%E1%83%A3%E1%83%9B%E1%83%91%E1%83%9D+Tumbo+LLC/data=!4m7!3m6!1s0x404473dab582173f:0x72e4a9a23458ac02!8m2!3d41.7593013!4d44.7804116!16s%2Fg%2F11kyw_h2b_!19sChIJPxeCtdpzREARAqxYNKKp5HI?authuser=0&hl=tr&rclk=1",
    "website_url": "http://www.tumbo.ge/",
    "rating_text": "4,8",
    "stars": null,
    "number_of_reviews": null,
    "price_level": "",
    "open_hours": "",
    "extraction_timestamp": "2025-06-07T15:14:56.993Z",
    "source_name": "google",
    "source_query": "Irrigation Equipment",
    "source_country": "GE",
    "country": "Georgia",
    "state": "Kvemo Kartli",
    "city": "Didi Lilo"
  },
  {
    "source_id": "ChIJ59vwKJF0REARPlC4SbtpDVY",
    "name": "Netafim",
    "category": "Netafim",
    "formatted_address": "Sulama Ekipmanları Tedarikçisi · 23 Lado Asatiani St+995 32 298 31 22",
    "phone_number": "+995322983122",
    "source_url": "https://www.google.com/maps/place/Netafim/data=!4m7!3m6!1s0x4044749128f0dbe7:0x560d69bb49b8503e!8m2!3d41.6892018!4d44.8017637!16s%2Fg%2F11hf047rr1!19sChIJ59vwKJF0REARPlC4SbtpDVY?authuser=0&hl=tr&rclk=1",
    "website_url": "",
    "rating_text": "",
    "stars": null,
    "number_of_reviews": null,
    "price_level": "",
    "open_hours": "",
    "extraction_timestamp": "2025-06-07T15:14:56.993Z",
    "source_name": "google",
    "source_query": "Irrigation Equipment",
    "source_country": "GE",
    "country": "Georgia",
    "state": "Kvemo Kartli",
    "city": "Didi Lilo"
  }
]
