[
  {
    "source_id": "ChIJ_____876Q0ARTxjlGXLPOAk",
    "name": "SPS AGROPLAST",
    "category": "SPS AGROPLAST",
    "formatted_address": "5,0(1)",
    "phone_number": "+995514111119",
    "source_url": "https://www.google.com/maps/place/SPS+AGROPLAST/data=!4m7!3m6!1s0x4043faceffffffff:0x938cf7219e5184f!8m2!3d41.4686607!4d44.6937383!16s%2Fg%2F11f524wch5!19sChIJ_____876Q0ARTxjlGXLPOAk?authuser=0&hl=tr&rclk=1",
    "website_url": "",
    "rating_text": "5,0",
    "stars": null,
    "number_of_reviews": null,
    "price_level": "",
    "open_hours": "",
    "extraction_timestamp": "2025-06-07T15:16:28.517Z",
    "source_name": "google",
    "source_query": "Irrigation Equipment",
    "source_country": "GE",
    "country": "Georgia",
    "state": "Kvemo Kartli",
    "city": "Dmanisis Munitsip’alit’et’i"
  },
  {
    "source_id": "ChIJN1jw2ovDQ0ARULg9AzU5cXg",
    "name": "Magniti",
    "category": "Magniti",
    "formatted_address": "4,7(18)",
    "phone_number": "",
    "source_url": "https://www.google.com/maps/place/Magniti/data=!4m7!3m6!1s0x4043c38bdaf05837:0x78713935033db850!8m2!3d41.3854831!4d44.4160898!16s%2Fg%2F11fsk07738!19sChIJN1jw2ovDQ0ARULg9AzU5cXg?authuser=0&hl=tr&rclk=1",
    "website_url": "",
    "rating_text": "4,7",
    "stars": null,
    "number_of_reviews": null,
    "price_level": "",
    "open_hours": "",
    "extraction_timestamp": "2025-06-07T15:16:28.532Z",
    "source_name": "google",
    "source_query": "Irrigation Equipment",
    "source_country": "GE",
    "country": "Georgia",
    "state": "Kvemo Kartli",
    "city": "Dmanisis Munitsip’alit’et’i"
  },
  {
    "source_id": "ChIJaWSqSj_PQ0ARy9UV10mtF4U",
    "name": "Spar Market",
    "category": "Spar Market",
    "formatted_address": "4,5(19)",
    "phone_number": "",
    "source_url": "https://www.google.com/maps/place/Spar+Market/data=!4m7!3m6!1s0x4043cf3f4aaa6469:0x8517ad49d715d5cb!8m2!3d41.3310908!4d44.2053496!16s%2Fg%2F11rplcclwl!19sChIJaWSqSj_PQ0ARy9UV10mtF4U?authuser=0&hl=tr&rclk=1",
    "website_url": "http://spar.com/",
    "rating_text": "4,5",
    "stars": null,
    "number_of_reviews": null,
    "price_level": "",
    "open_hours": "",
    "extraction_timestamp": "2025-06-07T15:16:28.532Z",
    "source_name": "google",
    "source_query": "Irrigation Equipment",
    "source_country": "GE",
    "country": "Georgia",
    "state": "Kvemo Kartli",
    "city": "Dmanisis Munitsip’alit’et’i"
  },
  {
    "source_id": "ChIJk9JrDLbDQ0ARcAnKkvno2MU",
    "name": "Spar",
    "category": "Spar",
    "formatted_address": "4,5(15)",
    "phone_number": "+995322302030",
    "source_url": "https://www.google.com/maps/place/Spar/data=!4m7!3m6!1s0x4043c3b60c6bd293:0xc5d8e8f992ca0970!8m2!3d41.3871289!4d44.4188567!16s%2Fg%2F11rvg4n_mn!19sChIJk9JrDLbDQ0ARcAnKkvno2MU?authuser=0&hl=tr&rclk=1",
    "website_url": "http://www.spargeorgia.com/",
    "rating_text": "4,5",
    "stars": null,
    "number_of_reviews": null,
    "price_level": "",
    "open_hours": "",
    "extraction_timestamp": "2025-06-07T15:16:28.532Z",
    "source_name": "google",
    "source_query": "Irrigation Equipment",
    "source_country": "GE",
    "country": "Georgia",
    "state": "Kvemo Kartli",
    "city": "Dmanisis Munitsip’alit’et’i"
  },
  {
    "source_id": "ChIJb6M3SFVzREARlHBJkz3apvc",
    "name": "Agrow",
    "category": "Agrow",
    "formatted_address": "5,0(4)",
    "phone_number": "+995558797722",
    "source_url": "https://www.google.com/maps/place/Agrow/data=!4m7!3m6!1s0x404473554837a36f:0xf7a6da3d93497094!8m2!3d41.7332144!4d44.7892222!16s%2Fg%2F11qb3j0ry8!19sChIJb6M3SFVzREARlHBJkz3apvc?authuser=0&hl=tr&rclk=1",
    "website_url": "http://agrow.ge/",
    "rating_text": "5,0",
    "stars": null,
    "number_of_reviews": null,
    "price_level": "",
    "open_hours": "",
    "extraction_timestamp": "2025-06-07T15:16:28.533Z",
    "source_name": "google",
    "source_query": "Irrigation Equipment",
    "source_country": "GE",
    "country": "Georgia",
    "state": "Kvemo Kartli",
    "city": "Dmanisis Munitsip’alit’et’i"
  },
  {
    "source_id": "ChIJX6FK56QRREARYN8v2gebtWE",
    "name": "Shimge Water Pump Georgia",
    "category": "Shimge Water Pump Georgia",
    "formatted_address": "5,0(1)",
    "phone_number": "+995595797104",
    "source_url": "https://www.google.com/maps/place/Shimge+Water+Pump+Georgia/data=!4m7!3m6!1s0x404411a4e74aa15f:0x61b59b07da2fdf60!8m2!3d41.693303!4d45.0003375!16s%2Fg%2F11f7shlq75!19sChIJX6FK56QRREARYN8v2gebtWE?authuser=0&hl=tr&rclk=1",
    "website_url": "http://facebook.com/shimgegeorgia/",
    "rating_text": "5,0",
    "stars": null,
    "number_of_reviews": null,
    "price_level": "",
    "open_hours": "",
    "extraction_timestamp": "2025-06-07T15:16:28.533Z",
    "source_name": "google",
    "source_query": "Irrigation Equipment",
    "source_country": "GE",
    "country": "Georgia",
    "state": "Kvemo Kartli",
    "city": "Dmanisis Munitsip’alit’et’i"
  },
  {
    "source_id": "ChIJ59vwKJF0REARPlC4SbtpDVY",
    "name": "Netafim",
    "category": "Netafim",
    "formatted_address": "Sulama Ekipmanları Tedarikçisi · 23 Lado Asatiani St+995 32 298 31 22",
    "phone_number": "+995322983122",
    "source_url": "https://www.google.com/maps/place/Netafim/data=!4m7!3m6!1s0x4044749128f0dbe7:0x560d69bb49b8503e!8m2!3d41.6892018!4d44.8017637!16s%2Fg%2F11hf047rr1!19sChIJ59vwKJF0REARPlC4SbtpDVY?authuser=0&hl=tr&rclk=1",
    "website_url": "",
    "rating_text": "",
    "stars": null,
    "number_of_reviews": null,
    "price_level": "",
    "open_hours": "",
    "extraction_timestamp": "2025-06-07T15:16:28.533Z",
    "source_name": "google",
    "source_query": "Irrigation Equipment",
    "source_country": "GE",
    "country": "Georgia",
    "state": "Kvemo Kartli",
    "city": "Dmanisis Munitsip’alit’et’i"
  }
]
