[
  {
    "source_id": "ChIJ_____876Q0ARTxjlGXLPOAk",
    "name": "SPS AGROPLAST",
    "category": "SPS AGROPLAST",
    "formatted_address": "5,0(1)",
    "phone_number": "+995514111119",
    "source_url": "https://www.google.com/maps/place/SPS+AGROPLAST/data=!4m7!3m6!1s0x4043faceffffffff:0x938cf7219e5184f!8m2!3d41.4686607!4d44.6937383!16s%2Fg%2F11f524wch5!19sChIJ_____876Q0ARTxjlGXLPOAk?authuser=0&hl=tr&rclk=1",
    "website_url": "",
    "rating_text": "5,0",
    "stars": null,
    "number_of_reviews": null,
    "price_level": "",
    "open_hours": "",
    "extraction_timestamp": "2025-06-07T15:16:00.784Z",
    "source_name": "google",
    "source_query": "Irrigation Equipment",
    "source_country": "GE",
    "country": "Georgia",
    "state": "Kvemo Kartli",
    "city": "Gardabani"
  },
  {
    "source_id": "ChIJaWTbpWIPREAR45JMg8eqmOk",
    "name": "Turko",
    "category": "Turko",
    "formatted_address": "4,8(15)",
    "phone_number": "+995551648800",
    "source_url": "https://www.google.com/maps/place/Turko/data=!4m7!3m6!1s0x40440f62a5db6469:0xe998aac7834c92e3!8m2!3d41.6687209!4d44.8845735!16s%2Fg%2F11h6r1cvf1!19sChIJaWTbpWIPREAR45JMg8eqmOk?authuser=0&hl=tr&rclk=1",
    "website_url": "http://www.turko.ge/",
    "rating_text": "4,8",
    "stars": null,
    "number_of_reviews": null,
    "price_level": "",
    "open_hours": "",
    "extraction_timestamp": "2025-06-07T15:16:00.785Z",
    "source_name": "google",
    "source_query": "Irrigation Equipment",
    "source_country": "GE",
    "country": "Georgia",
    "state": "Kvemo Kartli",
    "city": "Gardabani"
  },
  {
    "source_id": "ChIJa_e9WgBtREAR4uEZ4KOYLB4",
    "name": "LCC Water Technologies",
    "category": "LCC Water Technologies",
    "formatted_address": "5,0(1)",
    "phone_number": "+995595890770",
    "source_url": "https://www.google.com/maps/place/LCC+Water+Technologies/data=!4m7!3m6!1s0x40446d005abdf76b:0x1e2c98a3e019e1e2!8m2!3d41.7641193!4d44.78055!16s%2Fg%2F11lcgsvg8v!19sChIJa_e9WgBtREAR4uEZ4KOYLB4?authuser=0&hl=tr&rclk=1",
    "website_url": "http://www.water-tech.ge/",
    "rating_text": "5,0",
    "stars": null,
    "number_of_reviews": null,
    "price_level": "",
    "open_hours": "",
    "extraction_timestamp": "2025-06-07T15:16:00.786Z",
    "source_name": "google",
    "source_query": "Irrigation Equipment",
    "source_country": "GE",
    "country": "Georgia",
    "state": "Kvemo Kartli",
    "city": "Gardabani"
  },
  {
    "source_id": "ChIJYSRXs4MJREAR58-5dUMvUpk",
    "name": "Agromarket",
    "category": "Agromarket",
    "formatted_address": "5,0(1)",
    "phone_number": "+995593211211",
    "source_url": "https://www.google.com/maps/place/Agromarket/data=!4m7!3m6!1s0x40440983b3572461:0x99522f4375b9cfe7!8m2!3d41.591999!4d44.7799375!16s%2Fg%2F11rfb0jr6k!19sChIJYSRXs4MJREAR58-5dUMvUpk?authuser=0&hl=tr&rclk=1",
    "website_url": "http://www.tarsa.ge/",
    "rating_text": "5,0",
    "stars": null,
    "number_of_reviews": null,
    "price_level": "",
    "open_hours": "",
    "extraction_timestamp": "2025-06-07T15:16:00.787Z",
    "source_name": "google",
    "source_query": "Irrigation Equipment",
    "source_country": "GE",
    "country": "Georgia",
    "state": "Kvemo Kartli",
    "city": "Gardabani"
  },
  {
    "source_id": "ChIJgVyvBBgNREARfeNzdmg1bSY",
    "name": "Proagro LLC, Georgia",
    "category": "Proagro LLC, Georgia",
    "formatted_address": "Proagro LLC, Georgia",
    "phone_number": "+995599991151",
    "source_url": "https://www.google.com/maps/place/Proagro+LLC,+Georgia/data=!4m7!3m6!1s0x40440d1804af5c81:0x266d35687673e37d!8m2!3d41.712974!4d44.7477435!16s%2Fg%2F11jyyybt_h!19sChIJgVyvBBgNREARfeNzdmg1bSY?authuser=0&hl=tr&rclk=1",
    "website_url": "http://www.proagro.online/",
    "rating_text": "3,7",
    "stars": null,
    "number_of_reviews": null,
    "price_level": "",
    "open_hours": "",
    "extraction_timestamp": "2025-06-07T15:16:00.788Z",
    "source_name": "google",
    "source_query": "Irrigation Equipment",
    "source_country": "GE",
    "country": "Georgia",
    "state": "Kvemo Kartli",
    "city": "Gardabani"
  },
  {
    "source_id": "ChIJAQCwmDdzREARRhOqXPR7VAg",
    "name": "გრინ სოლუშენს",
    "category": "გრინ სოლუშენს",
    "formatted_address": "5,0(4)",
    "phone_number": "+995570101015",
    "source_url": "https://www.google.com/maps/place/%E1%83%92%E1%83%A0%E1%83%98%E1%83%9C+%E1%83%A1%E1%83%9D%E1%83%9A%E1%83%A3%E1%83%A8%E1%83%94%E1%83%9C%E1%83%A1/data=!4m7!3m6!1s0x4044733798b00001:0x8547bf45caa1346!8m2!3d41.7076191!4d44.7651735!16s%2Fg%2F11j48hgb5s!19sChIJAQCwmDdzREARRhOqXPR7VAg?authuser=0&hl=tr&rclk=1",
    "website_url": "http://www.green.com.ge/",
    "rating_text": "5,0",
    "stars": null,
    "number_of_reviews": null,
    "price_level": "",
    "open_hours": "",
    "extraction_timestamp": "2025-06-07T15:16:00.790Z",
    "source_name": "google",
    "source_query": "Irrigation Equipment",
    "source_country": "GE",
    "country": "Georgia",
    "state": "Kvemo Kartli",
    "city": "Gardabani"
  },
  {
    "source_id": "ChIJGRBcQYurRkARP6T2G_CQuFM",
    "name": "Mini Market",
    "category": "Mini Market",
    "formatted_address": "4,4(22)",
    "phone_number": "",
    "source_url": "https://www.google.com/maps/place/Mini+Market/data=!4m7!3m6!1s0x4046ab8b415c1019:0x53b890f01bf6a43f!8m2!3d41.457863!4d45.0996847!16s%2Fg%2F11jqczc1nm!19sChIJGRBcQYurRkARP6T2G_CQuFM?authuser=0&hl=tr&rclk=1",
    "website_url": "",
    "rating_text": "4,4",
    "stars": null,
    "number_of_reviews": null,
    "price_level": "",
    "open_hours": "",
    "extraction_timestamp": "2025-06-07T15:16:00.791Z",
    "source_name": "google",
    "source_query": "Irrigation Equipment",
    "source_country": "GE",
    "country": "Georgia",
    "state": "Kvemo Kartli",
    "city": "Gardabani"
  },
  {
    "source_id": "ChIJb6M3SFVzREARlHBJkz3apvc",
    "name": "Agrow",
    "category": "Agrow",
    "formatted_address": "5,0(4)",
    "phone_number": "+995558797722",
    "source_url": "https://www.google.com/maps/place/Agrow/data=!4m7!3m6!1s0x404473554837a36f:0xf7a6da3d93497094!8m2!3d41.7332144!4d44.7892222!16s%2Fg%2F11qb3j0ry8!19sChIJb6M3SFVzREARlHBJkz3apvc?authuser=0&hl=tr&rclk=1",
    "website_url": "http://agrow.ge/",
    "rating_text": "5,0",
    "stars": null,
    "number_of_reviews": null,
    "price_level": "",
    "open_hours": "",
    "extraction_timestamp": "2025-06-07T15:16:00.792Z",
    "source_name": "google",
    "source_query": "Irrigation Equipment",
    "source_country": "GE",
    "country": "Georgia",
    "state": "Kvemo Kartli",
    "city": "Gardabani"
  },
  {
    "source_id": "ChIJVVVVVWqrRkARKFPFXU662DM",
    "name": "Gardabani WWTP",
    "category": "Gardabani WWTP",
    "formatted_address": "1,0(1)",
    "phone_number": "",
    "source_url": "https://www.google.com/maps/place/Gardabani+WWTP/data=!4m7!3m6!1s0x4046ab6a55555555:0x33d8ba4e5dc55328!8m2!3d41.4585031!4d45.0913484!16s%2Fg%2F11g9jjknxm!19sChIJVVVVVWqrRkARKFPFXU662DM?authuser=0&hl=tr&rclk=1",
    "website_url": "",
    "rating_text": "1,0",
    "stars": null,
    "number_of_reviews": null,
    "price_level": "",
    "open_hours": "",
    "extraction_timestamp": "2025-06-07T15:16:00.793Z",
    "source_name": "google",
    "source_query": "Irrigation Equipment",
    "source_country": "GE",
    "country": "Georgia",
    "state": "Kvemo Kartli",
    "city": "Gardabani"
  },
  {
    "source_id": "ChIJgWMjlHIOREAR3EkifjlPjv0",
    "name": "Gardi",
    "category": "Gardi",
    "formatted_address": "5,0(4)",
    "phone_number": "+995322424600",
    "source_url": "https://www.google.com/maps/place/Gardi/data=!4m7!3m6!1s0x40440e7294236381:0xfd8e4f397e2249dc!8m2!3d41.6960247!4d44.9519235!16s%2Fg%2F11dyb9qvhw!19sChIJgWMjlHIOREAR3EkifjlPjv0?authuser=0&hl=tr&rclk=1",
    "website_url": "http://www.gardis.ge/",
    "rating_text": "5,0",
    "stars": null,
    "number_of_reviews": null,
    "price_level": "",
    "open_hours": "",
    "extraction_timestamp": "2025-06-07T15:16:00.794Z",
    "source_name": "google",
    "source_query": "Irrigation Equipment",
    "source_country": "GE",
    "country": "Georgia",
    "state": "Kvemo Kartli",
    "city": "Gardabani"
  },
  {
    "source_id": "ChIJC1qssIyrRkARLoEwRvRyHj0",
    "name": "ROMAN MARKET",
    "category": "ROMAN MARKET",
    "formatted_address": "4,4(12)",
    "phone_number": "",
    "source_url": "https://www.google.com/maps/place/ROMAN+MARKET/data=!4m7!3m6!1s0x4046ab8cb0ac5a0b:0x3d1e72f44630812e!8m2!3d41.4452326!4d45.1005181!16s%2Fg%2F11t6n7gf8b!19sChIJC1qssIyrRkARLoEwRvRyHj0?authuser=0&hl=tr&rclk=1",
    "website_url": "",
    "rating_text": "4,4",
    "stars": null,
    "number_of_reviews": null,
    "price_level": "",
    "open_hours": "",
    "extraction_timestamp": "2025-06-07T15:16:00.795Z",
    "source_name": "google",
    "source_query": "Irrigation Equipment",
    "source_country": "GE",
    "country": "Georgia",
    "state": "Kvemo Kartli",
    "city": "Gardabani"
  },
  {
    "source_id": "ChIJSa9TvLsRREARdKVcNqF3v1I",
    "name": "HydroLine - ჰიდროლაინი",
    "category": "HydroLine - ჰიდროლაინი",
    "formatted_address": "Sulama Ekipmanları Tedarikçisi · ლოჭინის ხიდის მიმდებარედ, Kakheti HwyKapalı ⋅ Açılış zamanı: Pzt 09:30 · +995 595 39 00 06",
    "phone_number": "+995595390006",
    "source_url": "https://www.google.com/maps/place/HydroLine+-+%E1%83%B0%E1%83%98%E1%83%93%E1%83%A0%E1%83%9D%E1%83%9A%E1%83%90%E1%83%98%E1%83%9C%E1%83%98/data=!4m7!3m6!1s0x404411bbbc53af49:0x52bf77a1365ca574!8m2!3d41.6894486!4d45.0112949!16s%2Fg%2F11x2srbq32!19sChIJSa9TvLsRREARdKVcNqF3v1I?authuser=0&hl=tr&rclk=1",
    "website_url": "https://www.hydroline.ge/",
    "rating_text": "",
    "stars": null,
    "number_of_reviews": null,
    "price_level": "",
    "open_hours": "",
    "extraction_timestamp": "2025-06-07T15:16:00.796Z",
    "source_name": "google",
    "source_query": "Irrigation Equipment",
    "source_country": "GE",
    "country": "Georgia",
    "state": "Kvemo Kartli",
    "city": "Gardabani"
  },
  {
    "source_id": "ChIJuVjcD8QNREARhrY0aDm3YHY",
    "name": "გრადუსი•Gradusi",
    "category": "გრადუსი•Gradusi",
    "formatted_address": "5,0(16)",
    "phone_number": "+995593393938",
    "source_url": "https://www.google.com/maps/place/%E1%83%92%E1%83%A0%E1%83%90%E1%83%93%E1%83%A3%E1%83%A1%E1%83%98%E2%80%A2Gradusi/data=!4m7!3m6!1s0x40440dc40fdc58b9:0x7660b7396834b686!8m2!3d41.6876137!4d44.8703405!16s%2Fg%2F11ggvyjp8b!19sChIJuVjcD8QNREARhrY0aDm3YHY?authuser=0&hl=tr&rclk=1",
    "website_url": "http://gradusiheating.ge/",
    "rating_text": "5,0",
    "stars": null,
    "number_of_reviews": null,
    "price_level": "",
    "open_hours": "",
    "extraction_timestamp": "2025-06-07T15:16:00.797Z",
    "source_name": "google",
    "source_query": "Irrigation Equipment",
    "source_country": "GE",
    "country": "Georgia",
    "state": "Kvemo Kartli",
    "city": "Gardabani"
  },
  {
    "source_id": "ChIJlZlDYVSrRkARXBFQdZDykkU",
    "name": "ორი ნაბიჯი",
    "category": "ორი ნაბიჯი",
    "formatted_address": "3,2(6)",
    "phone_number": "",
    "source_url": "https://www.google.com/maps/place/%E1%83%9D%E1%83%A0%E1%83%98+%E1%83%9C%E1%83%90%E1%83%91%E1%83%98%E1%83%AF%E1%83%98/data=!4m7!3m6!1s0x4046ab5461439995:0x4592f2907550115c!8m2!3d41.4712228!4d45.0818966!16s%2Fg%2F11ll0r5gfq!19sChIJlZlDYVSrRkARXBFQdZDykkU?authuser=0&hl=tr&rclk=1",
    "website_url": "",
    "rating_text": "3,2",
    "stars": null,
    "number_of_reviews": null,
    "price_level": "",
    "open_hours": "",
    "extraction_timestamp": "2025-06-07T15:16:00.798Z",
    "source_name": "google",
    "source_query": "Irrigation Equipment",
    "source_country": "GE",
    "country": "Georgia",
    "state": "Kvemo Kartli",
    "city": "Gardabani"
  },
  {
    "source_id": "ChIJZ5MS-H6rRkAREhxpHI87_2k",
    "name": "Hereti",
    "category": "Hereti",
    "formatted_address": "4,5(110)",
    "phone_number": "",
    "source_url": "https://www.google.com/maps/place/Hereti/data=!4m7!3m6!1s0x4046ab7ef8129367:0x69ff3b8f1c691c12!8m2!3d41.4671653!4d45.087127!16s%2Fg%2F11mwkc9r44!19sChIJZ5MS-H6rRkAREhxpHI87_2k?authuser=0&hl=tr&rclk=1",
    "website_url": "",
    "rating_text": "4,5",
    "stars": null,
    "number_of_reviews": null,
    "price_level": "",
    "open_hours": "",
    "extraction_timestamp": "2025-06-07T15:16:00.799Z",
    "source_name": "google",
    "source_query": "Irrigation Equipment",
    "source_country": "GE",
    "country": "Georgia",
    "state": "Kvemo Kartli",
    "city": "Gardabani"
  },
  {
    "source_id": "ChIJ59vwKJF0REARPlC4SbtpDVY",
    "name": "Netafim",
    "category": "Netafim",
    "formatted_address": "Sulama Ekipmanları Tedarikçisi · 23 Lado Asatiani St+995 32 298 31 22",
    "phone_number": "+995322983122",
    "source_url": "https://www.google.com/maps/place/Netafim/data=!4m7!3m6!1s0x4044749128f0dbe7:0x560d69bb49b8503e!8m2!3d41.6892018!4d44.8017637!16s%2Fg%2F11hf047rr1!19sChIJ59vwKJF0REARPlC4SbtpDVY?authuser=0&hl=tr&rclk=1",
    "website_url": "",
    "rating_text": "",
    "stars": null,
    "number_of_reviews": null,
    "price_level": "",
    "open_hours": "",
    "extraction_timestamp": "2025-06-07T15:16:00.799Z",
    "source_name": "google",
    "source_query": "Irrigation Equipment",
    "source_country": "GE",
    "country": "Georgia",
    "state": "Kvemo Kartli",
    "city": "Gardabani"
  },
  {
    "source_id": "ChIJu4cVumyrRkARvMEbg-g1JTM",
    "name": "Agricultural marketplace of Gardabani",
    "category": "Agricultural marketplace of Gardabani",
    "formatted_address": "4,4(31)",
    "phone_number": "",
    "source_url": "https://www.google.com/maps/place/Agricultural+marketplace+of+Gardabani/data=!4m7!3m6!1s0x4046ab6cba1587bb:0x332535e8831bc1bc!8m2!3d41.4618137!4d45.0940195!16s%2Fg%2F11g9nfcjwt!19sChIJu4cVumyrRkARvMEbg-g1JTM?authuser=0&hl=tr&rclk=1",
    "website_url": "",
    "rating_text": "4,4",
    "stars": null,
    "number_of_reviews": null,
    "price_level": "",
    "open_hours": "",
    "extraction_timestamp": "2025-06-07T15:16:00.800Z",
    "source_name": "google",
    "source_query": "Irrigation Equipment",
    "source_country": "GE",
    "country": "Georgia",
    "state": "Kvemo Kartli",
    "city": "Gardabani"
  },
  {
    "source_id": "ChIJQ_hQrRurRkARNqVrMxiR9q8",
    "name": "Merve",
    "category": "Merve",
    "formatted_address": "4,4(20)",
    "phone_number": "",
    "source_url": "https://www.google.com/maps/place/Merve/data=!4m7!3m6!1s0x4046ab1bad50f843:0xaff69118336ba536!8m2!3d41.4660953!4d45.0873354!16s%2Fg%2F11tbvxtfzd!19sChIJQ_hQrRurRkARNqVrMxiR9q8?authuser=0&hl=tr&rclk=1",
    "website_url": "",
    "rating_text": "4,4",
    "stars": null,
    "number_of_reviews": null,
    "price_level": "",
    "open_hours": "",
    "extraction_timestamp": "2025-06-07T15:16:00.801Z",
    "source_name": "google",
    "source_query": "Irrigation Equipment",
    "source_country": "GE",
    "country": "Georgia",
    "state": "Kvemo Kartli",
    "city": "Gardabani"
  },
  {
    "source_id": "ChIJ-7vZ3ZsNREARiQshYbE455U",
    "name": "Agrotechno",
    "category": "Agrotechno",
    "formatted_address": "5,0(12)",
    "phone_number": "+995322721100",
    "source_url": "https://www.google.com/maps/place/Agrotechno/data=!4m7!3m6!1s0x40440d9bddd9bbfb:0x95e738b161210b89!8m2!3d41.6932134!4d44.9660218!16s%2Fg%2F11k2hx5vtc!19sChIJ-7vZ3ZsNREARiQshYbE455U?authuser=0&hl=tr&rclk=1",
    "website_url": "https://agrotechno.ge/",
    "rating_text": "5,0",
    "stars": null,
    "number_of_reviews": null,
    "price_level": "",
    "open_hours": "",
    "extraction_timestamp": "2025-06-07T15:16:00.801Z",
    "source_name": "google",
    "source_query": "Irrigation Equipment",
    "source_country": "GE",
    "country": "Georgia",
    "state": "Kvemo Kartli",
    "city": "Gardabani"
  }
]
