[
  {
    "source_id": "ChIJ_____876Q0ARTxjlGXLPOAk",
    "name": "SPS AGROPLAST",
    "category": "SPS AGROPLAST",
    "formatted_address": "5,0(1)",
    "phone_number": "+995514111119",
    "source_url": "https://www.google.com/maps/place/SPS+AGROPLAST/data=!4m7!3m6!1s0x4043faceffffffff:0x938cf7219e5184f!8m2!3d41.4686607!4d44.6937383!16s%2Fg%2F11f524wch5!19sChIJ_____876Q0ARTxjlGXLPOAk?authuser=0&hl=tr&rclk=1",
    "website_url": "",
    "rating_text": "5,0",
    "stars": null,
    "number_of_reviews": null,
    "price_level": "",
    "open_hours": "",
    "extraction_timestamp": "2025-06-07T15:17:34.164Z",
    "source_name": "google",
    "source_query": "Irrigation Equipment",
    "source_country": "GE",
    "country": "Georgia",
    "state": "Kvemo Kartli",
    "city": "Marneuli"
  },
  {
    "source_id": "ChIJt_lqdLX5Q0ARXM1Yu5VeQUs",
    "name": "Süleymanlı Agro Georgia",
    "category": "Süleymanlı Agro Georgia",
    "formatted_address": "5,0(1)",
    "phone_number": "+995558939031",
    "source_url": "https://www.google.com/maps/place/S%C3%BCleymanl%C4%B1+Agro+Georgia/data=!4m7!3m6!1s0x4043f9b5746af9b7:0x4b415e95bb58cd5c!8m2!3d41.5099122!4d44.7937043!16s%2Fg%2F11hz7fbhq4!19sChIJt_lqdLX5Q0ARXM1Yu5VeQUs?authuser=0&hl=tr&rclk=1",
    "website_url": "http://www.suleymanliagro.com/",
    "rating_text": "5,0",
    "stars": null,
    "number_of_reviews": null,
    "price_level": "",
    "open_hours": "",
    "extraction_timestamp": "2025-06-07T15:17:34.166Z",
    "source_name": "google",
    "source_query": "Irrigation Equipment",
    "source_country": "GE",
    "country": "Georgia",
    "state": "Kvemo Kartli",
    "city": "Marneuli"
  },
  {
    "source_id": "ChIJYSRXs4MJREAR58-5dUMvUpk",
    "name": "Agromarket",
    "category": "Agromarket",
    "formatted_address": "5,0(1)",
    "phone_number": "+995593211211",
    "source_url": "https://www.google.com/maps/place/Agromarket/data=!4m7!3m6!1s0x40440983b3572461:0x99522f4375b9cfe7!8m2!3d41.591999!4d44.7799375!16s%2Fg%2F11rfb0jr6k!19sChIJYSRXs4MJREAR58-5dUMvUpk?authuser=0&hl=tr&rclk=1",
    "website_url": "http://www.tarsa.ge/",
    "rating_text": "5,0",
    "stars": null,
    "number_of_reviews": null,
    "price_level": "",
    "open_hours": "",
    "extraction_timestamp": "2025-06-07T15:17:34.168Z",
    "source_name": "google",
    "source_query": "Irrigation Equipment",
    "source_country": "GE",
    "country": "Georgia",
    "state": "Kvemo Kartli",
    "city": "Marneuli"
  },
  {
    "source_id": "ChIJa_e9WgBtREAR4uEZ4KOYLB4",
    "name": "LCC Water Technologies",
    "category": "LCC Water Technologies",
    "formatted_address": "5,0(1)",
    "phone_number": "+995595890770",
    "source_url": "https://www.google.com/maps/place/LCC+Water+Technologies/data=!4m7!3m6!1s0x40446d005abdf76b:0x1e2c98a3e019e1e2!8m2!3d41.7641193!4d44.78055!16s%2Fg%2F11lcgsvg8v!19sChIJa_e9WgBtREAR4uEZ4KOYLB4?authuser=0&hl=tr&rclk=1",
    "website_url": "http://www.water-tech.ge/",
    "rating_text": "5,0",
    "stars": null,
    "number_of_reviews": null,
    "price_level": "",
    "open_hours": "",
    "extraction_timestamp": "2025-06-07T15:17:34.169Z",
    "source_name": "google",
    "source_query": "Irrigation Equipment",
    "source_country": "GE",
    "country": "Georgia",
    "state": "Kvemo Kartli",
    "city": "Marneuli"
  },
  {
    "source_id": "ChIJaWTbpWIPREAR45JMg8eqmOk",
    "name": "Turko",
    "category": "Turko",
    "formatted_address": "4,8(15)",
    "phone_number": "+995551648800",
    "source_url": "https://www.google.com/maps/place/Turko/data=!4m7!3m6!1s0x40440f62a5db6469:0xe998aac7834c92e3!8m2!3d41.6687209!4d44.8845735!16s%2Fg%2F11h6r1cvf1!19sChIJaWTbpWIPREAR45JMg8eqmOk?authuser=0&hl=tr&rclk=1",
    "website_url": "http://www.turko.ge/",
    "rating_text": "4,8",
    "stars": null,
    "number_of_reviews": null,
    "price_level": "",
    "open_hours": "",
    "extraction_timestamp": "2025-06-07T15:17:34.172Z",
    "source_name": "google",
    "source_query": "Irrigation Equipment",
    "source_country": "GE",
    "country": "Georgia",
    "state": "Kvemo Kartli",
    "city": "Marneuli"
  },
  {
    "source_id": "ChIJgVyvBBgNREARfeNzdmg1bSY",
    "name": "Proagro LLC, Georgia",
    "category": "Proagro LLC, Georgia",
    "formatted_address": "Proagro LLC, Georgia",
    "phone_number": "+995599991151",
    "source_url": "https://www.google.com/maps/place/Proagro+LLC,+Georgia/data=!4m7!3m6!1s0x40440d1804af5c81:0x266d35687673e37d!8m2!3d41.712974!4d44.7477435!16s%2Fg%2F11jyyybt_h!19sChIJgVyvBBgNREARfeNzdmg1bSY?authuser=0&hl=tr&rclk=1",
    "website_url": "http://www.proagro.online/",
    "rating_text": "3,7",
    "stars": null,
    "number_of_reviews": null,
    "price_level": "",
    "open_hours": "",
    "extraction_timestamp": "2025-06-07T15:17:34.174Z",
    "source_name": "google",
    "source_query": "Irrigation Equipment",
    "source_country": "GE",
    "country": "Georgia",
    "state": "Kvemo Kartli",
    "city": "Marneuli"
  },
  {
    "source_id": "ChIJWU7YjTD7Q0ARyOgzpvHbf8s",
    "name": "Alim Market",
    "category": "Alim Market",
    "formatted_address": "4,5(71)",
    "phone_number": "",
    "source_url": "https://www.google.com/maps/place/Alim+Market/data=!4m7!3m6!1s0x4043fb308dd84e59:0xcb7fdbf1a633e8c8!8m2!3d41.4796399!4d44.7750601!16s%2Fg%2F11hzpyd72_!19sChIJWU7YjTD7Q0ARyOgzpvHbf8s?authuser=0&hl=tr&rclk=1",
    "website_url": "",
    "rating_text": "4,5",
    "stars": null,
    "number_of_reviews": null,
    "price_level": "",
    "open_hours": "",
    "extraction_timestamp": "2025-06-07T15:17:34.174Z",
    "source_name": "google",
    "source_query": "Irrigation Equipment",
    "source_country": "GE",
    "country": "Georgia",
    "state": "Kvemo Kartli",
    "city": "Marneuli"
  },
  {
    "source_id": "ChIJAQCwmDdzREARRhOqXPR7VAg",
    "name": "გრინ სოლუშენს",
    "category": "გრინ სოლუშენს",
    "formatted_address": "5,0(4)",
    "phone_number": "+995570101015",
    "source_url": "https://www.google.com/maps/place/%E1%83%92%E1%83%A0%E1%83%98%E1%83%9C+%E1%83%A1%E1%83%9D%E1%83%9A%E1%83%A3%E1%83%A8%E1%83%94%E1%83%9C%E1%83%A1/data=!4m7!3m6!1s0x4044733798b00001:0x8547bf45caa1346!8m2!3d41.7076191!4d44.7651735!16s%2Fg%2F11j48hgb5s!19sChIJAQCwmDdzREARRhOqXPR7VAg?authuser=0&hl=tr&rclk=1",
    "website_url": "http://www.green.com.ge/",
    "rating_text": "5,0",
    "stars": null,
    "number_of_reviews": null,
    "price_level": "",
    "open_hours": "",
    "extraction_timestamp": "2025-06-07T15:17:34.175Z",
    "source_name": "google",
    "source_query": "Irrigation Equipment",
    "source_country": "GE",
    "country": "Georgia",
    "state": "Kvemo Kartli",
    "city": "Marneuli"
  },
  {
    "source_id": "ChIJm4xjc8j5Q0ARZqhAKRsyFl0",
    "name": "ნოვა • NOVA (მარნეული)",
    "category": "ნოვა • NOVA (მარნეული)",
    "formatted_address": "4,4(68)",
    "phone_number": "+995322003333",
    "source_url": "https://www.google.com/maps/place/%E1%83%9C%E1%83%9D%E1%83%95%E1%83%90+%E2%80%A2+NOVA+%28%E1%83%9B%E1%83%90%E1%83%A0%E1%83%9C%E1%83%94%E1%83%A3%E1%83%9A%E1%83%98%29/data=!4m7!3m6!1s0x4043f9c873638c9b:0x5d16321b2940a866!8m2!3d41.5079918!4d44.7949049!16s%2Fg%2F11t0q5prjk!19sChIJm4xjc8j5Q0ARZqhAKRsyFl0?authuser=0&hl=tr&rclk=1",
    "website_url": "http://www.nova.ge/",
    "rating_text": "4,4",
    "stars": null,
    "number_of_reviews": null,
    "price_level": "",
    "open_hours": "",
    "extraction_timestamp": "2025-06-07T15:17:34.182Z",
    "source_name": "google",
    "source_query": "Irrigation Equipment",
    "source_country": "GE",
    "country": "Georgia",
    "state": "Kvemo Kartli",
    "city": "Marneuli"
  },
  {
    "source_id": "ChIJX6FK56QRREARYN8v2gebtWE",
    "name": "Shimge Water Pump Georgia",
    "category": "Shimge Water Pump Georgia",
    "formatted_address": "5,0(1)",
    "phone_number": "+995595797104",
    "source_url": "https://www.google.com/maps/place/Shimge+Water+Pump+Georgia/data=!4m7!3m6!1s0x404411a4e74aa15f:0x61b59b07da2fdf60!8m2!3d41.693303!4d45.0003375!16s%2Fg%2F11f7shlq75!19sChIJX6FK56QRREARYN8v2gebtWE?authuser=0&hl=tr&rclk=1",
    "website_url": "http://facebook.com/shimgegeorgia/",
    "rating_text": "5,0",
    "stars": null,
    "number_of_reviews": null,
    "price_level": "",
    "open_hours": "",
    "extraction_timestamp": "2025-06-07T15:17:34.184Z",
    "source_name": "google",
    "source_query": "Irrigation Equipment",
    "source_country": "GE",
    "country": "Georgia",
    "state": "Kvemo Kartli",
    "city": "Marneuli"
  },
  {
    "source_id": "ChIJsbvgUGr9Q0ARpSXtCKrzKzA",
    "name": "GDM Motors LLC Marneuli",
    "category": "GDM Motors LLC Marneuli",
    "formatted_address": "4,8(21)",
    "phone_number": "+995595057017",
    "source_url": "https://www.google.com/maps/place/GDM+Motors+LLC+Marneuli/data=!4m7!3m6!1s0x4043fd6a50e0bbb1:0x302bf3aa08ed25a5!8m2!3d41.4605059!4d44.8108058!16s%2Fg%2F11fjt04nn7!19sChIJsbvgUGr9Q0ARpSXtCKrzKzA?authuser=0&hl=tr&rclk=1",
    "website_url": "https://www.facebook.com/GDMmotorsllc",
    "rating_text": "4,8",
    "stars": null,
    "number_of_reviews": null,
    "price_level": "",
    "open_hours": "",
    "extraction_timestamp": "2025-06-07T15:17:34.185Z",
    "source_name": "google",
    "source_query": "Irrigation Equipment",
    "source_country": "GE",
    "country": "Georgia",
    "state": "Kvemo Kartli",
    "city": "Marneuli"
  },
  {
    "source_id": "ChIJ2XFLKeX7Q0ARq8xpqeL3uO8",
    "name": "Marneuli Bazarı",
    "category": "Marneuli Bazarı",
    "formatted_address": "3,9(1.552)",
    "phone_number": "",
    "source_url": "https://www.google.com/maps/place/Marneuli+Bazar%C4%B1/data=!4m7!3m6!1s0x4043fbe5294b71d9:0xefb8f7e2a969ccab!8m2!3d41.4810319!4d44.8084738!16s%2Fg%2F11c6rrxgjb!19sChIJ2XFLKeX7Q0ARq8xpqeL3uO8?authuser=0&hl=tr&rclk=1",
    "website_url": "",
    "rating_text": "3,9",
    "stars": null,
    "number_of_reviews": null,
    "price_level": "",
    "open_hours": "",
    "extraction_timestamp": "2025-06-07T15:17:34.187Z",
    "source_name": "google",
    "source_query": "Irrigation Equipment",
    "source_country": "GE",
    "country": "Georgia",
    "state": "Kvemo Kartli",
    "city": "Marneuli"
  },
  {
    "source_id": "ChIJ85H7ekv9Q0ARkydMkivvuOQ",
    "name": "Sunar",
    "category": "Sunar",
    "formatted_address": "4,5(64)",
    "phone_number": "",
    "source_url": "https://www.google.com/maps/place/Sunar/data=!4m7!3m6!1s0x4043fd4b7afb91f3:0xe4b8ef2b924c2793!8m2!3d41.4540752!4d44.8121336!16s%2Fg%2F11h5vm0wfk!19sChIJ85H7ekv9Q0ARkydMkivvuOQ?authuser=0&hl=tr&rclk=1",
    "website_url": "",
    "rating_text": "4,5",
    "stars": null,
    "number_of_reviews": null,
    "price_level": "",
    "open_hours": "",
    "extraction_timestamp": "2025-06-07T15:17:34.188Z",
    "source_name": "google",
    "source_query": "Irrigation Equipment",
    "source_country": "GE",
    "country": "Georgia",
    "state": "Kvemo Kartli",
    "city": "Marneuli"
  },
  {
    "source_id": "ChIJb6M3SFVzREARlHBJkz3apvc",
    "name": "Agrow",
    "category": "Agrow",
    "formatted_address": "5,0(4)",
    "phone_number": "+995558797722",
    "source_url": "https://www.google.com/maps/place/Agrow/data=!4m7!3m6!1s0x404473554837a36f:0xf7a6da3d93497094!8m2!3d41.7332144!4d44.7892222!16s%2Fg%2F11qb3j0ry8!19sChIJb6M3SFVzREARlHBJkz3apvc?authuser=0&hl=tr&rclk=1",
    "website_url": "http://agrow.ge/",
    "rating_text": "5,0",
    "stars": null,
    "number_of_reviews": null,
    "price_level": "",
    "open_hours": "",
    "extraction_timestamp": "2025-06-07T15:17:34.189Z",
    "source_name": "google",
    "source_query": "Irrigation Equipment",
    "source_country": "GE",
    "country": "Georgia",
    "state": "Kvemo Kartli",
    "city": "Marneuli"
  },
  {
    "source_id": "ChIJiQelPmz7Q0ARjXXmwwLbeTU",
    "name": "Mm market",
    "category": "Mm market",
    "formatted_address": "4,8(30)",
    "phone_number": "",
    "source_url": "https://www.google.com/maps/place/Mm+market/data=!4m7!3m6!1s0x4043fb6c3ea50789:0x3579db02c3e6758d!8m2!3d41.4828193!4d44.7907042!16s%2Fg%2F11s57g7vxp!19sChIJiQelPmz7Q0ARjXXmwwLbeTU?authuser=0&hl=tr&rclk=1",
    "website_url": "",
    "rating_text": "4,8",
    "stars": null,
    "number_of_reviews": null,
    "price_level": "",
    "open_hours": "",
    "extraction_timestamp": "2025-06-07T15:17:34.190Z",
    "source_name": "google",
    "source_query": "Irrigation Equipment",
    "source_country": "GE",
    "country": "Georgia",
    "state": "Kvemo Kartli",
    "city": "Marneuli"
  },
  {
    "source_id": "ChIJ9cG9Mtb7Q0AR2vYky0YvbZA",
    "name": "Dükkan",
    "category": "Dükkan",
    "formatted_address": "4,9(8)",
    "phone_number": "+995599991088",
    "source_url": "https://www.google.com/maps/place/D%C3%BCkkan/data=!4m7!3m6!1s0x4043fbd632bdc1f5:0x906d2f46cb24f6da!8m2!3d41.4808237!4d44.7964026!16s%2Fg%2F11ff0wvxtp!19sChIJ9cG9Mtb7Q0AR2vYky0YvbZA?authuser=0&hl=tr&rclk=1",
    "website_url": "",
    "rating_text": "4,9",
    "stars": null,
    "number_of_reviews": null,
    "price_level": "",
    "open_hours": "",
    "extraction_timestamp": "2025-06-07T15:17:34.191Z",
    "source_name": "google",
    "source_query": "Irrigation Equipment",
    "source_country": "GE",
    "country": "Georgia",
    "state": "Kvemo Kartli",
    "city": "Marneuli"
  },
  {
    "source_id": "ChIJaxhWrBj7Q0ARNJv3ViYlL58",
    "name": "Kral",
    "category": "Kral",
    "formatted_address": "4,5(132)",
    "phone_number": "",
    "source_url": "https://www.google.com/maps/place/Kral/data=!4m7!3m6!1s0x4043fb18ac56186b:0x9f2f252656f79b34!8m2!3d41.4854767!4d44.7964327!16s%2Fg%2F11fm1x_gth!19sChIJaxhWrBj7Q0ARNJv3ViYlL58?authuser=0&hl=tr&rclk=1",
    "website_url": "",
    "rating_text": "4,5",
    "stars": null,
    "number_of_reviews": null,
    "price_level": "",
    "open_hours": "",
    "extraction_timestamp": "2025-06-07T15:17:34.191Z",
    "source_name": "google",
    "source_query": "Irrigation Equipment",
    "source_country": "GE",
    "country": "Georgia",
    "state": "Kvemo Kartli",
    "city": "Marneuli"
  },
  {
    "source_id": "ChIJDSUeBQD9Q0ARnYCare_tmdI",
    "name": "LTD JAFA",
    "category": "LTD JAFA",
    "formatted_address": "Mağaza · FR77+F6Q, Samet vurgun+995 599 98 92 99",
    "phone_number": "+995599989299",
    "source_url": "https://www.google.com/maps/place/LTD+JAFA/data=!4m7!3m6!1s0x4043fd00051e250d:0xd299edefad9a809d!8m2!3d41.4637453!4d44.8132062!16s%2Fg%2F11x6xp6bvs!19sChIJDSUeBQD9Q0ARnYCare_tmdI?authuser=0&hl=tr&rclk=1",
    "website_url": "",
    "rating_text": "",
    "stars": null,
    "number_of_reviews": null,
    "price_level": "",
    "open_hours": "",
    "extraction_timestamp": "2025-06-07T15:17:34.192Z",
    "source_name": "google",
    "source_query": "Irrigation Equipment",
    "source_country": "GE",
    "country": "Georgia",
    "state": "Kvemo Kartli",
    "city": "Marneuli"
  },
  {
    "source_id": "ChIJ1fTc_df9Q0ARMwdyhc1cIR8",
    "name": "IBSO Motor's",
    "category": "IBSO Motor's",
    "formatted_address": "5,0(8)",
    "phone_number": "",
    "source_url": "https://www.google.com/maps/place/IBSO+Motor%27s/data=!4m7!3m6!1s0x4043fdd7fddcf4d5:0x1f215ccd85720733!8m2!3d41.4592747!4d44.8096745!16s%2Fg%2F11ty2y7jh8!19sChIJ1fTc_df9Q0ARMwdyhc1cIR8?authuser=0&hl=tr&rclk=1",
    "website_url": "https://instagram.com/ibso_motors?igshid=MTIyMzRjYmRlZg==",
    "rating_text": "5,0",
    "stars": null,
    "number_of_reviews": null,
    "price_level": "",
    "open_hours": "",
    "extraction_timestamp": "2025-06-07T15:17:34.193Z",
    "source_name": "google",
    "source_query": "Irrigation Equipment",
    "source_country": "GE",
    "country": "Georgia",
    "state": "Kvemo Kartli",
    "city": "Marneuli"
  },
  {
    "source_id": "ChIJgWMjlHIOREAR3EkifjlPjv0",
    "name": "Gardi",
    "category": "Gardi",
    "formatted_address": "5,0(4)",
    "phone_number": "+995322424600",
    "source_url": "https://www.google.com/maps/place/Gardi/data=!4m7!3m6!1s0x40440e7294236381:0xfd8e4f397e2249dc!8m2!3d41.6960247!4d44.9519235!16s%2Fg%2F11dyb9qvhw!19sChIJgWMjlHIOREAR3EkifjlPjv0?authuser=0&hl=tr&rclk=1",
    "website_url": "http://www.gardis.ge/",
    "rating_text": "5,0",
    "stars": null,
    "number_of_reviews": null,
    "price_level": "",
    "open_hours": "",
    "extraction_timestamp": "2025-06-07T15:17:34.194Z",
    "source_name": "google",
    "source_query": "Irrigation Equipment",
    "source_country": "GE",
    "country": "Georgia",
    "state": "Kvemo Kartli",
    "city": "Marneuli"
  }
]
