[
  {
    "source_id": "ChIJtYusdn0BREARQJHnNkI7TwI",
    "name": "თერმოპანელი",
    "category": "თერმოპანელი",
    "formatted_address": "4,5(21)",
    "phone_number": "+995322209900",
    "source_url": "https://www.google.com/maps/place/%E1%83%97%E1%83%94%E1%83%A0%E1%83%9B%E1%83%9D%E1%83%9E%E1%83%90%E1%83%9C%E1%83%94%E1%83%9A%E1%83%98/data=!4m7!3m6!1s0x4044017d76ac8bb5:0x24f3b4236e79140!8m2!3d41.547613!4d45.0336769!16s%2Fg%2F11bw46ly6f!19sChIJtYusdn0BREARQJHnNkI7TwI?authuser=0&hl=tr&rclk=1",
    "website_url": "http://www.thermopanel.ge/",
    "rating_text": "4,5",
    "stars": null,
    "number_of_reviews": null,
    "price_level": "",
    "open_hours": "",
    "extraction_timestamp": "2025-06-07T15:16:11.245Z",
    "source_name": "google",
    "source_query": "Irrigation Equipment",
    "source_country": "GE",
    "country": "Georgia",
    "state": "Kvemo Kartli",
    "city": "Rust’avi"
  },
  {
    "source_id": "ChIJaWTbpWIPREAR45JMg8eqmOk",
    "name": "Turko",
    "category": "Turko",
    "formatted_address": "4,8(15)",
    "phone_number": "+995551648800",
    "source_url": "https://www.google.com/maps/place/Turko/data=!4m7!3m6!1s0x40440f62a5db6469:0xe998aac7834c92e3!8m2!3d41.6687209!4d44.8845735!16s%2Fg%2F11h6r1cvf1!19sChIJaWTbpWIPREAR45JMg8eqmOk?authuser=0&hl=tr&rclk=1",
    "website_url": "http://www.turko.ge/",
    "rating_text": "4,8",
    "stars": null,
    "number_of_reviews": null,
    "price_level": "",
    "open_hours": "",
    "extraction_timestamp": "2025-06-07T15:16:11.246Z",
    "source_name": "google",
    "source_query": "Irrigation Equipment",
    "source_country": "GE",
    "country": "Georgia",
    "state": "Kvemo Kartli",
    "city": "Rust’avi"
  },
  {
    "source_id": "ChIJ_____876Q0ARTxjlGXLPOAk",
    "name": "SPS AGROPLAST",
    "category": "SPS AGROPLAST",
    "formatted_address": "5,0(1)",
    "phone_number": "+995514111119",
    "source_url": "https://www.google.com/maps/place/SPS+AGROPLAST/data=!4m7!3m6!1s0x4043faceffffffff:0x938cf7219e5184f!8m2!3d41.4686607!4d44.6937383!16s%2Fg%2F11f524wch5!19sChIJ_____876Q0ARTxjlGXLPOAk?authuser=0&hl=tr&rclk=1",
    "website_url": "",
    "rating_text": "5,0",
    "stars": null,
    "number_of_reviews": null,
    "price_level": "",
    "open_hours": "",
    "extraction_timestamp": "2025-06-07T15:16:11.246Z",
    "source_name": "google",
    "source_query": "Irrigation Equipment",
    "source_country": "GE",
    "country": "Georgia",
    "state": "Kvemo Kartli",
    "city": "Rust’avi"
  },
  {
    "source_id": "ChIJgVyvBBgNREARfeNzdmg1bSY",
    "name": "Proagro LLC, Georgia",
    "category": "Proagro LLC, Georgia",
    "formatted_address": "Proagro LLC, Georgia",
    "phone_number": "+995599991151",
    "source_url": "https://www.google.com/maps/place/Proagro+LLC,+Georgia/data=!4m7!3m6!1s0x40440d1804af5c81:0x266d35687673e37d!8m2!3d41.712974!4d44.7477435!16s%2Fg%2F11jyyybt_h!19sChIJgVyvBBgNREARfeNzdmg1bSY?authuser=0&hl=tr&rclk=1",
    "website_url": "http://www.proagro.online/",
    "rating_text": "3,7",
    "stars": null,
    "number_of_reviews": null,
    "price_level": "",
    "open_hours": "",
    "extraction_timestamp": "2025-06-07T15:16:11.246Z",
    "source_name": "google",
    "source_query": "Irrigation Equipment",
    "source_country": "GE",
    "country": "Georgia",
    "state": "Kvemo Kartli",
    "city": "Rust’avi"
  },
  {
    "source_id": "ChIJa_e9WgBtREAR4uEZ4KOYLB4",
    "name": "LCC Water Technologies",
    "category": "LCC Water Technologies",
    "formatted_address": "5,0(1)",
    "phone_number": "+995595890770",
    "source_url": "https://www.google.com/maps/place/LCC+Water+Technologies/data=!4m7!3m6!1s0x40446d005abdf76b:0x1e2c98a3e019e1e2!8m2!3d41.7641193!4d44.78055!16s%2Fg%2F11lcgsvg8v!19sChIJa_e9WgBtREAR4uEZ4KOYLB4?authuser=0&hl=tr&rclk=1",
    "website_url": "http://www.water-tech.ge/",
    "rating_text": "5,0",
    "stars": null,
    "number_of_reviews": null,
    "price_level": "",
    "open_hours": "",
    "extraction_timestamp": "2025-06-07T15:16:11.247Z",
    "source_name": "google",
    "source_query": "Irrigation Equipment",
    "source_country": "GE",
    "country": "Georgia",
    "state": "Kvemo Kartli",
    "city": "Rust’avi"
  },
  {
    "source_id": "ChIJAQCwmDdzREARRhOqXPR7VAg",
    "name": "გრინ სოლუშენს",
    "category": "გრინ სოლუშენს",
    "formatted_address": "5,0(4)",
    "phone_number": "+995570101015",
    "source_url": "https://www.google.com/maps/place/%E1%83%92%E1%83%A0%E1%83%98%E1%83%9C+%E1%83%A1%E1%83%9D%E1%83%9A%E1%83%A3%E1%83%A8%E1%83%94%E1%83%9C%E1%83%A1/data=!4m7!3m6!1s0x4044733798b00001:0x8547bf45caa1346!8m2!3d41.7076191!4d44.7651735!16s%2Fg%2F11j48hgb5s!19sChIJAQCwmDdzREARRhOqXPR7VAg?authuser=0&hl=tr&rclk=1",
    "website_url": "http://www.green.com.ge/",
    "rating_text": "5,0",
    "stars": null,
    "number_of_reviews": null,
    "price_level": "",
    "open_hours": "",
    "extraction_timestamp": "2025-06-07T15:16:11.247Z",
    "source_name": "google",
    "source_query": "Irrigation Equipment",
    "source_country": "GE",
    "country": "Georgia",
    "state": "Kvemo Kartli",
    "city": "Rust’avi"
  },
  {
    "source_id": "ChIJb6M3SFVzREARlHBJkz3apvc",
    "name": "Agrow",
    "category": "Agrow",
    "formatted_address": "5,0(4)",
    "phone_number": "+995558797722",
    "source_url": "https://www.google.com/maps/place/Agrow/data=!4m7!3m6!1s0x404473554837a36f:0xf7a6da3d93497094!8m2!3d41.7332144!4d44.7892222!16s%2Fg%2F11qb3j0ry8!19sChIJb6M3SFVzREARlHBJkz3apvc?authuser=0&hl=tr&rclk=1",
    "website_url": "http://agrow.ge/",
    "rating_text": "5,0",
    "stars": null,
    "number_of_reviews": null,
    "price_level": "",
    "open_hours": "",
    "extraction_timestamp": "2025-06-07T15:16:11.248Z",
    "source_name": "google",
    "source_query": "Irrigation Equipment",
    "source_country": "GE",
    "country": "Georgia",
    "state": "Kvemo Kartli",
    "city": "Rust’avi"
  },
  {
    "source_id": "ChIJ7_9AGP8HREAReRWtN1vnq9w",
    "name": "MZE Supermarket",
    "category": "MZE Supermarket",
    "formatted_address": "4,6(19)",
    "phone_number": "+995596111163",
    "source_url": "https://www.google.com/maps/place/MZE+Supermarket/data=!4m7!3m6!1s0x404407ff1840ffef:0xdcabe75b37ad1579!8m2!3d41.5691439!4d44.982001!16s%2Fg%2F11n611f4qp!19sChIJ7_9AGP8HREAReRWtN1vnq9w?authuser=0&hl=tr&rclk=1",
    "website_url": "",
    "rating_text": "4,6",
    "stars": null,
    "number_of_reviews": null,
    "price_level": "",
    "open_hours": "",
    "extraction_timestamp": "2025-06-07T15:16:11.249Z",
    "source_name": "google",
    "source_query": "Irrigation Equipment",
    "source_country": "GE",
    "country": "Georgia",
    "state": "Kvemo Kartli",
    "city": "Rust’avi"
  },
  {
    "source_id": "ChIJC1zFSR4EREARes4lbbDnWcU",
    "name": "Madagoni",
    "category": "Madagoni",
    "formatted_address": "4,5(1.132)",
    "phone_number": "+995341228128",
    "source_url": "https://www.google.com/maps/place/Madagoni/data=!4m7!3m6!1s0x4044041e49c55c0b:0xc559e7b06d25ce7a!8m2!3d41.5751114!4d44.9830611!16s%2Fg%2F11c1s3mbzp!19sChIJC1zFSR4EREARes4lbbDnWcU?authuser=0&hl=tr&rclk=1",
    "website_url": "http://madagoni.ge/",
    "rating_text": "4,5",
    "stars": null,
    "number_of_reviews": null,
    "price_level": "",
    "open_hours": "",
    "extraction_timestamp": "2025-06-07T15:16:11.251Z",
    "source_name": "google",
    "source_query": "Irrigation Equipment",
    "source_country": "GE",
    "country": "Georgia",
    "state": "Kvemo Kartli",
    "city": "Rust’avi"
  },
  {
    "source_id": "ChIJx-tqFB0EREARQTZJ1HYCv48",
    "name": "auto service, სედ ავტო, oil change, brake pads ...",
    "category": "auto service, სედ ავტო, oil change, brake pads ...",
    "formatted_address": "auto service, სედ ავტო, oil change, brake pads ...",
    "phone_number": "+995551236373",
    "source_url": "https://www.google.com/maps/place/auto+service,+%E1%83%A1%E1%83%94%E1%83%93+%E1%83%90%E1%83%95%E1%83%A2%E1%83%9D,+oil+change,+brake+pads+.../data=!4m7!3m6!1s0x4044041d146aebc7:0x8fbf0276d4493641!8m2!3d41.5722837!4d44.9892412!16s%2Fg%2F11fxxydzrb!19sChIJx-tqFB0EREARQTZJ1HYCv48?authuser=0&hl=tr&rclk=1",
    "website_url": "https://www.facebook.com/RoadSide-204018043699416",
    "rating_text": "4,8",
    "stars": null,
    "number_of_reviews": null,
    "price_level": "",
    "open_hours": "",
    "extraction_timestamp": "2025-06-07T15:16:11.253Z",
    "source_name": "google",
    "source_query": "Irrigation Equipment",
    "source_country": "GE",
    "country": "Georgia",
    "state": "Kvemo Kartli",
    "city": "Rust’avi"
  },
  {
    "source_id": "ChIJn0I9iZABREARCBpNFrOLljI",
    "name": "DMG Auto",
    "category": "DMG Auto",
    "formatted_address": "5,0(12)",
    "phone_number": "+995571770550",
    "source_url": "https://www.google.com/maps/place/DMG+Auto/data=!4m7!3m6!1s0x40440190893d429f:0x32968bb3164d1a08!8m2!3d41.5490679!4d44.9922244!16s%2Fg%2F11y91tk9gz!19sChIJn0I9iZABREARCBpNFrOLljI?authuser=0&hl=tr&rclk=1",
    "website_url": "",
    "rating_text": "5,0",
    "stars": null,
    "number_of_reviews": null,
    "price_level": "",
    "open_hours": "",
    "extraction_timestamp": "2025-06-07T15:16:11.254Z",
    "source_name": "google",
    "source_query": "Irrigation Equipment",
    "source_country": "GE",
    "country": "Georgia",
    "state": "Kvemo Kartli",
    "city": "Rust’avi"
  },
  {
    "source_id": "ChIJMZEeTbkGREAR7uN1gUtfero",
    "name": "მცირე მეწარმე ინგული მჭედლიშვილი",
    "category": "მცირე მეწარმე ინგული მჭედლიშვილი",
    "formatted_address": "4,1(55)",
    "phone_number": "",
    "source_url": "https://www.google.com/maps/place/%E1%83%9B%E1%83%AA%E1%83%98%E1%83%A0%E1%83%94+%E1%83%9B%E1%83%94%E1%83%AC%E1%83%90%E1%83%A0%E1%83%9B%E1%83%94+%E1%83%98%E1%83%9C%E1%83%92%E1%83%A3%E1%83%9A%E1%83%98+%E1%83%9B%E1%83%AD%E1%83%94%E1%83%93%E1%83%9A%E1%83%98%E1%83%A8%E1%83%95%E1%83%98%E1%83%9A%E1%83%98/data=!4m7!3m6!1s0x404406b94d1e9131:0xba7a5f4b8175e3ee!8m2!3d41.5648376!4d44.9670081!16s%2Fg%2F11gdtkkhxn!19sChIJMZEeTbkGREAR7uN1gUtfero?authuser=0&hl=tr&rclk=1",
    "website_url": "",
    "rating_text": "4,1",
    "stars": null,
    "number_of_reviews": null,
    "price_level": "",
    "open_hours": "",
    "extraction_timestamp": "2025-06-07T15:16:11.254Z",
    "source_name": "google",
    "source_query": "Irrigation Equipment",
    "source_country": "GE",
    "country": "Georgia",
    "state": "Kvemo Kartli",
    "city": "Rust’avi"
  },
  {
    "source_id": "ChIJ59vwKJF0REARPlC4SbtpDVY",
    "name": "Netafim",
    "category": "Netafim",
    "formatted_address": "Sulama Ekipmanları Tedarikçisi · 23 Lado Asatiani St+995 32 298 31 22",
    "phone_number": "+995322983122",
    "source_url": "https://www.google.com/maps/place/Netafim/data=!4m7!3m6!1s0x4044749128f0dbe7:0x560d69bb49b8503e!8m2!3d41.6892018!4d44.8017637!16s%2Fg%2F11hf047rr1!19sChIJ59vwKJF0REARPlC4SbtpDVY?authuser=0&hl=tr&rclk=1",
    "website_url": "",
    "rating_text": "",
    "stars": null,
    "number_of_reviews": null,
    "price_level": "",
    "open_hours": "",
    "extraction_timestamp": "2025-06-07T15:16:11.255Z",
    "source_name": "google",
    "source_query": "Irrigation Equipment",
    "source_country": "GE",
    "country": "Georgia",
    "state": "Kvemo Kartli",
    "city": "Rust’avi"
  },
  {
    "source_id": "ChIJF9_bqaQHREAR9pf8MgKMHwA",
    "name": "Beer Market \"Beer Georgia\" Rustavi ლუდის მაღაზია \"ბიარ ჯორჯია\" რუსთავში",
    "category": "Beer Market \"Beer Georgia\" Rustavi ლუდის მაღაზია \"ბიარ ჯორჯია\" რუსთავში",
    "formatted_address": "5,0(24)",
    "phone_number": "+995568977668",
    "source_url": "https://www.google.com/maps/place/Beer+Market+%22Beer+Georgia%22+Rustavi+%E1%83%9A%E1%83%A3%E1%83%93%E1%83%98%E1%83%A1+%E1%83%9B%E1%83%90%E1%83%A6%E1%83%90%E1%83%96%E1%83%98%E1%83%90+%22%E1%83%91%E1%83%98%E1%83%90%E1%83%A0+%E1%83%AF%E1%83%9D%E1%83%A0%E1%83%AF%E1%83%98%E1%83%90%22+%E1%83%A0%E1%83%A3%E1%83%A1%E1%83%97%E1%83%90%E1%83%95%E1%83%A8%E1%83%98/data=!4m7!3m6!1s0x404407a4a9dbdf17:0x1f8c0232fc97f6!8m2!3d41.5690432!4d44.9642676!16s%2Fg%2F11t2877yqn!19sChIJF9_bqaQHREAR9pf8MgKMHwA?authuser=0&hl=tr&rclk=1",
    "website_url": "https://www.facebook.com/profile.php?id=100082695394268",
    "rating_text": "5,0",
    "stars": null,
    "number_of_reviews": null,
    "price_level": "",
    "open_hours": "",
    "extraction_timestamp": "2025-06-07T15:16:11.256Z",
    "source_name": "google",
    "source_query": "Irrigation Equipment",
    "source_country": "GE",
    "country": "Georgia",
    "state": "Kvemo Kartli",
    "city": "Rust’avi"
  },
  {
    "source_id": "ChIJO9MkRqEHREARsNE-i1sj-Wg",
    "name": "VIKO • ვიკო",
    "category": "VIKO • ვიკო",
    "formatted_address": "5,0(6)",
    "phone_number": "+995599691031",
    "source_url": "https://www.google.com/maps/place/VIKO+%E2%80%A2+%E1%83%95%E1%83%98%E1%83%99%E1%83%9D/data=!4m7!3m6!1s0x404407a14624d33b:0x68f9235b8b3ed1b0!8m2!3d41.5681848!4d44.9854132!16s%2Fg%2F11svg1bvzb!19sChIJO9MkRqEHREARsNE-i1sj-Wg?authuser=0&hl=tr&rclk=1",
    "website_url": "https://www.facebook.com/VIKO-VIKO-109497290801116",
    "rating_text": "5,0",
    "stars": null,
    "number_of_reviews": null,
    "price_level": "",
    "open_hours": "",
    "extraction_timestamp": "2025-06-07T15:16:11.257Z",
    "source_name": "google",
    "source_query": "Irrigation Equipment",
    "source_country": "GE",
    "country": "Georgia",
    "state": "Kvemo Kartli",
    "city": "Rust’avi"
  },
  {
    "source_id": "ChIJAQAAHKYGREARoSMmb6cYPqQ",
    "name": "სტამბული",
    "category": "სტამბული",
    "formatted_address": "4,4(159)",
    "phone_number": "",
    "source_url": "https://www.google.com/maps/place/%E1%83%A1%E1%83%A2%E1%83%90%E1%83%9B%E1%83%91%E1%83%A3%E1%83%9A%E1%83%98/data=!4m7!3m6!1s0x404406a61c000001:0xa43e18a76f2623a1!8m2!3d41.5686571!4d44.9845174!16s%2Fg%2F11txv22b7k!19sChIJAQAAHKYGREARoSMmb6cYPqQ?authuser=0&hl=tr&rclk=1",
    "website_url": "",
    "rating_text": "4,4",
    "stars": null,
    "number_of_reviews": null,
    "price_level": "",
    "open_hours": "",
    "extraction_timestamp": "2025-06-07T15:16:11.257Z",
    "source_name": "google",
    "source_query": "Irrigation Equipment",
    "source_country": "GE",
    "country": "Georgia",
    "state": "Kvemo Kartli",
    "city": "Rust’avi"
  },
  {
    "source_id": "ChIJy-a5HMADREARpBtlTAMqmho",
    "name": "Market",
    "category": "Market",
    "formatted_address": "4,5(33)",
    "phone_number": "",
    "source_url": "https://www.google.com/maps/place/Market/data=!4m7!3m6!1s0x404403c01cb9e6cb:0x1a9a2a034c651ba4!8m2!3d41.561329!4d45.0295619!16s%2Fg%2F1tkslvh4!19sChIJy-a5HMADREARpBtlTAMqmho?authuser=0&hl=tr&rclk=1",
    "website_url": "",
    "rating_text": "4,5",
    "stars": null,
    "number_of_reviews": null,
    "price_level": "",
    "open_hours": "",
    "extraction_timestamp": "2025-06-07T15:16:11.258Z",
    "source_name": "google",
    "source_query": "Irrigation Equipment",
    "source_country": "GE",
    "country": "Georgia",
    "state": "Kvemo Kartli",
    "city": "Rust’avi"
  },
  {
    "source_id": "ChIJf7kE03IBREARtTEHQSziscg",
    "name": "Madagoni",
    "category": "Madagoni",
    "formatted_address": "4,2(182)",
    "phone_number": "+995341280280",
    "source_url": "https://www.google.com/maps/place/Madagoni/data=!4m7!3m6!1s0x40440172d304b97f:0xc8b1e22c410731b5!8m2!3d41.5375613!4d45.0131036!16s%2Fg%2F11fy9fszfn!19sChIJf7kE03IBREARtTEHQSziscg?authuser=0&hl=tr&rclk=1",
    "website_url": "http://store.madagoni.ge/",
    "rating_text": "4,2",
    "stars": null,
    "number_of_reviews": null,
    "price_level": "",
    "open_hours": "",
    "extraction_timestamp": "2025-06-07T15:16:11.259Z",
    "source_name": "google",
    "source_query": "Irrigation Equipment",
    "source_country": "GE",
    "country": "Georgia",
    "state": "Kvemo Kartli",
    "city": "Rust’avi"
  },
  {
    "source_id": "ChIJy5A7p3cBREAR2z9OpCYo4X0",
    "name": "Ori Nabiji",
    "category": "Ori Nabiji",
    "formatted_address": "4,7(20)",
    "phone_number": "",
    "source_url": "https://www.google.com/maps/place/Ori+Nabiji/data=!4m7!3m6!1s0x40440177a73b90cb:0x7de12826a44e3fdb!8m2!3d41.5508811!4d45.0154987!16s%2Fg%2F11fl87bb5p!19sChIJy5A7p3cBREAR2z9OpCYo4X0?authuser=0&hl=tr&rclk=1",
    "website_url": "https://orinabiji.ge/",
    "rating_text": "4,7",
    "stars": null,
    "number_of_reviews": null,
    "price_level": "",
    "open_hours": "",
    "extraction_timestamp": "2025-06-07T15:16:11.260Z",
    "source_name": "google",
    "source_query": "Irrigation Equipment",
    "source_country": "GE",
    "country": "Georgia",
    "state": "Kvemo Kartli",
    "city": "Rust’avi"
  },
  {
    "source_id": "ChIJPxeCtdpzREARAqxYNKKp5HI",
    "name": "შპს ტუმბო Tumbo LLC",
    "category": "შპს ტუმბო Tumbo LLC",
    "formatted_address": "4,8(14)",
    "phone_number": "+995322437437",
    "source_url": "https://www.google.com/maps/place/%E1%83%A8%E1%83%9E%E1%83%A1+%E1%83%A2%E1%83%A3%E1%83%9B%E1%83%91%E1%83%9D+Tumbo+LLC/data=!4m7!3m6!1s0x404473dab582173f:0x72e4a9a23458ac02!8m2!3d41.7593013!4d44.7804116!16s%2Fg%2F11kyw_h2b_!19sChIJPxeCtdpzREARAqxYNKKp5HI?authuser=0&hl=tr&rclk=1",
    "website_url": "http://www.tumbo.ge/",
    "rating_text": "4,8",
    "stars": null,
    "number_of_reviews": null,
    "price_level": "",
    "open_hours": "",
    "extraction_timestamp": "2025-06-07T15:16:11.261Z",
    "source_name": "google",
    "source_query": "Irrigation Equipment",
    "source_country": "GE",
    "country": "Georgia",
    "state": "Kvemo Kartli",
    "city": "Rust’avi"
  },
  {
    "source_id": "ChIJ9yr8ZZgNREAROQwqWBj12lo",
    "name": "Supta.ge - \"სუფთა\" - ბიზნესის მომარაგების პლატფორმა",
    "category": "Supta.ge - \"სუფთა\" - ბიზნესის მომარაგების პლატფორმა",
    "formatted_address": "4,7(44)",
    "phone_number": "+995322110626",
    "source_url": "https://www.google.com/maps/place/Supta.ge+-+%22%E1%83%A1%E1%83%A3%E1%83%A4%E1%83%97%E1%83%90%22+-+%E1%83%91%E1%83%98%E1%83%96%E1%83%9C%E1%83%94%E1%83%A1%E1%83%98%E1%83%A1+%E1%83%9B%E1%83%9D%E1%83%9B%E1%83%90%E1%83%A0%E1%83%90%E1%83%92%E1%83%94%E1%83%91%E1%83%98%E1%83%A1+%E1%83%9E%E1%83%9A%E1%83%90%E1%83%A2%E1%83%A4%E1%83%9D%E1%83%A0%E1%83%9B%E1%83%90/data=!4m7!3m6!1s0x40440d9865fc2af7:0x5adaf518582a0c39!8m2!3d41.7182077!4d44.7939903!16s%2Fg%2F11jcbvnm1b!19sChIJ9yr8ZZgNREAROQwqWBj12lo?authuser=0&hl=tr&rclk=1",
    "website_url": "https://supta.ge/",
    "rating_text": "4,7",
    "stars": null,
    "number_of_reviews": null,
    "price_level": "",
    "open_hours": "",
    "extraction_timestamp": "2025-06-07T15:16:11.284Z",
    "source_name": "google",
    "source_query": "Irrigation Equipment",
    "source_country": "GE",
    "country": "Georgia",
    "state": "Kvemo Kartli",
    "city": "Rust’avi"
  },
  {
    "source_id": "ChIJ-7vZ3ZsNREARiQshYbE455U",
    "name": "Agrotechno",
    "category": "Agrotechno",
    "formatted_address": "5,0(12)",
    "phone_number": "+995322721100",
    "source_url": "https://www.google.com/maps/place/Agrotechno/data=!4m7!3m6!1s0x40440d9bddd9bbfb:0x95e738b161210b89!8m2!3d41.6932134!4d44.9660218!16s%2Fg%2F11k2hx5vtc!19sChIJ-7vZ3ZsNREARiQshYbE455U?authuser=0&hl=tr&rclk=1",
    "website_url": "https://agrotechno.ge/",
    "rating_text": "5,0",
    "stars": null,
    "number_of_reviews": null,
    "price_level": "",
    "open_hours": "",
    "extraction_timestamp": "2025-06-07T15:16:11.285Z",
    "source_name": "google",
    "source_query": "Irrigation Equipment",
    "source_country": "GE",
    "country": "Georgia",
    "state": "Kvemo Kartli",
    "city": "Rust’avi"
  },
  {
    "source_id": "ChIJ0bzaAl0HREARIN6Wq8QZDeg",
    "name": "SHIMGE წყლის ტუმბოები",
    "category": "SHIMGE წყლის ტუმბოები",
    "formatted_address": "5,0(3)",
    "phone_number": "+995595797104",
    "source_url": "https://www.google.com/maps/place/SHIMGE+%E1%83%AC%E1%83%A7%E1%83%9A%E1%83%98%E1%83%A1+%E1%83%A2%E1%83%A3%E1%83%9B%E1%83%91%E1%83%9D%E1%83%94%E1%83%91%E1%83%98/data=!4m7!3m6!1s0x4044075d02dabcd1:0xe80d19c4ab96de20!8m2!3d41.7284845!4d44.7805436!16s%2Fg%2F11rhqx2zxt!19sChIJ0bzaAl0HREARIN6Wq8QZDeg?authuser=0&hl=tr&rclk=1",
    "website_url": "http://www.facebook.com/shimgegeorgia/",
    "rating_text": "5,0",
    "stars": null,
    "number_of_reviews": null,
    "price_level": "",
    "open_hours": "",
    "extraction_timestamp": "2025-06-07T15:16:11.286Z",
    "source_name": "google",
    "source_query": "Irrigation Equipment",
    "source_country": "GE",
    "country": "Georgia",
    "state": "Kvemo Kartli",
    "city": "Rust’avi"
  },
  {
    "source_id": "ChIJJQL5ydYNREARFdfjP9IVZL0",
    "name": "Roqi",
    "category": "Roqi",
    "formatted_address": "4,7(41)",
    "phone_number": "+995597704588",
    "source_url": "https://www.google.com/maps/place/Roqi/data=!4m7!3m6!1s0x40440dd6c9f90225:0xbd6415d23fe3d715!8m2!3d41.6856102!4d44.8502816!16s%2Fg%2F11jgctmqbq!19sChIJJQL5ydYNREARFdfjP9IVZL0?authuser=0&hl=tr&rclk=1",
    "website_url": "https://roqi.ge/",
    "rating_text": "4,7",
    "stars": null,
    "number_of_reviews": null,
    "price_level": "",
    "open_hours": "",
    "extraction_timestamp": "2025-06-07T15:16:11.287Z",
    "source_name": "google",
    "source_query": "Irrigation Equipment",
    "source_country": "GE",
    "country": "Georgia",
    "state": "Kvemo Kartli",
    "city": "Rust’avi"
  },
  {
    "source_id": "ChIJw14IxzQNREARf3Q9kJgAl40",
    "name": "smartplumber.ge",
    "category": "smartplumber.ge",
    "formatted_address": "5,0(23)",
    "phone_number": "+995571112671",
    "source_url": "https://www.google.com/maps/place/smartplumber.ge/data=!4m7!3m6!1s0x40440d34c7085ec3:0x8d970098903d747f!8m2!3d41.6742793!4d44.832889!16s%2Fg%2F11wqqhnq9d!19sChIJw14IxzQNREARf3Q9kJgAl40?authuser=0&hl=tr&rclk=1",
    "website_url": "https://www.smartplumber.ge/",
    "rating_text": "5,0",
    "stars": null,
    "number_of_reviews": null,
    "price_level": "",
    "open_hours": "",
    "extraction_timestamp": "2025-06-07T15:16:11.289Z",
    "source_name": "google",
    "source_query": "Irrigation Equipment",
    "source_country": "GE",
    "country": "Georgia",
    "state": "Kvemo Kartli",
    "city": "Rust’avi"
  },
  {
    "source_id": "ChIJOcaW4gsBREARTmql9gZz7m4",
    "name": "Rustavi Water Company",
    "category": "Rustavi Water Company",
    "formatted_address": "1,4(34)",
    "phone_number": "+995341220011",
    "source_url": "https://www.google.com/maps/place/Rustavi+Water+Company/data=!4m7!3m6!1s0x4044010be296c639:0x6eee7306f6a56a4e!8m2!3d41.532803!4d45.0115752!16s%2Fg%2F1vg6s6n3!19sChIJOcaW4gsBREARTmql9gZz7m4?authuser=0&hl=tr&rclk=1",
    "website_url": "http://www.gwp.ge/",
    "rating_text": "1,4",
    "stars": null,
    "number_of_reviews": null,
    "price_level": "",
    "open_hours": "",
    "extraction_timestamp": "2025-06-07T15:16:11.289Z",
    "source_name": "google",
    "source_query": "Irrigation Equipment",
    "source_country": "GE",
    "country": "Georgia",
    "state": "Kvemo Kartli",
    "city": "Rust’avi"
  },
  {
    "source_id": "ChIJs2ovNDEMREAR2gLSxbGhtFg",
    "name": "GT Group LLC",
    "category": "GT Group LLC",
    "formatted_address": "4,8(20)",
    "phone_number": "+995322740440",
    "source_url": "https://www.google.com/maps/place/GT+Group+LLC/data=!4m7!3m6!1s0x40440c31342f6ab3:0x58b4a1b1c5d202da!8m2!3d41.7959386!4d44.7696265!16s%2Fg%2F1hm3md2bf!19sChIJs2ovNDEMREAR2gLSxbGhtFg?authuser=0&hl=tr&rclk=1",
    "website_url": "http://www.gtgroup.ge/",
    "rating_text": "4,8",
    "stars": null,
    "number_of_reviews": null,
    "price_level": "",
    "open_hours": "",
    "extraction_timestamp": "2025-06-07T15:16:11.290Z",
    "source_name": "google",
    "source_query": "Irrigation Equipment",
    "source_country": "GE",
    "country": "Georgia",
    "state": "Kvemo Kartli",
    "city": "Rust’avi"
  },
  {
    "source_id": "ChIJV949hb9zREAR-1janJZxn8Y",
    "name": "Nano Filter - წყლის ფილტრები",
    "category": "Nano Filter - წყლის ფილტრები",
    "formatted_address": "4,6(11)",
    "phone_number": "+995577901100",
    "source_url": "https://www.google.com/maps/place/Nano+Filter+-+%E1%83%AC%E1%83%A7%E1%83%9A%E1%83%98%E1%83%A1+%E1%83%A4%E1%83%98%E1%83%9A%E1%83%A2%E1%83%A0%E1%83%94%E1%83%91%E1%83%98/data=!4m7!3m6!1s0x404473bf853dde57:0xc69f71969cda58fb!8m2!3d41.7195881!4d44.7675411!16s%2Fg%2F11kc3vtfzs!19sChIJV949hb9zREAR-1janJZxn8Y?authuser=0&hl=tr&rclk=1",
    "website_url": "https://nanofilter.ge/",
    "rating_text": "4,6",
    "stars": null,
    "number_of_reviews": null,
    "price_level": "",
    "open_hours": "",
    "extraction_timestamp": "2025-06-07T15:16:11.291Z",
    "source_name": "google",
    "source_query": "Irrigation Equipment",
    "source_country": "GE",
    "country": "Georgia",
    "state": "Kvemo Kartli",
    "city": "Rust’avi"
  },
  {
    "source_id": "ChIJMaDIQjsMREARekX6PG6uCMk",
    "name": "კანალიზაციის გაწმენდა",
    "category": "კანალიზაციის გაწმენდა",
    "formatted_address": "4,1(10)",
    "phone_number": "+995597337764",
    "source_url": "https://www.google.com/maps/place/%E1%83%99%E1%83%90%E1%83%9C%E1%83%90%E1%83%9A%E1%83%98%E1%83%96%E1%83%90%E1%83%AA%E1%83%98%E1%83%98%E1%83%A1+%E1%83%92%E1%83%90%E1%83%AC%E1%83%9B%E1%83%94%E1%83%9C%E1%83%93%E1%83%90/data=!4m7!3m6!1s0x40440c3b42c8a031:0xc908ae6e3cfa457a!8m2!3d41.670546!4d44.842932!16s%2Fg%2F11c48wp10f!19sChIJMaDIQjsMREARekX6PG6uCMk?authuser=0&hl=tr&rclk=1",
    "website_url": "http://ostati.ge/index.php?page=ful_info&c_id=2317",
    "rating_text": "4,1",
    "stars": null,
    "number_of_reviews": null,
    "price_level": "",
    "open_hours": "",
    "extraction_timestamp": "2025-06-07T15:16:11.292Z",
    "source_name": "google",
    "source_query": "Irrigation Equipment",
    "source_country": "GE",
    "country": "Georgia",
    "state": "Kvemo Kartli",
    "city": "Rust’avi"
  },
  {
    "source_id": "ChIJ26GF52sBREAR5D1kE0dCTEc",
    "name": "Racha Market",
    "category": "Racha Market",
    "formatted_address": "4,5(155)",
    "phone_number": "",
    "source_url": "https://www.google.com/maps/place/Racha+Market/data=!4m7!3m6!1s0x4044016be785a1db:0x474c424713643de4!8m2!3d41.5519516!4d45.0196959!16s%2Fg%2F1v7tjvr9!19sChIJ26GF52sBREAR5D1kE0dCTEc?authuser=0&hl=tr&rclk=1",
    "website_url": "",
    "rating_text": "4,5",
    "stars": null,
    "number_of_reviews": null,
    "price_level": "",
    "open_hours": "",
    "extraction_timestamp": "2025-06-07T15:16:11.293Z",
    "source_name": "google",
    "source_query": "Irrigation Equipment",
    "source_country": "GE",
    "country": "Georgia",
    "state": "Kvemo Kartli",
    "city": "Rust’avi"
  },
  {
    "source_id": "ChIJJ6k9wIZtREAR9BOLP6tXJBY",
    "name": "GREEN LAB Dighomi GROW SHOP",
    "category": "GREEN LAB Dighomi GROW SHOP",
    "formatted_address": "5,0(33)",
    "phone_number": "+995322060840",
    "source_url": "https://www.google.com/maps/place/GREEN+LAB+Dighomi+GROW+SHOP/data=!4m7!3m6!1s0x40446d86c03da927:0x162457ab3f8b13f4!8m2!3d41.7888432!4d44.766026!16s%2Fg%2F11k47nr3_5!19sChIJJ6k9wIZtREAR9BOLP6tXJBY?authuser=0&hl=tr&rclk=1",
    "website_url": "http://greenlab.ge/",
    "rating_text": "5,0",
    "stars": null,
    "number_of_reviews": null,
    "price_level": "",
    "open_hours": "",
    "extraction_timestamp": "2025-06-07T15:16:11.294Z",
    "source_name": "google",
    "source_query": "Irrigation Equipment",
    "source_country": "GE",
    "country": "Georgia",
    "state": "Kvemo Kartli",
    "city": "Rust’avi"
  },
  {
    "source_id": "ChIJUxrgROQXnYMRSTOERyMOifQ",
    "name": "ჰიდროვეი Hydroway",
    "category": "ჰიდროვეი Hydroway",
    "formatted_address": "5,0(12)",
    "phone_number": "+995544444041",
    "source_url": "https://www.google.com/maps/place/%E1%83%B0%E1%83%98%E1%83%93%E1%83%A0%E1%83%9D%E1%83%95%E1%83%94%E1%83%98+Hydroway/data=!4m7!3m6!1s0x839d17e444e01a53:0xf4890e2347843349!8m2!3d41.7554038!4d44.7770917!16s%2Fg%2F11kb8cchmr!19sChIJUxrgROQXnYMRSTOERyMOifQ?authuser=0&hl=tr&rclk=1",
    "website_url": "",
    "rating_text": "5,0",
    "stars": null,
    "number_of_reviews": null,
    "price_level": "",
    "open_hours": "",
    "extraction_timestamp": "2025-06-07T15:16:11.295Z",
    "source_name": "google",
    "source_query": "Irrigation Equipment",
    "source_country": "GE",
    "country": "Georgia",
    "state": "Kvemo Kartli",
    "city": "Rust’avi"
  },
  {
    "source_id": "ChIJzYnXINsBREARDqhnCDPGKJI",
    "name": "Market",
    "category": "Market",
    "formatted_address": "4,3(40)",
    "phone_number": "",
    "source_url": "https://www.google.com/maps/place/Market/data=!4m7!3m6!1s0x404401db20d789cd:0x9228c6330867a80e!8m2!3d41.548021!4d44.9881839!16s%2Fg%2F1tcv9cl7!19sChIJzYnXINsBREARDqhnCDPGKJI?authuser=0&hl=tr&rclk=1",
    "website_url": "",
    "rating_text": "4,3",
    "stars": null,
    "number_of_reviews": null,
    "price_level": "",
    "open_hours": "",
    "extraction_timestamp": "2025-06-07T15:16:11.295Z",
    "source_name": "google",
    "source_query": "Irrigation Equipment",
    "source_country": "GE",
    "country": "Georgia",
    "state": "Kvemo Kartli",
    "city": "Rust’avi"
  },
  {
    "source_id": "ChIJi1R-NN4MREARswY_NiJTo2k",
    "name": "CleanPark",
    "category": "CleanPark",
    "formatted_address": "5,0(1)",
    "phone_number": "+995322969968",
    "source_url": "https://www.google.com/maps/place/CleanPark/data=!4m7!3m6!1s0x40440cde347e548b:0x69a35322363f06b3!8m2!3d41.7034479!4d44.8014991!16s%2Fg%2F11dfh5kqrb!19sChIJi1R-NN4MREARswY_NiJTo2k?authuser=0&hl=tr&rclk=1",
    "website_url": "https://cleanparkshop.ge/",
    "rating_text": "5,0",
    "stars": null,
    "number_of_reviews": null,
    "price_level": "",
    "open_hours": "",
    "extraction_timestamp": "2025-06-07T15:16:11.296Z",
    "source_name": "google",
    "source_query": "Irrigation Equipment",
    "source_country": "GE",
    "country": "Georgia",
    "state": "Kvemo Kartli",
    "city": "Rust’avi"
  },
  {
    "source_id": "ChIJmRDHAxgNREARM4kWIlGbaG8",
    "name": "სანტექნიკი",
    "category": "სანტექნიკი",
    "formatted_address": "5,0(7)",
    "phone_number": "+995599133508",
    "source_url": "https://www.google.com/maps/place/%E1%83%A1%E1%83%90%E1%83%9C%E1%83%A2%E1%83%94%E1%83%A5%E1%83%9C%E1%83%98%E1%83%99%E1%83%98/data=!4m7!3m6!1s0x40440d1803c71099:0x6f689b5122168933!8m2!3d41.70639!4d44.787188!16s%2Fg%2F11y3vf2v41!19sChIJmRDHAxgNREARM4kWIlGbaG8?authuser=0&hl=tr&rclk=1",
    "website_url": "",
    "rating_text": "5,0",
    "stars": null,
    "number_of_reviews": null,
    "price_level": "",
    "open_hours": "",
    "extraction_timestamp": "2025-06-07T15:16:11.298Z",
    "source_name": "google",
    "source_query": "Irrigation Equipment",
    "source_country": "GE",
    "country": "Georgia",
    "state": "Kvemo Kartli",
    "city": "Rust’avi"
  }
]
