[
  {
    "source_id": "ChIJYSRXs4MJREAR58-5dUMvUpk",
    "name": "Agromarket",
    "category": "Agromarket",
    "formatted_address": "5,0(1)",
    "phone_number": "+995593211211",
    "source_url": "https://www.google.com/maps/place/Agromarket/data=!4m7!3m6!1s0x40440983b3572461:0x99522f4375b9cfe7!8m2!3d41.591999!4d44.7799375!16s%2Fg%2F11rfb0jr6k!19sChIJYSRXs4MJREAR58-5dUMvUpk?authuser=0&hl=tr&rclk=1",
    "website_url": "http://www.tarsa.ge/",
    "rating_text": "5,0",
    "stars": null,
    "number_of_reviews": null,
    "price_level": "",
    "open_hours": "",
    "extraction_timestamp": "2025-06-07T15:16:47.523Z",
    "source_name": "google",
    "source_query": "Irrigation Equipment",
    "source_country": "GE",
    "country": "Georgia",
    "state": "Kvemo Kartli",
    "city": "Tetrits’q’alos Munitsip’alit’et’i"
  },
  {
    "source_id": "ChIJ_____876Q0ARTxjlGXLPOAk",
    "name": "SPS AGROPLAST",
    "category": "SPS AGROPLAST",
    "formatted_address": "5,0(1)",
    "phone_number": "+995514111119",
    "source_url": "https://www.google.com/maps/place/SPS+AGROPLAST/data=!4m7!3m6!1s0x4043faceffffffff:0x938cf7219e5184f!8m2!3d41.4686607!4d44.6937383!16s%2Fg%2F11f524wch5!19sChIJ_____876Q0ARTxjlGXLPOAk?authuser=0&hl=tr&rclk=1",
    "website_url": "",
    "rating_text": "5,0",
    "stars": null,
    "number_of_reviews": null,
    "price_level": "",
    "open_hours": "",
    "extraction_timestamp": "2025-06-07T15:16:47.524Z",
    "source_name": "google",
    "source_query": "Irrigation Equipment",
    "source_country": "GE",
    "country": "Georgia",
    "state": "Kvemo Kartli",
    "city": "Tetrits’q’alos Munitsip’alit’et’i"
  },
  {
    "source_id": "ChIJgVyvBBgNREARfeNzdmg1bSY",
    "name": "Proagro LLC, Georgia",
    "category": "Proagro LLC, Georgia",
    "formatted_address": "Proagro LLC, Georgia",
    "phone_number": "+995599991151",
    "source_url": "https://www.google.com/maps/place/Proagro+LLC,+Georgia/data=!4m7!3m6!1s0x40440d1804af5c81:0x266d35687673e37d!8m2!3d41.712974!4d44.7477435!16s%2Fg%2F11jyyybt_h!19sChIJgVyvBBgNREARfeNzdmg1bSY?authuser=0&hl=tr&rclk=1",
    "website_url": "http://www.proagro.online/",
    "rating_text": "3,7",
    "stars": null,
    "number_of_reviews": null,
    "price_level": "",
    "open_hours": "",
    "extraction_timestamp": "2025-06-07T15:16:47.526Z",
    "source_name": "google",
    "source_query": "Irrigation Equipment",
    "source_country": "GE",
    "country": "Georgia",
    "state": "Kvemo Kartli",
    "city": "Tetrits’q’alos Munitsip’alit’et’i"
  },
  {
    "source_id": "ChIJaWTbpWIPREAR45JMg8eqmOk",
    "name": "Turko",
    "category": "Turko",
    "formatted_address": "4,8(15)",
    "phone_number": "+995551648800",
    "source_url": "https://www.google.com/maps/place/Turko/data=!4m7!3m6!1s0x40440f62a5db6469:0xe998aac7834c92e3!8m2!3d41.6687209!4d44.8845735!16s%2Fg%2F11h6r1cvf1!19sChIJaWTbpWIPREAR45JMg8eqmOk?authuser=0&hl=tr&rclk=1",
    "website_url": "http://www.turko.ge/",
    "rating_text": "4,8",
    "stars": null,
    "number_of_reviews": null,
    "price_level": "",
    "open_hours": "",
    "extraction_timestamp": "2025-06-07T15:16:47.527Z",
    "source_name": "google",
    "source_query": "Irrigation Equipment",
    "source_country": "GE",
    "country": "Georgia",
    "state": "Kvemo Kartli",
    "city": "Tetrits’q’alos Munitsip’alit’et’i"
  },
  {
    "source_id": "ChIJa_e9WgBtREAR4uEZ4KOYLB4",
    "name": "LCC Water Technologies",
    "category": "LCC Water Technologies",
    "formatted_address": "5,0(1)",
    "phone_number": "+995595890770",
    "source_url": "https://www.google.com/maps/place/LCC+Water+Technologies/data=!4m7!3m6!1s0x40446d005abdf76b:0x1e2c98a3e019e1e2!8m2!3d41.7641193!4d44.78055!16s%2Fg%2F11lcgsvg8v!19sChIJa_e9WgBtREAR4uEZ4KOYLB4?authuser=0&hl=tr&rclk=1",
    "website_url": "http://www.water-tech.ge/",
    "rating_text": "5,0",
    "stars": null,
    "number_of_reviews": null,
    "price_level": "",
    "open_hours": "",
    "extraction_timestamp": "2025-06-07T15:16:47.528Z",
    "source_name": "google",
    "source_query": "Irrigation Equipment",
    "source_country": "GE",
    "country": "Georgia",
    "state": "Kvemo Kartli",
    "city": "Tetrits’q’alos Munitsip’alit’et’i"
  },
  {
    "source_id": "ChIJAQCwmDdzREARRhOqXPR7VAg",
    "name": "გრინ სოლუშენს",
    "category": "გრინ სოლუშენს",
    "formatted_address": "5,0(4)",
    "phone_number": "+995570101015",
    "source_url": "https://www.google.com/maps/place/%E1%83%92%E1%83%A0%E1%83%98%E1%83%9C+%E1%83%A1%E1%83%9D%E1%83%9A%E1%83%A3%E1%83%A8%E1%83%94%E1%83%9C%E1%83%A1/data=!4m7!3m6!1s0x4044733798b00001:0x8547bf45caa1346!8m2!3d41.7076191!4d44.7651735!16s%2Fg%2F11j48hgb5s!19sChIJAQCwmDdzREARRhOqXPR7VAg?authuser=0&hl=tr&rclk=1",
    "website_url": "http://www.green.com.ge/",
    "rating_text": "5,0",
    "stars": null,
    "number_of_reviews": null,
    "price_level": "",
    "open_hours": "",
    "extraction_timestamp": "2025-06-07T15:16:47.530Z",
    "source_name": "google",
    "source_query": "Irrigation Equipment",
    "source_country": "GE",
    "country": "Georgia",
    "state": "Kvemo Kartli",
    "city": "Tetrits’q’alos Munitsip’alit’et’i"
  },
  {
    "source_id": "ChIJb6M3SFVzREARlHBJkz3apvc",
    "name": "Agrow",
    "category": "Agrow",
    "formatted_address": "5,0(4)",
    "phone_number": "+995558797722",
    "source_url": "https://www.google.com/maps/place/Agrow/data=!4m7!3m6!1s0x404473554837a36f:0xf7a6da3d93497094!8m2!3d41.7332144!4d44.7892222!16s%2Fg%2F11qb3j0ry8!19sChIJb6M3SFVzREARlHBJkz3apvc?authuser=0&hl=tr&rclk=1",
    "website_url": "http://agrow.ge/",
    "rating_text": "5,0",
    "stars": null,
    "number_of_reviews": null,
    "price_level": "",
    "open_hours": "",
    "extraction_timestamp": "2025-06-07T15:16:47.531Z",
    "source_name": "google",
    "source_query": "Irrigation Equipment",
    "source_country": "GE",
    "country": "Georgia",
    "state": "Kvemo Kartli",
    "city": "Tetrits’q’alos Munitsip’alit’et’i"
  },
  {
    "source_id": "ChIJQ7SM48NyREARDx_B2eRs2AU",
    "name": "wgtechno water and gas technologies ltd",
    "category": "wgtechno water and gas technologies ltd",
    "formatted_address": "4,3(61)",
    "phone_number": "+995322309890",
    "source_url": "https://www.google.com/maps/place/wgtechno+water+and+gas+technologies+ltd/data=!4m7!3m6!1s0x404472c3e38cb443:0x5d86ce4d9c11f0f!8m2!3d41.7330554!4d44.7883981!16s%2Fg%2F11c3yshlcd!19sChIJQ7SM48NyREARDx_B2eRs2AU?authuser=0&hl=tr&rclk=1",
    "website_url": "http://www.wgtechno.com/",
    "rating_text": "4,3",
    "stars": null,
    "number_of_reviews": null,
    "price_level": "",
    "open_hours": "",
    "extraction_timestamp": "2025-06-07T15:16:47.532Z",
    "source_name": "google",
    "source_query": "Irrigation Equipment",
    "source_country": "GE",
    "country": "Georgia",
    "state": "Kvemo Kartli",
    "city": "Tetrits’q’alos Munitsip’alit’et’i"
  },
  {
    "source_id": "ChIJ3dkmPJdzREARyuUU8v3PWbk",
    "name": "GMS Group • სარწყავი სისტემები",
    "category": "GMS Group • სარწყავი სისტემები",
    "formatted_address": "",
    "phone_number": "+995322309890",
    "source_url": "https://www.google.com/maps/place/GMS+Group+%E2%80%A2+%E1%83%A1%E1%83%90%E1%83%A0%E1%83%AC%E1%83%A7%E1%83%90%E1%83%95%E1%83%98+%E1%83%A1%E1%83%98%E1%83%A1%E1%83%A2%E1%83%94%E1%83%9B%E1%83%94%E1%83%91%E1%83%98/data=!4m7!3m6!1s0x404473973c26d9dd:0xb959cffdf214e5ca!8m2!3d41.734152!4d44.7876293!16s%2Fg%2F11xf076bxb!19sChIJ3dkmPJdzREARyuUU8v3PWbk?authuser=0&hl=tr&rclk=1",
    "website_url": "https://gmsgroup.com.ge/",
    "rating_text": "",
    "stars": null,
    "number_of_reviews": null,
    "price_level": "",
    "open_hours": "",
    "extraction_timestamp": "2025-06-07T15:16:47.533Z",
    "source_name": "google",
    "source_query": "Irrigation Equipment",
    "source_country": "GE",
    "country": "Georgia",
    "state": "Kvemo Kartli",
    "city": "Tetrits’q’alos Munitsip’alit’et’i"
  },
  {
    "source_id": "ChIJ0b_p701zREARXQ5PLzlsHEc",
    "name": "ბიო ტუალეტების გაქირავება და მომსახურება ლაიმი",
    "category": "ბიო ტუალეტების გაქირავება და მომსახურება ლაიმი",
    "formatted_address": "4,7(15)",
    "phone_number": "+995599149149",
    "source_url": "https://www.google.com/maps/place/%E1%83%91%E1%83%98%E1%83%9D+%E1%83%A2%E1%83%A3%E1%83%90%E1%83%9A%E1%83%94%E1%83%A2%E1%83%94%E1%83%91%E1%83%98%E1%83%A1+%E1%83%92%E1%83%90%E1%83%A5%E1%83%98%E1%83%A0%E1%83%90%E1%83%95%E1%83%94%E1%83%91%E1%83%90+%E1%83%93%E1%83%90+%E1%83%9B%E1%83%9D%E1%83%9B%E1%83%A1%E1%83%90%E1%83%AE%E1%83%A3%E1%83%A0%E1%83%94%E1%83%91%E1%83%90+%E1%83%9A%E1%83%90%E1%83%98%E1%83%9B%E1%83%98/data=!4m7!3m6!1s0x4044734defe9bfd1:0x471c6c392f4f0e5d!8m2!3d41.7201266!4d44.7408853!16s%2Fg%2F11snllxzv9!19sChIJ0b_p701zREARXQ5PLzlsHEc?authuser=0&hl=tr&rclk=1",
    "website_url": "https://www.limegeorgia.ge/",
    "rating_text": "4,7",
    "stars": null,
    "number_of_reviews": null,
    "price_level": "",
    "open_hours": "",
    "extraction_timestamp": "2025-06-07T15:16:47.534Z",
    "source_name": "google",
    "source_query": "Irrigation Equipment",
    "source_country": "GE",
    "country": "Georgia",
    "state": "Kvemo Kartli",
    "city": "Tetrits’q’alos Munitsip’alit’et’i"
  },
  {
    "source_id": "ChIJX6FK56QRREARYN8v2gebtWE",
    "name": "Shimge Water Pump Georgia",
    "category": "Shimge Water Pump Georgia",
    "formatted_address": "5,0(1)",
    "phone_number": "+995595797104",
    "source_url": "https://www.google.com/maps/place/Shimge+Water+Pump+Georgia/data=!4m7!3m6!1s0x404411a4e74aa15f:0x61b59b07da2fdf60!8m2!3d41.693303!4d45.0003375!16s%2Fg%2F11f7shlq75!19sChIJX6FK56QRREARYN8v2gebtWE?authuser=0&hl=tr&rclk=1",
    "website_url": "http://facebook.com/shimgegeorgia/",
    "rating_text": "5,0",
    "stars": null,
    "number_of_reviews": null,
    "price_level": "",
    "open_hours": "",
    "extraction_timestamp": "2025-06-07T15:16:47.535Z",
    "source_name": "google",
    "source_query": "Irrigation Equipment",
    "source_country": "GE",
    "country": "Georgia",
    "state": "Kvemo Kartli",
    "city": "Tetrits’q’alos Munitsip’alit’et’i"
  },
  {
    "source_id": "ChIJZU8DVlFzREAResPbvT5zDtI",
    "name": "Headshop Tbilisi — Water Pipes, Vaporizers, Seeds & 420 Smoking Accessories",
    "category": "Headshop Tbilisi — Water Pipes, Vaporizers, Seeds & 420 Smoking Accessories",
    "formatted_address": "Headshop Tbilisi — Water Pipes, Vaporizers, Seeds & 420 Smoking Accessories",
    "phone_number": "+995505050420",
    "source_url": "https://www.google.com/maps/place/Headshop+Tbilisi+%E2%80%94+Water+Pipes,+Vaporizers,+Seeds+%26+420+Smoking+Accessories/data=!4m7!3m6!1s0x4044735156034f65:0xd20e733ebddbc37a!8m2!3d41.7088889!4d44.770308!16s%2Fg%2F11l1q7t4s9!19sChIJZU8DVlFzREAResPbvT5zDtI?authuser=0&hl=tr&rclk=1",
    "website_url": "https://headshop.ge/",
    "rating_text": "5,0",
    "stars": null,
    "number_of_reviews": null,
    "price_level": "",
    "open_hours": "",
    "extraction_timestamp": "2025-06-07T15:16:47.536Z",
    "source_name": "google",
    "source_query": "Irrigation Equipment",
    "source_country": "GE",
    "country": "Georgia",
    "state": "Kvemo Kartli",
    "city": "Tetrits’q’alos Munitsip’alit’et’i"
  },
  {
    "source_id": "ChIJuVjcD8QNREARhrY0aDm3YHY",
    "name": "გრადუსი•Gradusi",
    "category": "გრადუსი•Gradusi",
    "formatted_address": "5,0(16)",
    "phone_number": "+995593393938",
    "source_url": "https://www.google.com/maps/place/%E1%83%92%E1%83%A0%E1%83%90%E1%83%93%E1%83%A3%E1%83%A1%E1%83%98%E2%80%A2Gradusi/data=!4m7!3m6!1s0x40440dc40fdc58b9:0x7660b7396834b686!8m2!3d41.6876137!4d44.8703405!16s%2Fg%2F11ggvyjp8b!19sChIJuVjcD8QNREARhrY0aDm3YHY?authuser=0&hl=tr&rclk=1",
    "website_url": "http://gradusiheating.ge/",
    "rating_text": "5,0",
    "stars": null,
    "number_of_reviews": null,
    "price_level": "",
    "open_hours": "",
    "extraction_timestamp": "2025-06-07T15:16:47.537Z",
    "source_name": "google",
    "source_query": "Irrigation Equipment",
    "source_country": "GE",
    "country": "Georgia",
    "state": "Kvemo Kartli",
    "city": "Tetrits’q’alos Munitsip’alit’et’i"
  },
  {
    "source_id": "ChIJ56T6JQkOREARmHSnGCiXZ34",
    "name": "შპს ქართული მილი GEORGIAN PIPE LTD",
    "category": "შპს ქართული მილი GEORGIAN PIPE LTD",
    "formatted_address": "4,9(15)",
    "phone_number": "+995551030303",
    "source_url": "https://www.google.com/maps/place/%E1%83%A8%E1%83%9E%E1%83%A1+%E1%83%A5%E1%83%90%E1%83%A0%E1%83%97%E1%83%A3%E1%83%9A%E1%83%98+%E1%83%9B%E1%83%98%E1%83%9A%E1%83%98+GEORGIAN+PIPE+LTD/data=!4m7!3m6!1s0x40440e0925faa4e7:0x7e67972818a77498!8m2!3d41.6843906!4d44.9038368!16s%2Fg%2F11cs1wqxl1!19sChIJ56T6JQkOREARmHSnGCiXZ34?authuser=0&hl=tr&rclk=1",
    "website_url": "http://www.geopipe.ge/",
    "rating_text": "4,9",
    "stars": null,
    "number_of_reviews": null,
    "price_level": "",
    "open_hours": "",
    "extraction_timestamp": "2025-06-07T15:16:47.538Z",
    "source_name": "google",
    "source_query": "Irrigation Equipment",
    "source_country": "GE",
    "country": "Georgia",
    "state": "Kvemo Kartli",
    "city": "Tetrits’q’alos Munitsip’alit’et’i"
  },
  {
    "source_id": "ChIJUxrgROQXnYMRSTOERyMOifQ",
    "name": "ჰიდროვეი Hydroway",
    "category": "ჰიდროვეი Hydroway",
    "formatted_address": "5,0(12)",
    "phone_number": "+995544444041",
    "source_url": "https://www.google.com/maps/place/%E1%83%B0%E1%83%98%E1%83%93%E1%83%A0%E1%83%9D%E1%83%95%E1%83%94%E1%83%98+Hydroway/data=!4m7!3m6!1s0x839d17e444e01a53:0xf4890e2347843349!8m2!3d41.7554038!4d44.7770917!16s%2Fg%2F11kb8cchmr!19sChIJUxrgROQXnYMRSTOERyMOifQ?authuser=0&hl=tr&rclk=1",
    "website_url": "",
    "rating_text": "5,0",
    "stars": null,
    "number_of_reviews": null,
    "price_level": "",
    "open_hours": "",
    "extraction_timestamp": "2025-06-07T15:16:47.539Z",
    "source_name": "google",
    "source_query": "Irrigation Equipment",
    "source_country": "GE",
    "country": "Georgia",
    "state": "Kvemo Kartli",
    "city": "Tetrits’q’alos Munitsip’alit’et’i"
  },
  {
    "source_id": "ChIJDdOL7uwNREARANH6AJSjoG0",
    "name": "TBT Company",
    "category": "TBT Company",
    "formatted_address": "4,9(92)",
    "phone_number": "+995322112134",
    "source_url": "https://www.google.com/maps/place/TBT+Company/data=!4m7!3m6!1s0x40440decee8bd30d:0x6da0a39400fad100!8m2!3d41.7139531!4d44.798727!16s%2Fg%2F11h6bzz820!19sChIJDdOL7uwNREARANH6AJSjoG0?authuser=0&hl=tr&rclk=1",
    "website_url": "https://www.facebook.com/share/1EGPhjkC5a/",
    "rating_text": "4,9",
    "stars": null,
    "number_of_reviews": null,
    "price_level": "",
    "open_hours": "",
    "extraction_timestamp": "2025-06-07T15:16:47.540Z",
    "source_name": "google",
    "source_query": "Irrigation Equipment",
    "source_country": "GE",
    "country": "Georgia",
    "state": "Kvemo Kartli",
    "city": "Tetrits’q’alos Munitsip’alit’et’i"
  },
  {
    "source_id": "ChIJ0bzaAl0HREARIN6Wq8QZDeg",
    "name": "SHIMGE წყლის ტუმბოები",
    "category": "SHIMGE წყლის ტუმბოები",
    "formatted_address": "5,0(3)",
    "phone_number": "+995595797104",
    "source_url": "https://www.google.com/maps/place/SHIMGE+%E1%83%AC%E1%83%A7%E1%83%9A%E1%83%98%E1%83%A1+%E1%83%A2%E1%83%A3%E1%83%9B%E1%83%91%E1%83%9D%E1%83%94%E1%83%91%E1%83%98/data=!4m7!3m6!1s0x4044075d02dabcd1:0xe80d19c4ab96de20!8m2!3d41.7284845!4d44.7805436!16s%2Fg%2F11rhqx2zxt!19sChIJ0bzaAl0HREARIN6Wq8QZDeg?authuser=0&hl=tr&rclk=1",
    "website_url": "http://www.facebook.com/shimgegeorgia/",
    "rating_text": "5,0",
    "stars": null,
    "number_of_reviews": null,
    "price_level": "",
    "open_hours": "",
    "extraction_timestamp": "2025-06-07T15:16:47.565Z",
    "source_name": "google",
    "source_query": "Irrigation Equipment",
    "source_country": "GE",
    "country": "Georgia",
    "state": "Kvemo Kartli",
    "city": "Tetrits’q’alos Munitsip’alit’et’i"
  },
  {
    "source_id": "ChIJ0zbrAupzREARGm_PnUVYtqo",
    "name": "SWEED",
    "category": "SWEED",
    "formatted_address": "4,8(16)",
    "phone_number": "+995574200612",
    "source_url": "https://www.google.com/maps/place/SWEED/data=!4m7!3m6!1s0x404473ea02eb36d3:0xaab658459dcf6f1a!8m2!3d41.7151959!4d44.7769316!16s%2Fg%2F11m_jflggn!19sChIJ0zbrAupzREARGm_PnUVYtqo?authuser=0&hl=tr&rclk=1",
    "website_url": "https://sweed.ge/",
    "rating_text": "4,8",
    "stars": null,
    "number_of_reviews": null,
    "price_level": "",
    "open_hours": "",
    "extraction_timestamp": "2025-06-07T15:16:47.566Z",
    "source_name": "google",
    "source_query": "Irrigation Equipment",
    "source_country": "GE",
    "country": "Georgia",
    "state": "Kvemo Kartli",
    "city": "Tetrits’q’alos Munitsip’alit’et’i"
  },
  {
    "source_id": "ChIJSa9TvLsRREARdKVcNqF3v1I",
    "name": "HydroLine - ჰიდროლაინი",
    "category": "HydroLine - ჰიდროლაინი",
    "formatted_address": "Sulama Ekipmanları Tedarikçisi · ლოჭინის ხიდის მიმდებარედ, Kakheti HwyKapalı ⋅ Açılış zamanı: Pzt 09:30 · +995 595 39 00 06",
    "phone_number": "+995595390006",
    "source_url": "https://www.google.com/maps/place/HydroLine+-+%E1%83%B0%E1%83%98%E1%83%93%E1%83%A0%E1%83%9D%E1%83%9A%E1%83%90%E1%83%98%E1%83%9C%E1%83%98/data=!4m7!3m6!1s0x404411bbbc53af49:0x52bf77a1365ca574!8m2!3d41.6894486!4d45.0112949!16s%2Fg%2F11x2srbq32!19sChIJSa9TvLsRREARdKVcNqF3v1I?authuser=0&hl=tr&rclk=1",
    "website_url": "https://www.hydroline.ge/",
    "rating_text": "",
    "stars": null,
    "number_of_reviews": null,
    "price_level": "",
    "open_hours": "",
    "extraction_timestamp": "2025-06-07T15:16:47.568Z",
    "source_name": "google",
    "source_query": "Irrigation Equipment",
    "source_country": "GE",
    "country": "Georgia",
    "state": "Kvemo Kartli",
    "city": "Tetrits’q’alos Munitsip’alit’et’i"
  },
  {
    "source_id": "ChIJ9yr8ZZgNREAROQwqWBj12lo",
    "name": "Supta.ge - \"სუფთა\" - ბიზნესის მომარაგების პლატფორმა",
    "category": "Supta.ge - \"სუფთა\" - ბიზნესის მომარაგების პლატფორმა",
    "formatted_address": "4,7(44)",
    "phone_number": "+995322110626",
    "source_url": "https://www.google.com/maps/place/Supta.ge+-+%22%E1%83%A1%E1%83%A3%E1%83%A4%E1%83%97%E1%83%90%22+-+%E1%83%91%E1%83%98%E1%83%96%E1%83%9C%E1%83%94%E1%83%A1%E1%83%98%E1%83%A1+%E1%83%9B%E1%83%9D%E1%83%9B%E1%83%90%E1%83%A0%E1%83%90%E1%83%92%E1%83%94%E1%83%91%E1%83%98%E1%83%A1+%E1%83%9E%E1%83%9A%E1%83%90%E1%83%A2%E1%83%A4%E1%83%9D%E1%83%A0%E1%83%9B%E1%83%90/data=!4m7!3m6!1s0x40440d9865fc2af7:0x5adaf518582a0c39!8m2!3d41.7182077!4d44.7939903!16s%2Fg%2F11jcbvnm1b!19sChIJ9yr8ZZgNREAROQwqWBj12lo?authuser=0&hl=tr&rclk=1",
    "website_url": "https://supta.ge/",
    "rating_text": "4,7",
    "stars": null,
    "number_of_reviews": null,
    "price_level": "",
    "open_hours": "",
    "extraction_timestamp": "2025-06-07T15:16:47.569Z",
    "source_name": "google",
    "source_query": "Irrigation Equipment",
    "source_country": "GE",
    "country": "Georgia",
    "state": "Kvemo Kartli",
    "city": "Tetrits’q’alos Munitsip’alit’et’i"
  },
  {
    "source_id": "ChIJ2z4mm0MNREARqj4WPD0yO7Y",
    "name": "Vinissimo wine bar & shop",
    "category": "Vinissimo wine bar & shop",
    "formatted_address": "4,8(83)",
    "phone_number": "+995591940411",
    "source_url": "https://www.google.com/maps/place/Vinissimo+wine+bar+%26+shop/data=!4m7!3m6!1s0x40440d439b263edb:0xb63b323d3c163eaa!8m2!3d41.695054!4d44.8067112!16s%2Fg%2F11q9563m4w!19sChIJ2z4mm0MNREARqj4WPD0yO7Y?authuser=0&hl=tr&rclk=1",
    "website_url": "",
    "rating_text": "4,8",
    "stars": null,
    "number_of_reviews": null,
    "price_level": "",
    "open_hours": "",
    "extraction_timestamp": "2025-06-07T15:16:47.570Z",
    "source_name": "google",
    "source_query": "Irrigation Equipment",
    "source_country": "GE",
    "country": "Georgia",
    "state": "Kvemo Kartli",
    "city": "Tetrits’q’alos Munitsip’alit’et’i"
  },
  {
    "source_id": "ChIJw42F7T4NREARqyaeTTJIdbU",
    "name": "Artisan",
    "category": "Artisan",
    "formatted_address": "4,4(196) · ₾20–30",
    "phone_number": "+995322244304",
    "source_url": "https://www.google.com/maps/place/Artisan/data=!4m7!3m6!1s0x40440d3eed858dc3:0xb57548324d9e26ab!8m2!3d41.7221831!4d44.7712726!16s%2Fg%2F11hn5_9cdz!19sChIJw42F7T4NREARqyaeTTJIdbU?authuser=0&hl=tr&rclk=1",
    "website_url": "https://www.facebook.com/ArtisanChocolaterieandmore/",
    "rating_text": "4,4",
    "stars": null,
    "number_of_reviews": null,
    "price_level": "",
    "open_hours": "",
    "extraction_timestamp": "2025-06-07T15:16:47.572Z",
    "source_name": "google",
    "source_query": "Irrigation Equipment",
    "source_country": "GE",
    "country": "Georgia",
    "state": "Kvemo Kartli",
    "city": "Tetrits’q’alos Munitsip’alit’et’i"
  },
  {
    "source_id": "ChIJwYWDAAANREAR3NgOynYx6fA",
    "name": "Friendly corner",
    "category": "Friendly corner",
    "formatted_address": "4,9(242) · ₾10–20",
    "phone_number": "+995597484947",
    "source_url": "https://www.google.com/maps/place/Friendly+corner/data=!4m7!3m6!1s0x40440d00008385c1:0xf0e93176ca0ed8dc!8m2!3d41.6912161!4d44.8060295!16s%2Fg%2F11w1cpqbq7!19sChIJwYWDAAANREAR3NgOynYx6fA?authuser=0&hl=tr&rclk=1",
    "website_url": "https://friendly-corner.erbut.me/",
    "rating_text": "4,9",
    "stars": null,
    "number_of_reviews": null,
    "price_level": "",
    "open_hours": "",
    "extraction_timestamp": "2025-06-07T15:16:47.573Z",
    "source_name": "google",
    "source_query": "Irrigation Equipment",
    "source_country": "GE",
    "country": "Georgia",
    "state": "Kvemo Kartli",
    "city": "Tetrits’q’alos Munitsip’alit’et’i"
  },
  {
    "source_id": "ChIJce4p2N4NREARcq-2I6M2s1c",
    "name": "Chemi Pelmeni",
    "category": "Chemi Pelmeni",
    "formatted_address": "4,8(328)",
    "phone_number": "+995577444741",
    "source_url": "https://www.google.com/maps/place/Chemi+Pelmeni/data=!4m7!3m6!1s0x40440dded829ee71:0x57b336a323b6af72!8m2!3d41.702147!4d44.7926425!16s%2Fg%2F11h3thx6xj!19sChIJce4p2N4NREARcq-2I6M2s1c?authuser=0&hl=tr&rclk=1",
    "website_url": "",
    "rating_text": "4,8",
    "stars": null,
    "number_of_reviews": null,
    "price_level": "",
    "open_hours": "",
    "extraction_timestamp": "2025-06-07T15:16:47.574Z",
    "source_name": "google",
    "source_query": "Irrigation Equipment",
    "source_country": "GE",
    "country": "Georgia",
    "state": "Kvemo Kartli",
    "city": "Tetrits’q’alos Munitsip’alit’et’i"
  },
  {
    "source_id": "ChIJp5wdY1YNREARpwt-rofWVZE",
    "name": "Old Café",
    "category": "Old Café",
    "formatted_address": "4,3(139)",
    "phone_number": "+995595797376",
    "source_url": "https://www.google.com/maps/place/Old+Caf%C3%A9/data=!4m7!3m6!1s0x40440d56631d9ca7:0x9155d687ae7e0ba7!8m2!3d41.6907858!4d44.8071878!16s%2Fg%2F11t84_sk95!19sChIJp5wdY1YNREARpwt-rofWVZE?authuser=0&hl=tr&rclk=1",
    "website_url": "https://www.facebook.com/OldCafeTbilisi",
    "rating_text": "4,3",
    "stars": null,
    "number_of_reviews": null,
    "price_level": "",
    "open_hours": "",
    "extraction_timestamp": "2025-06-07T15:16:47.575Z",
    "source_name": "google",
    "source_query": "Irrigation Equipment",
    "source_country": "GE",
    "country": "Georgia",
    "state": "Kvemo Kartli",
    "city": "Tetrits’q’alos Munitsip’alit’et’i"
  },
  {
    "source_id": "ChIJMaDIQjsMREARekX6PG6uCMk",
    "name": "კანალიზაციის გაწმენდა",
    "category": "კანალიზაციის გაწმენდა",
    "formatted_address": "4,1(10)",
    "phone_number": "+995597337764",
    "source_url": "https://www.google.com/maps/place/%E1%83%99%E1%83%90%E1%83%9C%E1%83%90%E1%83%9A%E1%83%98%E1%83%96%E1%83%90%E1%83%AA%E1%83%98%E1%83%98%E1%83%A1+%E1%83%92%E1%83%90%E1%83%AC%E1%83%9B%E1%83%94%E1%83%9C%E1%83%93%E1%83%90/data=!4m7!3m6!1s0x40440c3b42c8a031:0xc908ae6e3cfa457a!8m2!3d41.670546!4d44.842932!16s%2Fg%2F11c48wp10f!19sChIJMaDIQjsMREARekX6PG6uCMk?authuser=0&hl=tr&rclk=1",
    "website_url": "http://ostati.ge/index.php?page=ful_info&c_id=2317",
    "rating_text": "4,1",
    "stars": null,
    "number_of_reviews": null,
    "price_level": "",
    "open_hours": "",
    "extraction_timestamp": "2025-06-07T15:16:47.576Z",
    "source_name": "google",
    "source_query": "Irrigation Equipment",
    "source_country": "GE",
    "country": "Georgia",
    "state": "Kvemo Kartli",
    "city": "Tetrits’q’alos Munitsip’alit’et’i"
  },
  {
    "source_id": "ChIJw14IxzQNREARf3Q9kJgAl40",
    "name": "smartplumber.ge",
    "category": "smartplumber.ge",
    "formatted_address": "5,0(23)",
    "phone_number": "+995571112671",
    "source_url": "https://www.google.com/maps/place/smartplumber.ge/data=!4m7!3m6!1s0x40440d34c7085ec3:0x8d970098903d747f!8m2!3d41.6742793!4d44.832889!16s%2Fg%2F11wqqhnq9d!19sChIJw14IxzQNREARf3Q9kJgAl40?authuser=0&hl=tr&rclk=1",
    "website_url": "https://www.smartplumber.ge/",
    "rating_text": "5,0",
    "stars": null,
    "number_of_reviews": null,
    "price_level": "",
    "open_hours": "",
    "extraction_timestamp": "2025-06-07T15:16:47.577Z",
    "source_name": "google",
    "source_query": "Irrigation Equipment",
    "source_country": "GE",
    "country": "Georgia",
    "state": "Kvemo Kartli",
    "city": "Tetrits’q’alos Munitsip’alit’et’i"
  },
  {
    "source_id": "ChIJoXA9RgDtQ0ARdIu8u_Ds41k",
    "name": "Jojo's local shop",
    "category": "Jojo's local shop",
    "formatted_address": "5,0(2)",
    "phone_number": "",
    "source_url": "https://www.google.com/maps/place/Jojo%27s+local+shop/data=!4m7!3m6!1s0x4043ed00463d70a1:0x59e3ecf0bbbc8b74!8m2!3d41.5401228!4d44.4632176!16s%2Fg%2F11w7cc9t87!19sChIJoXA9RgDtQ0ARdIu8u_Ds41k?authuser=0&hl=tr&rclk=1",
    "website_url": "",
    "rating_text": "5,0",
    "stars": null,
    "number_of_reviews": null,
    "price_level": "",
    "open_hours": "",
    "extraction_timestamp": "2025-06-07T15:16:47.578Z",
    "source_name": "google",
    "source_query": "Irrigation Equipment",
    "source_country": "GE",
    "country": "Georgia",
    "state": "Kvemo Kartli",
    "city": "Tetrits’q’alos Munitsip’alit’et’i"
  },
  {
    "source_id": "ChIJpdHI0ZgNREARFJAxBWRJuV0",
    "name": "Flash Shawarma",
    "category": "Flash Shawarma",
    "formatted_address": "4,4(221) · ₾10–20",
    "phone_number": "+995557036600",
    "source_url": "https://www.google.com/maps/place/Flash+Shawarma/data=!4m7!3m6!1s0x40440d98d1c8d1a5:0x5db9496405319014!8m2!3d41.7114568!4d44.7929571!16s%2Fg%2F11h778rrwn!19sChIJpdHI0ZgNREARFJAxBWRJuV0?authuser=0&hl=tr&rclk=1",
    "website_url": "https://www.facebook.com/flashshawarma/",
    "rating_text": "4,4",
    "stars": null,
    "number_of_reviews": null,
    "price_level": "",
    "open_hours": "",
    "extraction_timestamp": "2025-06-07T15:16:47.579Z",
    "source_name": "google",
    "source_query": "Irrigation Equipment",
    "source_country": "GE",
    "country": "Georgia",
    "state": "Kvemo Kartli",
    "city": "Tetrits’q’alos Munitsip’alit’et’i"
  },
  {
    "source_id": "ChIJV949hb9zREAR-1janJZxn8Y",
    "name": "Nano Filter - წყლის ფილტრები",
    "category": "Nano Filter - წყლის ფილტრები",
    "formatted_address": "4,6(11)",
    "phone_number": "+995577901100",
    "source_url": "https://www.google.com/maps/place/Nano+Filter+-+%E1%83%AC%E1%83%A7%E1%83%9A%E1%83%98%E1%83%A1+%E1%83%A4%E1%83%98%E1%83%9A%E1%83%A2%E1%83%A0%E1%83%94%E1%83%91%E1%83%98/data=!4m7!3m6!1s0x404473bf853dde57:0xc69f71969cda58fb!8m2!3d41.7195881!4d44.7675411!16s%2Fg%2F11kc3vtfzs!19sChIJV949hb9zREAR-1janJZxn8Y?authuser=0&hl=tr&rclk=1",
    "website_url": "https://nanofilter.ge/",
    "rating_text": "4,6",
    "stars": null,
    "number_of_reviews": null,
    "price_level": "",
    "open_hours": "",
    "extraction_timestamp": "2025-06-07T15:16:47.580Z",
    "source_name": "google",
    "source_query": "Irrigation Equipment",
    "source_country": "GE",
    "country": "Georgia",
    "state": "Kvemo Kartli",
    "city": "Tetrits’q’alos Munitsip’alit’et’i"
  },
  {
    "source_id": "ChIJtfBNl4JzREARZAFlwH08nU8",
    "name": "NUR",
    "category": "NUR",
    "formatted_address": "4,9(208) · ₾10–20",
    "phone_number": "",
    "source_url": "https://www.google.com/maps/place/NUR/data=!4m7!3m6!1s0x40447382974df0b5:0x4f9d3c7dc0650164!8m2!3d41.708787!4d44.761431!16s%2Fg%2F11gmj54dxs!19sChIJtfBNl4JzREARZAFlwH08nU8?authuser=0&hl=tr&rclk=1",
    "website_url": "https://instagram.com/nur_coffeeshop",
    "rating_text": "4,9",
    "stars": null,
    "number_of_reviews": null,
    "price_level": "",
    "open_hours": "",
    "extraction_timestamp": "2025-06-07T15:16:47.582Z",
    "source_name": "google",
    "source_query": "Irrigation Equipment",
    "source_country": "GE",
    "country": "Georgia",
    "state": "Kvemo Kartli",
    "city": "Tetrits’q’alos Munitsip’alit’et’i"
  },
  {
    "source_id": "ChIJmRDHAxgNREARM4kWIlGbaG8",
    "name": "სანტექნიკი",
    "category": "სანტექნიკი",
    "formatted_address": "5,0(7)",
    "phone_number": "+995599133508",
    "source_url": "https://www.google.com/maps/place/%E1%83%A1%E1%83%90%E1%83%9C%E1%83%A2%E1%83%94%E1%83%A5%E1%83%9C%E1%83%98%E1%83%99%E1%83%98/data=!4m7!3m6!1s0x40440d1803c71099:0x6f689b5122168933!8m2!3d41.70639!4d44.787188!16s%2Fg%2F11y3vf2v41!19sChIJmRDHAxgNREARM4kWIlGbaG8?authuser=0&hl=tr&rclk=1",
    "website_url": "",
    "rating_text": "5,0",
    "stars": null,
    "number_of_reviews": null,
    "price_level": "",
    "open_hours": "",
    "extraction_timestamp": "2025-06-07T15:16:47.583Z",
    "source_name": "google",
    "source_query": "Irrigation Equipment",
    "source_country": "GE",
    "country": "Georgia",
    "state": "Kvemo Kartli",
    "city": "Tetrits’q’alos Munitsip’alit’et’i"
  },
  {
    "source_id": "ChIJf_aHCNsMREARb_A6HD_mfcw",
    "name": "Shota Rustaveli Monument",
    "category": "Shota Rustaveli Monument",
    "formatted_address": "4,6(75)",
    "phone_number": "+995322304080",
    "source_url": "https://www.google.com/maps/place/Shota+Rustaveli+Monument/data=!4m7!3m6!1s0x40440cdb0887f67f:0xcc7de63f1c3af06f!8m2!3d41.7038815!4d44.7898714!16s%2Fg%2F11c76k91gq!19sChIJf_aHCNsMREARb_A6HD_mfcw?authuser=0&hl=tr&rclk=1",
    "website_url": "",
    "rating_text": "4,6",
    "stars": null,
    "number_of_reviews": null,
    "price_level": "",
    "open_hours": "",
    "extraction_timestamp": "2025-06-07T15:16:47.584Z",
    "source_name": "google",
    "source_query": "Irrigation Equipment",
    "source_country": "GE",
    "country": "Georgia",
    "state": "Kvemo Kartli",
    "city": "Tetrits’q’alos Munitsip’alit’et’i"
  },
  {
    "source_id": "ChIJPfStlQQNREARP3DyC9F_w98",
    "name": "Palace kitchen",
    "category": "Palace kitchen",
    "formatted_address": "4,3(297) · ₾10–20",
    "phone_number": "+995500702611",
    "source_url": "https://www.google.com/maps/place/Palace+kitchen/data=!4m7!3m6!1s0x40440d0495adf43d:0xdfc37fd10bf2703f!8m2!3d41.6881219!4d44.8243551!16s%2Fg%2F11v6fy6lm_!19sChIJPfStlQQNREARP3DyC9F_w98?authuser=0&hl=tr&rclk=1",
    "website_url": "",
    "rating_text": "4,3",
    "stars": null,
    "number_of_reviews": null,
    "price_level": "",
    "open_hours": "",
    "extraction_timestamp": "2025-06-07T15:16:47.585Z",
    "source_name": "google",
    "source_query": "Irrigation Equipment",
    "source_country": "GE",
    "country": "Georgia",
    "state": "Kvemo Kartli",
    "city": "Tetrits’q’alos Munitsip’alit’et’i"
  }
]
