[
  {
    "source_id": "ChIJ02H1fJm8akARGkCR2BU48us",
    "name": "Iratek LLC",
    "category": "Iratek LLC",
    "formatted_address": "4,7(3)",
    "phone_number": "+37433646646",
    "source_url": "https://www.google.com/maps/place/Iratek+LLC/data=!4m7!3m6!1s0x406abc997cf561d3:0xebf23815d891401a!8m2!3d40.1702145!4d44.5495049!16s%2Fg%2F11b7c2xs5d!19sChIJ02H1fJm8akARGkCR2BU48us?authuser=0&hl=tr&rclk=1",
    "website_url": "",
    "rating_text": "4,7",
    "stars": null,
    "number_of_reviews": null,
    "price_level": "",
    "open_hours": "",
    "extraction_timestamp": "2025-06-07T14:54:44.541Z",
    "source_name": "google",
    "source_query": "Irrigation Equipment",
    "source_country": "AM",
    "country": "Armenia",
    "state": "Gegharkunik Province",
    "city": "Akunk’"
  },
  {
    "source_id": "ChIJ6_q5mYujakARHImBZS4MM5U",
    "name": "Aqua Master",
    "category": "Aqua Master",
    "formatted_address": "5,0(3)",
    "phone_number": "+37443826682",
    "source_url": "https://www.google.com/maps/place/Aqua+Master/data=!4m7!3m6!1s0x406aa38b99b9faeb:0x95330c2e6581891c!8m2!3d40.2408716!4d44.5710315!16s%2Fg%2F11l6mbhtpr!19sChIJ6_q5mYujakARHImBZS4MM5U?authuser=0&hl=tr&rclk=1",
    "website_url": "",
    "rating_text": "5,0",
    "stars": null,
    "number_of_reviews": null,
    "price_level": "",
    "open_hours": "",
    "extraction_timestamp": "2025-06-07T14:54:44.542Z",
    "source_name": "google",
    "source_query": "Irrigation Equipment",
    "source_country": "AM",
    "country": "Armenia",
    "state": "Gegharkunik Province",
    "city": "Akunk’"
  },
  {
    "source_id": "ChIJl6hEJueVP0ARvlaZoaDsQwc",
    "name": "Վան Սուպերմարկետ",
    "category": "Վան Սուպերմարկետ",
    "formatted_address": "5,0(1)",
    "phone_number": "",
    "source_url": "https://www.google.com/maps/place/%D5%8E%D5%A1%D5%B6+%D5%8D%D5%B8%D6%82%D5%BA%D5%A5%D6%80%D5%B4%D5%A1%D6%80%D5%AF%D5%A5%D5%BF/data=!4m7!3m6!1s0x403f95e72644a897:0x743eca0a19956be!8m2!3d40.1837248!4d45.7269411!16s%2Fg%2F11c6lcdt94!19sChIJl6hEJueVP0ARvlaZoaDsQwc?authuser=0&hl=tr&rclk=1",
    "website_url": "",
    "rating_text": "5,0",
    "stars": null,
    "number_of_reviews": null,
    "price_level": "",
    "open_hours": "",
    "extraction_timestamp": "2025-06-07T14:54:44.542Z",
    "source_name": "google",
    "source_query": "Irrigation Equipment",
    "source_country": "AM",
    "country": "Armenia",
    "state": "Gegharkunik Province",
    "city": "Akunk’"
  },
  {
    "source_id": "ChIJT-VTVAC_P0ARM3d2x7BiEZo",
    "name": "Market",
    "category": "Market",
    "formatted_address": "5,0(1)",
    "phone_number": "",
    "source_url": "https://www.google.com/maps/place/Market/data=!4m7!3m6!1s0x403fbf005453e54f:0x9a1162b0c7767733!8m2!3d40.1562371!4d45.7277933!16s%2Fg%2F11ltgr10fn!19sChIJT-VTVAC_P0ARM3d2x7BiEZo?authuser=0&hl=tr&rclk=1",
    "website_url": "",
    "rating_text": "5,0",
    "stars": null,
    "number_of_reviews": null,
    "price_level": "",
    "open_hours": "",
    "extraction_timestamp": "2025-06-07T14:54:44.543Z",
    "source_name": "google",
    "source_query": "Irrigation Equipment",
    "source_country": "AM",
    "country": "Armenia",
    "state": "Gegharkunik Province",
    "city": "Akunk’"
  },
  {
    "source_id": "ChIJTZLDIwCVP0AR_UGthn9ih6k",
    "name": "Раффи",
    "category": "Раффи",
    "formatted_address": "5,0(1)",
    "phone_number": "",
    "source_url": "https://www.google.com/maps/place/%D0%A0%D0%B0%D1%84%D1%84%D0%B8/data=!4m7!3m6!1s0x403f950023c3924d:0xa987627f86ad41fd!8m2!3d40.178236!4d45.7287391!16s%2Fg%2F11vzqkhvr_!19sChIJTZLDIwCVP0AR_UGthn9ih6k?authuser=0&hl=tr&rclk=1",
    "website_url": "",
    "rating_text": "5,0",
    "stars": null,
    "number_of_reviews": null,
    "price_level": "",
    "open_hours": "",
    "extraction_timestamp": "2025-06-07T14:54:44.543Z",
    "source_name": "google",
    "source_query": "Irrigation Equipment",
    "source_country": "AM",
    "country": "Armenia",
    "state": "Gegharkunik Province",
    "city": "Akunk’"
  },
  {
    "source_id": "ChIJy4VveRC8akARfotxo0e3iVw",
    "name": "Welding Materials, Generators, Power Tools Makita",
    "category": "Welding Materials, Generators, Power Tools Makita",
    "formatted_address": "Welding Materials, Generators, Power Tools Makita",
    "phone_number": "+37410444448",
    "source_url": "https://www.google.com/maps/place/Welding+Materials,+Generators,+Power+Tools+Makita/data=!4m7!3m6!1s0x406abc10796f85cb:0x5c89b747a3718b7e!8m2!3d40.149533!4d44.497557!16s%2Fg%2F1ptvt8hj_!19sChIJy4VveRC8akARfotxo0e3iVw?authuser=0&hl=tr&rclk=1",
    "website_url": "",
    "rating_text": "5,0",
    "stars": null,
    "number_of_reviews": null,
    "price_level": "",
    "open_hours": "",
    "extraction_timestamp": "2025-06-07T14:54:44.544Z",
    "source_name": "google",
    "source_query": "Irrigation Equipment",
    "source_country": "AM",
    "country": "Armenia",
    "state": "Gegharkunik Province",
    "city": "Akunk’"
  }
]
