[
  {
    "source_id": "ChIJ02H1fJm8akARGkCR2BU48us",
    "name": "Iratek LLC",
    "category": "Iratek LLC",
    "formatted_address": "4,7(3)",
    "phone_number": "+37433646646",
    "source_url": "https://www.google.com/maps/place/Iratek+LLC/data=!4m7!3m6!1s0x406abc997cf561d3:0xebf23815d891401a!8m2!3d40.1702145!4d44.5495049!16s%2Fg%2F11b7c2xs5d!19sChIJ02H1fJm8akARGkCR2BU48us?authuser=0&hl=tr&rclk=1",
    "website_url": "",
    "rating_text": "4,7",
    "stars": null,
    "number_of_reviews": null,
    "price_level": "",
    "open_hours": "",
    "extraction_timestamp": "2025-06-07T14:55:27.288Z",
    "source_name": "google",
    "source_query": "Irrigation Equipment",
    "source_country": "AM",
    "country": "Armenia",
    "state": "Gegharkunik Province",
    "city": "Lichk’"
  },
  {
    "source_id": "ChIJ6_q5mYujakARHImBZS4MM5U",
    "name": "Aqua Master",
    "category": "Aqua Master",
    "formatted_address": "5,0(3)",
    "phone_number": "+37443826682",
    "source_url": "https://www.google.com/maps/place/Aqua+Master/data=!4m7!3m6!1s0x406aa38b99b9faeb:0x95330c2e6581891c!8m2!3d40.2408716!4d44.5710315!16s%2Fg%2F11l6mbhtpr!19sChIJ6_q5mYujakARHImBZS4MM5U?authuser=0&hl=tr&rclk=1",
    "website_url": "",
    "rating_text": "5,0",
    "stars": null,
    "number_of_reviews": null,
    "price_level": "",
    "open_hours": "",
    "extraction_timestamp": "2025-06-07T14:55:27.294Z",
    "source_name": "google",
    "source_query": "Irrigation Equipment",
    "source_country": "AM",
    "country": "Armenia",
    "state": "Gegharkunik Province",
    "city": "Lichk’"
  },
  {
    "source_id": "ChIJ-09nJtT7P0AR0_4DwXqBhwk",
    "name": "NG",
    "category": "NG",
    "formatted_address": "3,5(22)",
    "phone_number": "+37493231119",
    "source_url": "https://www.google.com/maps/place/NG/data=!4m7!3m6!1s0x403ffbd426674ffb:0x987817ac103fed3!8m2!3d40.1684806!4d45.2404857!16s%2Fg%2F11sd5hq3ng!19sChIJ-09nJtT7P0AR0_4DwXqBhwk?authuser=0&hl=tr&rclk=1",
    "website_url": "",
    "rating_text": "3,5",
    "stars": null,
    "number_of_reviews": null,
    "price_level": "",
    "open_hours": "",
    "extraction_timestamp": "2025-06-07T14:55:27.294Z",
    "source_name": "google",
    "source_query": "Irrigation Equipment",
    "source_country": "AM",
    "country": "Armenia",
    "state": "Gegharkunik Province",
    "city": "Lichk’"
  },
  {
    "source_id": "ChIJD_m1Jcj7P0ARwwMx-hoonI0",
    "name": "Kilikia Supermarket",
    "category": "Kilikia Supermarket",
    "formatted_address": "5,0(1)",
    "phone_number": "",
    "source_url": "https://www.google.com/maps/place/Kilikia+Supermarket/data=!4m7!3m6!1s0x403ffbc825b5f90f:0x8d9c281afa3103c3!8m2!3d40.1630358!4d45.2380249!16s%2Fg%2F11v3h0dcrx!19sChIJD_m1Jcj7P0ARwwMx-hoonI0?authuser=0&hl=tr&rclk=1",
    "website_url": "",
    "rating_text": "5,0",
    "stars": null,
    "number_of_reviews": null,
    "price_level": "",
    "open_hours": "",
    "extraction_timestamp": "2025-06-07T14:55:27.295Z",
    "source_name": "google",
    "source_query": "Irrigation Equipment",
    "source_country": "AM",
    "country": "Armenia",
    "state": "Gegharkunik Province",
    "city": "Lichk’"
  },
  {
    "source_id": "ChIJSehc_K69akAR5hWXcDHb1G0",
    "name": "IRRRISAL Irrigation systems",
    "category": "IRRRISAL Irrigation systems",
    "formatted_address": "Sulama Ekipmanları Tedarikçisi · 210/1 Arshakunyats AveKapalı ⋅ Açılış zamanı: Paz 10:00 · +374 99 000559",
    "phone_number": "+37499000559",
    "source_url": "https://www.google.com/maps/place/IRRRISAL+Irrigation+systems/data=!4m7!3m6!1s0x406abdaefc5ce849:0x6dd4db31709715e6!8m2!3d40.1428036!4d44.4957727!16s%2Fg%2F11jgmv2bl9!19sChIJSehc_K69akAR5hWXcDHb1G0?authuser=0&hl=tr&rclk=1",
    "website_url": "",
    "rating_text": "",
    "stars": null,
    "number_of_reviews": null,
    "price_level": "",
    "open_hours": "",
    "extraction_timestamp": "2025-06-07T14:55:27.295Z",
    "source_name": "google",
    "source_query": "Irrigation Equipment",
    "source_country": "AM",
    "country": "Armenia",
    "state": "Gegharkunik Province",
    "city": "Lichk’"
  }
]
