[
  {
    "source_id": "ChIJ02H1fJm8akARGkCR2BU48us",
    "name": "Iratek LLC",
    "category": "Iratek LLC",
    "formatted_address": "4,7(3)",
    "phone_number": "+37433646646",
    "source_url": "https://www.google.com/maps/place/Iratek+LLC/data=!4m7!3m6!1s0x406abc997cf561d3:0xebf23815d891401a!8m2!3d40.1702145!4d44.5495049!16s%2Fg%2F11b7c2xs5d!19sChIJ02H1fJm8akARGkCR2BU48us?authuser=0&hl=tr&rclk=1",
    "website_url": "http://www.iratek.am/",
    "rating_text": "4,7",
    "stars": null,
    "number_of_reviews": null,
    "price_level": "",
    "open_hours": "",
    "extraction_timestamp": "2025-06-07T14:55:10.217Z",
    "source_name": "google",
    "source_query": "Irrigation Equipment",
    "source_country": "AM",
    "country": "Armenia",
    "state": "Gegharkunik Province",
    "city": "Tsovinar"
  },
  {
    "source_id": "ChIJ6_q5mYujakARHImBZS4MM5U",
    "name": "Aqua Master",
    "category": "Aqua Master",
    "formatted_address": "5,0(3)",
    "phone_number": "+37443826682",
    "source_url": "https://www.google.com/maps/place/Aqua+Master/data=!4m7!3m6!1s0x406aa38b99b9faeb:0x95330c2e6581891c!8m2!3d40.2408716!4d44.5710315!16s%2Fg%2F11l6mbhtpr!19sChIJ6_q5mYujakARHImBZS4MM5U?authuser=0&hl=tr&rclk=1",
    "website_url": "https://www.irrigation.am/",
    "rating_text": "5,0",
    "stars": null,
    "number_of_reviews": null,
    "price_level": "",
    "open_hours": "",
    "extraction_timestamp": "2025-06-07T14:55:10.217Z",
    "source_name": "google",
    "source_query": "Irrigation Equipment",
    "source_country": "AM",
    "country": "Armenia",
    "state": "Gegharkunik Province",
    "city": "Tsovinar"
  },
  {
    "source_id": "ChIJD_-JAwDtP0ARXlEoMTib51k",
    "name": "Tsovinar Market",
    "category": "Tsovinar Market",
    "formatted_address": "",
    "phone_number": "+37494883008",
    "source_url": "https://www.google.com/maps/place/Tsovinar+Market/data=!4m7!3m6!1s0x403fed000389ff0f:0x59e79b383128515e!8m2!3d40.1600761!4d45.4661266!16s%2Fg%2F11y98xjsbx!19sChIJD_-JAwDtP0ARXlEoMTib51k?authuser=0&hl=tr&rclk=1",
    "website_url": "",
    "rating_text": "",
    "stars": null,
    "number_of_reviews": null,
    "price_level": "",
    "open_hours": "",
    "extraction_timestamp": "2025-06-07T14:55:10.218Z",
    "source_name": "google",
    "source_query": "Irrigation Equipment",
    "source_country": "AM",
    "country": "Armenia",
    "state": "Gegharkunik Province",
    "city": "Tsovinar"
  },
  {
    "source_id": "ChIJSehc_K69akAR5hWXcDHb1G0",
    "name": "IRRRISAL Irrigation systems",
    "category": "IRRRISAL Irrigation systems",
    "formatted_address": "Sulama Ekipmanları Tedarikçisi · 210/1 Arshakunyats AveKapalı ⋅ Açılış zamanı: Paz 10:00 · +374 99 000559",
    "phone_number": "+37499000559",
    "source_url": "https://www.google.com/maps/place/IRRRISAL+Irrigation+systems/data=!4m7!3m6!1s0x406abdaefc5ce849:0x6dd4db31709715e6!8m2!3d40.1428036!4d44.4957727!16s%2Fg%2F11jgmv2bl9!19sChIJSehc_K69akAR5hWXcDHb1G0?authuser=0&hl=tr&rclk=1",
    "website_url": "",
    "rating_text": "",
    "stars": null,
    "number_of_reviews": null,
    "price_level": "",
    "open_hours": "",
    "extraction_timestamp": "2025-06-07T14:55:10.219Z",
    "source_name": "google",
    "source_query": "Irrigation Equipment",
    "source_country": "AM",
    "country": "Armenia",
    "state": "Gegharkunik Province",
    "city": "Tsovinar"
  },
  {
    "source_id": "ChIJVVXl4PS8akARiI91mzdLyCI",
    "name": "AQUA Systems Armenia",
    "category": "AQUA Systems Armenia",
    "formatted_address": "3,9(16)",
    "phone_number": "+37433606060",
    "source_url": "https://www.google.com/maps/place/AQUA+Systems+Armenia/data=!4m7!3m6!1s0x406abcf4e0e55555:0x22c84b379b758f88!8m2!3d40.1711706!4d44.520994!16s%2Fg%2F11h84zy3x2!19sChIJVVXl4PS8akARiI91mzdLyCI?authuser=0&hl=tr&rclk=1",
    "website_url": "https://aquasystems.am/",
    "rating_text": "3,9",
    "stars": null,
    "number_of_reviews": null,
    "price_level": "",
    "open_hours": "",
    "extraction_timestamp": "2025-06-07T14:55:10.219Z",
    "source_name": "google",
    "source_query": "Irrigation Equipment",
    "source_country": "AM",
    "country": "Armenia",
    "state": "Gegharkunik Province",
    "city": "Tsovinar"
  },
  {
    "source_id": "ChIJ41d2ixC8akARcc1vkItDPcg",
    "name": "Հիլկո Հայաստան",
    "category": "Հիլկո Հայաստան",
    "formatted_address": "5,0(3)",
    "phone_number": "+37494493223",
    "source_url": "https://www.google.com/maps/place/%D5%80%D5%AB%D5%AC%D5%AF%D5%B8+%D5%80%D5%A1%D5%B5%D5%A1%D5%BD%D5%BF%D5%A1%D5%B6/data=!4m7!3m6!1s0x406abc108b7657e3:0xc83d438b906fcd71!8m2!3d40.1492873!4d44.497491!16s%2Fg%2F1pp2vltyg!19sChIJ41d2ixC8akARcc1vkItDPcg?authuser=0&hl=tr&rclk=1",
    "website_url": "https://www.hilco.am/",
    "rating_text": "5,0",
    "stars": null,
    "number_of_reviews": null,
    "price_level": "",
    "open_hours": "",
    "extraction_timestamp": "2025-06-07T14:55:10.220Z",
    "source_name": "google",
    "source_query": "Irrigation Equipment",
    "source_country": "AM",
    "country": "Armenia",
    "state": "Gegharkunik Province",
    "city": "Tsovinar"
  }
]
