[
  {
    "source_id": "ChIJWTtd2Cuzmz8RYNPNUj4NzOk",
    "name": "Shahrab water purification equipment store",
    "category": "Shahrab water purification equipment store",
    "formatted_address": "4,7(3)",
    "phone_number": "+989900045010",
    "source_url": "https://www.google.com/maps/place/Shahrab+water+purification+equipment+store/data=!4m7!3m6!1s0x3f9bb32bd85d3b59:0xe9cc0d3e52cdd360!8m2!3d35.5905009!4d53.3969906!16s%2Fg%2F11f_49mq33!19sChIJWTtd2Cuzmz8RYNPNUj4NzOk?authuser=0&hl=tr&rclk=1",
    "website_url": "http://shahreab.ir/",
    "rating_text": "4,7",
    "stars": null,
    "number_of_reviews": null,
    "price_level": "",
    "open_hours": "",
    "extraction_timestamp": "2025-06-07T15:36:24.172Z",
    "source_name": "google",
    "source_query": "Irrigation Equipment",
    "source_country": "IR",
    "country": "Iran",
    "state": "Semnan",
    "city": "Darjazin"
  },
  {
    "source_id": "ChIJG75fs59Nmj8ReOUv01RAmiM",
    "name": "تصفیه آب آکواجوی( کساییان)",
    "category": "تصفیه آب آکواجوی( کساییان)",
    "formatted_address": "4,6(10)",
    "phone_number": "+982333332077",
    "source_url": "https://www.google.com/maps/place/%D8%AA%D8%B5%D9%81%DB%8C%D9%87+%D8%A2%D8%A8+%D8%A2%DA%A9%D9%88%D8%A7%D8%AC%D9%88%DB%8C%28+%DA%A9%D8%B3%D8%A7%DB%8C%DB%8C%D8%A7%D9%86%29%E2%80%AD/data=!4m7!3m6!1s0x3f9a4d9fb35fbe1b:0x239a4054d32fe578!8m2!3d35.5784654!4d53.3879484!16s%2Fg%2F11r_dmvr4c!19sChIJG75fs59Nmj8ReOUv01RAmiM?authuser=0&hl=tr&rclk=1",
    "website_url": "http://www.instagram.com//tasfie.ab.aquajoy",
    "rating_text": "4,6",
    "stars": null,
    "number_of_reviews": null,
    "price_level": "",
    "open_hours": "",
    "extraction_timestamp": "2025-06-07T15:36:24.174Z",
    "source_name": "google",
    "source_query": "Irrigation Equipment",
    "source_country": "IR",
    "country": "Iran",
    "state": "Semnan",
    "city": "Darjazin"
  },
  {
    "source_id": "ChIJwebvMbmxmz8R9AqT2rGEWcc",
    "name": "semnan polyethylene pipe & fitting co",
    "category": "semnan polyethylene pipe & fitting co",
    "formatted_address": "4,0(2)",
    "phone_number": "+982333652805",
    "source_url": "https://www.google.com/maps/place/semnan+polyethylene+pipe+%26+fitting+co/data=!4m7!3m6!1s0x3f9bb1b931efe6c1:0xc75984b1da930af4!8m2!3d35.6165595!4d53.5188367!16s%2Fg%2F11fj5ck68b!19sChIJwebvMbmxmz8R9AqT2rGEWcc?authuser=0&hl=tr&rclk=1",
    "website_url": "http://www.semnanpe.com/",
    "rating_text": "4,0",
    "stars": null,
    "number_of_reviews": null,
    "price_level": "",
    "open_hours": "",
    "extraction_timestamp": "2025-06-07T15:36:24.175Z",
    "source_name": "google",
    "source_query": "Irrigation Equipment",
    "source_country": "IR",
    "country": "Iran",
    "state": "Semnan",
    "city": "Darjazin"
  },
  {
    "source_id": "ChIJGfclyNJMmj8Rt1WFhzJ5jHI",
    "name": "Aryan system",
    "category": "Aryan system",
    "formatted_address": "Su Yumuşatma Ekipmanları Tedarikçisi · Mo'alem Blvd, H9MR+C3JAçık ⋅ Kapanış saati: 21:00 · +98 23 3333 6190",
    "phone_number": "+982333336190",
    "source_url": "https://www.google.com/maps/place/Aryan+system/data=!4m7!3m6!1s0x3f9a4cd2c825f719:0x728c7932878555b7!8m2!3d35.5835883!4d53.3901517!16s%2Fg%2F11c1nz3hjk!19sChIJGfclyNJMmj8Rt1WFhzJ5jHI?authuser=0&hl=tr&rclk=1",
    "website_url": "http://aryan-system.ir/",
    "rating_text": "",
    "stars": null,
    "number_of_reviews": null,
    "price_level": "",
    "open_hours": "",
    "extraction_timestamp": "2025-06-07T15:36:24.176Z",
    "source_name": "google",
    "source_query": "Irrigation Equipment",
    "source_country": "IR",
    "country": "Iran",
    "state": "Semnan",
    "city": "Darjazin"
  },
  {
    "source_id": "ChIJX0d8mWxTmj8Ry3J7mtbO2gU",
    "name": "Kimia Faravar kud",
    "category": "Kimia Faravar kud",
    "formatted_address": "5,0(2)",
    "phone_number": "+989127311760",
    "source_url": "https://www.google.com/maps/place/Kimia+Faravar+kud/data=!4m7!3m6!1s0x3f9a536c997c475f:0x5daced69a7b72cb!8m2!3d35.6588011!4d53.3169127!16s%2Fg%2F11llylfnph!19sChIJX0d8mWxTmj8Ry3J7mtbO2gU?authuser=0&hl=tr&rclk=1",
    "website_url": "",
    "rating_text": "5,0",
    "stars": null,
    "number_of_reviews": null,
    "price_level": "",
    "open_hours": "",
    "extraction_timestamp": "2025-06-07T15:36:24.177Z",
    "source_name": "google",
    "source_query": "Irrigation Equipment",
    "source_country": "IR",
    "country": "Iran",
    "state": "Semnan",
    "city": "Darjazin"
  },
  {
    "source_id": "ChIJvZlT502xmz8R0i_vJ7bnRac",
    "name": "Maher Amin",
    "category": "Maher Amin",
    "formatted_address": "5,0(1)",
    "phone_number": "+982188140098",
    "source_url": "https://www.google.com/maps/place/Maher+Amin/data=!4m7!3m6!1s0x3f9bb14de75399bd:0xa745e7b627ef2fd2!8m2!3d35.6111271!4d53.5108431!16s%2Fg%2F11tcczlwy0!19sChIJvZlT502xmz8R0i_vJ7bnRac?authuser=0&hl=tr&rclk=1",
    "website_url": "",
    "rating_text": "5,0",
    "stars": null,
    "number_of_reviews": null,
    "price_level": "",
    "open_hours": "",
    "extraction_timestamp": "2025-06-07T15:36:24.178Z",
    "source_name": "google",
    "source_query": "Irrigation Equipment",
    "source_country": "IR",
    "country": "Iran",
    "state": "Semnan",
    "city": "Darjazin"
  },
  {
    "source_id": "ChIJV_O3AMFTmj8RfSGPeI4MsN0",
    "name": "Behbud Avaran Sanat Co.",
    "category": "Behbud Avaran Sanat Co.",
    "formatted_address": "5,0(2)",
    "phone_number": "+989123326174",
    "source_url": "https://www.google.com/maps/place/Behbud+Avaran+Sanat+Co./data=!4m7!3m6!1s0x3f9a53c100b7f357:0xddb00c8e788f217d!8m2!3d35.6606349!4d53.3227628!16s%2Fg%2F11cncp5bbb!19sChIJV_O3AMFTmj8RfSGPeI4MsN0?authuser=0&hl=tr&rclk=1",
    "website_url": "",
    "rating_text": "5,0",
    "stars": null,
    "number_of_reviews": null,
    "price_level": "",
    "open_hours": "",
    "extraction_timestamp": "2025-06-07T15:36:24.180Z",
    "source_name": "google",
    "source_query": "Irrigation Equipment",
    "source_country": "IR",
    "country": "Iran",
    "state": "Semnan",
    "city": "Darjazin"
  },
  {
    "source_id": "ChIJPYr5HABNmj8Rjsn3DceoEXI",
    "name": "تصفیه آب آکواجوی",
    "category": "تصفیه آب آکواجوی",
    "formatted_address": "5,0(4)",
    "phone_number": "+982333460102",
    "source_url": "https://www.google.com/maps/place/%D8%AA%D8%B5%D9%81%DB%8C%D9%87+%D8%A2%D8%A8+%D8%A2%DA%A9%D9%88%D8%A7%D8%AC%D9%88%DB%8C%E2%80%AD/data=!4m7!3m6!1s0x3f9a4d001cf98a3d:0x7211a8c70df7c98e!8m2!3d35.5812462!4d53.3721798!16s%2Fg%2F11w2jsf_11!19sChIJPYr5HABNmj8Rjsn3DceoEXI?authuser=0&hl=tr&rclk=1",
    "website_url": "http://hirabsun.com/",
    "rating_text": "5,0",
    "stars": null,
    "number_of_reviews": null,
    "price_level": "",
    "open_hours": "",
    "extraction_timestamp": "2025-06-07T15:36:24.181Z",
    "source_name": "google",
    "source_query": "Irrigation Equipment",
    "source_country": "IR",
    "country": "Iran",
    "state": "Semnan",
    "city": "Darjazin"
  },
  {
    "source_id": "ChIJKzgfpo1Nmj8RiAWXGdrOmo0",
    "name": "تصفیه آب آزادی",
    "category": "تصفیه آب آزادی",
    "formatted_address": "5,0(2)",
    "phone_number": "+989107429790",
    "source_url": "https://www.google.com/maps/place/%D8%AA%D8%B5%D9%81%DB%8C%D9%87+%D8%A2%D8%A8+%D8%A2%D8%B2%D8%A7%D8%AF%DB%8C%E2%80%AD/data=!4m7!3m6!1s0x3f9a4d8da61f382b:0x8d9aceda19970588!8m2!3d35.5857387!4d53.3804917!16s%2Fg%2F11h79k97jx!19sChIJKzgfpo1Nmj8RiAWXGdrOmo0?authuser=0&hl=tr&rclk=1",
    "website_url": "",
    "rating_text": "5,0",
    "stars": null,
    "number_of_reviews": null,
    "price_level": "",
    "open_hours": "",
    "extraction_timestamp": "2025-06-07T15:36:24.182Z",
    "source_name": "google",
    "source_query": "Irrigation Equipment",
    "source_country": "IR",
    "country": "Iran",
    "state": "Semnan",
    "city": "Darjazin"
  },
  {
    "source_id": "ChIJSSBdzmkPnT8R7W0Fevny0gQ",
    "name": "شرکت مهندسی جم آب سازه مجری سیستم های نوین آبیاری قطره ای و بارانی",
    "category": "شرکت مهندسی جم آب سازه مجری سیستم های نوین آبیاری قطره ای و بارانی",
    "formatted_address": "",
    "phone_number": "+989102736005",
    "source_url": "https://www.google.com/maps/place/%D8%B4%D8%B1%DA%A9%D8%AA+%D9%85%D9%87%D9%86%D8%AF%D8%B3%DB%8C+%D8%AC%D9%85+%D8%A2%D8%A8+%D8%B3%D8%A7%D8%B2%D9%87+%D9%85%D8%AC%D8%B1%DB%8C+%D8%B3%DB%8C%D8%B3%D8%AA%D9%85+%D9%87%D8%A7%DB%8C+%D9%86%D9%88%DB%8C%D9%86+%D8%A2%D8%A8%DB%8C%D8%A7%D8%B1%DB%8C+%D9%82%D8%B7%D8%B1%D9%87+%D8%A7%DB%8C+%D9%88+%D8%A8%D8%A7%D8%B1%D8%A7%D9%86%DB%8C%E2%80%AD/data=!4m7!3m6!1s0x3f9d0f69ce5d2049:0x4d2f2f97a056ded!8m2!3d36.4336936!4d54.9753559!16s%2Fg%2F11j0qfqm89!19sChIJSSBdzmkPnT8R7W0Fevny0gQ?authuser=0&hl=tr&rclk=1",
    "website_url": "",
    "rating_text": "",
    "stars": null,
    "number_of_reviews": null,
    "price_level": "",
    "open_hours": "",
    "extraction_timestamp": "2025-06-07T15:36:24.183Z",
    "source_name": "google",
    "source_query": "Irrigation Equipment",
    "source_country": "IR",
    "country": "Iran",
    "state": "Semnan",
    "city": "Darjazin"
  },
  {
    "source_id": "ChIJPzxieQ6zmz8RyKpwPuPNC_8",
    "name": "شرکت مهندسی کشاورزی رَز(معیار گستر)",
    "category": "شرکت مهندسی کشاورزی رَز(معیار گستر)",
    "formatted_address": "",
    "phone_number": "+982333322515",
    "source_url": "https://www.google.com/maps/place/%D8%B4%D8%B1%DA%A9%D8%AA+%D9%85%D9%87%D9%86%D8%AF%D8%B3%DB%8C+%DA%A9%D8%B4%D8%A7%D9%88%D8%B1%D8%B2%DB%8C+%D8%B1%D9%8E%D8%B2%28%D9%85%D8%B9%DB%8C%D8%A7%D8%B1+%DA%AF%D8%B3%D8%AA%D8%B1%29%E2%80%AD/data=!4m7!3m6!1s0x3f9bb30e79623c3f:0xff0bcde33e70aac8!8m2!3d35.5792623!4d53.3925216!16s%2Fg%2F11mqlz7q9q!19sChIJPzxieQ6zmz8RyKpwPuPNC_8?authuser=0&hl=tr&rclk=1",
    "website_url": "https://www.digiraz.com/",
    "rating_text": "",
    "stars": null,
    "number_of_reviews": null,
    "price_level": "",
    "open_hours": "",
    "extraction_timestamp": "2025-06-07T15:36:24.184Z",
    "source_name": "google",
    "source_query": "Irrigation Equipment",
    "source_country": "IR",
    "country": "Iran",
    "state": "Semnan",
    "city": "Darjazin"
  },
  {
    "source_id": "ChIJr_ADnDTxkD8RDpGaR3yUY24",
    "name": "سبزینه گستر کویر",
    "category": "سبزینه گستر کویر",
    "formatted_address": "",
    "phone_number": "+982354848454",
    "source_url": "https://www.google.com/maps/place/%D8%B3%D8%A8%D8%B2%DB%8C%D9%86%D9%87+%DA%AF%D8%B3%D8%AA%D8%B1+%DA%A9%D9%88%DB%8C%D8%B1%E2%80%AD/data=!4m7!3m6!1s0x3f90f1349c03f0af:0x6e63947c479a910e!8m2!3d35.2446515!4d52.2324144!16s%2Fg%2F11g4h33v6l!19sChIJr_ADnDTxkD8RDpGaR3yUY24?authuser=0&hl=tr&rclk=1",
    "website_url": "http://sabzine-gostar.com/",
    "rating_text": "",
    "stars": null,
    "number_of_reviews": null,
    "price_level": "",
    "open_hours": "",
    "extraction_timestamp": "2025-06-07T15:36:24.185Z",
    "source_name": "google",
    "source_query": "Irrigation Equipment",
    "source_country": "IR",
    "country": "Iran",
    "state": "Semnan",
    "city": "Darjazin"
  },
  {
    "source_id": "ChIJA7cnZQJTmj8RU42pEMsYV4c",
    "name": "شرکت کود شیمیایی البرز سنگسر",
    "category": "شرکت کود شیمیایی البرز سنگسر",
    "formatted_address": "Üretici · جنوب, J8J4+9J6 شهرک گلخانه ای24 saat açık · +98 23 3368 5181",
    "phone_number": "+982333685181",
    "source_url": "https://www.google.com/maps/place/%D8%B4%D8%B1%DA%A9%D8%AA+%DA%A9%D9%88%D8%AF+%D8%B4%DB%8C%D9%85%DB%8C%D8%A7%DB%8C%DB%8C+%D8%A7%D9%84%D8%A8%D8%B1%D8%B2+%D8%B3%D9%86%DA%AF%D8%B3%D8%B1%E2%80%AD/data=!4m7!3m6!1s0x3f9a53026527b703:0x875718cb10a98d53!8m2!3d35.6309182!4d53.3065001!16s%2Fg%2F11pxlntx5x!19sChIJA7cnZQJTmj8RU42pEMsYV4c?authuser=0&hl=tr&rclk=1",
    "website_url": "",
    "rating_text": "",
    "stars": null,
    "number_of_reviews": null,
    "price_level": "",
    "open_hours": "",
    "extraction_timestamp": "2025-06-07T15:36:24.186Z",
    "source_name": "google",
    "source_query": "Irrigation Equipment",
    "source_country": "IR",
    "country": "Iran",
    "state": "Semnan",
    "city": "Darjazin"
  },
  {
    "source_id": "ChIJa_tkz5cPnT8RYRHvq8E_KQw",
    "name": "تصفیه آب وکیلیان",
    "category": "تصفیه آب وکیلیان",
    "formatted_address": "5,0(1)",
    "phone_number": "+982332337080",
    "source_url": "https://www.google.com/maps/place/%D8%AA%D8%B5%D9%81%DB%8C%D9%87+%D8%A2%D8%A8+%D9%88%DA%A9%DB%8C%D9%84%DB%8C%D8%A7%D9%86%E2%80%AD/data=!4m7!3m6!1s0x3f9d0f97cf64fb6b:0xc293fc1abef1161!8m2!3d36.4171335!4d54.9706892!16s%2Fg%2F11fls3dfzy!19sChIJa_tkz5cPnT8RYRHvq8E_KQw?authuser=0&hl=tr&rclk=1",
    "website_url": "",
    "rating_text": "5,0",
    "stars": null,
    "number_of_reviews": null,
    "price_level": "",
    "open_hours": "",
    "extraction_timestamp": "2025-06-07T15:36:24.187Z",
    "source_name": "google",
    "source_query": "Irrigation Equipment",
    "source_country": "IR",
    "country": "Iran",
    "state": "Semnan",
    "city": "Darjazin"
  },
  {
    "source_id": "ChIJiaF7ZbtTmj8Rr3b7jlMSKHE",
    "name": "Semnan Tile",
    "category": "Semnan Tile",
    "formatted_address": "4,5(4)",
    "phone_number": "+989128948850",
    "source_url": "https://www.google.com/maps/place/Semnan+Tile/data=!4m7!3m6!1s0x3f9a53bb657ba189:0x712812538efb76af!8m2!3d35.6605805!4d53.3335248!16s%2Fg%2F1tkjjp2g!19sChIJiaF7ZbtTmj8Rr3b7jlMSKHE?authuser=0&hl=tr&rclk=1",
    "website_url": "",
    "rating_text": "4,5",
    "stars": null,
    "number_of_reviews": null,
    "price_level": "",
    "open_hours": "",
    "extraction_timestamp": "2025-06-07T15:36:24.188Z",
    "source_name": "google",
    "source_query": "Irrigation Equipment",
    "source_country": "IR",
    "country": "Iran",
    "state": "Semnan",
    "city": "Darjazin"
  },
  {
    "source_id": "ChIJB-xGo3lTmj8R7Rl4ka9sroA",
    "name": "هایپر یاقوت سرخ",
    "category": "هایپر یاقوت سرخ",
    "formatted_address": "5,0(1)",
    "phone_number": "+982333685249",
    "source_url": "https://www.google.com/maps/place/%D9%87%D8%A7%DB%8C%D9%BE%D8%B1+%DB%8C%D8%A7%D9%82%D9%88%D8%AA+%D8%B3%D8%B1%D8%AE%E2%80%AD/data=!4m7!3m6!1s0x3f9a5379a346ec07:0x80ae6caf917819ed!8m2!3d35.6520745!4d53.3393546!16s%2Fg%2F11s7qyqh4b!19sChIJB-xGo3lTmj8R7Rl4ka9sroA?authuser=0&hl=tr&rclk=1",
    "website_url": "",
    "rating_text": "5,0",
    "stars": null,
    "number_of_reviews": null,
    "price_level": "",
    "open_hours": "",
    "extraction_timestamp": "2025-06-07T15:36:24.189Z",
    "source_name": "google",
    "source_query": "Irrigation Equipment",
    "source_country": "IR",
    "country": "Iran",
    "state": "Semnan",
    "city": "Darjazin"
  },
  {
    "source_id": "ChIJY20q2KEPnT8RsueS34nuSeI",
    "name": "جم آب سازه کوثر",
    "category": "جم آب سازه کوثر",
    "formatted_address": "Sulama Ekipmanları Tedarikçisi · شاهرود،،, CXMG+HHFKapalı ⋅ Açılış zamanı: Paz 09:00 · +98 23 3224 6982",
    "phone_number": "+982332246982",
    "source_url": "https://www.google.com/maps/place/%D8%AC%D9%85+%D8%A2%D8%A8+%D8%B3%D8%A7%D8%B2%D9%87+%DA%A9%D9%88%D8%AB%D8%B1%E2%80%AD/data=!4m7!3m6!1s0x3f9d0fa1d82a6d63:0xe249ee89df92e7b2!8m2!3d36.4339255!4d54.9764252!16s%2Fg%2F11fvl52__5!19sChIJY20q2KEPnT8RsueS34nuSeI?authuser=0&hl=tr&rclk=1",
    "website_url": "",
    "rating_text": "",
    "stars": null,
    "number_of_reviews": null,
    "price_level": "",
    "open_hours": "",
    "extraction_timestamp": "2025-06-07T15:36:24.190Z",
    "source_name": "google",
    "source_query": "Irrigation Equipment",
    "source_country": "IR",
    "country": "Iran",
    "state": "Semnan",
    "city": "Darjazin"
  },
  {
    "source_id": "ChIJw_fS3keskT8Rcw6yqJ0AN2c",
    "name": "Payandeh gas",
    "category": "Payandeh gas",
    "formatted_address": "",
    "phone_number": "+982334583212",
    "source_url": "https://www.google.com/maps/place/Payandeh+gas/data=!4m7!3m6!1s0x3f91ac47ded2f7c3:0x6737009da8b20e73!8m2!3d35.3689356!4d51.9596598!16s%2Fg%2F11f3njgdwv!19sChIJw_fS3keskT8Rcw6yqJ0AN2c?authuser=0&hl=tr&rclk=1",
    "website_url": "",
    "rating_text": "",
    "stars": null,
    "number_of_reviews": null,
    "price_level": "",
    "open_hours": "",
    "extraction_timestamp": "2025-06-07T15:36:24.191Z",
    "source_name": "google",
    "source_query": "Irrigation Equipment",
    "source_country": "IR",
    "country": "Iran",
    "state": "Semnan",
    "city": "Darjazin"
  },
  {
    "source_id": "ChIJ4-Nd1AFNmj8R2TfdL_bC24g",
    "name": "مواد غذایی سجاد",
    "category": "مواد غذایی سجاد",
    "formatted_address": "5,0(1)",
    "phone_number": "+989383683139",
    "source_url": "https://www.google.com/maps/place/%D9%85%D9%88%D8%A7%D8%AF+%D8%BA%D8%B0%D8%A7%DB%8C%DB%8C+%D8%B3%D8%AC%D8%A7%D8%AF%E2%80%AD/data=!4m7!3m6!1s0x3f9a4d01d45de3e3:0x88dbc2f62fdd37d9!8m2!3d35.5791275!4d53.3662149!16s%2Fg%2F11km9zpy37!19sChIJ4-Nd1AFNmj8R2TfdL_bC24g?authuser=0&hl=tr&rclk=1",
    "website_url": "",
    "rating_text": "5,0",
    "stars": null,
    "number_of_reviews": null,
    "price_level": "",
    "open_hours": "",
    "extraction_timestamp": "2025-06-07T15:36:24.192Z",
    "source_name": "google",
    "source_query": "Irrigation Equipment",
    "source_country": "IR",
    "country": "Iran",
    "state": "Semnan",
    "city": "Darjazin"
  },
  {
    "source_id": "ChIJm00kKuJNmj8RKgQaF_od7Yw",
    "name": "عطاری عصاره سلامت",
    "category": "عطاری عصاره سلامت",
    "formatted_address": "4,5(2)",
    "phone_number": "+982333454643",
    "source_url": "https://www.google.com/maps/place/%D8%B9%D8%B7%D8%A7%D8%B1%DB%8C+%D8%B9%D8%B5%D8%A7%D8%B1%D9%87+%D8%B3%D9%84%D8%A7%D9%85%D8%AA%E2%80%AD/data=!4m7!3m6!1s0x3f9a4de22a244d9b:0x8ced1dfa171a042a!8m2!3d35.5849198!4d53.3758945!16s%2Fg%2F11fqz575v0!19sChIJm00kKuJNmj8RKgQaF_od7Yw?authuser=0&hl=tr&rclk=1",
    "website_url": "",
    "rating_text": "4,5",
    "stars": null,
    "number_of_reviews": null,
    "price_level": "",
    "open_hours": "",
    "extraction_timestamp": "2025-06-07T15:36:24.193Z",
    "source_name": "google",
    "source_query": "Irrigation Equipment",
    "source_country": "IR",
    "country": "Iran",
    "state": "Semnan",
    "city": "Darjazin"
  },
  {
    "source_id": "ChIJCfY5VQBNmj8RjFWGBt6nsgI",
    "name": "کافه ایرونی",
    "category": "کافه ایرونی",
    "formatted_address": "Kahve dükkanı · Varzesh Blvd, H9PQ+724Açık ⋅ Kapanış saati: 23:00 · +98 919 998 7310",
    "phone_number": "+989199987310",
    "source_url": "https://www.google.com/maps/place/%DA%A9%D8%A7%D9%81%D9%87+%D8%A7%DB%8C%D8%B1%D9%88%D9%86%DB%8C%E2%80%AD/data=!4m7!3m6!1s0x3f9a4d005539f609:0x2b2a7de0686558c!8m2!3d35.5856413!4d53.3875788!16s%2Fg%2F11ycfmrkc6!19sChIJCfY5VQBNmj8RjFWGBt6nsgI?authuser=0&hl=tr&rclk=1",
    "website_url": "",
    "rating_text": "",
    "stars": null,
    "number_of_reviews": null,
    "price_level": "",
    "open_hours": "",
    "extraction_timestamp": "2025-06-07T15:36:24.194Z",
    "source_name": "google",
    "source_query": "Irrigation Equipment",
    "source_country": "IR",
    "country": "Iran",
    "state": "Semnan",
    "city": "Darjazin"
  },
  {
    "source_id": "ChIJe9tgJACzmz8RXn7kwZhjlTc",
    "name": "کافه بازی دن کلاب سمنان",
    "category": "کافه بازی دن کلاب سمنان",
    "formatted_address": "5,0(5)",
    "phone_number": "",
    "source_url": "https://www.google.com/maps/place/%DA%A9%D8%A7%D9%81%D9%87+%D8%A8%D8%A7%D8%B2%DB%8C+%D8%AF%D9%86+%DA%A9%D9%84%D8%A7%D8%A8+%D8%B3%D9%85%D9%86%D8%A7%D9%86%E2%80%AD/data=!4m7!3m6!1s0x3f9bb3002460db7b:0x37956398c1e47e5e!8m2!3d35.5963462!4d53.3922964!16s%2Fg%2F11lp2_xspv!19sChIJe9tgJACzmz8RXn7kwZhjlTc?authuser=0&hl=tr&rclk=1",
    "website_url": "http://doncomplex.com/",
    "rating_text": "5,0",
    "stars": null,
    "number_of_reviews": null,
    "price_level": "",
    "open_hours": "",
    "extraction_timestamp": "2025-06-07T15:36:24.194Z",
    "source_name": "google",
    "source_query": "Irrigation Equipment",
    "source_country": "IR",
    "country": "Iran",
    "state": "Semnan",
    "city": "Darjazin"
  },
  {
    "source_id": "ChIJq6qqqtpMmj8R0FWPnvfSu6A",
    "name": "Golestan Park",
    "category": "Golestan Park",
    "formatted_address": "4,2(20)",
    "phone_number": "",
    "source_url": "https://www.google.com/maps/place/Golestan+Park/data=!4m7!3m6!1s0x3f9a4cdaaaaaaaab:0xa0bbd2f79e8f55d0!8m2!3d35.5849724!4d53.366276!16s%2Fg%2F1tdh6y9m!19sChIJq6qqqtpMmj8R0FWPnvfSu6A?authuser=0&hl=tr&rclk=1",
    "website_url": "",
    "rating_text": "4,2",
    "stars": null,
    "number_of_reviews": null,
    "price_level": "",
    "open_hours": "",
    "extraction_timestamp": "2025-06-07T15:36:24.211Z",
    "source_name": "google",
    "source_query": "Irrigation Equipment",
    "source_country": "IR",
    "country": "Iran",
    "state": "Semnan",
    "city": "Darjazin"
  },
  {
    "source_id": "ChIJgb9_ntpMmj8RiUWSe0q59B0",
    "name": "Etka Store",
    "category": "Etka Store",
    "formatted_address": "3,4(24)",
    "phone_number": "+982333465902",
    "source_url": "https://www.google.com/maps/place/Etka+Store/data=!4m7!3m6!1s0x3f9a4cda9e7fbf81:0x1df4b94a7b924589!8m2!3d35.5802171!4d53.3796474!16s%2Fg%2F1ptwyzthh!19sChIJgb9_ntpMmj8RiUWSe0q59B0?authuser=0&hl=tr&rclk=1",
    "website_url": "",
    "rating_text": "3,4",
    "stars": null,
    "number_of_reviews": null,
    "price_level": "",
    "open_hours": "",
    "extraction_timestamp": "2025-06-07T15:36:24.212Z",
    "source_name": "google",
    "source_query": "Irrigation Equipment",
    "source_country": "IR",
    "country": "Iran",
    "state": "Semnan",
    "city": "Darjazin"
  },
  {
    "source_id": "ChIJpdQPOgCzmz8RPBtzCeo2QG0",
    "name": "کافه مارلیک",
    "category": "کافه مارلیک",
    "formatted_address": "4,4(5)",
    "phone_number": "",
    "source_url": "https://www.google.com/maps/place/%DA%A9%D8%A7%D9%81%D9%87+%D9%85%D8%A7%D8%B1%D9%84%DB%8C%DA%A9%E2%80%AD/data=!4m7!3m6!1s0x3f9bb3003a0fd4a5:0x6d4036ea09731b3c!8m2!3d35.5929548!4d53.4075512!16s%2Fg%2F11whl53z28!19sChIJpdQPOgCzmz8RPBtzCeo2QG0?authuser=0&hl=tr&rclk=1",
    "website_url": "https://marlikcafe.ir/",
    "rating_text": "4,4",
    "stars": null,
    "number_of_reviews": null,
    "price_level": "",
    "open_hours": "",
    "extraction_timestamp": "2025-06-07T15:36:24.213Z",
    "source_name": "google",
    "source_query": "Irrigation Equipment",
    "source_country": "IR",
    "country": "Iran",
    "state": "Semnan",
    "city": "Darjazin"
  },
  {
    "source_id": "ChIJGX1m2-9Nmj8R0JjonCZHR2g",
    "name": "Velenjak Coffee shop",
    "category": "Velenjak Coffee shop",
    "formatted_address": "4,0(4)",
    "phone_number": "+989191321789",
    "source_url": "https://www.google.com/maps/place/Velenjak+Coffee+shop/data=!4m7!3m6!1s0x3f9a4defdb667d19:0x684747269ce898d0!8m2!3d35.5772639!4d53.381013!16s%2Fg%2F11hf9g3ghq!19sChIJGX1m2-9Nmj8R0JjonCZHR2g?authuser=0&hl=tr&rclk=1",
    "website_url": "https://instagram.com/_velenjak_",
    "rating_text": "4,0",
    "stars": null,
    "number_of_reviews": null,
    "price_level": "",
    "open_hours": "",
    "extraction_timestamp": "2025-06-07T15:36:24.214Z",
    "source_name": "google",
    "source_query": "Irrigation Equipment",
    "source_country": "IR",
    "country": "Iran",
    "state": "Semnan",
    "city": "Darjazin"
  },
  {
    "source_id": "ChIJAZ3BG8pNmj8RFwY9EV5u6qI",
    "name": "Mir Ahmadi Supermarket",
    "category": "Mir Ahmadi Supermarket",
    "formatted_address": "",
    "phone_number": "+989127324324",
    "source_url": "https://www.google.com/maps/place/Mir+Ahmadi+Supermarket/data=!4m7!3m6!1s0x3f9a4dca1bc19d01:0xa2ea6e5e113d0617!8m2!3d35.595563!4d53.3690948!16s%2Fg%2F11j07vlwnl!19sChIJAZ3BG8pNmj8RFwY9EV5u6qI?authuser=0&hl=tr&rclk=1",
    "website_url": "",
    "rating_text": "",
    "stars": null,
    "number_of_reviews": null,
    "price_level": "",
    "open_hours": "",
    "extraction_timestamp": "2025-06-07T15:36:24.215Z",
    "source_name": "google",
    "source_query": "Irrigation Equipment",
    "source_country": "IR",
    "country": "Iran",
    "state": "Semnan",
    "city": "Darjazin"
  },
  {
    "source_id": "ChIJ7TM8VwBNmj8RGAWOZz6aCWY",
    "name": "لوازم کمپینگ و کوهنوردی ممرض شاپ",
    "category": "لوازم کمپینگ و کوهنوردی ممرض شاپ",
    "formatted_address": "5,0(1)",
    "phone_number": "+989128323804",
    "source_url": "https://www.google.com/maps/place/%D9%84%D9%88%D8%A7%D8%B2%D9%85+%DA%A9%D9%85%D9%BE%DB%8C%D9%86%DA%AF+%D9%88+%DA%A9%D9%88%D9%87%D9%86%D9%88%D8%B1%D8%AF%DB%8C+%D9%85%D9%85%D8%B1%D8%B6+%D8%B4%D8%A7%D9%BE%E2%80%AD/data=!4m7!3m6!1s0x3f9a4d00573c33ed:0x66099a3e678e0518!8m2!3d35.5767308!4d53.3750206!16s%2Fg%2F11vq3cf2md!19sChIJ7TM8VwBNmj8RGAWOZz6aCWY?authuser=0&hl=tr&rclk=1",
    "website_url": "https://mamrezshop.com/",
    "rating_text": "5,0",
    "stars": null,
    "number_of_reviews": null,
    "price_level": "",
    "open_hours": "",
    "extraction_timestamp": "2025-06-07T15:36:24.216Z",
    "source_name": "google",
    "source_query": "Irrigation Equipment",
    "source_country": "IR",
    "country": "Iran",
    "state": "Semnan",
    "city": "Darjazin"
  }
]
