[
  {
    "source_id": "ChIJWTtd2Cuzmz8RYNPNUj4NzOk",
    "name": "Shahrab water purification equipment store",
    "category": "Shahrab water purification equipment store",
    "formatted_address": "4,7(3)",
    "phone_number": "+989900045010",
    "source_url": "https://www.google.com/maps/place/Shahrab+water+purification+equipment+store/data=!4m7!3m6!1s0x3f9bb32bd85d3b59:0xe9cc0d3e52cdd360!8m2!3d35.5905009!4d53.3969906!16s%2Fg%2F11f_49mq33!19sChIJWTtd2Cuzmz8RYNPNUj4NzOk?authuser=0&hl=tr&rclk=1",
    "website_url": "http://shahreab.ir/",
    "rating_text": "4,7",
    "stars": null,
    "number_of_reviews": null,
    "price_level": "",
    "open_hours": "",
    "extraction_timestamp": "2025-06-07T15:38:39.235Z",
    "source_name": "google",
    "source_query": "Irrigation Equipment",
    "source_country": "IR",
    "country": "Iran",
    "state": "Semnan",
    "city": "Dibaj"
  },
  {
    "source_id": "ChIJSSBdzmkPnT8R7W0Fevny0gQ",
    "name": "شرکت مهندسی جم آب سازه مجری سیستم های نوین آبیاری قطره ای و بارانی",
    "category": "شرکت مهندسی جم آب سازه مجری سیستم های نوین آبیاری قطره ای و بارانی",
    "formatted_address": "",
    "phone_number": "+989102736005",
    "source_url": "https://www.google.com/maps/place/%D8%B4%D8%B1%DA%A9%D8%AA+%D9%85%D9%87%D9%86%D8%AF%D8%B3%DB%8C+%D8%AC%D9%85+%D8%A2%D8%A8+%D8%B3%D8%A7%D8%B2%D9%87+%D9%85%D8%AC%D8%B1%DB%8C+%D8%B3%DB%8C%D8%B3%D8%AA%D9%85+%D9%87%D8%A7%DB%8C+%D9%86%D9%88%DB%8C%D9%86+%D8%A2%D8%A8%DB%8C%D8%A7%D8%B1%DB%8C+%D9%82%D8%B7%D8%B1%D9%87+%D8%A7%DB%8C+%D9%88+%D8%A8%D8%A7%D8%B1%D8%A7%D9%86%DB%8C%E2%80%AD/data=!4m7!3m6!1s0x3f9d0f69ce5d2049:0x4d2f2f97a056ded!8m2!3d36.4336936!4d54.9753559!16s%2Fg%2F11j0qfqm89!19sChIJSSBdzmkPnT8R7W0Fevny0gQ?authuser=0&hl=tr&rclk=1",
    "website_url": "",
    "rating_text": "",
    "stars": null,
    "number_of_reviews": null,
    "price_level": "",
    "open_hours": "",
    "extraction_timestamp": "2025-06-07T15:38:39.235Z",
    "source_name": "google",
    "source_query": "Irrigation Equipment",
    "source_country": "IR",
    "country": "Iran",
    "state": "Semnan",
    "city": "Dibaj"
  },
  {
    "source_id": "ChIJy_tszooFnT8RsM_kKUPhZcA",
    "name": "Pangan Pipe",
    "category": "Pangan Pipe",
    "formatted_address": "5,0(1)",
    "phone_number": "+982332337511",
    "source_url": "https://www.google.com/maps/place/Pangan+Pipe/data=!4m7!3m6!1s0x3f9d058ace6cfbcb:0xc065e14329e4cfb0!8m2!3d36.4160409!4d54.9592606!16s%2Fg%2F11bc7ps5zs!19sChIJy_tszooFnT8RsM_kKUPhZcA?authuser=0&hl=tr&rclk=1",
    "website_url": "",
    "rating_text": "5,0",
    "stars": null,
    "number_of_reviews": null,
    "price_level": "",
    "open_hours": "",
    "extraction_timestamp": "2025-06-07T15:38:39.257Z",
    "source_name": "google",
    "source_query": "Irrigation Equipment",
    "source_country": "IR",
    "country": "Iran",
    "state": "Semnan",
    "city": "Dibaj"
  },
  {
    "source_id": "ChIJwebvMbmxmz8R9AqT2rGEWcc",
    "name": "semnan polyethylene pipe & fitting co",
    "category": "semnan polyethylene pipe & fitting co",
    "formatted_address": "4,0(2)",
    "phone_number": "+982333652805",
    "source_url": "https://www.google.com/maps/place/semnan+polyethylene+pipe+%26+fitting+co/data=!4m7!3m6!1s0x3f9bb1b931efe6c1:0xc75984b1da930af4!8m2!3d35.6165595!4d53.5188367!16s%2Fg%2F11fj5ck68b!19sChIJwebvMbmxmz8R9AqT2rGEWcc?authuser=0&hl=tr&rclk=1",
    "website_url": "http://www.semnanpe.com/",
    "rating_text": "4,0",
    "stars": null,
    "number_of_reviews": null,
    "price_level": "",
    "open_hours": "",
    "extraction_timestamp": "2025-06-07T15:38:39.259Z",
    "source_name": "google",
    "source_query": "Irrigation Equipment",
    "source_country": "IR",
    "country": "Iran",
    "state": "Semnan",
    "city": "Dibaj"
  },
  {
    "source_id": "ChIJheoRLzKJnD8RACgyoZGr9oM",
    "name": "فروشگاه خلوص آب",
    "category": "فروشگاه خلوص آب",
    "formatted_address": "5,0(2)",
    "phone_number": "+989122317116",
    "source_url": "https://www.google.com/maps/place/%D9%81%D8%B1%D9%88%D8%B4%DA%AF%D8%A7%D9%87+%D8%AE%D9%84%D9%88%D8%B5+%D8%A2%D8%A8%E2%80%AD/data=!4m7!3m6!1s0x3f9c89322f11ea85:0x83f6ab91a1322800!8m2!3d36.1785735!4d54.3369583!16s%2Fg%2F11fsry__zq!19sChIJheoRLzKJnD8RACgyoZGr9oM?authuser=0&hl=tr&rclk=1",
    "website_url": "https://abnab.ir/",
    "rating_text": "5,0",
    "stars": null,
    "number_of_reviews": null,
    "price_level": "",
    "open_hours": "",
    "extraction_timestamp": "2025-06-07T15:38:39.261Z",
    "source_name": "google",
    "source_query": "Irrigation Equipment",
    "source_country": "IR",
    "country": "Iran",
    "state": "Semnan",
    "city": "Dibaj"
  },
  {
    "source_id": "ChIJh_Z2d7yjnD8RkHJhnAfUQDQ",
    "name": "فروشگاه ولی عصر",
    "category": "فروشگاه ولی عصر",
    "formatted_address": "4,0(1)",
    "phone_number": "+982335324385",
    "source_url": "https://www.google.com/maps/place/%D9%81%D8%B1%D9%88%D8%B4%DA%AF%D8%A7%D9%87+%D9%88%D9%84%DB%8C+%D8%B9%D8%B5%D8%B1%E2%80%AD/data=!4m7!3m6!1s0x3f9ca3bc7776f687:0x3440d4079c617290!8m2!3d36.4312281!4d54.2286635!16s%2Fg%2F11ftwh27pl!19sChIJh_Z2d7yjnD8RkHJhnAfUQDQ?authuser=0&hl=tr&rclk=1",
    "website_url": "",
    "rating_text": "4,0",
    "stars": null,
    "number_of_reviews": null,
    "price_level": "",
    "open_hours": "",
    "extraction_timestamp": "2025-06-07T15:38:39.262Z",
    "source_name": "google",
    "source_query": "Irrigation Equipment",
    "source_country": "IR",
    "country": "Iran",
    "state": "Semnan",
    "city": "Dibaj"
  },
  {
    "source_id": "ChIJvZlT502xmz8R0i_vJ7bnRac",
    "name": "Maher Amin",
    "category": "Maher Amin",
    "formatted_address": "5,0(1)",
    "phone_number": "+982188140098",
    "source_url": "https://www.google.com/maps/place/Maher+Amin/data=!4m7!3m6!1s0x3f9bb14de75399bd:0xa745e7b627ef2fd2!8m2!3d35.6111271!4d53.5108431!16s%2Fg%2F11tcczlwy0!19sChIJvZlT502xmz8R0i_vJ7bnRac?authuser=0&hl=tr&rclk=1",
    "website_url": "",
    "rating_text": "5,0",
    "stars": null,
    "number_of_reviews": null,
    "price_level": "",
    "open_hours": "",
    "extraction_timestamp": "2025-06-07T15:38:39.264Z",
    "source_name": "google",
    "source_query": "Irrigation Equipment",
    "source_country": "IR",
    "country": "Iran",
    "state": "Semnan",
    "city": "Dibaj"
  },
  {
    "source_id": "ChIJY20q2KEPnT8RsueS34nuSeI",
    "name": "جم آب سازه کوثر",
    "category": "جم آب سازه کوثر",
    "formatted_address": "Sulama Ekipmanları Tedarikçisi · شاهرود،،, CXMG+HHFKapalı ⋅ Açılış zamanı: Paz 09:00 · +98 23 3224 6982",
    "phone_number": "+982332246982",
    "source_url": "https://www.google.com/maps/place/%D8%AC%D9%85+%D8%A2%D8%A8+%D8%B3%D8%A7%D8%B2%D9%87+%DA%A9%D9%88%D8%AB%D8%B1%E2%80%AD/data=!4m7!3m6!1s0x3f9d0fa1d82a6d63:0xe249ee89df92e7b2!8m2!3d36.4339255!4d54.9764252!16s%2Fg%2F11fvl52__5!19sChIJY20q2KEPnT8RsueS34nuSeI?authuser=0&hl=tr&rclk=1",
    "website_url": "",
    "rating_text": "",
    "stars": null,
    "number_of_reviews": null,
    "price_level": "",
    "open_hours": "",
    "extraction_timestamp": "2025-06-07T15:38:39.265Z",
    "source_name": "google",
    "source_query": "Irrigation Equipment",
    "source_country": "IR",
    "country": "Iran",
    "state": "Semnan",
    "city": "Dibaj"
  },
  {
    "source_id": "ChIJk_jhZ6Gzmz8RzcL75oCy-sw",
    "name": "پمپ و تصفیه آب جهادیه",
    "category": "پمپ و تصفیه آب جهادیه",
    "formatted_address": "Mağaza · Piroozi, HC96+R7MAçık ⋅ Kapanış saati: 21:00 · +98 910 287 8351",
    "phone_number": "+989102878351",
    "source_url": "https://www.google.com/maps/place/%D9%BE%D9%85%D9%BE+%D9%88+%D8%AA%D8%B5%D9%81%DB%8C%D9%87+%D8%A2%D8%A8+%D8%AC%D9%87%D8%A7%D8%AF%DB%8C%D9%87%E2%80%AD/data=!4m7!3m6!1s0x3f9bb3a167e1f893:0xccfab280e6fbc2cd!8m2!3d35.5695759!4d53.4106845!16s%2Fg%2F11y1cgr96w!19sChIJk_jhZ6Gzmz8RzcL75oCy-sw?authuser=0&hl=tr&rclk=1",
    "website_url": "",
    "rating_text": "",
    "stars": null,
    "number_of_reviews": null,
    "price_level": "",
    "open_hours": "",
    "extraction_timestamp": "2025-06-07T15:38:39.267Z",
    "source_name": "google",
    "source_query": "Irrigation Equipment",
    "source_country": "IR",
    "country": "Iran",
    "state": "Semnan",
    "city": "Dibaj"
  }
]
