[
  {
    "source_id": "ChIJWTtd2Cuzmz8RYNPNUj4NzOk",
    "name": "Shahrab water purification equipment store",
    "category": "Shahrab water purification equipment store",
    "formatted_address": "4,7(3)",
    "phone_number": "+989900045010",
    "source_url": "https://www.google.com/maps/place/Shahrab+water+purification+equipment+store/data=!4m7!3m6!1s0x3f9bb32bd85d3b59:0xe9cc0d3e52cdd360!8m2!3d35.5905009!4d53.3969906!16s%2Fg%2F11f_49mq33!19sChIJWTtd2Cuzmz8RYNPNUj4NzOk?authuser=0&hl=tr&rclk=1",
    "website_url": "http://shahreab.ir/",
    "rating_text": "4,7",
    "stars": null,
    "number_of_reviews": null,
    "price_level": "",
    "open_hours": "",
    "extraction_timestamp": "2025-06-07T15:36:42.976Z",
    "source_name": "google",
    "source_query": "Irrigation Equipment",
    "source_country": "IR",
    "country": "Iran",
    "state": "Semnan",
    "city": "Mahdi Shahr"
  },
  {
    "source_id": "ChIJG75fs59Nmj8ReOUv01RAmiM",
    "name": "تصفیه آب آکواجوی( کساییان)",
    "category": "تصفیه آب آکواجوی( کساییان)",
    "formatted_address": "4,6(10)",
    "phone_number": "+982333332077",
    "source_url": "https://www.google.com/maps/place/%D8%AA%D8%B5%D9%81%DB%8C%D9%87+%D8%A2%D8%A8+%D8%A2%DA%A9%D9%88%D8%A7%D8%AC%D9%88%DB%8C%28+%DA%A9%D8%B3%D8%A7%DB%8C%DB%8C%D8%A7%D9%86%29%E2%80%AD/data=!4m7!3m6!1s0x3f9a4d9fb35fbe1b:0x239a4054d32fe578!8m2!3d35.5784654!4d53.3879484!16s%2Fg%2F11r_dmvr4c!19sChIJG75fs59Nmj8ReOUv01RAmiM?authuser=0&hl=tr&rclk=1",
    "website_url": "http://www.instagram.com//tasfie.ab.aquajoy",
    "rating_text": "4,6",
    "stars": null,
    "number_of_reviews": null,
    "price_level": "",
    "open_hours": "",
    "extraction_timestamp": "2025-06-07T15:36:42.977Z",
    "source_name": "google",
    "source_query": "Irrigation Equipment",
    "source_country": "IR",
    "country": "Iran",
    "state": "Semnan",
    "city": "Mahdi Shahr"
  },
  {
    "source_id": "ChIJX0d8mWxTmj8Ry3J7mtbO2gU",
    "name": "Kimia Faravar kud",
    "category": "Kimia Faravar kud",
    "formatted_address": "5,0(2)",
    "phone_number": "+989127311760",
    "source_url": "https://www.google.com/maps/place/Kimia+Faravar+kud/data=!4m7!3m6!1s0x3f9a536c997c475f:0x5daced69a7b72cb!8m2!3d35.6588011!4d53.3169127!16s%2Fg%2F11llylfnph!19sChIJX0d8mWxTmj8Ry3J7mtbO2gU?authuser=0&hl=tr&rclk=1",
    "website_url": "",
    "rating_text": "5,0",
    "stars": null,
    "number_of_reviews": null,
    "price_level": "",
    "open_hours": "",
    "extraction_timestamp": "2025-06-07T15:36:42.978Z",
    "source_name": "google",
    "source_query": "Irrigation Equipment",
    "source_country": "IR",
    "country": "Iran",
    "state": "Semnan",
    "city": "Mahdi Shahr"
  },
  {
    "source_id": "ChIJwebvMbmxmz8R9AqT2rGEWcc",
    "name": "semnan polyethylene pipe & fitting co",
    "category": "semnan polyethylene pipe & fitting co",
    "formatted_address": "4,0(2)",
    "phone_number": "+982333652805",
    "source_url": "https://www.google.com/maps/place/semnan+polyethylene+pipe+%26+fitting+co/data=!4m7!3m6!1s0x3f9bb1b931efe6c1:0xc75984b1da930af4!8m2!3d35.6165595!4d53.5188367!16s%2Fg%2F11fj5ck68b!19sChIJwebvMbmxmz8R9AqT2rGEWcc?authuser=0&hl=tr&rclk=1",
    "website_url": "http://www.semnanpe.com/",
    "rating_text": "4,0",
    "stars": null,
    "number_of_reviews": null,
    "price_level": "",
    "open_hours": "",
    "extraction_timestamp": "2025-06-07T15:36:42.980Z",
    "source_name": "google",
    "source_query": "Irrigation Equipment",
    "source_country": "IR",
    "country": "Iran",
    "state": "Semnan",
    "city": "Mahdi Shahr"
  },
  {
    "source_id": "ChIJvZlT502xmz8R0i_vJ7bnRac",
    "name": "Maher Amin",
    "category": "Maher Amin",
    "formatted_address": "5,0(1)",
    "phone_number": "+982188140098",
    "source_url": "https://www.google.com/maps/place/Maher+Amin/data=!4m7!3m6!1s0x3f9bb14de75399bd:0xa745e7b627ef2fd2!8m2!3d35.6111271!4d53.5108431!16s%2Fg%2F11tcczlwy0!19sChIJvZlT502xmz8R0i_vJ7bnRac?authuser=0&hl=tr&rclk=1",
    "website_url": "",
    "rating_text": "5,0",
    "stars": null,
    "number_of_reviews": null,
    "price_level": "",
    "open_hours": "",
    "extraction_timestamp": "2025-06-07T15:36:42.981Z",
    "source_name": "google",
    "source_query": "Irrigation Equipment",
    "source_country": "IR",
    "country": "Iran",
    "state": "Semnan",
    "city": "Mahdi Shahr"
  },
  {
    "source_id": "ChIJKzgfpo1Nmj8RiAWXGdrOmo0",
    "name": "تصفیه آب آزادی",
    "category": "تصفیه آب آزادی",
    "formatted_address": "5,0(2)",
    "phone_number": "+989107429790",
    "source_url": "https://www.google.com/maps/place/%D8%AA%D8%B5%D9%81%DB%8C%D9%87+%D8%A2%D8%A8+%D8%A2%D8%B2%D8%A7%D8%AF%DB%8C%E2%80%AD/data=!4m7!3m6!1s0x3f9a4d8da61f382b:0x8d9aceda19970588!8m2!3d35.5857387!4d53.3804917!16s%2Fg%2F11h79k97jx!19sChIJKzgfpo1Nmj8RiAWXGdrOmo0?authuser=0&hl=tr&rclk=1",
    "website_url": "",
    "rating_text": "5,0",
    "stars": null,
    "number_of_reviews": null,
    "price_level": "",
    "open_hours": "",
    "extraction_timestamp": "2025-06-07T15:36:42.982Z",
    "source_name": "google",
    "source_query": "Irrigation Equipment",
    "source_country": "IR",
    "country": "Iran",
    "state": "Semnan",
    "city": "Mahdi Shahr"
  },
  {
    "source_id": "ChIJGfclyNJMmj8Rt1WFhzJ5jHI",
    "name": "Aryan system",
    "category": "Aryan system",
    "formatted_address": "Su Yumuşatma Ekipmanları Tedarikçisi · Mo'alem Blvd, H9MR+C3JAçık ⋅ Kapanış saati: 21:00 · +98 23 3333 6190",
    "phone_number": "+982333336190",
    "source_url": "https://www.google.com/maps/place/Aryan+system/data=!4m7!3m6!1s0x3f9a4cd2c825f719:0x728c7932878555b7!8m2!3d35.5835883!4d53.3901517!16s%2Fg%2F11c1nz3hjk!19sChIJGfclyNJMmj8Rt1WFhzJ5jHI?authuser=0&hl=tr&rclk=1",
    "website_url": "http://aryan-system.ir/",
    "rating_text": "",
    "stars": null,
    "number_of_reviews": null,
    "price_level": "",
    "open_hours": "",
    "extraction_timestamp": "2025-06-07T15:36:42.983Z",
    "source_name": "google",
    "source_query": "Irrigation Equipment",
    "source_country": "IR",
    "country": "Iran",
    "state": "Semnan",
    "city": "Mahdi Shahr"
  },
  {
    "source_id": "ChIJz0t2jSxVmj8RKmUNVbuAY48",
    "name": "فروشگاه بزرگ پورجمشیدی",
    "category": "فروشگاه بزرگ پورجمشیدی",
    "formatted_address": "4,8(4)",
    "phone_number": "",
    "source_url": "https://www.google.com/maps/place/%D9%81%D8%B1%D9%88%D8%B4%DA%AF%D8%A7%D9%87+%D8%A8%D8%B2%D8%B1%DA%AF+%D9%BE%D9%88%D8%B1%D8%AC%D9%85%D8%B4%DB%8C%D8%AF%DB%8C%E2%80%AD/data=!4m7!3m6!1s0x3f9a552c8d764bcf:0x8f6380bb550d652a!8m2!3d35.7151771!4d53.3619063!16s%2Fg%2F11h6qfxwwh!19sChIJz0t2jSxVmj8RKmUNVbuAY48?authuser=0&hl=tr&rclk=1",
    "website_url": "",
    "rating_text": "4,8",
    "stars": null,
    "number_of_reviews": null,
    "price_level": "",
    "open_hours": "",
    "extraction_timestamp": "2025-06-07T15:36:42.984Z",
    "source_name": "google",
    "source_query": "Irrigation Equipment",
    "source_country": "IR",
    "country": "Iran",
    "state": "Semnan",
    "city": "Mahdi Shahr"
  },
  {
    "source_id": "ChIJHyGCs-xUmj8RSD0Kf4kzRDs",
    "name": "Saam",
    "category": "Saam",
    "formatted_address": "5,0(2)",
    "phone_number": "+982333627714",
    "source_url": "https://www.google.com/maps/place/Saam/data=!4m7!3m6!1s0x3f9a54ecb382211f:0x3b4433897f0a3d48!8m2!3d35.714973!4d53.3627724!16s%2Fg%2F1hd_crdr1!19sChIJHyGCs-xUmj8RSD0Kf4kzRDs?authuser=0&hl=tr&rclk=1",
    "website_url": "",
    "rating_text": "5,0",
    "stars": null,
    "number_of_reviews": null,
    "price_level": "",
    "open_hours": "",
    "extraction_timestamp": "2025-06-07T15:36:43.014Z",
    "source_name": "google",
    "source_query": "Irrigation Equipment",
    "source_country": "IR",
    "country": "Iran",
    "state": "Semnan",
    "city": "Mahdi Shahr"
  },
  {
    "source_id": "ChIJi32csyNVmj8RSeDkbzWteuY",
    "name": "فالوده بستنی شیرازی",
    "category": "فالوده بستنی شیرازی",
    "formatted_address": "5,0(1)",
    "phone_number": "+982333627738",
    "source_url": "https://www.google.com/maps/place/%D9%81%D8%A7%D9%84%D9%88%D8%AF%D9%87+%D8%A8%D8%B3%D8%AA%D9%86%DB%8C+%D8%B4%DB%8C%D8%B1%D8%A7%D8%B2%DB%8C%E2%80%AD/data=!4m7!3m6!1s0x3f9a5523b39c7d8b:0xe67aad356fe4e049!8m2!3d35.7086505!4d53.3574166!16s%2Fg%2F11ss18ppym!19sChIJi32csyNVmj8RSeDkbzWteuY?authuser=0&hl=tr&rclk=1",
    "website_url": "",
    "rating_text": "5,0",
    "stars": null,
    "number_of_reviews": null,
    "price_level": "",
    "open_hours": "",
    "extraction_timestamp": "2025-06-07T15:36:43.015Z",
    "source_name": "google",
    "source_query": "Irrigation Equipment",
    "source_country": "IR",
    "country": "Iran",
    "state": "Semnan",
    "city": "Mahdi Shahr"
  },
  {
    "source_id": "ChIJr_ADnDTxkD8RDpGaR3yUY24",
    "name": "سبزینه گستر کویر",
    "category": "سبزینه گستر کویر",
    "formatted_address": "",
    "phone_number": "+982354848454",
    "source_url": "https://www.google.com/maps/place/%D8%B3%D8%A8%D8%B2%DB%8C%D9%86%D9%87+%DA%AF%D8%B3%D8%AA%D8%B1+%DA%A9%D9%88%DB%8C%D8%B1%E2%80%AD/data=!4m7!3m6!1s0x3f90f1349c03f0af:0x6e63947c479a910e!8m2!3d35.2446515!4d52.2324144!16s%2Fg%2F11g4h33v6l!19sChIJr_ADnDTxkD8RDpGaR3yUY24?authuser=0&hl=tr&rclk=1",
    "website_url": "http://sabzine-gostar.com/",
    "rating_text": "",
    "stars": null,
    "number_of_reviews": null,
    "price_level": "",
    "open_hours": "",
    "extraction_timestamp": "2025-06-07T15:36:43.016Z",
    "source_name": "google",
    "source_query": "Irrigation Equipment",
    "source_country": "IR",
    "country": "Iran",
    "state": "Semnan",
    "city": "Mahdi Shahr"
  },
  {
    "source_id": "ChIJGeTvbgVVmj8RbSZrSGu-qFs",
    "name": "♡ســـــوپــــر مــــــارکـــــت دایــــی♡",
    "category": "♡ســـــوپــــر مــــــارکـــــت دایــــی♡",
    "formatted_address": "5,0(1)",
    "phone_number": "+989191348928",
    "source_url": "https://www.google.com/maps/place/%E2%99%A1%D8%B3%D9%80%D9%80%D9%80%D9%80%D9%80%D9%88%D9%BE%D9%80%D9%80%D9%80%D9%80%D8%B1+%D9%85%D9%80%D9%80%D9%80%D9%80%D9%80%D9%80%D8%A7%D8%B1%DA%A9%D9%80%D9%80%D9%80%D9%80%D9%80%D8%AA+%D8%AF%D8%A7%DB%8C%D9%80%D9%80%D9%80%D9%80%DB%8C%E2%99%A1%E2%80%AD/data=!4m7!3m6!1s0x3f9a55056eefe419:0x5ba8be6b486b266d!8m2!3d35.7080463!4d53.3523619!16s%2Fg%2F11h_5yngbl!19sChIJGeTvbgVVmj8RbSZrSGu-qFs?authuser=0&hl=tr&rclk=1",
    "website_url": "",
    "rating_text": "5,0",
    "stars": null,
    "number_of_reviews": null,
    "price_level": "",
    "open_hours": "",
    "extraction_timestamp": "2025-06-07T15:36:43.017Z",
    "source_name": "google",
    "source_query": "Irrigation Equipment",
    "source_country": "IR",
    "country": "Iran",
    "state": "Semnan",
    "city": "Mahdi Shahr"
  },
  {
    "source_id": "ChIJzSIm6dhVmj8RKdjhSNNfaxA",
    "name": "Safaei Kiosk",
    "category": "Safaei Kiosk",
    "formatted_address": "3,0(1)",
    "phone_number": "+989394863383",
    "source_url": "https://www.google.com/maps/place/Safaei+Kiosk/data=!4m7!3m6!1s0x3f9a55d8e92622cd:0x106b5fd348e1d829!8m2!3d35.7068566!4d53.3516209!16s%2Fg%2F11gty5288c!19sChIJzSIm6dhVmj8RKdjhSNNfaxA?authuser=0&hl=tr&rclk=1",
    "website_url": "",
    "rating_text": "3,0",
    "stars": null,
    "number_of_reviews": null,
    "price_level": "",
    "open_hours": "",
    "extraction_timestamp": "2025-06-07T15:36:43.019Z",
    "source_name": "google",
    "source_query": "Irrigation Equipment",
    "source_country": "IR",
    "country": "Iran",
    "state": "Semnan",
    "city": "Mahdi Shahr"
  },
  {
    "source_id": "ChIJPzxieQ6zmz8RyKpwPuPNC_8",
    "name": "شرکت مهندسی کشاورزی رَز(معیار گستر)",
    "category": "شرکت مهندسی کشاورزی رَز(معیار گستر)",
    "formatted_address": "",
    "phone_number": "+982333322515",
    "source_url": "https://www.google.com/maps/place/%D8%B4%D8%B1%DA%A9%D8%AA+%D9%85%D9%87%D9%86%D8%AF%D8%B3%DB%8C+%DA%A9%D8%B4%D8%A7%D9%88%D8%B1%D8%B2%DB%8C+%D8%B1%D9%8E%D8%B2%28%D9%85%D8%B9%DB%8C%D8%A7%D8%B1+%DA%AF%D8%B3%D8%AA%D8%B1%29%E2%80%AD/data=!4m7!3m6!1s0x3f9bb30e79623c3f:0xff0bcde33e70aac8!8m2!3d35.5792623!4d53.3925216!16s%2Fg%2F11mqlz7q9q!19sChIJPzxieQ6zmz8RyKpwPuPNC_8?authuser=0&hl=tr&rclk=1",
    "website_url": "https://www.digiraz.com/",
    "rating_text": "",
    "stars": null,
    "number_of_reviews": null,
    "price_level": "",
    "open_hours": "",
    "extraction_timestamp": "2025-06-07T15:36:43.020Z",
    "source_name": "google",
    "source_query": "Irrigation Equipment",
    "source_country": "IR",
    "country": "Iran",
    "state": "Semnan",
    "city": "Mahdi Shahr"
  },
  {
    "source_id": "ChIJa8FKD6ntkD8RCRXHLALVDcM",
    "name": "فروشگاه قطعات پکیج ابگرمن تصفیه اب مهدی",
    "category": "فروشگاه قطعات پکیج ابگرمن تصفیه اب مهدی",
    "formatted_address": "5,0(1)",
    "phone_number": "+989359351813",
    "source_url": "https://www.google.com/maps/place/%D9%81%D8%B1%D9%88%D8%B4%DA%AF%D8%A7%D9%87+%D9%82%D8%B7%D8%B9%D8%A7%D8%AA+%D9%BE%DA%A9%DB%8C%D8%AC+%D8%A7%D8%A8%DA%AF%D8%B1%D9%85%D9%86+%D8%AA%D8%B5%D9%81%DB%8C%D9%87+%D8%A7%D8%A8+%D9%85%D9%87%D8%AF%DB%8C%E2%80%AD/data=!4m7!3m6!1s0x3f90eda90f4ac16b:0xc30dd5022cc71509!8m2!3d35.2318119!4d52.3174195!16s%2Fg%2F11v9_k0g6l!19sChIJa8FKD6ntkD8RCRXHLALVDcM?authuser=0&hl=tr&rclk=1",
    "website_url": "https://instagram.com/khadamat_023?igshid=OGQ5ZDc2ODk2ZA==",
    "rating_text": "5,0",
    "stars": null,
    "number_of_reviews": null,
    "price_level": "",
    "open_hours": "",
    "extraction_timestamp": "2025-06-07T15:36:43.021Z",
    "source_name": "google",
    "source_query": "Irrigation Equipment",
    "source_country": "IR",
    "country": "Iran",
    "state": "Semnan",
    "city": "Mahdi Shahr"
  },
  {
    "source_id": "ChIJSa0r68xVmj8RPT2zVmkQFi4",
    "name": "دکه داش حسین",
    "category": "دکه داش حسین",
    "formatted_address": "",
    "phone_number": "+989196672160",
    "source_url": "https://www.google.com/maps/place/%D8%AF%DA%A9%D9%87+%D8%AF%D8%A7%D8%B4+%D8%AD%D8%B3%DB%8C%D9%86%E2%80%AD/data=!4m7!3m6!1s0x3f9a55cceb2bad49:0x2e16106956b33d3d!8m2!3d35.6997122!4d53.3465095!16s%2Fg%2F11kx2ww2rw!19sChIJSa0r68xVmj8RPT2zVmkQFi4?authuser=0&hl=tr&rclk=1",
    "website_url": "",
    "rating_text": "",
    "stars": null,
    "number_of_reviews": null,
    "price_level": "",
    "open_hours": "",
    "extraction_timestamp": "2025-06-07T15:36:43.022Z",
    "source_name": "google",
    "source_query": "Irrigation Equipment",
    "source_country": "IR",
    "country": "Iran",
    "state": "Semnan",
    "city": "Mahdi Shahr"
  },
  {
    "source_id": "ChIJUUBIdkdVmj8R7xmnDu7OQ6E",
    "name": "هایپر مارکت کومش گستر",
    "category": "هایپر مارکت کومش گستر",
    "formatted_address": "5,0(1)",
    "phone_number": "+989127311900",
    "source_url": "https://www.google.com/maps/place/%D9%87%D8%A7%DB%8C%D9%BE%D8%B1+%D9%85%D8%A7%D8%B1%DA%A9%D8%AA+%DA%A9%D9%88%D9%85%D8%B4+%DA%AF%D8%B3%D8%AA%D8%B1%E2%80%AD/data=!4m7!3m6!1s0x3f9a554776484051:0xa143ceee0ea719ef!8m2!3d35.6907081!4d53.3456612!16s%2Fg%2F11j31_0qh0!19sChIJUUBIdkdVmj8R7xmnDu7OQ6E?authuser=0&hl=tr&rclk=1",
    "website_url": "",
    "rating_text": "5,0",
    "stars": null,
    "number_of_reviews": null,
    "price_level": "",
    "open_hours": "",
    "extraction_timestamp": "2025-06-07T15:36:43.023Z",
    "source_name": "google",
    "source_query": "Irrigation Equipment",
    "source_country": "IR",
    "country": "Iran",
    "state": "Semnan",
    "city": "Mahdi Shahr"
  },
  {
    "source_id": "ChIJa_tkz5cPnT8RYRHvq8E_KQw",
    "name": "تصفیه آب وکیلیان",
    "category": "تصفیه آب وکیلیان",
    "formatted_address": "5,0(1)",
    "phone_number": "+982332337080",
    "source_url": "https://www.google.com/maps/place/%D8%AA%D8%B5%D9%81%DB%8C%D9%87+%D8%A2%D8%A8+%D9%88%DA%A9%DB%8C%D9%84%DB%8C%D8%A7%D9%86%E2%80%AD/data=!4m7!3m6!1s0x3f9d0f97cf64fb6b:0xc293fc1abef1161!8m2!3d36.4171335!4d54.9706892!16s%2Fg%2F11fls3dfzy!19sChIJa_tkz5cPnT8RYRHvq8E_KQw?authuser=0&hl=tr&rclk=1",
    "website_url": "",
    "rating_text": "5,0",
    "stars": null,
    "number_of_reviews": null,
    "price_level": "",
    "open_hours": "",
    "extraction_timestamp": "2025-06-07T15:36:43.024Z",
    "source_name": "google",
    "source_query": "Irrigation Equipment",
    "source_country": "IR",
    "country": "Iran",
    "state": "Semnan",
    "city": "Mahdi Shahr"
  },
  {
    "source_id": "ChIJzxGKtOxUmj8RucCxM1tZnhY",
    "name": "Asayesh Supermarket",
    "category": "Asayesh Supermarket",
    "formatted_address": "5,0(2)",
    "phone_number": "+982333629790",
    "source_url": "https://www.google.com/maps/place/Asayesh+Supermarket/data=!4m7!3m6!1s0x3f9a54ecb48a11cf:0x169e595b33b1c0b9!8m2!3d35.7149096!4d53.3626332!16s%2Fg%2F1hdz14h9g!19sChIJzxGKtOxUmj8RucCxM1tZnhY?authuser=0&hl=tr&rclk=1",
    "website_url": "",
    "rating_text": "5,0",
    "stars": null,
    "number_of_reviews": null,
    "price_level": "",
    "open_hours": "",
    "extraction_timestamp": "2025-06-07T15:36:43.026Z",
    "source_name": "google",
    "source_query": "Irrigation Equipment",
    "source_country": "IR",
    "country": "Iran",
    "state": "Semnan",
    "city": "Mahdi Shahr"
  },
  {
    "source_id": "ChIJXcMCXCtNmj8RP_ixTe6Btvs",
    "name": "Paniz Grocery",
    "category": "Paniz Grocery",
    "formatted_address": "5,0(1)",
    "phone_number": "+989122311795",
    "source_url": "https://www.google.com/maps/place/Paniz+Grocery/data=!4m7!3m6!1s0x3f9a4d2b5c02c35d:0xfbb681ee4db1f83f!8m2!3d35.5963647!4d53.3894135!16s%2Fg%2F11ckfwtqnn!19sChIJXcMCXCtNmj8RP_ixTe6Btvs?authuser=0&hl=tr&rclk=1",
    "website_url": "",
    "rating_text": "5,0",
    "stars": null,
    "number_of_reviews": null,
    "price_level": "",
    "open_hours": "",
    "extraction_timestamp": "2025-06-07T15:36:43.027Z",
    "source_name": "google",
    "source_query": "Irrigation Equipment",
    "source_country": "IR",
    "country": "Iran",
    "state": "Semnan",
    "city": "Mahdi Shahr"
  },
  {
    "source_id": "ChIJe7lSxWj_mj8RxP7ebrVi81Q",
    "name": "Dada Ali Supermarket",
    "category": "Dada Ali Supermarket",
    "formatted_address": "4,5(2)",
    "phone_number": "+982333664575",
    "source_url": "https://www.google.com/maps/place/Dada+Ali+Supermarket/data=!4m7!3m6!1s0x3f9aff68c552b97b:0x54f362b56edefec4!8m2!3d35.7717051!4d53.3305332!16s%2Fg%2F11cs0rm2x6!19sChIJe7lSxWj_mj8RxP7ebrVi81Q?authuser=0&hl=tr&rclk=1",
    "website_url": "",
    "rating_text": "4,5",
    "stars": null,
    "number_of_reviews": null,
    "price_level": "",
    "open_hours": "",
    "extraction_timestamp": "2025-06-07T15:36:43.028Z",
    "source_name": "google",
    "source_query": "Irrigation Equipment",
    "source_country": "IR",
    "country": "Iran",
    "state": "Semnan",
    "city": "Mahdi Shahr"
  },
  {
    "source_id": "ChIJm00kKuJNmj8RKgQaF_od7Yw",
    "name": "عطاری عصاره سلامت",
    "category": "عطاری عصاره سلامت",
    "formatted_address": "4,5(2)",
    "phone_number": "+982333454643",
    "source_url": "https://www.google.com/maps/place/%D8%B9%D8%B7%D8%A7%D8%B1%DB%8C+%D8%B9%D8%B5%D8%A7%D8%B1%D9%87+%D8%B3%D9%84%D8%A7%D9%85%D8%AA%E2%80%AD/data=!4m7!3m6!1s0x3f9a4de22a244d9b:0x8ced1dfa171a042a!8m2!3d35.5849198!4d53.3758945!16s%2Fg%2F11fqz575v0!19sChIJm00kKuJNmj8RKgQaF_od7Yw?authuser=0&hl=tr&rclk=1",
    "website_url": "",
    "rating_text": "4,5",
    "stars": null,
    "number_of_reviews": null,
    "price_level": "",
    "open_hours": "",
    "extraction_timestamp": "2025-06-07T15:36:43.029Z",
    "source_name": "google",
    "source_query": "Irrigation Equipment",
    "source_country": "IR",
    "country": "Iran",
    "state": "Semnan",
    "city": "Mahdi Shahr"
  },
  {
    "source_id": "ChIJ7TM8VwBNmj8RGAWOZz6aCWY",
    "name": "لوازم کمپینگ و کوهنوردی ممرض شاپ",
    "category": "لوازم کمپینگ و کوهنوردی ممرض شاپ",
    "formatted_address": "5,0(1)",
    "phone_number": "+989128323804",
    "source_url": "https://www.google.com/maps/place/%D9%84%D9%88%D8%A7%D8%B2%D9%85+%DA%A9%D9%85%D9%BE%DB%8C%D9%86%DA%AF+%D9%88+%DA%A9%D9%88%D9%87%D9%86%D9%88%D8%B1%D8%AF%DB%8C+%D9%85%D9%85%D8%B1%D8%B6+%D8%B4%D8%A7%D9%BE%E2%80%AD/data=!4m7!3m6!1s0x3f9a4d00573c33ed:0x66099a3e678e0518!8m2!3d35.5767308!4d53.3750206!16s%2Fg%2F11vq3cf2md!19sChIJ7TM8VwBNmj8RGAWOZz6aCWY?authuser=0&hl=tr&rclk=1",
    "website_url": "https://mamrezshop.com/",
    "rating_text": "5,0",
    "stars": null,
    "number_of_reviews": null,
    "price_level": "",
    "open_hours": "",
    "extraction_timestamp": "2025-06-07T15:36:43.030Z",
    "source_name": "google",
    "source_query": "Irrigation Equipment",
    "source_country": "IR",
    "country": "Iran",
    "state": "Semnan",
    "city": "Mahdi Shahr"
  },
  {
    "source_id": "ChIJe9tgJACzmz8RXn7kwZhjlTc",
    "name": "کافه بازی دن کلاب سمنان",
    "category": "کافه بازی دن کلاب سمنان",
    "formatted_address": "5,0(5)",
    "phone_number": "",
    "source_url": "https://www.google.com/maps/place/%DA%A9%D8%A7%D9%81%D9%87+%D8%A8%D8%A7%D8%B2%DB%8C+%D8%AF%D9%86+%DA%A9%D9%84%D8%A7%D8%A8+%D8%B3%D9%85%D9%86%D8%A7%D9%86%E2%80%AD/data=!4m7!3m6!1s0x3f9bb3002460db7b:0x37956398c1e47e5e!8m2!3d35.5963462!4d53.3922964!16s%2Fg%2F11lp2_xspv!19sChIJe9tgJACzmz8RXn7kwZhjlTc?authuser=0&hl=tr&rclk=1",
    "website_url": "http://doncomplex.com/",
    "rating_text": "5,0",
    "stars": null,
    "number_of_reviews": null,
    "price_level": "",
    "open_hours": "",
    "extraction_timestamp": "2025-06-07T15:36:43.030Z",
    "source_name": "google",
    "source_query": "Irrigation Equipment",
    "source_country": "IR",
    "country": "Iran",
    "state": "Semnan",
    "city": "Mahdi Shahr"
  },
  {
    "source_id": "ChIJB-xGo3lTmj8R7Rl4ka9sroA",
    "name": "هایپر یاقوت سرخ",
    "category": "هایپر یاقوت سرخ",
    "formatted_address": "5,0(1)",
    "phone_number": "+982333685249",
    "source_url": "https://www.google.com/maps/place/%D9%87%D8%A7%DB%8C%D9%BE%D8%B1+%DB%8C%D8%A7%D9%82%D9%88%D8%AA+%D8%B3%D8%B1%D8%AE%E2%80%AD/data=!4m7!3m6!1s0x3f9a5379a346ec07:0x80ae6caf917819ed!8m2!3d35.6520745!4d53.3393546!16s%2Fg%2F11s7qyqh4b!19sChIJB-xGo3lTmj8R7Rl4ka9sroA?authuser=0&hl=tr&rclk=1",
    "website_url": "",
    "rating_text": "5,0",
    "stars": null,
    "number_of_reviews": null,
    "price_level": "",
    "open_hours": "",
    "extraction_timestamp": "2025-06-07T15:36:43.031Z",
    "source_name": "google",
    "source_query": "Irrigation Equipment",
    "source_country": "IR",
    "country": "Iran",
    "state": "Semnan",
    "city": "Mahdi Shahr"
  },
  {
    "source_id": "ChIJSSBdzmkPnT8R7W0Fevny0gQ",
    "name": "شرکت مهندسی جم آب سازه مجری سیستم های نوین آبیاری قطره ای و بارانی",
    "category": "شرکت مهندسی جم آب سازه مجری سیستم های نوین آبیاری قطره ای و بارانی",
    "formatted_address": "",
    "phone_number": "+989102736005",
    "source_url": "https://www.google.com/maps/place/%D8%B4%D8%B1%DA%A9%D8%AA+%D9%85%D9%87%D9%86%D8%AF%D8%B3%DB%8C+%D8%AC%D9%85+%D8%A2%D8%A8+%D8%B3%D8%A7%D8%B2%D9%87+%D9%85%D8%AC%D8%B1%DB%8C+%D8%B3%DB%8C%D8%B3%D8%AA%D9%85+%D9%87%D8%A7%DB%8C+%D9%86%D9%88%DB%8C%D9%86+%D8%A2%D8%A8%DB%8C%D8%A7%D8%B1%DB%8C+%D9%82%D8%B7%D8%B1%D9%87+%D8%A7%DB%8C+%D9%88+%D8%A8%D8%A7%D8%B1%D8%A7%D9%86%DB%8C%E2%80%AD/data=!4m7!3m6!1s0x3f9d0f69ce5d2049:0x4d2f2f97a056ded!8m2!3d36.4336936!4d54.9753559!16s%2Fg%2F11j0qfqm89!19sChIJSSBdzmkPnT8R7W0Fevny0gQ?authuser=0&hl=tr&rclk=1",
    "website_url": "",
    "rating_text": "",
    "stars": null,
    "number_of_reviews": null,
    "price_level": "",
    "open_hours": "",
    "extraction_timestamp": "2025-06-07T15:36:43.032Z",
    "source_name": "google",
    "source_query": "Irrigation Equipment",
    "source_country": "IR",
    "country": "Iran",
    "state": "Semnan",
    "city": "Mahdi Shahr"
  },
  {
    "source_id": "ChIJzdX2ENWymz8RwvKc3C-eDII",
    "name": "Merikh Grocery",
    "category": "Merikh Grocery",
    "formatted_address": "4,5(4)",
    "phone_number": "",
    "source_url": "https://www.google.com/maps/place/Merikh+Grocery/data=!4m7!3m6!1s0x3f9bb2d510f6d5cd:0x820c9e2fdc9cf2c2!8m2!3d35.5945316!4d53.3927715!16s%2Fg%2F11g70w0rhp!19sChIJzdX2ENWymz8RwvKc3C-eDII?authuser=0&hl=tr&rclk=1",
    "website_url": "",
    "rating_text": "4,5",
    "stars": null,
    "number_of_reviews": null,
    "price_level": "",
    "open_hours": "",
    "extraction_timestamp": "2025-06-07T15:36:43.032Z",
    "source_name": "google",
    "source_query": "Irrigation Equipment",
    "source_country": "IR",
    "country": "Iran",
    "state": "Semnan",
    "city": "Mahdi Shahr"
  },
  {
    "source_id": "ChIJq6qqqtpMmj8R0FWPnvfSu6A",
    "name": "Golestan Park",
    "category": "Golestan Park",
    "formatted_address": "4,2(20)",
    "phone_number": "",
    "source_url": "https://www.google.com/maps/place/Golestan+Park/data=!4m7!3m6!1s0x3f9a4cdaaaaaaaab:0xa0bbd2f79e8f55d0!8m2!3d35.5849724!4d53.366276!16s%2Fg%2F1tdh6y9m!19sChIJq6qqqtpMmj8R0FWPnvfSu6A?authuser=0&hl=tr&rclk=1",
    "website_url": "",
    "rating_text": "4,2",
    "stars": null,
    "number_of_reviews": null,
    "price_level": "",
    "open_hours": "",
    "extraction_timestamp": "2025-06-07T15:36:43.033Z",
    "source_name": "google",
    "source_query": "Irrigation Equipment",
    "source_country": "IR",
    "country": "Iran",
    "state": "Semnan",
    "city": "Mahdi Shahr"
  },
  {
    "source_id": "ChIJu5hTriGzmz8R-ZqKIhiCFVk",
    "name": "Shad Grocery",
    "category": "Shad Grocery",
    "formatted_address": "5,0(1)",
    "phone_number": "+982333486632",
    "source_url": "https://www.google.com/maps/place/Shad+Grocery/data=!4m7!3m6!1s0x3f9bb321ae5398bb:0x59158218228a9af9!8m2!3d35.5960575!4d53.4100415!16s%2Fg%2F11c575mmxp!19sChIJu5hTriGzmz8R-ZqKIhiCFVk?authuser=0&hl=tr&rclk=1",
    "website_url": "",
    "rating_text": "5,0",
    "stars": null,
    "number_of_reviews": null,
    "price_level": "",
    "open_hours": "",
    "extraction_timestamp": "2025-06-07T15:36:43.034Z",
    "source_name": "google",
    "source_query": "Irrigation Equipment",
    "source_country": "IR",
    "country": "Iran",
    "state": "Semnan",
    "city": "Mahdi Shahr"
  }
]
