[
  {
    "source_id": "ChIJWTtd2Cuzmz8RYNPNUj4NzOk",
    "name": "Shahrab water purification equipment store",
    "category": "Shahrab water purification equipment store",
    "formatted_address": "4,7(3)",
    "phone_number": "+989900045010",
    "source_url": "https://www.google.com/maps/place/Shahrab+water+purification+equipment+store/data=!4m7!3m6!1s0x3f9bb32bd85d3b59:0xe9cc0d3e52cdd360!8m2!3d35.5905009!4d53.3969906!16s%2Fg%2F11f_49mq33!19sChIJWTtd2Cuzmz8RYNPNUj4NzOk?authuser=0&hl=tr&rclk=1",
    "website_url": "http://shahreab.ir/",
    "rating_text": "4,7",
    "stars": null,
    "number_of_reviews": null,
    "price_level": "",
    "open_hours": "",
    "extraction_timestamp": "2025-06-07T15:39:09.119Z",
    "source_name": "google",
    "source_query": "Irrigation Equipment",
    "source_country": "IR",
    "country": "Iran",
    "state": "Semnan",
    "city": "Rodian"
  },
  {
    "source_id": "ChIJtc0IIouzmz8RTCTjyk7_shA",
    "name": "فروشگاه کشاورزی رَز",
    "category": "فروشگاه کشاورزی رَز",
    "formatted_address": "4,8(5)",
    "phone_number": "+982333442990",
    "source_url": "https://www.google.com/maps/place/%D9%81%D8%B1%D9%88%D8%B4%DA%AF%D8%A7%D9%87+%DA%A9%D8%B4%D8%A7%D9%88%D8%B1%D8%B2%DB%8C+%D8%B1%D9%8E%D8%B2%E2%80%AD/data=!4m7!3m6!1s0x3f9bb38b2208cdb5:0x10b2ff4ecae3244c!8m2!3d35.5858374!4d53.4115377!16s%2Fg%2F11fnxtq0gc!19sChIJtc0IIouzmz8RTCTjyk7_shA?authuser=0&hl=tr&rclk=1",
    "website_url": "http://www.digiraz.com/",
    "rating_text": "4,8",
    "stars": null,
    "number_of_reviews": null,
    "price_level": "",
    "open_hours": "",
    "extraction_timestamp": "2025-06-07T15:39:09.119Z",
    "source_name": "google",
    "source_query": "Irrigation Equipment",
    "source_country": "IR",
    "country": "Iran",
    "state": "Semnan",
    "city": "Rodian"
  },
  {
    "source_id": "ChIJwebvMbmxmz8R9AqT2rGEWcc",
    "name": "semnan polyethylene pipe & fitting co",
    "category": "semnan polyethylene pipe & fitting co",
    "formatted_address": "4,0(2)",
    "phone_number": "+982333652805",
    "source_url": "https://www.google.com/maps/place/semnan+polyethylene+pipe+%26+fitting+co/data=!4m7!3m6!1s0x3f9bb1b931efe6c1:0xc75984b1da930af4!8m2!3d35.6165595!4d53.5188367!16s%2Fg%2F11fj5ck68b!19sChIJwebvMbmxmz8R9AqT2rGEWcc?authuser=0&hl=tr&rclk=1",
    "website_url": "http://www.semnanpe.com/",
    "rating_text": "4,0",
    "stars": null,
    "number_of_reviews": null,
    "price_level": "",
    "open_hours": "",
    "extraction_timestamp": "2025-06-07T15:39:09.120Z",
    "source_name": "google",
    "source_query": "Irrigation Equipment",
    "source_country": "IR",
    "country": "Iran",
    "state": "Semnan",
    "city": "Rodian"
  },
  {
    "source_id": "ChIJSSBdzmkPnT8R7W0Fevny0gQ",
    "name": "شرکت مهندسی جم آب سازه مجری سیستم های نوین آبیاری قطره ای و بارانی",
    "category": "شرکت مهندسی جم آب سازه مجری سیستم های نوین آبیاری قطره ای و بارانی",
    "formatted_address": "",
    "phone_number": "+989102736005",
    "source_url": "https://www.google.com/maps/place/%D8%B4%D8%B1%DA%A9%D8%AA+%D9%85%D9%87%D9%86%D8%AF%D8%B3%DB%8C+%D8%AC%D9%85+%D8%A2%D8%A8+%D8%B3%D8%A7%D8%B2%D9%87+%D9%85%D8%AC%D8%B1%DB%8C+%D8%B3%DB%8C%D8%B3%D8%AA%D9%85+%D9%87%D8%A7%DB%8C+%D9%86%D9%88%DB%8C%D9%86+%D8%A2%D8%A8%DB%8C%D8%A7%D8%B1%DB%8C+%D9%82%D8%B7%D8%B1%D9%87+%D8%A7%DB%8C+%D9%88+%D8%A8%D8%A7%D8%B1%D8%A7%D9%86%DB%8C%E2%80%AD/data=!4m7!3m6!1s0x3f9d0f69ce5d2049:0x4d2f2f97a056ded!8m2!3d36.4336936!4d54.9753559!16s%2Fg%2F11j0qfqm89!19sChIJSSBdzmkPnT8R7W0Fevny0gQ?authuser=0&hl=tr&rclk=1",
    "website_url": "",
    "rating_text": "",
    "stars": null,
    "number_of_reviews": null,
    "price_level": "",
    "open_hours": "",
    "extraction_timestamp": "2025-06-07T15:39:09.120Z",
    "source_name": "google",
    "source_query": "Irrigation Equipment",
    "source_country": "IR",
    "country": "Iran",
    "state": "Semnan",
    "city": "Rodian"
  },
  {
    "source_id": "ChIJG75fs59Nmj8ReOUv01RAmiM",
    "name": "تصفیه آب آکواجوی( کساییان)",
    "category": "تصفیه آب آکواجوی( کساییان)",
    "formatted_address": "4,6(10)",
    "phone_number": "+982333332077",
    "source_url": "https://www.google.com/maps/place/%D8%AA%D8%B5%D9%81%DB%8C%D9%87+%D8%A2%D8%A8+%D8%A2%DA%A9%D9%88%D8%A7%D8%AC%D9%88%DB%8C%28+%DA%A9%D8%B3%D8%A7%DB%8C%DB%8C%D8%A7%D9%86%29%E2%80%AD/data=!4m7!3m6!1s0x3f9a4d9fb35fbe1b:0x239a4054d32fe578!8m2!3d35.5784654!4d53.3879484!16s%2Fg%2F11r_dmvr4c!19sChIJG75fs59Nmj8ReOUv01RAmiM?authuser=0&hl=tr&rclk=1",
    "website_url": "http://www.instagram.com//tasfie.ab.aquajoy",
    "rating_text": "4,6",
    "stars": null,
    "number_of_reviews": null,
    "price_level": "",
    "open_hours": "",
    "extraction_timestamp": "2025-06-07T15:39:09.120Z",
    "source_name": "google",
    "source_query": "Irrigation Equipment",
    "source_country": "IR",
    "country": "Iran",
    "state": "Semnan",
    "city": "Rodian"
  },
  {
    "source_id": "ChIJr_ADnDTxkD8RDpGaR3yUY24",
    "name": "سبزینه گستر کویر",
    "category": "سبزینه گستر کویر",
    "formatted_address": "",
    "phone_number": "+982354848454",
    "source_url": "https://www.google.com/maps/place/%D8%B3%D8%A8%D8%B2%DB%8C%D9%86%D9%87+%DA%AF%D8%B3%D8%AA%D8%B1+%DA%A9%D9%88%DB%8C%D8%B1%E2%80%AD/data=!4m7!3m6!1s0x3f90f1349c03f0af:0x6e63947c479a910e!8m2!3d35.2446515!4d52.2324144!16s%2Fg%2F11g4h33v6l!19sChIJr_ADnDTxkD8RDpGaR3yUY24?authuser=0&hl=tr&rclk=1",
    "website_url": "http://sabzine-gostar.com/",
    "rating_text": "",
    "stars": null,
    "number_of_reviews": null,
    "price_level": "",
    "open_hours": "",
    "extraction_timestamp": "2025-06-07T15:39:09.121Z",
    "source_name": "google",
    "source_query": "Irrigation Equipment",
    "source_country": "IR",
    "country": "Iran",
    "state": "Semnan",
    "city": "Rodian"
  },
  {
    "source_id": "ChIJX0d8mWxTmj8Ry3J7mtbO2gU",
    "name": "Kimia Faravar kud",
    "category": "Kimia Faravar kud",
    "formatted_address": "5,0(2)",
    "phone_number": "+989127311760",
    "source_url": "https://www.google.com/maps/place/Kimia+Faravar+kud/data=!4m7!3m6!1s0x3f9a536c997c475f:0x5daced69a7b72cb!8m2!3d35.6588011!4d53.3169127!16s%2Fg%2F11llylfnph!19sChIJX0d8mWxTmj8Ry3J7mtbO2gU?authuser=0&hl=tr&rclk=1",
    "website_url": "",
    "rating_text": "5,0",
    "stars": null,
    "number_of_reviews": null,
    "price_level": "",
    "open_hours": "",
    "extraction_timestamp": "2025-06-07T15:39:09.121Z",
    "source_name": "google",
    "source_query": "Irrigation Equipment",
    "source_country": "IR",
    "country": "Iran",
    "state": "Semnan",
    "city": "Rodian"
  },
  {
    "source_id": "ChIJGfclyNJMmj8Rt1WFhzJ5jHI",
    "name": "Aryan system",
    "category": "Aryan system",
    "formatted_address": "Su Yumuşatma Ekipmanları Tedarikçisi · Mo'alem Blvd, H9MR+C3JAçık ⋅ Kapanış saati: 21:00 · +98 23 3333 6190",
    "phone_number": "+982333336190",
    "source_url": "https://www.google.com/maps/place/Aryan+system/data=!4m7!3m6!1s0x3f9a4cd2c825f719:0x728c7932878555b7!8m2!3d35.5835883!4d53.3901517!16s%2Fg%2F11c1nz3hjk!19sChIJGfclyNJMmj8Rt1WFhzJ5jHI?authuser=0&hl=tr&rclk=1",
    "website_url": "http://aryan-system.ir/",
    "rating_text": "",
    "stars": null,
    "number_of_reviews": null,
    "price_level": "",
    "open_hours": "",
    "extraction_timestamp": "2025-06-07T15:39:09.122Z",
    "source_name": "google",
    "source_query": "Irrigation Equipment",
    "source_country": "IR",
    "country": "Iran",
    "state": "Semnan",
    "city": "Rodian"
  },
  {
    "source_id": "ChIJa_tkz5cPnT8RYRHvq8E_KQw",
    "name": "تصفیه آب وکیلیان",
    "category": "تصفیه آب وکیلیان",
    "formatted_address": "5,0(1)",
    "phone_number": "+982332337080",
    "source_url": "https://www.google.com/maps/place/%D8%AA%D8%B5%D9%81%DB%8C%D9%87+%D8%A2%D8%A8+%D9%88%DA%A9%DB%8C%D9%84%DB%8C%D8%A7%D9%86%E2%80%AD/data=!4m7!3m6!1s0x3f9d0f97cf64fb6b:0xc293fc1abef1161!8m2!3d36.4171335!4d54.9706892!16s%2Fg%2F11fls3dfzy!19sChIJa_tkz5cPnT8RYRHvq8E_KQw?authuser=0&hl=tr&rclk=1",
    "website_url": "",
    "rating_text": "5,0",
    "stars": null,
    "number_of_reviews": null,
    "price_level": "",
    "open_hours": "",
    "extraction_timestamp": "2025-06-07T15:39:09.122Z",
    "source_name": "google",
    "source_query": "Irrigation Equipment",
    "source_country": "IR",
    "country": "Iran",
    "state": "Semnan",
    "city": "Rodian"
  },
  {
    "source_id": "ChIJY20q2KEPnT8RsueS34nuSeI",
    "name": "جم آب سازه کوثر",
    "category": "جم آب سازه کوثر",
    "formatted_address": "Sulama Ekipmanları Tedarikçisi · شاهرود،،, CXMG+HHFKapalı ⋅ Açılış zamanı: Paz 09:00 · +98 23 3224 6982",
    "phone_number": "+982332246982",
    "source_url": "https://www.google.com/maps/place/%D8%AC%D9%85+%D8%A2%D8%A8+%D8%B3%D8%A7%D8%B2%D9%87+%DA%A9%D9%88%D8%AB%D8%B1%E2%80%AD/data=!4m7!3m6!1s0x3f9d0fa1d82a6d63:0xe249ee89df92e7b2!8m2!3d36.4339255!4d54.9764252!16s%2Fg%2F11fvl52__5!19sChIJY20q2KEPnT8RsueS34nuSeI?authuser=0&hl=tr&rclk=1",
    "website_url": "",
    "rating_text": "",
    "stars": null,
    "number_of_reviews": null,
    "price_level": "",
    "open_hours": "",
    "extraction_timestamp": "2025-06-07T15:39:09.122Z",
    "source_name": "google",
    "source_query": "Irrigation Equipment",
    "source_country": "IR",
    "country": "Iran",
    "state": "Semnan",
    "city": "Rodian"
  }
]
