[
  {
    "source_id": "ChIJWTtd2Cuzmz8RYNPNUj4NzOk",
    "name": "Shahrab water purification equipment store",
    "category": "Shahrab water purification equipment store",
    "formatted_address": "4,7(3)",
    "phone_number": "+989900045010",
    "source_url": "https://www.google.com/maps/place/Shahrab+water+purification+equipment+store/data=!4m7!3m6!1s0x3f9bb32bd85d3b59:0xe9cc0d3e52cdd360!8m2!3d35.5905009!4d53.3969906!16s%2Fg%2F11f_49mq33!19sChIJWTtd2Cuzmz8RYNPNUj4NzOk?authuser=0&hl=tr&rclk=1",
    "website_url": "http://shahreab.ir/",
    "rating_text": "4,7",
    "stars": null,
    "number_of_reviews": null,
    "price_level": "",
    "open_hours": "",
    "extraction_timestamp": "2025-06-07T15:36:05.739Z",
    "source_name": "google",
    "source_query": "Irrigation Equipment",
    "source_country": "IR",
    "country": "Iran",
    "state": "Semnan",
    "city": "Semnan"
  },
  {
    "source_id": "ChIJqUOR0BRNmj8R3vuvjosNlPM",
    "name": "فروشگاه تصفیه آب c.c.k",
    "category": "فروشگاه تصفیه آب c.c.k",
    "formatted_address": "5,0(1)",
    "phone_number": "+989127329001",
    "source_url": "https://www.google.com/maps/place/%D9%81%D8%B1%D9%88%D8%B4%DA%AF%D8%A7%D9%87+%D8%AA%D8%B5%D9%81%DB%8C%D9%87+%D8%A2%D8%A8+c.c.k%E2%80%AD/data=!4m7!3m6!1s0x3f9a4d14d09143a9:0xf3940d8b8eaffbde!8m2!3d35.5822163!4d53.3782359!16s%2Fg%2F11ny1qgwgw!19sChIJqUOR0BRNmj8R3vuvjosNlPM?authuser=0&hl=tr&rclk=1",
    "website_url": "",
    "rating_text": "5,0",
    "stars": null,
    "number_of_reviews": null,
    "price_level": "",
    "open_hours": "",
    "extraction_timestamp": "2025-06-07T15:36:05.742Z",
    "source_name": "google",
    "source_query": "Irrigation Equipment",
    "source_country": "IR",
    "country": "Iran",
    "state": "Semnan",
    "city": "Semnan"
  },
  {
    "source_id": "ChIJG75fs59Nmj8ReOUv01RAmiM",
    "name": "تصفیه آب آکواجوی( کساییان)",
    "category": "تصفیه آب آکواجوی( کساییان)",
    "formatted_address": "4,6(10)",
    "phone_number": "+982333332077",
    "source_url": "https://www.google.com/maps/place/%D8%AA%D8%B5%D9%81%DB%8C%D9%87+%D8%A2%D8%A8+%D8%A2%DA%A9%D9%88%D8%A7%D8%AC%D9%88%DB%8C%28+%DA%A9%D8%B3%D8%A7%DB%8C%DB%8C%D8%A7%D9%86%29%E2%80%AD/data=!4m7!3m6!1s0x3f9a4d9fb35fbe1b:0x239a4054d32fe578!8m2!3d35.5784654!4d53.3879484!16s%2Fg%2F11r_dmvr4c!19sChIJG75fs59Nmj8ReOUv01RAmiM?authuser=0&hl=tr&rclk=1",
    "website_url": "http://www.instagram.com//tasfie.ab.aquajoy",
    "rating_text": "4,6",
    "stars": null,
    "number_of_reviews": null,
    "price_level": "",
    "open_hours": "",
    "extraction_timestamp": "2025-06-07T15:36:05.744Z",
    "source_name": "google",
    "source_query": "Irrigation Equipment",
    "source_country": "IR",
    "country": "Iran",
    "state": "Semnan",
    "city": "Semnan"
  },
  {
    "source_id": "ChIJwebvMbmxmz8R9AqT2rGEWcc",
    "name": "semnan polyethylene pipe & fitting co",
    "category": "semnan polyethylene pipe & fitting co",
    "formatted_address": "4,0(2)",
    "phone_number": "+982333652805",
    "source_url": "https://www.google.com/maps/place/semnan+polyethylene+pipe+%26+fitting+co/data=!4m7!3m6!1s0x3f9bb1b931efe6c1:0xc75984b1da930af4!8m2!3d35.6165595!4d53.5188367!16s%2Fg%2F11fj5ck68b!19sChIJwebvMbmxmz8R9AqT2rGEWcc?authuser=0&hl=tr&rclk=1",
    "website_url": "http://www.semnanpe.com/",
    "rating_text": "4,0",
    "stars": null,
    "number_of_reviews": null,
    "price_level": "",
    "open_hours": "",
    "extraction_timestamp": "2025-06-07T15:36:05.747Z",
    "source_name": "google",
    "source_query": "Irrigation Equipment",
    "source_country": "IR",
    "country": "Iran",
    "state": "Semnan",
    "city": "Semnan"
  },
  {
    "source_id": "ChIJ2Sph_iRNmj8RU2C5y2icJlI",
    "name": "فروشگاه تصفیه آب گوارا (سالار)",
    "category": "فروشگاه تصفیه آب گوارا (سالار)",
    "formatted_address": "5,0(1)",
    "phone_number": "+989125310710",
    "source_url": "https://www.google.com/maps/place/%D9%81%D8%B1%D9%88%D8%B4%DA%AF%D8%A7%D9%87+%D8%AA%D8%B5%D9%81%DB%8C%D9%87+%D8%A2%D8%A8+%DA%AF%D9%88%D8%A7%D8%B1%D8%A7+%28%D8%B3%D8%A7%D9%84%D8%A7%D8%B1%29%E2%80%AD/data=!4m7!3m6!1s0x3f9a4d24fe612ad9:0x52269c68cbb96053!8m2!3d35.5607031!4d53.3817242!16s%2Fg%2F11tp5x2nps!19sChIJ2Sph_iRNmj8RU2C5y2icJlI?authuser=0&hl=tr&rclk=1",
    "website_url": "",
    "rating_text": "5,0",
    "stars": null,
    "number_of_reviews": null,
    "price_level": "",
    "open_hours": "",
    "extraction_timestamp": "2025-06-07T15:36:05.750Z",
    "source_name": "google",
    "source_query": "Irrigation Equipment",
    "source_country": "IR",
    "country": "Iran",
    "state": "Semnan",
    "city": "Semnan"
  },
  {
    "source_id": "ChIJlckChtlMmj8RSKP7pRHHp0Q",
    "name": "فروشگاه تاسیسات تکنو گستر",
    "category": "فروشگاه تاسیسات تکنو گستر",
    "formatted_address": "5,0(3)",
    "phone_number": "+982333440566",
    "source_url": "https://www.google.com/maps/place/%D9%81%D8%B1%D9%88%D8%B4%DA%AF%D8%A7%D9%87+%D8%AA%D8%A7%D8%B3%DB%8C%D8%B3%D8%A7%D8%AA+%D8%AA%DA%A9%D9%86%D9%88+%DA%AF%D8%B3%D8%AA%D8%B1%E2%80%AD/data=!4m7!3m6!1s0x3f9a4cd98602c995:0x44a7c711a5fba348!8m2!3d35.5831132!4d53.3777638!16s%2Fg%2F11fyzkdjq8!19sChIJlckChtlMmj8RSKP7pRHHp0Q?authuser=0&hl=tr&rclk=1",
    "website_url": "",
    "rating_text": "5,0",
    "stars": null,
    "number_of_reviews": null,
    "price_level": "",
    "open_hours": "",
    "extraction_timestamp": "2025-06-07T15:36:05.770Z",
    "source_name": "google",
    "source_query": "Irrigation Equipment",
    "source_country": "IR",
    "country": "Iran",
    "state": "Semnan",
    "city": "Semnan"
  },
  {
    "source_id": "ChIJvZlT502xmz8R0i_vJ7bnRac",
    "name": "Maher Amin",
    "category": "Maher Amin",
    "formatted_address": "5,0(1)",
    "phone_number": "+982188140098",
    "source_url": "https://www.google.com/maps/place/Maher+Amin/data=!4m7!3m6!1s0x3f9bb14de75399bd:0xa745e7b627ef2fd2!8m2!3d35.6111271!4d53.5108431!16s%2Fg%2F11tcczlwy0!19sChIJvZlT502xmz8R0i_vJ7bnRac?authuser=0&hl=tr&rclk=1",
    "website_url": "",
    "rating_text": "5,0",
    "stars": null,
    "number_of_reviews": null,
    "price_level": "",
    "open_hours": "",
    "extraction_timestamp": "2025-06-07T15:36:05.772Z",
    "source_name": "google",
    "source_query": "Irrigation Equipment",
    "source_country": "IR",
    "country": "Iran",
    "state": "Semnan",
    "city": "Semnan"
  },
  {
    "source_id": "ChIJKzgfpo1Nmj8RiAWXGdrOmo0",
    "name": "تصفیه آب آزادی",
    "category": "تصفیه آب آزادی",
    "formatted_address": "5,0(2)",
    "phone_number": "+989107429790",
    "source_url": "https://www.google.com/maps/place/%D8%AA%D8%B5%D9%81%DB%8C%D9%87+%D8%A2%D8%A8+%D8%A2%D8%B2%D8%A7%D8%AF%DB%8C%E2%80%AD/data=!4m7!3m6!1s0x3f9a4d8da61f382b:0x8d9aceda19970588!8m2!3d35.5857387!4d53.3804917!16s%2Fg%2F11h79k97jx!19sChIJKzgfpo1Nmj8RiAWXGdrOmo0?authuser=0&hl=tr&rclk=1",
    "website_url": "",
    "rating_text": "5,0",
    "stars": null,
    "number_of_reviews": null,
    "price_level": "",
    "open_hours": "",
    "extraction_timestamp": "2025-06-07T15:36:05.773Z",
    "source_name": "google",
    "source_query": "Irrigation Equipment",
    "source_country": "IR",
    "country": "Iran",
    "state": "Semnan",
    "city": "Semnan"
  },
  {
    "source_id": "ChIJLRiZDiCzmz8R0WCXMPzok7o",
    "name": "تصفیه آب مداح",
    "category": "تصفیه آب مداح",
    "formatted_address": "Su Yumuşatma Ekipmanları Tedarikçisi · Shora, H9HW+CXGAçık ⋅ Kapanış saati: 21:30 · +98 23 3336 3734",
    "phone_number": "+982333363734",
    "source_url": "https://www.google.com/maps/place/%D8%AA%D8%B5%D9%81%DB%8C%D9%87+%D8%A2%D8%A8+%D9%85%D8%AF%D8%A7%D8%AD%E2%80%AD/data=!4m7!3m6!1s0x3f9bb3200e99182d:0xba93e8fc309760d1!8m2!3d35.5785547!4d53.3974431!16s%2Fg%2F11h1zwptgp!19sChIJLRiZDiCzmz8R0WCXMPzok7o?authuser=0&hl=tr&rclk=1",
    "website_url": "",
    "rating_text": "",
    "stars": null,
    "number_of_reviews": null,
    "price_level": "",
    "open_hours": "",
    "extraction_timestamp": "2025-06-07T15:36:05.775Z",
    "source_name": "google",
    "source_query": "Irrigation Equipment",
    "source_country": "IR",
    "country": "Iran",
    "state": "Semnan",
    "city": "Semnan"
  },
  {
    "source_id": "ChIJGfclyNJMmj8Rt1WFhzJ5jHI",
    "name": "Aryan system",
    "category": "Aryan system",
    "formatted_address": "Su Yumuşatma Ekipmanları Tedarikçisi · Mo'alem Blvd, H9MR+C3JAçık ⋅ Kapanış saati: 21:00 · +98 23 3333 6190",
    "phone_number": "+982333336190",
    "source_url": "https://www.google.com/maps/place/Aryan+system/data=!4m7!3m6!1s0x3f9a4cd2c825f719:0x728c7932878555b7!8m2!3d35.5835883!4d53.3901517!16s%2Fg%2F11c1nz3hjk!19sChIJGfclyNJMmj8Rt1WFhzJ5jHI?authuser=0&hl=tr&rclk=1",
    "website_url": "http://aryan-system.ir/",
    "rating_text": "",
    "stars": null,
    "number_of_reviews": null,
    "price_level": "",
    "open_hours": "",
    "extraction_timestamp": "2025-06-07T15:36:05.776Z",
    "source_name": "google",
    "source_query": "Irrigation Equipment",
    "source_country": "IR",
    "country": "Iran",
    "state": "Semnan",
    "city": "Semnan"
  },
  {
    "source_id": "ChIJPYr5HABNmj8Rjsn3DceoEXI",
    "name": "تصفیه آب آکواجوی",
    "category": "تصفیه آب آکواجوی",
    "formatted_address": "5,0(4)",
    "phone_number": "+982333460102",
    "source_url": "https://www.google.com/maps/place/%D8%AA%D8%B5%D9%81%DB%8C%D9%87+%D8%A2%D8%A8+%D8%A2%DA%A9%D9%88%D8%A7%D8%AC%D9%88%DB%8C%E2%80%AD/data=!4m7!3m6!1s0x3f9a4d001cf98a3d:0x7211a8c70df7c98e!8m2!3d35.5812462!4d53.3721798!16s%2Fg%2F11w2jsf_11!19sChIJPYr5HABNmj8Rjsn3DceoEXI?authuser=0&hl=tr&rclk=1",
    "website_url": "http://hirabsun.com/",
    "rating_text": "5,0",
    "stars": null,
    "number_of_reviews": null,
    "price_level": "",
    "open_hours": "",
    "extraction_timestamp": "2025-06-07T15:36:05.777Z",
    "source_name": "google",
    "source_query": "Irrigation Equipment",
    "source_country": "IR",
    "country": "Iran",
    "state": "Semnan",
    "city": "Semnan"
  },
  {
    "source_id": "ChIJswCB9UGzmz8RYUvLBVA-Rjo",
    "name": "آب تصفیه",
    "category": "آب تصفیه",
    "formatted_address": "Su Filtresi Tedarikçisi · Modarres Blvd, H9QR+XGR",
    "phone_number": "",
    "source_url": "https://www.google.com/maps/place/%D8%A2%D8%A8+%D8%AA%D8%B5%D9%81%DB%8C%D9%87%E2%80%AD/data=!4m7!3m6!1s0x3f9bb341f58100b3:0x3a463e5005cb4b61!8m2!3d35.5899921!4d53.3912523!16s%2Fg%2F11s0t69d_j!19sChIJswCB9UGzmz8RYUvLBVA-Rjo?authuser=0&hl=tr&rclk=1",
    "website_url": "",
    "rating_text": "",
    "stars": null,
    "number_of_reviews": null,
    "price_level": "",
    "open_hours": "",
    "extraction_timestamp": "2025-06-07T15:36:05.778Z",
    "source_name": "google",
    "source_query": "Irrigation Equipment",
    "source_country": "IR",
    "country": "Iran",
    "state": "Semnan",
    "city": "Semnan"
  },
  {
    "source_id": "ChIJsWRBNU6zmz8R3fCJmQ0MBbQ",
    "name": "Semnan Bazaar",
    "category": "Semnan Bazaar",
    "formatted_address": "4,1(112)",
    "phone_number": "",
    "source_url": "https://www.google.com/maps/place/Semnan+Bazaar/data=!4m7!3m6!1s0x3f9bb34e354164b1:0xb4050c0d9989f0dd!8m2!3d35.5709375!4d53.3964337!16s%2Fg%2F1pxytz5g7!19sChIJsWRBNU6zmz8R3fCJmQ0MBbQ?authuser=0&hl=tr&rclk=1",
    "website_url": "",
    "rating_text": "4,1",
    "stars": null,
    "number_of_reviews": null,
    "price_level": "",
    "open_hours": "",
    "extraction_timestamp": "2025-06-07T15:36:05.778Z",
    "source_name": "google",
    "source_query": "Irrigation Equipment",
    "source_country": "IR",
    "country": "Iran",
    "state": "Semnan",
    "city": "Semnan"
  },
  {
    "source_id": "ChIJw08luC2zmz8RM4qYznPejws",
    "name": "ابزار شادمهر",
    "category": "ابزار شادمهر",
    "formatted_address": "5,0(1)",
    "phone_number": "+982333344516",
    "source_url": "https://www.google.com/maps/place/%D8%A7%D8%A8%D8%B2%D8%A7%D8%B1+%D8%B4%D8%A7%D8%AF%D9%85%D9%87%D8%B1%E2%80%AD/data=!4m7!3m6!1s0x3f9bb32db8254fc3:0xb8fde73ce988a33!8m2!3d35.5782581!4d53.3941012!16s%2Fg%2F11ssts2tgh!19sChIJw08luC2zmz8RM4qYznPejws?authuser=0&hl=tr&rclk=1",
    "website_url": "https://abzarshadmehr.com/",
    "rating_text": "5,0",
    "stars": null,
    "number_of_reviews": null,
    "price_level": "",
    "open_hours": "",
    "extraction_timestamp": "2025-06-07T15:36:05.781Z",
    "source_name": "google",
    "source_query": "Irrigation Equipment",
    "source_country": "IR",
    "country": "Iran",
    "state": "Semnan",
    "city": "Semnan"
  },
  {
    "source_id": "ChIJSSBdzmkPnT8R7W0Fevny0gQ",
    "name": "شرکت مهندسی جم آب سازه مجری سیستم های نوین آبیاری قطره ای و بارانی",
    "category": "شرکت مهندسی جم آب سازه مجری سیستم های نوین آبیاری قطره ای و بارانی",
    "formatted_address": "",
    "phone_number": "+989102736005",
    "source_url": "https://www.google.com/maps/place/%D8%B4%D8%B1%DA%A9%D8%AA+%D9%85%D9%87%D9%86%D8%AF%D8%B3%DB%8C+%D8%AC%D9%85+%D8%A2%D8%A8+%D8%B3%D8%A7%D8%B2%D9%87+%D9%85%D8%AC%D8%B1%DB%8C+%D8%B3%DB%8C%D8%B3%D8%AA%D9%85+%D9%87%D8%A7%DB%8C+%D9%86%D9%88%DB%8C%D9%86+%D8%A2%D8%A8%DB%8C%D8%A7%D8%B1%DB%8C+%D9%82%D8%B7%D8%B1%D9%87+%D8%A7%DB%8C+%D9%88+%D8%A8%D8%A7%D8%B1%D8%A7%D9%86%DB%8C%E2%80%AD/data=!4m7!3m6!1s0x3f9d0f69ce5d2049:0x4d2f2f97a056ded!8m2!3d36.4336936!4d54.9753559!16s%2Fg%2F11j0qfqm89!19sChIJSSBdzmkPnT8R7W0Fevny0gQ?authuser=0&hl=tr&rclk=1",
    "website_url": "",
    "rating_text": "",
    "stars": null,
    "number_of_reviews": null,
    "price_level": "",
    "open_hours": "",
    "extraction_timestamp": "2025-06-07T15:36:05.782Z",
    "source_name": "google",
    "source_query": "Irrigation Equipment",
    "source_country": "IR",
    "country": "Iran",
    "state": "Semnan",
    "city": "Semnan"
  }
]
