[
  {
    "source_id": "ChIJWTtd2Cuzmz8RYNPNUj4NzOk",
    "name": "Shahrab water purification equipment store",
    "category": "Shahrab water purification equipment store",
    "formatted_address": "4,7(3)",
    "phone_number": "+989900045010",
    "source_url": "https://www.google.com/maps/place/Shahrab+water+purification+equipment+store/data=!4m7!3m6!1s0x3f9bb32bd85d3b59:0xe9cc0d3e52cdd360!8m2!3d35.5905009!4d53.3969906!16s%2Fg%2F11f_49mq33!19sChIJWTtd2Cuzmz8RYNPNUj4NzOk?authuser=0&hl=tr&rclk=1",
    "website_url": "",
    "rating_text": "4,7",
    "stars": null,
    "number_of_reviews": null,
    "price_level": "",
    "open_hours": "",
    "extraction_timestamp": "2025-06-07T15:37:35.893Z",
    "source_name": "google",
    "source_query": "Irrigation Equipment",
    "source_country": "IR",
    "country": "Iran",
    "state": "Semnan",
    "city": "Shahmirzad"
  },
  {
    "source_id": "ChIJb-PfZ37_mj8Rv62fgEYMBPM",
    "name": "شهمیرزاد پایپ",
    "category": "شهمیرزاد پایپ",
    "formatted_address": "2,0(3)",
    "phone_number": "",
    "source_url": "https://www.google.com/maps/place/%D8%B4%D9%87%D9%85%DB%8C%D8%B1%D8%B2%D8%A7%D8%AF+%D9%BE%D8%A7%DB%8C%D9%BE%E2%80%AD/data=!4m7!3m6!1s0x3f9aff7e67dfe36f:0xf3040c46809fadbf!8m2!3d35.76672!4d53.3433591!16s%2Fg%2F11c55vfzcb!19sChIJb-PfZ37_mj8Rv62fgEYMBPM?authuser=0&hl=tr&rclk=1",
    "website_url": "",
    "rating_text": "2,0",
    "stars": null,
    "number_of_reviews": null,
    "price_level": "",
    "open_hours": "",
    "extraction_timestamp": "2025-06-07T15:37:35.894Z",
    "source_name": "google",
    "source_query": "Irrigation Equipment",
    "source_country": "IR",
    "country": "Iran",
    "state": "Semnan",
    "city": "Shahmirzad"
  },
  {
    "source_id": "ChIJwebvMbmxmz8R9AqT2rGEWcc",
    "name": "semnan polyethylene pipe & fitting co",
    "category": "semnan polyethylene pipe & fitting co",
    "formatted_address": "4,0(2)",
    "phone_number": "+982333652805",
    "source_url": "https://www.google.com/maps/place/semnan+polyethylene+pipe+%26+fitting+co/data=!4m7!3m6!1s0x3f9bb1b931efe6c1:0xc75984b1da930af4!8m2!3d35.6165595!4d53.5188367!16s%2Fg%2F11fj5ck68b!19sChIJwebvMbmxmz8R9AqT2rGEWcc?authuser=0&hl=tr&rclk=1",
    "website_url": "",
    "rating_text": "4,0",
    "stars": null,
    "number_of_reviews": null,
    "price_level": "",
    "open_hours": "",
    "extraction_timestamp": "2025-06-07T15:37:35.895Z",
    "source_name": "google",
    "source_query": "Irrigation Equipment",
    "source_country": "IR",
    "country": "Iran",
    "state": "Semnan",
    "city": "Shahmirzad"
  },
  {
    "source_id": "ChIJvZlT502xmz8R0i_vJ7bnRac",
    "name": "Maher Amin",
    "category": "Maher Amin",
    "formatted_address": "5,0(1)",
    "phone_number": "+982188140098",
    "source_url": "https://www.google.com/maps/place/Maher+Amin/data=!4m7!3m6!1s0x3f9bb14de75399bd:0xa745e7b627ef2fd2!8m2!3d35.6111271!4d53.5108431!16s%2Fg%2F11tcczlwy0!19sChIJvZlT502xmz8R0i_vJ7bnRac?authuser=0&hl=tr&rclk=1",
    "website_url": "",
    "rating_text": "5,0",
    "stars": null,
    "number_of_reviews": null,
    "price_level": "",
    "open_hours": "",
    "extraction_timestamp": "2025-06-07T15:37:35.896Z",
    "source_name": "google",
    "source_query": "Irrigation Equipment",
    "source_country": "IR",
    "country": "Iran",
    "state": "Semnan",
    "city": "Shahmirzad"
  },
  {
    "source_id": "ChIJe7lSxWj_mj8RxP7ebrVi81Q",
    "name": "Dada Ali Supermarket",
    "category": "Dada Ali Supermarket",
    "formatted_address": "4,5(2)",
    "phone_number": "+982333664575",
    "source_url": "https://www.google.com/maps/place/Dada+Ali+Supermarket/data=!4m7!3m6!1s0x3f9aff68c552b97b:0x54f362b56edefec4!8m2!3d35.7717051!4d53.3305332!16s%2Fg%2F11cs0rm2x6!19sChIJe7lSxWj_mj8RxP7ebrVi81Q?authuser=0&hl=tr&rclk=1",
    "website_url": "",
    "rating_text": "4,5",
    "stars": null,
    "number_of_reviews": null,
    "price_level": "",
    "open_hours": "",
    "extraction_timestamp": "2025-06-07T15:37:35.898Z",
    "source_name": "google",
    "source_query": "Irrigation Equipment",
    "source_country": "IR",
    "country": "Iran",
    "state": "Semnan",
    "city": "Shahmirzad"
  },
  {
    "source_id": "ChIJG75fs59Nmj8ReOUv01RAmiM",
    "name": "تصفیه آب آکواجوی( کساییان)",
    "category": "تصفیه آب آکواجوی( کساییان)",
    "formatted_address": "4,6(10)",
    "phone_number": "+982333332077",
    "source_url": "https://www.google.com/maps/place/%D8%AA%D8%B5%D9%81%DB%8C%D9%87+%D8%A2%D8%A8+%D8%A2%DA%A9%D9%88%D8%A7%D8%AC%D9%88%DB%8C%28+%DA%A9%D8%B3%D8%A7%DB%8C%DB%8C%D8%A7%D9%86%29%E2%80%AD/data=!4m7!3m6!1s0x3f9a4d9fb35fbe1b:0x239a4054d32fe578!8m2!3d35.5784654!4d53.3879484!16s%2Fg%2F11r_dmvr4c!19sChIJG75fs59Nmj8ReOUv01RAmiM?authuser=0&hl=tr&rclk=1",
    "website_url": "",
    "rating_text": "4,6",
    "stars": null,
    "number_of_reviews": null,
    "price_level": "",
    "open_hours": "",
    "extraction_timestamp": "2025-06-07T15:37:35.899Z",
    "source_name": "google",
    "source_query": "Irrigation Equipment",
    "source_country": "IR",
    "country": "Iran",
    "state": "Semnan",
    "city": "Shahmirzad"
  },
  {
    "source_id": "ChIJKzgfpo1Nmj8RiAWXGdrOmo0",
    "name": "تصفیه آب آزادی",
    "category": "تصفیه آب آزادی",
    "formatted_address": "5,0(2)",
    "phone_number": "+989107429790",
    "source_url": "https://www.google.com/maps/place/%D8%AA%D8%B5%D9%81%DB%8C%D9%87+%D8%A2%D8%A8+%D8%A2%D8%B2%D8%A7%D8%AF%DB%8C%E2%80%AD/data=!4m7!3m6!1s0x3f9a4d8da61f382b:0x8d9aceda19970588!8m2!3d35.5857387!4d53.3804917!16s%2Fg%2F11h79k97jx!19sChIJKzgfpo1Nmj8RiAWXGdrOmo0?authuser=0&hl=tr&rclk=1",
    "website_url": "",
    "rating_text": "5,0",
    "stars": null,
    "number_of_reviews": null,
    "price_level": "",
    "open_hours": "",
    "extraction_timestamp": "2025-06-07T15:37:35.900Z",
    "source_name": "google",
    "source_query": "Irrigation Equipment",
    "source_country": "IR",
    "country": "Iran",
    "state": "Semnan",
    "city": "Shahmirzad"
  },
  {
    "source_id": "ChIJjwJlhWn_mj8RZX_SUWs-gVQ",
    "name": "آبمیوه و بستنی میلاد",
    "category": "آبمیوه و بستنی میلاد",
    "formatted_address": "4,5(2)",
    "phone_number": "+982333663944",
    "source_url": "https://www.google.com/maps/place/%D8%A2%D8%A8%D9%85%DB%8C%D9%88%D9%87+%D9%88+%D8%A8%D8%B3%D8%AA%D9%86%DB%8C+%D9%85%DB%8C%D9%84%D8%A7%D8%AF%E2%80%AD/data=!4m7!3m6!1s0x3f9aff698565028f:0x54813e6b51d27f65!8m2!3d35.77325!4d53.3279059!16s%2Fg%2F11cs2ws2zm!19sChIJjwJlhWn_mj8RZX_SUWs-gVQ?authuser=0&hl=tr&rclk=1",
    "website_url": "",
    "rating_text": "4,5",
    "stars": null,
    "number_of_reviews": null,
    "price_level": "",
    "open_hours": "",
    "extraction_timestamp": "2025-06-07T15:37:35.902Z",
    "source_name": "google",
    "source_query": "Irrigation Equipment",
    "source_country": "IR",
    "country": "Iran",
    "state": "Semnan",
    "city": "Shahmirzad"
  },
  {
    "source_id": "ChIJl0xgoGn_mj8ROF-uYMnQmYY",
    "name": "آبمیوه بستنی آدم برفی",
    "category": "آبمیوه بستنی آدم برفی",
    "formatted_address": "4,4(8)",
    "phone_number": "",
    "source_url": "https://www.google.com/maps/place/%D8%A2%D8%A8%D9%85%DB%8C%D9%88%D9%87+%D8%A8%D8%B3%D8%AA%D9%86%DB%8C+%D8%A2%D8%AF%D9%85+%D8%A8%D8%B1%D9%81%DB%8C%E2%80%AD/data=!4m7!3m6!1s0x3f9aff69a0604c97:0x8699d0c960ae5f38!8m2!3d35.7726137!4d53.3284742!16s%2Fg%2F11cs1szqrk!19sChIJl0xgoGn_mj8ROF-uYMnQmYY?authuser=0&hl=tr&rclk=1",
    "website_url": "",
    "rating_text": "4,4",
    "stars": null,
    "number_of_reviews": null,
    "price_level": "",
    "open_hours": "",
    "extraction_timestamp": "2025-06-07T15:37:35.902Z",
    "source_name": "google",
    "source_query": "Irrigation Equipment",
    "source_country": "IR",
    "country": "Iran",
    "state": "Semnan",
    "city": "Shahmirzad"
  },
  {
    "source_id": "ChIJzb-HpuP_mj8RYQT-yy1iuvk",
    "name": "دکه دایی سعید",
    "category": "دکه دایی سعید",
    "formatted_address": "3,0(1)",
    "phone_number": "",
    "source_url": "https://www.google.com/maps/place/%D8%AF%DA%A9%D9%87+%D8%AF%D8%A7%DB%8C%DB%8C+%D8%B3%D8%B9%DB%8C%D8%AF%E2%80%AD/data=!4m7!3m6!1s0x3f9affe3a687bfcd:0xf9ba622dcbfe0461!8m2!3d35.773552!4d53.3286515!16s%2Fg%2F11vll68_qj!19sChIJzb-HpuP_mj8RYQT-yy1iuvk?authuser=0&hl=tr&rclk=1",
    "website_url": "",
    "rating_text": "3,0",
    "stars": null,
    "number_of_reviews": null,
    "price_level": "",
    "open_hours": "",
    "extraction_timestamp": "2025-06-07T15:37:35.903Z",
    "source_name": "google",
    "source_query": "Irrigation Equipment",
    "source_country": "IR",
    "country": "Iran",
    "state": "Semnan",
    "city": "Shahmirzad"
  },
  {
    "source_id": "ChIJTyNWbH9Vmj8RzC8s5uZJObI",
    "name": "Darkiche Supermarket",
    "category": "Darkiche Supermarket",
    "formatted_address": "",
    "phone_number": "+982333663711",
    "source_url": "https://www.google.com/maps/place/Darkiche+Supermarket/data=!4m7!3m6!1s0x3f9a557f6c56234f:0xb23949e6e62c2fcc!8m2!3d35.7637178!4d53.3486082!16s%2Fg%2F11cnbgvdrj!19sChIJTyNWbH9Vmj8RzC8s5uZJObI?authuser=0&hl=tr&rclk=1",
    "website_url": "",
    "rating_text": "",
    "stars": null,
    "number_of_reviews": null,
    "price_level": "",
    "open_hours": "",
    "extraction_timestamp": "2025-06-07T15:37:35.904Z",
    "source_name": "google",
    "source_query": "Irrigation Equipment",
    "source_country": "IR",
    "country": "Iran",
    "state": "Semnan",
    "city": "Shahmirzad"
  },
  {
    "source_id": "ChIJGfclyNJMmj8Rt1WFhzJ5jHI",
    "name": "Aryan system",
    "category": "Aryan system",
    "formatted_address": "Su Yumuşatma Ekipmanları Tedarikçisi · Mo'alem Blvd, H9MR+C3JAçık ⋅ Kapanış saati: 21:00 · +98 23 3333 6190",
    "phone_number": "+982333336190",
    "source_url": "https://www.google.com/maps/place/Aryan+system/data=!4m7!3m6!1s0x3f9a4cd2c825f719:0x728c7932878555b7!8m2!3d35.5835883!4d53.3901517!16s%2Fg%2F11c1nz3hjk!19sChIJGfclyNJMmj8Rt1WFhzJ5jHI?authuser=0&hl=tr&rclk=1",
    "website_url": "",
    "rating_text": "",
    "stars": null,
    "number_of_reviews": null,
    "price_level": "",
    "open_hours": "",
    "extraction_timestamp": "2025-06-07T15:37:35.905Z",
    "source_name": "google",
    "source_query": "Irrigation Equipment",
    "source_country": "IR",
    "country": "Iran",
    "state": "Semnan",
    "city": "Shahmirzad"
  },
  {
    "source_id": "ChIJsclODQD_mj8RWenGW2xWBuo",
    "name": "مواد غذایی پدر خوب",
    "category": "مواد غذایی پدر خوب",
    "formatted_address": "",
    "phone_number": "+982333662654",
    "source_url": "https://www.google.com/maps/place/%D9%85%D9%88%D8%A7%D8%AF+%D8%BA%D8%B0%D8%A7%DB%8C%DB%8C+%D9%BE%D8%AF%D8%B1+%D8%AE%D9%88%D8%A8%E2%80%AD/data=!4m7!3m6!1s0x3f9aff000d4ec9b1:0xea06566c5bc6e959!8m2!3d35.7719043!4d53.330327!16s%2Fg%2F11mdt2s0zy!19sChIJsclODQD_mj8RWenGW2xWBuo?authuser=0&hl=tr&rclk=1",
    "website_url": "",
    "rating_text": "",
    "stars": null,
    "number_of_reviews": null,
    "price_level": "",
    "open_hours": "",
    "extraction_timestamp": "2025-06-07T15:37:35.906Z",
    "source_name": "google",
    "source_query": "Irrigation Equipment",
    "source_country": "IR",
    "country": "Iran",
    "state": "Semnan",
    "city": "Shahmirzad"
  },
  {
    "source_id": "ChIJ7Z8QkmX_mj8RtSd9FVU72Cs",
    "name": "سوپرمارکت حمید ذاکری",
    "category": "سوپرمارکت حمید ذاکری",
    "formatted_address": "1,0(1)",
    "phone_number": "+982333663467",
    "source_url": "https://www.google.com/maps/place/%D8%B3%D9%88%D9%BE%D8%B1%D9%85%D8%A7%D8%B1%DA%A9%D8%AA+%D8%AD%D9%85%DB%8C%D8%AF+%D8%B0%D8%A7%DA%A9%D8%B1%DB%8C%E2%80%AD/data=!4m7!3m6!1s0x3f9aff6592109fed:0x2bd83b55157d27b5!8m2!3d35.7701032!4d53.332868!16s%2Fg%2F11cs22lkww!19sChIJ7Z8QkmX_mj8RtSd9FVU72Cs?authuser=0&hl=tr&rclk=1",
    "website_url": "",
    "rating_text": "1,0",
    "stars": null,
    "number_of_reviews": null,
    "price_level": "",
    "open_hours": "",
    "extraction_timestamp": "2025-06-07T15:37:35.907Z",
    "source_name": "google",
    "source_query": "Irrigation Equipment",
    "source_country": "IR",
    "country": "Iran",
    "state": "Semnan",
    "city": "Shahmirzad"
  },
  {
    "source_id": "ChIJSSBdzmkPnT8R7W0Fevny0gQ",
    "name": "شرکت مهندسی جم آب سازه مجری سیستم های نوین آبیاری قطره ای و بارانی",
    "category": "شرکت مهندسی جم آب سازه مجری سیستم های نوین آبیاری قطره ای و بارانی",
    "formatted_address": "",
    "phone_number": "+989102736005",
    "source_url": "https://www.google.com/maps/place/%D8%B4%D8%B1%DA%A9%D8%AA+%D9%85%D9%87%D9%86%D8%AF%D8%B3%DB%8C+%D8%AC%D9%85+%D8%A2%D8%A8+%D8%B3%D8%A7%D8%B2%D9%87+%D9%85%D8%AC%D8%B1%DB%8C+%D8%B3%DB%8C%D8%B3%D8%AA%D9%85+%D9%87%D8%A7%DB%8C+%D9%86%D9%88%DB%8C%D9%86+%D8%A2%D8%A8%DB%8C%D8%A7%D8%B1%DB%8C+%D9%82%D8%B7%D8%B1%D9%87+%D8%A7%DB%8C+%D9%88+%D8%A8%D8%A7%D8%B1%D8%A7%D9%86%DB%8C%E2%80%AD/data=!4m7!3m6!1s0x3f9d0f69ce5d2049:0x4d2f2f97a056ded!8m2!3d36.4336936!4d54.9753559!16s%2Fg%2F11j0qfqm89!19sChIJSSBdzmkPnT8R7W0Fevny0gQ?authuser=0&hl=tr&rclk=1",
    "website_url": "",
    "rating_text": "",
    "stars": null,
    "number_of_reviews": null,
    "price_level": "",
    "open_hours": "",
    "extraction_timestamp": "2025-06-07T15:37:35.907Z",
    "source_name": "google",
    "source_query": "Irrigation Equipment",
    "source_country": "IR",
    "country": "Iran",
    "state": "Semnan",
    "city": "Shahmirzad"
  },
  {
    "source_id": "ChIJz4zKeWn_mj8Re3N7rcvtAsQ",
    "name": "سوپرمارکت اعلائی",
    "category": "سوپرمارکت اعلائی",
    "formatted_address": "1,0(1)",
    "phone_number": "+982333662734",
    "source_url": "https://www.google.com/maps/place/%D8%B3%D9%88%D9%BE%D8%B1%D9%85%D8%A7%D8%B1%DA%A9%D8%AA+%D8%A7%D8%B9%D9%84%D8%A7%D8%A6%DB%8C%E2%80%AD/data=!4m7!3m6!1s0x3f9aff6979ca8ccf:0xc402edcbad7b737b!8m2!3d35.7735249!4d53.3287374!16s%2Fg%2F11cs1wmfft!19sChIJz4zKeWn_mj8Re3N7rcvtAsQ?authuser=0&hl=tr&rclk=1",
    "website_url": "",
    "rating_text": "1,0",
    "stars": null,
    "number_of_reviews": null,
    "price_level": "",
    "open_hours": "",
    "extraction_timestamp": "2025-06-07T15:37:35.908Z",
    "source_name": "google",
    "source_query": "Irrigation Equipment",
    "source_country": "IR",
    "country": "Iran",
    "state": "Semnan",
    "city": "Shahmirzad"
  },
  {
    "source_id": "ChIJRzCGS3pVmj8RYgq63xysxT8",
    "name": "سوپرمارکت عرفان",
    "category": "سوپرمارکت عرفان",
    "formatted_address": "",
    "phone_number": "+989122312633",
    "source_url": "https://www.google.com/maps/place/%D8%B3%D9%88%D9%BE%D8%B1%D9%85%D8%A7%D8%B1%DA%A9%D8%AA+%D8%B9%D8%B1%D9%81%D8%A7%D9%86%E2%80%AD/data=!4m7!3m6!1s0x3f9a557a4b863047:0x3fc5ac1cdfba0a62!8m2!3d35.7616609!4d53.3545094!16s%2Fg%2F11c1q8gx_h!19sChIJRzCGS3pVmj8RYgq63xysxT8?authuser=0&hl=tr&rclk=1",
    "website_url": "",
    "rating_text": "",
    "stars": null,
    "number_of_reviews": null,
    "price_level": "",
    "open_hours": "",
    "extraction_timestamp": "2025-06-07T15:37:35.909Z",
    "source_name": "google",
    "source_query": "Irrigation Equipment",
    "source_country": "IR",
    "country": "Iran",
    "state": "Semnan",
    "city": "Shahmirzad"
  },
  {
    "source_id": "ChIJYTTbQuD_mj8RwFhfNenega0",
    "name": "آبمیوه بستنی اسکوپی",
    "category": "آبمیوه بستنی اسکوپی",
    "formatted_address": "5,0(2)",
    "phone_number": "+989112106922",
    "source_url": "https://www.google.com/maps/place/%D8%A2%D8%A8%D9%85%DB%8C%D9%88%D9%87+%D8%A8%D8%B3%D8%AA%D9%86%DB%8C+%D8%A7%D8%B3%DA%A9%D9%88%D9%BE%DB%8C%E2%80%AD/data=!4m7!3m6!1s0x3f9affe042db3461:0xad81dee9355f58c0!8m2!3d35.7734502!4d53.3294908!16s%2Fg%2F11v9t20zzr!19sChIJYTTbQuD_mj8RwFhfNenega0?authuser=0&hl=tr&rclk=1",
    "website_url": "",
    "rating_text": "5,0",
    "stars": null,
    "number_of_reviews": null,
    "price_level": "",
    "open_hours": "",
    "extraction_timestamp": "2025-06-07T15:37:35.910Z",
    "source_name": "google",
    "source_query": "Irrigation Equipment",
    "source_country": "IR",
    "country": "Iran",
    "state": "Semnan",
    "city": "Shahmirzad"
  },
  {
    "source_id": "ChIJLQkpOH7_mj8RaYw7caWwEgA",
    "name": "رزمارکت",
    "category": "رزمارکت",
    "formatted_address": "2,5(2)",
    "phone_number": "+982333662458",
    "source_url": "https://www.google.com/maps/place/%D8%B1%D8%B2%D9%85%D8%A7%D8%B1%DA%A9%D8%AA%E2%80%AD/data=!4m7!3m6!1s0x3f9aff7e3829092d:0x12b0a5713b8c69!8m2!3d35.7663196!4d53.3440249!16s%2Fg%2F11c1q8qzm9!19sChIJLQkpOH7_mj8RaYw7caWwEgA?authuser=0&hl=tr&rclk=1",
    "website_url": "",
    "rating_text": "2,5",
    "stars": null,
    "number_of_reviews": null,
    "price_level": "",
    "open_hours": "",
    "extraction_timestamp": "2025-06-07T15:37:35.911Z",
    "source_name": "google",
    "source_query": "Irrigation Equipment",
    "source_country": "IR",
    "country": "Iran",
    "state": "Semnan",
    "city": "Shahmirzad"
  }
]
