[
  {
    "source_id": "ChIJWTtd2Cuzmz8RYNPNUj4NzOk",
    "name": "Shahrab water purification equipment store",
    "category": "Shahrab water purification equipment store",
    "formatted_address": "4,7(3)",
    "phone_number": "+989900045010",
    "source_url": "https://www.google.com/maps/place/Shahrab+water+purification+equipment+store/data=!4m7!3m6!1s0x3f9bb32bd85d3b59:0xe9cc0d3e52cdd360!8m2!3d35.5905009!4d53.3969906!16s%2Fg%2F11f_49mq33!19sChIJWTtd2Cuzmz8RYNPNUj4NzOk?authuser=0&hl=tr&rclk=1",
    "website_url": "http://shahreab.ir/",
    "rating_text": "4,7",
    "stars": null,
    "number_of_reviews": null,
    "price_level": "",
    "open_hours": "",
    "extraction_timestamp": "2025-06-07T15:39:00.908Z",
    "source_name": "google",
    "source_query": "Irrigation Equipment",
    "source_country": "IR",
    "country": "Iran",
    "state": "Semnan",
    "city": "Sorkheh"
  },
  {
    "source_id": "ChIJlckChtlMmj8RSKP7pRHHp0Q",
    "name": "فروشگاه تاسیسات تکنو گستر",
    "category": "فروشگاه تاسیسات تکنو گستر",
    "formatted_address": "5,0(3)",
    "phone_number": "+982333440566",
    "source_url": "https://www.google.com/maps/place/%D9%81%D8%B1%D9%88%D8%B4%DA%AF%D8%A7%D9%87+%D8%AA%D8%A7%D8%B3%DB%8C%D8%B3%D8%A7%D8%AA+%D8%AA%DA%A9%D9%86%D9%88+%DA%AF%D8%B3%D8%AA%D8%B1%E2%80%AD/data=!4m7!3m6!1s0x3f9a4cd98602c995:0x44a7c711a5fba348!8m2!3d35.5831132!4d53.3777638!16s%2Fg%2F11fyzkdjq8!19sChIJlckChtlMmj8RSKP7pRHHp0Q?authuser=0&hl=tr&rclk=1",
    "website_url": "",
    "rating_text": "5,0",
    "stars": null,
    "number_of_reviews": null,
    "price_level": "",
    "open_hours": "",
    "extraction_timestamp": "2025-06-07T15:39:00.910Z",
    "source_name": "google",
    "source_query": "Irrigation Equipment",
    "source_country": "IR",
    "country": "Iran",
    "state": "Semnan",
    "city": "Sorkheh"
  },
  {
    "source_id": "ChIJG75fs59Nmj8ReOUv01RAmiM",
    "name": "تصفیه آب آکواجوی( کساییان)",
    "category": "تصفیه آب آکواجوی( کساییان)",
    "formatted_address": "4,6(10)",
    "phone_number": "+982333332077",
    "source_url": "https://www.google.com/maps/place/%D8%AA%D8%B5%D9%81%DB%8C%D9%87+%D8%A2%D8%A8+%D8%A2%DA%A9%D9%88%D8%A7%D8%AC%D9%88%DB%8C%28+%DA%A9%D8%B3%D8%A7%DB%8C%DB%8C%D8%A7%D9%86%29%E2%80%AD/data=!4m7!3m6!1s0x3f9a4d9fb35fbe1b:0x239a4054d32fe578!8m2!3d35.5784654!4d53.3879484!16s%2Fg%2F11r_dmvr4c!19sChIJG75fs59Nmj8ReOUv01RAmiM?authuser=0&hl=tr&rclk=1",
    "website_url": "http://www.instagram.com//tasfie.ab.aquajoy",
    "rating_text": "4,6",
    "stars": null,
    "number_of_reviews": null,
    "price_level": "",
    "open_hours": "",
    "extraction_timestamp": "2025-06-07T15:39:00.911Z",
    "source_name": "google",
    "source_query": "Irrigation Equipment",
    "source_country": "IR",
    "country": "Iran",
    "state": "Semnan",
    "city": "Sorkheh"
  },
  {
    "source_id": "ChIJwebvMbmxmz8R9AqT2rGEWcc",
    "name": "semnan polyethylene pipe & fitting co",
    "category": "semnan polyethylene pipe & fitting co",
    "formatted_address": "4,0(2)",
    "phone_number": "+982333652805",
    "source_url": "https://www.google.com/maps/place/semnan+polyethylene+pipe+%26+fitting+co/data=!4m7!3m6!1s0x3f9bb1b931efe6c1:0xc75984b1da930af4!8m2!3d35.6165595!4d53.5188367!16s%2Fg%2F11fj5ck68b!19sChIJwebvMbmxmz8R9AqT2rGEWcc?authuser=0&hl=tr&rclk=1",
    "website_url": "http://www.semnanpe.com/",
    "rating_text": "4,0",
    "stars": null,
    "number_of_reviews": null,
    "price_level": "",
    "open_hours": "",
    "extraction_timestamp": "2025-06-07T15:39:00.912Z",
    "source_name": "google",
    "source_query": "Irrigation Equipment",
    "source_country": "IR",
    "country": "Iran",
    "state": "Semnan",
    "city": "Sorkheh"
  },
  {
    "source_id": "ChIJGfclyNJMmj8Rt1WFhzJ5jHI",
    "name": "Aryan system",
    "category": "Aryan system",
    "formatted_address": "Su Yumuşatma Ekipmanları Tedarikçisi · Mo'alem Blvd, H9MR+C3JAçık ⋅ Kapanış saati: 21:00 · +98 23 3333 6190",
    "phone_number": "+982333336190",
    "source_url": "https://www.google.com/maps/place/Aryan+system/data=!4m7!3m6!1s0x3f9a4cd2c825f719:0x728c7932878555b7!8m2!3d35.5835883!4d53.3901517!16s%2Fg%2F11c1nz3hjk!19sChIJGfclyNJMmj8Rt1WFhzJ5jHI?authuser=0&hl=tr&rclk=1",
    "website_url": "http://aryan-system.ir/",
    "rating_text": "",
    "stars": null,
    "number_of_reviews": null,
    "price_level": "",
    "open_hours": "",
    "extraction_timestamp": "2025-06-07T15:39:00.913Z",
    "source_name": "google",
    "source_query": "Irrigation Equipment",
    "source_country": "IR",
    "country": "Iran",
    "state": "Semnan",
    "city": "Sorkheh"
  },
  {
    "source_id": "ChIJH-3WdVBHmj8RiBpQB13IOvc",
    "name": "سوپر مارکت جایگاه",
    "category": "سوپر مارکت جایگاه",
    "formatted_address": "4,0(2)",
    "phone_number": "+989190588494",
    "source_url": "https://www.google.com/maps/place/%D8%B3%D9%88%D9%BE%D8%B1+%D9%85%D8%A7%D8%B1%DA%A9%D8%AA+%D8%AC%D8%A7%DB%8C%DA%AF%D8%A7%D9%87%E2%80%AD/data=!4m7!3m6!1s0x3f9a475075d6ed1f:0xf73ac85d07501a88!8m2!3d35.4674586!4d53.1996759!16s%2Fg%2F11hjy0xgnp!19sChIJH-3WdVBHmj8RiBpQB13IOvc?authuser=0&hl=tr&rclk=1",
    "website_url": "",
    "rating_text": "4,0",
    "stars": null,
    "number_of_reviews": null,
    "price_level": "",
    "open_hours": "",
    "extraction_timestamp": "2025-06-07T15:39:00.914Z",
    "source_name": "google",
    "source_query": "Irrigation Equipment",
    "source_country": "IR",
    "country": "Iran",
    "state": "Semnan",
    "city": "Sorkheh"
  },
  {
    "source_id": "ChIJ-_ulHSVHmj8RSDwn0KN3T9M",
    "name": "هایپر رضوی",
    "category": "هایپر رضوی",
    "formatted_address": "3,7(3)",
    "phone_number": "",
    "source_url": "https://www.google.com/maps/place/%D9%87%D8%A7%DB%8C%D9%BE%D8%B1+%D8%B1%D8%B6%D9%88%DB%8C%E2%80%AD/data=!4m7!3m6!1s0x3f9a47251da5fbfb:0xd34f77a3d0273c48!8m2!3d35.4637001!4d53.2142058!16s%2Fg%2F11sg9svyhp!19sChIJ-_ulHSVHmj8RSDwn0KN3T9M?authuser=0&hl=tr&rclk=1",
    "website_url": "",
    "rating_text": "3,7",
    "stars": null,
    "number_of_reviews": null,
    "price_level": "",
    "open_hours": "",
    "extraction_timestamp": "2025-06-07T15:39:00.914Z",
    "source_name": "google",
    "source_query": "Irrigation Equipment",
    "source_country": "IR",
    "country": "Iran",
    "state": "Semnan",
    "city": "Sorkheh"
  },
  {
    "source_id": "ChIJr_ADnDTxkD8RDpGaR3yUY24",
    "name": "سبزینه گستر کویر",
    "category": "سبزینه گستر کویر",
    "formatted_address": "",
    "phone_number": "+982354848454",
    "source_url": "https://www.google.com/maps/place/%D8%B3%D8%A8%D8%B2%DB%8C%D9%86%D9%87+%DA%AF%D8%B3%D8%AA%D8%B1+%DA%A9%D9%88%DB%8C%D8%B1%E2%80%AD/data=!4m7!3m6!1s0x3f90f1349c03f0af:0x6e63947c479a910e!8m2!3d35.2446515!4d52.2324144!16s%2Fg%2F11g4h33v6l!19sChIJr_ADnDTxkD8RDpGaR3yUY24?authuser=0&hl=tr&rclk=1",
    "website_url": "http://sabzine-gostar.com/",
    "rating_text": "",
    "stars": null,
    "number_of_reviews": null,
    "price_level": "",
    "open_hours": "",
    "extraction_timestamp": "2025-06-07T15:39:00.915Z",
    "source_name": "google",
    "source_query": "Irrigation Equipment",
    "source_country": "IR",
    "country": "Iran",
    "state": "Semnan",
    "city": "Sorkheh"
  },
  {
    "source_id": "ChIJjVHFXgC3mz8R4Rt0WarP6Yg",
    "name": "Silicone Energy",
    "category": "Silicone Energy",
    "formatted_address": "",
    "phone_number": "+989352318315",
    "source_url": "https://www.google.com/maps/place/Silicone+Energy/data=!4m7!3m6!1s0x3f9bb7005ec5518d:0x88e9cfaa59741be1!8m2!3d35.5625894!4d53.4772701!16s%2Fg%2F11wg8b9zk8!19sChIJjVHFXgC3mz8R4Rt0WarP6Yg?authuser=0&hl=tr&rclk=1",
    "website_url": "http://www.silicone-energy.com/",
    "rating_text": "",
    "stars": null,
    "number_of_reviews": null,
    "price_level": "",
    "open_hours": "",
    "extraction_timestamp": "2025-06-07T15:39:00.916Z",
    "source_name": "google",
    "source_query": "Irrigation Equipment",
    "source_country": "IR",
    "country": "Iran",
    "state": "Semnan",
    "city": "Sorkheh"
  },
  {
    "source_id": "ChIJPzxieQ6zmz8RyKpwPuPNC_8",
    "name": "شرکت مهندسی کشاورزی رَز(معیار گستر)",
    "category": "شرکت مهندسی کشاورزی رَز(معیار گستر)",
    "formatted_address": "",
    "phone_number": "+982333322515",
    "source_url": "https://www.google.com/maps/place/%D8%B4%D8%B1%DA%A9%D8%AA+%D9%85%D9%87%D9%86%D8%AF%D8%B3%DB%8C+%DA%A9%D8%B4%D8%A7%D9%88%D8%B1%D8%B2%DB%8C+%D8%B1%D9%8E%D8%B2%28%D9%85%D8%B9%DB%8C%D8%A7%D8%B1+%DA%AF%D8%B3%D8%AA%D8%B1%29%E2%80%AD/data=!4m7!3m6!1s0x3f9bb30e79623c3f:0xff0bcde33e70aac8!8m2!3d35.5792623!4d53.3925216!16s%2Fg%2F11mqlz7q9q!19sChIJPzxieQ6zmz8RyKpwPuPNC_8?authuser=0&hl=tr&rclk=1",
    "website_url": "https://www.digiraz.com/",
    "rating_text": "",
    "stars": null,
    "number_of_reviews": null,
    "price_level": "",
    "open_hours": "",
    "extraction_timestamp": "2025-06-07T15:39:00.917Z",
    "source_name": "google",
    "source_query": "Irrigation Equipment",
    "source_country": "IR",
    "country": "Iran",
    "state": "Semnan",
    "city": "Sorkheh"
  },
  {
    "source_id": "ChIJl86ScQAFnT8RK9_PtFY3e8U",
    "name": "گروه صنعتی شاهوار",
    "category": "گروه صنعتی شاهوار",
    "formatted_address": "5,0(1)",
    "phone_number": "+989124732715",
    "source_url": "https://www.google.com/maps/place/%DA%AF%D8%B1%D9%88%D9%87+%D8%B5%D9%86%D8%B9%D8%AA%DB%8C+%D8%B4%D8%A7%D9%87%D9%88%D8%A7%D8%B1%E2%80%AD/data=!4m7!3m6!1s0x3f9d05007192ce97:0xc57b3756b4cfdf2b!8m2!3d36.4131619!4d54.9564198!16s%2Fg%2F11m5js92p3!19sChIJl86ScQAFnT8RK9_PtFY3e8U?authuser=0&hl=tr&rclk=1",
    "website_url": "https://shahvaroil.com/",
    "rating_text": "5,0",
    "stars": null,
    "number_of_reviews": null,
    "price_level": "",
    "open_hours": "",
    "extraction_timestamp": "2025-06-07T15:39:00.918Z",
    "source_name": "google",
    "source_query": "Irrigation Equipment",
    "source_country": "IR",
    "country": "Iran",
    "state": "Semnan",
    "city": "Sorkheh"
  },
  {
    "source_id": "ChIJ_0x_vtetmz8Rq8g-Vko2Z1Y",
    "name": "معدن سنگ آهن شمال سمنان هلدینگ فولاد یزد",
    "category": "معدن سنگ آهن شمال سمنان هلدینگ فولاد یزد",
    "formatted_address": "3,0(2)",
    "phone_number": "+989135256320",
    "source_url": "https://www.google.com/maps/place/%D9%85%D8%B9%D8%AF%D9%86+%D8%B3%D9%86%DA%AF+%D8%A2%D9%87%D9%86+%D8%B4%D9%85%D8%A7%D9%84+%D8%B3%D9%85%D9%86%D8%A7%D9%86+%D9%87%D9%84%D8%AF%DB%8C%D9%86%DA%AF+%D9%81%D9%88%D9%84%D8%A7%D8%AF+%DB%8C%D8%B2%D8%AF%E2%80%AD/data=!4m7!3m6!1s0x3f9badd7be7f4cff:0x5667364a563ec8ab!8m2!3d35.6584442!4d53.4179514!16s%2Fg%2F11svlr3g2k!19sChIJ_0x_vtetmz8Rq8g-Vko2Z1Y?authuser=0&hl=tr&rclk=1",
    "website_url": "http://sisoo.ir/",
    "rating_text": "3,0",
    "stars": null,
    "number_of_reviews": null,
    "price_level": "",
    "open_hours": "",
    "extraction_timestamp": "2025-06-07T15:39:00.919Z",
    "source_name": "google",
    "source_query": "Irrigation Equipment",
    "source_country": "IR",
    "country": "Iran",
    "state": "Semnan",
    "city": "Sorkheh"
  },
  {
    "source_id": "ChIJuQSUttetkT8RvKxsOK9hjWA",
    "name": "spootagas",
    "category": "spootagas",
    "formatted_address": "",
    "phone_number": "+982334584065",
    "source_url": "https://www.google.com/maps/place/spootagas/data=!4m7!3m6!1s0x3f91add7b69404b9:0x608d61af386cacbc!8m2!3d35.3646983!4d51.96743!16s%2Fg%2F11gxwy0x5v!19sChIJuQSUttetkT8RvKxsOK9hjWA?authuser=0&hl=tr&rclk=1",
    "website_url": "",
    "rating_text": "",
    "stars": null,
    "number_of_reviews": null,
    "price_level": "",
    "open_hours": "",
    "extraction_timestamp": "2025-06-07T15:39:00.920Z",
    "source_name": "google",
    "source_query": "Irrigation Equipment",
    "source_country": "IR",
    "country": "Iran",
    "state": "Semnan",
    "city": "Sorkheh"
  },
  {
    "source_id": "ChIJeUosHL9Omj8RqLQcOEG0zs4",
    "name": "کربنات سدیم سرخه",
    "category": "کربنات سدیم سرخه",
    "formatted_address": "5,0(2)",
    "phone_number": "+982188794817",
    "source_url": "https://www.google.com/maps/place/%DA%A9%D8%B1%D8%A8%D9%86%D8%A7%D8%AA+%D8%B3%D8%AF%DB%8C%D9%85+%D8%B3%D8%B1%D8%AE%D9%87%E2%80%AD/data=!4m7!3m6!1s0x3f9a4ebf1c2c4a79:0xceceb441381cb4a8!8m2!3d35.4253682!4d53.2153779!16s%2Fg%2F11csrrgyjl!19sChIJeUosHL9Omj8RqLQcOEG0zs4?authuser=0&hl=tr&rclk=1",
    "website_url": "",
    "rating_text": "5,0",
    "stars": null,
    "number_of_reviews": null,
    "price_level": "",
    "open_hours": "",
    "extraction_timestamp": "2025-06-07T15:39:00.921Z",
    "source_name": "google",
    "source_query": "Irrigation Equipment",
    "source_country": "IR",
    "country": "Iran",
    "state": "Semnan",
    "city": "Sorkheh"
  },
  {
    "source_id": "ChIJA7cnZQJTmj8RU42pEMsYV4c",
    "name": "شرکت کود شیمیایی البرز سنگسر",
    "category": "شرکت کود شیمیایی البرز سنگسر",
    "formatted_address": "Üretici · جنوب, J8J4+9J6 شهرک گلخانه ای24 saat açık · +98 23 3368 5181",
    "phone_number": "+982333685181",
    "source_url": "https://www.google.com/maps/place/%D8%B4%D8%B1%DA%A9%D8%AA+%DA%A9%D9%88%D8%AF+%D8%B4%DB%8C%D9%85%DB%8C%D8%A7%DB%8C%DB%8C+%D8%A7%D9%84%D8%A8%D8%B1%D8%B2+%D8%B3%D9%86%DA%AF%D8%B3%D8%B1%E2%80%AD/data=!4m7!3m6!1s0x3f9a53026527b703:0x875718cb10a98d53!8m2!3d35.6309182!4d53.3065001!16s%2Fg%2F11pxlntx5x!19sChIJA7cnZQJTmj8RU42pEMsYV4c?authuser=0&hl=tr&rclk=1",
    "website_url": "",
    "rating_text": "",
    "stars": null,
    "number_of_reviews": null,
    "price_level": "",
    "open_hours": "",
    "extraction_timestamp": "2025-06-07T15:39:00.922Z",
    "source_name": "google",
    "source_query": "Irrigation Equipment",
    "source_country": "IR",
    "country": "Iran",
    "state": "Semnan",
    "city": "Sorkheh"
  },
  {
    "source_id": "ChIJe4AkcYqxmz8RjhSFFcse8Mk",
    "name": "Qods Power Plant",
    "category": "Qods Power Plant",
    "formatted_address": "3,0(1)",
    "phone_number": "",
    "source_url": "https://www.google.com/maps/place/Qods+Power+Plant/data=!4m7!3m6!1s0x3f9bb18a7124807b:0xc9f01ecb1585148e!8m2!3d35.6384181!4d53.477532!16s%2Fg%2F1q5bfc00w!19sChIJe4AkcYqxmz8RjhSFFcse8Mk?authuser=0&hl=tr&rclk=1",
    "website_url": "",
    "rating_text": "3,0",
    "stars": null,
    "number_of_reviews": null,
    "price_level": "",
    "open_hours": "",
    "extraction_timestamp": "2025-06-07T15:39:00.923Z",
    "source_name": "google",
    "source_query": "Irrigation Equipment",
    "source_country": "IR",
    "country": "Iran",
    "state": "Semnan",
    "city": "Sorkheh"
  },
  {
    "source_id": "ChIJY20q2KEPnT8RsueS34nuSeI",
    "name": "جم آب سازه کوثر",
    "category": "جم آب سازه کوثر",
    "formatted_address": "Sulama Ekipmanları Tedarikçisi · شاهرود،،, CXMG+HHFKapalı ⋅ Açılış zamanı: Paz 09:00 · +98 23 3224 6982",
    "phone_number": "+982332246982",
    "source_url": "https://www.google.com/maps/place/%D8%AC%D9%85+%D8%A2%D8%A8+%D8%B3%D8%A7%D8%B2%D9%87+%DA%A9%D9%88%D8%AB%D8%B1%E2%80%AD/data=!4m7!3m6!1s0x3f9d0fa1d82a6d63:0xe249ee89df92e7b2!8m2!3d36.4339255!4d54.9764252!16s%2Fg%2F11fvl52__5!19sChIJY20q2KEPnT8RsueS34nuSeI?authuser=0&hl=tr&rclk=1",
    "website_url": "",
    "rating_text": "",
    "stars": null,
    "number_of_reviews": null,
    "price_level": "",
    "open_hours": "",
    "extraction_timestamp": "2025-06-07T15:39:00.924Z",
    "source_name": "google",
    "source_query": "Irrigation Equipment",
    "source_country": "IR",
    "country": "Iran",
    "state": "Semnan",
    "city": "Sorkheh"
  },
  {
    "source_id": "ChIJCVrFPSZGmj8R9R24pzwSzL8",
    "name": "آبمیوه و بستنی توت فرنگی",
    "category": "آبمیوه و بستنی توت فرنگی",
    "formatted_address": "",
    "phone_number": "+982333613533",
    "source_url": "https://www.google.com/maps/place/%D8%A2%D8%A8%D9%85%DB%8C%D9%88%D9%87+%D9%88+%D8%A8%D8%B3%D8%AA%D9%86%DB%8C+%D8%AA%D9%88%D8%AA+%D9%81%D8%B1%D9%86%DA%AF%DB%8C%E2%80%AD/data=!4m7!3m6!1s0x3f9a46263dc55a09:0xbfcc123ca7b81df5!8m2!3d35.464252!4d53.2141608!16s%2Fg%2F11g7nvt5cj!19sChIJCVrFPSZGmj8R9R24pzwSzL8?authuser=0&hl=tr&rclk=1",
    "website_url": "",
    "rating_text": "",
    "stars": null,
    "number_of_reviews": null,
    "price_level": "",
    "open_hours": "",
    "extraction_timestamp": "2025-06-07T15:39:00.925Z",
    "source_name": "google",
    "source_query": "Irrigation Equipment",
    "source_country": "IR",
    "country": "Iran",
    "state": "Semnan",
    "city": "Sorkheh"
  },
  {
    "source_id": "ChIJgf3U6CBNmj8RPOIqim-pL6Q",
    "name": "El Seven Grocery",
    "category": "El Seven Grocery",
    "formatted_address": "4,0(2)",
    "phone_number": "+989122311738",
    "source_url": "https://www.google.com/maps/place/El+Seven+Grocery/data=!4m7!3m6!1s0x3f9a4d20e8d4fd81:0xa42fa96f8a2ae23c!8m2!3d35.5874763!4d53.3726713!16s%2Fg%2F11c53390by!19sChIJgf3U6CBNmj8RPOIqim-pL6Q?authuser=0&hl=tr&rclk=1",
    "website_url": "",
    "rating_text": "4,0",
    "stars": null,
    "number_of_reviews": null,
    "price_level": "",
    "open_hours": "",
    "extraction_timestamp": "2025-06-07T15:39:00.926Z",
    "source_name": "google",
    "source_query": "Irrigation Equipment",
    "source_country": "IR",
    "country": "Iran",
    "state": "Semnan",
    "city": "Sorkheh"
  },
  {
    "source_id": "ChIJ6zmNDsVMmj8RDaEeh7KL5vA",
    "name": "Arman SuperMarket",
    "category": "Arman SuperMarket",
    "formatted_address": "3,7(3)",
    "phone_number": "+982333463889",
    "source_url": "https://www.google.com/maps/place/Arman+SuperMarket/data=!4m7!3m6!1s0x3f9a4cc50e8d39eb:0xf0e68bb2871ea10d!8m2!3d35.5761278!4d53.3778775!16s%2Fg%2F11f37s90y3!19sChIJ6zmNDsVMmj8RDaEeh7KL5vA?authuser=0&hl=tr&rclk=1",
    "website_url": "",
    "rating_text": "3,7",
    "stars": null,
    "number_of_reviews": null,
    "price_level": "",
    "open_hours": "",
    "extraction_timestamp": "2025-06-07T15:39:00.927Z",
    "source_name": "google",
    "source_query": "Irrigation Equipment",
    "source_country": "IR",
    "country": "Iran",
    "state": "Semnan",
    "city": "Sorkheh"
  },
  {
    "source_id": "ChIJm00kKuJNmj8RKgQaF_od7Yw",
    "name": "عطاری عصاره سلامت",
    "category": "عطاری عصاره سلامت",
    "formatted_address": "4,5(2)",
    "phone_number": "+982333454643",
    "source_url": "https://www.google.com/maps/place/%D8%B9%D8%B7%D8%A7%D8%B1%DB%8C+%D8%B9%D8%B5%D8%A7%D8%B1%D9%87+%D8%B3%D9%84%D8%A7%D9%85%D8%AA%E2%80%AD/data=!4m7!3m6!1s0x3f9a4de22a244d9b:0x8ced1dfa171a042a!8m2!3d35.5849198!4d53.3758945!16s%2Fg%2F11fqz575v0!19sChIJm00kKuJNmj8RKgQaF_od7Yw?authuser=0&hl=tr&rclk=1",
    "website_url": "",
    "rating_text": "4,5",
    "stars": null,
    "number_of_reviews": null,
    "price_level": "",
    "open_hours": "",
    "extraction_timestamp": "2025-06-07T15:39:00.928Z",
    "source_name": "google",
    "source_query": "Irrigation Equipment",
    "source_country": "IR",
    "country": "Iran",
    "state": "Semnan",
    "city": "Sorkheh"
  },
  {
    "source_id": "ChIJa7KRS1izmz8RCykpMPYIkaI",
    "name": "آیس لند",
    "category": "آیس لند",
    "formatted_address": "4,6(13)",
    "phone_number": "+989195",
    "source_url": "https://www.google.com/maps/place/%D8%A2%DB%8C%D8%B3+%D9%84%D9%86%D8%AF%E2%80%AD/data=!4m7!3m6!1s0x3f9bb3584b91b26b:0xa29108f63029290b!8m2!3d35.5794328!4d53.3922992!16s%2Fg%2F11f62pyx97!19sChIJa7KRS1izmz8RCykpMPYIkaI?authuser=0&hl=tr&rclk=1",
    "website_url": "https://icekhandan.ir/",
    "rating_text": "4,6",
    "stars": null,
    "number_of_reviews": null,
    "price_level": "",
    "open_hours": "",
    "extraction_timestamp": "2025-06-07T15:39:00.929Z",
    "source_name": "google",
    "source_query": "Irrigation Equipment",
    "source_country": "IR",
    "country": "Iran",
    "state": "Semnan",
    "city": "Sorkheh"
  },
  {
    "source_id": "ChIJMWrwLwBrkD8RKbe0SZGRKfs",
    "name": "دامپروری بهرامی",
    "category": "دامپروری بهرامی",
    "formatted_address": "5,0(1)",
    "phone_number": "+989417",
    "source_url": "https://www.google.com/maps/place/%D8%AF%D8%A7%D9%85%D9%BE%D8%B1%D9%88%D8%B1%DB%8C+%D8%A8%D9%87%D8%B1%D8%A7%D9%85%DB%8C%E2%80%AD/data=!4m7!3m6!1s0x3f906b002ff06a31:0xfb29919149b4b729!8m2!3d35.668019!4d52.4017238!16s%2Fg%2F11xgj3xbpy!19sChIJMWrwLwBrkD8RKbe0SZGRKfs?authuser=0&hl=tr&rclk=1",
    "website_url": "",
    "rating_text": "5,0",
    "stars": null,
    "number_of_reviews": null,
    "price_level": "",
    "open_hours": "",
    "extraction_timestamp": "2025-06-07T15:39:00.930Z",
    "source_name": "google",
    "source_query": "Irrigation Equipment",
    "source_country": "IR",
    "country": "Iran",
    "state": "Semnan",
    "city": "Sorkheh"
  },
  {
    "source_id": "ChIJm6kxbABNmj8ROCEzGKX7t1U",
    "name": "فروشگاه ۷۲۴ قطعات گرمایشی و سرمایشی",
    "category": "فروشگاه ۷۲۴ قطعات گرمایشی و سرمایشی",
    "formatted_address": "5,0(1)",
    "phone_number": "",
    "source_url": "https://www.google.com/maps/place/%D9%81%D8%B1%D9%88%D8%B4%DA%AF%D8%A7%D9%87+%DB%B7%DB%B2%DB%B4+%D9%82%D8%B7%D8%B9%D8%A7%D8%AA+%DA%AF%D8%B1%D9%85%D8%A7%DB%8C%D8%B4%DB%8C+%D9%88+%D8%B3%D8%B1%D9%85%D8%A7%DB%8C%D8%B4%DB%8C%E2%80%AD/data=!4m7!3m6!1s0x3f9a4d006c31a99b:0x55b7fba518332138!8m2!3d35.557945!4d53.3749666!16s%2Fg%2F11x1g_s69k!19sChIJm6kxbABNmj8ROCEzGKX7t1U?authuser=0&hl=tr&rclk=1",
    "website_url": "",
    "rating_text": "5,0",
    "stars": null,
    "number_of_reviews": null,
    "price_level": "",
    "open_hours": "",
    "extraction_timestamp": "2025-06-07T15:39:00.930Z",
    "source_name": "google",
    "source_query": "Irrigation Equipment",
    "source_country": "IR",
    "country": "Iran",
    "state": "Semnan",
    "city": "Sorkheh"
  },
  {
    "source_id": "ChIJG4am49dNmj8REah4dqaB43E",
    "name": "Ofoq Kourosh Store",
    "category": "Ofoq Kourosh Store",
    "formatted_address": "3,0(4)",
    "phone_number": "+982142701000",
    "source_url": "https://www.google.com/maps/place/Ofoq+Kourosh+Store/data=!4m7!3m6!1s0x3f9a4dd7e3a6861b:0x71e381a67678a811!8m2!3d35.58672!4d53.368065!16s%2Fg%2F11g1q71hmd!19sChIJG4am49dNmj8REah4dqaB43E?authuser=0&hl=tr&rclk=1",
    "website_url": "https://www.okcs.com/",
    "rating_text": "3,0",
    "stars": null,
    "number_of_reviews": null,
    "price_level": "",
    "open_hours": "",
    "extraction_timestamp": "2025-06-07T15:39:00.931Z",
    "source_name": "google",
    "source_query": "Irrigation Equipment",
    "source_country": "IR",
    "country": "Iran",
    "state": "Semnan",
    "city": "Sorkheh"
  },
  {
    "source_id": "ChIJCWzzqPxNmj8RzSkTOhe4xUg",
    "name": "Ofoq Kourosh",
    "category": "Ofoq Kourosh",
    "formatted_address": "5,0(1)",
    "phone_number": "",
    "source_url": "https://www.google.com/maps/place/Ofoq+Kourosh/data=!4m7!3m6!1s0x3f9a4dfca8f36c09:0x48c5b8173a1329cd!8m2!3d35.5940396!4d53.3703775!16s%2Fg%2F11rk82698v!19sChIJCWzzqPxNmj8RzSkTOhe4xUg?authuser=0&hl=tr&rclk=1",
    "website_url": "http://www.okcs.com/",
    "rating_text": "5,0",
    "stars": null,
    "number_of_reviews": null,
    "price_level": "",
    "open_hours": "",
    "extraction_timestamp": "2025-06-07T15:39:00.932Z",
    "source_name": "google",
    "source_query": "Irrigation Equipment",
    "source_country": "IR",
    "country": "Iran",
    "state": "Semnan",
    "city": "Sorkheh"
  },
  {
    "source_id": "ChIJi32csyNVmj8RSeDkbzWteuY",
    "name": "فالوده بستنی شیرازی",
    "category": "فالوده بستنی شیرازی",
    "formatted_address": "5,0(1)",
    "phone_number": "+982333627738",
    "source_url": "https://www.google.com/maps/place/%D9%81%D8%A7%D9%84%D9%88%D8%AF%D9%87+%D8%A8%D8%B3%D8%AA%D9%86%DB%8C+%D8%B4%DB%8C%D8%B1%D8%A7%D8%B2%DB%8C%E2%80%AD/data=!4m7!3m6!1s0x3f9a5523b39c7d8b:0xe67aad356fe4e049!8m2!3d35.7086505!4d53.3574166!16s%2Fg%2F11ss18ppym!19sChIJi32csyNVmj8RSeDkbzWteuY?authuser=0&hl=tr&rclk=1",
    "website_url": "",
    "rating_text": "5,0",
    "stars": null,
    "number_of_reviews": null,
    "price_level": "",
    "open_hours": "",
    "extraction_timestamp": "2025-06-07T15:39:00.933Z",
    "source_name": "google",
    "source_query": "Irrigation Equipment",
    "source_country": "IR",
    "country": "Iran",
    "state": "Semnan",
    "city": "Sorkheh"
  },
  {
    "source_id": "ChIJ86TPXchNmj8R1YkjWOCMuZQ",
    "name": "Tootfarangi Coffeeshop",
    "category": "Tootfarangi Coffeeshop",
    "formatted_address": "2,9(27)",
    "phone_number": "+982333334321",
    "source_url": "https://www.google.com/maps/place/Tootfarangi+Coffeeshop/data=!4m7!3m6!1s0x3f9a4dc85dcfa4f3:0x94b98ce0582389d5!8m2!3d35.5823756!4d53.3908545!16s%2Fg%2F11fpjqs9wr!19sChIJ86TPXchNmj8R1YkjWOCMuZQ?authuser=0&hl=tr&rclk=1",
    "website_url": "",
    "rating_text": "2,9",
    "stars": null,
    "number_of_reviews": null,
    "price_level": "",
    "open_hours": "",
    "extraction_timestamp": "2025-06-07T15:39:00.934Z",
    "source_name": "google",
    "source_query": "Irrigation Equipment",
    "source_country": "IR",
    "country": "Iran",
    "state": "Semnan",
    "city": "Sorkheh"
  },
  {
    "source_id": "ChIJYTTbQuD_mj8RwFhfNenega0",
    "name": "آبمیوه بستنی اسکوپی",
    "category": "آبمیوه بستنی اسکوپی",
    "formatted_address": "5,0(2)",
    "phone_number": "+989112106922",
    "source_url": "https://www.google.com/maps/place/%D8%A2%D8%A8%D9%85%DB%8C%D9%88%D9%87+%D8%A8%D8%B3%D8%AA%D9%86%DB%8C+%D8%A7%D8%B3%DA%A9%D9%88%D9%BE%DB%8C%E2%80%AD/data=!4m7!3m6!1s0x3f9affe042db3461:0xad81dee9355f58c0!8m2!3d35.7734502!4d53.3294908!16s%2Fg%2F11v9t20zzr!19sChIJYTTbQuD_mj8RwFhfNenega0?authuser=0&hl=tr&rclk=1",
    "website_url": "",
    "rating_text": "5,0",
    "stars": null,
    "number_of_reviews": null,
    "price_level": "",
    "open_hours": "",
    "extraction_timestamp": "2025-06-07T15:39:00.934Z",
    "source_name": "google",
    "source_query": "Irrigation Equipment",
    "source_country": "IR",
    "country": "Iran",
    "state": "Semnan",
    "city": "Sorkheh"
  },
  {
    "source_id": "ChIJjwJlhWn_mj8RZX_SUWs-gVQ",
    "name": "آبمیوه و بستنی میلاد",
    "category": "آبمیوه و بستنی میلاد",
    "formatted_address": "4,5(2)",
    "phone_number": "+982333663944",
    "source_url": "https://www.google.com/maps/place/%D8%A2%D8%A8%D9%85%DB%8C%D9%88%D9%87+%D9%88+%D8%A8%D8%B3%D8%AA%D9%86%DB%8C+%D9%85%DB%8C%D9%84%D8%A7%D8%AF%E2%80%AD/data=!4m7!3m6!1s0x3f9aff698565028f:0x54813e6b51d27f65!8m2!3d35.77325!4d53.3279059!16s%2Fg%2F11cs2ws2zm!19sChIJjwJlhWn_mj8RZX_SUWs-gVQ?authuser=0&hl=tr&rclk=1",
    "website_url": "",
    "rating_text": "4,5",
    "stars": null,
    "number_of_reviews": null,
    "price_level": "",
    "open_hours": "",
    "extraction_timestamp": "2025-06-07T15:39:00.935Z",
    "source_name": "google",
    "source_query": "Irrigation Equipment",
    "source_country": "IR",
    "country": "Iran",
    "state": "Semnan",
    "city": "Sorkheh"
  },
  {
    "source_id": "ChIJgb9_ntpMmj8RiUWSe0q59B0",
    "name": "Etka Store",
    "category": "Etka Store",
    "formatted_address": "3,4(24)",
    "phone_number": "+982333465902",
    "source_url": "https://www.google.com/maps/place/Etka+Store/data=!4m7!3m6!1s0x3f9a4cda9e7fbf81:0x1df4b94a7b924589!8m2!3d35.5802171!4d53.3796474!16s%2Fg%2F1ptwyzthh!19sChIJgb9_ntpMmj8RiUWSe0q59B0?authuser=0&hl=tr&rclk=1",
    "website_url": "",
    "rating_text": "3,4",
    "stars": null,
    "number_of_reviews": null,
    "price_level": "",
    "open_hours": "",
    "extraction_timestamp": "2025-06-07T15:39:00.936Z",
    "source_name": "google",
    "source_query": "Irrigation Equipment",
    "source_country": "IR",
    "country": "Iran",
    "state": "Semnan",
    "city": "Sorkheh"
  }
]
