[
  {
    "source_id": "ChIJRTCSSQ_NWRMRqofBN-k_BAU",
    "name": "Souper Market Ελληνικη Διατροφη Παλαμα Ευαγγελια.",
    "category": "Souper Market Ελληνικη Διατροφη Παλαμα Ευαγγελια.",
    "formatted_address": "",
    "phone_number": "+302461087003",
    "source_url": "https://www.google.com/maps/place/Souper+Market+%CE%95%CE%BB%CE%BB%CE%B7%CE%BD%CE%B9%CE%BA%CE%B7+%CE%94%CE%B9%CE%B1%CF%84%CF%81%CE%BF%CF%86%CE%B7+%CE%A0%CE%B1%CE%BB%CE%B1%CE%BC%CE%B1+%CE%95%CF%85%CE%B1%CE%B3%CE%B3%CE%B5%CE%BB%CE%B9%CE%B1./data=!4m7!3m6!1s0x1359cd0f49923045:0x5043fe937c187aa!8m2!3d40.2264034!4d21.8298236!16s%2Fg%2F11x76p4mff!19sChIJRTCSSQ_NWRMRqofBN-k_BAU?authuser=0&hl=tr&rclk=1",
    "website_url": "",
    "rating_text": "",
    "stars": null,
    "number_of_reviews": null,
    "price_level": "",
    "open_hours": "",
    "extraction_timestamp": "2025-06-07T15:25:06.027Z",
    "source_name": "google",
    "source_query": "Irrigation Equipment",
    "source_country": "GR",
    "country": "Greece",
    "state": "West Macedonia Region",
    "city": "Áno Kómi"
  },
  {
    "source_id": "ChIJb3zweA_NWRMRSrD3_R4hDx8",
    "name": "Ελληνικά Market Άνω Κώμη",
    "category": "Ελληνικά Market Άνω Κώμη",
    "formatted_address": "5,0(11)",
    "phone_number": "+302461087230",
    "source_url": "https://www.google.com/maps/place/%CE%95%CE%BB%CE%BB%CE%B7%CE%BD%CE%B9%CE%BA%CE%AC+Market+%CE%86%CE%BD%CF%89+%CE%9A%CF%8E%CE%BC%CE%B7/data=!4m7!3m6!1s0x1359cd0f78f07c6f:0x1f0f211efdf7b04a!8m2!3d40.2262412!4d21.8274953!16s%2Fg%2F11y5pfgldg!19sChIJb3zweA_NWRMRSrD3_R4hDx8?authuser=0&hl=tr&rclk=1",
    "website_url": "https://ellinikamarket.gr/",
    "rating_text": "5,0",
    "stars": null,
    "number_of_reviews": null,
    "price_level": "",
    "open_hours": "",
    "extraction_timestamp": "2025-06-07T15:25:06.029Z",
    "source_name": "google",
    "source_query": "Irrigation Equipment",
    "source_country": "GR",
    "country": "Greece",
    "state": "West Macedonia Region",
    "city": "Áno Kómi"
  },
  {
    "source_id": "ChIJP6mV10R_WBMRmKs2kVzQQL0",
    "name": "ADRITEC EUROPE S.A.",
    "category": "ADRITEC EUROPE S.A.",
    "formatted_address": "4,6(20)",
    "phone_number": "+302410975170",
    "source_url": "https://www.google.com/maps/place/ADRITEC+EUROPE+S.A./data=!4m7!3m6!1s0x13587f44d795a93f:0xbd40d05c9136ab98!8m2!3d39.6762619!4d22.5489292!16s%2Fg%2F11_qtp7mx!19sChIJP6mV10R_WBMRmKs2kVzQQL0?authuser=0&hl=tr&rclk=1",
    "website_url": "https://www.adriteceurope.gr/",
    "rating_text": "4,6",
    "stars": null,
    "number_of_reviews": null,
    "price_level": "",
    "open_hours": "",
    "extraction_timestamp": "2025-06-07T15:25:06.031Z",
    "source_name": "google",
    "source_query": "Irrigation Equipment",
    "source_country": "GR",
    "country": "Greece",
    "state": "West Macedonia Region",
    "city": "Áno Kómi"
  },
  {
    "source_id": "ChIJhWjwfsIVVBMRRLnszbZbxUk",
    "name": "Irrigationpro",
    "category": "Irrigationpro",
    "formatted_address": "5,0(1)",
    "phone_number": "+38970401147",
    "source_url": "https://www.google.com/maps/place/Irrigationpro/data=!4m7!3m6!1s0x135415c27ef06885:0x49c55bb6cdecb944!8m2!3d41.9907145!4d21.4371336!16s%2Fg%2F11h27mkf2n!19sChIJhWjwfsIVVBMRRLnszbZbxUk?authuser=0&hl=tr&rclk=1",
    "website_url": "http://www.irrigationpro.mk/",
    "rating_text": "5,0",
    "stars": null,
    "number_of_reviews": null,
    "price_level": "",
    "open_hours": "",
    "extraction_timestamp": "2025-06-07T15:25:14.453Z",
    "source_name": "google",
    "source_query": "Irrigation Equipment",
    "source_country": "GR",
    "country": "Greece",
    "state": "West Macedonia Region",
    "city": "Xinó Neró"
  },
  {
    "source_id": "ChIJ7f3YhRj_qRQRepBfgUmSdO8",
    "name": "drip irrigation system",
    "category": "drip irrigation system",
    "formatted_address": "",
    "phone_number": "+38970214420",
    "source_url": "https://www.google.com/maps/place/drip+irrigation+system/data=!4m7!3m6!1s0x14a9ff1885d8fded:0xef749249815f907a!8m2!3d41.4376826!4d22.6444234!16s%2Fg%2F11tjjvc857!19sChIJ7f3YhRj_qRQRepBfgUmSdO8?authuser=0&hl=tr&rclk=1",
    "website_url": "http://pronexhem.mk/",
    "rating_text": "",
    "stars": null,
    "number_of_reviews": null,
    "price_level": "",
    "open_hours": "",
    "extraction_timestamp": "2025-06-07T15:25:14.454Z",
    "source_name": "google",
    "source_query": "Irrigation Equipment",
    "source_country": "GR",
    "country": "Greece",
    "state": "West Macedonia Region",
    "city": "Xinó Neró"
  },
  {
    "source_id": "ChIJm-UQ2_v8WRMRJdCVRqVDsd0",
    "name": "myAGROmarket - Agromarket Καστοριάς",
    "category": "myAGROmarket - Agromarket Καστοριάς",
    "formatted_address": "4,8(82)",
    "phone_number": "+302467084310",
    "source_url": "https://www.google.com/maps/place/myAGROmarket+-+Agromarket+%CE%9A%CE%B1%CF%83%CF%84%CE%BF%CF%81%CE%B9%CE%AC%CF%82/data=!4m7!3m6!1s0x1359fcfbdb10e59b:0xddb143a54695d025!8m2!3d40.5048311!4d21.2433058!16s%2Fg%2F11b6nlnlmn!19sChIJm-UQ2_v8WRMRJdCVRqVDsd0?authuser=0&hl=tr&rclk=1",
    "website_url": "",
    "rating_text": "4,8",
    "stars": null,
    "number_of_reviews": null,
    "price_level": "",
    "open_hours": "",
    "extraction_timestamp": "2025-06-07T15:25:51.153Z",
    "source_name": "google",
    "source_query": "Irrigation Equipment",
    "source_country": "GR",
    "country": "Greece",
    "state": "West Macedonia Region",
    "city": "Maniákoi"
  },
  {
    "source_id": "ChIJP6mV10R_WBMRmKs2kVzQQL0",
    "name": "ADRITEC EUROPE S.A.",
    "category": "ADRITEC EUROPE S.A.",
    "formatted_address": "4,6(20)",
    "phone_number": "+302410975170",
    "source_url": "https://www.google.com/maps/place/ADRITEC+EUROPE+S.A./data=!4m7!3m6!1s0x13587f44d795a93f:0xbd40d05c9136ab98!8m2!3d39.6762619!4d22.5489292!16s%2Fg%2F11_qtp7mx!19sChIJP6mV10R_WBMRmKs2kVzQQL0?authuser=0&hl=tr&rclk=1",
    "website_url": "",
    "rating_text": "4,6",
    "stars": null,
    "number_of_reviews": null,
    "price_level": "",
    "open_hours": "",
    "extraction_timestamp": "2025-06-07T15:25:51.155Z",
    "source_name": "google",
    "source_query": "Irrigation Equipment",
    "source_country": "GR",
    "country": "Greece",
    "state": "West Macedonia Region",
    "city": "Maniákoi"
  },
  {
    "source_id": "ChIJiZEHi_z9WRMR432Wk5J-Wa8",
    "name": "Αθανάσιος Β. Ιωάννου",
    "category": "Αθανάσιος Β. Ιωάννου",
    "formatted_address": "",
    "phone_number": "+306945766700",
    "source_url": "https://www.google.com/maps/place/%CE%91%CE%B8%CE%B1%CE%BD%CE%AC%CF%83%CE%B9%CE%BF%CF%82+%CE%92.+%CE%99%CF%89%CE%AC%CE%BD%CE%BD%CE%BF%CF%85/data=!4m7!3m6!1s0x1359fdfc8b079189:0xaf597e9293967de3!8m2!3d40.5066355!4d21.2420916!16s%2Fg%2F11h0xg_sgg!19sChIJiZEHi_z9WRMR432Wk5J-Wa8?authuser=0&hl=tr&rclk=1",
    "website_url": "",
    "rating_text": "",
    "stars": null,
    "number_of_reviews": null,
    "price_level": "",
    "open_hours": "",
    "extraction_timestamp": "2025-06-07T15:25:51.156Z",
    "source_name": "google",
    "source_query": "Irrigation Equipment",
    "source_country": "GR",
    "country": "Greece",
    "state": "West Macedonia Region",
    "city": "Maniákoi"
  },
  {
    "source_id": "ChIJhyxamm4dHyURiknD7iXTJn8",
    "name": "Δώρος Στέργιος Υδραυλικός Θερμοϋδραυλικός Καστοριά",
    "category": "Δώρος Στέργιος Υδραυλικός Θερμοϋδραυλικός Καστοριά",
    "formatted_address": "",
    "phone_number": "+306980359736",
    "source_url": "https://www.google.com/maps/place/%CE%94%CF%8E%CF%81%CE%BF%CF%82+%CE%A3%CF%84%CE%AD%CF%81%CE%B3%CE%B9%CE%BF%CF%82+%CE%A5%CE%B4%CF%81%CE%B1%CF%85%CE%BB%CE%B9%CE%BA%CF%8C%CF%82+%CE%98%CE%B5%CF%81%CE%BC%CE%BF%CF%8B%CE%B4%CF%81%CE%B1%CF%85%CE%BB%CE%B9%CE%BA%CF%8C%CF%82+%CE%9A%CE%B1%CF%83%CF%84%CE%BF%CF%81%CE%B9%CE%AC/data=!4m7!3m6!1s0x251f1d6e9a5a2c87:0x7f26d325eec3498a!8m2!3d40.5038554!4d21.2444186!16s%2Fg%2F11vrdl1tlm!19sChIJhyxamm4dHyURiknD7iXTJn8?authuser=0&hl=tr&rclk=1",
    "website_url": "",
    "rating_text": "",
    "stars": null,
    "number_of_reviews": null,
    "price_level": "",
    "open_hours": "",
    "extraction_timestamp": "2025-06-07T15:25:51.158Z",
    "source_name": "google",
    "source_query": "Irrigation Equipment",
    "source_country": "GR",
    "country": "Greece",
    "state": "West Macedonia Region",
    "city": "Maniákoi"
  },
  {
    "source_id": "ChIJbUM5ZPn8WRMR4AddQTwJghE",
    "name": "Masoutis",
    "category": "Masoutis",
    "formatted_address": "4,6(379)",
    "phone_number": "+302467055124",
    "source_url": "https://www.google.com/maps/place/Masoutis/data=!4m7!3m6!1s0x1359fcf96439436d:0x1182093c415d07e0!8m2!3d40.5046454!4d21.2424582!16s%2Fg%2F11df81p1rm!19sChIJbUM5ZPn8WRMR4AddQTwJghE?authuser=0&hl=tr&rclk=1",
    "website_url": "",
    "rating_text": "4,6",
    "stars": null,
    "number_of_reviews": null,
    "price_level": "",
    "open_hours": "",
    "extraction_timestamp": "2025-06-07T15:25:51.160Z",
    "source_name": "google",
    "source_query": "Irrigation Equipment",
    "source_country": "GR",
    "country": "Greece",
    "state": "West Macedonia Region",
    "city": "Maniákoi"
  },
  {
    "source_id": "ChIJ7Wf4b_v9WRMRdgB0o0q_iP0",
    "name": "Εξειδικευμένο συνεργείο Αμανατίδης",
    "category": "Εξειδικευμένο συνεργείο Αμανατίδης",
    "formatted_address": "5,0(9)",
    "phone_number": "+302467081448",
    "source_url": "https://www.google.com/maps/place/%CE%95%CE%BE%CE%B5%CE%B9%CE%B4%CE%B9%CE%BA%CE%B5%CF%85%CE%BC%CE%AD%CE%BD%CE%BF+%CF%83%CF%85%CE%BD%CE%B5%CF%81%CE%B3%CE%B5%CE%AF%CE%BF+%CE%91%CE%BC%CE%B1%CE%BD%CE%B1%CF%84%CE%AF%CE%B4%CE%B7%CF%82/data=!4m7!3m6!1s0x1359fdfb6ff867ed:0xfd88bf4aa3740076!8m2!3d40.5060765!4d21.2351135!16s%2Fg%2F11kr6w4w7p!19sChIJ7Wf4b_v9WRMRdgB0o0q_iP0?authuser=0&hl=tr&rclk=1",
    "website_url": "",
    "rating_text": "5,0",
    "stars": null,
    "number_of_reviews": null,
    "price_level": "",
    "open_hours": "",
    "extraction_timestamp": "2025-06-07T15:25:51.161Z",
    "source_name": "google",
    "source_query": "Irrigation Equipment",
    "source_country": "GR",
    "country": "Greece",
    "state": "West Macedonia Region",
    "city": "Maniákoi"
  },
  {
    "source_id": "ChIJq6NHjfr8WRMR0cRNW2qbFrE",
    "name": "Centro For All",
    "category": "Centro For All",
    "formatted_address": "4,5(91) · ₺",
    "phone_number": "+302467100301",
    "source_url": "https://www.google.com/maps/place/Centro+For+All/data=!4m7!3m6!1s0x1359fcfa8d47a3ab:0xb1169b6a5b4dc4d1!8m2!3d40.5020043!4d21.2465448!16s%2Fg%2F11dfhwjp0c!19sChIJq6NHjfr8WRMR0cRNW2qbFrE?authuser=0&hl=tr&rclk=1",
    "website_url": "",
    "rating_text": "4,5",
    "stars": null,
    "number_of_reviews": null,
    "price_level": "",
    "open_hours": "",
    "extraction_timestamp": "2025-06-07T15:25:51.163Z",
    "source_name": "google",
    "source_query": "Irrigation Equipment",
    "source_country": "GR",
    "country": "Greece",
    "state": "West Macedonia Region",
    "city": "Maniákoi"
  },
  {
    "source_id": "ChIJp9W0mGOuoRQRcFupHUAUUcs",
    "name": "Saba Sole Shareholder Co. Ltd",
    "category": "Saba Sole Shareholder Co. Ltd",
    "formatted_address": "5,0(1)",
    "phone_number": "+302105562495",
    "source_url": "https://www.google.com/maps/place/Saba+Sole+Shareholder+Co.+Ltd/data=!4m7!3m6!1s0x14a1ae6398b4d5a7:0xcb5114401da95b70!8m2!3d38.0798304!4d23.4928611!16s%2Fg%2F11gz7hxq6!19sChIJp9W0mGOuoRQRcFupHUAUUcs?authuser=0&hl=tr&rclk=1",
    "website_url": "",
    "rating_text": "5,0",
    "stars": null,
    "number_of_reviews": null,
    "price_level": "",
    "open_hours": "",
    "extraction_timestamp": "2025-06-07T15:25:51.164Z",
    "source_name": "google",
    "source_query": "Irrigation Equipment",
    "source_country": "GR",
    "country": "Greece",
    "state": "West Macedonia Region",
    "city": "Maniákoi"
  },
  {
    "source_id": "ChIJpzrjrfb8WRMRaSQTmLHHlEA",
    "name": "ΜΙΧΟΥΛΗΣ ΓΕΩΡΓΙΟΣ ΠΑΥΛΟΣ",
    "category": "ΜΙΧΟΥΛΗΣ ΓΕΩΡΓΙΟΣ ΠΑΥΛΟΣ",
    "formatted_address": "4,8(16)",
    "phone_number": "+302467080488",
    "source_url": "https://www.google.com/maps/place/%CE%9C%CE%99%CE%A7%CE%9F%CE%A5%CE%9B%CE%97%CE%A3+%CE%93%CE%95%CE%A9%CE%A1%CE%93%CE%99%CE%9F%CE%A3+%CE%A0%CE%91%CE%A5%CE%9B%CE%9F%CE%A3/data=!4m7!3m6!1s0x1359fcf6ade33aa7:0x4094c7b198132469!8m2!3d40.4972801!4d21.2423689!16s%2Fg%2F11cs327960!19sChIJpzrjrfb8WRMRaSQTmLHHlEA?authuser=0&hl=tr&rclk=1",
    "website_url": "",
    "rating_text": "4,8",
    "stars": null,
    "number_of_reviews": null,
    "price_level": "",
    "open_hours": "",
    "extraction_timestamp": "2025-06-07T15:25:51.165Z",
    "source_name": "google",
    "source_query": "Irrigation Equipment",
    "source_country": "GR",
    "country": "Greece",
    "state": "West Macedonia Region",
    "city": "Maniákoi"
  },
  {
    "source_id": "ChIJTbKBkvr8WRMR8eCMmpDQUWE",
    "name": "ΚΡΗΤΙΚΟΣ Super market",
    "category": "ΚΡΗΤΙΚΟΣ Super market",
    "formatted_address": "4,0(56)",
    "phone_number": "+302467080868",
    "source_url": "https://www.google.com/maps/place/%CE%9A%CE%A1%CE%97%CE%A4%CE%99%CE%9A%CE%9F%CE%A3+Super+market/data=!4m7!3m6!1s0x1359fcfa9281b24d:0x6151d0909a8ce0f1!8m2!3d40.50188!4d21.2465!16s%2Fg%2F11bwqbggym!19sChIJTbKBkvr8WRMR8eCMmpDQUWE?authuser=0&hl=tr&rclk=1",
    "website_url": "",
    "rating_text": "4,0",
    "stars": null,
    "number_of_reviews": null,
    "price_level": "",
    "open_hours": "",
    "extraction_timestamp": "2025-06-07T15:25:51.166Z",
    "source_name": "google",
    "source_query": "Irrigation Equipment",
    "source_country": "GR",
    "country": "Greece",
    "state": "West Macedonia Region",
    "city": "Maniákoi"
  },
  {
    "source_id": "ChIJVXGkJkD7WRMRP3dFgXmdR30",
    "name": "ΒΟΥΝΟ & ΠΟΔΗΛΑΤΟ - Παρίντας Γιώργος",
    "category": "ΒΟΥΝΟ & ΠΟΔΗΛΑΤΟ - Παρίντας Γιώργος",
    "formatted_address": "5,0(6)",
    "phone_number": "+302467043360",
    "source_url": "https://www.google.com/maps/place/%CE%92%CE%9F%CE%A5%CE%9D%CE%9F+%26+%CE%A0%CE%9F%CE%94%CE%97%CE%9B%CE%91%CE%A4%CE%9F+-+%CE%A0%CE%B1%CF%81%CE%AF%CE%BD%CF%84%CE%B1%CF%82+%CE%93%CE%B9%CF%8E%CF%81%CE%B3%CE%BF%CF%82/data=!4m7!3m6!1s0x1359fb4026a47155:0x7d479d798145773f!8m2!3d40.4509631!4d21.2608835!16s%2Fg%2F11gbpc23n6!19sChIJVXGkJkD7WRMRP3dFgXmdR30?authuser=0&hl=tr&rclk=1",
    "website_url": "http://www.facebook.com/podilata.parintas/",
    "rating_text": "5,0",
    "stars": null,
    "number_of_reviews": null,
    "price_level": "",
    "open_hours": "",
    "extraction_timestamp": "2025-06-07T15:25:59.835Z",
    "source_name": "google",
    "source_query": "Irrigation Equipment",
    "source_country": "GR",
    "country": "Greece",
    "state": "West Macedonia Region",
    "city": "Argos Orestiko"
  },
  {
    "source_id": "ChIJO4TG9z_7WRMRdg0w-1LdY2M",
    "name": "SUPER ΠΕΡΙΠΤΕΡΑΚΙ",
    "category": "SUPER ΠΕΡΙΠΤΕΡΑΚΙ",
    "formatted_address": "4,9(131)",
    "phone_number": "",
    "source_url": "https://www.google.com/maps/place/SUPER+%CE%A0%CE%95%CE%A1%CE%99%CE%A0%CE%A4%CE%95%CE%A1%CE%91%CE%9A%CE%99/data=!4m7!3m6!1s0x1359fb3ff7c6843b:0x6363dd52fb300d76!8m2!3d40.4491627!4d21.2615126!16s%2Fg%2F11g6xq361c!19sChIJO4TG9z_7WRMRdg0w-1LdY2M?authuser=0&hl=tr&rclk=1",
    "website_url": "https://www.facebook.com/super.peripteraki/",
    "rating_text": "4,9",
    "stars": null,
    "number_of_reviews": null,
    "price_level": "",
    "open_hours": "",
    "extraction_timestamp": "2025-06-07T15:25:59.837Z",
    "source_name": "google",
    "source_query": "Irrigation Equipment",
    "source_country": "GR",
    "country": "Greece",
    "state": "West Macedonia Region",
    "city": "Argos Orestiko"
  },
  {
    "source_id": "ChIJud5p1mr7WRMRjMM5cCjhJc4",
    "name": "taergaleiamou.gr",
    "category": "taergaleiamou.gr",
    "formatted_address": "5,0(31)",
    "phone_number": "+302467305031",
    "source_url": "https://www.google.com/maps/place/taergaleiamou.gr/data=!4m7!3m6!1s0x1359fb6ad669deb9:0xce25e1287039c38c!8m2!3d40.4503519!4d21.257798!16s%2Fg%2F11bzx36wf0!19sChIJud5p1mr7WRMRjMM5cCjhJc4?authuser=0&hl=tr&rclk=1",
    "website_url": "https://www.taergaleiamou.gr/",
    "rating_text": "5,0",
    "stars": null,
    "number_of_reviews": null,
    "price_level": "",
    "open_hours": "",
    "extraction_timestamp": "2025-06-07T15:25:59.839Z",
    "source_name": "google",
    "source_query": "Irrigation Equipment",
    "source_country": "GR",
    "country": "Greece",
    "state": "West Macedonia Region",
    "city": "Argos Orestiko"
  },
  {
    "source_id": "ChIJP6mV10R_WBMRmKs2kVzQQL0",
    "name": "ADRITEC EUROPE S.A.",
    "category": "ADRITEC EUROPE S.A.",
    "formatted_address": "4,6(20)",
    "phone_number": "+302410975170",
    "source_url": "https://www.google.com/maps/place/ADRITEC+EUROPE+S.A./data=!4m7!3m6!1s0x13587f44d795a93f:0xbd40d05c9136ab98!8m2!3d39.6762619!4d22.5489292!16s%2Fg%2F11_qtp7mx!19sChIJP6mV10R_WBMRmKs2kVzQQL0?authuser=0&hl=tr&rclk=1",
    "website_url": "https://www.adriteceurope.gr/",
    "rating_text": "4,6",
    "stars": null,
    "number_of_reviews": null,
    "price_level": "",
    "open_hours": "",
    "extraction_timestamp": "2025-06-07T15:25:59.841Z",
    "source_name": "google",
    "source_query": "Irrigation Equipment",
    "source_country": "GR",
    "country": "Greece",
    "state": "West Macedonia Region",
    "city": "Argos Orestiko"
  },
  {
    "source_id": "ChIJS_AllbhxVxMRb4q8gTJ1bZg",
    "name": "CavaToitos",
    "category": "CavaToitos",
    "formatted_address": "5,0(33)",
    "phone_number": "+302386022489",
    "source_url": "https://www.google.com/maps/place/CavaToitos/data=!4m7!3m6!1s0x135771b89525f04b:0x986d753281bc8a6f!8m2!3d40.6911818!4d21.6775703!16s%2Fg%2F11h2qmtbp4!19sChIJS_AllbhxVxMRb4q8gTJ1bZg?authuser=0&hl=tr&rclk=1",
    "website_url": "https://www.instagram.com/cava_toitos_est.1982/",
    "rating_text": "5,0",
    "stars": null,
    "number_of_reviews": null,
    "price_level": "",
    "open_hours": "",
    "extraction_timestamp": "2025-06-07T15:26:36.659Z",
    "source_name": "google",
    "source_query": "Irrigation Equipment",
    "source_country": "GR",
    "country": "Greece",
    "state": "West Macedonia Region",
    "city": "Amýntaio"
  },
  {
    "source_id": "ChIJx3gkXPBxVxMRNQj0RFp6ySU",
    "name": "2 τροχοί Γρομπανόπουλος (Παπαδάκη Όλγα)",
    "category": "2 τροχοί Γρομπανόπουλος (Παπαδάκη Όλγα)",
    "formatted_address": "4,9(22)",
    "phone_number": "+302386022496",
    "source_url": "https://www.google.com/maps/place/2+%CF%84%CF%81%CE%BF%CF%87%CE%BF%CE%AF+%CE%93%CF%81%CE%BF%CE%BC%CF%80%CE%B1%CE%BD%CF%8C%CF%80%CE%BF%CF%85%CE%BB%CE%BF%CF%82+%28%CE%A0%CE%B1%CF%80%CE%B1%CE%B4%CE%AC%CE%BA%CE%B7+%CE%8C%CE%BB%CE%B3%CE%B1%29/data=!4m7!3m6!1s0x135771f05c2478c7:0x25c97a5a44f40835!8m2!3d40.6929819!4d21.6727762!16s%2Fg%2F11c5rtt644!19sChIJx3gkXPBxVxMRNQj0RFp6ySU?authuser=0&hl=tr&rclk=1",
    "website_url": "https://www.facebook.com/2-%CE%A4%CF%81%CE%BF%CF%87%CE%BF%CE%AF-%CE%93%CF%81%CE%BF%CE%BC%CF%80%CE%B1%CE%BD%CF%8C%CF%80%CE%BF%CF%85%CE%BB%CE%BF%CF%82-1608678636032519/?fref=ts",
    "rating_text": "4,9",
    "stars": null,
    "number_of_reviews": null,
    "price_level": "",
    "open_hours": "",
    "extraction_timestamp": "2025-06-07T15:26:36.661Z",
    "source_name": "google",
    "source_query": "Irrigation Equipment",
    "source_country": "GR",
    "country": "Greece",
    "state": "West Macedonia Region",
    "city": "Amýntaio"
  },
  {
    "source_id": "ChIJK2lydoBxVxMRY0-Nhi_wiKg",
    "name": "Total Market",
    "category": "Total Market",
    "formatted_address": "4,6(144)",
    "phone_number": "+302386024208",
    "source_url": "https://www.google.com/maps/place/Total+Market/data=!4m7!3m6!1s0x135771807672692b:0xa888f02f868d4f63!8m2!3d40.6889072!4d21.676038!16s%2Fg%2F11h7sx_v1x!19sChIJK2lydoBxVxMRY0-Nhi_wiKg?authuser=0&hl=tr&rclk=1",
    "website_url": "http://www.totalmarket.gr/",
    "rating_text": "4,6",
    "stars": null,
    "number_of_reviews": null,
    "price_level": "",
    "open_hours": "",
    "extraction_timestamp": "2025-06-07T15:26:36.663Z",
    "source_name": "google",
    "source_query": "Irrigation Equipment",
    "source_country": "GR",
    "country": "Greece",
    "state": "West Macedonia Region",
    "city": "Amýntaio"
  },
  {
    "source_id": "ChIJP6mV10R_WBMRmKs2kVzQQL0",
    "name": "ADRITEC EUROPE S.A.",
    "category": "ADRITEC EUROPE S.A.",
    "formatted_address": "4,6(20)",
    "phone_number": "+302410975170",
    "source_url": "https://www.google.com/maps/place/ADRITEC+EUROPE+S.A./data=!4m7!3m6!1s0x13587f44d795a93f:0xbd40d05c9136ab98!8m2!3d39.6762619!4d22.5489292!16s%2Fg%2F11_qtp7mx!19sChIJP6mV10R_WBMRmKs2kVzQQL0?authuser=0&hl=tr&rclk=1",
    "website_url": "https://www.adriteceurope.gr/",
    "rating_text": "4,6",
    "stars": null,
    "number_of_reviews": null,
    "price_level": "",
    "open_hours": "",
    "extraction_timestamp": "2025-06-07T15:26:36.665Z",
    "source_name": "google",
    "source_query": "Irrigation Equipment",
    "source_country": "GR",
    "country": "Greece",
    "state": "West Macedonia Region",
    "city": "Amýntaio"
  },
  {
    "source_id": "ChIJAeGAD1xxVxMRZhwzDUcz2CU",
    "name": "Πρόοδος Market",
    "category": "Πρόοδος Market",
    "formatted_address": "4,7(99)",
    "phone_number": "+302386022856",
    "source_url": "https://www.google.com/maps/place/%CE%A0%CF%81%CF%8C%CE%BF%CE%B4%CE%BF%CF%82+Market/data=!4m7!3m6!1s0x1357715c0f80e101:0x25d833470d331c66!8m2!3d40.6901469!4d21.6805818!16s%2Fg%2F11g2xln7h5!19sChIJAeGAD1xxVxMRZhwzDUcz2CU?authuser=0&hl=tr&rclk=1",
    "website_url": "",
    "rating_text": "4,7",
    "stars": null,
    "number_of_reviews": null,
    "price_level": "",
    "open_hours": "",
    "extraction_timestamp": "2025-06-07T15:26:36.667Z",
    "source_name": "google",
    "source_query": "Irrigation Equipment",
    "source_country": "GR",
    "country": "Greece",
    "state": "West Macedonia Region",
    "city": "Amýntaio"
  },
  {
    "source_id": "ChIJp9W0mGOuoRQRcFupHUAUUcs",
    "name": "Saba Sole Shareholder Co. Ltd",
    "category": "Saba Sole Shareholder Co. Ltd",
    "formatted_address": "5,0(1)",
    "phone_number": "+302105562495",
    "source_url": "https://www.google.com/maps/place/Saba+Sole+Shareholder+Co.+Ltd/data=!4m7!3m6!1s0x14a1ae6398b4d5a7:0xcb5114401da95b70!8m2!3d38.0798304!4d23.4928611!16s%2Fg%2F11gz7hxq6!19sChIJp9W0mGOuoRQRcFupHUAUUcs?authuser=0&hl=tr&rclk=1",
    "website_url": "http://watersprinklers.eu/en/",
    "rating_text": "5,0",
    "stars": null,
    "number_of_reviews": null,
    "price_level": "",
    "open_hours": "",
    "extraction_timestamp": "2025-06-07T15:26:36.668Z",
    "source_name": "google",
    "source_query": "Irrigation Equipment",
    "source_country": "GR",
    "country": "Greece",
    "state": "West Macedonia Region",
    "city": "Amýntaio"
  },
  {
    "source_id": "ChIJf16DYvpxVxMRwdOjQ0rbPiA",
    "name": "ΚΡΗΤΙΚΟΣ Super market",
    "category": "ΚΡΗΤΙΚΟΣ Super market",
    "formatted_address": "4,4(70)",
    "phone_number": "+302386024344",
    "source_url": "https://www.google.com/maps/place/%CE%9A%CE%A1%CE%97%CE%A4%CE%99%CE%9A%CE%9F%CE%A3+Super+market/data=!4m7!3m6!1s0x135771fa62835e7f:0x203edb4a43a3d3c1!8m2!3d40.6913053!4d21.6771719!16s%2Fg%2F11gbfdycwt!19sChIJf16DYvpxVxMRwdOjQ0rbPiA?authuser=0&hl=tr&rclk=1",
    "website_url": "http://www.kritikos-sm.gr/",
    "rating_text": "4,4",
    "stars": null,
    "number_of_reviews": null,
    "price_level": "",
    "open_hours": "",
    "extraction_timestamp": "2025-06-07T15:26:36.670Z",
    "source_name": "google",
    "source_query": "Irrigation Equipment",
    "source_country": "GR",
    "country": "Greece",
    "state": "West Macedonia Region",
    "city": "Amýntaio"
  },
  {
    "source_id": "ChIJdYGHPD8lqBQRqZQqWivtcXs",
    "name": "AGRODRIP S.A.",
    "category": "AGRODRIP S.A.",
    "formatted_address": "4,8(25)",
    "phone_number": "+302310796731",
    "source_url": "https://www.google.com/maps/place/AGRODRIP+S.A./data=!4m7!3m6!1s0x14a8253f3c878175:0x7b71ed2b5a2a94a9!8m2!3d40.6845245!4d22.7916908!16s%2Fg%2F1hf2l336l!19sChIJdYGHPD8lqBQRqZQqWivtcXs?authuser=0&hl=tr&rclk=1",
    "website_url": "http://www.agrodrip.gr/",
    "rating_text": "4,8",
    "stars": null,
    "number_of_reviews": null,
    "price_level": "",
    "open_hours": "",
    "extraction_timestamp": "2025-06-07T15:26:36.673Z",
    "source_name": "google",
    "source_query": "Irrigation Equipment",
    "source_country": "GR",
    "country": "Greece",
    "state": "West Macedonia Region",
    "city": "Amýntaio"
  },
  {
    "source_id": "ChIJh0IN5PlxVxMRQTOD8-pmFR0",
    "name": "Στεγαστρα",
    "category": "Στεγαστρα",
    "formatted_address": "4,1(8)",
    "phone_number": "+302386024144",
    "source_url": "https://www.google.com/maps/place/%CE%A3%CF%84%CE%B5%CE%B3%CE%B1%CF%83%CF%84%CF%81%CE%B1/data=!4m7!3m6!1s0x135771f9e40d4287:0x1d1566eaf3833341!8m2!3d40.6905094!4d21.6796426!16s%2Fg%2F1pv6yjp1n!19sChIJh0IN5PlxVxMRQTOD8-pmFR0?authuser=0&hl=tr&rclk=1",
    "website_url": "",
    "rating_text": "4,1",
    "stars": null,
    "number_of_reviews": null,
    "price_level": "",
    "open_hours": "",
    "extraction_timestamp": "2025-06-07T15:26:36.675Z",
    "source_name": "google",
    "source_query": "Irrigation Equipment",
    "source_country": "GR",
    "country": "Greece",
    "state": "West Macedonia Region",
    "city": "Amýntaio"
  },
  {
    "source_id": "ChIJZzHlBpxxVxMRIl-eNfR3eCM",
    "name": "Mercado Cafe bar",
    "category": "Mercado Cafe bar",
    "formatted_address": "5,0(8)",
    "phone_number": "+302386024303",
    "source_url": "https://www.google.com/maps/place/Mercado+Cafe+bar/data=!4m7!3m6!1s0x1357719c06e53167:0x237877f4359e5f22!8m2!3d40.6908151!4d21.6804748!16s%2Fg%2F11x0f2t63l!19sChIJZzHlBpxxVxMRIl-eNfR3eCM?authuser=0&hl=tr&rclk=1",
    "website_url": "https://www.instagram.com/",
    "rating_text": "5,0",
    "stars": null,
    "number_of_reviews": null,
    "price_level": "",
    "open_hours": "",
    "extraction_timestamp": "2025-06-07T15:26:36.676Z",
    "source_name": "google",
    "source_query": "Irrigation Equipment",
    "source_country": "GR",
    "country": "Greece",
    "state": "West Macedonia Region",
    "city": "Amýntaio"
  },
  {
    "source_id": "ChIJhWjwfsIVVBMRRLnszbZbxUk",
    "name": "Irrigationpro",
    "category": "Irrigationpro",
    "formatted_address": "5,0(1)",
    "phone_number": "+38970401147",
    "source_url": "https://www.google.com/maps/place/Irrigationpro/data=!4m7!3m6!1s0x135415c27ef06885:0x49c55bb6cdecb944!8m2!3d41.9907145!4d21.4371336!16s%2Fg%2F11h27mkf2n!19sChIJhWjwfsIVVBMRRLnszbZbxUk?authuser=0&hl=tr&rclk=1",
    "website_url": "http://www.irrigationpro.mk/",
    "rating_text": "5,0",
    "stars": null,
    "number_of_reviews": null,
    "price_level": "",
    "open_hours": "",
    "extraction_timestamp": "2025-06-07T15:26:36.678Z",
    "source_name": "google",
    "source_query": "Irrigation Equipment",
    "source_country": "GR",
    "country": "Greece",
    "state": "West Macedonia Region",
    "city": "Amýntaio"
  },
  {
    "source_id": "ChIJE8Ur0OhxVxMRlnTGa5nnk24",
    "name": "Lidl",
    "category": "Lidl",
    "formatted_address": "4,2(479)",
    "phone_number": "+302311768568",
    "source_url": "https://www.google.com/maps/place/Lidl/data=!4m7!3m6!1s0x135771e8d02bc513:0x6e93e7996bc67496!8m2!3d40.6830598!4d21.6807007!16s%2Fg%2F12hz3hvh0!19sChIJE8Ur0OhxVxMRlnTGa5nnk24?authuser=0&hl=tr&rclk=1",
    "website_url": "https://www.lidl-hellas.gr/",
    "rating_text": "4,2",
    "stars": null,
    "number_of_reviews": null,
    "price_level": "",
    "open_hours": "",
    "extraction_timestamp": "2025-06-07T15:26:36.680Z",
    "source_name": "google",
    "source_query": "Irrigation Equipment",
    "source_country": "GR",
    "country": "Greece",
    "state": "West Macedonia Region",
    "city": "Amýntaio"
  },
  {
    "source_id": "ChIJkXf6gfpxVxMR2z9qKEc2iBc",
    "name": "Ζαχαροπλαστεία ''Ρωμανίδης''",
    "category": "Ζαχαροπλαστεία ''Ρωμανίδης''",
    "formatted_address": "4,5(61)",
    "phone_number": "+302386022888",
    "source_url": "https://www.google.com/maps/place/%CE%96%CE%B1%CF%87%CE%B1%CF%81%CE%BF%CF%80%CE%BB%CE%B1%CF%83%CF%84%CE%B5%CE%AF%CE%B1+%27%27%CE%A1%CF%89%CE%BC%CE%B1%CE%BD%CE%AF%CE%B4%CE%B7%CF%82%27%27/data=!4m7!3m6!1s0x135771fa81fa7791:0x17883647286a3fdb!8m2!3d40.6909062!4d21.6780082!16s%2Fg%2F11fy_qhwx_!19sChIJkXf6gfpxVxMR2z9qKEc2iBc?authuser=0&hl=tr&rclk=1",
    "website_url": "",
    "rating_text": "4,5",
    "stars": null,
    "number_of_reviews": null,
    "price_level": "",
    "open_hours": "",
    "extraction_timestamp": "2025-06-07T15:26:36.682Z",
    "source_name": "google",
    "source_query": "Irrigation Equipment",
    "source_country": "GR",
    "country": "Greece",
    "state": "West Macedonia Region",
    "city": "Amýntaio"
  },
  {
    "source_id": "ChIJTX8kXPBxVxMR-Ijh1IvUK1k",
    "name": "Coffee Island",
    "category": "Coffee Island",
    "formatted_address": "4,6(236) · €1–5",
    "phone_number": "+302386023670",
    "source_url": "https://www.google.com/maps/place/Coffee+Island/data=!4m7!3m6!1s0x135771f05c247f4d:0x592bd48bd4e188f8!8m2!3d40.6908334!4d21.6785785!16s%2Fg%2F11hbfhp658!19sChIJTX8kXPBxVxMR-Ijh1IvUK1k?authuser=0&hl=tr&rclk=1",
    "website_url": "https://www.coffeeisland.gr/catalog/view/452-ag-konstantinou-elenis-sq-amyntaio?utm_campaign=google_reserve_place_order_action&utm_medium=organic&utm_source=google",
    "rating_text": "4,6",
    "stars": null,
    "number_of_reviews": null,
    "price_level": "",
    "open_hours": "",
    "extraction_timestamp": "2025-06-07T15:26:36.684Z",
    "source_name": "google",
    "source_query": "Irrigation Equipment",
    "source_country": "GR",
    "country": "Greece",
    "state": "West Macedonia Region",
    "city": "Amýntaio"
  },
  {
    "source_id": "ChIJ06T3ONRxVxMRHq_IGBFPmcw",
    "name": "Mikel Coffee",
    "category": "Mikel Coffee",
    "formatted_address": "4,1(96) · €1–5",
    "phone_number": "+302386022911",
    "source_url": "https://www.google.com/maps/place/Mikel+Coffee/data=!4m7!3m6!1s0x135771d438f7a4d3:0xcc994f1118c8af1e!8m2!3d40.6908788!4d21.6784206!16s%2Fg%2F11sm70z1wl!19sChIJ06T3ONRxVxMRHq_IGBFPmcw?authuser=0&hl=tr&rclk=1",
    "website_url": "http://www.mikelcoffee.com/",
    "rating_text": "4,1",
    "stars": null,
    "number_of_reviews": null,
    "price_level": "",
    "open_hours": "",
    "extraction_timestamp": "2025-06-07T15:26:36.686Z",
    "source_name": "google",
    "source_query": "Irrigation Equipment",
    "source_country": "GR",
    "country": "Greece",
    "state": "West Macedonia Region",
    "city": "Amýntaio"
  },
  {
    "source_id": "ChIJP6mV10R_WBMRmKs2kVzQQL0",
    "name": "ADRITEC EUROPE S.A.",
    "category": "ADRITEC EUROPE S.A.",
    "formatted_address": "4,6(20)",
    "phone_number": "+302410975170",
    "source_url": "https://www.google.com/maps/place/ADRITEC+EUROPE+S.A./data=!4m7!3m6!1s0x13587f44d795a93f:0xbd40d05c9136ab98!8m2!3d39.6762619!4d22.5489292!16s%2Fg%2F11_qtp7mx!19sChIJP6mV10R_WBMRmKs2kVzQQL0?authuser=0&hl=tr&rclk=1",
    "website_url": "https://www.adriteceurope.gr/",
    "rating_text": "4,6",
    "stars": null,
    "number_of_reviews": null,
    "price_level": "",
    "open_hours": "",
    "extraction_timestamp": "2025-06-07T15:26:44.770Z",
    "source_name": "google",
    "source_query": "Irrigation Equipment",
    "source_country": "GR",
    "country": "Greece",
    "state": "West Macedonia Region",
    "city": "Platanórevma"
  },
  {
    "source_id": "ChIJDW05mHeZoRQRXHhD_XYglt0",
    "name": "ΑΓΡΟΔΟΜΗ - Μ. ΚΑΚΑΒΑ Ε.Ε.",
    "category": "ΑΓΡΟΔΟΜΗ - Μ. ΚΑΚΑΒΑ Ε.Ε.",
    "formatted_address": "4,7(19)",
    "phone_number": "+302106614141",
    "source_url": "https://www.google.com/maps/place/%CE%91%CE%93%CE%A1%CE%9F%CE%94%CE%9F%CE%9C%CE%97+-+%CE%9C.+%CE%9A%CE%91%CE%9A%CE%91%CE%92%CE%91+%CE%95.%CE%95./data=!4m7!3m6!1s0x14a1997798396d0d:0xdd962076fd43785c!8m2!3d38.0105257!4d23.8451325!16s%2Fg%2F1ttxf2r_!19sChIJDW05mHeZoRQRXHhD_XYglt0?authuser=0&hl=tr&rclk=1",
    "website_url": "http://www.agrodomi.gr/",
    "rating_text": "4,7",
    "stars": null,
    "number_of_reviews": null,
    "price_level": "",
    "open_hours": "",
    "extraction_timestamp": "2025-06-07T15:26:44.771Z",
    "source_name": "google",
    "source_query": "Irrigation Equipment",
    "source_country": "GR",
    "country": "Greece",
    "state": "West Macedonia Region",
    "city": "Platanórevma"
  },
  {
    "source_id": "ChIJ7f3YhRj_qRQRepBfgUmSdO8",
    "name": "drip irrigation system",
    "category": "drip irrigation system",
    "formatted_address": "",
    "phone_number": "+38970214420",
    "source_url": "https://www.google.com/maps/place/drip+irrigation+system/data=!4m7!3m6!1s0x14a9ff1885d8fded:0xef749249815f907a!8m2!3d41.4376826!4d22.6444234!16s%2Fg%2F11tjjvc857!19sChIJ7f3YhRj_qRQRepBfgUmSdO8?authuser=0&hl=tr&rclk=1",
    "website_url": "http://pronexhem.mk/",
    "rating_text": "",
    "stars": null,
    "number_of_reviews": null,
    "price_level": "",
    "open_hours": "",
    "extraction_timestamp": "2025-06-07T15:26:44.771Z",
    "source_name": "google",
    "source_query": "Irrigation Equipment",
    "source_country": "GR",
    "country": "Greece",
    "state": "West Macedonia Region",
    "city": "Platanórevma"
  },
  {
    "source_id": "ChIJdYGHPD8lqBQRqZQqWivtcXs",
    "name": "AGRODRIP S.A.",
    "category": "AGRODRIP S.A.",
    "formatted_address": "4,8(25)",
    "phone_number": "+302310796731",
    "source_url": "https://www.google.com/maps/place/AGRODRIP+S.A./data=!4m7!3m6!1s0x14a8253f3c878175:0x7b71ed2b5a2a94a9!8m2!3d40.6845245!4d22.7916908!16s%2Fg%2F1hf2l336l!19sChIJdYGHPD8lqBQRqZQqWivtcXs?authuser=0&hl=tr&rclk=1",
    "website_url": "http://www.agrodrip.gr/",
    "rating_text": "4,8",
    "stars": null,
    "number_of_reviews": null,
    "price_level": "",
    "open_hours": "",
    "extraction_timestamp": "2025-06-07T15:26:44.771Z",
    "source_name": "google",
    "source_query": "Irrigation Equipment",
    "source_country": "GR",
    "country": "Greece",
    "state": "West Macedonia Region",
    "city": "Platanórevma"
  },
  {
    "source_id": "ChIJpROts583qBQRjxHVzGML8UI",
    "name": "EVDOS S.A.",
    "category": "EVDOS S.A.",
    "formatted_address": "4,0(13)",
    "phone_number": "+302310681335",
    "source_url": "https://www.google.com/maps/place/EVDOS+S.A./data=!4m7!3m6!1s0x14a8379fb3ad13a5:0x42f10b63ccd5118f!8m2!3d40.6965937!4d22.9572893!16s%2Fg%2F1tnxz7vn!19sChIJpROts583qBQRjxHVzGML8UI?authuser=0&hl=tr&rclk=1",
    "website_url": "http://www.evdos.gr/",
    "rating_text": "4,0",
    "stars": null,
    "number_of_reviews": null,
    "price_level": "",
    "open_hours": "",
    "extraction_timestamp": "2025-06-07T15:26:44.772Z",
    "source_name": "google",
    "source_query": "Irrigation Equipment",
    "source_country": "GR",
    "country": "Greece",
    "state": "West Macedonia Region",
    "city": "Platanórevma"
  },
  {
    "source_id": "ChIJg5kQZ1F7WBMRMAG2pKLdIZQ",
    "name": "ΕΛΓΕΚ-ΠΑΣΙΑΣ ΧΡΥΣΟΒΑΛΑΝΤΗΣ ΜΟΝ ΙΚΕ",
    "category": "ΕΛΓΕΚ-ΠΑΣΙΑΣ ΧΡΥΣΟΒΑΛΑΝΤΗΣ ΜΟΝ ΙΚΕ",
    "formatted_address": "5,0(9)",
    "phone_number": "+302410541071",
    "source_url": "https://www.google.com/maps/place/%CE%95%CE%9B%CE%93%CE%95%CE%9A-%CE%A0%CE%91%CE%A3%CE%99%CE%91%CE%A3+%CE%A7%CE%A1%CE%A5%CE%A3%CE%9F%CE%92%CE%91%CE%9B%CE%91%CE%9D%CE%A4%CE%97%CE%A3+%CE%9C%CE%9F%CE%9D+%CE%99%CE%9A%CE%95/data=!4m7!3m6!1s0x13587b5167109983:0x9421dda2a4b60130!8m2!3d39.7663188!4d22.4902543!16s%2Fg%2F11fcr5ty4m!19sChIJg5kQZ1F7WBMRMAG2pKLdIZQ?authuser=0&hl=tr&rclk=1",
    "website_url": "http://elgekirrigation.com/",
    "rating_text": "5,0",
    "stars": null,
    "number_of_reviews": null,
    "price_level": "",
    "open_hours": "",
    "extraction_timestamp": "2025-06-07T15:26:44.772Z",
    "source_name": "google",
    "source_query": "Irrigation Equipment",
    "source_country": "GR",
    "country": "Greece",
    "state": "West Macedonia Region",
    "city": "Platanórevma"
  },
  {
    "source_id": "ChIJUcY0vRxJqBQRewPWB2sxkLk",
    "name": "Agritech - Εξοπλισμός Φυτωρίων",
    "category": "Agritech - Εξοπλισμός Φυτωρίων",
    "formatted_address": "4,5(22)",
    "phone_number": "+302394052488",
    "source_url": "https://www.google.com/maps/place/Agritech+-+%CE%95%CE%BE%CE%BF%CF%80%CE%BB%CE%B9%CF%83%CE%BC%CF%8C%CF%82+%CE%A6%CF%85%CF%84%CF%89%CF%81%CE%AF%CF%89%CE%BD/data=!4m7!3m6!1s0x14a8491cbd34c651:0xb990316b07d6037b!8m2!3d40.6912269!4d23.0621277!16s%2Fg%2F11g9qt5pmn!19sChIJUcY0vRxJqBQRewPWB2sxkLk?authuser=0&hl=tr&rclk=1",
    "website_url": "http://agritech.com.gr/",
    "rating_text": "4,5",
    "stars": null,
    "number_of_reviews": null,
    "price_level": "",
    "open_hours": "",
    "extraction_timestamp": "2025-06-07T15:26:44.772Z",
    "source_name": "google",
    "source_query": "Irrigation Equipment",
    "source_country": "GR",
    "country": "Greece",
    "state": "West Macedonia Region",
    "city": "Platanórevma"
  },
  {
    "source_id": "ChIJOw46Z9O8oRQRyxAr3MuaMa8",
    "name": "Pantelis Papadopoulos S.A.",
    "category": "Pantelis Papadopoulos S.A.",
    "formatted_address": "4,3(99)",
    "phone_number": "+302105193100",
    "source_url": "https://www.google.com/maps/place/Pantelis+Papadopoulos+S.A./data=!4m7!3m6!1s0x14a1bcd3673a0e3b:0xaf319acbdc2b10cb!8m2!3d37.9889866!4d23.7057373!16s%2Fg%2F11rvtn0c2!19sChIJOw46Z9O8oRQRyxAr3MuaMa8?authuser=0&hl=tr&rclk=1",
    "website_url": "http://www.papadopoulos.com.gr/",
    "rating_text": "4,3",
    "stars": null,
    "number_of_reviews": null,
    "price_level": "",
    "open_hours": "",
    "extraction_timestamp": "2025-06-07T15:26:44.773Z",
    "source_name": "google",
    "source_query": "Irrigation Equipment",
    "source_country": "GR",
    "country": "Greece",
    "state": "West Macedonia Region",
    "city": "Platanórevma"
  },
  {
    "source_id": "ChIJsVIewqE5qBQRpTlLNAwhwWM",
    "name": "ENOSI KATASKEVASTON GEORGIKON MICHANIMATON ELLADOS",
    "category": "ENOSI KATASKEVASTON GEORGIKON MICHANIMATON ELLADOS",
    "formatted_address": "5,0(2)",
    "phone_number": "+302310556229",
    "source_url": "https://www.google.com/maps/place/ENOSI+KATASKEVASTON+GEORGIKON+MICHANIMATON+ELLADOS/data=!4m7!3m6!1s0x14a839a1c21e52b1:0x63c1210c344b39a5!8m2!3d40.6410971!4d22.9308167!16s%2Fg%2F11gf0jpn2w!19sChIJsVIewqE5qBQRpTlLNAwhwWM?authuser=0&hl=tr&rclk=1",
    "website_url": "http://www.ekagem.gr/",
    "rating_text": "5,0",
    "stars": null,
    "number_of_reviews": null,
    "price_level": "",
    "open_hours": "",
    "extraction_timestamp": "2025-06-07T15:26:44.773Z",
    "source_name": "google",
    "source_query": "Irrigation Equipment",
    "source_country": "GR",
    "country": "Greece",
    "state": "West Macedonia Region",
    "city": "Platanórevma"
  },
  {
    "source_id": "ChIJ2fiRpP68oRQRe6-8QbNLzwc",
    "name": "Growit",
    "category": "Growit",
    "formatted_address": "4,8(115)",
    "phone_number": "+302109517000",
    "source_url": "https://www.google.com/maps/place/Growit/data=!4m7!3m6!1s0x14a1bcfea491f8d9:0x7cf4bb341bcaf7b!8m2!3d37.9614422!4d23.7104125!16s%2Fg%2F11g68x18x1!19sChIJ2fiRpP68oRQRe6-8QbNLzwc?authuser=0&hl=tr&rclk=1",
    "website_url": "https://www.growit.gr/",
    "rating_text": "4,8",
    "stars": null,
    "number_of_reviews": null,
    "price_level": "",
    "open_hours": "",
    "extraction_timestamp": "2025-06-07T15:26:44.773Z",
    "source_name": "google",
    "source_query": "Irrigation Equipment",
    "source_country": "GR",
    "country": "Greece",
    "state": "West Macedonia Region",
    "city": "Platanórevma"
  },
  {
    "source_id": "ChIJWeUSqXufoRQRcNjXdqzYHR0",
    "name": "Horomidis, E. & SP., O.E.",
    "category": "Horomidis, E. & SP., O.E.",
    "formatted_address": "Horomidis, E. & SP., O.E.",
    "phone_number": "+302102460660",
    "source_url": "https://www.google.com/maps/place/Horomidis,+E.+%26+SP.,+O.E./data=!4m7!3m6!1s0x14a19f7ba912e559:0x1d1dd8ac76d7d870!8m2!3d38.0920969!4d23.767626!16s%2Fg%2F11f102lfg7!19sChIJWeUSqXufoRQRcNjXdqzYHR0?authuser=0&hl=tr&rclk=1",
    "website_url": "https://horomidis.gr/",
    "rating_text": "4,8",
    "stars": null,
    "number_of_reviews": null,
    "price_level": "",
    "open_hours": "",
    "extraction_timestamp": "2025-06-07T15:26:44.773Z",
    "source_name": "google",
    "source_query": "Irrigation Equipment",
    "source_country": "GR",
    "country": "Greece",
    "state": "West Macedonia Region",
    "city": "Platanórevma"
  },
  {
    "source_id": "ChIJtQC1_-MpVhMRV3cd4tmjj38",
    "name": "Reppos Pumps",
    "category": "Reppos Pumps",
    "formatted_address": "4,3(12)",
    "phone_number": "+302343022317",
    "source_url": "https://www.google.com/maps/place/Reppos+Pumps/data=!4m7!3m6!1s0x135629e3ffb500b5:0x7f8fa3d9e21d7757!8m2!3d40.9866366!4d22.6146269!16s%2Fg%2F11c72lrhhw!19sChIJtQC1_-MpVhMRV3cd4tmjj38?authuser=0&hl=tr&rclk=1",
    "website_url": "http://www.reppospumps.gr/",
    "rating_text": "4,3",
    "stars": null,
    "number_of_reviews": null,
    "price_level": "",
    "open_hours": "",
    "extraction_timestamp": "2025-06-07T15:26:44.774Z",
    "source_name": "google",
    "source_query": "Irrigation Equipment",
    "source_country": "GR",
    "country": "Greece",
    "state": "West Macedonia Region",
    "city": "Platanórevma"
  },
  {
    "source_id": "ChIJ3aDk-898VxMRnDM-x4dPsGU",
    "name": "KOTSIDIS PANAGIOTIS",
    "category": "KOTSIDIS PANAGIOTIS",
    "formatted_address": "4,6(50)",
    "phone_number": "+302463029890",
    "source_url": "https://www.google.com/maps/place/KOTSIDIS+PANAGIOTIS/data=!4m7!3m6!1s0x13577ccffbe4a0dd:0x65b04f87c73e339c!8m2!3d40.514594!4d21.6775865!16s%2Fg%2F1trzm74z!19sChIJ3aDk-898VxMRnDM-x4dPsGU?authuser=0&hl=tr&rclk=1",
    "website_url": "",
    "rating_text": "4,6",
    "stars": null,
    "number_of_reviews": null,
    "price_level": "",
    "open_hours": "",
    "extraction_timestamp": "2025-06-07T15:27:22.283Z",
    "source_name": "google",
    "source_query": "Irrigation Equipment",
    "source_country": "GR",
    "country": "Greece",
    "state": "West Macedonia Region",
    "city": "Ptolemaḯda"
  },
  {
    "source_id": "ChIJjzhrotp8VxMRAD75N75a3_g",
    "name": "Kotsidis Chryssovalantis",
    "category": "Kotsidis Chryssovalantis",
    "formatted_address": "4,8(21)",
    "phone_number": "+302463029234",
    "source_url": "https://www.google.com/maps/place/Kotsidis+Chryssovalantis/data=!4m7!3m6!1s0x13577cdaa26b388f:0xf8df5abe37f93e00!8m2!3d40.5126148!4d21.6674627!16s%2Fg%2F11h028snx!19sChIJjzhrotp8VxMRAD75N75a3_g?authuser=0&hl=tr&rclk=1",
    "website_url": "",
    "rating_text": "4,8",
    "stars": null,
    "number_of_reviews": null,
    "price_level": "",
    "open_hours": "",
    "extraction_timestamp": "2025-06-07T15:27:22.285Z",
    "source_name": "google",
    "source_query": "Irrigation Equipment",
    "source_country": "GR",
    "country": "Greece",
    "state": "West Macedonia Region",
    "city": "Ptolemaḯda"
  },
  {
    "source_id": "ChIJq7DtbsZ9VxMRPHq_2I-M9Tc",
    "name": "Υδρορροές | Ανδρεάδης Χρήστος",
    "category": "Υδρορροές | Ανδρεάδης Χρήστος",
    "formatted_address": "5,0(9)",
    "phone_number": "+306974729961",
    "source_url": "https://www.google.com/maps/place/%CE%A5%CE%B4%CF%81%CE%BF%CF%81%CF%81%CE%BF%CE%AD%CF%82+%7C+%CE%91%CE%BD%CE%B4%CF%81%CE%B5%CE%AC%CE%B4%CE%B7%CF%82+%CE%A7%CF%81%CE%AE%CF%83%CF%84%CE%BF%CF%82/data=!4m7!3m6!1s0x13577dc66eedb0ab:0x37f58c8fd8bf7a3c!8m2!3d40.510837!4d21.674409!16s%2Fg%2F11j2p68xy1!19sChIJq7DtbsZ9VxMRPHq_2I-M9Tc?authuser=0&hl=tr&rclk=1",
    "website_url": "",
    "rating_text": "5,0",
    "stars": null,
    "number_of_reviews": null,
    "price_level": "",
    "open_hours": "",
    "extraction_timestamp": "2025-06-07T15:27:22.286Z",
    "source_name": "google",
    "source_query": "Irrigation Equipment",
    "source_country": "GR",
    "country": "Greece",
    "state": "West Macedonia Region",
    "city": "Ptolemaḯda"
  },
  {
    "source_id": "ChIJtTzxxbN9VxMREIprHUJClwU",
    "name": "Ιωσηφίδης Χάρης ΥΔΡΑΥΛΙΚΑ",
    "category": "Ιωσηφίδης Χάρης ΥΔΡΑΥΛΙΚΑ",
    "formatted_address": "5,0(9)",
    "phone_number": "+306947844498",
    "source_url": "https://www.google.com/maps/place/%CE%99%CF%89%CF%83%CE%B7%CF%86%CE%AF%CE%B4%CE%B7%CF%82+%CE%A7%CE%AC%CF%81%CE%B7%CF%82+%CE%A5%CE%94%CE%A1%CE%91%CE%A5%CE%9B%CE%99%CE%9A%CE%91/data=!4m7!3m6!1s0x13577db3c5f13cb5:0x59742421d6b8a10!8m2!3d40.5094012!4d21.6747258!16s%2Fg%2F11krkdyrky!19sChIJtTzxxbN9VxMREIprHUJClwU?authuser=0&hl=tr&rclk=1",
    "website_url": "",
    "rating_text": "5,0",
    "stars": null,
    "number_of_reviews": null,
    "price_level": "",
    "open_hours": "",
    "extraction_timestamp": "2025-06-07T15:27:22.288Z",
    "source_name": "google",
    "source_query": "Irrigation Equipment",
    "source_country": "GR",
    "country": "Greece",
    "state": "West Macedonia Region",
    "city": "Ptolemaḯda"
  },
  {
    "source_id": "ChIJw_Lh3yR9VxMRiliPg3yXEko",
    "name": "ΑΘΑΝΑΣΙΟΣ ΒΛΑΧΟΔΗΜΟΣ ΤΟΥ ΚΩΝΣΤΑΝΤΙΝΟΥ",
    "category": "ΑΘΑΝΑΣΙΟΣ ΒΛΑΧΟΔΗΜΟΣ ΤΟΥ ΚΩΝΣΤΑΝΤΙΝΟΥ",
    "formatted_address": "5,0(4)",
    "phone_number": "+306973001138",
    "source_url": "https://www.google.com/maps/place/%CE%91%CE%98%CE%91%CE%9D%CE%91%CE%A3%CE%99%CE%9F%CE%A3+%CE%92%CE%9B%CE%91%CE%A7%CE%9F%CE%94%CE%97%CE%9C%CE%9F%CE%A3+%CE%A4%CE%9F%CE%A5+%CE%9A%CE%A9%CE%9D%CE%A3%CE%A4%CE%91%CE%9D%CE%A4%CE%99%CE%9D%CE%9F%CE%A5/data=!4m7!3m6!1s0x13577d24dfe1f2c3:0x4a12977c838f588a!8m2!3d40.5131261!4d21.6818395!16s%2Fg%2F11jzj8k9qv!19sChIJw_Lh3yR9VxMRiliPg3yXEko?authuser=0&hl=tr&rclk=1",
    "website_url": "",
    "rating_text": "5,0",
    "stars": null,
    "number_of_reviews": null,
    "price_level": "",
    "open_hours": "",
    "extraction_timestamp": "2025-06-07T15:27:22.289Z",
    "source_name": "google",
    "source_query": "Irrigation Equipment",
    "source_country": "GR",
    "country": "Greece",
    "state": "West Macedonia Region",
    "city": "Ptolemaḯda"
  },
  {
    "source_id": "ChIJbQhS74Z7VxMRxap0BtKexzw",
    "name": "ΚΑΡΑΝΑΚΗΣ ΒΑΣΙΛΕΙΟΣ ΘΕΡΜΟΥΔΡΑΥΛΙΚΟΣ",
    "category": "ΚΑΡΑΝΑΚΗΣ ΒΑΣΙΛΕΙΟΣ ΘΕΡΜΟΥΔΡΑΥΛΙΚΟΣ",
    "formatted_address": "5,0(9)",
    "phone_number": "+306934537881",
    "source_url": "https://www.google.com/maps/place/%CE%9A%CE%91%CE%A1%CE%91%CE%9D%CE%91%CE%9A%CE%97%CE%A3+%CE%92%CE%91%CE%A3%CE%99%CE%9B%CE%95%CE%99%CE%9F%CE%A3+%CE%98%CE%95%CE%A1%CE%9C%CE%9F%CE%A5%CE%94%CE%A1%CE%91%CE%A5%CE%9B%CE%99%CE%9A%CE%9F%CE%A3/data=!4m7!3m6!1s0x13577b86ef52086d:0x3cc79ed20674aac5!8m2!3d40.5143686!4d21.6771384!16s%2Fg%2F11m_sj6m56!19sChIJbQhS74Z7VxMRxap0BtKexzw?authuser=0&hl=tr&rclk=1",
    "website_url": "",
    "rating_text": "5,0",
    "stars": null,
    "number_of_reviews": null,
    "price_level": "",
    "open_hours": "",
    "extraction_timestamp": "2025-06-07T15:27:22.290Z",
    "source_name": "google",
    "source_query": "Irrigation Equipment",
    "source_country": "GR",
    "country": "Greece",
    "state": "West Macedonia Region",
    "city": "Ptolemaḯda"
  },
  {
    "source_id": "ChIJH_6mgNF8VxMRAcDSiQf3SeE",
    "name": "Xanthopoulos Michael",
    "category": "Xanthopoulos Michael",
    "formatted_address": "5,0(76)",
    "phone_number": "+306972826392",
    "source_url": "https://www.google.com/maps/place/Xanthopoulos+Michael/data=!4m7!3m6!1s0x13577cd180a6fe1f:0xe149f70789d2c001!8m2!3d40.5211996!4d21.6767264!16s%2Fg%2F11h1f57dh!19sChIJH_6mgNF8VxMRAcDSiQf3SeE?authuser=0&hl=tr&rclk=1",
    "website_url": "",
    "rating_text": "5,0",
    "stars": null,
    "number_of_reviews": null,
    "price_level": "",
    "open_hours": "",
    "extraction_timestamp": "2025-06-07T15:27:22.292Z",
    "source_name": "google",
    "source_query": "Irrigation Equipment",
    "source_country": "GR",
    "country": "Greece",
    "state": "West Macedonia Region",
    "city": "Ptolemaḯda"
  },
  {
    "source_id": "ChIJM-YJls98VxMRi--Q4QzEbcQ",
    "name": "Gkogkos Ioannis",
    "category": "Gkogkos Ioannis",
    "formatted_address": "5,0(8)",
    "phone_number": "+302463080790",
    "source_url": "https://www.google.com/maps/place/Gkogkos+Ioannis/data=!4m7!3m6!1s0x13577ccf9609e633:0xc46dc40ce190ef8b!8m2!3d40.5158878!4d21.6765941!16s%2Fg%2F11g_k6zvx!19sChIJM-YJls98VxMRi--Q4QzEbcQ?authuser=0&hl=tr&rclk=1",
    "website_url": "",
    "rating_text": "5,0",
    "stars": null,
    "number_of_reviews": null,
    "price_level": "",
    "open_hours": "",
    "extraction_timestamp": "2025-06-07T15:27:22.293Z",
    "source_name": "google",
    "source_query": "Irrigation Equipment",
    "source_country": "GR",
    "country": "Greece",
    "state": "West Macedonia Region",
    "city": "Ptolemaḯda"
  },
  {
    "source_id": "ChIJLfa-iM98VxMRGgqRFyYvqV0",
    "name": "RADOU MIKIS",
    "category": "RADOU MIKIS",
    "formatted_address": "5,0(3)",
    "phone_number": "+302463081920",
    "source_url": "https://www.google.com/maps/place/RADOU+MIKIS/data=!4m7!3m6!1s0x13577ccf88bef62d:0x5da92f2617910a1a!8m2!3d40.5159346!4d21.6773452!16s%2Fg%2F11bzw__6nf!19sChIJLfa-iM98VxMRGgqRFyYvqV0?authuser=0&hl=tr&rclk=1",
    "website_url": "",
    "rating_text": "5,0",
    "stars": null,
    "number_of_reviews": null,
    "price_level": "",
    "open_hours": "",
    "extraction_timestamp": "2025-06-07T15:27:22.294Z",
    "source_name": "google",
    "source_query": "Irrigation Equipment",
    "source_country": "GR",
    "country": "Greece",
    "state": "West Macedonia Region",
    "city": "Ptolemaḯda"
  },
  {
    "source_id": "ChIJd1azhzV9VxMR-h9_CN38Qt0",
    "name": "ΔΟΥΚΑΣ ΥΔΡΑΥΛΙΚΑ",
    "category": "ΔΟΥΚΑΣ ΥΔΡΑΥΛΙΚΑ",
    "formatted_address": "5,0(5)",
    "phone_number": "+306981544979",
    "source_url": "https://www.google.com/maps/place/%CE%94%CE%9F%CE%A5%CE%9A%CE%91%CE%A3+%CE%A5%CE%94%CE%A1%CE%91%CE%A5%CE%9B%CE%99%CE%9A%CE%91/data=!4m7!3m6!1s0x13577d3587b35677:0xdd42fcdd087f1ffa!8m2!3d40.5116449!4d21.6753438!16s%2Fg%2F11j153rz2j!19sChIJd1azhzV9VxMR-h9_CN38Qt0?authuser=0&hl=tr&rclk=1",
    "website_url": "",
    "rating_text": "5,0",
    "stars": null,
    "number_of_reviews": null,
    "price_level": "",
    "open_hours": "",
    "extraction_timestamp": "2025-06-07T15:27:22.296Z",
    "source_name": "google",
    "source_query": "Irrigation Equipment",
    "source_country": "GR",
    "country": "Greece",
    "state": "West Macedonia Region",
    "city": "Ptolemaḯda"
  },
  {
    "source_id": "ChIJD1aajMJ8VxMRrW-FnYagx1Q",
    "name": "ΠΟΔΗΛΑΤΟΜΑΝΙΑ ΑΔΑΜΙΔΗΣ ΑΝΑΣΤΑΣΙΟΣ",
    "category": "ΠΟΔΗΛΑΤΟΜΑΝΙΑ ΑΔΑΜΙΔΗΣ ΑΝΑΣΤΑΣΙΟΣ",
    "formatted_address": "4,7(46)",
    "phone_number": "+302463025923",
    "source_url": "https://www.google.com/maps/place/%CE%A0%CE%9F%CE%94%CE%97%CE%9B%CE%91%CE%A4%CE%9F%CE%9C%CE%91%CE%9D%CE%99%CE%91+%CE%91%CE%94%CE%91%CE%9C%CE%99%CE%94%CE%97%CE%A3+%CE%91%CE%9D%CE%91%CE%A3%CE%A4%CE%91%CE%A3%CE%99%CE%9F%CE%A3/data=!4m7!3m6!1s0x13577cc28c9a560f:0x54c7a0869d856fad!8m2!3d40.5142628!4d21.6886881!16s%2Fg%2F11hbg9781x!19sChIJD1aajMJ8VxMRrW-FnYagx1Q?authuser=0&hl=tr&rclk=1",
    "website_url": "",
    "rating_text": "4,7",
    "stars": null,
    "number_of_reviews": null,
    "price_level": "",
    "open_hours": "",
    "extraction_timestamp": "2025-06-07T15:27:22.297Z",
    "source_name": "google",
    "source_query": "Irrigation Equipment",
    "source_country": "GR",
    "country": "Greece",
    "state": "West Macedonia Region",
    "city": "Ptolemaḯda"
  },
  {
    "source_id": "ChIJ--pnO9B8VxMRKtjIaHhdBMw",
    "name": "Dimotiki Epicheirissi Tilethermansis Ptolemaidas",
    "category": "Dimotiki Epicheirissi Tilethermansis Ptolemaidas",
    "formatted_address": "4,2(48)",
    "phone_number": "+302463054420",
    "source_url": "https://www.google.com/maps/place/Dimotiki+Epicheirissi+Tilethermansis+Ptolemaidas/data=!4m7!3m6!1s0x13577cd03b67eafb:0xcc045d7868c8d82a!8m2!3d40.5127865!4d21.6770316!16s%2Fg%2F11h18d75g!19sChIJ--pnO9B8VxMRKtjIaHhdBMw?authuser=0&hl=tr&rclk=1",
    "website_url": "",
    "rating_text": "4,2",
    "stars": null,
    "number_of_reviews": null,
    "price_level": "",
    "open_hours": "",
    "extraction_timestamp": "2025-06-07T15:27:22.298Z",
    "source_name": "google",
    "source_query": "Irrigation Equipment",
    "source_country": "GR",
    "country": "Greece",
    "state": "West Macedonia Region",
    "city": "Ptolemaḯda"
  },
  {
    "source_id": "ChIJYxejaxp9VxMR2SHjSDgT4Wg",
    "name": "Υδραυλικός Πτολεμαΐδα Τεμουρτζίδης",
    "category": "Υδραυλικός Πτολεμαΐδα Τεμουρτζίδης",
    "formatted_address": "5,0(4)",
    "phone_number": "+306977168097",
    "source_url": "https://www.google.com/maps/place/%CE%A5%CE%B4%CF%81%CE%B1%CF%85%CE%BB%CE%B9%CE%BA%CF%8C%CF%82+%CE%A0%CF%84%CE%BF%CE%BB%CE%B5%CE%BC%CE%B1%CE%90%CE%B4%CE%B1+%CE%A4%CE%B5%CE%BC%CE%BF%CF%85%CF%81%CF%84%CE%B6%CE%AF%CE%B4%CE%B7%CF%82/data=!4m7!3m6!1s0x13577d1a6ba31763:0x68e1133848e321d9!8m2!3d40.5179902!4d21.6811175!16s%2Fg%2F11v00g2lct!19sChIJYxejaxp9VxMR2SHjSDgT4Wg?authuser=0&hl=tr&rclk=1",
    "website_url": "",
    "rating_text": "5,0",
    "stars": null,
    "number_of_reviews": null,
    "price_level": "",
    "open_hours": "",
    "extraction_timestamp": "2025-06-07T15:27:22.299Z",
    "source_name": "google",
    "source_query": "Irrigation Equipment",
    "source_country": "GR",
    "country": "Greece",
    "state": "West Macedonia Region",
    "city": "Ptolemaḯda"
  },
  {
    "source_id": "ChIJY7LOBtB8VxMRDT7BK9I9FQE",
    "name": "ΚΑΡΑΧΙΣΑΡΛΗΣ ΣΤΥΛΙΑΝΟΣ",
    "category": "ΚΑΡΑΧΙΣΑΡΛΗΣ ΣΤΥΛΙΑΝΟΣ",
    "formatted_address": "4,3(3)",
    "phone_number": "+302463022882",
    "source_url": "https://www.google.com/maps/place/%CE%9A%CE%91%CE%A1%CE%91%CE%A7%CE%99%CE%A3%CE%91%CE%A1%CE%9B%CE%97%CE%A3+%CE%A3%CE%A4%CE%A5%CE%9B%CE%99%CE%91%CE%9D%CE%9F%CE%A3/data=!4m7!3m6!1s0x13577cd006ceb263:0x1153dd22bc13e0d!8m2!3d40.5139639!4d21.6776995!16s%2Fg%2F1tpx20gh!19sChIJY7LOBtB8VxMRDT7BK9I9FQE?authuser=0&hl=tr&rclk=1",
    "website_url": "",
    "rating_text": "4,3",
    "stars": null,
    "number_of_reviews": null,
    "price_level": "",
    "open_hours": "",
    "extraction_timestamp": "2025-06-07T15:27:22.301Z",
    "source_name": "google",
    "source_query": "Irrigation Equipment",
    "source_country": "GR",
    "country": "Greece",
    "state": "West Macedonia Region",
    "city": "Ptolemaḯda"
  },
  {
    "source_id": "ChIJ_W1oudF8VxMRkFL8wS7ccOk",
    "name": "ERIMA GREECE - AΠΟ ΤΟ 2014 EΠΙΣΗΜOΣ ΑΝΤΙΠΡΟΣΩΠΟΣ ERIMA SPORTSWEAR ΕΛΛΑΔΑ - ΚΥΠΡΟ",
    "category": "ERIMA GREECE - AΠΟ ΤΟ 2014 EΠΙΣΗΜOΣ ΑΝΤΙΠΡΟΣΩΠΟΣ ERIMA SPORTSWEAR ΕΛΛΑΔΑ - ΚΥΠΡΟ",
    "formatted_address": "4,9(24)",
    "phone_number": "+306980369077",
    "source_url": "https://www.google.com/maps/place/ERIMA+GREECE+-+A%CE%A0%CE%9F+%CE%A4%CE%9F+2014+E%CE%A0%CE%99%CE%A3%CE%97%CE%9CO%CE%A3+%CE%91%CE%9D%CE%A4%CE%99%CE%A0%CE%A1%CE%9F%CE%A3%CE%A9%CE%A0%CE%9F%CE%A3+ERIMA+SPORTSWEAR+%CE%95%CE%9B%CE%9B%CE%91%CE%94%CE%91+-+%CE%9A%CE%A5%CE%A0%CE%A1%CE%9F/data=!4m7!3m6!1s0x13577cd1b9686dfd:0xe970dc2ec1fc5290!8m2!3d40.5143316!4d21.6847166!16s%2Fg%2F11csr1bb_2!19sChIJ_W1oudF8VxMRkFL8wS7ccOk?authuser=0&hl=tr&rclk=1",
    "website_url": "",
    "rating_text": "4,9",
    "stars": null,
    "number_of_reviews": null,
    "price_level": "",
    "open_hours": "",
    "extraction_timestamp": "2025-06-07T15:27:22.302Z",
    "source_name": "google",
    "source_query": "Irrigation Equipment",
    "source_country": "GR",
    "country": "Greece",
    "state": "West Macedonia Region",
    "city": "Ptolemaḯda"
  },
  {
    "source_id": "ChIJwbq5Ydp8VxMRG2C7KH1t3ig",
    "name": "A CHALKIDIS LP \"Tools Dynamics\"",
    "category": "A CHALKIDIS LP \"Tools Dynamics\"",
    "formatted_address": "4,5(68)",
    "phone_number": "+302463022266",
    "source_url": "https://www.google.com/maps/place/A+CHALKIDIS+LP+%22Tools+Dynamics%22/data=!4m7!3m6!1s0x13577cda61b9bac1:0x28de6d7d28bb601b!8m2!3d40.5195761!4d21.6813865!16s%2Fg%2F1tyh4ngn!19sChIJwbq5Ydp8VxMRG2C7KH1t3ig?authuser=0&hl=tr&rclk=1",
    "website_url": "",
    "rating_text": "4,5",
    "stars": null,
    "number_of_reviews": null,
    "price_level": "",
    "open_hours": "",
    "extraction_timestamp": "2025-06-07T15:27:22.303Z",
    "source_name": "google",
    "source_query": "Irrigation Equipment",
    "source_country": "GR",
    "country": "Greece",
    "state": "West Macedonia Region",
    "city": "Ptolemaḯda"
  },
  {
    "source_id": "ChIJBUVE-9l8VxMRfBa3IOQRjqY",
    "name": "Polytechniki S.A.",
    "category": "Polytechniki S.A.",
    "formatted_address": "4,0(10)",
    "phone_number": "+302463053649",
    "source_url": "https://www.google.com/maps/place/Polytechniki+S.A./data=!4m7!3m6!1s0x13577cd9fb444505:0xa68e11e420b7167c!8m2!3d40.5086555!4d21.6783483!16s%2Fg%2F1tydq6qj!19sChIJBUVE-9l8VxMRfBa3IOQRjqY?authuser=0&hl=tr&rclk=1",
    "website_url": "",
    "rating_text": "4,0",
    "stars": null,
    "number_of_reviews": null,
    "price_level": "",
    "open_hours": "",
    "extraction_timestamp": "2025-06-07T15:27:22.304Z",
    "source_name": "google",
    "source_query": "Irrigation Equipment",
    "source_country": "GR",
    "country": "Greece",
    "state": "West Macedonia Region",
    "city": "Ptolemaḯda"
  },
  {
    "source_id": "ChIJjzhrotp8VxMRYG9LjL-nFuE",
    "name": "Manolas Konstantinos",
    "category": "Manolas Konstantinos",
    "formatted_address": "4,0(1)",
    "phone_number": "+302463023280",
    "source_url": "https://www.google.com/maps/place/Manolas+Konstantinos/data=!4m7!3m6!1s0x13577cdaa26b388f:0xe116a7bf8c4b6f60!8m2!3d40.5129968!4d21.6784663!16s%2Fg%2F1hd_nx9hj!19sChIJjzhrotp8VxMRYG9LjL-nFuE?authuser=0&hl=tr&rclk=1",
    "website_url": "",
    "rating_text": "4,0",
    "stars": null,
    "number_of_reviews": null,
    "price_level": "",
    "open_hours": "",
    "extraction_timestamp": "2025-06-07T15:27:22.306Z",
    "source_name": "google",
    "source_query": "Irrigation Equipment",
    "source_country": "GR",
    "country": "Greece",
    "state": "West Macedonia Region",
    "city": "Ptolemaḯda"
  },
  {
    "source_id": "ChIJgZANTgZ9VxMR2l5jgGz2tLg",
    "name": "Polychronidis Motorsport",
    "category": "Polychronidis Motorsport",
    "formatted_address": "4,9(18)",
    "phone_number": "+302463053869",
    "source_url": "https://www.google.com/maps/place/Polychronidis+Motorsport/data=!4m7!3m6!1s0x13577d064e0d9081:0xb8b4f66c80635eda!8m2!3d40.5199783!4d21.6978554!16s%2Fg%2F11f5lqfdw7!19sChIJgZANTgZ9VxMR2l5jgGz2tLg?authuser=0&hl=tr&rclk=1",
    "website_url": "",
    "rating_text": "4,9",
    "stars": null,
    "number_of_reviews": null,
    "price_level": "",
    "open_hours": "",
    "extraction_timestamp": "2025-06-07T15:27:22.307Z",
    "source_name": "google",
    "source_query": "Irrigation Equipment",
    "source_country": "GR",
    "country": "Greece",
    "state": "West Macedonia Region",
    "city": "Ptolemaḯda"
  },
  {
    "source_id": "ChIJjzhrotp8VxMRgEu2MVliwUQ",
    "name": "Tzortzos John",
    "category": "Tzortzos John",
    "formatted_address": "4,7(3.595)",
    "phone_number": "+302463025036",
    "source_url": "https://www.google.com/maps/place/Tzortzos+John/data=!4m7!3m6!1s0x13577cdaa26b388f:0x44c1625931b64b80!8m2!3d40.5122667!4d21.6770473!16s%2Fg%2F11g_jbjs3!19sChIJjzhrotp8VxMRgEu2MVliwUQ?authuser=0&hl=tr&rclk=1",
    "website_url": "",
    "rating_text": "4,7",
    "stars": null,
    "number_of_reviews": null,
    "price_level": "",
    "open_hours": "",
    "extraction_timestamp": "2025-06-07T15:27:22.309Z",
    "source_name": "google",
    "source_query": "Irrigation Equipment",
    "source_country": "GR",
    "country": "Greece",
    "state": "West Macedonia Region",
    "city": "Ptolemaḯda"
  },
  {
    "source_id": "ChIJSSSy0iJ9VxMRJ0T0KsWFZ0M",
    "name": "Total Market",
    "category": "Total Market",
    "formatted_address": "4,8(51)",
    "phone_number": "+302463026963",
    "source_url": "https://www.google.com/maps/place/Total+Market/data=!4m7!3m6!1s0x13577d22d2b22449:0x436785c52af44427!8m2!3d40.5145042!4d21.6770802!16s%2Fg%2F11kplk_7d8!19sChIJSSSy0iJ9VxMRJ0T0KsWFZ0M?authuser=0&hl=tr&rclk=1",
    "website_url": "",
    "rating_text": "4,8",
    "stars": null,
    "number_of_reviews": null,
    "price_level": "",
    "open_hours": "",
    "extraction_timestamp": "2025-06-07T15:27:22.310Z",
    "source_name": "google",
    "source_query": "Irrigation Equipment",
    "source_country": "GR",
    "country": "Greece",
    "state": "West Macedonia Region",
    "city": "Ptolemaḯda"
  },
  {
    "source_id": "ChIJi9-HDEV9VxMR53iQpRAP8mg",
    "name": "Cava Kalomenidis | Κάβα Κρασιών & Ποτών",
    "category": "Cava Kalomenidis | Κάβα Κρασιών & Ποτών",
    "formatted_address": "5,0(15)",
    "phone_number": "+302463081498",
    "source_url": "https://www.google.com/maps/place/Cava+Kalomenidis+%7C+%CE%9A%CE%AC%CE%B2%CE%B1+%CE%9A%CF%81%CE%B1%CF%83%CE%B9%CF%8E%CE%BD+%26+%CE%A0%CE%BF%CF%84%CF%8E%CE%BD/data=!4m7!3m6!1s0x13577d450c87df8b:0x68f20f10a59078e7!8m2!3d40.5143706!4d21.6806418!16s%2Fg%2F11h4nh457x!19sChIJi9-HDEV9VxMR53iQpRAP8mg?authuser=0&hl=tr&rclk=1",
    "website_url": "",
    "rating_text": "5,0",
    "stars": null,
    "number_of_reviews": null,
    "price_level": "",
    "open_hours": "",
    "extraction_timestamp": "2025-06-07T15:27:22.311Z",
    "source_name": "google",
    "source_query": "Irrigation Equipment",
    "source_country": "GR",
    "country": "Greece",
    "state": "West Macedonia Region",
    "city": "Ptolemaḯda"
  },
  {
    "source_id": "ChIJvXFrFdB8VxMRMzkvTntN0ps",
    "name": "Dimtsas",
    "category": "Dimtsas",
    "formatted_address": "4,7(739)",
    "phone_number": "+302463022291",
    "source_url": "https://www.google.com/maps/place/Dimtsas/data=!4m7!3m6!1s0x13577cd0156b71bd:0x9bd24d7b4e2f3933!8m2!3d40.5134512!4d21.676651!16s%2Fg%2F1vc3khf9!19sChIJvXFrFdB8VxMRMzkvTntN0ps?authuser=0&hl=tr&rclk=1",
    "website_url": "",
    "rating_text": "4,7",
    "stars": null,
    "number_of_reviews": null,
    "price_level": "",
    "open_hours": "",
    "extraction_timestamp": "2025-06-07T15:27:22.313Z",
    "source_name": "google",
    "source_query": "Irrigation Equipment",
    "source_country": "GR",
    "country": "Greece",
    "state": "West Macedonia Region",
    "city": "Ptolemaḯda"
  },
  {
    "source_id": "ChIJBVVT88Z8VxMRwkmU3n1FBxw",
    "name": "Greek Diet Siapanidis Nikolaos",
    "category": "Greek Diet Siapanidis Nikolaos",
    "formatted_address": "4,1(10)",
    "phone_number": "+302463053308",
    "source_url": "https://www.google.com/maps/place/Greek+Diet+Siapanidis+Nikolaos/data=!4m7!3m6!1s0x13577cc6f3535505:0x1c07457dde9449c2!8m2!3d40.519647!4d21.6813743!16s%2Fg%2F11g8_2kmqf!19sChIJBVVT88Z8VxMRwkmU3n1FBxw?authuser=0&hl=tr&rclk=1",
    "website_url": "",
    "rating_text": "4,1",
    "stars": null,
    "number_of_reviews": null,
    "price_level": "",
    "open_hours": "",
    "extraction_timestamp": "2025-06-07T15:27:22.314Z",
    "source_name": "google",
    "source_query": "Irrigation Equipment",
    "source_country": "GR",
    "country": "Greece",
    "state": "West Macedonia Region",
    "city": "Ptolemaḯda"
  },
  {
    "source_id": "ChIJW-35ysV8VxMRSc5htVnxU4c",
    "name": "Athanasiadis Efstathios",
    "category": "Athanasiadis Efstathios",
    "formatted_address": "4,6(22)",
    "phone_number": "+302463022452",
    "source_url": "https://www.google.com/maps/place/Athanasiadis+Efstathios/data=!4m7!3m6!1s0x13577cc5caf9ed5b:0x8753f159b561ce49!8m2!3d40.5174479!4d21.6808117!16s%2Fg%2F11fxb8svbg!19sChIJW-35ysV8VxMRSc5htVnxU4c?authuser=0&hl=tr&rclk=1",
    "website_url": "",
    "rating_text": "4,6",
    "stars": null,
    "number_of_reviews": null,
    "price_level": "",
    "open_hours": "",
    "extraction_timestamp": "2025-06-07T15:27:22.315Z",
    "source_name": "google",
    "source_query": "Irrigation Equipment",
    "source_country": "GR",
    "country": "Greece",
    "state": "West Macedonia Region",
    "city": "Ptolemaḯda"
  },
  {
    "source_id": "ChIJjzhrotp8VxMREe2ZOeAlzP4",
    "name": "centro.spot",
    "category": "centro.spot",
    "formatted_address": "4,5(42)",
    "phone_number": "+302463024986",
    "source_url": "https://www.google.com/maps/place/centro.spot/data=!4m7!3m6!1s0x13577cdaa26b388f:0xfecc25e03999ed11!8m2!3d40.517234!4d21.6807913!16s%2Fg%2F11g_6kv0w!19sChIJjzhrotp8VxMREe2ZOeAlzP4?authuser=0&hl=tr&rclk=1",
    "website_url": "",
    "rating_text": "4,5",
    "stars": null,
    "number_of_reviews": null,
    "price_level": "",
    "open_hours": "",
    "extraction_timestamp": "2025-06-07T15:27:22.317Z",
    "source_name": "google",
    "source_query": "Irrigation Equipment",
    "source_country": "GR",
    "country": "Greece",
    "state": "West Macedonia Region",
    "city": "Ptolemaḯda"
  },
  {
    "source_id": "ChIJJYWPANp8VxMR5wDpHdHWxAw",
    "name": "ANTONIOU-HOMES",
    "category": "ANTONIOU-HOMES",
    "formatted_address": "3,6(14)",
    "phone_number": "+302463054899",
    "source_url": "https://www.google.com/maps/place/ANTONIOU-HOMES/data=!4m7!3m6!1s0x13577cda008f8525:0xcc4d6d11de900e7!8m2!3d40.5098655!4d21.6780556!16s%2Fg%2F11b70hmgy0!19sChIJJYWPANp8VxMR5wDpHdHWxAw?authuser=0&hl=tr&rclk=1",
    "website_url": "",
    "rating_text": "3,6",
    "stars": null,
    "number_of_reviews": null,
    "price_level": "",
    "open_hours": "",
    "extraction_timestamp": "2025-06-07T15:27:22.318Z",
    "source_name": "google",
    "source_query": "Irrigation Equipment",
    "source_country": "GR",
    "country": "Greece",
    "state": "West Macedonia Region",
    "city": "Ptolemaḯda"
  },
  {
    "source_id": "ChIJO33YHtB8VxMR1stnaI98aoQ",
    "name": "ΚΑΛΟΝ ΚΟΡΙΤΣ' Κελάρι Παραδοσιακών Προϊόντων",
    "category": "ΚΑΛΟΝ ΚΟΡΙΤΣ' Κελάρι Παραδοσιακών Προϊόντων",
    "formatted_address": "4,9(30)",
    "phone_number": "+302463501401",
    "source_url": "https://www.google.com/maps/place/%CE%9A%CE%91%CE%9B%CE%9F%CE%9D+%CE%9A%CE%9F%CE%A1%CE%99%CE%A4%CE%A3%27+%CE%9A%CE%B5%CE%BB%CE%AC%CF%81%CE%B9+%CE%A0%CE%B1%CF%81%CE%B1%CE%B4%CE%BF%CF%83%CE%B9%CE%B1%CE%BA%CF%8E%CE%BD+%CE%A0%CF%81%CE%BF%CF%8A%CF%8C%CE%BD%CF%84%CF%89%CE%BD/data=!4m7!3m6!1s0x13577cd01ed87d3b:0x846a7c8f6867cbd6!8m2!3d40.5143146!4d21.6764636!16s%2Fg%2F12lk_1msh!19sChIJO33YHtB8VxMR1stnaI98aoQ?authuser=0&hl=tr&rclk=1",
    "website_url": "",
    "rating_text": "4,9",
    "stars": null,
    "number_of_reviews": null,
    "price_level": "",
    "open_hours": "",
    "extraction_timestamp": "2025-06-07T15:27:22.319Z",
    "source_name": "google",
    "source_query": "Irrigation Equipment",
    "source_country": "GR",
    "country": "Greece",
    "state": "West Macedonia Region",
    "city": "Ptolemaḯda"
  },
  {
    "source_id": "ChIJ0VkvJsB8VxMRzWOyfbi6zzY",
    "name": "ΤΑΛΑΚΟΣ ΠΑΝΑΓΙΩΤΗΣ",
    "category": "ΤΑΛΑΚΟΣ ΠΑΝΑΓΙΩΤΗΣ",
    "formatted_address": "4,9(43)",
    "phone_number": "+302463028191",
    "source_url": "https://www.google.com/maps/place/%CE%A4%CE%91%CE%9B%CE%91%CE%9A%CE%9F%CE%A3+%CE%A0%CE%91%CE%9D%CE%91%CE%93%CE%99%CE%A9%CE%A4%CE%97%CE%A3/data=!4m7!3m6!1s0x13577cc0262f59d1:0x36cfbab87db263cd!8m2!3d40.5197868!4d21.6903494!16s%2Fg%2F11bzx28gy2!19sChIJ0VkvJsB8VxMRzWOyfbi6zzY?authuser=0&hl=tr&rclk=1",
    "website_url": "",
    "rating_text": "4,9",
    "stars": null,
    "number_of_reviews": null,
    "price_level": "",
    "open_hours": "",
    "extraction_timestamp": "2025-06-07T15:27:22.321Z",
    "source_name": "google",
    "source_query": "Irrigation Equipment",
    "source_country": "GR",
    "country": "Greece",
    "state": "West Macedonia Region",
    "city": "Ptolemaḯda"
  },
  {
    "source_id": "ChIJjzhrotp8VxMR6ISDi41YG4c",
    "name": "Ioannidis Anastasios Kai SIA E.E.",
    "category": "Ioannidis Anastasios Kai SIA E.E.",
    "formatted_address": "4,7(115) · €1–5",
    "phone_number": "+302463029266",
    "source_url": "https://www.google.com/maps/place/Ioannidis+Anastasios+Kai+SIA+E.E./data=!4m7!3m6!1s0x13577cdaa26b388f:0x871b588d8b8384e8!8m2!3d40.512434!4d21.6769857!16s%2Fg%2F11xbbwqrn!19sChIJjzhrotp8VxMR6ISDi41YG4c?authuser=0&hl=tr&rclk=1",
    "website_url": "",
    "rating_text": "4,7",
    "stars": null,
    "number_of_reviews": null,
    "price_level": "",
    "open_hours": "",
    "extraction_timestamp": "2025-06-07T15:27:22.334Z",
    "source_name": "google",
    "source_query": "Irrigation Equipment",
    "source_country": "GR",
    "country": "Greece",
    "state": "West Macedonia Region",
    "city": "Ptolemaḯda"
  },
  {
    "source_id": "ChIJ4_hR-Sp9VxMR5M3huK1X8iU",
    "name": "up όλα market \"Χρήστος\"",
    "category": "up όλα market \"Χρήστος\"",
    "formatted_address": "4,8(5)",
    "phone_number": "",
    "source_url": "https://www.google.com/maps/place/up+%CF%8C%CE%BB%CE%B1+market+%22%CE%A7%CF%81%CE%AE%CF%83%CF%84%CE%BF%CF%82%22/data=!4m7!3m6!1s0x13577d2af951f8e3:0x25f257adb8e1cde4!8m2!3d40.5116024!4d21.6838162!16s%2Fg%2F11kqs32s_q!19sChIJ4_hR-Sp9VxMR5M3huK1X8iU?authuser=0&hl=tr&rclk=1",
    "website_url": "",
    "rating_text": "4,8",
    "stars": null,
    "number_of_reviews": null,
    "price_level": "",
    "open_hours": "",
    "extraction_timestamp": "2025-06-07T15:27:22.335Z",
    "source_name": "google",
    "source_query": "Irrigation Equipment",
    "source_country": "GR",
    "country": "Greece",
    "state": "West Macedonia Region",
    "city": "Ptolemaḯda"
  },
  {
    "source_id": "ChIJK1qlHm7SWRMRELu_kuMZXwQ",
    "name": "WATER SERVICE",
    "category": "WATER SERVICE",
    "formatted_address": "5,0(14)",
    "phone_number": "+302461502778",
    "source_url": "https://www.google.com/maps/place/WATER+SERVICE/data=!4m7!3m6!1s0x1359d26e1ea55a2b:0x45f19e392bfbb10!8m2!3d40.2976114!4d21.7925627!16s%2Fg%2F11c74zr43g!19sChIJK1qlHm7SWRMRELu_kuMZXwQ?authuser=0&hl=tr&rclk=1",
    "website_url": "",
    "rating_text": "5,0",
    "stars": null,
    "number_of_reviews": null,
    "price_level": "",
    "open_hours": "",
    "extraction_timestamp": "2025-06-07T15:28:00.398Z",
    "source_name": "google",
    "source_query": "Irrigation Equipment",
    "source_country": "GR",
    "country": "Greece",
    "state": "West Macedonia Region",
    "city": "Nomós Kozánis"
  },
  {
    "source_id": "ChIJl0dDTODjR6oRhCKfDt_UvcE",
    "name": "ΤΟΥΠΕΚΤΣΗΣ ΥΔΡΕΥΣΗ · ΘΕΡΜΑΝΣΗ · Ζ.Ν.Χ",
    "category": "ΤΟΥΠΕΚΤΣΗΣ ΥΔΡΕΥΣΗ",
    "formatted_address": "ΘΕΡΜΑΝΣΗ",
    "phone_number": "+306972397581",
    "source_url": "https://www.google.com/maps/place/%CE%A4%CE%9F%CE%A5%CE%A0%CE%95%CE%9A%CE%A4%CE%A3%CE%97%CE%A3+%CE%A5%CE%94%CE%A1%CE%95%CE%A5%CE%A3%CE%97+%C2%B7+%CE%98%CE%95%CE%A1%CE%9C%CE%91%CE%9D%CE%A3%CE%97+%C2%B7+%CE%96.%CE%9D.%CE%A7/data=!4m7!3m6!1s0xaa47e3e04c434797:0xc1bdd4df0e9f2284!8m2!3d40.5218079!4d22.2049464!16s%2Fg%2F11v0t12b4j!19sChIJl0dDTODjR6oRhCKfDt_UvcE?authuser=0&hl=tr&rclk=1",
    "website_url": "",
    "rating_text": "5,0",
    "stars": null,
    "number_of_reviews": null,
    "price_level": "",
    "open_hours": "",
    "extraction_timestamp": "2025-06-07T15:28:00.399Z",
    "source_name": "google",
    "source_query": "Irrigation Equipment",
    "source_country": "GR",
    "country": "Greece",
    "state": "West Macedonia Region",
    "city": "Nomós Kozánis"
  },
  {
    "source_id": "ChIJzSJhlAzSWRMR2Ju5tVOd9mw",
    "name": "ΖΕΡΒΑΝΤΑΡΙΔΗΣ Γ. ΦΩΤΙΟΣ ΓΕΩΠΟΝΟΣ Α.Π.Θ.",
    "category": "ΖΕΡΒΑΝΤΑΡΙΔΗΣ Γ. ΦΩΤΙΟΣ ΓΕΩΠΟΝΟΣ Α.Π.Θ.",
    "formatted_address": "4,9(118)",
    "phone_number": "+302461023533",
    "source_url": "https://www.google.com/maps/place/%CE%96%CE%95%CE%A1%CE%92%CE%91%CE%9D%CE%A4%CE%91%CE%A1%CE%99%CE%94%CE%97%CE%A3+%CE%93.+%CE%A6%CE%A9%CE%A4%CE%99%CE%9F%CE%A3+%CE%93%CE%95%CE%A9%CE%A0%CE%9F%CE%9D%CE%9F%CE%A3+%CE%91.%CE%A0.%CE%98./data=!4m7!3m6!1s0x1359d20c946122cd:0x6cf69d53b5b99bd8!8m2!3d40.2948923!4d21.7843008!16s%2Fg%2F1pp2tgm09!19sChIJzSJhlAzSWRMR2Ju5tVOd9mw?authuser=0&hl=tr&rclk=1",
    "website_url": "",
    "rating_text": "4,9",
    "stars": null,
    "number_of_reviews": null,
    "price_level": "",
    "open_hours": "",
    "extraction_timestamp": "2025-06-07T15:28:00.401Z",
    "source_name": "google",
    "source_query": "Irrigation Equipment",
    "source_country": "GR",
    "country": "Greece",
    "state": "West Macedonia Region",
    "city": "Nomós Kozánis"
  },
  {
    "source_id": "ChIJW2i912zSWRMR1T4n-_HJ-xo",
    "name": "TECHNOBETON AE",
    "category": "TECHNOBETON AE",
    "formatted_address": "4,9(153)",
    "phone_number": "+302461045555",
    "source_url": "https://www.google.com/maps/place/TECHNOBETON+AE/data=!4m7!3m6!1s0x1359d26cd7bd685b:0x1afbc9f1fb273ed5!8m2!3d40.3495101!4d21.8012275!16s%2Fg%2F1v_hw6gw!19sChIJW2i912zSWRMR1T4n-_HJ-xo?authuser=0&hl=tr&rclk=1",
    "website_url": "",
    "rating_text": "4,9",
    "stars": null,
    "number_of_reviews": null,
    "price_level": "",
    "open_hours": "",
    "extraction_timestamp": "2025-06-07T15:28:00.402Z",
    "source_name": "google",
    "source_query": "Irrigation Equipment",
    "source_country": "GR",
    "country": "Greece",
    "state": "West Macedonia Region",
    "city": "Nomós Kozánis"
  },
  {
    "source_id": "ChIJ11Pa1wstWBMRTomjE1VAxuA",
    "name": "ΚΑΝΤΑΡΤΖΗΣ ΙΟΡΔΑΝΗΣ",
    "category": "ΚΑΝΤΑΡΤΖΗΣ ΙΟΡΔΑΝΗΣ",
    "formatted_address": "5,0(8)",
    "phone_number": "+306979442430",
    "source_url": "https://www.google.com/maps/place/%CE%9A%CE%91%CE%9D%CE%A4%CE%91%CE%A1%CE%A4%CE%96%CE%97%CE%A3+%CE%99%CE%9F%CE%A1%CE%94%CE%91%CE%9D%CE%97%CE%A3/data=!4m7!3m6!1s0x13582d0bd7da53d7:0xe0c6405513a3894e!8m2!3d40.2900499!4d21.8674505!16s%2Fg%2F11xfpwxx46!19sChIJ11Pa1wstWBMRTomjE1VAxuA?authuser=0&hl=tr&rclk=1",
    "website_url": "",
    "rating_text": "5,0",
    "stars": null,
    "number_of_reviews": null,
    "price_level": "",
    "open_hours": "",
    "extraction_timestamp": "2025-06-07T15:28:00.404Z",
    "source_name": "google",
    "source_query": "Irrigation Equipment",
    "source_country": "GR",
    "country": "Greece",
    "state": "West Macedonia Region",
    "city": "Nomós Kozánis"
  },
  {
    "source_id": "ChIJ3aDk-898VxMRnDM-x4dPsGU",
    "name": "KOTSIDIS PANAGIOTIS",
    "category": "KOTSIDIS PANAGIOTIS",
    "formatted_address": "4,6(50)",
    "phone_number": "+302463029890",
    "source_url": "https://www.google.com/maps/place/KOTSIDIS+PANAGIOTIS/data=!4m7!3m6!1s0x13577ccffbe4a0dd:0x65b04f87c73e339c!8m2!3d40.514594!4d21.6775865!16s%2Fg%2F1trzm74z!19sChIJ3aDk-898VxMRnDM-x4dPsGU?authuser=0&hl=tr&rclk=1",
    "website_url": "",
    "rating_text": "4,6",
    "stars": null,
    "number_of_reviews": null,
    "price_level": "",
    "open_hours": "",
    "extraction_timestamp": "2025-06-07T15:28:00.405Z",
    "source_name": "google",
    "source_query": "Irrigation Equipment",
    "source_country": "GR",
    "country": "Greece",
    "state": "West Macedonia Region",
    "city": "Nomós Kozánis"
  },
  {
    "source_id": "ChIJucEBw0bTWRMRmFV725RW55I",
    "name": "Ophélia",
    "category": "Ophélia",
    "formatted_address": "4,7(59)",
    "phone_number": "+306987917071",
    "source_url": "https://www.google.com/maps/place/Oph%C3%A9lia/data=!4m7!3m6!1s0x1359d346c301c1b9:0x92e75694db7b5598!8m2!3d40.3043238!4d21.7890082!16s%2Fg%2F11mcvz5039!19sChIJucEBw0bTWRMRmFV725RW55I?authuser=0&hl=tr&rclk=1",
    "website_url": "",
    "rating_text": "4,7",
    "stars": null,
    "number_of_reviews": null,
    "price_level": "",
    "open_hours": "",
    "extraction_timestamp": "2025-06-07T15:28:00.406Z",
    "source_name": "google",
    "source_query": "Irrigation Equipment",
    "source_country": "GR",
    "country": "Greece",
    "state": "West Macedonia Region",
    "city": "Nomós Kozánis"
  },
  {
    "source_id": "ChIJ86yk3KqXWRMRrg1--33tw6M",
    "name": "Θέρμανση - Υδραυλικά Στεργιούλας",
    "category": "Θέρμανση - Υδραυλικά Στεργιούλας",
    "formatted_address": "5,0(23)",
    "phone_number": "+306945623816",
    "source_url": "https://www.google.com/maps/place/%CE%98%CE%AD%CF%81%CE%BC%CE%B1%CE%BD%CF%83%CE%B7+-+%CE%A5%CE%B4%CF%81%CE%B1%CF%85%CE%BB%CE%B9%CE%BA%CE%AC+%CE%A3%CF%84%CE%B5%CF%81%CE%B3%CE%B9%CE%BF%CF%8D%CE%BB%CE%B1%CF%82/data=!4m7!3m6!1s0x135997aadca4acf3:0xa3c3ed7dfb7e0dae!8m2!3d40.0838939!4d21.4297662!16s%2Fg%2F11gbk2wcfm!19sChIJ86yk3KqXWRMRrg1--33tw6M?authuser=0&hl=tr&rclk=1",
    "website_url": "",
    "rating_text": "5,0",
    "stars": null,
    "number_of_reviews": null,
    "price_level": "",
    "open_hours": "",
    "extraction_timestamp": "2025-06-07T15:28:00.407Z",
    "source_name": "google",
    "source_query": "Irrigation Equipment",
    "source_country": "GR",
    "country": "Greece",
    "state": "West Macedonia Region",
    "city": "Nomós Kozánis"
  },
  {
    "source_id": "ChIJNeGDTyv9WRMRtiugZ20ODZg",
    "name": "ΚΑΡΑΓΕΩΡΓΙΑΔΗΣ ΒΑΣΙΛΗΣ - Η ΛΥΣΗ ΣΤΟ ΠΡΟΒΛΗΜΑ ΣΑΣ",
    "category": "ΚΑΡΑΓΕΩΡΓΙΑΔΗΣ ΒΑΣΙΛΗΣ - Η ΛΥΣΗ ΣΤΟ ΠΡΟΒΛΗΜΑ ΣΑΣ",
    "formatted_address": "3,8(11)",
    "phone_number": "+306947304227",
    "source_url": "https://www.google.com/maps/place/%CE%9A%CE%91%CE%A1%CE%91%CE%93%CE%95%CE%A9%CE%A1%CE%93%CE%99%CE%91%CE%94%CE%97%CE%A3+%CE%92%CE%91%CE%A3%CE%99%CE%9B%CE%97%CE%A3+-+%CE%97+%CE%9B%CE%A5%CE%A3%CE%97+%CE%A3%CE%A4%CE%9F+%CE%A0%CE%A1%CE%9F%CE%92%CE%9B%CE%97%CE%9C%CE%91+%CE%A3%CE%91%CE%A3/data=!4m7!3m6!1s0x1359fd2b4f83e135:0x980d0e6d67a02bb6!8m2!3d40.2308423!4d21.47931!16s%2Fg%2F11h4nbl66s!19sChIJNeGDTyv9WRMRtiugZ20ODZg?authuser=0&hl=tr&rclk=1",
    "website_url": "",
    "rating_text": "3,8",
    "stars": null,
    "number_of_reviews": null,
    "price_level": "",
    "open_hours": "",
    "extraction_timestamp": "2025-06-07T15:28:00.409Z",
    "source_name": "google",
    "source_query": "Irrigation Equipment",
    "source_country": "GR",
    "country": "Greece",
    "state": "West Macedonia Region",
    "city": "Nomós Kozánis"
  },
  {
    "source_id": "ChIJbWCfMG7SWRMR6YmkJmDy6Zk",
    "name": "LIMNIDIS SA",
    "category": "LIMNIDIS SA",
    "formatted_address": "4,2(143)",
    "phone_number": "+302461036459",
    "source_url": "https://www.google.com/maps/place/LIMNIDIS+SA/data=!4m7!3m6!1s0x1359d26e309f606d:0x99e9f26026a489e9!8m2!3d40.312418!4d21.823408!16s%2Fg%2F1thv2430!19sChIJbWCfMG7SWRMR6YmkJmDy6Zk?authuser=0&hl=tr&rclk=1",
    "website_url": "",
    "rating_text": "4,2",
    "stars": null,
    "number_of_reviews": null,
    "price_level": "",
    "open_hours": "",
    "extraction_timestamp": "2025-06-07T15:28:00.410Z",
    "source_name": "google",
    "source_query": "Irrigation Equipment",
    "source_country": "GR",
    "country": "Greece",
    "state": "West Macedonia Region",
    "city": "Nomós Kozánis"
  },
  {
    "source_id": "ChIJTYaybO7tWRMRuGeBgx8KyaI",
    "name": "Υδραυλικά \" Καπέσιος\"",
    "category": "Υδραυλικά \" Καπέσιος\"",
    "formatted_address": "5,0(1)",
    "phone_number": "+302468031254",
    "source_url": "https://www.google.com/maps/place/%CE%A5%CE%B4%CF%81%CE%B1%CF%85%CE%BB%CE%B9%CE%BA%CE%AC+%22+%CE%9A%CE%B1%CF%80%CE%AD%CF%83%CE%B9%CE%BF%CF%82%22/data=!4m7!3m6!1s0x1359edee6cb2864d:0xa2c90a1f838167b8!8m2!3d40.2622531!4d21.3235915!16s%2Fg%2F11fkwcwnkt!19sChIJTYaybO7tWRMRuGeBgx8KyaI?authuser=0&hl=tr&rclk=1",
    "website_url": "",
    "rating_text": "5,0",
    "stars": null,
    "number_of_reviews": null,
    "price_level": "",
    "open_hours": "",
    "extraction_timestamp": "2025-06-07T15:28:00.411Z",
    "source_name": "google",
    "source_query": "Irrigation Equipment",
    "source_country": "GR",
    "country": "Greece",
    "state": "West Macedonia Region",
    "city": "Nomós Kozánis"
  },
  {
    "source_id": "ChIJjzhrotp8VxMRAD75N75a3_g",
    "name": "Kotsidis Chryssovalantis",
    "category": "Kotsidis Chryssovalantis",
    "formatted_address": "4,8(21)",
    "phone_number": "+302463029234",
    "source_url": "https://www.google.com/maps/place/Kotsidis+Chryssovalantis/data=!4m7!3m6!1s0x13577cdaa26b388f:0xf8df5abe37f93e00!8m2!3d40.5126148!4d21.6674627!16s%2Fg%2F11h028snx!19sChIJjzhrotp8VxMRAD75N75a3_g?authuser=0&hl=tr&rclk=1",
    "website_url": "",
    "rating_text": "4,8",
    "stars": null,
    "number_of_reviews": null,
    "price_level": "",
    "open_hours": "",
    "extraction_timestamp": "2025-06-07T15:28:00.412Z",
    "source_name": "google",
    "source_query": "Irrigation Equipment",
    "source_country": "GR",
    "country": "Greece",
    "state": "West Macedonia Region",
    "city": "Nomós Kozánis"
  },
  {
    "source_id": "ChIJw_Lh3yR9VxMRiliPg3yXEko",
    "name": "ΑΘΑΝΑΣΙΟΣ ΒΛΑΧΟΔΗΜΟΣ ΤΟΥ ΚΩΝΣΤΑΝΤΙΝΟΥ",
    "category": "ΑΘΑΝΑΣΙΟΣ ΒΛΑΧΟΔΗΜΟΣ ΤΟΥ ΚΩΝΣΤΑΝΤΙΝΟΥ",
    "formatted_address": "5,0(4)",
    "phone_number": "+306973001138",
    "source_url": "https://www.google.com/maps/place/%CE%91%CE%98%CE%91%CE%9D%CE%91%CE%A3%CE%99%CE%9F%CE%A3+%CE%92%CE%9B%CE%91%CE%A7%CE%9F%CE%94%CE%97%CE%9C%CE%9F%CE%A3+%CE%A4%CE%9F%CE%A5+%CE%9A%CE%A9%CE%9D%CE%A3%CE%A4%CE%91%CE%9D%CE%A4%CE%99%CE%9D%CE%9F%CE%A5/data=!4m7!3m6!1s0x13577d24dfe1f2c3:0x4a12977c838f588a!8m2!3d40.5131261!4d21.6818395!16s%2Fg%2F11jzj8k9qv!19sChIJw_Lh3yR9VxMRiliPg3yXEko?authuser=0&hl=tr&rclk=1",
    "website_url": "",
    "rating_text": "5,0",
    "stars": null,
    "number_of_reviews": null,
    "price_level": "",
    "open_hours": "",
    "extraction_timestamp": "2025-06-07T15:28:00.413Z",
    "source_name": "google",
    "source_query": "Irrigation Equipment",
    "source_country": "GR",
    "country": "Greece",
    "state": "West Macedonia Region",
    "city": "Nomós Kozánis"
  },
  {
    "source_id": "ChIJW4WWtGjTWRMR69of4pOppqA",
    "name": "Siamidou Paraskevi \"Ydrodomi\"",
    "category": "Siamidou Paraskevi \"Ydrodomi\"",
    "formatted_address": "5,0(1)",
    "phone_number": "+302461092527",
    "source_url": "https://www.google.com/maps/place/Siamidou+Paraskevi+%22Ydrodomi%22/data=!4m7!3m6!1s0x1359d368b496855b:0xa0a6a993e21fdaeb!8m2!3d40.347247!4d21.827896!16s%2Fg%2F11h168wz4!19sChIJW4WWtGjTWRMR69of4pOppqA?authuser=0&hl=tr&rclk=1",
    "website_url": "",
    "rating_text": "5,0",
    "stars": null,
    "number_of_reviews": null,
    "price_level": "",
    "open_hours": "",
    "extraction_timestamp": "2025-06-07T15:28:00.414Z",
    "source_name": "google",
    "source_query": "Irrigation Equipment",
    "source_country": "GR",
    "country": "Greece",
    "state": "West Macedonia Region",
    "city": "Nomós Kozánis"
  },
  {
    "source_id": "ChIJtTzxxbN9VxMREIprHUJClwU",
    "name": "Ιωσηφίδης Χάρης ΥΔΡΑΥΛΙΚΑ",
    "category": "Ιωσηφίδης Χάρης ΥΔΡΑΥΛΙΚΑ",
    "formatted_address": "5,0(9)",
    "phone_number": "+306947844498",
    "source_url": "https://www.google.com/maps/place/%CE%99%CF%89%CF%83%CE%B7%CF%86%CE%AF%CE%B4%CE%B7%CF%82+%CE%A7%CE%AC%CF%81%CE%B7%CF%82+%CE%A5%CE%94%CE%A1%CE%91%CE%A5%CE%9B%CE%99%CE%9A%CE%91/data=!4m7!3m6!1s0x13577db3c5f13cb5:0x59742421d6b8a10!8m2!3d40.5094012!4d21.6747258!16s%2Fg%2F11krkdyrky!19sChIJtTzxxbN9VxMREIprHUJClwU?authuser=0&hl=tr&rclk=1",
    "website_url": "",
    "rating_text": "5,0",
    "stars": null,
    "number_of_reviews": null,
    "price_level": "",
    "open_hours": "",
    "extraction_timestamp": "2025-06-07T15:28:00.415Z",
    "source_name": "google",
    "source_query": "Irrigation Equipment",
    "source_country": "GR",
    "country": "Greece",
    "state": "West Macedonia Region",
    "city": "Nomós Kozánis"
  },
  {
    "source_id": "ChIJFYFjxqfTWRMR7o7nQA9VWfE",
    "name": "Zōophárma",
    "category": "Zōophárma",
    "formatted_address": "4,9(15)",
    "phone_number": "+302461026356",
    "source_url": "https://www.google.com/maps/place/Z%C5%8Doph%C3%A1rma/data=!4m7!3m6!1s0x1359d3a7c6638115:0xf159550f40e78eee!8m2!3d40.3055896!4d21.7898038!16s%2Fg%2F11qnlk8czq!19sChIJFYFjxqfTWRMR7o7nQA9VWfE?authuser=0&hl=tr&rclk=1",
    "website_url": "",
    "rating_text": "4,9",
    "stars": null,
    "number_of_reviews": null,
    "price_level": "",
    "open_hours": "",
    "extraction_timestamp": "2025-06-07T15:28:00.416Z",
    "source_name": "google",
    "source_query": "Irrigation Equipment",
    "source_country": "GR",
    "country": "Greece",
    "state": "West Macedonia Region",
    "city": "Nomós Kozánis"
  },
  {
    "source_id": "ChIJhWjwfsIVVBMRRLnszbZbxUk",
    "name": "Irrigationpro",
    "category": "Irrigationpro",
    "formatted_address": "5,0(1)",
    "phone_number": "+38970401147",
    "source_url": "https://www.google.com/maps/place/Irrigationpro/data=!4m7!3m6!1s0x135415c27ef06885:0x49c55bb6cdecb944!8m2!3d41.9907145!4d21.4371336!16s%2Fg%2F11h27mkf2n!19sChIJhWjwfsIVVBMRRLnszbZbxUk?authuser=0&hl=tr&rclk=1",
    "website_url": "",
    "rating_text": "5,0",
    "stars": null,
    "number_of_reviews": null,
    "price_level": "",
    "open_hours": "",
    "extraction_timestamp": "2025-06-07T15:28:00.417Z",
    "source_name": "google",
    "source_query": "Irrigation Equipment",
    "source_country": "GR",
    "country": "Greece",
    "state": "West Macedonia Region",
    "city": "Nomós Kozánis"
  },
  {
    "source_id": "ChIJa1A0aOXSWRMR-HEOPxrePY8",
    "name": "FUNNY BUNNY",
    "category": "FUNNY BUNNY",
    "formatted_address": "4,6(213)",
    "phone_number": "+302311113611",
    "source_url": "https://www.google.com/maps/place/FUNNY+BUNNY/data=!4m7!3m6!1s0x1359d2e56834506b:0x8f3dde1a3f0e71f8!8m2!3d40.312107!4d21.8235187!16s%2Fg%2F11c1wzp80b!19sChIJa1A0aOXSWRMR-HEOPxrePY8?authuser=0&hl=tr&rclk=1",
    "website_url": "",
    "rating_text": "4,6",
    "stars": null,
    "number_of_reviews": null,
    "price_level": "",
    "open_hours": "",
    "extraction_timestamp": "2025-06-07T15:28:00.419Z",
    "source_name": "google",
    "source_query": "Irrigation Equipment",
    "source_country": "GR",
    "country": "Greece",
    "state": "West Macedonia Region",
    "city": "Nomós Kozánis"
  },
  {
    "source_id": "ChIJ6VIlOXStCWYRnLy_fVci9aQ",
    "name": "Στυλιανός Κων. Κικίδης",
    "category": "Στυλιανός Κων. Κικίδης",
    "formatted_address": "5,0(7)",
    "phone_number": "+306975712940",
    "source_url": "https://www.google.com/maps/place/%CE%A3%CF%84%CF%85%CE%BB%CE%B9%CE%B1%CE%BD%CF%8C%CF%82+%CE%9A%CF%89%CE%BD.+%CE%9A%CE%B9%CE%BA%CE%AF%CE%B4%CE%B7%CF%82/data=!4m7!3m6!1s0x6609ad74392552e9:0xa4f522577dbfbc9c!8m2!3d40.3310233!4d21.6294594!16s%2Fg%2F11s8w7rg6r!19sChIJ6VIlOXStCWYRnLy_fVci9aQ?authuser=0&hl=tr&rclk=1",
    "website_url": "",
    "rating_text": "5,0",
    "stars": null,
    "number_of_reviews": null,
    "price_level": "",
    "open_hours": "",
    "extraction_timestamp": "2025-06-07T15:28:00.420Z",
    "source_name": "google",
    "source_query": "Irrigation Equipment",
    "source_country": "GR",
    "country": "Greece",
    "state": "West Macedonia Region",
    "city": "Nomós Kozánis"
  },
  {
    "source_id": "ChIJP6mV10R_WBMRmKs2kVzQQL0",
    "name": "ADRITEC EUROPE S.A.",
    "category": "ADRITEC EUROPE S.A.",
    "formatted_address": "4,6(20)",
    "phone_number": "+302410975170",
    "source_url": "https://www.google.com/maps/place/ADRITEC+EUROPE+S.A./data=!4m7!3m6!1s0x13587f44d795a93f:0xbd40d05c9136ab98!8m2!3d39.6762619!4d22.5489292!16s%2Fg%2F11_qtp7mx!19sChIJP6mV10R_WBMRmKs2kVzQQL0?authuser=0&hl=tr&rclk=1",
    "website_url": "",
    "rating_text": "4,6",
    "stars": null,
    "number_of_reviews": null,
    "price_level": "",
    "open_hours": "",
    "extraction_timestamp": "2025-06-07T15:28:00.420Z",
    "source_name": "google",
    "source_query": "Irrigation Equipment",
    "source_country": "GR",
    "country": "Greece",
    "state": "West Macedonia Region",
    "city": "Nomós Kozánis"
  },
  {
    "source_id": "ChIJjWDTbWXTWRMRlBnI0Nns39I",
    "name": "Mikel Spot",
    "category": "Mikel Spot",
    "formatted_address": "4,5(80) · €1–5",
    "phone_number": "",
    "source_url": "https://www.google.com/maps/place/Mikel+Spot/data=!4m7!3m6!1s0x1359d3656dd3608d:0xd2dfecd9d0c81994!8m2!3d40.3086853!4d21.7855625!16s%2Fg%2F11ll2pbyy8!19sChIJjWDTbWXTWRMRlBnI0Nns39I?authuser=0&hl=tr&rclk=1",
    "website_url": "",
    "rating_text": "4,5",
    "stars": null,
    "number_of_reviews": null,
    "price_level": "",
    "open_hours": "",
    "extraction_timestamp": "2025-06-07T15:28:00.421Z",
    "source_name": "google",
    "source_query": "Irrigation Equipment",
    "source_country": "GR",
    "country": "Greece",
    "state": "West Macedonia Region",
    "city": "Nomós Kozánis"
  },
  {
    "source_id": "ChIJUzhakLvTWRMRqspynQaL9B0",
    "name": "Take a Stick",
    "category": "Take a Stick",
    "formatted_address": "5,0(21) · €1–5",
    "phone_number": "+302461181390",
    "source_url": "https://www.google.com/maps/place/Take+a+Stick/data=!4m7!3m6!1s0x1359d3bb905a3853:0x1df48b069d72caaa!8m2!3d40.3010314!4d21.7853126!16s%2Fg%2F11kpt6bzcc!19sChIJUzhakLvTWRMRqspynQaL9B0?authuser=0&hl=tr&rclk=1",
    "website_url": "",
    "rating_text": "5,0",
    "stars": null,
    "number_of_reviews": null,
    "price_level": "",
    "open_hours": "",
    "extraction_timestamp": "2025-06-07T15:28:00.423Z",
    "source_name": "google",
    "source_query": "Irrigation Equipment",
    "source_country": "GR",
    "country": "Greece",
    "state": "West Macedonia Region",
    "city": "Nomós Kozánis"
  },
  {
    "source_id": "ChIJ0wkjRoILVxMRpbhQnW4TuxI",
    "name": "sweet 'n salty",
    "category": "sweet 'n salty",
    "formatted_address": "4,9(48)",
    "phone_number": "+302381031744",
    "source_url": "https://www.google.com/maps/place/sweet+%27n+salty/data=!4m7!3m6!1s0x13570b82462309d3:0x12bb136e9d50b8a5!8m2!3d40.7948934!4d21.8354647!16s%2Fg%2F11tcmkt230!19sChIJ0wkjRoILVxMRpbhQnW4TuxI?authuser=0&hl=tr&rclk=1",
    "website_url": "",
    "rating_text": "4,9",
    "stars": null,
    "number_of_reviews": null,
    "price_level": "",
    "open_hours": "",
    "extraction_timestamp": "2025-06-07T15:28:00.424Z",
    "source_name": "google",
    "source_query": "Irrigation Equipment",
    "source_country": "GR",
    "country": "Greece",
    "state": "West Macedonia Region",
    "city": "Nomós Kozánis"
  },
  {
    "source_id": "ChIJQ3DXWKXTWRMRGaATytXIiZY",
    "name": "Bangélēs",
    "category": "Bangélēs",
    "formatted_address": "4,9(13) · €1–5",
    "phone_number": "+302461300764",
    "source_url": "https://www.google.com/maps/place/Bang%C3%A9l%C4%93s/data=!4m7!3m6!1s0x1359d3a558d77043:0x9689c8d5ca13a019!8m2!3d40.3310309!4d21.789625!16s%2Fg%2F11vyg037dg!19sChIJQ3DXWKXTWRMRGaATytXIiZY?authuser=0&hl=tr&rclk=1",
    "website_url": "",
    "rating_text": "4,9",
    "stars": null,
    "number_of_reviews": null,
    "price_level": "",
    "open_hours": "",
    "extraction_timestamp": "2025-06-07T15:28:00.424Z",
    "source_name": "google",
    "source_query": "Irrigation Equipment",
    "source_country": "GR",
    "country": "Greece",
    "state": "West Macedonia Region",
    "city": "Nomós Kozánis"
  },
  {
    "source_id": "ChIJP4rAkt4LVxMRZDayPhtO2z4",
    "name": "Coupa Coffee",
    "category": "Coupa Coffee",
    "formatted_address": "4,9(41) · €1–5",
    "phone_number": "+302381031869",
    "source_url": "https://www.google.com/maps/place/Coupa+Coffee/data=!4m7!3m6!1s0x13570bde92c08a3f:0x3edb4e1b3eb23664!8m2!3d40.7961888!4d21.8329849!16s%2Fg%2F11sx6_wkz2!19sChIJP4rAkt4LVxMRZDayPhtO2z4?authuser=0&hl=tr&rclk=1",
    "website_url": "",
    "rating_text": "4,9",
    "stars": null,
    "number_of_reviews": null,
    "price_level": "",
    "open_hours": "",
    "extraction_timestamp": "2025-06-07T15:28:00.426Z",
    "source_name": "google",
    "source_query": "Irrigation Equipment",
    "source_country": "GR",
    "country": "Greece",
    "state": "West Macedonia Region",
    "city": "Nomós Kozánis"
  },
  {
    "source_id": "ChIJZVcRJRoCWBMRrXNMNo3Oi8Q",
    "name": "Zootrofika PetShop",
    "category": "Zootrofika PetShop",
    "formatted_address": "4,8(88)",
    "phone_number": "+302351027050",
    "source_url": "https://www.google.com/maps/place/Zootrofika+PetShop/data=!4m7!3m6!1s0x1358021a25115765:0xc48bce8d364c73ad!8m2!3d40.2837661!4d22.5134994!16s%2Fg%2F11c1xm7hly!19sChIJZVcRJRoCWBMRrXNMNo3Oi8Q?authuser=0&hl=tr&rclk=1",
    "website_url": "",
    "rating_text": "4,8",
    "stars": null,
    "number_of_reviews": null,
    "price_level": "",
    "open_hours": "",
    "extraction_timestamp": "2025-06-07T15:28:00.426Z",
    "source_name": "google",
    "source_query": "Irrigation Equipment",
    "source_country": "GR",
    "country": "Greece",
    "state": "West Macedonia Region",
    "city": "Nomós Kozánis"
  },
  {
    "source_id": "ChIJjR-7GwXTWRMRwIGbj3HAPpA",
    "name": "Kafenaidaki",
    "category": "Kafenaidaki",
    "formatted_address": "4,8(12)",
    "phone_number": "+302461021751",
    "source_url": "https://www.google.com/maps/place/Kafenaidaki/data=!4m7!3m6!1s0x1359d3051bbb1f8d:0x903ec0718f9b81c0!8m2!3d40.2976893!4d21.7861691!16s%2Fg%2F11rfn3lq1h!19sChIJjR-7GwXTWRMRwIGbj3HAPpA?authuser=0&hl=tr&rclk=1",
    "website_url": "",
    "rating_text": "4,8",
    "stars": null,
    "number_of_reviews": null,
    "price_level": "",
    "open_hours": "",
    "extraction_timestamp": "2025-06-07T15:28:00.427Z",
    "source_name": "google",
    "source_query": "Irrigation Equipment",
    "source_country": "GR",
    "country": "Greece",
    "state": "West Macedonia Region",
    "city": "Nomós Kozánis"
  },
  {
    "source_id": "ChIJDUXw_GXTWRMROlZhQbgV04s",
    "name": "Royal Bean",
    "category": "Royal Bean",
    "formatted_address": "4,8(125) · €1–5",
    "phone_number": "+302461308144",
    "source_url": "https://www.google.com/maps/place/Royal+Bean/data=!4m7!3m6!1s0x1359d365fcf0450d:0x8bd315b84161563a!8m2!3d40.3026533!4d21.8004812!16s%2Fg%2F11n1ncbsq6!19sChIJDUXw_GXTWRMROlZhQbgV04s?authuser=0&hl=tr&rclk=1",
    "website_url": "",
    "rating_text": "4,8",
    "stars": null,
    "number_of_reviews": null,
    "price_level": "",
    "open_hours": "",
    "extraction_timestamp": "2025-06-07T15:28:00.429Z",
    "source_name": "google",
    "source_query": "Irrigation Equipment",
    "source_country": "GR",
    "country": "Greece",
    "state": "West Macedonia Region",
    "city": "Nomós Kozánis"
  },
  {
    "source_id": "ChIJM-8EC9EJVxMRwwGJRHThFLM",
    "name": "ΠΑΝΤΟΠΩΛΕΙΟ \"ΧΟΡΟΜ\"",
    "category": "ΠΑΝΤΟΠΩΛΕΙΟ \"ΧΟΡΟΜ\"",
    "formatted_address": "4,5(22)",
    "phone_number": "+302381034317",
    "source_url": "https://www.google.com/maps/place/%CE%A0%CE%91%CE%9D%CE%A4%CE%9F%CE%A0%CE%A9%CE%9B%CE%95%CE%99%CE%9F+%22%CE%A7%CE%9F%CE%A1%CE%9F%CE%9C%22/data=!4m7!3m6!1s0x135709d10b04ef33:0xb314e174448901c3!8m2!3d40.8520091!4d21.8486567!16s%2Fg%2F1pv0bcs1k!19sChIJM-8EC9EJVxMRwwGJRHThFLM?authuser=0&hl=tr&rclk=1",
    "website_url": "",
    "rating_text": "4,5",
    "stars": null,
    "number_of_reviews": null,
    "price_level": "",
    "open_hours": "",
    "extraction_timestamp": "2025-06-07T15:28:00.429Z",
    "source_name": "google",
    "source_query": "Irrigation Equipment",
    "source_country": "GR",
    "country": "Greece",
    "state": "West Macedonia Region",
    "city": "Nomós Kozánis"
  },
  {
    "source_id": "ChIJZ1J8yt3RWRMRo6uKKY1FyEM",
    "name": "Mastranestis SA",
    "category": "Mastranestis SA",
    "formatted_address": "4,7(43)",
    "phone_number": "+302461037632",
    "source_url": "https://www.google.com/maps/place/Mastranestis+SA/data=!4m7!3m6!1s0x1359d1ddca7c5267:0x43c8458d298aaba3!8m2!3d40.3054275!4d21.7337741!16s%2Fg%2F11bx9csq1n!19sChIJZ1J8yt3RWRMRo6uKKY1FyEM?authuser=0&hl=tr&rclk=1",
    "website_url": "",
    "rating_text": "4,7",
    "stars": null,
    "number_of_reviews": null,
    "price_level": "",
    "open_hours": "",
    "extraction_timestamp": "2025-06-07T15:28:00.430Z",
    "source_name": "google",
    "source_query": "Irrigation Equipment",
    "source_country": "GR",
    "country": "Greece",
    "state": "West Macedonia Region",
    "city": "Nomós Kozánis"
  },
  {
    "source_id": "ChIJXWa0E-LDWRMRDpeDhhJklFQ",
    "name": "ΠΕΡΙΠΤΕΡΟ:ΘΕΟΔΩΡΟΥ- ΑΝΤΙΓΟΝΗ-ΚΛΕΙΣΙΑΡΗ-ΜΠΑΛΑΡΑ",
    "category": "ΠΕΡΙΠΤΕΡΟ:ΘΕΟΔΩΡΟΥ- ΑΝΤΙΓΟΝΗ-ΚΛΕΙΣΙΑΡΗ-ΜΠΑΛΑΡΑ",
    "formatted_address": "5,0(2)",
    "phone_number": "",
    "source_url": "https://www.google.com/maps/place/%CE%A0%CE%95%CE%A1%CE%99%CE%A0%CE%A4%CE%95%CE%A1%CE%9F:%CE%98%CE%95%CE%9F%CE%94%CE%A9%CE%A1%CE%9F%CE%A5-+%CE%91%CE%9D%CE%A4%CE%99%CE%93%CE%9F%CE%9D%CE%97-%CE%9A%CE%9B%CE%95%CE%99%CE%A3%CE%99%CE%91%CE%A1%CE%97-%CE%9C%CE%A0%CE%91%CE%9B%CE%91%CE%A1%CE%91/data=!4m7!3m6!1s0x1359c3e213b4665d:0x549464128683970e!8m2!3d40.2569243!4d21.5540402!16s%2Fg%2F11g9jn50qs!19sChIJXWa0E-LDWRMRDpeDhhJklFQ?authuser=0&hl=tr&rclk=1",
    "website_url": "",
    "rating_text": "5,0",
    "stars": null,
    "number_of_reviews": null,
    "price_level": "",
    "open_hours": "",
    "extraction_timestamp": "2025-06-07T15:28:38.272Z",
    "source_name": "google",
    "source_query": "Irrigation Equipment",
    "source_country": "GR",
    "country": "Greece",
    "state": "West Macedonia Region",
    "city": "Siátista"
  },
  {
    "source_id": "ChIJP6mV10R_WBMRmKs2kVzQQL0",
    "name": "ADRITEC EUROPE S.A.",
    "category": "ADRITEC EUROPE S.A.",
    "formatted_address": "4,6(20)",
    "phone_number": "+302410975170",
    "source_url": "https://www.google.com/maps/place/ADRITEC+EUROPE+S.A./data=!4m7!3m6!1s0x13587f44d795a93f:0xbd40d05c9136ab98!8m2!3d39.6762619!4d22.5489292!16s%2Fg%2F11_qtp7mx!19sChIJP6mV10R_WBMRmKs2kVzQQL0?authuser=0&hl=tr&rclk=1",
    "website_url": "https://www.adriteceurope.gr/",
    "rating_text": "4,6",
    "stars": null,
    "number_of_reviews": null,
    "price_level": "",
    "open_hours": "",
    "extraction_timestamp": "2025-06-07T15:28:38.275Z",
    "source_name": "google",
    "source_query": "Irrigation Equipment",
    "source_country": "GR",
    "country": "Greece",
    "state": "West Macedonia Region",
    "city": "Siátista"
  },
  {
    "source_id": "ChIJkRt8Pd7DWRMR8WOhj62v6JU",
    "name": "ΓΚΑΓΚΑΣΟΥΛΗΣ MARKET",
    "category": "ΓΚΑΓΚΑΣΟΥΛΗΣ MARKET",
    "formatted_address": "4,5(14)",
    "phone_number": "+302465021730",
    "source_url": "https://www.google.com/maps/place/%CE%93%CE%9A%CE%91%CE%93%CE%9A%CE%91%CE%A3%CE%9F%CE%A5%CE%9B%CE%97%CE%A3+MARKET/data=!4m7!3m6!1s0x1359c3de3d7c1b91:0x95e8afad8fa163f1!8m2!3d40.26133!4d21.5459734!16s%2Fg%2F11bt_j51pw!19sChIJkRt8Pd7DWRMR8WOhj62v6JU?authuser=0&hl=tr&rclk=1",
    "website_url": "",
    "rating_text": "4,5",
    "stars": null,
    "number_of_reviews": null,
    "price_level": "",
    "open_hours": "",
    "extraction_timestamp": "2025-06-07T15:28:38.277Z",
    "source_name": "google",
    "source_query": "Irrigation Equipment",
    "source_country": "GR",
    "country": "Greece",
    "state": "West Macedonia Region",
    "city": "Siátista"
  },
  {
    "source_id": "ChIJtTEskQzBWRMRDTyvJ2Dd1XA",
    "name": "ελληνικά market",
    "category": "ελληνικά market",
    "formatted_address": "5,0(22)",
    "phone_number": "+302465023346",
    "source_url": "https://www.google.com/maps/place/%CE%B5%CE%BB%CE%BB%CE%B7%CE%BD%CE%B9%CE%BA%CE%AC+market/data=!4m7!3m6!1s0x1359c10c912c31b5:0x70d5dd6027af3c0d!8m2!3d40.2523362!4d21.5550615!16s%2Fg%2F11h4y4xnmx!19sChIJtTEskQzBWRMRDTyvJ2Dd1XA?authuser=0&hl=tr&rclk=1",
    "website_url": "",
    "rating_text": "5,0",
    "stars": null,
    "number_of_reviews": null,
    "price_level": "",
    "open_hours": "",
    "extraction_timestamp": "2025-06-07T15:28:38.278Z",
    "source_name": "google",
    "source_query": "Irrigation Equipment",
    "source_country": "GR",
    "country": "Greece",
    "state": "West Macedonia Region",
    "city": "Siátista"
  },
  {
    "source_id": "ChIJDW05mHeZoRQRXHhD_XYglt0",
    "name": "ΑΓΡΟΔΟΜΗ - Μ. ΚΑΚΑΒΑ Ε.Ε.",
    "category": "ΑΓΡΟΔΟΜΗ - Μ. ΚΑΚΑΒΑ Ε.Ε.",
    "formatted_address": "4,7(19)",
    "phone_number": "+302106614141",
    "source_url": "https://www.google.com/maps/place/%CE%91%CE%93%CE%A1%CE%9F%CE%94%CE%9F%CE%9C%CE%97+-+%CE%9C.+%CE%9A%CE%91%CE%9A%CE%91%CE%92%CE%91+%CE%95.%CE%95./data=!4m7!3m6!1s0x14a1997798396d0d:0xdd962076fd43785c!8m2!3d38.0105257!4d23.8451325!16s%2Fg%2F1ttxf2r_!19sChIJDW05mHeZoRQRXHhD_XYglt0?authuser=0&hl=tr&rclk=1",
    "website_url": "http://www.agrodomi.gr/",
    "rating_text": "4,7",
    "stars": null,
    "number_of_reviews": null,
    "price_level": "",
    "open_hours": "",
    "extraction_timestamp": "2025-06-07T15:28:38.280Z",
    "source_name": "google",
    "source_query": "Irrigation Equipment",
    "source_country": "GR",
    "country": "Greece",
    "state": "West Macedonia Region",
    "city": "Siátista"
  },
  {
    "source_id": "ChIJdYGHPD8lqBQRqZQqWivtcXs",
    "name": "AGRODRIP S.A.",
    "category": "AGRODRIP S.A.",
    "formatted_address": "4,8(25)",
    "phone_number": "+302310796731",
    "source_url": "https://www.google.com/maps/place/AGRODRIP+S.A./data=!4m7!3m6!1s0x14a8253f3c878175:0x7b71ed2b5a2a94a9!8m2!3d40.6845245!4d22.7916908!16s%2Fg%2F1hf2l336l!19sChIJdYGHPD8lqBQRqZQqWivtcXs?authuser=0&hl=tr&rclk=1",
    "website_url": "http://www.agrodrip.gr/",
    "rating_text": "4,8",
    "stars": null,
    "number_of_reviews": null,
    "price_level": "",
    "open_hours": "",
    "extraction_timestamp": "2025-06-07T15:28:38.281Z",
    "source_name": "google",
    "source_query": "Irrigation Equipment",
    "source_country": "GR",
    "country": "Greece",
    "state": "West Macedonia Region",
    "city": "Siátista"
  },
  {
    "source_id": "ChIJE-MeUUHDWRMRaHxxwGaWDjw",
    "name": "Folk café",
    "category": "Folk café",
    "formatted_address": "4,8(28) · €1–5",
    "phone_number": "+302465301049",
    "source_url": "https://www.google.com/maps/place/Folk+caf%C3%A9/data=!4m7!3m6!1s0x1359c341511ee313:0x3c0e9666c0717c68!8m2!3d40.2597654!4d21.5507426!16s%2Fg%2F11tc8xpx94!19sChIJE-MeUUHDWRMRaHxxwGaWDjw?authuser=0&hl=tr&rclk=1",
    "website_url": "",
    "rating_text": "4,8",
    "stars": null,
    "number_of_reviews": null,
    "price_level": "",
    "open_hours": "",
    "extraction_timestamp": "2025-06-07T15:28:38.282Z",
    "source_name": "google",
    "source_query": "Irrigation Equipment",
    "source_country": "GR",
    "country": "Greece",
    "state": "West Macedonia Region",
    "city": "Siátista"
  },
  {
    "source_id": "ChIJpROts583qBQRjxHVzGML8UI",
    "name": "EVDOS S.A.",
    "category": "EVDOS S.A.",
    "formatted_address": "4,0(13)",
    "phone_number": "+302310681335",
    "source_url": "https://www.google.com/maps/place/EVDOS+S.A./data=!4m7!3m6!1s0x14a8379fb3ad13a5:0x42f10b63ccd5118f!8m2!3d40.6965937!4d22.9572893!16s%2Fg%2F1tnxz7vn!19sChIJpROts583qBQRjxHVzGML8UI?authuser=0&hl=tr&rclk=1",
    "website_url": "http://www.evdos.gr/",
    "rating_text": "4,0",
    "stars": null,
    "number_of_reviews": null,
    "price_level": "",
    "open_hours": "",
    "extraction_timestamp": "2025-06-07T15:28:38.284Z",
    "source_name": "google",
    "source_query": "Irrigation Equipment",
    "source_country": "GR",
    "country": "Greece",
    "state": "West Macedonia Region",
    "city": "Siátista"
  },
  {
    "source_id": "ChIJD8JWNXHDWRMRLOH9xku5Aqc",
    "name": "Σούπερ μάρκετ κατσικας",
    "category": "Σούπερ μάρκετ κατσικας",
    "formatted_address": "5,0(5)",
    "phone_number": "",
    "source_url": "https://www.google.com/maps/place/%CE%A3%CE%BF%CF%8D%CF%80%CE%B5%CF%81+%CE%BC%CE%AC%CF%81%CE%BA%CE%B5%CF%84+%CE%BA%CE%B1%CF%84%CF%83%CE%B9%CE%BA%CE%B1%CF%82/data=!4m7!3m6!1s0x1359c3713556c20f:0xa702b94bc6fde12c!8m2!3d40.2615204!4d21.5481269!16s%2Fg%2F11jh_k803r!19sChIJD8JWNXHDWRMRLOH9xku5Aqc?authuser=0&hl=tr&rclk=1",
    "website_url": "",
    "rating_text": "5,0",
    "stars": null,
    "number_of_reviews": null,
    "price_level": "",
    "open_hours": "",
    "extraction_timestamp": "2025-06-07T15:28:38.285Z",
    "source_name": "google",
    "source_query": "Irrigation Equipment",
    "source_country": "GR",
    "country": "Greece",
    "state": "West Macedonia Region",
    "city": "Siátista"
  },
  {
    "source_id": "ChIJDzmqRtLBWRMRUAqz7Q0GlNs",
    "name": "Animal World",
    "category": "Animal World",
    "formatted_address": "5,0(2)",
    "phone_number": "",
    "source_url": "https://www.google.com/maps/place/Animal+World/data=!4m7!3m6!1s0x1359c1d246aa390f:0xdb94060dedb30a50!8m2!3d40.2541169!4d21.5555862!16s%2Fg%2F11s2m6vbxr!19sChIJDzmqRtLBWRMRUAqz7Q0GlNs?authuser=0&hl=tr&rclk=1",
    "website_url": "",
    "rating_text": "5,0",
    "stars": null,
    "number_of_reviews": null,
    "price_level": "",
    "open_hours": "",
    "extraction_timestamp": "2025-06-07T15:28:38.286Z",
    "source_name": "google",
    "source_query": "Irrigation Equipment",
    "source_country": "GR",
    "country": "Greece",
    "state": "West Macedonia Region",
    "city": "Siátista"
  },
  {
    "source_id": "ChIJ9W0P2JjBWRMRMykrDgbHJoU",
    "name": "Elephant cafe",
    "category": "Elephant cafe",
    "formatted_address": "4,9(8)",
    "phone_number": "+302465021999",
    "source_url": "https://www.google.com/maps/place/Elephant+cafe/data=!4m7!3m6!1s0x1359c198d80f6df5:0x8526c7060e2b2933!8m2!3d40.2526124!4d21.5557396!16s%2Fg%2F11lv26blbw!19sChIJ9W0P2JjBWRMRMykrDgbHJoU?authuser=0&hl=tr&rclk=1",
    "website_url": "",
    "rating_text": "4,9",
    "stars": null,
    "number_of_reviews": null,
    "price_level": "",
    "open_hours": "",
    "extraction_timestamp": "2025-06-07T15:28:38.287Z",
    "source_name": "google",
    "source_query": "Irrigation Equipment",
    "source_country": "GR",
    "country": "Greece",
    "state": "West Macedonia Region",
    "city": "Siátista"
  },
  {
    "source_id": "ChIJq2gbs2vBWRMRzcGbUs03KeI",
    "name": "MAMALOO",
    "category": "MAMALOO",
    "formatted_address": "4,8(17) · €1–5",
    "phone_number": "+302465022540",
    "source_url": "https://www.google.com/maps/place/MAMALOO/data=!4m7!3m6!1s0x1359c16bb31b68ab:0xe22937cd529bc1cd!8m2!3d40.2525958!4d21.5561995!16s%2Fg%2F11vclnn8w6!19sChIJq2gbs2vBWRMRzcGbUs03KeI?authuser=0&hl=tr&rclk=1",
    "website_url": "",
    "rating_text": "4,8",
    "stars": null,
    "number_of_reviews": null,
    "price_level": "",
    "open_hours": "",
    "extraction_timestamp": "2025-06-07T15:28:38.288Z",
    "source_name": "google",
    "source_query": "Irrigation Equipment",
    "source_country": "GR",
    "country": "Greece",
    "state": "West Macedonia Region",
    "city": "Siátista"
  },
  {
    "source_id": "ChIJD8Yf-VDDWRMR-63sCNyw_aQ",
    "name": "ΚΡΗΤΙΚΟΣ Super market",
    "category": "ΚΡΗΤΙΚΟΣ Super market",
    "formatted_address": "4,3(83)",
    "phone_number": "+302465022663",
    "source_url": "https://www.google.com/maps/place/%CE%9A%CE%A1%CE%97%CE%A4%CE%99%CE%9A%CE%9F%CE%A3+Super+market/data=!4m7!3m6!1s0x1359c350f91fc60f:0xa4fdb0dc08ecadfb!8m2!3d40.26484!4d21.54304!16s%2Fg%2F11h1d1kw_z!19sChIJD8Yf-VDDWRMR-63sCNyw_aQ?authuser=0&hl=tr&rclk=1",
    "website_url": "http://www.kritikos-sm.gr/",
    "rating_text": "4,3",
    "stars": null,
    "number_of_reviews": null,
    "price_level": "",
    "open_hours": "",
    "extraction_timestamp": "2025-06-07T15:28:38.289Z",
    "source_name": "google",
    "source_query": "Irrigation Equipment",
    "source_country": "GR",
    "country": "Greece",
    "state": "West Macedonia Region",
    "city": "Siátista"
  },
  {
    "source_id": "ChIJk72JNzDDWRMRBx4qF1jRu3g",
    "name": "BREAKERY",
    "category": "BREAKERY",
    "formatted_address": "5,0(13) · €1–5",
    "phone_number": "+302465300991",
    "source_url": "https://www.google.com/maps/place/BREAKERY/data=!4m7!3m6!1s0x1359c3303789bd93:0x78bbd158172a1e07!8m2!3d40.2599939!4d21.5506333!16s%2Fg%2F11fwbn83r5!19sChIJk72JNzDDWRMRBx4qF1jRu3g?authuser=0&hl=tr&rclk=1",
    "website_url": "",
    "rating_text": "5,0",
    "stars": null,
    "number_of_reviews": null,
    "price_level": "",
    "open_hours": "",
    "extraction_timestamp": "2025-06-07T15:28:38.291Z",
    "source_name": "google",
    "source_query": "Irrigation Equipment",
    "source_country": "GR",
    "country": "Greece",
    "state": "West Macedonia Region",
    "city": "Siátista"
  },
  {
    "source_id": "ChIJ4cTG7Q_DWRMR7ymi-vT6TQw",
    "name": "Ώττας Αρτοποιείο",
    "category": "Ώττας Αρτοποιείο",
    "formatted_address": "5,0(32)",
    "phone_number": "+302465022211",
    "source_url": "https://www.google.com/maps/place/%CE%8F%CF%84%CF%84%CE%B1%CF%82+%CE%91%CF%81%CF%84%CE%BF%CF%80%CE%BF%CE%B9%CE%B5%CE%AF%CE%BF/data=!4m7!3m6!1s0x1359c30fedc6c4e1:0xc4dfaf4faa229ef!8m2!3d40.26399!4d21.5459087!16s%2Fg%2F11tfjlnw_q!19sChIJ4cTG7Q_DWRMR7ymi-vT6TQw?authuser=0&hl=tr&rclk=1",
    "website_url": "",
    "rating_text": "5,0",
    "stars": null,
    "number_of_reviews": null,
    "price_level": "",
    "open_hours": "",
    "extraction_timestamp": "2025-06-07T15:28:38.292Z",
    "source_name": "google",
    "source_query": "Irrigation Equipment",
    "source_country": "GR",
    "country": "Greece",
    "state": "West Macedonia Region",
    "city": "Siátista"
  },
  {
    "source_id": "ChIJg5kQZ1F7WBMRMAG2pKLdIZQ",
    "name": "ΕΛΓΕΚ-ΠΑΣΙΑΣ ΧΡΥΣΟΒΑΛΑΝΤΗΣ ΜΟΝ ΙΚΕ",
    "category": "ΕΛΓΕΚ-ΠΑΣΙΑΣ ΧΡΥΣΟΒΑΛΑΝΤΗΣ ΜΟΝ ΙΚΕ",
    "formatted_address": "5,0(9)",
    "phone_number": "+302410541071",
    "source_url": "https://www.google.com/maps/place/%CE%95%CE%9B%CE%93%CE%95%CE%9A-%CE%A0%CE%91%CE%A3%CE%99%CE%91%CE%A3+%CE%A7%CE%A1%CE%A5%CE%A3%CE%9F%CE%92%CE%91%CE%9B%CE%91%CE%9D%CE%A4%CE%97%CE%A3+%CE%9C%CE%9F%CE%9D+%CE%99%CE%9A%CE%95/data=!4m7!3m6!1s0x13587b5167109983:0x9421dda2a4b60130!8m2!3d39.7663188!4d22.4902543!16s%2Fg%2F11fcr5ty4m!19sChIJg5kQZ1F7WBMRMAG2pKLdIZQ?authuser=0&hl=tr&rclk=1",
    "website_url": "http://elgekirrigation.com/",
    "rating_text": "5,0",
    "stars": null,
    "number_of_reviews": null,
    "price_level": "",
    "open_hours": "",
    "extraction_timestamp": "2025-06-07T15:28:38.293Z",
    "source_name": "google",
    "source_query": "Irrigation Equipment",
    "source_country": "GR",
    "country": "Greece",
    "state": "West Macedonia Region",
    "city": "Siátista"
  },
  {
    "source_id": "ChIJE6gAClnBWRMR2D3JkWz9V_8",
    "name": "CAFE ALEX",
    "category": "CAFE ALEX",
    "formatted_address": "4,2(33) · ₺",
    "phone_number": "+302465300750",
    "source_url": "https://www.google.com/maps/place/CAFE+ALEX/data=!4m7!3m6!1s0x1359c1590a00a813:0xff57fd6c91c93dd8!8m2!3d40.2525717!4d21.5561182!16s%2Fg%2F11bwydf8n7!19sChIJE6gAClnBWRMR2D3JkWz9V_8?authuser=0&hl=tr&rclk=1",
    "website_url": "",
    "rating_text": "4,2",
    "stars": null,
    "number_of_reviews": null,
    "price_level": "",
    "open_hours": "",
    "extraction_timestamp": "2025-06-07T15:28:38.294Z",
    "source_name": "google",
    "source_query": "Irrigation Equipment",
    "source_country": "GR",
    "country": "Greece",
    "state": "West Macedonia Region",
    "city": "Siátista"
  },
  {
    "source_id": "ChIJAQAAAEwlqBQRswZf5OGi7O0",
    "name": "DROP Κiosidis S.A.",
    "category": "DROP Κiosidis S.A.",
    "formatted_address": "5,0(12)",
    "phone_number": "+302310798487",
    "source_url": "https://www.google.com/maps/place/DROP+%CE%9Aiosidis+S.A./data=!4m7!3m6!1s0x14a8254c00000001:0xedeca2e1e45f06b3!8m2!3d40.681201!4d22.808324!16s%2Fg%2F11gzh4s7m!19sChIJAQAAAEwlqBQRswZf5OGi7O0?authuser=0&hl=tr&rclk=1",
    "website_url": "https://www.drop.gr/about-us/",
    "rating_text": "5,0",
    "stars": null,
    "number_of_reviews": null,
    "price_level": "",
    "open_hours": "",
    "extraction_timestamp": "2025-06-07T15:28:38.295Z",
    "source_name": "google",
    "source_query": "Irrigation Equipment",
    "source_country": "GR",
    "country": "Greece",
    "state": "West Macedonia Region",
    "city": "Siátista"
  },
  {
    "source_id": "ChIJveef2LXDWRMRdu-SnJxKWO4",
    "name": "Super Market ΛΑΓΓΑΣ",
    "category": "Super Market ΛΑΓΓΑΣ",
    "formatted_address": "4,8(4)",
    "phone_number": "+302465021219",
    "source_url": "https://www.google.com/maps/place/Super+Market+%CE%9B%CE%91%CE%93%CE%93%CE%91%CE%A3/data=!4m7!3m6!1s0x1359c3b5d89fe7bd:0xee584a9c9c92ef76!8m2!3d40.2621359!4d21.5483227!16s%2Fg%2F11tc07dzgf!19sChIJveef2LXDWRMRdu-SnJxKWO4?authuser=0&hl=tr&rclk=1",
    "website_url": "",
    "rating_text": "4,8",
    "stars": null,
    "number_of_reviews": null,
    "price_level": "",
    "open_hours": "",
    "extraction_timestamp": "2025-06-07T15:28:38.297Z",
    "source_name": "google",
    "source_query": "Irrigation Equipment",
    "source_country": "GR",
    "country": "Greece",
    "state": "West Macedonia Region",
    "city": "Siátista"
  },
  {
    "source_id": "ChIJYefGquHDWRMRi_2rqWVyMEc",
    "name": "Tsiaoussi, K., Bros, & SIA O.E.",
    "category": "Tsiaoussi, K., Bros, & SIA O.E.",
    "formatted_address": "Tsiaoussi, K., Bros, & SIA O.E.",
    "phone_number": "+302465047077",
    "source_url": "https://www.google.com/maps/place/Tsiaoussi,+K.,+Bros,+%26+SIA+O.E./data=!4m7!3m6!1s0x1359c3e1aac6e761:0x47307265a9abfd8b!8m2!3d40.2593571!4d21.5498752!16s%2Fg%2F11h071hj0!19sChIJYefGquHDWRMRi_2rqWVyMEc?authuser=0&hl=tr&rclk=1",
    "website_url": "",
    "rating_text": "",
    "stars": null,
    "number_of_reviews": null,
    "price_level": "",
    "open_hours": "",
    "extraction_timestamp": "2025-06-07T15:28:38.298Z",
    "source_name": "google",
    "source_query": "Irrigation Equipment",
    "source_country": "GR",
    "country": "Greece",
    "state": "West Macedonia Region",
    "city": "Siátista"
  },
  {
    "source_id": "ChIJkSg4_A6XWRMRQAr3M3ccFPM",
    "name": "ΠΛΑΤΣΑΤΟΥΡΑΣ ΘΕΟΔΩΡΟΣ ΒΑΣΙΛΕΙΟΣ",
    "category": "ΠΛΑΤΣΑΤΟΥΡΑΣ ΘΕΟΔΩΡΟΣ ΒΑΣΙΛΕΙΟΣ",
    "formatted_address": "5,0(12)",
    "phone_number": "+302462080332",
    "source_url": "https://www.google.com/maps/place/%CE%A0%CE%9B%CE%91%CE%A4%CE%A3%CE%91%CE%A4%CE%9F%CE%A5%CE%A1%CE%91%CE%A3+%CE%98%CE%95%CE%9F%CE%94%CE%A9%CE%A1%CE%9F%CE%A3+%CE%92%CE%91%CE%A3%CE%99%CE%9B%CE%95%CE%99%CE%9F%CE%A3/data=!4m7!3m6!1s0x1359970efc382891:0xf3141c7733f70a40!8m2!3d40.0776749!4d21.4217529!16s%2Fg%2F11c1t64kth!19sChIJkSg4_A6XWRMRQAr3M3ccFPM?authuser=0&hl=tr&rclk=1",
    "website_url": "https://thermansi.eu/",
    "rating_text": "5,0",
    "stars": null,
    "number_of_reviews": null,
    "price_level": "",
    "open_hours": "",
    "extraction_timestamp": "2025-06-07T15:28:38.299Z",
    "source_name": "google",
    "source_query": "Irrigation Equipment",
    "source_country": "GR",
    "country": "Greece",
    "state": "West Macedonia Region",
    "city": "Siátista"
  },
  {
    "source_id": "ChIJw_Lh3yR9VxMRiliPg3yXEko",
    "name": "ΑΘΑΝΑΣΙΟΣ ΒΛΑΧΟΔΗΜΟΣ ΤΟΥ ΚΩΝΣΤΑΝΤΙΝΟΥ",
    "category": "ΑΘΑΝΑΣΙΟΣ ΒΛΑΧΟΔΗΜΟΣ ΤΟΥ ΚΩΝΣΤΑΝΤΙΝΟΥ",
    "formatted_address": "5,0(4)",
    "phone_number": "+306973001138",
    "source_url": "https://www.google.com/maps/place/%CE%91%CE%98%CE%91%CE%9D%CE%91%CE%A3%CE%99%CE%9F%CE%A3+%CE%92%CE%9B%CE%91%CE%A7%CE%9F%CE%94%CE%97%CE%9C%CE%9F%CE%A3+%CE%A4%CE%9F%CE%A5+%CE%9A%CE%A9%CE%9D%CE%A3%CE%A4%CE%91%CE%9D%CE%A4%CE%99%CE%9D%CE%9F%CE%A5/data=!4m7!3m6!1s0x13577d24dfe1f2c3:0x4a12977c838f588a!8m2!3d40.5131261!4d21.6818395!16s%2Fg%2F11jzj8k9qv!19sChIJw_Lh3yR9VxMRiliPg3yXEko?authuser=0&hl=tr&rclk=1",
    "website_url": "",
    "rating_text": "5,0",
    "stars": null,
    "number_of_reviews": null,
    "price_level": "",
    "open_hours": "",
    "extraction_timestamp": "2025-06-07T15:28:38.300Z",
    "source_name": "google",
    "source_query": "Irrigation Equipment",
    "source_country": "GR",
    "country": "Greece",
    "state": "West Macedonia Region",
    "city": "Siátista"
  },
  {
    "source_id": "ChIJdzgLIRY1WhMRDmhB2S3H2_Q",
    "name": "ΒΑΓΕΝΑΣ ΓΡΗΓΟΡΗΣ",
    "category": "ΒΑΓΕΝΑΣ ΓΡΗΓΟΡΗΣ",
    "formatted_address": "5,0(6)",
    "phone_number": "+306983147869",
    "source_url": "https://www.google.com/maps/place/%CE%92%CE%91%CE%93%CE%95%CE%9D%CE%91%CE%A3+%CE%93%CE%A1%CE%97%CE%93%CE%9F%CE%A1%CE%97%CE%A3/data=!4m7!3m6!1s0x135a3516210b3877:0xf4dbc72dd941680e!8m2!3d40.0399261!4d20.7432583!16s%2Fg%2F11g6_4yyk0!19sChIJdzgLIRY1WhMRDmhB2S3H2_Q?authuser=0&hl=tr&rclk=1",
    "website_url": "",
    "rating_text": "5,0",
    "stars": null,
    "number_of_reviews": null,
    "price_level": "",
    "open_hours": "",
    "extraction_timestamp": "2025-06-07T15:28:38.302Z",
    "source_name": "google",
    "source_query": "Irrigation Equipment",
    "source_country": "GR",
    "country": "Greece",
    "state": "West Macedonia Region",
    "city": "Siátista"
  },
  {
    "source_id": "ChIJ3aDk-898VxMRnDM-x4dPsGU",
    "name": "KOTSIDIS PANAGIOTIS",
    "category": "KOTSIDIS PANAGIOTIS",
    "formatted_address": "4,6(50)",
    "phone_number": "+302463029890",
    "source_url": "https://www.google.com/maps/place/KOTSIDIS+PANAGIOTIS/data=!4m7!3m6!1s0x13577ccffbe4a0dd:0x65b04f87c73e339c!8m2!3d40.514594!4d21.6775865!16s%2Fg%2F1trzm74z!19sChIJ3aDk-898VxMRnDM-x4dPsGU?authuser=0&hl=tr&rclk=1",
    "website_url": "",
    "rating_text": "4,6",
    "stars": null,
    "number_of_reviews": null,
    "price_level": "",
    "open_hours": "",
    "extraction_timestamp": "2025-06-07T15:28:38.303Z",
    "source_name": "google",
    "source_query": "Irrigation Equipment",
    "source_country": "GR",
    "country": "Greece",
    "state": "West Macedonia Region",
    "city": "Siátista"
  },
  {
    "source_id": "ChIJt9X1HgDFWRMRT5WfloI_46s",
    "name": "CANTEEN KTIMA PAL",
    "category": "CANTEEN KTIMA PAL",
    "formatted_address": "5,0(2)",
    "phone_number": "",
    "source_url": "https://www.google.com/maps/place/CANTEEN+KTIMA+PAL/data=!4m7!3m6!1s0x1359c5001ef5d5b7:0xabe33f82969f954f!8m2!3d40.2471229!4d21.6010761!16s%2Fg%2F11x8t67mgw!19sChIJt9X1HgDFWRMRT5WfloI_46s?authuser=0&hl=tr&rclk=1",
    "website_url": "",
    "rating_text": "5,0",
    "stars": null,
    "number_of_reviews": null,
    "price_level": "",
    "open_hours": "",
    "extraction_timestamp": "2025-06-07T15:28:38.304Z",
    "source_name": "google",
    "source_query": "Irrigation Equipment",
    "source_country": "GR",
    "country": "Greece",
    "state": "West Macedonia Region",
    "city": "Siátista"
  },
  {
    "source_id": "ChIJkSzG5yNtpxQRcaPxE4gIX3o",
    "name": "ΚΑΠΕΤΑΝΙΑΣ Υδραυλικά-Θέρμανση-Φυσικό Αέριο-Ηλιακά",
    "category": "ΚΑΠΕΤΑΝΙΑΣ Υδραυλικά-Θέρμανση-Φυσικό Αέριο-Ηλιακά",
    "formatted_address": "5,0(12)",
    "phone_number": "+306982354948",
    "source_url": "https://www.google.com/maps/place/%CE%9A%CE%91%CE%A0%CE%95%CE%A4%CE%91%CE%9D%CE%99%CE%91%CE%A3+%CE%A5%CE%B4%CF%81%CE%B1%CF%85%CE%BB%CE%B9%CE%BA%CE%AC-%CE%98%CE%AD%CF%81%CE%BC%CE%B1%CE%BD%CF%83%CE%B7-%CE%A6%CF%85%CF%83%CE%B9%CE%BA%CF%8C+%CE%91%CE%AD%CF%81%CE%B9%CE%BF-%CE%97%CE%BB%CE%B9%CE%B1%CE%BA%CE%AC/data=!4m7!3m6!1s0x14a76d23e7c62c91:0x7a5f088813f1a371!8m2!3d39.3693894!4d22.9276151!16s%2Fg%2F11wn8_kq0g!19sChIJkSzG5yNtpxQRcaPxE4gIX3o?authuser=0&hl=tr&rclk=1",
    "website_url": "https://www.instagram.com/ydraulika_kapetanias/",
    "rating_text": "5,0",
    "stars": null,
    "number_of_reviews": null,
    "price_level": "",
    "open_hours": "",
    "extraction_timestamp": "2025-06-07T15:28:38.306Z",
    "source_name": "google",
    "source_query": "Irrigation Equipment",
    "source_country": "GR",
    "country": "Greece",
    "state": "West Macedonia Region",
    "city": "Siátista"
  },
  {
    "source_id": "ChIJXR9AjNEeWRMRSmOAF7Fz_2g",
    "name": "Κατσάνας - Αγροτικά μηχανήματα",
    "category": "Κατσάνας - Αγροτικά μηχανήματα",
    "formatted_address": "4,4(39)",
    "phone_number": "+302431024924",
    "source_url": "https://www.google.com/maps/place/%CE%9A%CE%B1%CF%84%CF%83%CE%AC%CE%BD%CE%B1%CF%82+-+%CE%91%CE%B3%CF%81%CE%BF%CF%84%CE%B9%CE%BA%CE%AC+%CE%BC%CE%B7%CF%87%CE%B1%CE%BD%CE%AE%CE%BC%CE%B1%CF%84%CE%B1/data=!4m7!3m6!1s0x13591ed18c401f5d:0x68ff73b11780634a!8m2!3d39.5548166!4d21.7858218!16s%2Fg%2F11h06lz7l!19sChIJXR9AjNEeWRMRSmOAF7Fz_2g?authuser=0&hl=tr&rclk=1",
    "website_url": "http://www.kkatsanas.gr/",
    "rating_text": "4,4",
    "stars": null,
    "number_of_reviews": null,
    "price_level": "",
    "open_hours": "",
    "extraction_timestamp": "2025-06-07T15:28:38.307Z",
    "source_name": "google",
    "source_query": "Irrigation Equipment",
    "source_country": "GR",
    "country": "Greece",
    "state": "West Macedonia Region",
    "city": "Siátista"
  },
  {
    "source_id": "ChIJbTSdupDbWBMR1pfLqM8eIPE",
    "name": "A & G Papalopoulos GPar",
    "category": "A & G Papalopoulos GPar",
    "formatted_address": "4,8(16)",
    "phone_number": "+302441061612",
    "source_url": "https://www.google.com/maps/place/A+%26+G+Papalopoulos+GPar/data=!4m7!3m6!1s0x1358db90ba9d346d:0xf1201ecfa8cb97d6!8m2!3d39.3713568!4d21.9857632!16s%2Fg%2F1tfn_rnc!19sChIJbTSdupDbWBMR1pfLqM8eIPE?authuser=0&hl=tr&rclk=1",
    "website_url": "",
    "rating_text": "4,8",
    "stars": null,
    "number_of_reviews": null,
    "price_level": "",
    "open_hours": "",
    "extraction_timestamp": "2025-06-07T15:28:38.309Z",
    "source_name": "google",
    "source_query": "Irrigation Equipment",
    "source_country": "GR",
    "country": "Greece",
    "state": "West Macedonia Region",
    "city": "Siátista"
  },
  {
    "source_id": "ChIJxQKJ7oyJWBMRuMYUefY0r30",
    "name": "Happy Stay Larissa",
    "category": "Happy Stay Larissa",
    "formatted_address": "5,0(41)",
    "phone_number": "+306979335601",
    "source_url": "https://www.google.com/maps/place/Happy+Stay+Larissa/data=!4m7!3m6!1s0x1358898cee8902c5:0x7daf34f67914c6b8!8m2!3d39.6364253!4d22.4183924!16s%2Fg%2F11x96rzsdr!19sChIJxQKJ7oyJWBMRuMYUefY0r30?authuser=0&hl=tr&rclk=1",
    "website_url": "",
    "rating_text": "5,0",
    "stars": null,
    "number_of_reviews": null,
    "price_level": "",
    "open_hours": "",
    "extraction_timestamp": "2025-06-07T15:28:38.310Z",
    "source_name": "google",
    "source_query": "Irrigation Equipment",
    "source_country": "GR",
    "country": "Greece",
    "state": "West Macedonia Region",
    "city": "Siátista"
  },
  {
    "source_id": "ChIJKW3waUcDWBMRKUM0AvwFmCg",
    "name": "Superzoo PetShop",
    "category": "Superzoo PetShop",
    "formatted_address": "5,0(20)",
    "phone_number": "+302351027444",
    "source_url": "https://www.google.com/maps/place/Superzoo+PetShop/data=!4m7!3m6!1s0x1358034769f06d29:0x289805fc02344329!8m2!3d40.2731044!4d22.5164862!16s%2Fg%2F11y51lth94!19sChIJKW3waUcDWBMRKUM0AvwFmCg?authuser=0&hl=tr&rclk=1",
    "website_url": "",
    "rating_text": "5,0",
    "stars": null,
    "number_of_reviews": null,
    "price_level": "",
    "open_hours": "",
    "extraction_timestamp": "2025-06-07T15:28:38.311Z",
    "source_name": "google",
    "source_query": "Irrigation Equipment",
    "source_country": "GR",
    "country": "Greece",
    "state": "West Macedonia Region",
    "city": "Siátista"
  },
  {
    "source_id": "ChIJNeGDTyv9WRMRtiugZ20ODZg",
    "name": "ΚΑΡΑΓΕΩΡΓΙΑΔΗΣ ΒΑΣΙΛΗΣ - Η ΛΥΣΗ ΣΤΟ ΠΡΟΒΛΗΜΑ ΣΑΣ",
    "category": "ΚΑΡΑΓΕΩΡΓΙΑΔΗΣ ΒΑΣΙΛΗΣ - Η ΛΥΣΗ ΣΤΟ ΠΡΟΒΛΗΜΑ ΣΑΣ",
    "formatted_address": "3,8(11)",
    "phone_number": "+306947304227",
    "source_url": "https://www.google.com/maps/place/%CE%9A%CE%91%CE%A1%CE%91%CE%93%CE%95%CE%A9%CE%A1%CE%93%CE%99%CE%91%CE%94%CE%97%CE%A3+%CE%92%CE%91%CE%A3%CE%99%CE%9B%CE%97%CE%A3+-+%CE%97+%CE%9B%CE%A5%CE%A3%CE%97+%CE%A3%CE%A4%CE%9F+%CE%A0%CE%A1%CE%9F%CE%92%CE%9B%CE%97%CE%9C%CE%91+%CE%A3%CE%91%CE%A3/data=!4m7!3m6!1s0x1359fd2b4f83e135:0x980d0e6d67a02bb6!8m2!3d40.2308423!4d21.47931!16s%2Fg%2F11h4nbl66s!19sChIJNeGDTyv9WRMRtiugZ20ODZg?authuser=0&hl=tr&rclk=1",
    "website_url": "",
    "rating_text": "3,8",
    "stars": null,
    "number_of_reviews": null,
    "price_level": "",
    "open_hours": "",
    "extraction_timestamp": "2025-06-07T15:28:38.312Z",
    "source_name": "google",
    "source_query": "Irrigation Equipment",
    "source_country": "GR",
    "country": "Greece",
    "state": "West Macedonia Region",
    "city": "Siátista"
  },
  {
    "source_id": "ChIJ9-JHZl9wWBMRo_a9T0Zs3Zo",
    "name": "Stamos Antonios",
    "category": "Stamos Antonios",
    "formatted_address": "5,0(6)",
    "phone_number": "+302495031925",
    "source_url": "https://www.google.com/maps/place/Stamos+Antonios/data=!4m7!3m6!1s0x1358705f6647e2f7:0x9add6c464fbdf6a3!8m2!3d39.860539!4d22.4738072!16s%2Fg%2F11gz88tx1!19sChIJ9-JHZl9wWBMRo_a9T0Zs3Zo?authuser=0&hl=tr&rclk=1",
    "website_url": "",
    "rating_text": "5,0",
    "stars": null,
    "number_of_reviews": null,
    "price_level": "",
    "open_hours": "",
    "extraction_timestamp": "2025-06-07T15:28:38.313Z",
    "source_name": "google",
    "source_query": "Irrigation Equipment",
    "source_country": "GR",
    "country": "Greece",
    "state": "West Macedonia Region",
    "city": "Siátista"
  },
  {
    "source_id": "ChIJW2i912zSWRMR1T4n-_HJ-xo",
    "name": "TECHNOBETON AE",
    "category": "TECHNOBETON AE",
    "formatted_address": "4,9(153)",
    "phone_number": "+302461045555",
    "source_url": "https://www.google.com/maps/place/TECHNOBETON+AE/data=!4m7!3m6!1s0x1359d26cd7bd685b:0x1afbc9f1fb273ed5!8m2!3d40.3495101!4d21.8012275!16s%2Fg%2F1v_hw6gw!19sChIJW2i912zSWRMR1T4n-_HJ-xo?authuser=0&hl=tr&rclk=1",
    "website_url": "http://www.tehnobeton.gr/",
    "rating_text": "4,9",
    "stars": null,
    "number_of_reviews": null,
    "price_level": "",
    "open_hours": "",
    "extraction_timestamp": "2025-06-07T15:28:38.315Z",
    "source_name": "google",
    "source_query": "Irrigation Equipment",
    "source_country": "GR",
    "country": "Greece",
    "state": "West Macedonia Region",
    "city": "Siátista"
  },
  {
    "source_id": "ChIJZx2EbBFspxQRIjV3iHMyhb0",
    "name": "Αντλίες Νερού Ms Pumps Μαυροπόδης",
    "category": "Αντλίες Νερού Ms Pumps Μαυροπόδης",
    "formatted_address": "4,8(12)",
    "phone_number": "+302421308324",
    "source_url": "https://www.google.com/maps/place/%CE%91%CE%BD%CF%84%CE%BB%CE%AF%CE%B5%CF%82+%CE%9D%CE%B5%CF%81%CE%BF%CF%8D+Ms+Pumps+%CE%9C%CE%B1%CF%85%CF%81%CE%BF%CF%80%CF%8C%CE%B4%CE%B7%CF%82/data=!4m7!3m6!1s0x14a76c116c841d67:0xbd85327388773522!8m2!3d39.3669552!4d22.9224363!16s%2Fg%2F11c532g_gs!19sChIJZx2EbBFspxQRIjV3iHMyhb0?authuser=0&hl=tr&rclk=1",
    "website_url": "https://www.mspumps.gr/",
    "rating_text": "4,8",
    "stars": null,
    "number_of_reviews": null,
    "price_level": "",
    "open_hours": "",
    "extraction_timestamp": "2025-06-07T15:28:38.316Z",
    "source_name": "google",
    "source_query": "Irrigation Equipment",
    "source_country": "GR",
    "country": "Greece",
    "state": "West Macedonia Region",
    "city": "Siátista"
  },
  {
    "source_id": "ChIJNzboqmCXVxMRn1oUhVt7kjI",
    "name": "Μήτκας Σάββας",
    "category": "Μήτκας Σάββας",
    "formatted_address": "4,4(5)",
    "phone_number": "+306986635743",
    "source_url": "https://www.google.com/maps/place/%CE%9C%CE%AE%CF%84%CE%BA%CE%B1%CF%82+%CE%A3%CE%AC%CE%B2%CE%B2%CE%B1%CF%82/data=!4m7!3m6!1s0x13579760aae83637:0x32927b5b85145a9f!8m2!3d40.5284052!4d22.2018123!16s%2Fg%2F11hk4hn9xf!19sChIJNzboqmCXVxMRn1oUhVt7kjI?authuser=0&hl=tr&rclk=1",
    "website_url": "",
    "rating_text": "4,4",
    "stars": null,
    "number_of_reviews": null,
    "price_level": "",
    "open_hours": "",
    "extraction_timestamp": "2025-06-07T15:28:38.318Z",
    "source_name": "google",
    "source_query": "Irrigation Equipment",
    "source_country": "GR",
    "country": "Greece",
    "state": "West Macedonia Region",
    "city": "Siátista"
  },
  {
    "source_id": "ChIJnRkZtydBVxMRhNLRc7wjbU4",
    "name": "Δαϊρετζής Παντελής",
    "category": "Δαϊρετζής Παντελής",
    "formatted_address": "4,4(7)",
    "phone_number": "+302385024446",
    "source_url": "https://www.google.com/maps/place/%CE%94%CE%B1%CF%8A%CF%81%CE%B5%CF%84%CE%B6%CE%AE%CF%82+%CE%A0%CE%B1%CE%BD%CF%84%CE%B5%CE%BB%CE%AE%CF%82/data=!4m7!3m6!1s0x13574127b719199d:0x4e6d23bc73d1d284!8m2!3d40.7783634!4d21.4110851!16s%2Fg%2F11g073d944!19sChIJnRkZtydBVxMRhNLRc7wjbU4?authuser=0&hl=tr&rclk=1",
    "website_url": "",
    "rating_text": "4,4",
    "stars": null,
    "number_of_reviews": null,
    "price_level": "",
    "open_hours": "",
    "extraction_timestamp": "2025-06-07T15:29:44.364Z",
    "source_name": "google",
    "source_query": "Irrigation Equipment",
    "source_country": "GR",
    "country": "Greece",
    "state": "West Macedonia Region",
    "city": "Flórina"
  },
  {
    "source_id": "ChIJzSqsPeRBVxMRhWULjNkWM30",
    "name": "Πέϊος Αντώνιος \"Θερμοϋδραυλικός\"",
    "category": "Πέϊος Αντώνιος \"Θερμοϋδραυλικός\"",
    "formatted_address": "4,6(11)",
    "phone_number": "+306983483709",
    "source_url": "https://www.google.com/maps/place/%CE%A0%CE%AD%CF%8A%CE%BF%CF%82+%CE%91%CE%BD%CF%84%CF%8E%CE%BD%CE%B9%CE%BF%CF%82+%22%CE%98%CE%B5%CF%81%CE%BC%CE%BF%CF%8B%CE%B4%CF%81%CE%B1%CF%85%CE%BB%CE%B9%CE%BA%CF%8C%CF%82%22/data=!4m7!3m6!1s0x135741e43dac2acd:0x7d3316d98c0b6585!8m2!3d40.7850357!4d21.4179817!16s%2Fg%2F11s5xmwvj8!19sChIJzSqsPeRBVxMRhWULjNkWM30?authuser=0&hl=tr&rclk=1",
    "website_url": "",
    "rating_text": "4,6",
    "stars": null,
    "number_of_reviews": null,
    "price_level": "",
    "open_hours": "",
    "extraction_timestamp": "2025-06-07T15:29:44.365Z",
    "source_name": "google",
    "source_query": "Irrigation Equipment",
    "source_country": "GR",
    "country": "Greece",
    "state": "West Macedonia Region",
    "city": "Flórina"
  },
  {
    "source_id": "ChIJjSOxVRtBVxMRhcjySzFgC-k",
    "name": "SIAMKOURIS",
    "category": "SIAMKOURIS",
    "formatted_address": "4,9(22)",
    "phone_number": "+302385046046",
    "source_url": "https://www.google.com/maps/place/SIAMKOURIS/data=!4m7!3m6!1s0x1357411b55b1238d:0xe90b60314bf2c885!8m2!3d40.784266!4d21.4181002!16s%2Fg%2F1tfh6ts6!19sChIJjSOxVRtBVxMRhcjySzFgC-k?authuser=0&hl=tr&rclk=1",
    "website_url": "",
    "rating_text": "4,9",
    "stars": null,
    "number_of_reviews": null,
    "price_level": "",
    "open_hours": "",
    "extraction_timestamp": "2025-06-07T15:29:44.367Z",
    "source_name": "google",
    "source_query": "Irrigation Equipment",
    "source_country": "GR",
    "country": "Greece",
    "state": "West Macedonia Region",
    "city": "Flórina"
  },
  {
    "source_id": "ChIJC31yx8JBVxMRd4CLenwgikY",
    "name": "X- MOUNTAIN . BIKES AND SKI SHOP. //ΜΠΟΓΔΑΝΗΣ ΒΑΣΙΛΕΙΟΣ",
    "category": "X- MOUNTAIN . BIKES AND SKI SHOP. //ΜΠΟΓΔΑΝΗΣ ΒΑΣΙΛΕΙΟΣ",
    "formatted_address": "4,9(14)",
    "phone_number": "+302385044951",
    "source_url": "https://www.google.com/maps/place/X-+MOUNTAIN+.+BIKES+AND+SKI+SHOP.+%2F%2F%CE%9C%CE%A0%CE%9F%CE%93%CE%94%CE%91%CE%9D%CE%97%CE%A3+%CE%92%CE%91%CE%A3%CE%99%CE%9B%CE%95%CE%99%CE%9F%CE%A3/data=!4m7!3m6!1s0x135741c2c7727d0b:0x468a207c7a8b8077!8m2!3d40.7807109!4d21.4087958!16s%2Fg%2F11h1ybr1n6!19sChIJC31yx8JBVxMRd4CLenwgikY?authuser=0&hl=tr&rclk=1",
    "website_url": "",
    "rating_text": "4,9",
    "stars": null,
    "number_of_reviews": null,
    "price_level": "",
    "open_hours": "",
    "extraction_timestamp": "2025-06-07T15:29:44.368Z",
    "source_name": "google",
    "source_query": "Irrigation Equipment",
    "source_country": "GR",
    "country": "Greece",
    "state": "West Macedonia Region",
    "city": "Flórina"
  },
  {
    "source_id": "ChIJTRhk0hlBVxMRTr16dv5Htjg",
    "name": "Malamas Vasileios",
    "category": "Malamas Vasileios",
    "formatted_address": "4,8(19)",
    "phone_number": "+302385026439",
    "source_url": "https://www.google.com/maps/place/Malamas+Vasileios/data=!4m7!3m6!1s0x13574119d264184d:0x38b647fe767abd4e!8m2!3d40.7808687!4d21.4069302!16s%2Fg%2F11g_wzs1m!19sChIJTRhk0hlBVxMRTr16dv5Htjg?authuser=0&hl=tr&rclk=1",
    "website_url": "",
    "rating_text": "4,8",
    "stars": null,
    "number_of_reviews": null,
    "price_level": "",
    "open_hours": "",
    "extraction_timestamp": "2025-06-07T15:29:44.370Z",
    "source_name": "google",
    "source_query": "Irrigation Equipment",
    "source_country": "GR",
    "country": "Greece",
    "state": "West Macedonia Region",
    "city": "Flórina"
  },
  {
    "source_id": "ChIJ-S2tLDpBVxMRfJDPBnIpaBA",
    "name": "Total Market",
    "category": "Total Market",
    "formatted_address": "4,5(207)",
    "phone_number": "+302385022504",
    "source_url": "https://www.google.com/maps/place/Total+Market/data=!4m7!3m6!1s0x1357413a2cad2df9:0x1068297206cf907c!8m2!3d40.7783296!4d21.3947725!16s%2Fg%2F11g_ydr39!19sChIJ-S2tLDpBVxMRfJDPBnIpaBA?authuser=0&hl=tr&rclk=1",
    "website_url": "",
    "rating_text": "4,5",
    "stars": null,
    "number_of_reviews": null,
    "price_level": "",
    "open_hours": "",
    "extraction_timestamp": "2025-06-07T15:29:44.371Z",
    "source_name": "google",
    "source_query": "Irrigation Equipment",
    "source_country": "GR",
    "country": "Greece",
    "state": "West Macedonia Region",
    "city": "Flórina"
  },
  {
    "source_id": "ChIJS02rX1lBVxMRxvz9YklhVo4",
    "name": "Cielo River Area",
    "category": "Cielo River Area",
    "formatted_address": "4,9(47) · €1–5",
    "phone_number": "+306988580770",
    "source_url": "https://www.google.com/maps/place/Cielo+River+Area/data=!4m7!3m6!1s0x135741595fab4d4b:0x8e56614962fdfcc6!8m2!3d40.7771944!4d21.4036217!16s%2Fg%2F11t6lqvpnx!19sChIJS02rX1lBVxMRxvz9YklhVo4?authuser=0&hl=tr&rclk=1",
    "website_url": "",
    "rating_text": "4,9",
    "stars": null,
    "number_of_reviews": null,
    "price_level": "",
    "open_hours": "",
    "extraction_timestamp": "2025-06-07T15:29:44.373Z",
    "source_name": "google",
    "source_query": "Irrigation Equipment",
    "source_country": "GR",
    "country": "Greece",
    "state": "West Macedonia Region",
    "city": "Flórina"
  },
  {
    "source_id": "ChIJM7gZ8RdBVxMRp-ZHih_KG1c",
    "name": "Total Market",
    "category": "Total Market",
    "formatted_address": "4,5(108)",
    "phone_number": "+302385022155",
    "source_url": "https://www.google.com/maps/place/Total+Market/data=!4m7!3m6!1s0x13574117f119b833:0x571bca1f8a47e6a7!8m2!3d40.7801507!4d21.4047072!16s%2Fg%2F11f1w_3k37!19sChIJM7gZ8RdBVxMRp-ZHih_KG1c?authuser=0&hl=tr&rclk=1",
    "website_url": "",
    "rating_text": "4,5",
    "stars": null,
    "number_of_reviews": null,
    "price_level": "",
    "open_hours": "",
    "extraction_timestamp": "2025-06-07T15:29:44.374Z",
    "source_name": "google",
    "source_query": "Irrigation Equipment",
    "source_country": "GR",
    "country": "Greece",
    "state": "West Macedonia Region",
    "city": "Flórina"
  },
  {
    "source_id": "ChIJz8sotoRBVxMRDHyxOdi5kSc",
    "name": "εμπορια ανταλλακτικων οικιακων συσκευων",
    "category": "εμπορια ανταλλακτικων οικιακων συσκευων",
    "formatted_address": "5,0(1)",
    "phone_number": "+302385023619",
    "source_url": "https://www.google.com/maps/place/%CE%B5%CE%BC%CF%80%CE%BF%CF%81%CE%B9%CE%B1+%CE%B1%CE%BD%CF%84%CE%B1%CE%BB%CE%BB%CE%B1%CE%BA%CF%84%CE%B9%CE%BA%CF%89%CE%BD+%CE%BF%CE%B9%CE%BA%CE%B9%CE%B1%CE%BA%CF%89%CE%BD+%CF%83%CF%85%CF%83%CE%BA%CE%B5%CF%85%CF%89%CE%BD/data=!4m7!3m6!1s0x13574184b628cbcf:0x2791b9d839b17c0c!8m2!3d40.7786341!4d21.4091242!16s%2Fg%2F11j1bzqhrh!19sChIJz8sotoRBVxMRDHyxOdi5kSc?authuser=0&hl=tr&rclk=1",
    "website_url": "",
    "rating_text": "5,0",
    "stars": null,
    "number_of_reviews": null,
    "price_level": "",
    "open_hours": "",
    "extraction_timestamp": "2025-06-07T15:29:44.375Z",
    "source_name": "google",
    "source_query": "Irrigation Equipment",
    "source_country": "GR",
    "country": "Greece",
    "state": "West Macedonia Region",
    "city": "Flórina"
  },
  {
    "source_id": "ChIJzanyXj1BVxMRc4ZHAJ_hrP8",
    "name": "Deuaph",
    "category": "Deuaph",
    "formatted_address": "1,7(19)",
    "phone_number": "+302385024606",
    "source_url": "https://www.google.com/maps/place/Deuaph/data=!4m7!3m6!1s0x1357413d5ef2a9cd:0xfface19f00478673!8m2!3d40.7799948!4d21.4030605!16s%2Fg%2F11bc73rbxx!19sChIJzanyXj1BVxMRc4ZHAJ_hrP8?authuser=0&hl=tr&rclk=1",
    "website_url": "",
    "rating_text": "1,7",
    "stars": null,
    "number_of_reviews": null,
    "price_level": "",
    "open_hours": "",
    "extraction_timestamp": "2025-06-07T15:29:44.377Z",
    "source_name": "google",
    "source_query": "Irrigation Equipment",
    "source_country": "GR",
    "country": "Greece",
    "state": "West Macedonia Region",
    "city": "Flórina"
  },
  {
    "source_id": "ChIJN2oQF-BBVxMRoieEMbCTenQ",
    "name": "Total Market",
    "category": "Total Market",
    "formatted_address": "4,6(112)",
    "phone_number": "+302385045587",
    "source_url": "https://www.google.com/maps/place/Total+Market/data=!4m7!3m6!1s0x135741e017106a37:0x747a93b0318427a2!8m2!3d40.7804914!4d21.4127086!16s%2Fg%2F11gtsd2qhs!19sChIJN2oQF-BBVxMRoieEMbCTenQ?authuser=0&hl=tr&rclk=1",
    "website_url": "",
    "rating_text": "4,6",
    "stars": null,
    "number_of_reviews": null,
    "price_level": "",
    "open_hours": "",
    "extraction_timestamp": "2025-06-07T15:29:44.378Z",
    "source_name": "google",
    "source_query": "Irrigation Equipment",
    "source_country": "GR",
    "country": "Greece",
    "state": "West Macedonia Region",
    "city": "Flórina"
  },
  {
    "source_id": "ChIJl0QJXANBVxMRVfcM3wevLgs",
    "name": "EAS Florina, AGRICULTURAL COOPERATIVE",
    "category": "EAS Florina, AGRICULTURAL COOPERATIVE",
    "formatted_address": "EAS Florina, AGRICULTURAL COOPERATIVE",
    "phone_number": "+302385022322",
    "source_url": "https://www.google.com/maps/place/EAS+Florina,+AGRICULTURAL+COOPERATIVE/data=!4m7!3m6!1s0x135741035c094497:0xb2eaf07df0cf755!8m2!3d40.7835892!4d21.4167127!16s%2Fg%2F12m984w1_!19sChIJl0QJXANBVxMRVfcM3wevLgs?authuser=0&hl=tr&rclk=1",
    "website_url": "",
    "rating_text": "5,0",
    "stars": null,
    "number_of_reviews": null,
    "price_level": "",
    "open_hours": "",
    "extraction_timestamp": "2025-06-07T15:29:44.379Z",
    "source_name": "google",
    "source_query": "Irrigation Equipment",
    "source_country": "GR",
    "country": "Greece",
    "state": "West Macedonia Region",
    "city": "Flórina"
  },
  {
    "source_id": "ChIJp3PBzxlBVxMRGKObSaxmUYQ",
    "name": "SportShopping",
    "category": "SportShopping",
    "formatted_address": "5,0(253)",
    "phone_number": "+302385044727",
    "source_url": "https://www.google.com/maps/place/SportShopping/data=!4m7!3m6!1s0x13574119cfc173a7:0x845166ac499ba318!8m2!3d40.7809885!4d21.407371!16s%2Fg%2F11g8wdd7hv!19sChIJp3PBzxlBVxMRGKObSaxmUYQ?authuser=0&hl=tr&rclk=1",
    "website_url": "",
    "rating_text": "5,0",
    "stars": null,
    "number_of_reviews": null,
    "price_level": "",
    "open_hours": "",
    "extraction_timestamp": "2025-06-07T15:29:44.381Z",
    "source_name": "google",
    "source_query": "Irrigation Equipment",
    "source_country": "GR",
    "country": "Greece",
    "state": "West Macedonia Region",
    "city": "Flórina"
  },
  {
    "source_id": "ChIJx_O7mUJBVxMRxnC-Fqs7M3k",
    "name": "Total Market",
    "category": "Total Market",
    "formatted_address": "4,7(19)",
    "phone_number": "+302385045223",
    "source_url": "https://www.google.com/maps/place/Total+Market/data=!4m7!3m6!1s0x1357414299bbf3c7:0x79333bab16be70c6!8m2!3d40.7824544!4d21.4086741!16s%2Fg%2F11gty1g3gq!19sChIJx_O7mUJBVxMRxnC-Fqs7M3k?authuser=0&hl=tr&rclk=1",
    "website_url": "",
    "rating_text": "4,7",
    "stars": null,
    "number_of_reviews": null,
    "price_level": "",
    "open_hours": "",
    "extraction_timestamp": "2025-06-07T15:29:44.382Z",
    "source_name": "google",
    "source_query": "Irrigation Equipment",
    "source_country": "GR",
    "country": "Greece",
    "state": "West Macedonia Region",
    "city": "Flórina"
  },
  {
    "source_id": "ChIJg7A_2URBVxMRWuVAaM-YNkk",
    "name": "Hall Of Sports",
    "category": "Hall Of Sports",
    "formatted_address": "5,0(9)",
    "phone_number": "+302385026646",
    "source_url": "https://www.google.com/maps/place/Hall+Of+Sports/data=!4m7!3m6!1s0x13574144d93fb083:0x493698cf6840e55a!8m2!3d40.7803686!4d21.408679!16s%2Fg%2F11h8csjrx6!19sChIJg7A_2URBVxMRWuVAaM-YNkk?authuser=0&hl=tr&rclk=1",
    "website_url": "",
    "rating_text": "5,0",
    "stars": null,
    "number_of_reviews": null,
    "price_level": "",
    "open_hours": "",
    "extraction_timestamp": "2025-06-07T15:29:44.383Z",
    "source_name": "google",
    "source_query": "Irrigation Equipment",
    "source_country": "GR",
    "country": "Greece",
    "state": "West Macedonia Region",
    "city": "Flórina"
  },
  {
    "source_id": "ChIJawvfLQNBVxMRqcKQT61uZQE",
    "name": "O Mpakalogatos",
    "category": "O Mpakalogatos",
    "formatted_address": "4,7(45)",
    "phone_number": "+302385503017",
    "source_url": "https://www.google.com/maps/place/O+Mpakalogatos/data=!4m7!3m6!1s0x135741032ddf0b6b:0x1656ead4f90c2a9!8m2!3d40.7853109!4d21.4160001!16s%2Fg%2F11bxgbng2b!19sChIJawvfLQNBVxMRqcKQT61uZQE?authuser=0&hl=tr&rclk=1",
    "website_url": "",
    "rating_text": "4,7",
    "stars": null,
    "number_of_reviews": null,
    "price_level": "",
    "open_hours": "",
    "extraction_timestamp": "2025-06-07T15:29:44.384Z",
    "source_name": "google",
    "source_query": "Irrigation Equipment",
    "source_country": "GR",
    "country": "Greece",
    "state": "West Macedonia Region",
    "city": "Flórina"
  },
  {
    "source_id": "ChIJk-vfiz1BVxMR4tUlq2tPSKs",
    "name": "7ης Cafe",
    "category": "7ης Cafe",
    "formatted_address": "4,7(160) · €1–5",
    "phone_number": "+302385026024",
    "source_url": "https://www.google.com/maps/place/7%CE%B7%CF%82+Cafe/data=!4m7!3m6!1s0x1357413d8bdfeb93:0xab484f6bab25d5e2!8m2!3d40.7835993!4d21.4158441!16s%2Fg%2F11gxn0dlvk!19sChIJk-vfiz1BVxMR4tUlq2tPSKs?authuser=0&hl=tr&rclk=1",
    "website_url": "",
    "rating_text": "4,7",
    "stars": null,
    "number_of_reviews": null,
    "price_level": "",
    "open_hours": "",
    "extraction_timestamp": "2025-06-07T15:29:44.387Z",
    "source_name": "google",
    "source_query": "Irrigation Equipment",
    "source_country": "GR",
    "country": "Greece",
    "state": "West Macedonia Region",
    "city": "Flórina"
  },
  {
    "source_id": "ChIJP1vbqIlBVxMRGV54XUTNSAU",
    "name": "Florina New Park Cafe",
    "category": "Florina New Park Cafe",
    "formatted_address": "4,4(29) · €1–10",
    "phone_number": "+302385028747",
    "source_url": "https://www.google.com/maps/place/Florina+New+Park+Cafe/data=!4m7!3m6!1s0x13574189a8db5b3f:0x548cd445d785e19!8m2!3d40.7819583!4d21.4095422!16s%2Fg%2F11q7bhl7xn!19sChIJP1vbqIlBVxMRGV54XUTNSAU?authuser=0&hl=tr&rclk=1",
    "website_url": "",
    "rating_text": "4,4",
    "stars": null,
    "number_of_reviews": null,
    "price_level": "",
    "open_hours": "",
    "extraction_timestamp": "2025-06-07T15:29:44.388Z",
    "source_name": "google",
    "source_query": "Irrigation Equipment",
    "source_country": "GR",
    "country": "Greece",
    "state": "West Macedonia Region",
    "city": "Flórina"
  },
  {
    "source_id": "ChIJGXgSALhBVxMR0vppq9Bu-Ws",
    "name": "Dash coffee & more Φλώρινα",
    "category": "Dash coffee & more Φλώρινα",
    "formatted_address": "4,7(88) · €1–5",
    "phone_number": "+302385022555",
    "source_url": "https://www.google.com/maps/place/Dash+coffee+%26+more+%CE%A6%CE%BB%CF%8E%CF%81%CE%B9%CE%BD%CE%B1/data=!4m7!3m6!1s0x135741b800127819:0x6bf96ed0ab69fad2!8m2!3d40.7809979!4d21.4074056!16s%2Fg%2F11lkxx2tb0!19sChIJGXgSALhBVxMR0vppq9Bu-Ws?authuser=0&hl=tr&rclk=1",
    "website_url": "",
    "rating_text": "4,7",
    "stars": null,
    "number_of_reviews": null,
    "price_level": "",
    "open_hours": "",
    "extraction_timestamp": "2025-06-07T15:29:44.389Z",
    "source_name": "google",
    "source_query": "Irrigation Equipment",
    "source_country": "GR",
    "country": "Greece",
    "state": "West Macedonia Region",
    "city": "Flórina"
  },
  {
    "source_id": "ChIJL5YhYFBAVxMR7RBYHt29p24",
    "name": "ΑΒ Βασιλόπουλος",
    "category": "ΑΒ Βασιλόπουλος",
    "formatted_address": "4,4(370)",
    "phone_number": "+302385044713",
    "source_url": "https://www.google.com/maps/place/%CE%91%CE%92+%CE%92%CE%B1%CF%83%CE%B9%CE%BB%CF%8C%CF%80%CE%BF%CF%85%CE%BB%CE%BF%CF%82/data=!4m7!3m6!1s0x135740506021962f:0x6ea7bddd1e5810ed!8m2!3d40.7929267!4d21.4364681!16s%2Fg%2F11c5hjmp5k!19sChIJL5YhYFBAVxMR7RBYHt29p24?authuser=0&hl=tr&rclk=1",
    "website_url": "",
    "rating_text": "4,4",
    "stars": null,
    "number_of_reviews": null,
    "price_level": "",
    "open_hours": "",
    "extraction_timestamp": "2025-06-07T15:29:44.391Z",
    "source_name": "google",
    "source_query": "Irrigation Equipment",
    "source_country": "GR",
    "country": "Greece",
    "state": "West Macedonia Region",
    "city": "Flórina"
  },
  {
    "source_id": "ChIJLQ_Y6xdBVxMRYw2BwspJqYA",
    "name": "Sklavenitis",
    "category": "Sklavenitis",
    "formatted_address": "4,4(423)",
    "phone_number": "+302385044137",
    "source_url": "https://www.google.com/maps/place/Sklavenitis/data=!4m7!3m6!1s0x13574117ebd80f2d:0x80a949cac2810d63!8m2!3d40.7795328!4d21.4049119!16s%2Fg%2F11dym4gq1t!19sChIJLQ_Y6xdBVxMRYw2BwspJqYA?authuser=0&hl=tr&rclk=1",
    "website_url": "",
    "rating_text": "4,4",
    "stars": null,
    "number_of_reviews": null,
    "price_level": "",
    "open_hours": "",
    "extraction_timestamp": "2025-06-07T15:29:44.392Z",
    "source_name": "google",
    "source_query": "Irrigation Equipment",
    "source_country": "GR",
    "country": "Greece",
    "state": "West Macedonia Region",
    "city": "Flórina"
  },
  {
    "source_id": "ChIJgXjKaxhBVxMRVtq3WU0l-rY",
    "name": "Masoutis",
    "category": "Masoutis",
    "formatted_address": "4,4(157)",
    "phone_number": "+302385028468",
    "source_url": "https://www.google.com/maps/place/Masoutis/data=!4m7!3m6!1s0x135741186bca7881:0xb6fa254d59b7da56!8m2!3d40.7822571!4d21.4139439!16s%2Fg%2F11cn6kqw6l!19sChIJgXjKaxhBVxMRVtq3WU0l-rY?authuser=0&hl=tr&rclk=1",
    "website_url": "",
    "rating_text": "4,4",
    "stars": null,
    "number_of_reviews": null,
    "price_level": "",
    "open_hours": "",
    "extraction_timestamp": "2025-06-07T15:29:44.393Z",
    "source_name": "google",
    "source_query": "Irrigation Equipment",
    "source_country": "GR",
    "country": "Greece",
    "state": "West Macedonia Region",
    "city": "Flórina"
  },
  {
    "source_id": "ChIJ36e_hPxBVxMR24IJyWom3Vo",
    "name": "Καραδίσογλου Ελευθέριος ΓΕΩΛΟΓΟΣ - ΠΕΡΙΒΑΛΛΟΝΤΟΛΟΓΟΣ",
    "category": "Καραδίσογλου Ελευθέριος ΓΕΩΛΟΓΟΣ - ΠΕΡΙΒΑΛΛΟΝΤΟΛΟΓΟΣ",
    "formatted_address": "",
    "phone_number": "+306947800192",
    "source_url": "https://www.google.com/maps/place/%CE%9A%CE%B1%CF%81%CE%B1%CE%B4%CE%AF%CF%83%CE%BF%CE%B3%CE%BB%CE%BF%CF%85+%CE%95%CE%BB%CE%B5%CF%85%CE%B8%CE%AD%CF%81%CE%B9%CE%BF%CF%82+%CE%93%CE%95%CE%A9%CE%9B%CE%9F%CE%93%CE%9F%CE%A3+-+%CE%A0%CE%95%CE%A1%CE%99%CE%92%CE%91%CE%9B%CE%9B%CE%9F%CE%9D%CE%A4%CE%9F%CE%9B%CE%9F%CE%93%CE%9F%CE%A3/data=!4m7!3m6!1s0x135741fc84bfa7df:0x5add266ac90982db!8m2!3d40.780557!4d21.4095333!16s%2Fg%2F11q1q4mxjy!19sChIJ36e_hPxBVxMR24IJyWom3Vo?authuser=0&hl=tr&rclk=1",
    "website_url": "",
    "rating_text": "",
    "stars": null,
    "number_of_reviews": null,
    "price_level": "",
    "open_hours": "",
    "extraction_timestamp": "2025-06-07T15:29:44.395Z",
    "source_name": "google",
    "source_query": "Irrigation Equipment",
    "source_country": "GR",
    "country": "Greece",
    "state": "West Macedonia Region",
    "city": "Flórina"
  },
  {
    "source_id": "ChIJTT3I59JBVxMRHvBALQfhdVo",
    "name": "Το Διατηρητέο",
    "category": "Το Διατηρητέο",
    "formatted_address": "4,7(282) · €15–25",
    "phone_number": "+306980850970",
    "source_url": "https://www.google.com/maps/place/%CE%A4%CE%BF+%CE%94%CE%B9%CE%B1%CF%84%CE%B7%CF%81%CE%B7%CF%84%CE%AD%CE%BF/data=!4m7!3m6!1s0x135741d2e7c83d4d:0x5a75e1072d40f01e!8m2!3d40.7780914!4d21.4066804!16s%2Fg%2F11rxvt15t1!19sChIJTT3I59JBVxMRHvBALQfhdVo?authuser=0&hl=tr&rclk=1",
    "website_url": "",
    "rating_text": "4,7",
    "stars": null,
    "number_of_reviews": null,
    "price_level": "",
    "open_hours": "",
    "extraction_timestamp": "2025-06-07T15:29:44.397Z",
    "source_name": "google",
    "source_query": "Irrigation Equipment",
    "source_country": "GR",
    "country": "Greece",
    "state": "West Macedonia Region",
    "city": "Flórina"
  },
  {
    "source_id": "ChIJO-9nkmBBVxMRb-DeQRWQ7yw",
    "name": "Peripteráki",
    "category": "Peripteráki",
    "formatted_address": "5,0(4)",
    "phone_number": "+302385029773",
    "source_url": "https://www.google.com/maps/place/Peripter%C3%A1ki/data=!4m7!3m6!1s0x135741609267ef3b:0x2cef901541dee06f!8m2!3d40.7797752!4d21.4057855!16s%2Fg%2F11fkm81hfc!19sChIJO-9nkmBBVxMRb-DeQRWQ7yw?authuser=0&hl=tr&rclk=1",
    "website_url": "",
    "rating_text": "5,0",
    "stars": null,
    "number_of_reviews": null,
    "price_level": "",
    "open_hours": "",
    "extraction_timestamp": "2025-06-07T15:29:44.398Z",
    "source_name": "google",
    "source_query": "Irrigation Equipment",
    "source_country": "GR",
    "country": "Greece",
    "state": "West Macedonia Region",
    "city": "Flórina"
  },
  {
    "source_id": "ChIJC686xeBBVxMRykLjYaxo4WY",
    "name": "ΚΡΗΤΙΚΟΣ Cash & Carru",
    "category": "ΚΡΗΤΙΚΟΣ Cash & Carru",
    "formatted_address": "4,8(10)",
    "phone_number": "+302385044455",
    "source_url": "https://www.google.com/maps/place/%CE%9A%CE%A1%CE%97%CE%A4%CE%99%CE%9A%CE%9F%CE%A3+Cash+%26+Carru/data=!4m7!3m6!1s0x135741e0c53aaf0b:0x66e168ac61e342ca!8m2!3d40.7937711!4d21.4355554!16s%2Fg%2F11kxkbmgfj!19sChIJC686xeBBVxMRykLjYaxo4WY?authuser=0&hl=tr&rclk=1",
    "website_url": "",
    "rating_text": "4,8",
    "stars": null,
    "number_of_reviews": null,
    "price_level": "",
    "open_hours": "",
    "extraction_timestamp": "2025-06-07T15:29:44.399Z",
    "source_name": "google",
    "source_query": "Irrigation Equipment",
    "source_country": "GR",
    "country": "Greece",
    "state": "West Macedonia Region",
    "city": "Flórina"
  },
  {
    "source_id": "ChIJRfS9W8FBVxMRGHi-0VS73g0",
    "name": "θερμοϋδραυλικός Κισκας",
    "category": "θερμοϋδραυλικός Κισκας",
    "formatted_address": "",
    "phone_number": "+306981003798",
    "source_url": "https://www.google.com/maps/place/%CE%B8%CE%B5%CF%81%CE%BC%CE%BF%CF%8B%CE%B4%CF%81%CE%B1%CF%85%CE%BB%CE%B9%CE%BA%CF%8C%CF%82+%CE%9A%CE%B9%CF%83%CE%BA%CE%B1%CF%82/data=!4m7!3m6!1s0x135741c15bbdf445:0xddebb54d1be7818!8m2!3d40.7887494!4d21.413656!16s%2Fg%2F11w85f7w3f!19sChIJRfS9W8FBVxMRGHi-0VS73g0?authuser=0&hl=tr&rclk=1",
    "website_url": "",
    "rating_text": "",
    "stars": null,
    "number_of_reviews": null,
    "price_level": "",
    "open_hours": "",
    "extraction_timestamp": "2025-06-07T15:29:44.408Z",
    "source_name": "google",
    "source_query": "Irrigation Equipment",
    "source_country": "GR",
    "country": "Greece",
    "state": "West Macedonia Region",
    "city": "Flórina"
  },
  {
    "source_id": "ChIJ6VpwWBdBVxMRyGAKgaZay9U",
    "name": "Sklavenitis",
    "category": "Sklavenitis",
    "formatted_address": "4,4(92)",
    "phone_number": "+302385044360",
    "source_url": "https://www.google.com/maps/place/Sklavenitis/data=!4m7!3m6!1s0x1357411758705ae9:0xd5cb5aa6810a60c8!8m2!3d40.7801959!4d21.4086806!16s%2Fg%2F11dywsz0v4!19sChIJ6VpwWBdBVxMRyGAKgaZay9U?authuser=0&hl=tr&rclk=1",
    "website_url": "",
    "rating_text": "4,4",
    "stars": null,
    "number_of_reviews": null,
    "price_level": "",
    "open_hours": "",
    "extraction_timestamp": "2025-06-07T15:29:44.409Z",
    "source_name": "google",
    "source_query": "Irrigation Equipment",
    "source_country": "GR",
    "country": "Greece",
    "state": "West Macedonia Region",
    "city": "Flórina"
  },
  {
    "source_id": "ChIJlabUSqdBVxMRGSfFqfJ3RWw",
    "name": "Oh Bear Boutique",
    "category": "Oh Bear Boutique",
    "formatted_address": "5,0(83)",
    "phone_number": "+302385045452",
    "source_url": "https://www.google.com/maps/place/Oh+Bear+Boutique/data=!4m7!3m6!1s0x135741a74ad4a695:0x6c4577f2a9c52719!8m2!3d40.7786825!4d21.4054641!16s%2Fg%2F11std_bnh5!19sChIJlabUSqdBVxMRGSfFqfJ3RWw?authuser=0&hl=tr&rclk=1",
    "website_url": "",
    "rating_text": "5,0",
    "stars": null,
    "number_of_reviews": null,
    "price_level": "",
    "open_hours": "",
    "extraction_timestamp": "2025-06-07T15:29:44.411Z",
    "source_name": "google",
    "source_query": "Irrigation Equipment",
    "source_country": "GR",
    "country": "Greece",
    "state": "West Macedonia Region",
    "city": "Flórina"
  },
  {
    "source_id": "ChIJkVHR2z39WRMRk9N1DCAGalQ",
    "name": "ΑΛΕΞΑΝΔΡΙΔΗΣ \"WATER4YOU\" Φίλτρα Νερού",
    "category": "ΑΛΕΞΑΝΔΡΙΔΗΣ \"WATER4YOU\" Φίλτρα Νερού",
    "formatted_address": "5,0(57)",
    "phone_number": "+302467027608",
    "source_url": "https://www.google.com/maps/place/%CE%91%CE%9B%CE%95%CE%9E%CE%91%CE%9D%CE%94%CE%A1%CE%99%CE%94%CE%97%CE%A3+%22WATER4YOU%22+%CE%A6%CE%AF%CE%BB%CF%84%CF%81%CE%B1+%CE%9D%CE%B5%CF%81%CE%BF%CF%8D/data=!4m7!3m6!1s0x1359fd3ddbd15191:0x546a06200c75d393!8m2!3d40.5218054!4d21.262532!16s%2Fg%2F11bzw__6zs!19sChIJkVHR2z39WRMRk9N1DCAGalQ?authuser=0&hl=tr&rclk=1",
    "website_url": "https://water4you.gr/",
    "rating_text": "5,0",
    "stars": null,
    "number_of_reviews": null,
    "price_level": "",
    "open_hours": "",
    "extraction_timestamp": "2025-06-07T15:30:48.274Z",
    "source_name": "google",
    "source_query": "Irrigation Equipment",
    "source_country": "GR",
    "country": "Greece",
    "state": "West Macedonia Region",
    "city": "Kastoria"
  },
  {
    "source_id": "ChIJnynjb3L9WRMRF_4XdDylux0",
    "name": "Παναγιώτης Κράτσιος Θέρμανση - Ύδρευση",
    "category": "Παναγιώτης Κράτσιος Θέρμανση - Ύδρευση",
    "formatted_address": "5,0(24)",
    "phone_number": "+302467087333",
    "source_url": "https://www.google.com/maps/place/%CE%A0%CE%B1%CE%BD%CE%B1%CE%B3%CE%B9%CF%8E%CF%84%CE%B7%CF%82+%CE%9A%CF%81%CE%AC%CF%84%CF%83%CE%B9%CE%BF%CF%82+%CE%98%CE%AD%CF%81%CE%BC%CE%B1%CE%BD%CF%83%CE%B7+-+%CE%8E%CE%B4%CF%81%CE%B5%CF%85%CF%83%CE%B7/data=!4m7!3m6!1s0x1359fd726fe3299f:0x1dbba53c7417fe17!8m2!3d40.5226888!4d21.2616037!16s%2Fg%2F11nrxxczdk!19sChIJnynjb3L9WRMRF_4XdDylux0?authuser=0&hl=tr&rclk=1",
    "website_url": "",
    "rating_text": "5,0",
    "stars": null,
    "number_of_reviews": null,
    "price_level": "",
    "open_hours": "",
    "extraction_timestamp": "2025-06-07T15:30:48.276Z",
    "source_name": "google",
    "source_query": "Irrigation Equipment",
    "source_country": "GR",
    "country": "Greece",
    "state": "West Macedonia Region",
    "city": "Kastoria"
  },
  {
    "source_id": "ChIJ04VWOFj9WRMRPKL-dD5pvrg",
    "name": "Φίλτρα νερού - Νερό και υγεία Λεωνίδας Γεωργιάδης",
    "category": "Φίλτρα νερού - Νερό και υγεία Λεωνίδας Γεωργιάδης",
    "formatted_address": "5,0(3)",
    "phone_number": "+302467022800",
    "source_url": "https://www.google.com/maps/place/%CE%A6%CE%AF%CE%BB%CF%84%CF%81%CE%B1+%CE%BD%CE%B5%CF%81%CE%BF%CF%8D+-+%CE%9D%CE%B5%CF%81%CF%8C+%CE%BA%CE%B1%CE%B9+%CF%85%CE%B3%CE%B5%CE%AF%CE%B1+%CE%9B%CE%B5%CF%89%CE%BD%CE%AF%CE%B4%CE%B1%CF%82+%CE%93%CE%B5%CF%89%CF%81%CE%B3%CE%B9%CE%AC%CE%B4%CE%B7%CF%82/data=!4m7!3m6!1s0x1359fd58385685d3:0xb8be693e74fea23c!8m2!3d40.5224066!4d21.2639647!16s%2Fg%2F11n15bwt_5!19sChIJ04VWOFj9WRMRPKL-dD5pvrg?authuser=0&hl=tr&rclk=1",
    "website_url": "",
    "rating_text": "5,0",
    "stars": null,
    "number_of_reviews": null,
    "price_level": "",
    "open_hours": "",
    "extraction_timestamp": "2025-06-07T15:30:48.278Z",
    "source_name": "google",
    "source_query": "Irrigation Equipment",
    "source_country": "GR",
    "country": "Greece",
    "state": "West Macedonia Region",
    "city": "Kastoria"
  },
  {
    "source_id": "ChIJNeGDTyv9WRMRtiugZ20ODZg",
    "name": "ΚΑΡΑΓΕΩΡΓΙΑΔΗΣ ΒΑΣΙΛΗΣ - Η ΛΥΣΗ ΣΤΟ ΠΡΟΒΛΗΜΑ ΣΑΣ",
    "category": "ΚΑΡΑΓΕΩΡΓΙΑΔΗΣ ΒΑΣΙΛΗΣ - Η ΛΥΣΗ ΣΤΟ ΠΡΟΒΛΗΜΑ ΣΑΣ",
    "formatted_address": "3,8(11)",
    "phone_number": "+306947304227",
    "source_url": "https://www.google.com/maps/place/%CE%9A%CE%91%CE%A1%CE%91%CE%93%CE%95%CE%A9%CE%A1%CE%93%CE%99%CE%91%CE%94%CE%97%CE%A3+%CE%92%CE%91%CE%A3%CE%99%CE%9B%CE%97%CE%A3+-+%CE%97+%CE%9B%CE%A5%CE%A3%CE%97+%CE%A3%CE%A4%CE%9F+%CE%A0%CE%A1%CE%9F%CE%92%CE%9B%CE%97%CE%9C%CE%91+%CE%A3%CE%91%CE%A3/data=!4m7!3m6!1s0x1359fd2b4f83e135:0x980d0e6d67a02bb6!8m2!3d40.2308423!4d21.47931!16s%2Fg%2F11h4nbl66s!19sChIJNeGDTyv9WRMRtiugZ20ODZg?authuser=0&hl=tr&rclk=1",
    "website_url": "",
    "rating_text": "3,8",
    "stars": null,
    "number_of_reviews": null,
    "price_level": "",
    "open_hours": "",
    "extraction_timestamp": "2025-06-07T15:30:48.280Z",
    "source_name": "google",
    "source_query": "Irrigation Equipment",
    "source_country": "GR",
    "country": "Greece",
    "state": "West Macedonia Region",
    "city": "Kastoria"
  },
  {
    "source_id": "ChIJNco2QDr9WRMRIB-aMgU16N0",
    "name": "Ηλιόπουλος Παντελής",
    "category": "Ηλιόπουλος Παντελής",
    "formatted_address": "4,5(24)",
    "phone_number": "+302467083395",
    "source_url": "https://www.google.com/maps/place/%CE%97%CE%BB%CE%B9%CF%8C%CF%80%CE%BF%CF%85%CE%BB%CE%BF%CF%82+%CE%A0%CE%B1%CE%BD%CF%84%CE%B5%CE%BB%CE%AE%CF%82/data=!4m7!3m6!1s0x1359fd3a4036ca35:0xdde83505329a1f20!8m2!3d40.5210245!4d21.2577336!16s%2Fg%2F11bzx2tys_!19sChIJNco2QDr9WRMRIB-aMgU16N0?authuser=0&hl=tr&rclk=1",
    "website_url": "http://www.hliopoulos.eu/",
    "rating_text": "4,5",
    "stars": null,
    "number_of_reviews": null,
    "price_level": "",
    "open_hours": "",
    "extraction_timestamp": "2025-06-07T15:30:48.281Z",
    "source_name": "google",
    "source_query": "Irrigation Equipment",
    "source_country": "GR",
    "country": "Greece",
    "state": "West Macedonia Region",
    "city": "Kastoria"
  },
  {
    "source_id": "ChIJm-UQ2_v8WRMRJdCVRqVDsd0",
    "name": "myAGROmarket - Agromarket Καστοριάς",
    "category": "myAGROmarket - Agromarket Καστοριάς",
    "formatted_address": "4,8(82)",
    "phone_number": "+302467084310",
    "source_url": "https://www.google.com/maps/place/myAGROmarket+-+Agromarket+%CE%9A%CE%B1%CF%83%CF%84%CE%BF%CF%81%CE%B9%CE%AC%CF%82/data=!4m7!3m6!1s0x1359fcfbdb10e59b:0xddb143a54695d025!8m2!3d40.5048311!4d21.2433058!16s%2Fg%2F11b6nlnlmn!19sChIJm-UQ2_v8WRMRJdCVRqVDsd0?authuser=0&hl=tr&rclk=1",
    "website_url": "https://www.myagromarket.gr/",
    "rating_text": "4,8",
    "stars": null,
    "number_of_reviews": null,
    "price_level": "",
    "open_hours": "",
    "extraction_timestamp": "2025-06-07T15:30:48.283Z",
    "source_name": "google",
    "source_query": "Irrigation Equipment",
    "source_country": "GR",
    "country": "Greece",
    "state": "West Macedonia Region",
    "city": "Kastoria"
  },
  {
    "source_id": "ChIJJ_9V3hv9WRMReUq1vGB8IiI",
    "name": "MANTHOS S. - MELLIOPOULOS K. VETAGRO",
    "category": "MANTHOS S. - MELLIOPOULOS K. VETAGRO",
    "formatted_address": "4,9(54)",
    "phone_number": "+302467081981",
    "source_url": "https://www.google.com/maps/place/MANTHOS+S.+-+MELLIOPOULOS+K.+VETAGRO/data=!4m7!3m6!1s0x1359fd1bde55ff27:0x22227c60bcb54a79!8m2!3d40.5189445!4d21.256193!16s%2Fg%2F1v70ytgt!19sChIJJ_9V3hv9WRMReUq1vGB8IiI?authuser=0&hl=tr&rclk=1",
    "website_url": "",
    "rating_text": "4,9",
    "stars": null,
    "number_of_reviews": null,
    "price_level": "",
    "open_hours": "",
    "extraction_timestamp": "2025-06-07T15:30:48.285Z",
    "source_name": "google",
    "source_query": "Irrigation Equipment",
    "source_country": "GR",
    "country": "Greece",
    "state": "West Macedonia Region",
    "city": "Kastoria"
  },
  {
    "source_id": "ChIJAXe_gV_9WRMRE8jMzpg7o7c",
    "name": "ALPHATHERM - ΛΑΖΑΡΟΣ ΑΙΝΗΣ",
    "category": "ALPHATHERM - ΛΑΖΑΡΟΣ ΑΙΝΗΣ",
    "formatted_address": "",
    "phone_number": "+306939178869",
    "source_url": "https://www.google.com/maps/place/ALPHATHERM+-+%CE%9B%CE%91%CE%96%CE%91%CE%A1%CE%9F%CE%A3+%CE%91%CE%99%CE%9D%CE%97%CE%A3/data=!4m7!3m6!1s0x1359fd5f81bf7701:0xb7a33b98ceccc813!8m2!3d40.511567!4d21.2511143!16s%2Fg%2F11spn4ylv3!19sChIJAXe_gV_9WRMRE8jMzpg7o7c?authuser=0&hl=tr&rclk=1",
    "website_url": "",
    "rating_text": "",
    "stars": null,
    "number_of_reviews": null,
    "price_level": "",
    "open_hours": "",
    "extraction_timestamp": "2025-06-07T15:30:48.286Z",
    "source_name": "google",
    "source_query": "Irrigation Equipment",
    "source_country": "GR",
    "country": "Greece",
    "state": "West Macedonia Region",
    "city": "Kastoria"
  },
  {
    "source_id": "ChIJTYaybO7tWRMRuGeBgx8KyaI",
    "name": "Υδραυλικά \" Καπέσιος\"",
    "category": "Υδραυλικά \" Καπέσιος\"",
    "formatted_address": "5,0(1)",
    "phone_number": "+302468031254",
    "source_url": "https://www.google.com/maps/place/%CE%A5%CE%B4%CF%81%CE%B1%CF%85%CE%BB%CE%B9%CE%BA%CE%AC+%22+%CE%9A%CE%B1%CF%80%CE%AD%CF%83%CE%B9%CE%BF%CF%82%22/data=!4m7!3m6!1s0x1359edee6cb2864d:0xa2c90a1f838167b8!8m2!3d40.2622531!4d21.3235915!16s%2Fg%2F11fkwcwnkt!19sChIJTYaybO7tWRMRuGeBgx8KyaI?authuser=0&hl=tr&rclk=1",
    "website_url": "",
    "rating_text": "5,0",
    "stars": null,
    "number_of_reviews": null,
    "price_level": "",
    "open_hours": "",
    "extraction_timestamp": "2025-06-07T15:30:57.511Z",
    "source_name": "google",
    "source_query": "Irrigation Equipment",
    "source_country": "GR",
    "country": "Greece",
    "state": "West Macedonia Region",
    "city": "Tsotíli"
  },
  {
    "source_id": "ChIJHWtbmwftWRMR63L24klXDio",
    "name": "Ευαγγελόπουλος Κ. κ Υιος Υδραυλικά Θέρμανση Ηλιακά Ενεργιακοί τροποι θέρμανσης",
    "category": "Ευαγγελόπουλος Κ. κ Υιος Υδραυλικά Θέρμανση Ηλιακά Ενεργιακοί τροποι θέρμανσης",
    "formatted_address": "4,4(5)",
    "phone_number": "+306976178557",
    "source_url": "https://www.google.com/maps/place/%CE%95%CF%85%CE%B1%CE%B3%CE%B3%CE%B5%CE%BB%CF%8C%CF%80%CE%BF%CF%85%CE%BB%CE%BF%CF%82+%CE%9A.+%CE%BA+%CE%A5%CE%B9%CE%BF%CF%82+%CE%A5%CE%B4%CF%81%CE%B1%CF%85%CE%BB%CE%B9%CE%BA%CE%AC+%CE%98%CE%AD%CF%81%CE%BC%CE%B1%CE%BD%CF%83%CE%B7+%CE%97%CE%BB%CE%B9%CE%B1%CE%BA%CE%AC+%CE%95%CE%BD%CE%B5%CF%81%CE%B3%CE%B9%CE%B1%CE%BA%CE%BF%CE%AF+%CF%84%CF%81%CE%BF%CF%80%CE%BF%CE%B9+%CE%B8%CE%AD%CF%81%CE%BC%CE%B1%CE%BD%CF%83%CE%B7%CF%82/data=!4m7!3m6!1s0x1359ed079b5b6b1d:0x2a0e5749e2f672eb!8m2!3d40.261254!4d21.322842!16s%2Fg%2F1hm20w4z0!19sChIJHWtbmwftWRMR63L24klXDio?authuser=0&hl=tr&rclk=1",
    "website_url": "",
    "rating_text": "4,4",
    "stars": null,
    "number_of_reviews": null,
    "price_level": "",
    "open_hours": "",
    "extraction_timestamp": "2025-06-07T15:30:57.513Z",
    "source_name": "google",
    "source_query": "Irrigation Equipment",
    "source_country": "GR",
    "country": "Greece",
    "state": "West Macedonia Region",
    "city": "Tsotíli"
  },
  {
    "source_id": "ChIJQ7yN6KztWRMRNivTXAkFvBU",
    "name": "Arista Market - Λιερίδης",
    "category": "Arista Market - Λιερίδης",
    "formatted_address": "4,6(105)",
    "phone_number": "+302468049028",
    "source_url": "https://www.google.com/maps/place/Arista+Market+-+%CE%9B%CE%B9%CE%B5%CF%81%CE%AF%CE%B4%CE%B7%CF%82/data=!4m7!3m6!1s0x1359edace88dbc43:0x15bc05095cd32b36!8m2!3d40.262808!4d21.3252538!16s%2Fg%2F11h6tr6mhz!19sChIJQ7yN6KztWRMRNivTXAkFvBU?authuser=0&hl=tr&rclk=1",
    "website_url": "",
    "rating_text": "4,6",
    "stars": null,
    "number_of_reviews": null,
    "price_level": "",
    "open_hours": "",
    "extraction_timestamp": "2025-06-07T15:30:57.515Z",
    "source_name": "google",
    "source_query": "Irrigation Equipment",
    "source_country": "GR",
    "country": "Greece",
    "state": "West Macedonia Region",
    "city": "Tsotíli"
  },
  {
    "source_id": "ChIJg97NsRbtWRMRmtuxuKfcdGU",
    "name": "ΥPER Grigoradis",
    "category": "ΥPER Grigoradis",
    "formatted_address": "4,2(25)",
    "phone_number": "+302468032231",
    "source_url": "https://www.google.com/maps/place/%CE%A5PER+Grigoradis/data=!4m7!3m6!1s0x1359ed16b1cdde83:0x6574dca7b8b1db9a!8m2!3d40.2645801!4d21.3244946!16s%2Fg%2F11jv6zhcq1!19sChIJg97NsRbtWRMRmtuxuKfcdGU?authuser=0&hl=tr&rclk=1",
    "website_url": "",
    "rating_text": "4,2",
    "stars": null,
    "number_of_reviews": null,
    "price_level": "",
    "open_hours": "",
    "extraction_timestamp": "2025-06-07T15:30:57.517Z",
    "source_name": "google",
    "source_query": "Irrigation Equipment",
    "source_country": "GR",
    "country": "Greece",
    "state": "West Macedonia Region",
    "city": "Tsotíli"
  },
  {
    "source_id": "ChIJP6mV10R_WBMRmKs2kVzQQL0",
    "name": "ADRITEC EUROPE S.A.",
    "category": "ADRITEC EUROPE S.A.",
    "formatted_address": "4,6(20)",
    "phone_number": "+302410975170",
    "source_url": "https://www.google.com/maps/place/ADRITEC+EUROPE+S.A./data=!4m7!3m6!1s0x13587f44d795a93f:0xbd40d05c9136ab98!8m2!3d39.6762619!4d22.5489292!16s%2Fg%2F11_qtp7mx!19sChIJP6mV10R_WBMRmKs2kVzQQL0?authuser=0&hl=tr&rclk=1",
    "website_url": "",
    "rating_text": "4,6",
    "stars": null,
    "number_of_reviews": null,
    "price_level": "",
    "open_hours": "",
    "extraction_timestamp": "2025-06-07T15:30:57.519Z",
    "source_name": "google",
    "source_query": "Irrigation Equipment",
    "source_country": "GR",
    "country": "Greece",
    "state": "West Macedonia Region",
    "city": "Tsotíli"
  },
  {
    "source_id": "ChIJc6bDLWslWBMROM0dQGx9lnY",
    "name": "Τσιανακα Βαια",
    "category": "Τσιανακα Βαια",
    "formatted_address": "5,0(3)",
    "phone_number": "",
    "source_url": "https://www.google.com/maps/place/%CE%A4%CF%83%CE%B9%CE%B1%CE%BD%CE%B1%CE%BA%CE%B1+%CE%92%CE%B1%CE%B9%CE%B1/data=!4m7!3m6!1s0x1358256b2dc3a673:0x76967d6c401dcd38!8m2!3d40.2545486!4d22.0711704!16s%2Fg%2F11f10f3bsc!19sChIJc6bDLWslWBMROM0dQGx9lnY?authuser=0&hl=tr&rclk=1",
    "website_url": "",
    "rating_text": "5,0",
    "stars": null,
    "number_of_reviews": null,
    "price_level": "",
    "open_hours": "",
    "extraction_timestamp": "2025-06-07T15:31:06.123Z",
    "source_name": "google",
    "source_query": "Irrigation Equipment",
    "source_country": "GR",
    "country": "Greece",
    "state": "West Macedonia Region",
    "city": "Velventós"
  },
  {
    "source_id": "ChIJ8VeX9RElWBMRJVRdbbIYh54",
    "name": "ALSOS VELVENTOU",
    "category": "ALSOS VELVENTOU",
    "formatted_address": "4,6(127) · €5–10",
    "phone_number": "+306972816057",
    "source_url": "https://www.google.com/maps/place/ALSOS+VELVENTOU/data=!4m7!3m6!1s0x13582511f59757f1:0x9e8718b26d5d5425!8m2!3d40.2590338!4d22.0775177!16s%2Fg%2F11c0t981jn!19sChIJ8VeX9RElWBMRJVRdbbIYh54?authuser=0&hl=tr&rclk=1",
    "website_url": "",
    "rating_text": "4,6",
    "stars": null,
    "number_of_reviews": null,
    "price_level": "",
    "open_hours": "",
    "extraction_timestamp": "2025-06-07T15:31:06.124Z",
    "source_name": "google",
    "source_query": "Irrigation Equipment",
    "source_country": "GR",
    "country": "Greece",
    "state": "West Macedonia Region",
    "city": "Velventós"
  },
  {
    "source_id": "ChIJPVv5MGslWBMRp-BO-6YrIx8",
    "name": "ΤΣΙΡΤΣΙΟΥΡΗΣ MARKET",
    "category": "ΤΣΙΡΤΣΙΟΥΡΗΣ MARKET",
    "formatted_address": "4,4(15)",
    "phone_number": "+302464032350",
    "source_url": "https://www.google.com/maps/place/%CE%A4%CE%A3%CE%99%CE%A1%CE%A4%CE%A3%CE%99%CE%9F%CE%A5%CE%A1%CE%97%CE%A3+MARKET/data=!4m7!3m6!1s0x1358256b30f95b3d:0x1f232ba6fb4ee0a7!8m2!3d40.2547086!4d22.070713!16s%2Fg%2F11b_2ygj37!19sChIJPVv5MGslWBMRp-BO-6YrIx8?authuser=0&hl=tr&rclk=1",
    "website_url": "",
    "rating_text": "4,4",
    "stars": null,
    "number_of_reviews": null,
    "price_level": "",
    "open_hours": "",
    "extraction_timestamp": "2025-06-07T15:31:06.124Z",
    "source_name": "google",
    "source_query": "Irrigation Equipment",
    "source_country": "GR",
    "country": "Greece",
    "state": "West Macedonia Region",
    "city": "Velventós"
  },
  {
    "source_id": "ChIJmXRsSGslWBMR5MjOVY7mqVM",
    "name": "Καφέ-μπαρ «Αίνιγμα»",
    "category": "Καφέ-μπαρ «Αίνιγμα»",
    "formatted_address": "4,8(159) · €1–5",
    "phone_number": "+302464031500",
    "source_url": "https://www.google.com/maps/place/%CE%9A%CE%B1%CF%86%CE%AD-%CE%BC%CF%80%CE%B1%CF%81+%C2%AB%CE%91%CE%AF%CE%BD%CE%B9%CE%B3%CE%BC%CE%B1%C2%BB/data=!4m7!3m6!1s0x1358256b486c7499:0x53a9e68e55cec8e4!8m2!3d40.255408!4d22.0708068!16s%2Fg%2F11c1s2jkh3!19sChIJmXRsSGslWBMR5MjOVY7mqVM?authuser=0&hl=tr&rclk=1",
    "website_url": "https://www.facebook.com/profile.php?id=100002967026785",
    "rating_text": "4,8",
    "stars": null,
    "number_of_reviews": null,
    "price_level": "",
    "open_hours": "",
    "extraction_timestamp": "2025-06-07T15:31:06.125Z",
    "source_name": "google",
    "source_query": "Irrigation Equipment",
    "source_country": "GR",
    "country": "Greece",
    "state": "West Macedonia Region",
    "city": "Velventós"
  },
  {
    "source_id": "ChIJY_ep6GslWBMRTgq0Ef-gxmA",
    "name": "KRITIKOS Super Market",
    "category": "KRITIKOS Super Market",
    "formatted_address": "4,5(57)",
    "phone_number": "+302464031334",
    "source_url": "https://www.google.com/maps/place/KRITIKOS+Super+Market/data=!4m7!3m6!1s0x1358256be8a9f763:0x60c6a0ff11b40a4e!8m2!3d40.25646!4d22.06627!16s%2Fg%2F11f_j299nr!19sChIJY_ep6GslWBMRTgq0Ef-gxmA?authuser=0&hl=tr&rclk=1",
    "website_url": "http://www.kritikos-sm.gr/",
    "rating_text": "4,5",
    "stars": null,
    "number_of_reviews": null,
    "price_level": "",
    "open_hours": "",
    "extraction_timestamp": "2025-06-07T15:31:06.125Z",
    "source_name": "google",
    "source_query": "Irrigation Equipment",
    "source_country": "GR",
    "country": "Greece",
    "state": "West Macedonia Region",
    "city": "Velventós"
  },
  {
    "source_id": "ChIJP6mV10R_WBMRmKs2kVzQQL0",
    "name": "ADRITEC EUROPE S.A.",
    "category": "ADRITEC EUROPE S.A.",
    "formatted_address": "4,6(20)",
    "phone_number": "+302410975170",
    "source_url": "https://www.google.com/maps/place/ADRITEC+EUROPE+S.A./data=!4m7!3m6!1s0x13587f44d795a93f:0xbd40d05c9136ab98!8m2!3d39.6762619!4d22.5489292!16s%2Fg%2F11_qtp7mx!19sChIJP6mV10R_WBMRmKs2kVzQQL0?authuser=0&hl=tr&rclk=1",
    "website_url": "https://www.adriteceurope.gr/",
    "rating_text": "4,6",
    "stars": null,
    "number_of_reviews": null,
    "price_level": "",
    "open_hours": "",
    "extraction_timestamp": "2025-06-07T15:31:06.136Z",
    "source_name": "google",
    "source_query": "Irrigation Equipment",
    "source_country": "GR",
    "country": "Greece",
    "state": "West Macedonia Region",
    "city": "Velventós"
  },
  {
    "source_id": "ChIJK1qlHm7SWRMRELu_kuMZXwQ",
    "name": "WATER SERVICE",
    "category": "WATER SERVICE",
    "formatted_address": "5,0(14)",
    "phone_number": "+302461502778",
    "source_url": "https://www.google.com/maps/place/WATER+SERVICE/data=!4m7!3m6!1s0x1359d26e1ea55a2b:0x45f19e392bfbb10!8m2!3d40.2976114!4d21.7925627!16s%2Fg%2F11c74zr43g!19sChIJK1qlHm7SWRMRELu_kuMZXwQ?authuser=0&hl=tr&rclk=1",
    "website_url": "",
    "rating_text": "5,0",
    "stars": null,
    "number_of_reviews": null,
    "price_level": "",
    "open_hours": "",
    "extraction_timestamp": "2025-06-07T15:31:14.702Z",
    "source_name": "google",
    "source_query": "Irrigation Equipment",
    "source_country": "GR",
    "country": "Greece",
    "state": "West Macedonia Region",
    "city": "Kozáni"
  },
  {
    "source_id": "ChIJzSJhlAzSWRMR2Ju5tVOd9mw",
    "name": "ΖΕΡΒΑΝΤΑΡΙΔΗΣ Γ. ΦΩΤΙΟΣ ΓΕΩΠΟΝΟΣ Α.Π.Θ.",
    "category": "ΖΕΡΒΑΝΤΑΡΙΔΗΣ Γ. ΦΩΤΙΟΣ ΓΕΩΠΟΝΟΣ Α.Π.Θ.",
    "formatted_address": "4,9(118)",
    "phone_number": "+302461023533",
    "source_url": "https://www.google.com/maps/place/%CE%96%CE%95%CE%A1%CE%92%CE%91%CE%9D%CE%A4%CE%91%CE%A1%CE%99%CE%94%CE%97%CE%A3+%CE%93.+%CE%A6%CE%A9%CE%A4%CE%99%CE%9F%CE%A3+%CE%93%CE%95%CE%A9%CE%A0%CE%9F%CE%9D%CE%9F%CE%A3+%CE%91.%CE%A0.%CE%98./data=!4m7!3m6!1s0x1359d20c946122cd:0x6cf69d53b5b99bd8!8m2!3d40.2948923!4d21.7843008!16s%2Fg%2F1pp2tgm09!19sChIJzSJhlAzSWRMR2Ju5tVOd9mw?authuser=0&hl=tr&rclk=1",
    "website_url": "",
    "rating_text": "4,9",
    "stars": null,
    "number_of_reviews": null,
    "price_level": "",
    "open_hours": "",
    "extraction_timestamp": "2025-06-07T15:31:14.703Z",
    "source_name": "google",
    "source_query": "Irrigation Equipment",
    "source_country": "GR",
    "country": "Greece",
    "state": "West Macedonia Region",
    "city": "Kozáni"
  },
  {
    "source_id": "ChIJEdwvEyHTWRMRw5agkgeTpdc",
    "name": "Ο Πόντιος - Υδραυλικός Κοζάνη",
    "category": "Ο Πόντιος - Υδραυλικός Κοζάνη",
    "formatted_address": "4,7(59)",
    "phone_number": "+306972338676",
    "source_url": "https://www.google.com/maps/place/%CE%9F+%CE%A0%CF%8C%CE%BD%CF%84%CE%B9%CE%BF%CF%82+-+%CE%A5%CE%B4%CF%81%CE%B1%CF%85%CE%BB%CE%B9%CE%BA%CF%8C%CF%82+%CE%9A%CE%BF%CE%B6%CE%AC%CE%BD%CE%B7/data=!4m7!3m6!1s0x1359d321132fdc11:0xd7a5930792a096c3!8m2!3d40.3013854!4d21.7878835!16s%2Fg%2F11n05s5mc2!19sChIJEdwvEyHTWRMRw5agkgeTpdc?authuser=0&hl=tr&rclk=1",
    "website_url": "",
    "rating_text": "4,7",
    "stars": null,
    "number_of_reviews": null,
    "price_level": "",
    "open_hours": "",
    "extraction_timestamp": "2025-06-07T15:31:14.705Z",
    "source_name": "google",
    "source_query": "Irrigation Equipment",
    "source_country": "GR",
    "country": "Greece",
    "state": "West Macedonia Region",
    "city": "Kozáni"
  },
  {
    "source_id": "ChIJ_VtrP3fSWRMReFbMqhjiuXA",
    "name": "Α.Θ.ΚΕΧΑΓΙΑΣ",
    "category": "Α.Θ.ΚΕΧΑΓΙΑΣ",
    "formatted_address": "4,8(27)",
    "phone_number": "+302461022696",
    "source_url": "https://www.google.com/maps/place/%CE%91.%CE%98.%CE%9A%CE%95%CE%A7%CE%91%CE%93%CE%99%CE%91%CE%A3/data=!4m7!3m6!1s0x1359d2773f6b5bfd:0x70b9e218aacc5678!8m2!3d40.2907226!4d21.7957391!16s%2Fg%2F11c1qlrw2n!19sChIJ_VtrP3fSWRMReFbMqhjiuXA?authuser=0&hl=tr&rclk=1",
    "website_url": "",
    "rating_text": "4,8",
    "stars": null,
    "number_of_reviews": null,
    "price_level": "",
    "open_hours": "",
    "extraction_timestamp": "2025-06-07T15:31:14.706Z",
    "source_name": "google",
    "source_query": "Irrigation Equipment",
    "source_country": "GR",
    "country": "Greece",
    "state": "West Macedonia Region",
    "city": "Kozáni"
  },
  {
    "source_id": "ChIJ6VIlOXStCWYRnLy_fVci9aQ",
    "name": "Στυλιανός Κων. Κικίδης",
    "category": "Στυλιανός Κων. Κικίδης",
    "formatted_address": "5,0(7)",
    "phone_number": "+306975712940",
    "source_url": "https://www.google.com/maps/place/%CE%A3%CF%84%CF%85%CE%BB%CE%B9%CE%B1%CE%BD%CF%8C%CF%82+%CE%9A%CF%89%CE%BD.+%CE%9A%CE%B9%CE%BA%CE%AF%CE%B4%CE%B7%CF%82/data=!4m7!3m6!1s0x6609ad74392552e9:0xa4f522577dbfbc9c!8m2!3d40.3310233!4d21.6294594!16s%2Fg%2F11s8w7rg6r!19sChIJ6VIlOXStCWYRnLy_fVci9aQ?authuser=0&hl=tr&rclk=1",
    "website_url": "",
    "rating_text": "5,0",
    "stars": null,
    "number_of_reviews": null,
    "price_level": "",
    "open_hours": "",
    "extraction_timestamp": "2025-06-07T15:31:14.707Z",
    "source_name": "google",
    "source_query": "Irrigation Equipment",
    "source_country": "GR",
    "country": "Greece",
    "state": "West Macedonia Region",
    "city": "Kozáni"
  },
  {
    "source_id": "ChIJD3ns7mXSWRMRC_8Fe_727SA",
    "name": "PAPADOPOULOS, I., - N. KOZIKOPOULOS O.E.",
    "category": "PAPADOPOULOS, I., - N. KOZIKOPOULOS O.E.",
    "formatted_address": "PAPADOPOULOS, I., - N. KOZIKOPOULOS O.E.",
    "phone_number": "+302461041439",
    "source_url": "https://www.google.com/maps/place/PAPADOPOULOS,+I.,+-+N.+KOZIKOPOULOS+O.E./data=!4m7!3m6!1s0x1359d265eeec790f:0x20edf6fe7b05ff0b!8m2!3d40.3001512!4d21.7983209!16s%2Fg%2F11c57crlft!19sChIJD3ns7mXSWRMRC_8Fe_727SA?authuser=0&hl=tr&rclk=1",
    "website_url": "",
    "rating_text": "5,0",
    "stars": null,
    "number_of_reviews": null,
    "price_level": "",
    "open_hours": "",
    "extraction_timestamp": "2025-06-07T15:31:14.708Z",
    "source_name": "google",
    "source_query": "Irrigation Equipment",
    "source_country": "GR",
    "country": "Greece",
    "state": "West Macedonia Region",
    "city": "Kozáni"
  },
  {
    "source_id": "ChIJj9kVeW_SWRMR0i6T1QkDHQo",
    "name": "INTERSPORT Κοζάνης",
    "category": "INTERSPORT Κοζάνης",
    "formatted_address": "4,4(432)",
    "phone_number": "+302102806060",
    "source_url": "https://www.google.com/maps/place/INTERSPORT+%CE%9A%CE%BF%CE%B6%CE%AC%CE%BD%CE%B7%CF%82/data=!4m7!3m6!1s0x1359d26f7915d98f:0xa1d0309d5932ed2!8m2!3d40.2989378!4d21.7967171!16s%2Fg%2F11f1jx0njj!19sChIJj9kVeW_SWRMR0i6T1QkDHQo?authuser=0&hl=tr&rclk=1",
    "website_url": "",
    "rating_text": "4,4",
    "stars": null,
    "number_of_reviews": null,
    "price_level": "",
    "open_hours": "",
    "extraction_timestamp": "2025-06-07T15:31:14.709Z",
    "source_name": "google",
    "source_query": "Irrigation Equipment",
    "source_country": "GR",
    "country": "Greece",
    "state": "West Macedonia Region",
    "city": "Kozáni"
  },
  {
    "source_id": "ChIJkanMmnHSWRMRbKWMws8zdok",
    "name": "PETRIDIS • ΠΕΤΡΙΔΗΣ",
    "category": "PETRIDIS • ΠΕΤΡΙΔΗΣ",
    "formatted_address": "4,8(95)",
    "phone_number": "+302461036080",
    "source_url": "https://www.google.com/maps/place/PETRIDIS+%E2%80%A2+%CE%A0%CE%95%CE%A4%CE%A1%CE%99%CE%94%CE%97%CE%A3/data=!4m7!3m6!1s0x1359d2719acca991:0x897633cfc28ca56c!8m2!3d40.3059767!4d21.8082607!16s%2Fg%2F11b6_f9z8d!19sChIJkanMmnHSWRMRbKWMws8zdok?authuser=0&hl=tr&rclk=1",
    "website_url": "",
    "rating_text": "4,8",
    "stars": null,
    "number_of_reviews": null,
    "price_level": "",
    "open_hours": "",
    "extraction_timestamp": "2025-06-07T15:31:14.710Z",
    "source_name": "google",
    "source_query": "Irrigation Equipment",
    "source_country": "GR",
    "country": "Greece",
    "state": "West Macedonia Region",
    "city": "Kozáni"
  },
  {
    "source_id": "ChIJKyIsDcWnViARPovnkrmx2UI",
    "name": "Αποφρακτική Δυτικής Μακεδονίας",
    "category": "Αποφρακτική Δυτικής Μακεδονίας",
    "formatted_address": "",
    "phone_number": "+306944160261",
    "source_url": "https://www.google.com/maps/place/%CE%91%CF%80%CE%BF%CF%86%CF%81%CE%B1%CE%BA%CF%84%CE%B9%CE%BA%CE%AE+%CE%94%CF%85%CF%84%CE%B9%CE%BA%CE%AE%CF%82+%CE%9C%CE%B1%CE%BA%CE%B5%CE%B4%CE%BF%CE%BD%CE%AF%CE%B1%CF%82/data=!4m7!3m6!1s0x2056a7c50d2c222b:0x42d9b1b992e78b3e!8m2!3d40.2997957!4d21.7860775!16s%2Fg%2F11scw1tfwf!19sChIJKyIsDcWnViARPovnkrmx2UI?authuser=0&hl=tr&rclk=1",
    "website_url": "",
    "rating_text": "",
    "stars": null,
    "number_of_reviews": null,
    "price_level": "",
    "open_hours": "",
    "extraction_timestamp": "2025-06-07T15:31:14.712Z",
    "source_name": "google",
    "source_query": "Irrigation Equipment",
    "source_country": "GR",
    "country": "Greece",
    "state": "West Macedonia Region",
    "city": "Kozáni"
  },
  {
    "source_id": "ChIJP6mV10R_WBMRmKs2kVzQQL0",
    "name": "ADRITEC EUROPE S.A.",
    "category": "ADRITEC EUROPE S.A.",
    "formatted_address": "4,6(20)",
    "phone_number": "+302410975170",
    "source_url": "https://www.google.com/maps/place/ADRITEC+EUROPE+S.A./data=!4m7!3m6!1s0x13587f44d795a93f:0xbd40d05c9136ab98!8m2!3d39.6762619!4d22.5489292!16s%2Fg%2F11_qtp7mx!19sChIJP6mV10R_WBMRmKs2kVzQQL0?authuser=0&hl=tr&rclk=1",
    "website_url": "https://www.adriteceurope.gr/",
    "rating_text": "4,6",
    "stars": null,
    "number_of_reviews": null,
    "price_level": "",
    "open_hours": "",
    "extraction_timestamp": "2025-06-07T15:31:23.318Z",
    "source_name": "google",
    "source_query": "Irrigation Equipment",
    "source_country": "GR",
    "country": "Greece",
    "state": "West Macedonia Region",
    "city": "Nestório"
  },
  {
    "source_id": "ChIJp9W0mGOuoRQRcFupHUAUUcs",
    "name": "Saba Sole Shareholder Co. Ltd",
    "category": "Saba Sole Shareholder Co. Ltd",
    "formatted_address": "5,0(1)",
    "phone_number": "+302105562495",
    "source_url": "https://www.google.com/maps/place/Saba+Sole+Shareholder+Co.+Ltd/data=!4m7!3m6!1s0x14a1ae6398b4d5a7:0xcb5114401da95b70!8m2!3d38.0798304!4d23.4928611!16s%2Fg%2F11gz7hxq6!19sChIJp9W0mGOuoRQRcFupHUAUUcs?authuser=0&hl=tr&rclk=1",
    "website_url": "http://watersprinklers.eu/en/",
    "rating_text": "5,0",
    "stars": null,
    "number_of_reviews": null,
    "price_level": "",
    "open_hours": "",
    "extraction_timestamp": "2025-06-07T15:31:23.320Z",
    "source_name": "google",
    "source_query": "Irrigation Equipment",
    "source_country": "GR",
    "country": "Greece",
    "state": "West Macedonia Region",
    "city": "Nestório"
  },
  {
    "source_id": "ChIJhWjwfsIVVBMRRLnszbZbxUk",
    "name": "Irrigationpro",
    "category": "Irrigationpro",
    "formatted_address": "5,0(1)",
    "phone_number": "+38970401147",
    "source_url": "https://www.google.com/maps/place/Irrigationpro/data=!4m7!3m6!1s0x135415c27ef06885:0x49c55bb6cdecb944!8m2!3d41.9907145!4d21.4371336!16s%2Fg%2F11h27mkf2n!19sChIJhWjwfsIVVBMRRLnszbZbxUk?authuser=0&hl=tr&rclk=1",
    "website_url": "http://www.irrigationpro.mk/",
    "rating_text": "5,0",
    "stars": null,
    "number_of_reviews": null,
    "price_level": "",
    "open_hours": "",
    "extraction_timestamp": "2025-06-07T15:31:23.322Z",
    "source_name": "google",
    "source_query": "Irrigation Equipment",
    "source_country": "GR",
    "country": "Greece",
    "state": "West Macedonia Region",
    "city": "Nestório"
  },
  {
    "source_id": "ChIJl8d5vk5nVxMRFB-K3eGHvLk",
    "name": "ΠΑΝΤΟΠΩΛΕΙΟ ΤΣΑΝΗ ΜΑΡΙΑ",
    "category": "ΠΑΝΤΟΠΩΛΕΙΟ ΤΣΑΝΗ ΜΑΡΙΑ",
    "formatted_address": "4,5(12)",
    "phone_number": "+302386071332",
    "source_url": "https://www.google.com/maps/place/%CE%A0%CE%91%CE%9D%CE%A4%CE%9F%CE%A0%CE%A9%CE%9B%CE%95%CE%99%CE%9F+%CE%A4%CE%A3%CE%91%CE%9D%CE%97+%CE%9C%CE%91%CE%A1%CE%99%CE%91/data=!4m7!3m6!1s0x1357674ebe79c797:0xb9bc87e1dd8a1f14!8m2!3d40.5855265!4d21.491826!16s%2Fg%2F11hcfq9vf0!19sChIJl8d5vk5nVxMRFB-K3eGHvLk?authuser=0&hl=tr&rclk=1",
    "website_url": "",
    "rating_text": "4,5",
    "stars": null,
    "number_of_reviews": null,
    "price_level": "",
    "open_hours": "",
    "extraction_timestamp": "2025-06-07T15:33:22.447Z",
    "source_name": "google",
    "source_query": "Irrigation Equipment",
    "source_country": "GR",
    "country": "Greece",
    "state": "West Macedonia Region",
    "city": "Léchovo"
  },
  {
    "source_id": "ChIJP6mV10R_WBMRmKs2kVzQQL0",
    "name": "ADRITEC EUROPE S.A.",
    "category": "ADRITEC EUROPE S.A.",
    "formatted_address": "4,6(20)",
    "phone_number": "+302410975170",
    "source_url": "https://www.google.com/maps/place/ADRITEC+EUROPE+S.A./data=!4m7!3m6!1s0x13587f44d795a93f:0xbd40d05c9136ab98!8m2!3d39.6762619!4d22.5489292!16s%2Fg%2F11_qtp7mx!19sChIJP6mV10R_WBMRmKs2kVzQQL0?authuser=0&hl=tr&rclk=1",
    "website_url": "https://www.adriteceurope.gr/",
    "rating_text": "4,6",
    "stars": null,
    "number_of_reviews": null,
    "price_level": "",
    "open_hours": "",
    "extraction_timestamp": "2025-06-07T15:33:22.449Z",
    "source_name": "google",
    "source_query": "Irrigation Equipment",
    "source_country": "GR",
    "country": "Greece",
    "state": "West Macedonia Region",
    "city": "Léchovo"
  },
  {
    "source_id": "ChIJ65Us_8P-WRMRinjXwV4jHSU",
    "name": "D.E.Y.A.K Kastoria",
    "category": "D.E.Y.A.K Kastoria",
    "formatted_address": "3,4(8)",
    "phone_number": "+302467061632",
    "source_url": "https://www.google.com/maps/place/D.E.Y.A.K+Kastoria/data=!4m7!3m6!1s0x1359fec3ff2c95eb:0x251d235ec1d7788a!8m2!3d40.5031209!4d21.1589407!16s%2Fg%2F11d_2j05r5!19sChIJ65Us_8P-WRMRinjXwV4jHSU?authuser=0&hl=tr&rclk=1",
    "website_url": "",
    "rating_text": "3,4",
    "stars": null,
    "number_of_reviews": null,
    "price_level": "",
    "open_hours": "",
    "extraction_timestamp": "2025-06-07T15:33:58.289Z",
    "source_name": "google",
    "source_query": "Irrigation Equipment",
    "source_country": "GR",
    "country": "Greece",
    "state": "West Macedonia Region",
    "city": "Mesopotamía"
  },
  {
    "source_id": "ChIJd2vAebj-WRMRm_GqsMModOU",
    "name": "Ελληνική Διατροφή Ισαακίδης Δημήτριος",
    "category": "Ελληνική Διατροφή Ισαακίδης Δημήτριος",
    "formatted_address": "4,8(56)",
    "phone_number": "+302467061562",
    "source_url": "https://www.google.com/maps/place/%CE%95%CE%BB%CE%BB%CE%B7%CE%BD%CE%B9%CE%BA%CE%AE+%CE%94%CE%B9%CE%B1%CF%84%CF%81%CE%BF%CF%86%CE%AE+%CE%99%CF%83%CE%B1%CE%B1%CE%BA%CE%AF%CE%B4%CE%B7%CF%82+%CE%94%CE%B7%CE%BC%CE%AE%CF%84%CF%81%CE%B9%CE%BF%CF%82/data=!4m7!3m6!1s0x1359feb879c06b77:0xe57428c3b0aaf19b!8m2!3d40.4988071!4d21.1654873!16s%2Fg%2F11c562_6mx!19sChIJd2vAebj-WRMRm_GqsMModOU?authuser=0&hl=tr&rclk=1",
    "website_url": "",
    "rating_text": "4,8",
    "stars": null,
    "number_of_reviews": null,
    "price_level": "",
    "open_hours": "",
    "extraction_timestamp": "2025-06-07T15:33:58.290Z",
    "source_name": "google",
    "source_query": "Irrigation Equipment",
    "source_country": "GR",
    "country": "Greece",
    "state": "West Macedonia Region",
    "city": "Mesopotamía"
  },
  {
    "source_id": "ChIJEeWB38P-WRMRhbS2pkApCK0",
    "name": "EXPRESS MARKET",
    "category": "EXPRESS MARKET",
    "formatted_address": "4,6(90)",
    "phone_number": "+302467061204",
    "source_url": "https://www.google.com/maps/place/EXPRESS+MARKET/data=!4m7!3m6!1s0x1359fec3df81e511:0xad082940a6b6b485!8m2!3d40.50534!4d21.15808!16s%2Fg%2F12hrvk56v!19sChIJEeWB38P-WRMRhbS2pkApCK0?authuser=0&hl=tr&rclk=1",
    "website_url": "",
    "rating_text": "4,6",
    "stars": null,
    "number_of_reviews": null,
    "price_level": "",
    "open_hours": "",
    "extraction_timestamp": "2025-06-07T15:33:58.290Z",
    "source_name": "google",
    "source_query": "Irrigation Equipment",
    "source_country": "GR",
    "country": "Greece",
    "state": "West Macedonia Region",
    "city": "Mesopotamía"
  },
  {
    "source_id": "ChIJ83c1KMf-WRMRFFFuoLCBkJQ",
    "name": "ΥΠΕΡ Γρηγοριάδης",
    "category": "ΥΠΕΡ Γρηγοριάδης",
    "formatted_address": "4,0(53)",
    "phone_number": "",
    "source_url": "https://www.google.com/maps/place/%CE%A5%CE%A0%CE%95%CE%A1+%CE%93%CF%81%CE%B7%CE%B3%CE%BF%CF%81%CE%B9%CE%AC%CE%B4%CE%B7%CF%82/data=!4m7!3m6!1s0x1359fec7283577f3:0x949081b0a06e5114!8m2!3d40.5018691!4d21.162378!16s%2Fg%2F11c1pb9ryy!19sChIJ83c1KMf-WRMRFFFuoLCBkJQ?authuser=0&hl=tr&rclk=1",
    "website_url": "",
    "rating_text": "4,0",
    "stars": null,
    "number_of_reviews": null,
    "price_level": "",
    "open_hours": "",
    "extraction_timestamp": "2025-06-07T15:33:58.291Z",
    "source_name": "google",
    "source_query": "Irrigation Equipment",
    "source_country": "GR",
    "country": "Greece",
    "state": "West Macedonia Region",
    "city": "Mesopotamía"
  },
  {
    "source_id": "ChIJP6mV10R_WBMRmKs2kVzQQL0",
    "name": "ADRITEC EUROPE S.A.",
    "category": "ADRITEC EUROPE S.A.",
    "formatted_address": "4,6(20)",
    "phone_number": "+302410975170",
    "source_url": "https://www.google.com/maps/place/ADRITEC+EUROPE+S.A./data=!4m7!3m6!1s0x13587f44d795a93f:0xbd40d05c9136ab98!8m2!3d39.6762619!4d22.5489292!16s%2Fg%2F11_qtp7mx!19sChIJP6mV10R_WBMRmKs2kVzQQL0?authuser=0&hl=tr&rclk=1",
    "website_url": "",
    "rating_text": "4,6",
    "stars": null,
    "number_of_reviews": null,
    "price_level": "",
    "open_hours": "",
    "extraction_timestamp": "2025-06-07T15:33:58.291Z",
    "source_name": "google",
    "source_query": "Irrigation Equipment",
    "source_country": "GR",
    "country": "Greece",
    "state": "West Macedonia Region",
    "city": "Mesopotamía"
  },
  {
    "source_id": "ChIJ01GEakHDWRMR-Uky752ZBtc",
    "name": "NIOPLAS CHR. ANASTASIOS",
    "category": "NIOPLAS CHR. ANASTASIOS",
    "formatted_address": "4,4(52)",
    "phone_number": "",
    "source_url": "https://www.google.com/maps/place/NIOPLAS+CHR.+ANASTASIOS/data=!4m7!3m6!1s0x1359c3416a8451d3:0xd706999def3249f9!8m2!3d40.3190037!4d21.5514182!16s%2Fg%2F11c2c6r0hq!19sChIJ01GEakHDWRMR-Uky752ZBtc?authuser=0&hl=tr&rclk=1",
    "website_url": "",
    "rating_text": "4,4",
    "stars": null,
    "number_of_reviews": null,
    "price_level": "",
    "open_hours": "",
    "extraction_timestamp": "2025-06-07T15:34:06.832Z",
    "source_name": "google",
    "source_query": "Irrigation Equipment",
    "source_country": "GR",
    "country": "Greece",
    "state": "West Macedonia Region",
    "city": "Galatiní"
  },
  {
    "source_id": "ChIJP6mV10R_WBMRmKs2kVzQQL0",
    "name": "ADRITEC EUROPE S.A.",
    "category": "ADRITEC EUROPE S.A.",
    "formatted_address": "4,6(20)",
    "phone_number": "+302410975170",
    "source_url": "https://www.google.com/maps/place/ADRITEC+EUROPE+S.A./data=!4m7!3m6!1s0x13587f44d795a93f:0xbd40d05c9136ab98!8m2!3d39.6762619!4d22.5489292!16s%2Fg%2F11_qtp7mx!19sChIJP6mV10R_WBMRmKs2kVzQQL0?authuser=0&hl=tr&rclk=1",
    "website_url": "https://www.adriteceurope.gr/",
    "rating_text": "4,6",
    "stars": null,
    "number_of_reviews": null,
    "price_level": "",
    "open_hours": "",
    "extraction_timestamp": "2025-06-07T15:34:06.834Z",
    "source_name": "google",
    "source_query": "Irrigation Equipment",
    "source_country": "GR",
    "country": "Greece",
    "state": "West Macedonia Region",
    "city": "Galatiní"
  },
  {
    "source_id": "ChIJ86yk3KqXWRMRrg1--33tw6M",
    "name": "Θέρμανση - Υδραυλικά Στεργιούλας",
    "category": "Θέρμανση - Υδραυλικά Στεργιούλας",
    "formatted_address": "5,0(23)",
    "phone_number": "+306945623816",
    "source_url": "https://www.google.com/maps/place/%CE%98%CE%AD%CF%81%CE%BC%CE%B1%CE%BD%CF%83%CE%B7+-+%CE%A5%CE%B4%CF%81%CE%B1%CF%85%CE%BB%CE%B9%CE%BA%CE%AC+%CE%A3%CF%84%CE%B5%CF%81%CE%B3%CE%B9%CE%BF%CF%8D%CE%BB%CE%B1%CF%82/data=!4m7!3m6!1s0x135997aadca4acf3:0xa3c3ed7dfb7e0dae!8m2!3d40.0838939!4d21.4297662!16s%2Fg%2F11gbk2wcfm!19sChIJ86yk3KqXWRMRrg1--33tw6M?authuser=0&hl=tr&rclk=1",
    "website_url": "",
    "rating_text": "5,0",
    "stars": null,
    "number_of_reviews": null,
    "price_level": "",
    "open_hours": "",
    "extraction_timestamp": "2025-06-07T15:34:43.454Z",
    "source_name": "google",
    "source_query": "Irrigation Equipment",
    "source_country": "GR",
    "country": "Greece",
    "state": "West Macedonia Region",
    "city": "Grevená"
  },
  {
    "source_id": "ChIJkSg4_A6XWRMRQAr3M3ccFPM",
    "name": "ΠΛΑΤΣΑΤΟΥΡΑΣ ΘΕΟΔΩΡΟΣ ΒΑΣΙΛΕΙΟΣ",
    "category": "ΠΛΑΤΣΑΤΟΥΡΑΣ ΘΕΟΔΩΡΟΣ ΒΑΣΙΛΕΙΟΣ",
    "formatted_address": "5,0(12)",
    "phone_number": "+302462080332",
    "source_url": "https://www.google.com/maps/place/%CE%A0%CE%9B%CE%91%CE%A4%CE%A3%CE%91%CE%A4%CE%9F%CE%A5%CE%A1%CE%91%CE%A3+%CE%98%CE%95%CE%9F%CE%94%CE%A9%CE%A1%CE%9F%CE%A3+%CE%92%CE%91%CE%A3%CE%99%CE%9B%CE%95%CE%99%CE%9F%CE%A3/data=!4m7!3m6!1s0x1359970efc382891:0xf3141c7733f70a40!8m2!3d40.0776749!4d21.4217529!16s%2Fg%2F11c1t64kth!19sChIJkSg4_A6XWRMRQAr3M3ccFPM?authuser=0&hl=tr&rclk=1",
    "website_url": "",
    "rating_text": "5,0",
    "stars": null,
    "number_of_reviews": null,
    "price_level": "",
    "open_hours": "",
    "extraction_timestamp": "2025-06-07T15:34:43.455Z",
    "source_name": "google",
    "source_query": "Irrigation Equipment",
    "source_country": "GR",
    "country": "Greece",
    "state": "West Macedonia Region",
    "city": "Grevená"
  },
  {
    "source_id": "ChIJESy_zVSWWRMR52dBzdFB9wE",
    "name": "ΚΟΤΛΙΔΑΣ ΘΩΜΑΣ",
    "category": "ΚΟΤΛΙΔΑΣ ΘΩΜΑΣ",
    "formatted_address": "5,0(17)",
    "phone_number": "+302462028529",
    "source_url": "https://www.google.com/maps/place/%CE%9A%CE%9F%CE%A4%CE%9B%CE%99%CE%94%CE%91%CE%A3+%CE%98%CE%A9%CE%9C%CE%91%CE%A3/data=!4m7!3m6!1s0x13599654cdbf2c11:0x1f741d1cd4167e7!8m2!3d40.0846448!4d21.4314807!16s%2Fg%2F11g_l3wrn!19sChIJESy_zVSWWRMR52dBzdFB9wE?authuser=0&hl=tr&rclk=1",
    "website_url": "",
    "rating_text": "5,0",
    "stars": null,
    "number_of_reviews": null,
    "price_level": "",
    "open_hours": "",
    "extraction_timestamp": "2025-06-07T15:34:43.456Z",
    "source_name": "google",
    "source_query": "Irrigation Equipment",
    "source_country": "GR",
    "country": "Greece",
    "state": "West Macedonia Region",
    "city": "Grevená"
  },
  {
    "source_id": "ChIJ2XqedgCXWRMRyzVGFubV9i4",
    "name": "Zarkadas, th., Bros O.E.",
    "category": "Zarkadas, th., Bros O.E.",
    "formatted_address": "Zarkadas, th., Bros O.E.",
    "phone_number": "+302462087790",
    "source_url": "https://www.google.com/maps/place/Zarkadas,+th.,+Bros+O.E./data=!4m7!3m6!1s0x13599700769e7ad9:0x2ef6d5e6164635cb!8m2!3d40.0734447!4d21.4104218!16s%2Fg%2F11g_q6d9r!19sChIJ2XqedgCXWRMRyzVGFubV9i4?authuser=0&hl=tr&rclk=1",
    "website_url": "",
    "rating_text": "4,9",
    "stars": null,
    "number_of_reviews": null,
    "price_level": "",
    "open_hours": "",
    "extraction_timestamp": "2025-06-07T15:34:43.458Z",
    "source_name": "google",
    "source_query": "Irrigation Equipment",
    "source_country": "GR",
    "country": "Greece",
    "state": "West Macedonia Region",
    "city": "Grevená"
  },
  {
    "source_id": "ChIJ1VFtvKiXWRMRQdyKBhdw6Bc",
    "name": "Σαρουσαββίδης Κυριάκος Ύδρευση θέρμανση",
    "category": "Σαρουσαββίδης Κυριάκος Ύδρευση θέρμανση",
    "formatted_address": "5,0(1)",
    "phone_number": "+306970975440",
    "source_url": "https://www.google.com/maps/place/%CE%A3%CE%B1%CF%81%CE%BF%CF%85%CF%83%CE%B1%CE%B2%CE%B2%CE%AF%CE%B4%CE%B7%CF%82+%CE%9A%CF%85%CF%81%CE%B9%CE%AC%CE%BA%CE%BF%CF%82+%CE%8E%CE%B4%CF%81%CE%B5%CF%85%CF%83%CE%B7+%CE%B8%CE%AD%CF%81%CE%BC%CE%B1%CE%BD%CF%83%CE%B7/data=!4m7!3m6!1s0x135997a8bc6d51d5:0x17e87017068adc41!8m2!3d40.0853272!4d21.4336177!16s%2Fg%2F11tx5mgz8k!19sChIJ1VFtvKiXWRMRQdyKBhdw6Bc?authuser=0&hl=tr&rclk=1",
    "website_url": "",
    "rating_text": "5,0",
    "stars": null,
    "number_of_reviews": null,
    "price_level": "",
    "open_hours": "",
    "extraction_timestamp": "2025-06-07T15:34:43.460Z",
    "source_name": "google",
    "source_query": "Irrigation Equipment",
    "source_country": "GR",
    "country": "Greece",
    "state": "West Macedonia Region",
    "city": "Grevená"
  },
  {
    "source_id": "ChIJXc5OmcX46RURekxE-CA9QCU",
    "name": "ελίν",
    "category": "ελίν",
    "formatted_address": "5,0(3)",
    "phone_number": "+302462022363",
    "source_url": "https://www.google.com/maps/place/%CE%B5%CE%BB%CE%AF%CE%BD/data=!4m7!3m6!1s0x15e9f8c5994ece5d:0x25403d20f8444c7a!8m2!3d40.0745097!4d21.4189402!16s%2Fg%2F11h0t_n3_!19sChIJXc5OmcX46RURekxE-CA9QCU?authuser=0&hl=tr&rclk=1",
    "website_url": "",
    "rating_text": "5,0",
    "stars": null,
    "number_of_reviews": null,
    "price_level": "",
    "open_hours": "",
    "extraction_timestamp": "2025-06-07T15:34:43.461Z",
    "source_name": "google",
    "source_query": "Irrigation Equipment",
    "source_country": "GR",
    "country": "Greece",
    "state": "West Macedonia Region",
    "city": "Grevená"
  },
  {
    "source_id": "ChIJW0qsN4yXWRMRkMU75PgzS-8",
    "name": "Φρέσκα Φρούτα και Λαχανικά - Μπαρμπαγιάννης Δημήτριος",
    "category": "Φρέσκα Φρούτα και Λαχανικά - Μπαρμπαγιάννης Δημήτριος",
    "formatted_address": "4,7(23)",
    "phone_number": "+302462028934",
    "source_url": "https://www.google.com/maps/place/%CE%A6%CF%81%CE%AD%CF%83%CE%BA%CE%B1+%CE%A6%CF%81%CE%BF%CF%8D%CF%84%CE%B1+%CE%BA%CE%B1%CE%B9+%CE%9B%CE%B1%CF%87%CE%B1%CE%BD%CE%B9%CE%BA%CE%AC+-+%CE%9C%CF%80%CE%B1%CF%81%CE%BC%CF%80%CE%B1%CE%B3%CE%B9%CE%AC%CE%BD%CE%BD%CE%B7%CF%82+%CE%94%CE%B7%CE%BC%CE%AE%CF%84%CF%81%CE%B9%CE%BF%CF%82/data=!4m7!3m6!1s0x1359978c37ac4a5b:0xef4b33f8e43bc590!8m2!3d40.0843285!4d21.4316149!16s%2Fg%2F11g0hm370g!19sChIJW0qsN4yXWRMRkMU75PgzS-8?authuser=0&hl=tr&rclk=1",
    "website_url": "",
    "rating_text": "4,7",
    "stars": null,
    "number_of_reviews": null,
    "price_level": "",
    "open_hours": "",
    "extraction_timestamp": "2025-06-07T15:34:43.462Z",
    "source_name": "google",
    "source_query": "Irrigation Equipment",
    "source_country": "GR",
    "country": "Greece",
    "state": "West Macedonia Region",
    "city": "Grevená"
  },
  {
    "source_id": "ChIJZ3lPylSWWRMRZdtLnKW6xKo",
    "name": "Greek Diet Tentoglou Nikolaos",
    "category": "Greek Diet Tentoglou Nikolaos",
    "formatted_address": "4,2(21)",
    "phone_number": "+302462100354",
    "source_url": "https://www.google.com/maps/place/Greek+Diet+Tentoglou+Nikolaos/data=!4m7!3m6!1s0x13599654ca4f7967:0xaac4baa59c4bdb65!8m2!3d40.0831976!4d21.4273863!16s%2Fg%2F11fxdz4scw!19sChIJZ3lPylSWWRMRZdtLnKW6xKo?authuser=0&hl=tr&rclk=1",
    "website_url": "",
    "rating_text": "4,2",
    "stars": null,
    "number_of_reviews": null,
    "price_level": "",
    "open_hours": "",
    "extraction_timestamp": "2025-06-07T15:34:43.463Z",
    "source_name": "google",
    "source_query": "Irrigation Equipment",
    "source_country": "GR",
    "country": "Greece",
    "state": "West Macedonia Region",
    "city": "Grevená"
  },
  {
    "source_id": "ChIJp0Qg3AZLWBMRe_hXLCzoQ1I",
    "name": "ελληνικά market",
    "category": "ελληνικά market",
    "formatted_address": "4,9(16)",
    "phone_number": "+302464041201",
    "source_url": "https://www.google.com/maps/place/%CE%B5%CE%BB%CE%BB%CE%B7%CE%BD%CE%B9%CE%BA%CE%AC+market/data=!4m7!3m6!1s0x13584b06dc2044a7:0x5243e82c2c57f87b!8m2!3d40.0337086!4d21.9419976!16s%2Fg%2F11ppvw8z1t!19sChIJp0Qg3AZLWBMRe_hXLCzoQ1I?authuser=0&hl=tr&rclk=1",
    "website_url": "",
    "rating_text": "4,9",
    "stars": null,
    "number_of_reviews": null,
    "price_level": "",
    "open_hours": "",
    "extraction_timestamp": "2025-06-07T15:35:47.752Z",
    "source_name": "google",
    "source_query": "Irrigation Equipment",
    "source_country": "GR",
    "country": "Greece",
    "state": "West Macedonia Region",
    "city": "Livaderó"
  },
  {
    "source_id": "ChIJP6mV10R_WBMRmKs2kVzQQL0",
    "name": "ADRITEC EUROPE S.A.",
    "category": "ADRITEC EUROPE S.A.",
    "formatted_address": "4,6(20)",
    "phone_number": "+302410975170",
    "source_url": "https://www.google.com/maps/place/ADRITEC+EUROPE+S.A./data=!4m7!3m6!1s0x13587f44d795a93f:0xbd40d05c9136ab98!8m2!3d39.6762619!4d22.5489292!16s%2Fg%2F11_qtp7mx!19sChIJP6mV10R_WBMRmKs2kVzQQL0?authuser=0&hl=tr&rclk=1",
    "website_url": "https://www.adriteceurope.gr/",
    "rating_text": "4,6",
    "stars": null,
    "number_of_reviews": null,
    "price_level": "",
    "open_hours": "",
    "extraction_timestamp": "2025-06-07T15:35:47.752Z",
    "source_name": "google",
    "source_query": "Irrigation Equipment",
    "source_country": "GR",
    "country": "Greece",
    "state": "West Macedonia Region",
    "city": "Livaderó"
  }
]
