[
  {
    "source_id": "ChIJ1S8EiMZZs0AR86hmbkUN9ow",
    "name": "Ipso Agricultura Brașov",
    "category": "Ipso Agricultura Brașov",
    "formatted_address": "4,8(12)",
    "phone_number": "+40374438921",
    "source_url": "https://www.google.com/maps/place/Ipso+Agricultura+Bra%C8%99ov/data=!4m7!3m6!1s0x40b359c688042fd5:0x8cf60d456e66a8f3!8m2!3d45.7007612!4d25.5811096!16s%2Fg%2F11h_dq5c17!19sChIJ1S8EiMZZs0AR86hmbkUN9ow?authuser=0&hl=tr&rclk=1",
    "website_url": "http://www.ipso.ro/",
    "rating_text": "4,8",
    "stars": null,
    "number_of_reviews": null,
    "price_level": "",
    "open_hours": "",
    "extraction_timestamp": "2025-06-08T02:45:32.822Z",
    "source_name": "google",
    "source_query": "Irrigation Equipment",
    "source_country": "RO",
    "country": "Romania",
    "state": "Brașov County",
    "city": "Apaţa"
  },
  {
    "source_id": "ChIJaQzqLmZcs0ARU6r3VaUK6iE",
    "name": "AKRO S.R.L.",
    "category": "AKRO S.R.L.",
    "formatted_address": "4,7(13)",
    "phone_number": "+40268413180",
    "source_url": "https://www.google.com/maps/place/AKRO+S.R.L./data=!4m7!3m6!1s0x40b35c662eea0c69:0x21ea0aa555f7aa53!8m2!3d45.6485042!4d25.6406578!16s%2Fg%2F1hc250gs3!19sChIJaQzqLmZcs0ARU6r3VaUK6iE?authuser=0&hl=tr&rclk=1",
    "website_url": "https://www.akro.ro/",
    "rating_text": "4,7",
    "stars": null,
    "number_of_reviews": null,
    "price_level": "",
    "open_hours": "",
    "extraction_timestamp": "2025-06-08T02:45:32.823Z",
    "source_name": "google",
    "source_query": "Irrigation Equipment",
    "source_country": "RO",
    "country": "Romania",
    "state": "Brașov County",
    "city": "Apaţa"
  },
  {
    "source_id": "ChIJ05s_Msdbs0ARtWqcVmxiNmM",
    "name": "Industrial Plast SRL",
    "category": "Industrial Plast SRL",
    "formatted_address": "4,3(25)",
    "phone_number": "+40749270460",
    "source_url": "https://www.google.com/maps/place/Industrial+Plast+SRL/data=!4m7!3m6!1s0x40b35bc7323f9bd3:0x6336626c569c6ab5!8m2!3d45.6723806!4d25.5907429!16s%2Fg%2F113g7jczx!19sChIJ05s_Msdbs0ARtWqcVmxiNmM?authuser=0&hl=tr&rclk=1",
    "website_url": "http://www.industrialplast.ro/",
    "rating_text": "4,3",
    "stars": null,
    "number_of_reviews": null,
    "price_level": "",
    "open_hours": "",
    "extraction_timestamp": "2025-06-08T02:45:32.824Z",
    "source_name": "google",
    "source_query": "Irrigation Equipment",
    "source_country": "RO",
    "country": "Romania",
    "state": "Brașov County",
    "city": "Apaţa"
  },
  {
    "source_id": "ChIJQfDJjT2ztEAR4i08HttkW3Q",
    "name": "Anfloanprod srl Brașov",
    "category": "Anfloanprod srl Brașov",
    "formatted_address": "4,9(12)",
    "phone_number": "+40765252970",
    "source_url": "https://www.google.com/maps/place/Anfloanprod+srl+Bra%C8%99ov/data=!4m7!3m6!1s0x40b4b33d8dc9f041:0x745b64db1e3c2de2!8m2!3d45.9537837!4d25.5340591!16s%2Fg%2F11hs56rlzg!19sChIJQfDJjT2ztEAR4i08HttkW3Q?authuser=0&hl=tr&rclk=1",
    "website_url": "",
    "rating_text": "4,9",
    "stars": null,
    "number_of_reviews": null,
    "price_level": "",
    "open_hours": "",
    "extraction_timestamp": "2025-06-08T02:45:32.825Z",
    "source_name": "google",
    "source_query": "Irrigation Equipment",
    "source_country": "RO",
    "country": "Romania",
    "state": "Brașov County",
    "city": "Apaţa"
  },
  {
    "source_id": "ChIJiYrW93hcs0ARpKmOIL1sTuI",
    "name": "Valinst Agriculture",
    "category": "Valinst Agriculture",
    "formatted_address": "5,0(1)",
    "phone_number": "+40730330543",
    "source_url": "https://www.google.com/maps/place/Valinst+Agriculture/data=!4m7!3m6!1s0x40b35c78f7d68a89:0xe24e6cbd208ea9a4!8m2!3d45.6527567!4d25.6143965!16s%2Fg%2F11hf04lgwp!19sChIJiYrW93hcs0ARpKmOIL1sTuI?authuser=0&hl=tr&rclk=1",
    "website_url": "http://www.valinst.ro/en/contact",
    "rating_text": "5,0",
    "stars": null,
    "number_of_reviews": null,
    "price_level": "",
    "open_hours": "",
    "extraction_timestamp": "2025-06-08T02:45:32.826Z",
    "source_name": "google",
    "source_query": "Irrigation Equipment",
    "source_country": "RO",
    "country": "Romania",
    "state": "Brașov County",
    "city": "Apaţa"
  },
  {
    "source_id": "ChIJCQayaPpbs0ARhf_zEF9vwQg",
    "name": "SC Agri Sigeva SRL",
    "category": "SC Agri Sigeva SRL",
    "formatted_address": "5,0(2)",
    "phone_number": "+40722529586",
    "source_url": "https://www.google.com/maps/place/SC+Agri+Sigeva+SRL/data=!4m7!3m6!1s0x40b35bfa68b20609:0x8c16f5f10f3ff85!8m2!3d45.6744327!4d25.621811!16s%2Fg%2F1pztj9780!19sChIJCQayaPpbs0ARhf_zEF9vwQg?authuser=0&hl=tr&rclk=1",
    "website_url": "",
    "rating_text": "5,0",
    "stars": null,
    "number_of_reviews": null,
    "price_level": "",
    "open_hours": "",
    "extraction_timestamp": "2025-06-08T02:45:32.827Z",
    "source_name": "google",
    "source_query": "Irrigation Equipment",
    "source_country": "RO",
    "country": "Romania",
    "state": "Brașov County",
    "city": "Apaţa"
  },
  {
    "source_id": "ChIJO4pBmCpas0ARcKENEyWqegE",
    "name": "Kasper Agri SRL",
    "category": "Kasper Agri SRL",
    "formatted_address": "3,3(20)",
    "phone_number": "+40741290077",
    "source_url": "https://www.google.com/maps/place/Kasper+Agri+SRL/data=!4m7!3m6!1s0x40b35a2a98418a3b:0x17aaa25130da170!8m2!3d45.6870349!4d25.581879!16s%2Fg%2F1q2w9wdyp!19sChIJO4pBmCpas0ARcKENEyWqegE?authuser=0&hl=tr&rclk=1",
    "website_url": "http://www.kasper-agri.ro/",
    "rating_text": "3,3",
    "stars": null,
    "number_of_reviews": null,
    "price_level": "",
    "open_hours": "",
    "extraction_timestamp": "2025-06-08T02:45:32.828Z",
    "source_name": "google",
    "source_query": "Irrigation Equipment",
    "source_country": "RO",
    "country": "Romania",
    "state": "Brașov County",
    "city": "Apaţa"
  },
  {
    "source_id": "ChIJxTlzQ25cs0ARbRRg7VLrKPw",
    "name": "Instal generation",
    "category": "Instal generation",
    "formatted_address": "5,0(5)",
    "phone_number": "+40745189529",
    "source_url": "https://www.google.com/maps/place/Instal+generation/data=!4m7!3m6!1s0x40b35c6e437339c5:0xfc28eb52ed60146d!8m2!3d45.6541089!4d25.63197!16s%2Fg%2F11flzgjjqz!19sChIJxTlzQ25cs0ARbRRg7VLrKPw?authuser=0&hl=tr&rclk=1",
    "website_url": "http://www.instalgeneration.ro/",
    "rating_text": "5,0",
    "stars": null,
    "number_of_reviews": null,
    "price_level": "",
    "open_hours": "",
    "extraction_timestamp": "2025-06-08T02:45:32.829Z",
    "source_name": "google",
    "source_query": "Irrigation Equipment",
    "source_country": "RO",
    "country": "Romania",
    "state": "Brașov County",
    "city": "Apaţa"
  },
  {
    "source_id": "ChIJGVg_O-1cs0ARmD9_VLr0E54",
    "name": "TERMOPROT",
    "category": "TERMOPROT",
    "formatted_address": "5,0(3)",
    "phone_number": "+40268333914",
    "source_url": "https://www.google.com/maps/place/TERMOPROT/data=!4m7!3m6!1s0x40b35ced3b3f5819:0x9e13f4ba547f3f98!8m2!3d45.6305519!4d25.6239596!16s%2Fg%2F11b76d3mxk!19sChIJGVg_O-1cs0ARmD9_VLr0E54?authuser=0&hl=tr&rclk=1",
    "website_url": "http://www.termoprot.ro/",
    "rating_text": "5,0",
    "stars": null,
    "number_of_reviews": null,
    "price_level": "",
    "open_hours": "",
    "extraction_timestamp": "2025-06-08T02:45:32.830Z",
    "source_name": "google",
    "source_query": "Irrigation Equipment",
    "source_country": "RO",
    "country": "Romania",
    "state": "Brașov County",
    "city": "Apaţa"
  },
  {
    "source_id": "ChIJYRmWaqJbs0ARvsb1duCtxyI",
    "name": "TehnoSting Echipamente",
    "category": "TehnoSting Echipamente",
    "formatted_address": "4,9(7)",
    "phone_number": "+40751216567",
    "source_url": "https://www.google.com/maps/place/TehnoSting+Echipamente/data=!4m7!3m6!1s0x40b35ba26a961961:0x22c7ade076f5c6be!8m2!3d45.6899168!4d25.5825047!16s%2Fg%2F1hm54zcx1!19sChIJYRmWaqJbs0ARvsb1duCtxyI?authuser=0&hl=tr&rclk=1",
    "website_url": "http://www.tehnostingechipamente.ro/",
    "rating_text": "4,9",
    "stars": null,
    "number_of_reviews": null,
    "price_level": "",
    "open_hours": "",
    "extraction_timestamp": "2025-06-08T02:45:32.832Z",
    "source_name": "google",
    "source_query": "Irrigation Equipment",
    "source_country": "RO",
    "country": "Romania",
    "state": "Brașov County",
    "city": "Apaţa"
  },
  {
    "source_id": "ChIJw7euA8KttEAR5eCVQiC9Gy8",
    "name": "La Ciuli",
    "category": "La Ciuli",
    "formatted_address": "4,5(11)",
    "phone_number": "",
    "source_url": "https://www.google.com/maps/place/La+Ciuli/data=!4m7!3m6!1s0x40b4adc203aeb7c3:0x2f1bbd204295e0e5!8m2!3d45.9472162!4d25.5298842!16s%2Fg%2F11lb1_1bt_!19sChIJw7euA8KttEAR5eCVQiC9Gy8?authuser=0&hl=tr&rclk=1",
    "website_url": "",
    "rating_text": "4,5",
    "stars": null,
    "number_of_reviews": null,
    "price_level": "",
    "open_hours": "",
    "extraction_timestamp": "2025-06-08T02:45:32.832Z",
    "source_name": "google",
    "source_query": "Irrigation Equipment",
    "source_country": "RO",
    "country": "Romania",
    "state": "Brașov County",
    "city": "Apaţa"
  },
  {
    "source_id": "ChIJe_tU3Bhbs0ARYNkGVHO5YKE",
    "name": "HIDROstore Brașov",
    "category": "HIDROstore Brașov",
    "formatted_address": "5,0(13)",
    "phone_number": "+40771576228",
    "source_url": "https://www.google.com/maps/place/HIDROstore+Bra%C8%99ov/data=!4m7!3m6!1s0x40b35b18dc54fb7b:0xa160b9735406d960!8m2!3d45.6734944!4d25.5800351!16s%2Fg%2F11w8pn_mjw!19sChIJe_tU3Bhbs0ARYNkGVHO5YKE?authuser=0&hl=tr&rclk=1",
    "website_url": "https://hidrostore.ro/brasov",
    "rating_text": "5,0",
    "stars": null,
    "number_of_reviews": null,
    "price_level": "",
    "open_hours": "",
    "extraction_timestamp": "2025-06-08T02:45:32.834Z",
    "source_name": "google",
    "source_query": "Irrigation Equipment",
    "source_country": "RO",
    "country": "Romania",
    "state": "Brașov County",
    "city": "Apaţa"
  },
  {
    "source_id": "ChIJMev0eOdZs0ARMeiqaeoGQjs",
    "name": "Verificare Sistem de Avertizare la Incendiu",
    "category": "Verificare Sistem de Avertizare la Incendiu",
    "formatted_address": "5,0(1)",
    "phone_number": "+40757371244",
    "source_url": "https://www.google.com/maps/place/Verificare+Sistem+de+Avertizare+la+Incendiu/data=!4m7!3m6!1s0x40b359e778f4eb31:0x3b4206ea69aae831!8m2!3d45.7158082!4d25.5883415!16s%2Fg%2F11n82qz9h8!19sChIJMev0eOdZs0ARMeiqaeoGQjs?authuser=0&hl=tr&rclk=1",
    "website_url": "https://sistemavertizareincendiu.ro/",
    "rating_text": "5,0",
    "stars": null,
    "number_of_reviews": null,
    "price_level": "",
    "open_hours": "",
    "extraction_timestamp": "2025-06-08T02:45:32.836Z",
    "source_name": "google",
    "source_query": "Irrigation Equipment",
    "source_country": "RO",
    "country": "Romania",
    "state": "Brașov County",
    "city": "Apaţa"
  },
  {
    "source_id": "ChIJ_XZ8Tp1bs0ARaWS3dAp1zcs",
    "name": "Water Management System Brasov",
    "category": "Water Management System Brasov",
    "formatted_address": "4,2(5)",
    "phone_number": "+40268412277",
    "source_url": "https://www.google.com/maps/place/Water+Management+System+Brasov/data=!4m7!3m6!1s0x40b35b9d4e7c76fd:0xcbcd750a74b76469!8m2!3d45.6504956!4d25.5934896!16s%2Fg%2F1pp2tzrcr!19sChIJ_XZ8Tp1bs0ARaWS3dAp1zcs?authuser=0&hl=tr&rclk=1",
    "website_url": "",
    "rating_text": "4,2",
    "stars": null,
    "number_of_reviews": null,
    "price_level": "",
    "open_hours": "",
    "extraction_timestamp": "2025-06-08T02:45:32.838Z",
    "source_name": "google",
    "source_query": "Irrigation Equipment",
    "source_country": "RO",
    "country": "Romania",
    "state": "Brașov County",
    "city": "Apaţa"
  },
  {
    "source_id": "ChIJcVPq0H5cs0ARLGLKYvogpcE",
    "name": "Aqua S.R.L.",
    "category": "Aqua S.R.L.",
    "formatted_address": "",
    "phone_number": "+40268330708",
    "source_url": "https://www.google.com/maps/place/Aqua+S.R.L./data=!4m7!3m6!1s0x40b35c7ed0ea5371:0xc1a520fa62ca622c!8m2!3d45.6502945!4d25.6129728!16s%2Fg%2F1hc0xlv74!19sChIJcVPq0H5cs0ARLGLKYvogpcE?authuser=0&hl=tr&rclk=1",
    "website_url": "http://www.aqua-brasov.ro/",
    "rating_text": "",
    "stars": null,
    "number_of_reviews": null,
    "price_level": "",
    "open_hours": "",
    "extraction_timestamp": "2025-06-08T02:45:32.839Z",
    "source_name": "google",
    "source_query": "Irrigation Equipment",
    "source_country": "RO",
    "country": "Romania",
    "state": "Brașov County",
    "city": "Apaţa"
  },
  {
    "source_id": "ChIJ484pAcNbs0ARKAdJ1DcIY6Y",
    "name": "ADA Multiprod S.R.L.",
    "category": "ADA Multiprod S.R.L.",
    "formatted_address": "",
    "phone_number": "+40721389802",
    "source_url": "https://www.google.com/maps/place/ADA+Multiprod+S.R.L./data=!4m7!3m6!1s0x40b35bc30129cee3:0xa6630837d4490728!8m2!3d45.6734828!4d25.5985422!16s%2Fg%2F11wc4qvptp!19sChIJ484pAcNbs0ARKAdJ1DcIY6Y?authuser=0&hl=tr&rclk=1",
    "website_url": "",
    "rating_text": "",
    "stars": null,
    "number_of_reviews": null,
    "price_level": "",
    "open_hours": "",
    "extraction_timestamp": "2025-06-08T02:45:32.839Z",
    "source_name": "google",
    "source_query": "Irrigation Equipment",
    "source_country": "RO",
    "country": "Romania",
    "state": "Brașov County",
    "city": "Apaţa"
  },
  {
    "source_id": "ChIJJeS51ohbs0ARHezduyP6NxA",
    "name": "Compania Apa Brasov",
    "category": "Compania Apa Brasov",
    "formatted_address": "2,0(68)",
    "phone_number": "+40268926",
    "source_url": "https://www.google.com/maps/place/Compania+Apa+Brasov/data=!4m7!3m6!1s0x40b35b88d6b9e425:0x1037fa23bbddec1d!8m2!3d45.6580164!4d25.6097315!16s%2Fg%2F1tdw1zvn!19sChIJJeS51ohbs0ARHezduyP6NxA?authuser=0&hl=tr&rclk=1",
    "website_url": "http://www.apabrasov.ro/",
    "rating_text": "2,0",
    "stars": null,
    "number_of_reviews": null,
    "price_level": "",
    "open_hours": "",
    "extraction_timestamp": "2025-06-08T02:45:32.840Z",
    "source_name": "google",
    "source_query": "Irrigation Equipment",
    "source_country": "RO",
    "country": "Romania",
    "state": "Brașov County",
    "city": "Apaţa"
  },
  {
    "source_id": "ChIJZcXvnsSztEARD0snIJaKFkc",
    "name": "La doi pași",
    "category": "La doi pași",
    "formatted_address": "5,0(5)",
    "phone_number": "+40765252970",
    "source_url": "https://www.google.com/maps/place/La+doi+pa%C8%99i/data=!4m7!3m6!1s0x40b4b3c49eefc565:0x47168a9620274b0f!8m2!3d45.9536996!4d25.5341175!16s%2Fg%2F11q7lqvj6v!19sChIJZcXvnsSztEARD0snIJaKFkc?authuser=0&hl=tr&rclk=1",
    "website_url": "http://la-doi-pasi.ro/",
    "rating_text": "5,0",
    "stars": null,
    "number_of_reviews": null,
    "price_level": "",
    "open_hours": "",
    "extraction_timestamp": "2025-06-08T02:45:32.841Z",
    "source_name": "google",
    "source_query": "Irrigation Equipment",
    "source_country": "RO",
    "country": "Romania",
    "state": "Brașov County",
    "city": "Apaţa"
  },
  {
    "source_id": "ChIJHUXlVfJcs0ARON4aAttb0ts",
    "name": "Electromatic-Systems",
    "category": "Electromatic-Systems",
    "formatted_address": "4,6(14)",
    "phone_number": "+40268318810",
    "source_url": "https://www.google.com/maps/place/Electromatic-Systems/data=!4m7!3m6!1s0x40b35cf255e5451d:0xdbd25bdb021ade38!8m2!3d45.6726098!4d25.6452877!16s%2Fg%2F1hc2900rx!19sChIJHUXlVfJcs0ARON4aAttb0ts?authuser=0&hl=tr&rclk=1",
    "website_url": "http://www.electromatic.ro/",
    "rating_text": "4,6",
    "stars": null,
    "number_of_reviews": null,
    "price_level": "",
    "open_hours": "",
    "extraction_timestamp": "2025-06-08T02:45:32.842Z",
    "source_name": "google",
    "source_query": "Irrigation Equipment",
    "source_country": "RO",
    "country": "Romania",
    "state": "Brașov County",
    "city": "Apaţa"
  },
  {
    "source_id": "ChIJg_kcMa1bs0AR7WsRoMco5mU",
    "name": "BVA-Romania",
    "category": "BVA-Romania",
    "formatted_address": "5,0(4)",
    "phone_number": "+40774685114",
    "source_url": "https://www.google.com/maps/place/BVA-Romania/data=!4m7!3m6!1s0x40b35bad311cf983:0x65e628c7a0116bed!8m2!3d45.6311766!4d25.6219648!16s%2Fg%2F11f28dcydc!19sChIJg_kcMa1bs0AR7WsRoMco5mU?authuser=0&hl=tr&rclk=1",
    "website_url": "https://www.bva-romania.com/",
    "rating_text": "5,0",
    "stars": null,
    "number_of_reviews": null,
    "price_level": "",
    "open_hours": "",
    "extraction_timestamp": "2025-06-08T02:45:32.843Z",
    "source_name": "google",
    "source_query": "Irrigation Equipment",
    "source_country": "RO",
    "country": "Romania",
    "state": "Brașov County",
    "city": "Apaţa"
  },
  {
    "source_id": "ChIJtRDaNxVds0ARH0zYzm8DWbE",
    "name": "CHIRILA INSTAL",
    "category": "CHIRILA INSTAL",
    "formatted_address": "5,0(17)",
    "phone_number": "+40734108310",
    "source_url": "https://www.google.com/maps/place/CHIRILA+INSTAL/data=!4m7!3m6!1s0x40b35d1537da10b5:0xb159036fced84c1f!8m2!3d45.651787!4d25.6309351!16s%2Fg%2F11vt09sry_!19sChIJtRDaNxVds0ARH0zYzm8DWbE?authuser=0&hl=tr&rclk=1",
    "website_url": "https://instalatorisanitarebrasov.ro/",
    "rating_text": "5,0",
    "stars": null,
    "number_of_reviews": null,
    "price_level": "",
    "open_hours": "",
    "extraction_timestamp": "2025-06-08T02:45:32.845Z",
    "source_name": "google",
    "source_query": "Irrigation Equipment",
    "source_country": "RO",
    "country": "Romania",
    "state": "Brașov County",
    "city": "Apaţa"
  },
  {
    "source_id": "ChIJpRLHLAFbs0AR4aOqN_hsDuc",
    "name": "Gruppo Valinst",
    "category": "Gruppo Valinst",
    "formatted_address": "",
    "phone_number": "+40729931509",
    "source_url": "https://www.google.com/maps/place/Gruppo+Valinst/data=!4m7!3m6!1s0x40b35b012cc712a5:0xe70e6cf837aaa3e1!8m2!3d45.65515!4d25.5586001!16s%2Fg%2F1hc3rk913!19sChIJpRLHLAFbs0AR4aOqN_hsDuc?authuser=0&hl=tr&rclk=1",
    "website_url": "https://www.valinst.ro/ro/instalatii-de-irigat/universal-liniare",
    "rating_text": "",
    "stars": null,
    "number_of_reviews": null,
    "price_level": "",
    "open_hours": "",
    "extraction_timestamp": "2025-06-08T02:45:32.846Z",
    "source_name": "google",
    "source_query": "Irrigation Equipment",
    "source_country": "RO",
    "country": "Romania",
    "state": "Brașov County",
    "city": "Apaţa"
  },
  {
    "source_id": "ChIJBWxRW4lcs0AR4johcYtY_Us",
    "name": "Hod-Chimex",
    "category": "Hod-Chimex",
    "formatted_address": "4,3(110)",
    "phone_number": "+40268320340",
    "source_url": "https://www.google.com/maps/place/Hod-Chimex/data=!4m7!3m6!1s0x40b35c895b516c05:0x4bfd588b71213ae2!8m2!3d45.6388375!4d25.6217574!16s%2Fg%2F1wrtbc6q!19sChIJBWxRW4lcs0AR4johcYtY_Us?authuser=0&hl=tr&rclk=1",
    "website_url": "",
    "rating_text": "4,3",
    "stars": null,
    "number_of_reviews": null,
    "price_level": "",
    "open_hours": "",
    "extraction_timestamp": "2025-06-08T02:45:32.847Z",
    "source_name": "google",
    "source_query": "Irrigation Equipment",
    "source_country": "RO",
    "country": "Romania",
    "state": "Brașov County",
    "city": "Apaţa"
  },
  {
    "source_id": "ChIJe6wdOnFhs0ARIwE3yBbzHho",
    "name": "MAGEREXIM",
    "category": "MAGEREXIM",
    "formatted_address": "4,9(17)",
    "phone_number": "+40741647984",
    "source_url": "https://www.google.com/maps/place/MAGEREXIM/data=!4m7!3m6!1s0x40b361713a1dac7b:0x1a1ef316c8370123!8m2!3d45.6718863!4d25.7960882!16s%2Fg%2F11jgnm3g__!19sChIJe6wdOnFhs0ARIwE3yBbzHho?authuser=0&hl=tr&rclk=1",
    "website_url": "https://magerexim.ro/",
    "rating_text": "4,9",
    "stars": null,
    "number_of_reviews": null,
    "price_level": "",
    "open_hours": "",
    "extraction_timestamp": "2025-06-08T02:45:32.848Z",
    "source_name": "google",
    "source_query": "Irrigation Equipment",
    "source_country": "RO",
    "country": "Romania",
    "state": "Brașov County",
    "city": "Apaţa"
  },
  {
    "source_id": "ChIJK6QNBvBds0ARK39HHf7Dr2c",
    "name": "PLAI URBAN",
    "category": "PLAI URBAN",
    "formatted_address": "5,0(3)",
    "phone_number": "+40723478882",
    "source_url": "https://www.google.com/maps/place/PLAI+URBAN/data=!4m7!3m6!1s0x40b35df0060da42b:0x67afc3fe1d477f2b!8m2!3d45.662593!4d25.631469!16s%2Fg%2F11j8p2wpb7!19sChIJK6QNBvBds0ARK39HHf7Dr2c?authuser=0&hl=tr&rclk=1",
    "website_url": "http://plaiurban.ro/",
    "rating_text": "5,0",
    "stars": null,
    "number_of_reviews": null,
    "price_level": "",
    "open_hours": "",
    "extraction_timestamp": "2025-06-08T02:45:32.849Z",
    "source_name": "google",
    "source_query": "Irrigation Equipment",
    "source_country": "RO",
    "country": "Romania",
    "state": "Brașov County",
    "city": "Apaţa"
  },
  {
    "source_id": "ChIJk719965es0ARSHau3S-JmpE",
    "name": "Serstill",
    "category": "Serstill",
    "formatted_address": "4,6(22)",
    "phone_number": "+40268311511",
    "source_url": "https://www.google.com/maps/place/Serstill/data=!4m7!3m6!1s0x40b35eaef77dbd93:0x919a892fddae7648!8m2!3d45.683375!4d25.652469!16s%2Fg%2F11xdltdh5!19sChIJk719965es0ARSHau3S-JmpE?authuser=0&hl=tr&rclk=1",
    "website_url": "http://www.serstill.ro/",
    "rating_text": "4,6",
    "stars": null,
    "number_of_reviews": null,
    "price_level": "",
    "open_hours": "",
    "extraction_timestamp": "2025-06-08T02:45:32.850Z",
    "source_name": "google",
    "source_query": "Irrigation Equipment",
    "source_country": "RO",
    "country": "Romania",
    "state": "Brașov County",
    "city": "Apaţa"
  },
  {
    "source_id": "ChIJAX9ixJlbs0ARONdeqKAUFNY",
    "name": "Magazinul Fermierului",
    "category": "Magazinul Fermierului",
    "formatted_address": "4,3(358)",
    "phone_number": "+40724355430",
    "source_url": "https://www.google.com/maps/place/Magazinul+Fermierului/data=!4m7!3m6!1s0x40b35b99c4627f01:0xd61414a0a85ed738!8m2!3d45.6593757!4d25.5919892!16s%2Fg%2F1pp2vb70j!19sChIJAX9ixJlbs0ARONdeqKAUFNY?authuser=0&hl=tr&rclk=1",
    "website_url": "http://www.agro-mixt.ro/",
    "rating_text": "4,3",
    "stars": null,
    "number_of_reviews": null,
    "price_level": "",
    "open_hours": "",
    "extraction_timestamp": "2025-06-08T02:45:32.851Z",
    "source_name": "google",
    "source_query": "Irrigation Equipment",
    "source_country": "RO",
    "country": "Romania",
    "state": "Brașov County",
    "city": "Apaţa"
  },
  {
    "source_id": "ChIJPeKh1f9bs0AR5oratgmGcXE",
    "name": "Filtru pentru apa",
    "category": "Filtru pentru apa",
    "formatted_address": "5,0(1)",
    "phone_number": "+40725361005",
    "source_url": "https://www.google.com/maps/place/Filtru+pentru+apa/data=!4m7!3m6!1s0x40b35bffd5a1e23d:0x71718609b6da8ae6!8m2!3d45.6563261!4d25.5593094!16s%2Fg%2F11ffw71y72!19sChIJPeKh1f9bs0AR5oratgmGcXE?authuser=0&hl=tr&rclk=1",
    "website_url": "https://instalator48.ro/",
    "rating_text": "5,0",
    "stars": null,
    "number_of_reviews": null,
    "price_level": "",
    "open_hours": "",
    "extraction_timestamp": "2025-06-08T02:45:32.852Z",
    "source_name": "google",
    "source_query": "Irrigation Equipment",
    "source_country": "RO",
    "country": "Romania",
    "state": "Brașov County",
    "city": "Apaţa"
  },
  {
    "source_id": "ChIJG2EV_f9bs0ARRhFy__gil54",
    "name": "SC Instalatii Trust SA",
    "category": "SC Instalatii Trust SA",
    "formatted_address": "5,0(7)",
    "phone_number": "+40744299176",
    "source_url": "https://www.google.com/maps/place/SC+Instalatii+Trust+SA/data=!4m7!3m6!1s0x40b35bfffd15611b:0x9e9722f8ff721146!8m2!3d45.6568366!4d25.5640092!16s%2Fg%2F11jnsmfjrq!19sChIJG2EV_f9bs0ARRhFy__gil54?authuser=0&hl=tr&rclk=1",
    "website_url": "",
    "rating_text": "5,0",
    "stars": null,
    "number_of_reviews": null,
    "price_level": "",
    "open_hours": "",
    "extraction_timestamp": "2025-06-08T02:45:32.852Z",
    "source_name": "google",
    "source_query": "Irrigation Equipment",
    "source_country": "RO",
    "country": "Romania",
    "state": "Brașov County",
    "city": "Apaţa"
  },
  {
    "source_id": "ChIJ5_Jq4eBbs0ARtTWcI_mIh2g",
    "name": "SAURI S.R.L.",
    "category": "SAURI S.R.L.",
    "formatted_address": "4,3(12)",
    "phone_number": "+40723243611",
    "source_url": "https://www.google.com/maps/place/SAURI+S.R.L./data=!4m7!3m6!1s0x40b35be0e16af2e7:0x688788f9239c35b5!8m2!3d45.6377146!4d25.5007387!16s%2Fg%2F11k_cv8gbx!19sChIJ5_Jq4eBbs0ARtTWcI_mIh2g?authuser=0&hl=tr&rclk=1",
    "website_url": "http://www.sauri.ro/",
    "rating_text": "4,3",
    "stars": null,
    "number_of_reviews": null,
    "price_level": "",
    "open_hours": "",
    "extraction_timestamp": "2025-06-08T02:45:32.854Z",
    "source_name": "google",
    "source_query": "Irrigation Equipment",
    "source_country": "RO",
    "country": "Romania",
    "state": "Brașov County",
    "city": "Apaţa"
  },
  {
    "source_id": "ChIJZ2TAKopcs0ARXWJpfgr5Ja0",
    "name": "Ecoflam",
    "category": "Ecoflam",
    "formatted_address": "4,0(3)",
    "phone_number": "+40733670019",
    "source_url": "https://www.google.com/maps/place/Ecoflam/data=!4m7!3m6!1s0x40b35c8a2ac06467:0xad25f90a7e69625d!8m2!3d45.6399864!4d25.6239017!16s%2Fg%2F11hbl8yp52!19sChIJZ2TAKopcs0ARXWJpfgr5Ja0?authuser=0&hl=tr&rclk=1",
    "website_url": "http://ecoflam-service.ro/",
    "rating_text": "4,0",
    "stars": null,
    "number_of_reviews": null,
    "price_level": "",
    "open_hours": "",
    "extraction_timestamp": "2025-06-08T02:45:32.855Z",
    "source_name": "google",
    "source_query": "Irrigation Equipment",
    "source_country": "RO",
    "country": "Romania",
    "state": "Brașov County",
    "city": "Apaţa"
  }
]
