[
  {
    "source_id": "ChIJaQzqLmZcs0ARU6r3VaUK6iE",
    "name": "AKRO S.R.L.",
    "category": "AKRO S.R.L.",
    "formatted_address": "4,7(13)",
    "phone_number": "+40268413180",
    "source_url": "https://www.google.com/maps/place/AKRO+S.R.L./data=!4m7!3m6!1s0x40b35c662eea0c69:0x21ea0aa555f7aa53!8m2!3d45.6485042!4d25.6406578!16s%2Fg%2F1hc250gs3!19sChIJaQzqLmZcs0ARU6r3VaUK6iE?authuser=0&hl=tr&rclk=1",
    "website_url": "https://www.akro.ro/",
    "rating_text": "4,7",
    "stars": null,
    "number_of_reviews": null,
    "price_level": "",
    "open_hours": "",
    "extraction_timestamp": "2025-06-07T18:23:04.515Z",
    "source_name": "google",
    "source_query": "Irrigation Equipment",
    "source_country": "RO",
    "country": "Romania",
    "state": "Brașov County",
    "city": "Bod"
  },
  {
    "source_id": "ChIJiYrW93hcs0ARpKmOIL1sTuI",
    "name": "Valinst Agriculture",
    "category": "Valinst Agriculture",
    "formatted_address": "5,0(1)",
    "phone_number": "+40730330543",
    "source_url": "https://www.google.com/maps/place/Valinst+Agriculture/data=!4m7!3m6!1s0x40b35c78f7d68a89:0xe24e6cbd208ea9a4!8m2!3d45.6527567!4d25.6143965!16s%2Fg%2F11hf04lgwp!19sChIJiYrW93hcs0ARpKmOIL1sTuI?authuser=0&hl=tr&rclk=1",
    "website_url": "http://www.valinst.ro/en/contact",
    "rating_text": "5,0",
    "stars": null,
    "number_of_reviews": null,
    "price_level": "",
    "open_hours": "",
    "extraction_timestamp": "2025-06-07T18:23:04.515Z",
    "source_name": "google",
    "source_query": "Irrigation Equipment",
    "source_country": "RO",
    "country": "Romania",
    "state": "Brașov County",
    "city": "Bod"
  },
  {
    "source_id": "ChIJLb_Eartbs0ARsgyH2lUGGNM",
    "name": "Techno Pro",
    "category": "Techno Pro",
    "formatted_address": "4,3(493)",
    "phone_number": "+40752424242",
    "source_url": "https://www.google.com/maps/place/Techno+Pro/data=!4m7!3m6!1s0x40b35bbb6ac4bf2d:0xd3180655da870cb2!8m2!3d45.6640885!4d25.5813535!16s%2Fg%2F1jkz4jl5x!19sChIJLb_Eartbs0ARsgyH2lUGGNM?authuser=0&hl=tr&rclk=1",
    "website_url": "http://www.scule.ro/",
    "rating_text": "4,3",
    "stars": null,
    "number_of_reviews": null,
    "price_level": "",
    "open_hours": "",
    "extraction_timestamp": "2025-06-07T18:23:04.516Z",
    "source_name": "google",
    "source_query": "Irrigation Equipment",
    "source_country": "RO",
    "country": "Romania",
    "state": "Brașov County",
    "city": "Bod"
  },
  {
    "source_id": "ChIJHcayL4entEARqZ8LxaPqi1c",
    "name": "muehlboeckromania",
    "category": "muehlboeckromania",
    "formatted_address": "5,0(1)",
    "phone_number": "+40741019833",
    "source_url": "https://www.google.com/maps/place/muehlboeckromania/data=!4m7!3m6!1s0x40b4a7872fb2c61d:0x578beaa3c50b9fa9!8m2!3d45.7610928!4d25.6436026!16s%2Fg%2F11hyt103l3!19sChIJHcayL4entEARqZ8LxaPqi1c?authuser=0&hl=tr&rclk=1",
    "website_url": "http://muehlboeckromania.ro/contact/",
    "rating_text": "5,0",
    "stars": null,
    "number_of_reviews": null,
    "price_level": "",
    "open_hours": "",
    "extraction_timestamp": "2025-06-07T18:23:04.516Z",
    "source_name": "google",
    "source_query": "Irrigation Equipment",
    "source_country": "RO",
    "country": "Romania",
    "state": "Brașov County",
    "city": "Bod"
  },
  {
    "source_id": "ChIJMa3wiyFYs0ARL8kpe63iGnc",
    "name": "EUROCONSTRUCT srl",
    "category": "EUROCONSTRUCT srl",
    "formatted_address": "4,3(18)",
    "phone_number": "+40745751500",
    "source_url": "https://www.google.com/maps/place/EUROCONSTRUCT+srl/data=!4m7!3m6!1s0x40b358218bf0ad31:0x771ae2ad7b29c92f!8m2!3d45.7509844!4d25.5861998!16s%2Fg%2F11f52631f2!19sChIJMa3wiyFYs0ARL8kpe63iGnc?authuser=0&hl=tr&rclk=1",
    "website_url": "",
    "rating_text": "4,3",
    "stars": null,
    "number_of_reviews": null,
    "price_level": "",
    "open_hours": "",
    "extraction_timestamp": "2025-06-07T18:23:04.516Z",
    "source_name": "google",
    "source_query": "Irrigation Equipment",
    "source_country": "RO",
    "country": "Romania",
    "state": "Brașov County",
    "city": "Bod"
  },
  {
    "source_id": "ChIJYRmWaqJbs0ARvsb1duCtxyI",
    "name": "TehnoSting Echipamente",
    "category": "TehnoSting Echipamente",
    "formatted_address": "4,9(7)",
    "phone_number": "+40751216567",
    "source_url": "https://www.google.com/maps/place/TehnoSting+Echipamente/data=!4m7!3m6!1s0x40b35ba26a961961:0x22c7ade076f5c6be!8m2!3d45.6899168!4d25.5825047!16s%2Fg%2F1hm54zcx1!19sChIJYRmWaqJbs0ARvsb1duCtxyI?authuser=0&hl=tr&rclk=1",
    "website_url": "http://www.tehnostingechipamente.ro/",
    "rating_text": "4,9",
    "stars": null,
    "number_of_reviews": null,
    "price_level": "",
    "open_hours": "",
    "extraction_timestamp": "2025-06-07T18:23:04.527Z",
    "source_name": "google",
    "source_query": "Irrigation Equipment",
    "source_country": "RO",
    "country": "Romania",
    "state": "Brașov County",
    "city": "Bod"
  },
  {
    "source_id": "ChIJxTlzQ25cs0ARbRRg7VLrKPw",
    "name": "Instal generation",
    "category": "Instal generation",
    "formatted_address": "5,0(5)",
    "phone_number": "+40745189529",
    "source_url": "https://www.google.com/maps/place/Instal+generation/data=!4m7!3m6!1s0x40b35c6e437339c5:0xfc28eb52ed60146d!8m2!3d45.6541089!4d25.63197!16s%2Fg%2F11flzgjjqz!19sChIJxTlzQ25cs0ARbRRg7VLrKPw?authuser=0&hl=tr&rclk=1",
    "website_url": "http://www.instalgeneration.ro/",
    "rating_text": "5,0",
    "stars": null,
    "number_of_reviews": null,
    "price_level": "",
    "open_hours": "",
    "extraction_timestamp": "2025-06-07T18:23:04.527Z",
    "source_name": "google",
    "source_query": "Irrigation Equipment",
    "source_country": "RO",
    "country": "Romania",
    "state": "Brașov County",
    "city": "Bod"
  },
  {
    "source_id": "ChIJ75U28UJcs0ARn5rOXEMHehs",
    "name": "Romradiatoare",
    "category": "Romradiatoare",
    "formatted_address": "4,6(17)",
    "phone_number": "+40268317550",
    "source_url": "https://www.google.com/maps/place/Romradiatoare/data=!4m7!3m6!1s0x40b35c42f13695ef:0x1b7a07435cce9a9f!8m2!3d45.6505059!4d25.6439921!16s%2Fg%2F1tfz_l60!19sChIJ75U28UJcs0ARn5rOXEMHehs?authuser=0&hl=tr&rclk=1",
    "website_url": "http://www.romradiatoare.com/",
    "rating_text": "4,6",
    "stars": null,
    "number_of_reviews": null,
    "price_level": "",
    "open_hours": "",
    "extraction_timestamp": "2025-06-07T18:23:04.533Z",
    "source_name": "google",
    "source_query": "Irrigation Equipment",
    "source_country": "RO",
    "country": "Romania",
    "state": "Brașov County",
    "city": "Bod"
  },
  {
    "source_id": "ChIJKXK8Zo5bs0ARuJsSfXX4sjk",
    "name": "B.A.D.I. - SKF Brasov",
    "category": "B.A.D.I. - SKF Brasov",
    "formatted_address": "4,2(5)",
    "phone_number": "+40727400004",
    "source_url": "https://www.google.com/maps/place/B.A.D.I.+-+SKF+Brasov/data=!4m7!3m6!1s0x40b35b8e66bc7229:0x39b2f8757d129bb8!8m2!3d45.9425072!4d25.0201084!16s%2Fg%2F11h3ftcp7t!19sChIJKXK8Zo5bs0ARuJsSfXX4sjk?authuser=0&hl=tr&rclk=1",
    "website_url": "https://badi.ro/",
    "rating_text": "4,2",
    "stars": null,
    "number_of_reviews": null,
    "price_level": "",
    "open_hours": "",
    "extraction_timestamp": "2025-06-07T18:23:04.534Z",
    "source_name": "google",
    "source_query": "Irrigation Equipment",
    "source_country": "RO",
    "country": "Romania",
    "state": "Brașov County",
    "city": "Bod"
  },
  {
    "source_id": "ChIJhRGNxl-ntEARf3cBNnFcjDw",
    "name": "SC BRENNDORF INSTAL",
    "category": "SC BRENNDORF INSTAL",
    "formatted_address": "5,0(1)",
    "phone_number": "+40741034505",
    "source_url": "https://www.google.com/maps/place/SC+BRENNDORF+INSTAL/data=!4m7!3m6!1s0x40b4a75fc68d1185:0x3c8c5c713601777f!8m2!3d45.77549!4d25.6463666!16s%2Fg%2F11t3g_90r7!19sChIJhRGNxl-ntEARf3cBNnFcjDw?authuser=0&hl=tr&rclk=1",
    "website_url": "",
    "rating_text": "5,0",
    "stars": null,
    "number_of_reviews": null,
    "price_level": "",
    "open_hours": "",
    "extraction_timestamp": "2025-06-07T18:23:04.535Z",
    "source_name": "google",
    "source_query": "Irrigation Equipment",
    "source_country": "RO",
    "country": "Romania",
    "state": "Brașov County",
    "city": "Bod"
  }
]
