[
  {
    "source_id": "ChIJaQzqLmZcs0ARU6r3VaUK6iE",
    "name": "AKRO S.R.L.",
    "category": "AKRO S.R.L.",
    "formatted_address": "4,7(13)",
    "phone_number": "+40268413180",
    "source_url": "https://www.google.com/maps/place/AKRO+S.R.L./data=!4m7!3m6!1s0x40b35c662eea0c69:0x21ea0aa555f7aa53!8m2!3d45.6485042!4d25.6406578!16s%2Fg%2F1hc250gs3!19sChIJaQzqLmZcs0ARU6r3VaUK6iE?authuser=0&hl=tr&rclk=1",
    "website_url": "",
    "rating_text": "4,7",
    "stars": null,
    "number_of_reviews": null,
    "price_level": "",
    "open_hours": "",
    "extraction_timestamp": "2025-06-08T02:46:29.615Z",
    "source_name": "google",
    "source_query": "Irrigation Equipment",
    "source_country": "RO",
    "country": "Romania",
    "state": "Brașov County",
    "city": "Braşov"
  },
  {
    "source_id": "ChIJA3xHTYxcs0ARnkvJueur5W8",
    "name": "Ecoflam SRL",
    "category": "Ecoflam SRL",
    "formatted_address": "4,2(55)",
    "phone_number": "+40368401281",
    "source_url": "https://www.google.com/maps/place/Ecoflam+SRL/data=!4m7!3m6!1s0x40b35c8c4d477c03:0x6fe5abebb9c94b9e!8m2!3d45.6322993!4d25.6235519!16s%2Fg%2F11cs29g8qn!19sChIJA3xHTYxcs0ARnkvJueur5W8?authuser=0&hl=tr&rclk=1",
    "website_url": "",
    "rating_text": "4,2",
    "stars": null,
    "number_of_reviews": null,
    "price_level": "",
    "open_hours": "",
    "extraction_timestamp": "2025-06-08T02:46:29.617Z",
    "source_name": "google",
    "source_query": "Irrigation Equipment",
    "source_country": "RO",
    "country": "Romania",
    "state": "Brașov County",
    "city": "Braşov"
  },
  {
    "source_id": "ChIJ1S8EiMZZs0AR86hmbkUN9ow",
    "name": "Ipso Agricultura Brașov",
    "category": "Ipso Agricultura Brașov",
    "formatted_address": "4,8(12)",
    "phone_number": "+40374438921",
    "source_url": "https://www.google.com/maps/place/Ipso+Agricultura+Bra%C8%99ov/data=!4m7!3m6!1s0x40b359c688042fd5:0x8cf60d456e66a8f3!8m2!3d45.7007612!4d25.5811096!16s%2Fg%2F11h_dq5c17!19sChIJ1S8EiMZZs0AR86hmbkUN9ow?authuser=0&hl=tr&rclk=1",
    "website_url": "",
    "rating_text": "4,8",
    "stars": null,
    "number_of_reviews": null,
    "price_level": "",
    "open_hours": "",
    "extraction_timestamp": "2025-06-08T02:46:29.617Z",
    "source_name": "google",
    "source_query": "Irrigation Equipment",
    "source_country": "RO",
    "country": "Romania",
    "state": "Brașov County",
    "city": "Braşov"
  },
  {
    "source_id": "ChIJ05s_Msdbs0ARtWqcVmxiNmM",
    "name": "Industrial Plast SRL",
    "category": "Industrial Plast SRL",
    "formatted_address": "4,3(25)",
    "phone_number": "+40749270460",
    "source_url": "https://www.google.com/maps/place/Industrial+Plast+SRL/data=!4m7!3m6!1s0x40b35bc7323f9bd3:0x6336626c569c6ab5!8m2!3d45.6723806!4d25.5907429!16s%2Fg%2F113g7jczx!19sChIJ05s_Msdbs0ARtWqcVmxiNmM?authuser=0&hl=tr&rclk=1",
    "website_url": "",
    "rating_text": "4,3",
    "stars": null,
    "number_of_reviews": null,
    "price_level": "",
    "open_hours": "",
    "extraction_timestamp": "2025-06-08T02:46:29.645Z",
    "source_name": "google",
    "source_query": "Irrigation Equipment",
    "source_country": "RO",
    "country": "Romania",
    "state": "Brașov County",
    "city": "Braşov"
  },
  {
    "source_id": "ChIJZ9snJZlbs0ARrXL84bN20UE",
    "name": "ProAlpin",
    "category": "ProAlpin",
    "formatted_address": "4,7(532)",
    "phone_number": "+40729138955",
    "source_url": "https://www.google.com/maps/place/ProAlpin/data=!4m7!3m6!1s0x40b35b992527db67:0x41d176b3e1fc72ad!8m2!3d45.6476812!4d25.6057631!16s%2Fg%2F1pp2vf45j!19sChIJZ9snJZlbs0ARrXL84bN20UE?authuser=0&hl=tr&rclk=1",
    "website_url": "",
    "rating_text": "4,7",
    "stars": null,
    "number_of_reviews": null,
    "price_level": "",
    "open_hours": "",
    "extraction_timestamp": "2025-06-08T02:46:29.646Z",
    "source_name": "google",
    "source_query": "Irrigation Equipment",
    "source_country": "RO",
    "country": "Romania",
    "state": "Brașov County",
    "city": "Braşov"
  },
  {
    "source_id": "ChIJrQ897ttds0ARhdWdpolRtbY",
    "name": "Instal Carpatica",
    "category": "Instal Carpatica",
    "formatted_address": "4,8(12)",
    "phone_number": "+40372919332",
    "source_url": "https://www.google.com/maps/place/Instal+Carpatica/data=!4m7!3m6!1s0x40b35ddbee3d0fad:0xb6b55189a69dd585!8m2!3d45.6182504!4d25.64334!16s%2Fg%2F11fnlthr36!19sChIJrQ897ttds0ARhdWdpolRtbY?authuser=0&hl=tr&rclk=1",
    "website_url": "",
    "rating_text": "4,8",
    "stars": null,
    "number_of_reviews": null,
    "price_level": "",
    "open_hours": "",
    "extraction_timestamp": "2025-06-08T02:46:29.647Z",
    "source_name": "google",
    "source_query": "Irrigation Equipment",
    "source_country": "RO",
    "country": "Romania",
    "state": "Brașov County",
    "city": "Braşov"
  },
  {
    "source_id": "ChIJ-S12dNJbs0ARYBrWXx8xPwk",
    "name": "Uniprest Instal Brașov",
    "category": "Uniprest Instal Brașov",
    "formatted_address": "4,8(11)",
    "phone_number": "+40734730447",
    "source_url": "https://www.google.com/maps/place/Uniprest+Instal+Bra%C8%99ov/data=!4m7!3m6!1s0x40b35bd274762df9:0x93f311f5fd61a60!8m2!3d45.6791809!4d25.6348915!16s%2Fg%2F11cnbsbfmc!19sChIJ-S12dNJbs0ARYBrWXx8xPwk?authuser=0&hl=tr&rclk=1",
    "website_url": "",
    "rating_text": "4,8",
    "stars": null,
    "number_of_reviews": null,
    "price_level": "",
    "open_hours": "",
    "extraction_timestamp": "2025-06-08T02:46:29.648Z",
    "source_name": "google",
    "source_query": "Irrigation Equipment",
    "source_country": "RO",
    "country": "Romania",
    "state": "Brașov County",
    "city": "Braşov"
  },
  {
    "source_id": "ChIJIUIzH_Fcs0ARSb8mlNek1c0",
    "name": "Romstal",
    "category": "Romstal",
    "formatted_address": "4,2(367)",
    "phone_number": "+40372123117",
    "source_url": "https://www.google.com/maps/place/Romstal/data=!4m7!3m6!1s0x40b35cf11f334221:0xcdd5a4d79426bf49!8m2!3d45.6330626!4d25.636574!16s%2Fg%2F12cpmrxnc!19sChIJIUIzH_Fcs0ARSb8mlNek1c0?authuser=0&hl=tr&rclk=1",
    "website_url": "",
    "rating_text": "4,2",
    "stars": null,
    "number_of_reviews": null,
    "price_level": "",
    "open_hours": "",
    "extraction_timestamp": "2025-06-08T02:46:29.649Z",
    "source_name": "google",
    "source_query": "Irrigation Equipment",
    "source_country": "RO",
    "country": "Romania",
    "state": "Brașov County",
    "city": "Braşov"
  },
  {
    "source_id": "ChIJyy6R5LZbs0ARQs4Qi7JH2ls",
    "name": "Instalatorul tau in Brasov - Chiaburu Instal SRL",
    "category": "Instalatorul tau in Brasov - Chiaburu Instal SRL",
    "formatted_address": "4,5(31)",
    "phone_number": "+40747530262",
    "source_url": "https://www.google.com/maps/place/Instalatorul+tau+in+Brasov+-+Chiaburu+Instal+SRL/data=!4m7!3m6!1s0x40b35bb6e4912ecb:0x5bda47b28b10ce42!8m2!3d45.6527639!4d25.5684782!16s%2Fg%2F11rydrpfqw!19sChIJyy6R5LZbs0ARQs4Qi7JH2ls?authuser=0&hl=tr&rclk=1",
    "website_url": "",
    "rating_text": "4,5",
    "stars": null,
    "number_of_reviews": null,
    "price_level": "",
    "open_hours": "",
    "extraction_timestamp": "2025-06-08T02:46:29.650Z",
    "source_name": "google",
    "source_query": "Irrigation Equipment",
    "source_country": "RO",
    "country": "Romania",
    "state": "Brașov County",
    "city": "Braşov"
  },
  {
    "source_id": "ChIJTX9LMJRds0ARd-cJF3vWNj8",
    "name": "Epinvest SRL, Brasov",
    "category": "Epinvest SRL, Brasov",
    "formatted_address": "Epinvest SRL, Brasov",
    "phone_number": "+40368008089",
    "source_url": "https://www.google.com/maps/place/Epinvest+SRL,+Brasov/data=!4m7!3m6!1s0x40b35d94304b7f4d:0x3f36d67b1709e777!8m2!3d45.6717876!4d25.5757741!16s%2Fg%2F11jtb40gf1!19sChIJTX9LMJRds0ARd-cJF3vWNj8?authuser=0&hl=tr&rclk=1",
    "website_url": "",
    "rating_text": "4,5",
    "stars": null,
    "number_of_reviews": null,
    "price_level": "",
    "open_hours": "",
    "extraction_timestamp": "2025-06-08T02:46:29.651Z",
    "source_name": "google",
    "source_query": "Irrigation Equipment",
    "source_country": "RO",
    "country": "Romania",
    "state": "Brașov County",
    "city": "Braşov"
  },
  {
    "source_id": "ChIJLb_Eartbs0ARsgyH2lUGGNM",
    "name": "Techno Pro",
    "category": "Techno Pro",
    "formatted_address": "4,3(493)",
    "phone_number": "+40752424242",
    "source_url": "https://www.google.com/maps/place/Techno+Pro/data=!4m7!3m6!1s0x40b35bbb6ac4bf2d:0xd3180655da870cb2!8m2!3d45.6640885!4d25.5813535!16s%2Fg%2F1jkz4jl5x!19sChIJLb_Eartbs0ARsgyH2lUGGNM?authuser=0&hl=tr&rclk=1",
    "website_url": "",
    "rating_text": "4,3",
    "stars": null,
    "number_of_reviews": null,
    "price_level": "",
    "open_hours": "",
    "extraction_timestamp": "2025-06-08T02:46:29.653Z",
    "source_name": "google",
    "source_query": "Irrigation Equipment",
    "source_country": "RO",
    "country": "Romania",
    "state": "Brașov County",
    "city": "Braşov"
  },
  {
    "source_id": "ChIJPZGrFXxbs0ARpAWHcPtNTGw",
    "name": "Green Spot - Amenajari Gradini Brasov | Intretineri Gradini Brasov",
    "category": "Green Spot - Amenajari Gradini Brasov | Intretineri Gradini Brasov",
    "formatted_address": "4,9(102)",
    "phone_number": "+40721120791",
    "source_url": "https://www.google.com/maps/place/Green+Spot+-+Amenajari+Gradini+Brasov+%7C+Intretineri+Gradini+Brasov/data=!4m7!3m6!1s0x40b35b7c15ab913d:0x6c4c4dfb708705a4!8m2!3d45.674179!4d25.6188278!16s%2Fg%2F11c3tqs_kk!19sChIJPZGrFXxbs0ARpAWHcPtNTGw?authuser=0&hl=tr&rclk=1",
    "website_url": "",
    "rating_text": "4,9",
    "stars": null,
    "number_of_reviews": null,
    "price_level": "",
    "open_hours": "",
    "extraction_timestamp": "2025-06-08T02:46:29.654Z",
    "source_name": "google",
    "source_query": "Irrigation Equipment",
    "source_country": "RO",
    "country": "Romania",
    "state": "Brașov County",
    "city": "Braşov"
  },
  {
    "source_id": "ChIJpRLHLAFbs0AR4aOqN_hsDuc",
    "name": "Gruppo Valinst",
    "category": "Gruppo Valinst",
    "formatted_address": "",
    "phone_number": "+40729931509",
    "source_url": "https://www.google.com/maps/place/Gruppo+Valinst/data=!4m7!3m6!1s0x40b35b012cc712a5:0xe70e6cf837aaa3e1!8m2!3d45.65515!4d25.5586001!16s%2Fg%2F1hc3rk913!19sChIJpRLHLAFbs0AR4aOqN_hsDuc?authuser=0&hl=tr&rclk=1",
    "website_url": "",
    "rating_text": "",
    "stars": null,
    "number_of_reviews": null,
    "price_level": "",
    "open_hours": "",
    "extraction_timestamp": "2025-06-08T02:46:29.655Z",
    "source_name": "google",
    "source_query": "Irrigation Equipment",
    "source_country": "RO",
    "country": "Romania",
    "state": "Brașov County",
    "city": "Braşov"
  },
  {
    "source_id": "ChIJCQayaPpbs0ARhf_zEF9vwQg",
    "name": "SC Agri Sigeva SRL",
    "category": "SC Agri Sigeva SRL",
    "formatted_address": "5,0(2)",
    "phone_number": "+40722529586",
    "source_url": "https://www.google.com/maps/place/SC+Agri+Sigeva+SRL/data=!4m7!3m6!1s0x40b35bfa68b20609:0x8c16f5f10f3ff85!8m2!3d45.6744327!4d25.621811!16s%2Fg%2F1pztj9780!19sChIJCQayaPpbs0ARhf_zEF9vwQg?authuser=0&hl=tr&rclk=1",
    "website_url": "",
    "rating_text": "5,0",
    "stars": null,
    "number_of_reviews": null,
    "price_level": "",
    "open_hours": "",
    "extraction_timestamp": "2025-06-08T02:46:29.656Z",
    "source_name": "google",
    "source_query": "Irrigation Equipment",
    "source_country": "RO",
    "country": "Romania",
    "state": "Brașov County",
    "city": "Braşov"
  },
  {
    "source_id": "ChIJ9Zd2jX9ds0AROE-qFBs59r4",
    "name": "IZORARE ECOSYSTEM S.R.L.",
    "category": "IZORARE ECOSYSTEM S.R.L.",
    "formatted_address": "4,7(15)",
    "phone_number": "+40752529099",
    "source_url": "https://www.google.com/maps/place/IZORARE+ECOSYSTEM+S.R.L./data=!4m7!3m6!1s0x40b35d7f8d7697f5:0xbef6391b14aa4f38!8m2!3d45.6255463!4d25.6934206!16s%2Fg%2F1yg93q4n0!19sChIJ9Zd2jX9ds0AROE-qFBs59r4?authuser=0&hl=tr&rclk=1",
    "website_url": "",
    "rating_text": "4,7",
    "stars": null,
    "number_of_reviews": null,
    "price_level": "",
    "open_hours": "",
    "extraction_timestamp": "2025-06-08T02:46:29.657Z",
    "source_name": "google",
    "source_query": "Irrigation Equipment",
    "source_country": "RO",
    "country": "Romania",
    "state": "Brașov County",
    "city": "Braşov"
  },
  {
    "source_id": "ChIJu1YSjzSDw0URjcgBGv8G3NQ",
    "name": "Gradini Verzi",
    "category": "Gradini Verzi",
    "formatted_address": "5,0(19)",
    "phone_number": "+40727069669",
    "source_url": "https://www.google.com/maps/place/Gradini+Verzi/data=!4m7!3m6!1s0x45c383348f1256bb:0xd4dc06ff1a01c88d!8m2!3d45.651576!4d25.6118307!16s%2Fg%2F11sjr8sb4r!19sChIJu1YSjzSDw0URjcgBGv8G3NQ?authuser=0&hl=tr&rclk=1",
    "website_url": "",
    "rating_text": "5,0",
    "stars": null,
    "number_of_reviews": null,
    "price_level": "",
    "open_hours": "",
    "extraction_timestamp": "2025-06-08T02:46:29.657Z",
    "source_name": "google",
    "source_query": "Irrigation Equipment",
    "source_country": "RO",
    "country": "Romania",
    "state": "Brașov County",
    "city": "Braşov"
  },
  {
    "source_id": "ChIJSc52LPpds0ARRn6D2MxGEP4",
    "name": "Krongrass Equipment",
    "category": "Krongrass Equipment",
    "formatted_address": "5,0(2)",
    "phone_number": "+40744565495",
    "source_url": "https://www.google.com/maps/place/Krongrass+Equipment/data=!4m7!3m6!1s0x40b35dfa2c76ce49:0xfe1046ccd8837e46!8m2!3d45.6466883!4d25.6378089!16s%2Fg%2F11kj0x16vd!19sChIJSc52LPpds0ARRn6D2MxGEP4?authuser=0&hl=tr&rclk=1",
    "website_url": "",
    "rating_text": "5,0",
    "stars": null,
    "number_of_reviews": null,
    "price_level": "",
    "open_hours": "",
    "extraction_timestamp": "2025-06-08T02:46:29.658Z",
    "source_name": "google",
    "source_query": "Irrigation Equipment",
    "source_country": "RO",
    "country": "Romania",
    "state": "Brașov County",
    "city": "Braşov"
  },
  {
    "source_id": "ChIJE3GIErNz2GIRnMvSnu8JXWQ",
    "name": "Landscaping company",
    "category": "Landscaping company",
    "formatted_address": "4,9(30)",
    "phone_number": "+40755652974",
    "source_url": "https://www.google.com/maps/place/Landscaping+company/data=!4m7!3m6!1s0x62d873b312887113:0x645d09ef9ed2cb9c!8m2!3d45.6928902!4d25.6184328!16s%2Fg%2F11rqs5xt47!19sChIJE3GIErNz2GIRnMvSnu8JXWQ?authuser=0&hl=tr&rclk=1",
    "website_url": "",
    "rating_text": "4,9",
    "stars": null,
    "number_of_reviews": null,
    "price_level": "",
    "open_hours": "",
    "extraction_timestamp": "2025-06-08T02:46:29.659Z",
    "source_name": "google",
    "source_query": "Irrigation Equipment",
    "source_country": "RO",
    "country": "Romania",
    "state": "Brașov County",
    "city": "Braşov"
  },
  {
    "source_id": "ChIJGdpng5LyCyIR2nqaWAfAjDg",
    "name": "24/7 InstaloMania™ - Instalator Brasov - Electrician Brasov",
    "category": "24/7 InstaloMania™ - Instalator Brasov - Electrician Brasov",
    "formatted_address": "24/7 InstaloMania™ - Instalator Brasov - Electrician Brasov",
    "phone_number": "+40756618439",
    "source_url": "https://www.google.com/maps/place/24%2F7+InstaloMania%E2%84%A2+-+Instalator+Brasov+-+Electrician+Brasov/data=!4m7!3m6!1s0x220bf2928367da19:0x388cc007589a7ada!8m2!3d45.6543492!4d25.6127264!16s%2Fg%2F11j_20n1xw!19sChIJGdpng5LyCyIR2nqaWAfAjDg?authuser=0&hl=tr&rclk=1",
    "website_url": "",
    "rating_text": "4,9",
    "stars": null,
    "number_of_reviews": null,
    "price_level": "",
    "open_hours": "",
    "extraction_timestamp": "2025-06-08T02:46:29.660Z",
    "source_name": "google",
    "source_query": "Irrigation Equipment",
    "source_country": "RO",
    "country": "Romania",
    "state": "Brașov County",
    "city": "Braşov"
  },
  {
    "source_id": "ChIJG2EV_f9bs0ARRhFy__gil54",
    "name": "SC Instalatii Trust SA",
    "category": "SC Instalatii Trust SA",
    "formatted_address": "5,0(7)",
    "phone_number": "+40744299176",
    "source_url": "https://www.google.com/maps/place/SC+Instalatii+Trust+SA/data=!4m7!3m6!1s0x40b35bfffd15611b:0x9e9722f8ff721146!8m2!3d45.6568366!4d25.5640092!16s%2Fg%2F11jnsmfjrq!19sChIJG2EV_f9bs0ARRhFy__gil54?authuser=0&hl=tr&rclk=1",
    "website_url": "",
    "rating_text": "5,0",
    "stars": null,
    "number_of_reviews": null,
    "price_level": "",
    "open_hours": "",
    "extraction_timestamp": "2025-06-08T02:46:29.661Z",
    "source_name": "google",
    "source_query": "Irrigation Equipment",
    "source_country": "RO",
    "country": "Romania",
    "state": "Brașov County",
    "city": "Braşov"
  },
  {
    "source_id": "ChIJxTlzQ25cs0ARbRRg7VLrKPw",
    "name": "Instal generation",
    "category": "Instal generation",
    "formatted_address": "5,0(5)",
    "phone_number": "+40745189529",
    "source_url": "https://www.google.com/maps/place/Instal+generation/data=!4m7!3m6!1s0x40b35c6e437339c5:0xfc28eb52ed60146d!8m2!3d45.6541089!4d25.63197!16s%2Fg%2F11flzgjjqz!19sChIJxTlzQ25cs0ARbRRg7VLrKPw?authuser=0&hl=tr&rclk=1",
    "website_url": "",
    "rating_text": "5,0",
    "stars": null,
    "number_of_reviews": null,
    "price_level": "",
    "open_hours": "",
    "extraction_timestamp": "2025-06-08T02:46:29.661Z",
    "source_name": "google",
    "source_query": "Irrigation Equipment",
    "source_country": "RO",
    "country": "Romania",
    "state": "Brașov County",
    "city": "Braşov"
  },
  {
    "source_id": "ChIJiYrW93hcs0ARpKmOIL1sTuI",
    "name": "Valinst Agriculture",
    "category": "Valinst Agriculture",
    "formatted_address": "5,0(1)",
    "phone_number": "+40730330543",
    "source_url": "https://www.google.com/maps/place/Valinst+Agriculture/data=!4m7!3m6!1s0x40b35c78f7d68a89:0xe24e6cbd208ea9a4!8m2!3d45.6527567!4d25.6143965!16s%2Fg%2F11hf04lgwp!19sChIJiYrW93hcs0ARpKmOIL1sTuI?authuser=0&hl=tr&rclk=1",
    "website_url": "",
    "rating_text": "5,0",
    "stars": null,
    "number_of_reviews": null,
    "price_level": "",
    "open_hours": "",
    "extraction_timestamp": "2025-06-08T02:46:29.662Z",
    "source_name": "google",
    "source_query": "Irrigation Equipment",
    "source_country": "RO",
    "country": "Romania",
    "state": "Brașov County",
    "city": "Braşov"
  },
  {
    "source_id": "ChIJtRDaNxVds0ARH0zYzm8DWbE",
    "name": "CHIRILA INSTAL",
    "category": "CHIRILA INSTAL",
    "formatted_address": "5,0(17)",
    "phone_number": "+40734108310",
    "source_url": "https://www.google.com/maps/place/CHIRILA+INSTAL/data=!4m7!3m6!1s0x40b35d1537da10b5:0xb159036fced84c1f!8m2!3d45.651787!4d25.6309351!16s%2Fg%2F11vt09sry_!19sChIJtRDaNxVds0ARH0zYzm8DWbE?authuser=0&hl=tr&rclk=1",
    "website_url": "",
    "rating_text": "5,0",
    "stars": null,
    "number_of_reviews": null,
    "price_level": "",
    "open_hours": "",
    "extraction_timestamp": "2025-06-08T02:46:29.663Z",
    "source_name": "google",
    "source_query": "Irrigation Equipment",
    "source_country": "RO",
    "country": "Romania",
    "state": "Brașov County",
    "city": "Braşov"
  },
  {
    "source_id": "ChIJlzC5ZptZs0AR-E0gh9kCJfQ",
    "name": "Meseriaș Instalator Brașov - KIRILA LUCIPA SRL",
    "category": "Meseriaș Instalator Brașov - KIRILA LUCIPA SRL",
    "formatted_address": "4,9(31)",
    "phone_number": "+40730354076",
    "source_url": "https://www.google.com/maps/place/Meseria%C8%99+Instalator+Bra%C8%99ov+-+KIRILA+LUCIPA+SRL/data=!4m7!3m6!1s0x40b3599b66b93097:0xf42502d987204df8!8m2!3d45.691429!4d25.6294113!16s%2Fg%2F11t5b1c2ry!19sChIJlzC5ZptZs0AR-E0gh9kCJfQ?authuser=0&hl=tr&rclk=1",
    "website_url": "",
    "rating_text": "4,9",
    "stars": null,
    "number_of_reviews": null,
    "price_level": "",
    "open_hours": "",
    "extraction_timestamp": "2025-06-08T02:46:29.664Z",
    "source_name": "google",
    "source_query": "Irrigation Equipment",
    "source_country": "RO",
    "country": "Romania",
    "state": "Brașov County",
    "city": "Braşov"
  },
  {
    "source_id": "ChIJk719965es0ARSHau3S-JmpE",
    "name": "Serstill",
    "category": "Serstill",
    "formatted_address": "4,6(22)",
    "phone_number": "+40268311511",
    "source_url": "https://www.google.com/maps/place/Serstill/data=!4m7!3m6!1s0x40b35eaef77dbd93:0x919a892fddae7648!8m2!3d45.683375!4d25.652469!16s%2Fg%2F11xdltdh5!19sChIJk719965es0ARSHau3S-JmpE?authuser=0&hl=tr&rclk=1",
    "website_url": "",
    "rating_text": "4,6",
    "stars": null,
    "number_of_reviews": null,
    "price_level": "",
    "open_hours": "",
    "extraction_timestamp": "2025-06-08T02:46:29.665Z",
    "source_name": "google",
    "source_query": "Irrigation Equipment",
    "source_country": "RO",
    "country": "Romania",
    "state": "Brașov County",
    "city": "Braşov"
  },
  {
    "source_id": "ChIJG1N7wfdas0ARCbOQYOtMzFI",
    "name": "Rywal RHC România",
    "category": "Rywal RHC România",
    "formatted_address": "4,8(18)",
    "phone_number": "+40368100127",
    "source_url": "https://www.google.com/maps/place/Rywal+RHC+Rom%C3%A2nia/data=!4m7!3m6!1s0x40b35af7c17b531b:0x52cc4ceb6090b309!8m2!3d45.6618163!4d25.5388838!16s%2Fg%2F1pxqbmrlj!19sChIJG1N7wfdas0ARCbOQYOtMzFI?authuser=0&hl=tr&rclk=1",
    "website_url": "",
    "rating_text": "4,8",
    "stars": null,
    "number_of_reviews": null,
    "price_level": "",
    "open_hours": "",
    "extraction_timestamp": "2025-06-08T02:46:29.666Z",
    "source_name": "google",
    "source_query": "Irrigation Equipment",
    "source_country": "RO",
    "country": "Romania",
    "state": "Brașov County",
    "city": "Braşov"
  },
  {
    "source_id": "ChIJGVg_O-1cs0ARmD9_VLr0E54",
    "name": "TERMOPROT",
    "category": "TERMOPROT",
    "formatted_address": "5,0(3)",
    "phone_number": "+40268333914",
    "source_url": "https://www.google.com/maps/place/TERMOPROT/data=!4m7!3m6!1s0x40b35ced3b3f5819:0x9e13f4ba547f3f98!8m2!3d45.6305519!4d25.6239596!16s%2Fg%2F11b76d3mxk!19sChIJGVg_O-1cs0ARmD9_VLr0E54?authuser=0&hl=tr&rclk=1",
    "website_url": "",
    "rating_text": "5,0",
    "stars": null,
    "number_of_reviews": null,
    "price_level": "",
    "open_hours": "",
    "extraction_timestamp": "2025-06-08T02:46:29.666Z",
    "source_name": "google",
    "source_query": "Irrigation Equipment",
    "source_country": "RO",
    "country": "Romania",
    "state": "Brașov County",
    "city": "Braşov"
  },
  {
    "source_id": "ChIJ75U28UJcs0ARn5rOXEMHehs",
    "name": "Romradiatoare",
    "category": "Romradiatoare",
    "formatted_address": "4,6(17)",
    "phone_number": "+40268317550",
    "source_url": "https://www.google.com/maps/place/Romradiatoare/data=!4m7!3m6!1s0x40b35c42f13695ef:0x1b7a07435cce9a9f!8m2!3d45.6505059!4d25.6439921!16s%2Fg%2F1tfz_l60!19sChIJ75U28UJcs0ARn5rOXEMHehs?authuser=0&hl=tr&rclk=1",
    "website_url": "",
    "rating_text": "4,6",
    "stars": null,
    "number_of_reviews": null,
    "price_level": "",
    "open_hours": "",
    "extraction_timestamp": "2025-06-08T02:46:29.667Z",
    "source_name": "google",
    "source_query": "Irrigation Equipment",
    "source_country": "RO",
    "country": "Romania",
    "state": "Brașov County",
    "city": "Braşov"
  }
]
