[
  {
    "source_id": "ChIJaQzqLmZcs0ARU6r3VaUK6iE",
    "name": "AKRO S.R.L.",
    "category": "AKRO S.R.L.",
    "formatted_address": "4,7(13)",
    "phone_number": "+40268413180",
    "source_url": "https://www.google.com/maps/place/AKRO+S.R.L./data=!4m7!3m6!1s0x40b35c662eea0c69:0x21ea0aa555f7aa53!8m2!3d45.6485042!4d25.6406578!16s%2Fg%2F1hc250gs3!19sChIJaQzqLmZcs0ARU6r3VaUK6iE?authuser=0&hl=tr&rclk=1",
    "website_url": "",
    "rating_text": "4,7",
    "stars": null,
    "number_of_reviews": null,
    "price_level": "",
    "open_hours": "",
    "extraction_timestamp": "2025-06-07T18:20:09.777Z",
    "source_name": "google",
    "source_query": "Irrigation Equipment",
    "source_country": "RO",
    "country": "Romania",
    "state": "Brașov County",
    "city": "Codlea"
  },
  {
    "source_id": "ChIJN8sRSRBRs0ARdjYyW053ofg",
    "name": "Eliascon",
    "category": "Eliascon",
    "formatted_address": "4,6(117)",
    "phone_number": "+40268506363",
    "source_url": "https://www.google.com/maps/place/Eliascon/data=!4m7!3m6!1s0x40b351104911cb37:0xf8a1774e5b323676!8m2!3d45.696353!4d25.443853!16s%2Fg%2F1hc90fbn8!19sChIJN8sRSRBRs0ARdjYyW053ofg?authuser=0&hl=tr&rclk=1",
    "website_url": "",
    "rating_text": "4,6",
    "stars": null,
    "number_of_reviews": null,
    "price_level": "",
    "open_hours": "",
    "extraction_timestamp": "2025-06-07T18:20:09.779Z",
    "source_name": "google",
    "source_query": "Irrigation Equipment",
    "source_country": "RO",
    "country": "Romania",
    "state": "Brașov County",
    "city": "Codlea"
  },
  {
    "source_id": "ChIJTR_DrUdRs0ARZeOT_QeRUFc",
    "name": "Taiss 1",
    "category": "Taiss 1",
    "formatted_address": "4,7(152)",
    "phone_number": "+40268252000",
    "source_url": "https://www.google.com/maps/place/Taiss+1/data=!4m7!3m6!1s0x40b35147adc31f4d:0x57509107fd93e365!8m2!3d45.6941394!4d25.4462398!16s%2Fg%2F11h1yg1_tp!19sChIJTR_DrUdRs0ARZeOT_QeRUFc?authuser=0&hl=tr&rclk=1",
    "website_url": "",
    "rating_text": "4,7",
    "stars": null,
    "number_of_reviews": null,
    "price_level": "",
    "open_hours": "",
    "extraction_timestamp": "2025-06-07T18:20:09.781Z",
    "source_name": "google",
    "source_query": "Irrigation Equipment",
    "source_country": "RO",
    "country": "Romania",
    "state": "Brașov County",
    "city": "Codlea"
  },
  {
    "source_id": "ChIJD9v3XxFRs0ARmTH7X0msjoU",
    "name": "SC Popa SRL",
    "category": "SC Popa SRL",
    "formatted_address": "3,7(6)",
    "phone_number": "+40268251820",
    "source_url": "https://www.google.com/maps/place/SC+Popa+SRL/data=!4m7!3m6!1s0x40b351115ff7db0f:0x858eac495ffb3199!8m2!3d45.6986658!4d25.4437535!16s%2Fg%2F11c5s7sdm5!19sChIJD9v3XxFRs0ARmTH7X0msjoU?authuser=0&hl=tr&rclk=1",
    "website_url": "",
    "rating_text": "3,7",
    "stars": null,
    "number_of_reviews": null,
    "price_level": "",
    "open_hours": "",
    "extraction_timestamp": "2025-06-07T18:20:09.783Z",
    "source_name": "google",
    "source_query": "Irrigation Equipment",
    "source_country": "RO",
    "country": "Romania",
    "state": "Brașov County",
    "city": "Codlea"
  },
  {
    "source_id": "ChIJlx4s-cZRs0ARy0P8X_6-1g8",
    "name": "Magazin & Service de utilaje BG PRO SERVICE SRL",
    "category": "Magazin & Service de utilaje BG PRO SERVICE SRL",
    "formatted_address": "5,0(4)",
    "phone_number": "+40747523512",
    "source_url": "https://www.google.com/maps/place/Magazin+%26+Service+de+utilaje+BG+PRO+SERVICE+SRL/data=!4m7!3m6!1s0x40b351c6f92c1e97:0xfd6befe5ffc43cb!8m2!3d45.6983012!4d25.4449283!16s%2Fg%2F11y4bnq1mj!19sChIJlx4s-cZRs0ARy0P8X_6-1g8?authuser=0&hl=tr&rclk=1",
    "website_url": "",
    "rating_text": "5,0",
    "stars": null,
    "number_of_reviews": null,
    "price_level": "",
    "open_hours": "",
    "extraction_timestamp": "2025-06-07T18:20:09.784Z",
    "source_name": "google",
    "source_query": "Irrigation Equipment",
    "source_country": "RO",
    "country": "Romania",
    "state": "Brașov County",
    "city": "Codlea"
  },
  {
    "source_id": "ChIJX46IIIZas0ARI4N7IBtzs5o",
    "name": "BRASTING SRL",
    "category": "BRASTING SRL",
    "formatted_address": "5,0(3)",
    "phone_number": "+40368884884",
    "source_url": "https://www.google.com/maps/place/BRASTING+SRL/data=!4m7!3m6!1s0x40b35a8620888e5f:0x9ab3731b207b8323!8m2!3d45.6956354!4d25.4508587!16s%2Fg%2F11c30sbvyd!19sChIJX46IIIZas0ARI4N7IBtzs5o?authuser=0&hl=tr&rclk=1",
    "website_url": "",
    "rating_text": "5,0",
    "stars": null,
    "number_of_reviews": null,
    "price_level": "",
    "open_hours": "",
    "extraction_timestamp": "2025-06-07T18:20:09.785Z",
    "source_name": "google",
    "source_query": "Irrigation Equipment",
    "source_country": "RO",
    "country": "Romania",
    "state": "Brașov County",
    "city": "Codlea"
  },
  {
    "source_id": "ChIJiYrW93hcs0ARpKmOIL1sTuI",
    "name": "Valinst Agriculture",
    "category": "Valinst Agriculture",
    "formatted_address": "5,0(1)",
    "phone_number": "+40730330543",
    "source_url": "https://www.google.com/maps/place/Valinst+Agriculture/data=!4m7!3m6!1s0x40b35c78f7d68a89:0xe24e6cbd208ea9a4!8m2!3d45.6527567!4d25.6143965!16s%2Fg%2F11hf04lgwp!19sChIJiYrW93hcs0ARpKmOIL1sTuI?authuser=0&hl=tr&rclk=1",
    "website_url": "",
    "rating_text": "5,0",
    "stars": null,
    "number_of_reviews": null,
    "price_level": "",
    "open_hours": "",
    "extraction_timestamp": "2025-06-07T18:20:09.787Z",
    "source_name": "google",
    "source_query": "Irrigation Equipment",
    "source_country": "RO",
    "country": "Romania",
    "state": "Brașov County",
    "city": "Codlea"
  },
  {
    "source_id": "ChIJ8WuYTBFRs0ARl58KWwATLSw",
    "name": "Piese Auto GENACOM SRL",
    "category": "Piese Auto GENACOM SRL",
    "formatted_address": "4,7(49)",
    "phone_number": "+40755069649",
    "source_url": "https://www.google.com/maps/place/Piese+Auto+GENACOM+SRL/data=!4m7!3m6!1s0x40b351114c986bf1:0x2c2d13005b0a9f97!8m2!3d45.7004097!4d25.4442095!16s%2Fg%2F11gfd5dw8j!19sChIJ8WuYTBFRs0ARl58KWwATLSw?authuser=0&hl=tr&rclk=1",
    "website_url": "",
    "rating_text": "4,7",
    "stars": null,
    "number_of_reviews": null,
    "price_level": "",
    "open_hours": "",
    "extraction_timestamp": "2025-06-07T18:20:09.788Z",
    "source_name": "google",
    "source_query": "Irrigation Equipment",
    "source_country": "RO",
    "country": "Romania",
    "state": "Brașov County",
    "city": "Codlea"
  },
  {
    "source_id": "ChIJbUNYfRdRs0ARYJQwPZOJcgQ",
    "name": "SereCodlea.ro",
    "category": "SereCodlea.ro",
    "formatted_address": "5,0(1)",
    "phone_number": "+40746472743",
    "source_url": "https://www.google.com/maps/place/SereCodlea.ro/data=!4m7!3m6!1s0x40b351177d58436d:0x47289933d309460!8m2!3d45.7008194!4d25.4511106!16s%2Fg%2F11h461fntb!19sChIJbUNYfRdRs0ARYJQwPZOJcgQ?authuser=0&hl=tr&rclk=1",
    "website_url": "",
    "rating_text": "5,0",
    "stars": null,
    "number_of_reviews": null,
    "price_level": "",
    "open_hours": "",
    "extraction_timestamp": "2025-06-07T18:20:09.789Z",
    "source_name": "google",
    "source_query": "Irrigation Equipment",
    "source_country": "RO",
    "country": "Romania",
    "state": "Brașov County",
    "city": "Codlea"
  },
  {
    "source_id": "ChIJj72MIxZRs0ARSr41PYBdeCI",
    "name": "Exotic 9 Mai",
    "category": "Exotic 9 Mai",
    "formatted_address": "3,8(128)",
    "phone_number": "",
    "source_url": "https://www.google.com/maps/place/Exotic+9+Mai/data=!4m7!3m6!1s0x40b35116238cbd8f:0x22785d803d35be4a!8m2!3d45.7040701!4d25.4487123!16s%2Fg%2F11fx9bz2lh!19sChIJj72MIxZRs0ARSr41PYBdeCI?authuser=0&hl=tr&rclk=1",
    "website_url": "",
    "rating_text": "3,8",
    "stars": null,
    "number_of_reviews": null,
    "price_level": "",
    "open_hours": "",
    "extraction_timestamp": "2025-06-07T18:20:09.790Z",
    "source_name": "google",
    "source_query": "Irrigation Equipment",
    "source_country": "RO",
    "country": "Romania",
    "state": "Brașov County",
    "city": "Codlea"
  },
  {
    "source_id": "ChIJ5T77pgRRs0ARj4ne_VN0ogs",
    "name": "Popa Codlea",
    "category": "Popa Codlea",
    "formatted_address": "5,0(1)",
    "phone_number": "+40752272452",
    "source_url": "https://www.google.com/maps/place/Popa+Codlea/data=!4m7!3m6!1s0x40b35104a6fb3ee5:0xba27453fdde898f!8m2!3d45.6924041!4d25.4507452!16s%2Fg%2F11h_6pnhvj!19sChIJ5T77pgRRs0ARj4ne_VN0ogs?authuser=0&hl=tr&rclk=1",
    "website_url": "",
    "rating_text": "5,0",
    "stars": null,
    "number_of_reviews": null,
    "price_level": "",
    "open_hours": "",
    "extraction_timestamp": "2025-06-07T18:20:09.791Z",
    "source_name": "google",
    "source_query": "Irrigation Equipment",
    "source_country": "RO",
    "country": "Romania",
    "state": "Brașov County",
    "city": "Codlea"
  },
  {
    "source_id": "ChIJl3lHMwRRs0ARYKHjgtcYbeM",
    "name": "La Doi Pași",
    "category": "La Doi Pași",
    "formatted_address": "4,3(186)",
    "phone_number": "+40726919675",
    "source_url": "https://www.google.com/maps/place/La+Doi+Pa%C8%99i/data=!4m7!3m6!1s0x40b3510433477997:0xe36d18d782e3a160!8m2!3d45.690854!4d25.4457321!16s%2Fg%2F11dxm376t5!19sChIJl3lHMwRRs0ARYKHjgtcYbeM?authuser=0&hl=tr&rclk=1",
    "website_url": "",
    "rating_text": "4,3",
    "stars": null,
    "number_of_reviews": null,
    "price_level": "",
    "open_hours": "",
    "extraction_timestamp": "2025-06-07T18:20:09.792Z",
    "source_name": "google",
    "source_query": "Irrigation Equipment",
    "source_country": "RO",
    "country": "Romania",
    "state": "Brașov County",
    "city": "Codlea"
  },
  {
    "source_id": "ChIJ4yBrWgRRs0ARrCC2uE79O4c",
    "name": "Prăvălie Sergiana",
    "category": "Prăvălie Sergiana",
    "formatted_address": "4,3(13)",
    "phone_number": "+40368469359",
    "source_url": "https://www.google.com/maps/place/Pr%C4%83v%C4%83lie+Sergiana/data=!4m7!3m6!1s0x40b351045a6b20e3:0x873bfd4eb8b620ac!8m2!3d45.6917177!4d25.4455301!16s%2Fg%2F11hcz24hmz!19sChIJ4yBrWgRRs0ARrCC2uE79O4c?authuser=0&hl=tr&rclk=1",
    "website_url": "",
    "rating_text": "4,3",
    "stars": null,
    "number_of_reviews": null,
    "price_level": "",
    "open_hours": "",
    "extraction_timestamp": "2025-06-07T18:20:09.794Z",
    "source_name": "google",
    "source_query": "Irrigation Equipment",
    "source_country": "RO",
    "country": "Romania",
    "state": "Brașov County",
    "city": "Codlea"
  },
  {
    "source_id": "ChIJqcUzPBRRs0ARiDx6djVYsVI",
    "name": "Prăvălie Sergiana",
    "category": "Prăvălie Sergiana",
    "formatted_address": "4,3(98)",
    "phone_number": "+40368461033",
    "source_url": "https://www.google.com/maps/place/Pr%C4%83v%C4%83lie+Sergiana/data=!4m7!3m6!1s0x40b351143c33c5a9:0x52b15835767a3c88!8m2!3d45.7023876!4d25.4428279!16s%2Fg%2F11c1s11v2b!19sChIJqcUzPBRRs0ARiDx6djVYsVI?authuser=0&hl=tr&rclk=1",
    "website_url": "",
    "rating_text": "4,3",
    "stars": null,
    "number_of_reviews": null,
    "price_level": "",
    "open_hours": "",
    "extraction_timestamp": "2025-06-07T18:20:09.795Z",
    "source_name": "google",
    "source_query": "Irrigation Equipment",
    "source_country": "RO",
    "country": "Romania",
    "state": "Brașov County",
    "city": "Codlea"
  },
  {
    "source_id": "ChIJvZXzij1Rs0ARE7EGh-K56gc",
    "name": "Fix S.R.L.",
    "category": "Fix S.R.L.",
    "formatted_address": "4,5(15)",
    "phone_number": "+40268251951",
    "source_url": "https://www.google.com/maps/place/Fix+S.R.L./data=!4m7!3m6!1s0x40b3513d8af395bd:0x7eab9e28706b113!8m2!3d45.7011765!4d25.444553!16s%2Fg%2F1hc1ykv25!19sChIJvZXzij1Rs0ARE7EGh-K56gc?authuser=0&hl=tr&rclk=1",
    "website_url": "",
    "rating_text": "4,5",
    "stars": null,
    "number_of_reviews": null,
    "price_level": "",
    "open_hours": "",
    "extraction_timestamp": "2025-06-07T18:20:09.796Z",
    "source_name": "google",
    "source_query": "Irrigation Equipment",
    "source_country": "RO",
    "country": "Romania",
    "state": "Brașov County",
    "city": "Codlea"
  },
  {
    "source_id": "ChIJPwRoYidRs0ARhWYuG2_SZKQ",
    "name": "Exotic",
    "category": "Exotic",
    "formatted_address": "4,2(20)",
    "phone_number": "",
    "source_url": "https://www.google.com/maps/place/Exotic/data=!4m7!3m6!1s0x40b351276268043f:0xa464d26f1b2e6685!8m2!3d45.7025147!4d25.4428292!16s%2Fg%2F11h4fjfb0k!19sChIJPwRoYidRs0ARhWYuG2_SZKQ?authuser=0&hl=tr&rclk=1",
    "website_url": "",
    "rating_text": "4,2",
    "stars": null,
    "number_of_reviews": null,
    "price_level": "",
    "open_hours": "",
    "extraction_timestamp": "2025-06-07T18:20:09.797Z",
    "source_name": "google",
    "source_query": "Irrigation Equipment",
    "source_country": "RO",
    "country": "Romania",
    "state": "Brașov County",
    "city": "Codlea"
  },
  {
    "source_id": "ChIJ1-DuWKhRs0ARdQqWHt8AwuU",
    "name": "Agamex",
    "category": "Agamex",
    "formatted_address": "5,0(1)",
    "phone_number": "",
    "source_url": "https://www.google.com/maps/place/Agamex/data=!4m7!3m6!1s0x40b351a858eee0d7:0xe5c200df1e960a75!8m2!3d45.687776!4d25.4534541!16s%2Fg%2F11hlf7_8p2!19sChIJ1-DuWKhRs0ARdQqWHt8AwuU?authuser=0&hl=tr&rclk=1",
    "website_url": "",
    "rating_text": "5,0",
    "stars": null,
    "number_of_reviews": null,
    "price_level": "",
    "open_hours": "",
    "extraction_timestamp": "2025-06-07T18:20:09.798Z",
    "source_name": "google",
    "source_query": "Irrigation Equipment",
    "source_country": "RO",
    "country": "Romania",
    "state": "Brașov County",
    "city": "Codlea"
  },
  {
    "source_id": "ChIJe_tU3Bhbs0ARYNkGVHO5YKE",
    "name": "HIDROstore Brașov",
    "category": "HIDROstore Brașov",
    "formatted_address": "5,0(13)",
    "phone_number": "+40771576228",
    "source_url": "https://www.google.com/maps/place/HIDROstore+Bra%C8%99ov/data=!4m7!3m6!1s0x40b35b18dc54fb7b:0xa160b9735406d960!8m2!3d45.6734944!4d25.5800351!16s%2Fg%2F11w8pn_mjw!19sChIJe_tU3Bhbs0ARYNkGVHO5YKE?authuser=0&hl=tr&rclk=1",
    "website_url": "",
    "rating_text": "5,0",
    "stars": null,
    "number_of_reviews": null,
    "price_level": "",
    "open_hours": "",
    "extraction_timestamp": "2025-06-07T18:20:09.799Z",
    "source_name": "google",
    "source_query": "Irrigation Equipment",
    "source_country": "RO",
    "country": "Romania",
    "state": "Brașov County",
    "city": "Codlea"
  },
  {
    "source_id": "ChIJN-1pMhdRs0AR8IVg451clR0",
    "name": "Prăvălie Sergiana",
    "category": "Prăvălie Sergiana",
    "formatted_address": "4,7(21)",
    "phone_number": "+40368800650",
    "source_url": "https://www.google.com/maps/place/Pr%C4%83v%C4%83lie+Sergiana/data=!4m7!3m6!1s0x40b351173269ed37:0x1d955c9de36085f0!8m2!3d45.6999066!4d25.4475122!16s%2Fg%2F11hd07tj8g!19sChIJN-1pMhdRs0AR8IVg451clR0?authuser=0&hl=tr&rclk=1",
    "website_url": "",
    "rating_text": "4,7",
    "stars": null,
    "number_of_reviews": null,
    "price_level": "",
    "open_hours": "",
    "extraction_timestamp": "2025-06-07T18:20:09.800Z",
    "source_name": "google",
    "source_query": "Irrigation Equipment",
    "source_country": "RO",
    "country": "Romania",
    "state": "Brașov County",
    "city": "Codlea"
  },
  {
    "source_id": "ChIJi6FDEyyhtEARXjG1waHLjVo",
    "name": "Utilajeagri.ro",
    "category": "Utilajeagri.ro",
    "formatted_address": "4,6(22)",
    "phone_number": "+40740317928",
    "source_url": "https://www.google.com/maps/place/Utilajeagri.ro/data=!4m7!3m6!1s0x40b4a12c1343a18b:0x5a8dcba1c1b5315e!8m2!3d45.7495733!4d25.767982!16s%2Fg%2F11flrmwwns!19sChIJi6FDEyyhtEARXjG1waHLjVo?authuser=0&hl=tr&rclk=1",
    "website_url": "",
    "rating_text": "4,6",
    "stars": null,
    "number_of_reviews": null,
    "price_level": "",
    "open_hours": "",
    "extraction_timestamp": "2025-06-07T18:20:09.801Z",
    "source_name": "google",
    "source_query": "Irrigation Equipment",
    "source_country": "RO",
    "country": "Romania",
    "state": "Brașov County",
    "city": "Codlea"
  },
  {
    "source_id": "ChIJ-S12dNJbs0ARYBrWXx8xPwk",
    "name": "Uniprest Instal Brașov",
    "category": "Uniprest Instal Brașov",
    "formatted_address": "4,8(11)",
    "phone_number": "+40734730447",
    "source_url": "https://www.google.com/maps/place/Uniprest+Instal+Bra%C8%99ov/data=!4m7!3m6!1s0x40b35bd274762df9:0x93f311f5fd61a60!8m2!3d45.6791809!4d25.6348915!16s%2Fg%2F11cnbsbfmc!19sChIJ-S12dNJbs0ARYBrWXx8xPwk?authuser=0&hl=tr&rclk=1",
    "website_url": "",
    "rating_text": "4,8",
    "stars": null,
    "number_of_reviews": null,
    "price_level": "",
    "open_hours": "",
    "extraction_timestamp": "2025-06-07T18:20:09.802Z",
    "source_name": "google",
    "source_query": "Irrigation Equipment",
    "source_country": "RO",
    "country": "Romania",
    "state": "Brașov County",
    "city": "Codlea"
  },
  {
    "source_id": "ChIJqwtsw3cVmgYRISxIbl60oDw",
    "name": "Sandu D-tru Daniel Florin",
    "category": "Sandu D-tru Daniel Florin",
    "formatted_address": "",
    "phone_number": "+40720404686",
    "source_url": "https://www.google.com/maps/place/Sandu+D-tru+Daniel+Florin/data=!4m7!3m6!1s0x69a1577c36c0bab:0x3ca0b45e6e482c21!8m2!3d45.6524781!4d25.5964628!16s%2Fg%2F11xcft413t!19sChIJqwtsw3cVmgYRISxIbl60oDw?authuser=0&hl=tr&rclk=1",
    "website_url": "",
    "rating_text": "",
    "stars": null,
    "number_of_reviews": null,
    "price_level": "",
    "open_hours": "",
    "extraction_timestamp": "2025-06-07T18:20:09.804Z",
    "source_name": "google",
    "source_query": "Irrigation Equipment",
    "source_country": "RO",
    "country": "Romania",
    "state": "Brașov County",
    "city": "Codlea"
  },
  {
    "source_id": "ChIJbXodDwBbs0ARTc7P2VD0JFY",
    "name": "Bakery cafe lifestyle",
    "category": "Bakery cafe lifestyle",
    "formatted_address": "",
    "phone_number": "+40738894089",
    "source_url": "https://www.google.com/maps/place/Bakery+cafe+lifestyle/data=!4m7!3m6!1s0x40b35b000f1d7a6d:0x5624f450d9cfce4d!8m2!3d45.6771994!4d25.6073435!16s%2Fg%2F11xg8jcll2!19sChIJbXodDwBbs0ARTc7P2VD0JFY?authuser=0&hl=tr&rclk=1",
    "website_url": "",
    "rating_text": "",
    "stars": null,
    "number_of_reviews": null,
    "price_level": "",
    "open_hours": "",
    "extraction_timestamp": "2025-06-07T18:20:09.805Z",
    "source_name": "google",
    "source_query": "Irrigation Equipment",
    "source_country": "RO",
    "country": "Romania",
    "state": "Brașov County",
    "city": "Codlea"
  },
  {
    "source_id": "ChIJZ2TAKopcs0ARXWJpfgr5Ja0",
    "name": "Ecoflam",
    "category": "Ecoflam",
    "formatted_address": "4,0(3)",
    "phone_number": "+40733670019",
    "source_url": "https://www.google.com/maps/place/Ecoflam/data=!4m7!3m6!1s0x40b35c8a2ac06467:0xad25f90a7e69625d!8m2!3d45.6399864!4d25.6239017!16s%2Fg%2F11hbl8yp52!19sChIJZ2TAKopcs0ARXWJpfgr5Ja0?authuser=0&hl=tr&rclk=1",
    "website_url": "",
    "rating_text": "4,0",
    "stars": null,
    "number_of_reviews": null,
    "price_level": "",
    "open_hours": "",
    "extraction_timestamp": "2025-06-07T18:20:09.806Z",
    "source_name": "google",
    "source_query": "Irrigation Equipment",
    "source_country": "RO",
    "country": "Romania",
    "state": "Brașov County",
    "city": "Codlea"
  },
  {
    "source_id": "ChIJpRLHLAFbs0AR4aOqN_hsDuc",
    "name": "Gruppo Valinst",
    "category": "Gruppo Valinst",
    "formatted_address": "",
    "phone_number": "+40729931509",
    "source_url": "https://www.google.com/maps/place/Gruppo+Valinst/data=!4m7!3m6!1s0x40b35b012cc712a5:0xe70e6cf837aaa3e1!8m2!3d45.65515!4d25.5586001!16s%2Fg%2F1hc3rk913!19sChIJpRLHLAFbs0AR4aOqN_hsDuc?authuser=0&hl=tr&rclk=1",
    "website_url": "",
    "rating_text": "",
    "stars": null,
    "number_of_reviews": null,
    "price_level": "",
    "open_hours": "",
    "extraction_timestamp": "2025-06-07T18:20:09.807Z",
    "source_name": "google",
    "source_query": "Irrigation Equipment",
    "source_country": "RO",
    "country": "Romania",
    "state": "Brașov County",
    "city": "Codlea"
  },
  {
    "source_id": "ChIJIUIzH_Fcs0ARSb8mlNek1c0",
    "name": "Romstal",
    "category": "Romstal",
    "formatted_address": "4,2(367)",
    "phone_number": "+40372123117",
    "source_url": "https://www.google.com/maps/place/Romstal/data=!4m7!3m6!1s0x40b35cf11f334221:0xcdd5a4d79426bf49!8m2!3d45.6330626!4d25.636574!16s%2Fg%2F12cpmrxnc!19sChIJIUIzH_Fcs0ARSb8mlNek1c0?authuser=0&hl=tr&rclk=1",
    "website_url": "",
    "rating_text": "4,2",
    "stars": null,
    "number_of_reviews": null,
    "price_level": "",
    "open_hours": "",
    "extraction_timestamp": "2025-06-07T18:20:09.808Z",
    "source_name": "google",
    "source_query": "Irrigation Equipment",
    "source_country": "RO",
    "country": "Romania",
    "state": "Brașov County",
    "city": "Codlea"
  },
  {
    "source_id": "ChIJrUQQMFZZs0AR6NzsnVyZJ80",
    "name": "Caldurica.ro",
    "category": "Caldurica.ro",
    "formatted_address": "5,0(77)",
    "phone_number": "+40762275709",
    "source_url": "https://www.google.com/maps/place/Caldurica.ro/data=!4m7!3m6!1s0x40b35956301044ad:0xcd27995c9decdce8!8m2!3d45.7037588!4d25.5550988!16s%2Fg%2F11j3rybftd!19sChIJrUQQMFZZs0AR6NzsnVyZJ80?authuser=0&hl=tr&rclk=1",
    "website_url": "",
    "rating_text": "5,0",
    "stars": null,
    "number_of_reviews": null,
    "price_level": "",
    "open_hours": "",
    "extraction_timestamp": "2025-06-07T18:20:09.809Z",
    "source_name": "google",
    "source_query": "Irrigation Equipment",
    "source_country": "RO",
    "country": "Romania",
    "state": "Brașov County",
    "city": "Codlea"
  },
  {
    "source_id": "ChIJ533c6G5ds0ARRQFuSRJfj0A",
    "name": "optim instal",
    "category": "optim instal",
    "formatted_address": "5,0(2)",
    "phone_number": "+40755189138",
    "source_url": "https://www.google.com/maps/place/optim+instal/data=!4m7!3m6!1s0x40b35d6ee8dc7de7:0x408f5f12496e0145!8m2!3d45.6574762!4d25.6195777!16s%2Fg%2F11hdvhkgsn!19sChIJ533c6G5ds0ARRQFuSRJfj0A?authuser=0&hl=tr&rclk=1",
    "website_url": "",
    "rating_text": "5,0",
    "stars": null,
    "number_of_reviews": null,
    "price_level": "",
    "open_hours": "",
    "extraction_timestamp": "2025-06-07T18:20:09.811Z",
    "source_name": "google",
    "source_query": "Irrigation Equipment",
    "source_country": "RO",
    "country": "Romania",
    "state": "Brașov County",
    "city": "Codlea"
  },
  {
    "source_id": "ChIJBWxRW4lcs0AR4johcYtY_Us",
    "name": "Hod-Chimex",
    "category": "Hod-Chimex",
    "formatted_address": "4,3(110)",
    "phone_number": "+40268320340",
    "source_url": "https://www.google.com/maps/place/Hod-Chimex/data=!4m7!3m6!1s0x40b35c895b516c05:0x4bfd588b71213ae2!8m2!3d45.6388375!4d25.6217574!16s%2Fg%2F1wrtbc6q!19sChIJBWxRW4lcs0AR4johcYtY_Us?authuser=0&hl=tr&rclk=1",
    "website_url": "",
    "rating_text": "4,3",
    "stars": null,
    "number_of_reviews": null,
    "price_level": "",
    "open_hours": "",
    "extraction_timestamp": "2025-06-07T18:20:09.812Z",
    "source_name": "google",
    "source_query": "Irrigation Equipment",
    "source_country": "RO",
    "country": "Romania",
    "state": "Brașov County",
    "city": "Codlea"
  },
  {
    "source_id": "ChIJWeFfS-lds0AR9yE35V1sBkU",
    "name": "Area 21 forest",
    "category": "Area 21 forest",
    "formatted_address": "Area 21 forest",
    "phone_number": "+40756621842",
    "source_url": "https://www.google.com/maps/place/Area+21+forest/data=!4m7!3m6!1s0x40b35de94b5fe159:0x45066c5de53721f7!8m2!3d45.6512788!4d25.6184938!16s%2Fg%2F11t3gz3yzc!19sChIJWeFfS-lds0AR9yE35V1sBkU?authuser=0&hl=tr&rclk=1",
    "website_url": "",
    "rating_text": "5,0",
    "stars": null,
    "number_of_reviews": null,
    "price_level": "",
    "open_hours": "",
    "extraction_timestamp": "2025-06-07T18:20:09.813Z",
    "source_name": "google",
    "source_query": "Irrigation Equipment",
    "source_country": "RO",
    "country": "Romania",
    "state": "Brașov County",
    "city": "Codlea"
  },
  {
    "source_id": "ChIJG2EV_f9bs0ARRhFy__gil54",
    "name": "SC Instalatii Trust SA",
    "category": "SC Instalatii Trust SA",
    "formatted_address": "5,0(7)",
    "phone_number": "+40744299176",
    "source_url": "https://www.google.com/maps/place/SC+Instalatii+Trust+SA/data=!4m7!3m6!1s0x40b35bfffd15611b:0x9e9722f8ff721146!8m2!3d45.6568366!4d25.5640092!16s%2Fg%2F11jnsmfjrq!19sChIJG2EV_f9bs0ARRhFy__gil54?authuser=0&hl=tr&rclk=1",
    "website_url": "",
    "rating_text": "5,0",
    "stars": null,
    "number_of_reviews": null,
    "price_level": "",
    "open_hours": "",
    "extraction_timestamp": "2025-06-07T18:20:09.814Z",
    "source_name": "google",
    "source_query": "Irrigation Equipment",
    "source_country": "RO",
    "country": "Romania",
    "state": "Brașov County",
    "city": "Codlea"
  }
]
