[
  {
    "source_id": "ChIJaQzqLmZcs0ARU6r3VaUK6iE",
    "name": "AKRO S.R.L.",
    "category": "AKRO S.R.L.",
    "formatted_address": "4,7(13)",
    "phone_number": "+40268413180",
    "source_url": "https://www.google.com/maps/place/AKRO+S.R.L./data=!4m7!3m6!1s0x40b35c662eea0c69:0x21ea0aa555f7aa53!8m2!3d45.6485042!4d25.6406578!16s%2Fg%2F1hc250gs3!19sChIJaQzqLmZcs0ARU6r3VaUK6iE?authuser=0&hl=tr&rclk=1",
    "website_url": "https://www.akro.ro/",
    "rating_text": "4,7",
    "stars": null,
    "number_of_reviews": null,
    "price_level": "",
    "open_hours": "",
    "extraction_timestamp": "2025-06-07T18:24:06.296Z",
    "source_name": "google",
    "source_query": "Irrigation Equipment",
    "source_country": "RO",
    "country": "Romania",
    "state": "Brașov County",
    "city": "Comana de Sus"
  },
  {
    "source_id": "ChIJSc52LPpds0ARRn6D2MxGEP4",
    "name": "Krongrass Equipment",
    "category": "Krongrass Equipment",
    "formatted_address": "5,0(2)",
    "phone_number": "+40744565495",
    "source_url": "https://www.google.com/maps/place/Krongrass+Equipment/data=!4m7!3m6!1s0x40b35dfa2c76ce49:0xfe1046ccd8837e46!8m2!3d45.6466883!4d25.6378089!16s%2Fg%2F11kj0x16vd!19sChIJSc52LPpds0ARRn6D2MxGEP4?authuser=0&hl=tr&rclk=1",
    "website_url": "http://www.spider-cositoare.com/",
    "rating_text": "5,0",
    "stars": null,
    "number_of_reviews": null,
    "price_level": "",
    "open_hours": "",
    "extraction_timestamp": "2025-06-07T18:24:06.298Z",
    "source_name": "google",
    "source_query": "Irrigation Equipment",
    "source_country": "RO",
    "country": "Romania",
    "state": "Brașov County",
    "city": "Comana de Sus"
  },
  {
    "source_id": "ChIJxTlzQ25cs0ARbRRg7VLrKPw",
    "name": "Instal generation",
    "category": "Instal generation",
    "formatted_address": "5,0(5)",
    "phone_number": "+40745189529",
    "source_url": "https://www.google.com/maps/place/Instal+generation/data=!4m7!3m6!1s0x40b35c6e437339c5:0xfc28eb52ed60146d!8m2!3d45.6541089!4d25.63197!16s%2Fg%2F11flzgjjqz!19sChIJxTlzQ25cs0ARbRRg7VLrKPw?authuser=0&hl=tr&rclk=1",
    "website_url": "http://www.instalgeneration.ro/",
    "rating_text": "5,0",
    "stars": null,
    "number_of_reviews": null,
    "price_level": "",
    "open_hours": "",
    "extraction_timestamp": "2025-06-07T18:24:06.299Z",
    "source_name": "google",
    "source_query": "Irrigation Equipment",
    "source_country": "RO",
    "country": "Romania",
    "state": "Brașov County",
    "city": "Comana de Sus"
  },
  {
    "source_id": "ChIJLb_Eartbs0ARsgyH2lUGGNM",
    "name": "Techno Pro",
    "category": "Techno Pro",
    "formatted_address": "4,3(493)",
    "phone_number": "+40752424242",
    "source_url": "https://www.google.com/maps/place/Techno+Pro/data=!4m7!3m6!1s0x40b35bbb6ac4bf2d:0xd3180655da870cb2!8m2!3d45.6640885!4d25.5813535!16s%2Fg%2F1jkz4jl5x!19sChIJLb_Eartbs0ARsgyH2lUGGNM?authuser=0&hl=tr&rclk=1",
    "website_url": "http://www.scule.ro/",
    "rating_text": "4,3",
    "stars": null,
    "number_of_reviews": null,
    "price_level": "",
    "open_hours": "",
    "extraction_timestamp": "2025-06-07T18:24:06.300Z",
    "source_name": "google",
    "source_query": "Irrigation Equipment",
    "source_country": "RO",
    "country": "Romania",
    "state": "Brașov County",
    "city": "Comana de Sus"
  },
  {
    "source_id": "ChIJi6FDEyyhtEARXjG1waHLjVo",
    "name": "Utilajeagri.ro",
    "category": "Utilajeagri.ro",
    "formatted_address": "4,6(22)",
    "phone_number": "+40740317928",
    "source_url": "https://www.google.com/maps/place/Utilajeagri.ro/data=!4m7!3m6!1s0x40b4a12c1343a18b:0x5a8dcba1c1b5315e!8m2!3d45.7495733!4d25.767982!16s%2Fg%2F11flrmwwns!19sChIJi6FDEyyhtEARXjG1waHLjVo?authuser=0&hl=tr&rclk=1",
    "website_url": "http://www.utilajeagri.ro/",
    "rating_text": "4,6",
    "stars": null,
    "number_of_reviews": null,
    "price_level": "",
    "open_hours": "",
    "extraction_timestamp": "2025-06-07T18:24:06.301Z",
    "source_name": "google",
    "source_query": "Irrigation Equipment",
    "source_country": "RO",
    "country": "Romania",
    "state": "Brașov County",
    "city": "Comana de Sus"
  },
  {
    "source_id": "ChIJiYrW93hcs0ARpKmOIL1sTuI",
    "name": "Valinst Agriculture",
    "category": "Valinst Agriculture",
    "formatted_address": "5,0(1)",
    "phone_number": "+40730330543",
    "source_url": "https://www.google.com/maps/place/Valinst+Agriculture/data=!4m7!3m6!1s0x40b35c78f7d68a89:0xe24e6cbd208ea9a4!8m2!3d45.6527567!4d25.6143965!16s%2Fg%2F11hf04lgwp!19sChIJiYrW93hcs0ARpKmOIL1sTuI?authuser=0&hl=tr&rclk=1",
    "website_url": "http://www.valinst.ro/en/contact",
    "rating_text": "5,0",
    "stars": null,
    "number_of_reviews": null,
    "price_level": "",
    "open_hours": "",
    "extraction_timestamp": "2025-06-07T18:24:06.302Z",
    "source_name": "google",
    "source_query": "Irrigation Equipment",
    "source_country": "RO",
    "country": "Romania",
    "state": "Brașov County",
    "city": "Comana de Sus"
  },
  {
    "source_id": "ChIJ_Xqprh_btkARTm7Zzh2rMO4",
    "name": "Roagro - Tehnologii agricole",
    "category": "Roagro - Tehnologii agricole",
    "formatted_address": "5,0(1)",
    "phone_number": "+40790999988",
    "source_url": "https://www.google.com/maps/place/Roagro+-+Tehnologii+agricole/data=!4m7!3m6!1s0x40b6db1faea97afd:0xee30ab1dced96e4e!8m2!3d45.4086378!4d27.9410625!16s%2Fg%2F11wwgjgpzr!19sChIJ_Xqprh_btkARTm7Zzh2rMO4?authuser=0&hl=tr&rclk=1",
    "website_url": "https://roagro.ro/ro/",
    "rating_text": "5,0",
    "stars": null,
    "number_of_reviews": null,
    "price_level": "",
    "open_hours": "",
    "extraction_timestamp": "2025-06-07T18:24:06.304Z",
    "source_name": "google",
    "source_query": "Irrigation Equipment",
    "source_country": "RO",
    "country": "Romania",
    "state": "Brașov County",
    "city": "Comana de Sus"
  },
  {
    "source_id": "ChIJ75U28UJcs0ARn5rOXEMHehs",
    "name": "Romradiatoare",
    "category": "Romradiatoare",
    "formatted_address": "4,6(17)",
    "phone_number": "+40268317550",
    "source_url": "https://www.google.com/maps/place/Romradiatoare/data=!4m7!3m6!1s0x40b35c42f13695ef:0x1b7a07435cce9a9f!8m2!3d45.6505059!4d25.6439921!16s%2Fg%2F1tfz_l60!19sChIJ75U28UJcs0ARn5rOXEMHehs?authuser=0&hl=tr&rclk=1",
    "website_url": "http://www.romradiatoare.com/",
    "rating_text": "4,6",
    "stars": null,
    "number_of_reviews": null,
    "price_level": "",
    "open_hours": "",
    "extraction_timestamp": "2025-06-07T18:24:06.305Z",
    "source_name": "google",
    "source_query": "Irrigation Equipment",
    "source_country": "RO",
    "country": "Romania",
    "state": "Brașov County",
    "city": "Comana de Sus"
  },
  {
    "source_id": "ChIJMev0eOdZs0ARMeiqaeoGQjs",
    "name": "Verificare Sistem de Avertizare la Incendiu",
    "category": "Verificare Sistem de Avertizare la Incendiu",
    "formatted_address": "5,0(1)",
    "phone_number": "+40757371244",
    "source_url": "https://www.google.com/maps/place/Verificare+Sistem+de+Avertizare+la+Incendiu/data=!4m7!3m6!1s0x40b359e778f4eb31:0x3b4206ea69aae831!8m2!3d45.7158082!4d25.5883415!16s%2Fg%2F11n82qz9h8!19sChIJMev0eOdZs0ARMeiqaeoGQjs?authuser=0&hl=tr&rclk=1",
    "website_url": "https://sistemavertizareincendiu.ro/",
    "rating_text": "5,0",
    "stars": null,
    "number_of_reviews": null,
    "price_level": "",
    "open_hours": "",
    "extraction_timestamp": "2025-06-07T18:24:06.306Z",
    "source_name": "google",
    "source_query": "Irrigation Equipment",
    "source_country": "RO",
    "country": "Romania",
    "state": "Brașov County",
    "city": "Comana de Sus"
  },
  {
    "source_id": "ChIJS5CbjPq3S0cR-NYNKcqiv64",
    "name": "Leco",
    "category": "Leco",
    "formatted_address": "4,8(33)",
    "phone_number": "+40365401171",
    "source_url": "https://www.google.com/maps/place/Leco/data=!4m7!3m6!1s0x474bb7fa8c9b904b:0xaebfa2ca290dd6f8!8m2!3d46.5173368!4d24.5218737!16s%2Fg%2F1hc47jvqc!19sChIJS5CbjPq3S0cR-NYNKcqiv64?authuser=0&hl=tr&rclk=1",
    "website_url": "https://www.leco.ro/?utm_source=google&utm_medium=organic&utm_campaign=gmb",
    "rating_text": "4,8",
    "stars": null,
    "number_of_reviews": null,
    "price_level": "",
    "open_hours": "",
    "extraction_timestamp": "2025-06-07T18:24:06.307Z",
    "source_name": "google",
    "source_query": "Irrigation Equipment",
    "source_country": "RO",
    "country": "Romania",
    "state": "Brașov County",
    "city": "Comana de Sus"
  },
  {
    "source_id": "ChIJc6J1pigHskARoVtevI4ZsJY",
    "name": "Titan Machinery Romania SRL",
    "category": "Titan Machinery Romania SRL",
    "formatted_address": "4,4(117)",
    "phone_number": "+40213504935",
    "source_url": "https://www.google.com/maps/place/Titan+Machinery+Romania+SRL/data=!4m7!3m6!1s0x40b20728a675a273:0x96b0198ebc5e5ba1!8m2!3d44.4446091!4d25.9411997!16s%2Fg%2F1hdz1snzb!19sChIJc6J1pigHskARoVtevI4ZsJY?authuser=0&hl=tr&rclk=1",
    "website_url": "http://www.titanmachinery.ro/",
    "rating_text": "4,4",
    "stars": null,
    "number_of_reviews": null,
    "price_level": "",
    "open_hours": "",
    "extraction_timestamp": "2025-06-07T18:24:06.308Z",
    "source_name": "google",
    "source_query": "Irrigation Equipment",
    "source_country": "RO",
    "country": "Romania",
    "state": "Brașov County",
    "city": "Comana de Sus"
  },
  {
    "source_id": "ChIJIRizmb6ltEARI_X5LQ-bvdY",
    "name": "Na.. SRL",
    "category": "Na.. SRL",
    "formatted_address": "",
    "phone_number": "+40730691620",
    "source_url": "https://www.google.com/maps/place/Na..+SRL/data=!4m7!3m6!1s0x40b4a5be99b31821:0xd6bd9b0f2df9f523!8m2!3d45.8665611!4d25.7716641!16s%2Fg%2F11j33l041b!19sChIJIRizmb6ltEARI_X5LQ-bvdY?authuser=0&hl=tr&rclk=1",
    "website_url": "",
    "rating_text": "",
    "stars": null,
    "number_of_reviews": null,
    "price_level": "",
    "open_hours": "",
    "extraction_timestamp": "2025-06-07T18:24:06.309Z",
    "source_name": "google",
    "source_query": "Irrigation Equipment",
    "source_country": "RO",
    "country": "Romania",
    "state": "Brașov County",
    "city": "Comana de Sus"
  }
]
