[
  {
    "source_id": "ChIJiYrW93hcs0ARpKmOIL1sTuI",
    "name": "Valinst Agriculture",
    "category": "Valinst Agriculture",
    "formatted_address": "5,0(1)",
    "phone_number": "+40730330543",
    "source_url": "https://www.google.com/maps/place/Valinst+Agriculture/data=!4m7!3m6!1s0x40b35c78f7d68a89:0xe24e6cbd208ea9a4!8m2!3d45.6527567!4d25.6143965!16s%2Fg%2F11hf04lgwp!19sChIJiYrW93hcs0ARpKmOIL1sTuI?authuser=0&hl=tr&rclk=1",
    "website_url": "http://www.valinst.ro/en/contact",
    "rating_text": "5,0",
    "stars": null,
    "number_of_reviews": null,
    "price_level": "",
    "open_hours": "",
    "extraction_timestamp": "2025-06-08T02:42:53.550Z",
    "source_name": "google",
    "source_query": "Irrigation Equipment",
    "source_country": "RO",
    "country": "Romania",
    "state": "Brașov County",
    "city": "Comuna Teliu"
  },
  {
    "source_id": "ChIJxTlzQ25cs0ARbRRg7VLrKPw",
    "name": "Instal generation",
    "category": "Instal generation",
    "formatted_address": "5,0(5)",
    "phone_number": "+40745189529",
    "source_url": "https://www.google.com/maps/place/Instal+generation/data=!4m7!3m6!1s0x40b35c6e437339c5:0xfc28eb52ed60146d!8m2!3d45.6541089!4d25.63197!16s%2Fg%2F11flzgjjqz!19sChIJxTlzQ25cs0ARbRRg7VLrKPw?authuser=0&hl=tr&rclk=1",
    "website_url": "http://www.instalgeneration.ro/",
    "rating_text": "5,0",
    "stars": null,
    "number_of_reviews": null,
    "price_level": "",
    "open_hours": "",
    "extraction_timestamp": "2025-06-08T02:42:53.550Z",
    "source_name": "google",
    "source_query": "Irrigation Equipment",
    "source_country": "RO",
    "country": "Romania",
    "state": "Brașov County",
    "city": "Comuna Teliu"
  },
  {
    "source_id": "ChIJ-SqNB6hes0ARCe_w83Md66I",
    "name": "LYRA- decorative plaster",
    "category": "LYRA- decorative plaster",
    "formatted_address": "4,6(45)",
    "phone_number": "+40770517455",
    "source_url": "https://www.google.com/maps/place/LYRA-+decorative+plaster/data=!4m7!3m6!1s0x40b35ea8078d2af9:0xa2eb1d73f3f0ef09!8m2!3d45.67667!4d25.6511249!16s%2Fg%2F11g9mvx8tp!19sChIJ-SqNB6hes0ARCe_w83Md66I?authuser=0&hl=tr&rclk=1",
    "website_url": "",
    "rating_text": "4,6",
    "stars": null,
    "number_of_reviews": null,
    "price_level": "",
    "open_hours": "",
    "extraction_timestamp": "2025-06-08T02:42:53.550Z",
    "source_name": "google",
    "source_query": "Irrigation Equipment",
    "source_country": "RO",
    "country": "Romania",
    "state": "Brașov County",
    "city": "Comuna Teliu"
  },
  {
    "source_id": "ChIJeSKlCSFhs0ARWrn7QF_7Ai4",
    "name": "La doi paşi",
    "category": "La doi paşi",
    "formatted_address": "5,0(2)",
    "phone_number": "+40374072072",
    "source_url": "https://www.google.com/maps/place/La+doi+pa%C5%9Fi/data=!4m7!3m6!1s0x40b3612109a52279:0x2e02fb5f40fbb95a!8m2!3d45.6945098!4d25.8476415!16s%2Fg%2F11h8j6nc07!19sChIJeSKlCSFhs0ARWrn7QF_7Ai4?authuser=0&hl=tr&rclk=1",
    "website_url": "http://www.la-doi-pasi.ro/",
    "rating_text": "5,0",
    "stars": null,
    "number_of_reviews": null,
    "price_level": "",
    "open_hours": "",
    "extraction_timestamp": "2025-06-08T02:42:53.551Z",
    "source_name": "google",
    "source_query": "Irrigation Equipment",
    "source_country": "RO",
    "country": "Romania",
    "state": "Brașov County",
    "city": "Comuna Teliu"
  },
  {
    "source_id": "ChIJTWZpDqFhs0ARGF64C7QLLds",
    "name": "Deli Depo Engros",
    "category": "Deli Depo Engros",
    "formatted_address": "4,8(14)",
    "phone_number": "",
    "source_url": "https://www.google.com/maps/place/Deli+Depo+Engros/data=!4m7!3m6!1s0x40b361a10e69664d:0xdb2d0bb40bb85e18!8m2!3d45.7008628!4d25.8458494!16s%2Fg%2F11jn50jsk9!19sChIJTWZpDqFhs0ARGF64C7QLLds?authuser=0&hl=tr&rclk=1",
    "website_url": "",
    "rating_text": "4,8",
    "stars": null,
    "number_of_reviews": null,
    "price_level": "",
    "open_hours": "",
    "extraction_timestamp": "2025-06-08T02:42:53.551Z",
    "source_name": "google",
    "source_query": "Irrigation Equipment",
    "source_country": "RO",
    "country": "Romania",
    "state": "Brașov County",
    "city": "Comuna Teliu"
  },
  {
    "source_id": "ChIJe_tU3Bhbs0ARYNkGVHO5YKE",
    "name": "HIDROstore Brașov",
    "category": "HIDROstore Brașov",
    "formatted_address": "5,0(13)",
    "phone_number": "+40771576228",
    "source_url": "https://www.google.com/maps/place/HIDROstore+Bra%C8%99ov/data=!4m7!3m6!1s0x40b35b18dc54fb7b:0xa160b9735406d960!8m2!3d45.6734944!4d25.5800351!16s%2Fg%2F11w8pn_mjw!19sChIJe_tU3Bhbs0ARYNkGVHO5YKE?authuser=0&hl=tr&rclk=1",
    "website_url": "https://hidrostore.ro/brasov",
    "rating_text": "5,0",
    "stars": null,
    "number_of_reviews": null,
    "price_level": "",
    "open_hours": "",
    "extraction_timestamp": "2025-06-08T02:42:53.551Z",
    "source_name": "google",
    "source_query": "Irrigation Equipment",
    "source_country": "RO",
    "country": "Romania",
    "state": "Brașov County",
    "city": "Comuna Teliu"
  },
  {
    "source_id": "ChIJXVuLrk5as0ARlIUOPYGQVvg",
    "name": "Euro Atasamente SRL",
    "category": "Euro Atasamente SRL",
    "formatted_address": "4,8(20)",
    "phone_number": "+40736220011",
    "source_url": "https://www.google.com/maps/place/Euro+Atasamente+SRL/data=!4m7!3m6!1s0x40b35a4eae8b5b5d:0xf85690813d0e8594!8m2!3d45.6730942!4d25.5593125!16s%2Fg%2F1hf30nlcy!19sChIJXVuLrk5as0ARlIUOPYGQVvg?authuser=0&hl=tr&rclk=1",
    "website_url": "http://www.euroatasamente.ro/",
    "rating_text": "4,8",
    "stars": null,
    "number_of_reviews": null,
    "price_level": "",
    "open_hours": "",
    "extraction_timestamp": "2025-06-08T02:42:53.552Z",
    "source_name": "google",
    "source_query": "Irrigation Equipment",
    "source_country": "RO",
    "country": "Romania",
    "state": "Brașov County",
    "city": "Comuna Teliu"
  },
  {
    "source_id": "ChIJ4ZZDEYhcs0ARo-l6WqHusqo",
    "name": "Dumian S.R.L.",
    "category": "Dumian S.R.L.",
    "formatted_address": "2,7(3)",
    "phone_number": "+40268318688",
    "source_url": "https://www.google.com/maps/place/Dumian+S.R.L./data=!4m7!3m6!1s0x40b35c88114396e1:0xaab2eea15a7ae9a3!8m2!3d45.6426687!4d25.6194748!16s%2Fg%2F1hc4h4xr9!19sChIJ4ZZDEYhcs0ARo-l6WqHusqo?authuser=0&hl=tr&rclk=1",
    "website_url": "https://www.listafirme.ro/dumian-srl-1095718/",
    "rating_text": "2,7",
    "stars": null,
    "number_of_reviews": null,
    "price_level": "",
    "open_hours": "",
    "extraction_timestamp": "2025-06-08T02:42:53.552Z",
    "source_name": "google",
    "source_query": "Irrigation Equipment",
    "source_country": "RO",
    "country": "Romania",
    "state": "Brașov County",
    "city": "Comuna Teliu"
  }
]
