[
  {
    "source_id": "ChIJxTlzQ25cs0ARbRRg7VLrKPw",
    "name": "Instal generation",
    "category": "Instal generation",
    "formatted_address": "5,0(5)",
    "phone_number": "+40745189529",
    "source_url": "https://www.google.com/maps/place/Instal+generation/data=!4m7!3m6!1s0x40b35c6e437339c5:0xfc28eb52ed60146d!8m2!3d45.6541089!4d25.63197!16s%2Fg%2F11flzgjjqz!19sChIJxTlzQ25cs0ARbRRg7VLrKPw?authuser=0&hl=tr&rclk=1",
    "website_url": "http://www.instalgeneration.ro/",
    "rating_text": "5,0",
    "stars": null,
    "number_of_reviews": null,
    "price_level": "",
    "open_hours": "",
    "extraction_timestamp": "2025-06-08T02:45:11.105Z",
    "source_name": "google",
    "source_query": "Irrigation Equipment",
    "source_country": "RO",
    "country": "Romania",
    "state": "Brașov County",
    "city": "Comuna Şinca Veche"
  },
  {
    "source_id": "ChIJ0WgHCoVZs0ARj1aHxZPRyk4",
    "name": "Agroservice Brasov",
    "category": "Agroservice Brasov",
    "formatted_address": "5,0(4)",
    "phone_number": "+40268440895",
    "source_url": "https://www.google.com/maps/place/Agroservice+Brasov/data=!4m7!3m6!1s0x40b359850a0768d1:0x4ecad193c587568f!8m2!3d45.6730469!4d25.5804142!16s%2Fg%2F11fn6tbwqm!19sChIJ0WgHCoVZs0ARj1aHxZPRyk4?authuser=0&hl=tr&rclk=1",
    "website_url": "http://www.agroservicebv.ro/contact/",
    "rating_text": "5,0",
    "stars": null,
    "number_of_reviews": null,
    "price_level": "",
    "open_hours": "",
    "extraction_timestamp": "2025-06-08T02:45:11.108Z",
    "source_name": "google",
    "source_query": "Irrigation Equipment",
    "source_country": "RO",
    "country": "Romania",
    "state": "Brașov County",
    "city": "Comuna Şinca Veche"
  },
  {
    "source_id": "ChIJ777zWbgFskARJSAf2MtZXR4",
    "name": "Metzer Romania (Metzerplas EU)",
    "category": "Metzer Romania (Metzerplas EU)",
    "formatted_address": "4,7(7)",
    "phone_number": "+40749718718",
    "source_url": "https://www.google.com/maps/place/Metzer+Romania+%28Metzerplas+EU%29/data=!4m7!3m6!1s0x40b205b859f3beef:0x1e5d59cbd81f2025!8m2!3d44.4987175!4d25.9605586!16s%2Fg%2F11sbhk_s6m!19sChIJ777zWbgFskARJSAf2MtZXR4?authuser=0&hl=tr&rclk=1",
    "website_url": "http://www.metzer-group.com/ro",
    "rating_text": "4,7",
    "stars": null,
    "number_of_reviews": null,
    "price_level": "",
    "open_hours": "",
    "extraction_timestamp": "2025-06-08T02:45:11.109Z",
    "source_name": "google",
    "source_query": "Irrigation Equipment",
    "source_country": "RO",
    "country": "Romania",
    "state": "Brașov County",
    "city": "Comuna Şinca Veche"
  },
  {
    "source_id": "ChIJtSXMroZZs0AR9WgeFzBMWhY",
    "name": "Munax Brasov",
    "category": "Munax Brasov",
    "formatted_address": "3,7(3)",
    "phone_number": "+40732970211",
    "source_url": "https://www.google.com/maps/place/Munax+Brasov/data=!4m7!3m6!1s0x40b35986aecc25b5:0x165a4c30171e68f5!8m2!3d45.7057548!4d25.5808906!16s%2Fg%2F11gd1whssx!19sChIJtSXMroZZs0AR9WgeFzBMWhY?authuser=0&hl=tr&rclk=1",
    "website_url": "https://www.munax.ro/",
    "rating_text": "3,7",
    "stars": null,
    "number_of_reviews": null,
    "price_level": "",
    "open_hours": "",
    "extraction_timestamp": "2025-06-08T02:45:11.111Z",
    "source_name": "google",
    "source_query": "Irrigation Equipment",
    "source_country": "RO",
    "country": "Romania",
    "state": "Brașov County",
    "city": "Comuna Şinca Veche"
  },
  {
    "source_id": "ChIJMev0eOdZs0ARMeiqaeoGQjs",
    "name": "Verificare Sistem de Avertizare la Incendiu",
    "category": "Verificare Sistem de Avertizare la Incendiu",
    "formatted_address": "5,0(1)",
    "phone_number": "+40757371244",
    "source_url": "https://www.google.com/maps/place/Verificare+Sistem+de+Avertizare+la+Incendiu/data=!4m7!3m6!1s0x40b359e778f4eb31:0x3b4206ea69aae831!8m2!3d45.7158082!4d25.5883415!16s%2Fg%2F11n82qz9h8!19sChIJMev0eOdZs0ARMeiqaeoGQjs?authuser=0&hl=tr&rclk=1",
    "website_url": "https://sistemavertizareincendiu.ro/",
    "rating_text": "5,0",
    "stars": null,
    "number_of_reviews": null,
    "price_level": "",
    "open_hours": "",
    "extraction_timestamp": "2025-06-08T02:45:11.113Z",
    "source_name": "google",
    "source_query": "Irrigation Equipment",
    "source_country": "RO",
    "country": "Romania",
    "state": "Brașov County",
    "city": "Comuna Şinca Veche"
  },
  {
    "source_id": "ChIJq1hNMYuuTEcR-EGamGC-e_A",
    "name": "Mănăstirea Rupestră Șinca Veche",
    "category": "Mănăstirea Rupestră Șinca Veche",
    "formatted_address": "4,8(5.470)",
    "phone_number": "+40758067909",
    "source_url": "https://www.google.com/maps/place/M%C4%83n%C4%83stirea+Rupestr%C4%83+%C8%98inca+Veche/data=!4m7!3m6!1s0x474cae8b314d58ab:0xf07bbe60989a41f8!8m2!3d45.7560622!4d25.1665686!16s%2Fg%2F11bwcn61kg!19sChIJq1hNMYuuTEcR-EGamGC-e_A?authuser=0&hl=tr&rclk=1",
    "website_url": "https://www.manastirea-sincaveche.ro/",
    "rating_text": "4,8",
    "stars": null,
    "number_of_reviews": null,
    "price_level": "",
    "open_hours": "",
    "extraction_timestamp": "2025-06-08T02:45:11.116Z",
    "source_name": "google",
    "source_query": "Irrigation Equipment",
    "source_country": "RO",
    "country": "Romania",
    "state": "Brașov County",
    "city": "Comuna Şinca Veche"
  },
  {
    "source_id": "ChIJCQayaPpbs0ARhf_zEF9vwQg",
    "name": "SC Agri Sigeva SRL",
    "category": "SC Agri Sigeva SRL",
    "formatted_address": "5,0(2)",
    "phone_number": "+40722529586",
    "source_url": "https://www.google.com/maps/place/SC+Agri+Sigeva+SRL/data=!4m7!3m6!1s0x40b35bfa68b20609:0x8c16f5f10f3ff85!8m2!3d45.6744327!4d25.621811!16s%2Fg%2F1pztj9780!19sChIJCQayaPpbs0ARhf_zEF9vwQg?authuser=0&hl=tr&rclk=1",
    "website_url": "",
    "rating_text": "5,0",
    "stars": null,
    "number_of_reviews": null,
    "price_level": "",
    "open_hours": "",
    "extraction_timestamp": "2025-06-08T02:45:11.117Z",
    "source_name": "google",
    "source_query": "Irrigation Equipment",
    "source_country": "RO",
    "country": "Romania",
    "state": "Brașov County",
    "city": "Comuna Şinca Veche"
  },
  {
    "source_id": "ChIJLbUqw5NZs0ARthH59UvL53Q",
    "name": "ARC Brașov",
    "category": "ARC Brașov",
    "formatted_address": "4,6(107)",
    "phone_number": "+40268472577",
    "source_url": "https://www.google.com/maps/place/ARC+Bra%C8%99ov/data=!4m7!3m6!1s0x40b35993c32ab52d:0x74e7cb4bf5f911b6!8m2!3d45.7079894!4d25.5763597!16s%2Fg%2F1tqcjqgj!19sChIJLbUqw5NZs0ARthH59UvL53Q?authuser=0&hl=tr&rclk=1",
    "website_url": "http://www.arc.ro/",
    "rating_text": "4,6",
    "stars": null,
    "number_of_reviews": null,
    "price_level": "",
    "open_hours": "",
    "extraction_timestamp": "2025-06-08T02:45:11.119Z",
    "source_name": "google",
    "source_query": "Irrigation Equipment",
    "source_country": "RO",
    "country": "Romania",
    "state": "Brașov County",
    "city": "Comuna Şinca Veche"
  },
  {
    "source_id": "ChIJ_XZ8Tp1bs0ARaWS3dAp1zcs",
    "name": "Water Management System Brasov",
    "category": "Water Management System Brasov",
    "formatted_address": "4,2(5)",
    "phone_number": "+40268412277",
    "source_url": "https://www.google.com/maps/place/Water+Management+System+Brasov/data=!4m7!3m6!1s0x40b35b9d4e7c76fd:0xcbcd750a74b76469!8m2!3d45.6504956!4d25.5934896!16s%2Fg%2F1pp2tzrcr!19sChIJ_XZ8Tp1bs0ARaWS3dAp1zcs?authuser=0&hl=tr&rclk=1",
    "website_url": "",
    "rating_text": "4,2",
    "stars": null,
    "number_of_reviews": null,
    "price_level": "",
    "open_hours": "",
    "extraction_timestamp": "2025-06-08T02:45:11.121Z",
    "source_name": "google",
    "source_query": "Irrigation Equipment",
    "source_country": "RO",
    "country": "Romania",
    "state": "Brașov County",
    "city": "Comuna Şinca Veche"
  },
  {
    "source_id": "ChIJC1YfvQRMs0AR2bVtD5wam9Y",
    "name": "Prăvălie Sergiana",
    "category": "Prăvălie Sergiana",
    "formatted_address": "4,3(482)",
    "phone_number": "+40368001176",
    "source_url": "https://www.google.com/maps/place/Pr%C4%83v%C4%83lie+Sergiana/data=!4m7!3m6!1s0x40b34c04bd1f560b:0xd69b1a9c0f6db5d9!8m2!3d45.6063418!4d25.3049457!16s%2Fg%2F1hm2y_wpr!19sChIJC1YfvQRMs0AR2bVtD5wam9Y?authuser=0&hl=tr&rclk=1",
    "website_url": "http://www.sergianagrup.ro/",
    "rating_text": "4,3",
    "stars": null,
    "number_of_reviews": null,
    "price_level": "",
    "open_hours": "",
    "extraction_timestamp": "2025-06-08T02:45:11.141Z",
    "source_name": "google",
    "source_query": "Irrigation Equipment",
    "source_country": "RO",
    "country": "Romania",
    "state": "Brașov County",
    "city": "Comuna Şinca Veche"
  },
  {
    "source_id": "ChIJi6FDEyyhtEARXjG1waHLjVo",
    "name": "Utilajeagri.ro",
    "category": "Utilajeagri.ro",
    "formatted_address": "4,6(22)",
    "phone_number": "+40740317928",
    "source_url": "https://www.google.com/maps/place/Utilajeagri.ro/data=!4m7!3m6!1s0x40b4a12c1343a18b:0x5a8dcba1c1b5315e!8m2!3d45.7495733!4d25.767982!16s%2Fg%2F11flrmwwns!19sChIJi6FDEyyhtEARXjG1waHLjVo?authuser=0&hl=tr&rclk=1",
    "website_url": "http://www.utilajeagri.ro/",
    "rating_text": "4,6",
    "stars": null,
    "number_of_reviews": null,
    "price_level": "",
    "open_hours": "",
    "extraction_timestamp": "2025-06-08T02:45:11.143Z",
    "source_name": "google",
    "source_query": "Irrigation Equipment",
    "source_country": "RO",
    "country": "Romania",
    "state": "Brașov County",
    "city": "Comuna Şinca Veche"
  },
  {
    "source_id": "ChIJv_4-03OvTEcRhvlaWbcmrbk",
    "name": "SC KARISMA MARKET SRL",
    "category": "SC KARISMA MARKET SRL",
    "formatted_address": "5,0(6)",
    "phone_number": "+40751398597",
    "source_url": "https://www.google.com/maps/place/SC+KARISMA+MARKET+SRL/data=!4m7!3m6!1s0x474caf73d33efebf:0xb9ad26b7595af986!8m2!3d45.7815668!4d25.2108921!16s%2Fg%2F11fl1d9jft!19sChIJv_4-03OvTEcRhvlaWbcmrbk?authuser=0&hl=tr&rclk=1",
    "website_url": "https://www.paginiaurii.ro/companii/COM.+%C5%9EINCA,+SAT+PER%C5%9EANI/L5727665/KARISMA+MARKET+S.R.L./",
    "rating_text": "5,0",
    "stars": null,
    "number_of_reviews": null,
    "price_level": "",
    "open_hours": "",
    "extraction_timestamp": "2025-06-08T02:45:11.145Z",
    "source_name": "google",
    "source_query": "Irrigation Equipment",
    "source_country": "RO",
    "country": "Romania",
    "state": "Brașov County",
    "city": "Comuna Şinca Veche"
  },
  {
    "source_id": "ChIJc6J1pigHskARoVtevI4ZsJY",
    "name": "Titan Machinery Romania SRL",
    "category": "Titan Machinery Romania SRL",
    "formatted_address": "4,4(117)",
    "phone_number": "+40213504935",
    "source_url": "https://www.google.com/maps/place/Titan+Machinery+Romania+SRL/data=!4m7!3m6!1s0x40b20728a675a273:0x96b0198ebc5e5ba1!8m2!3d44.4446091!4d25.9411997!16s%2Fg%2F1hdz1snzb!19sChIJc6J1pigHskARoVtevI4ZsJY?authuser=0&hl=tr&rclk=1",
    "website_url": "http://www.titanmachinery.ro/",
    "rating_text": "4,4",
    "stars": null,
    "number_of_reviews": null,
    "price_level": "",
    "open_hours": "",
    "extraction_timestamp": "2025-06-08T02:45:11.146Z",
    "source_name": "google",
    "source_query": "Irrigation Equipment",
    "source_country": "RO",
    "country": "Romania",
    "state": "Brașov County",
    "city": "Comuna Şinca Veche"
  },
  {
    "source_id": "ChIJIRizmb6ltEARI_X5LQ-bvdY",
    "name": "Na.. SRL",
    "category": "Na.. SRL",
    "formatted_address": "",
    "phone_number": "+40730691620",
    "source_url": "https://www.google.com/maps/place/Na..+SRL/data=!4m7!3m6!1s0x40b4a5be99b31821:0xd6bd9b0f2df9f523!8m2!3d45.8665611!4d25.7716641!16s%2Fg%2F11j33l041b!19sChIJIRizmb6ltEARI_X5LQ-bvdY?authuser=0&hl=tr&rclk=1",
    "website_url": "",
    "rating_text": "",
    "stars": null,
    "number_of_reviews": null,
    "price_level": "",
    "open_hours": "",
    "extraction_timestamp": "2025-06-08T02:45:11.147Z",
    "source_name": "google",
    "source_query": "Irrigation Equipment",
    "source_country": "RO",
    "country": "Romania",
    "state": "Brașov County",
    "city": "Comuna Şinca Veche"
  }
]
