[
  {
    "source_id": "ChIJTcd8QLpes0ARlr-JgnvGBbA",
    "name": "Stabilus STRO-GS (ICCO)",
    "category": "Stabilus STRO-GS (ICCO)",
    "formatted_address": "4,2(86)",
    "phone_number": "+40372384100",
    "source_url": "https://www.google.com/maps/place/Stabilus+STRO-GS+%28ICCO%29/data=!4m7!3m6!1s0x40b35eba407cc74d:0xb005c67b8289bf96!8m2!3d45.6871157!4d25.6633032!16s%2Fg%2F1tl7m6kr!19sChIJTcd8QLpes0ARlr-JgnvGBbA?authuser=0&hl=tr&rclk=1",
    "website_url": "",
    "rating_text": "4,2",
    "stars": null,
    "number_of_reviews": null,
    "price_level": "",
    "open_hours": "",
    "extraction_timestamp": "2025-06-07T18:22:39.023Z",
    "source_name": "google",
    "source_query": "Irrigation Equipment",
    "source_country": "RO",
    "country": "Romania",
    "state": "Brașov County",
    "city": "Comuna Sânpetru"
  },
  {
    "source_id": "ChIJlzC5ZptZs0AR-E0gh9kCJfQ",
    "name": "Meseriaș Instalator Brașov - KIRILA LUCIPA SRL",
    "category": "Meseriaș Instalator Brașov - KIRILA LUCIPA SRL",
    "formatted_address": "4,9(31)",
    "phone_number": "+40730354076",
    "source_url": "https://www.google.com/maps/place/Meseria%C8%99+Instalator+Bra%C8%99ov+-+KIRILA+LUCIPA+SRL/data=!4m7!3m6!1s0x40b3599b66b93097:0xf42502d987204df8!8m2!3d45.691429!4d25.6294113!16s%2Fg%2F11t5b1c2ry!19sChIJlzC5ZptZs0AR-E0gh9kCJfQ?authuser=0&hl=tr&rclk=1",
    "website_url": "",
    "rating_text": "4,9",
    "stars": null,
    "number_of_reviews": null,
    "price_level": "",
    "open_hours": "",
    "extraction_timestamp": "2025-06-07T18:22:39.024Z",
    "source_name": "google",
    "source_query": "Irrigation Equipment",
    "source_country": "RO",
    "country": "Romania",
    "state": "Brașov County",
    "city": "Comuna Sânpetru"
  },
  {
    "source_id": "ChIJIVHxGBRZs0ARnPt5XGXFVmw",
    "name": "S.C. Concept Fire Sistem S.R.L.",
    "category": "S.C. Concept Fire Sistem S.R.L.",
    "formatted_address": "5,0(3)",
    "phone_number": "+40762364653",
    "source_url": "https://www.google.com/maps/place/S.C.+Concept+Fire+Sistem+S.R.L./data=!4m7!3m6!1s0x40b3591418f15121:0x6c56c5655c79fb9c!8m2!3d45.7071134!4d25.6250462!16s%2Fg%2F11hcjz5tys!19sChIJIVHxGBRZs0ARnPt5XGXFVmw?authuser=0&hl=tr&rclk=1",
    "website_url": "https://magazinstingatoare.ro/",
    "rating_text": "5,0",
    "stars": null,
    "number_of_reviews": null,
    "price_level": "",
    "open_hours": "",
    "extraction_timestamp": "2025-06-07T18:22:39.025Z",
    "source_name": "google",
    "source_query": "Irrigation Equipment",
    "source_country": "RO",
    "country": "Romania",
    "state": "Brașov County",
    "city": "Comuna Sânpetru"
  },
  {
    "source_id": "ChIJJ_NoUapZs0AR3XIwFiE4EhI",
    "name": "APA KANGEN OFFICIAL",
    "category": "APA KANGEN OFFICIAL",
    "formatted_address": "5,0(1)",
    "phone_number": "+40763998989",
    "source_url": "https://www.google.com/maps/place/APA+KANGEN+OFFICIAL/data=!4m7!3m6!1s0x40b359aa5168f327:0x12123821163072dd!8m2!3d45.6977397!4d25.6382847!16s%2Fg%2F11h6l5986t!19sChIJJ_NoUapZs0AR3XIwFiE4EhI?authuser=0&hl=tr&rclk=1",
    "website_url": "",
    "rating_text": "5,0",
    "stars": null,
    "number_of_reviews": null,
    "price_level": "",
    "open_hours": "",
    "extraction_timestamp": "2025-06-07T18:22:39.027Z",
    "source_name": "google",
    "source_query": "Irrigation Equipment",
    "source_country": "RO",
    "country": "Romania",
    "state": "Brașov County",
    "city": "Comuna Sânpetru"
  },
  {
    "source_id": "ChIJS7I8HxhZs0ARBSYW2K0fJGo",
    "name": "GOBODANA SERCOM",
    "category": "GOBODANA SERCOM",
    "formatted_address": "4,1(7)",
    "phone_number": "+40788242873",
    "source_url": "https://www.google.com/maps/place/GOBODANA+SERCOM/data=!4m7!3m6!1s0x40b359181f3cb24b:0x6a241fadd8162605!8m2!3d45.7113498!4d25.6346911!16s%2Fg%2F1td_fr7h!19sChIJS7I8HxhZs0ARBSYW2K0fJGo?authuser=0&hl=tr&rclk=1",
    "website_url": "http://www.gobostore.ro/",
    "rating_text": "4,1",
    "stars": null,
    "number_of_reviews": null,
    "price_level": "",
    "open_hours": "",
    "extraction_timestamp": "2025-06-07T18:22:39.028Z",
    "source_name": "google",
    "source_query": "Irrigation Equipment",
    "source_country": "RO",
    "country": "Romania",
    "state": "Brașov County",
    "city": "Comuna Sânpetru"
  },
  {
    "source_id": "ChIJTX9LMJRds0ARd-cJF3vWNj8",
    "name": "Epinvest SRL, Brasov",
    "category": "Epinvest SRL, Brasov",
    "formatted_address": "Epinvest SRL, Brasov",
    "phone_number": "+40368008089",
    "source_url": "https://www.google.com/maps/place/Epinvest+SRL,+Brasov/data=!4m7!3m6!1s0x40b35d94304b7f4d:0x3f36d67b1709e777!8m2!3d45.6717876!4d25.5757741!16s%2Fg%2F11jtb40gf1!19sChIJTX9LMJRds0ARd-cJF3vWNj8?authuser=0&hl=tr&rclk=1",
    "website_url": "http://epinvest.ro/",
    "rating_text": "4,5",
    "stars": null,
    "number_of_reviews": null,
    "price_level": "",
    "open_hours": "",
    "extraction_timestamp": "2025-06-07T18:22:39.029Z",
    "source_name": "google",
    "source_query": "Irrigation Equipment",
    "source_country": "RO",
    "country": "Romania",
    "state": "Brașov County",
    "city": "Comuna Sânpetru"
  },
  {
    "source_id": "ChIJCQayaPpbs0ARhf_zEF9vwQg",
    "name": "SC Agri Sigeva SRL",
    "category": "SC Agri Sigeva SRL",
    "formatted_address": "5,0(2)",
    "phone_number": "+40722529586",
    "source_url": "https://www.google.com/maps/place/SC+Agri+Sigeva+SRL/data=!4m7!3m6!1s0x40b35bfa68b20609:0x8c16f5f10f3ff85!8m2!3d45.6744327!4d25.621811!16s%2Fg%2F1pztj9780!19sChIJCQayaPpbs0ARhf_zEF9vwQg?authuser=0&hl=tr&rclk=1",
    "website_url": "",
    "rating_text": "5,0",
    "stars": null,
    "number_of_reviews": null,
    "price_level": "",
    "open_hours": "",
    "extraction_timestamp": "2025-06-07T18:22:39.030Z",
    "source_name": "google",
    "source_query": "Irrigation Equipment",
    "source_country": "RO",
    "country": "Romania",
    "state": "Brașov County",
    "city": "Comuna Sânpetru"
  },
  {
    "source_id": "ChIJ0WgHCoVZs0ARj1aHxZPRyk4",
    "name": "Agroservice Brasov",
    "category": "Agroservice Brasov",
    "formatted_address": "5,0(4)",
    "phone_number": "+40268440895",
    "source_url": "https://www.google.com/maps/place/Agroservice+Brasov/data=!4m7!3m6!1s0x40b359850a0768d1:0x4ecad193c587568f!8m2!3d45.6730469!4d25.5804142!16s%2Fg%2F11fn6tbwqm!19sChIJ0WgHCoVZs0ARj1aHxZPRyk4?authuser=0&hl=tr&rclk=1",
    "website_url": "http://www.agroservicebv.ro/contact/",
    "rating_text": "5,0",
    "stars": null,
    "number_of_reviews": null,
    "price_level": "",
    "open_hours": "",
    "extraction_timestamp": "2025-06-07T18:22:39.031Z",
    "source_name": "google",
    "source_query": "Irrigation Equipment",
    "source_country": "RO",
    "country": "Romania",
    "state": "Brașov County",
    "city": "Comuna Sânpetru"
  },
  {
    "source_id": "ChIJLb_Eartbs0ARsgyH2lUGGNM",
    "name": "Techno Pro",
    "category": "Techno Pro",
    "formatted_address": "4,3(493)",
    "phone_number": "+40752424242",
    "source_url": "https://www.google.com/maps/place/Techno+Pro/data=!4m7!3m6!1s0x40b35bbb6ac4bf2d:0xd3180655da870cb2!8m2!3d45.6640885!4d25.5813535!16s%2Fg%2F1jkz4jl5x!19sChIJLb_Eartbs0ARsgyH2lUGGNM?authuser=0&hl=tr&rclk=1",
    "website_url": "http://www.scule.ro/",
    "rating_text": "4,3",
    "stars": null,
    "number_of_reviews": null,
    "price_level": "",
    "open_hours": "",
    "extraction_timestamp": "2025-06-07T18:22:39.032Z",
    "source_name": "google",
    "source_query": "Irrigation Equipment",
    "source_country": "RO",
    "country": "Romania",
    "state": "Brașov County",
    "city": "Comuna Sânpetru"
  },
  {
    "source_id": "ChIJSc52LPpds0ARRn6D2MxGEP4",
    "name": "Krongrass Equipment",
    "category": "Krongrass Equipment",
    "formatted_address": "5,0(2)",
    "phone_number": "+40744565495",
    "source_url": "https://www.google.com/maps/place/Krongrass+Equipment/data=!4m7!3m6!1s0x40b35dfa2c76ce49:0xfe1046ccd8837e46!8m2!3d45.6466883!4d25.6378089!16s%2Fg%2F11kj0x16vd!19sChIJSc52LPpds0ARRn6D2MxGEP4?authuser=0&hl=tr&rclk=1",
    "website_url": "http://www.spider-cositoare.com/",
    "rating_text": "5,0",
    "stars": null,
    "number_of_reviews": null,
    "price_level": "",
    "open_hours": "",
    "extraction_timestamp": "2025-06-07T18:22:39.033Z",
    "source_name": "google",
    "source_query": "Irrigation Equipment",
    "source_country": "RO",
    "country": "Romania",
    "state": "Brașov County",
    "city": "Comuna Sânpetru"
  },
  {
    "source_id": "ChIJE3GIErNz2GIRnMvSnu8JXWQ",
    "name": "Landscaping company",
    "category": "Landscaping company",
    "formatted_address": "4,9(30)",
    "phone_number": "+40755652974",
    "source_url": "https://www.google.com/maps/place/Landscaping+company/data=!4m7!3m6!1s0x62d873b312887113:0x645d09ef9ed2cb9c!8m2!3d45.6928902!4d25.6184328!16s%2Fg%2F11rqs5xt47!19sChIJE3GIErNz2GIRnMvSnu8JXWQ?authuser=0&hl=tr&rclk=1",
    "website_url": "",
    "rating_text": "4,9",
    "stars": null,
    "number_of_reviews": null,
    "price_level": "",
    "open_hours": "",
    "extraction_timestamp": "2025-06-07T18:22:39.034Z",
    "source_name": "google",
    "source_query": "Irrigation Equipment",
    "source_country": "RO",
    "country": "Romania",
    "state": "Brașov County",
    "city": "Comuna Sânpetru"
  },
  {
    "source_id": "ChIJxTlzQ25cs0ARbRRg7VLrKPw",
    "name": "Instal generation",
    "category": "Instal generation",
    "formatted_address": "5,0(5)",
    "phone_number": "+40745189529",
    "source_url": "https://www.google.com/maps/place/Instal+generation/data=!4m7!3m6!1s0x40b35c6e437339c5:0xfc28eb52ed60146d!8m2!3d45.6541089!4d25.63197!16s%2Fg%2F11flzgjjqz!19sChIJxTlzQ25cs0ARbRRg7VLrKPw?authuser=0&hl=tr&rclk=1",
    "website_url": "http://www.instalgeneration.ro/",
    "rating_text": "5,0",
    "stars": null,
    "number_of_reviews": null,
    "price_level": "",
    "open_hours": "",
    "extraction_timestamp": "2025-06-07T18:22:39.035Z",
    "source_name": "google",
    "source_query": "Irrigation Equipment",
    "source_country": "RO",
    "country": "Romania",
    "state": "Brașov County",
    "city": "Comuna Sânpetru"
  },
  {
    "source_id": "ChIJU0N723VZs0AR2XVITzZdMBk",
    "name": "Comturism",
    "category": "Comturism",
    "formatted_address": "5,0(1)",
    "phone_number": "",
    "source_url": "https://www.google.com/maps/place/Comturism/data=!4m7!3m6!1s0x40b35975db7b4353:0x19305d364f4875d9!8m2!3d45.7151273!4d25.6307198!16s%2Fg%2F11s1w1jfj1!19sChIJU0N723VZs0AR2XVITzZdMBk?authuser=0&hl=tr&rclk=1",
    "website_url": "",
    "rating_text": "5,0",
    "stars": null,
    "number_of_reviews": null,
    "price_level": "",
    "open_hours": "",
    "extraction_timestamp": "2025-06-07T18:22:39.036Z",
    "source_name": "google",
    "source_query": "Irrigation Equipment",
    "source_country": "RO",
    "country": "Romania",
    "state": "Brașov County",
    "city": "Comuna Sânpetru"
  },
  {
    "source_id": "ChIJtSXMroZZs0AR9WgeFzBMWhY",
    "name": "Munax Brasov",
    "category": "Munax Brasov",
    "formatted_address": "3,7(3)",
    "phone_number": "+40732970211",
    "source_url": "https://www.google.com/maps/place/Munax+Brasov/data=!4m7!3m6!1s0x40b35986aecc25b5:0x165a4c30171e68f5!8m2!3d45.7057548!4d25.5808906!16s%2Fg%2F11gd1whssx!19sChIJtSXMroZZs0AR9WgeFzBMWhY?authuser=0&hl=tr&rclk=1",
    "website_url": "https://www.munax.ro/",
    "rating_text": "3,7",
    "stars": null,
    "number_of_reviews": null,
    "price_level": "",
    "open_hours": "",
    "extraction_timestamp": "2025-06-07T18:22:39.038Z",
    "source_name": "google",
    "source_query": "Irrigation Equipment",
    "source_country": "RO",
    "country": "Romania",
    "state": "Brașov County",
    "city": "Comuna Sânpetru"
  },
  {
    "source_id": "ChIJGVg_O-1cs0ARmD9_VLr0E54",
    "name": "TERMOPROT",
    "category": "TERMOPROT",
    "formatted_address": "5,0(3)",
    "phone_number": "+40268333914",
    "source_url": "https://www.google.com/maps/place/TERMOPROT/data=!4m7!3m6!1s0x40b35ced3b3f5819:0x9e13f4ba547f3f98!8m2!3d45.6305519!4d25.6239596!16s%2Fg%2F11b76d3mxk!19sChIJGVg_O-1cs0ARmD9_VLr0E54?authuser=0&hl=tr&rclk=1",
    "website_url": "http://www.termoprot.ro/",
    "rating_text": "5,0",
    "stars": null,
    "number_of_reviews": null,
    "price_level": "",
    "open_hours": "",
    "extraction_timestamp": "2025-06-07T18:22:39.039Z",
    "source_name": "google",
    "source_query": "Irrigation Equipment",
    "source_country": "RO",
    "country": "Romania",
    "state": "Brașov County",
    "city": "Comuna Sânpetru"
  },
  {
    "source_id": "ChIJycqhZARZs0AR-6EFgov6pUs",
    "name": "GDV idea",
    "category": "GDV idea",
    "formatted_address": "",
    "phone_number": "+40722400613",
    "source_url": "https://www.google.com/maps/place/GDV+idea/data=!4m7!3m6!1s0x40b3590464a1cac9:0x4ba5fa8b8205a1fb!8m2!3d45.9425072!4d25.0201084!16s%2Fg%2F11j31ztw67!19sChIJycqhZARZs0AR-6EFgov6pUs?authuser=0&hl=tr&rclk=1",
    "website_url": "http://www.gdv-tehnologies.ro/",
    "rating_text": "",
    "stars": null,
    "number_of_reviews": null,
    "price_level": "",
    "open_hours": "",
    "extraction_timestamp": "2025-06-07T18:22:39.039Z",
    "source_name": "google",
    "source_query": "Irrigation Equipment",
    "source_country": "RO",
    "country": "Romania",
    "state": "Brașov County",
    "city": "Comuna Sânpetru"
  },
  {
    "source_id": "ChIJYRmWaqJbs0ARvsb1duCtxyI",
    "name": "TehnoSting Echipamente",
    "category": "TehnoSting Echipamente",
    "formatted_address": "4,9(7)",
    "phone_number": "+40751216567",
    "source_url": "https://www.google.com/maps/place/TehnoSting+Echipamente/data=!4m7!3m6!1s0x40b35ba26a961961:0x22c7ade076f5c6be!8m2!3d45.6899168!4d25.5825047!16s%2Fg%2F1hm54zcx1!19sChIJYRmWaqJbs0ARvsb1duCtxyI?authuser=0&hl=tr&rclk=1",
    "website_url": "http://www.tehnostingechipamente.ro/",
    "rating_text": "4,9",
    "stars": null,
    "number_of_reviews": null,
    "price_level": "",
    "open_hours": "",
    "extraction_timestamp": "2025-06-07T18:22:39.040Z",
    "source_name": "google",
    "source_query": "Irrigation Equipment",
    "source_country": "RO",
    "country": "Romania",
    "state": "Brașov County",
    "city": "Comuna Sânpetru"
  },
  {
    "source_id": "ChIJ89M0bwBZs0ARDIwyBTJHaVk",
    "name": "Spații Verzi -Brașov",
    "category": "Spații Verzi -Brașov",
    "formatted_address": "",
    "phone_number": "+40747223511",
    "source_url": "https://www.google.com/maps/place/Spa%C8%9Bii+Verzi+-Bra%C8%99ov/data=!4m7!3m6!1s0x40b359006f34d3f3:0x5969473205328c0c!8m2!3d45.6990753!4d25.6121585!16s%2Fg%2F11ld8nq3n8!19sChIJ89M0bwBZs0ARDIwyBTJHaVk?authuser=0&hl=tr&rclk=1",
    "website_url": "http://rda-greenland.ro/",
    "rating_text": "",
    "stars": null,
    "number_of_reviews": null,
    "price_level": "",
    "open_hours": "",
    "extraction_timestamp": "2025-06-07T18:22:39.041Z",
    "source_name": "google",
    "source_query": "Irrigation Equipment",
    "source_country": "RO",
    "country": "Romania",
    "state": "Brașov County",
    "city": "Comuna Sânpetru"
  },
  {
    "source_id": "ChIJ_XZ8Tp1bs0ARaWS3dAp1zcs",
    "name": "Water Management System Brasov",
    "category": "Water Management System Brasov",
    "formatted_address": "4,2(5)",
    "phone_number": "+40268412277",
    "source_url": "https://www.google.com/maps/place/Water+Management+System+Brasov/data=!4m7!3m6!1s0x40b35b9d4e7c76fd:0xcbcd750a74b76469!8m2!3d45.6504956!4d25.5934896!16s%2Fg%2F1pp2tzrcr!19sChIJ_XZ8Tp1bs0ARaWS3dAp1zcs?authuser=0&hl=tr&rclk=1",
    "website_url": "",
    "rating_text": "4,2",
    "stars": null,
    "number_of_reviews": null,
    "price_level": "",
    "open_hours": "",
    "extraction_timestamp": "2025-06-07T18:22:39.042Z",
    "source_name": "google",
    "source_query": "Irrigation Equipment",
    "source_country": "RO",
    "country": "Romania",
    "state": "Brașov County",
    "city": "Comuna Sânpetru"
  },
  {
    "source_id": "ChIJb966q0xfs0AROZbQ9k5guAM",
    "name": "Mizerii Hidrosal",
    "category": "Mizerii Hidrosal",
    "formatted_address": "1,0(4)",
    "phone_number": "+40268362941",
    "source_url": "https://www.google.com/maps/place/Mizerii+Hidrosal/data=!4m7!3m6!1s0x40b35f4cabbade6f:0x3b8604ef6d09639!8m2!3d45.6999404!4d25.7775981!16s%2Fg%2F11hf91pp2_!19sChIJb966q0xfs0AROZbQ9k5guAM?authuser=0&hl=tr&rclk=1",
    "website_url": "http://www.hidrosal.ro/",
    "rating_text": "1,0",
    "stars": null,
    "number_of_reviews": null,
    "price_level": "",
    "open_hours": "",
    "extraction_timestamp": "2025-06-07T18:22:39.043Z",
    "source_name": "google",
    "source_query": "Irrigation Equipment",
    "source_country": "RO",
    "country": "Romania",
    "state": "Brașov County",
    "city": "Comuna Sânpetru"
  },
  {
    "source_id": "ChIJ9Zd2jX9ds0AROE-qFBs59r4",
    "name": "IZORARE ECOSYSTEM S.R.L.",
    "category": "IZORARE ECOSYSTEM S.R.L.",
    "formatted_address": "4,7(15)",
    "phone_number": "+40752529099",
    "source_url": "https://www.google.com/maps/place/IZORARE+ECOSYSTEM+S.R.L./data=!4m7!3m6!1s0x40b35d7f8d7697f5:0xbef6391b14aa4f38!8m2!3d45.6255463!4d25.6934206!16s%2Fg%2F1yg93q4n0!19sChIJ9Zd2jX9ds0AROE-qFBs59r4?authuser=0&hl=tr&rclk=1",
    "website_url": "http://www.izorare.ro/",
    "rating_text": "4,7",
    "stars": null,
    "number_of_reviews": null,
    "price_level": "",
    "open_hours": "",
    "extraction_timestamp": "2025-06-07T18:22:39.044Z",
    "source_name": "google",
    "source_query": "Irrigation Equipment",
    "source_country": "RO",
    "country": "Romania",
    "state": "Brașov County",
    "city": "Comuna Sânpetru"
  },
  {
    "source_id": "ChIJrUQQMFZZs0AR6NzsnVyZJ80",
    "name": "Caldurica.ro",
    "category": "Caldurica.ro",
    "formatted_address": "5,0(77)",
    "phone_number": "+40762275709",
    "source_url": "https://www.google.com/maps/place/Caldurica.ro/data=!4m7!3m6!1s0x40b35956301044ad:0xcd27995c9decdce8!8m2!3d45.7037588!4d25.5550988!16s%2Fg%2F11j3rybftd!19sChIJrUQQMFZZs0AR6NzsnVyZJ80?authuser=0&hl=tr&rclk=1",
    "website_url": "http://caldurica.ro/",
    "rating_text": "5,0",
    "stars": null,
    "number_of_reviews": null,
    "price_level": "",
    "open_hours": "",
    "extraction_timestamp": "2025-06-07T18:22:39.045Z",
    "source_name": "google",
    "source_query": "Irrigation Equipment",
    "source_country": "RO",
    "country": "Romania",
    "state": "Brașov County",
    "city": "Comuna Sânpetru"
  },
  {
    "source_id": "ChIJWeFfS-lds0AR9yE35V1sBkU",
    "name": "Area 21 forest",
    "category": "Area 21 forest",
    "formatted_address": "Area 21 forest",
    "phone_number": "+40756621842",
    "source_url": "https://www.google.com/maps/place/Area+21+forest/data=!4m7!3m6!1s0x40b35de94b5fe159:0x45066c5de53721f7!8m2!3d45.6512788!4d25.6184938!16s%2Fg%2F11t3gz3yzc!19sChIJWeFfS-lds0AR9yE35V1sBkU?authuser=0&hl=tr&rclk=1",
    "website_url": "http://www.instal-brasov.ro/",
    "rating_text": "5,0",
    "stars": null,
    "number_of_reviews": null,
    "price_level": "",
    "open_hours": "",
    "extraction_timestamp": "2025-06-07T18:22:39.046Z",
    "source_name": "google",
    "source_query": "Irrigation Equipment",
    "source_country": "RO",
    "country": "Romania",
    "state": "Brașov County",
    "city": "Comuna Sânpetru"
  },
  {
    "source_id": "ChIJG2EV_f9bs0ARRhFy__gil54",
    "name": "SC Instalatii Trust SA",
    "category": "SC Instalatii Trust SA",
    "formatted_address": "5,0(7)",
    "phone_number": "+40744299176",
    "source_url": "https://www.google.com/maps/place/SC+Instalatii+Trust+SA/data=!4m7!3m6!1s0x40b35bfffd15611b:0x9e9722f8ff721146!8m2!3d45.6568366!4d25.5640092!16s%2Fg%2F11jnsmfjrq!19sChIJG2EV_f9bs0ARRhFy__gil54?authuser=0&hl=tr&rclk=1",
    "website_url": "",
    "rating_text": "5,0",
    "stars": null,
    "number_of_reviews": null,
    "price_level": "",
    "open_hours": "",
    "extraction_timestamp": "2025-06-07T18:22:39.047Z",
    "source_name": "google",
    "source_query": "Irrigation Equipment",
    "source_country": "RO",
    "country": "Romania",
    "state": "Brașov County",
    "city": "Comuna Sânpetru"
  },
  {
    "source_id": "ChIJe6wdOnFhs0ARIwE3yBbzHho",
    "name": "MAGEREXIM",
    "category": "MAGEREXIM",
    "formatted_address": "4,9(17)",
    "phone_number": "+40741647984",
    "source_url": "https://www.google.com/maps/place/MAGEREXIM/data=!4m7!3m6!1s0x40b361713a1dac7b:0x1a1ef316c8370123!8m2!3d45.6718863!4d25.7960882!16s%2Fg%2F11jgnm3g__!19sChIJe6wdOnFhs0ARIwE3yBbzHho?authuser=0&hl=tr&rclk=1",
    "website_url": "https://magerexim.ro/",
    "rating_text": "4,9",
    "stars": null,
    "number_of_reviews": null,
    "price_level": "",
    "open_hours": "",
    "extraction_timestamp": "2025-06-07T18:22:39.048Z",
    "source_name": "google",
    "source_query": "Irrigation Equipment",
    "source_country": "RO",
    "country": "Romania",
    "state": "Brașov County",
    "city": "Comuna Sânpetru"
  },
  {
    "source_id": "ChIJA7B1Z2Zds0ARur30HS3Ah04",
    "name": "instalator brasov NON STOP sanitare termice",
    "category": "instalator brasov NON STOP sanitare termice",
    "formatted_address": "4,2(33)",
    "phone_number": "+40755189138",
    "source_url": "https://www.google.com/maps/place/instalator+brasov+NON+STOP+sanitare+termice/data=!4m7!3m6!1s0x40b35d666775b003:0x4e87c02d1df4bdba!8m2!3d45.655991!4d25.6178539!16s%2Fg%2F11h7b34qd_!19sChIJA7B1Z2Zds0ARur30HS3Ah04?authuser=0&hl=tr&rclk=1",
    "website_url": "https://instalatorbrasov.wixsite.com/website-1",
    "rating_text": "4,2",
    "stars": null,
    "number_of_reviews": null,
    "price_level": "",
    "open_hours": "",
    "extraction_timestamp": "2025-06-07T18:22:39.049Z",
    "source_name": "google",
    "source_query": "Irrigation Equipment",
    "source_country": "RO",
    "country": "Romania",
    "state": "Brașov County",
    "city": "Comuna Sânpetru"
  },
  {
    "source_id": "ChIJZ2TAKopcs0ARXWJpfgr5Ja0",
    "name": "Ecoflam",
    "category": "Ecoflam",
    "formatted_address": "4,0(3)",
    "phone_number": "+40733670019",
    "source_url": "https://www.google.com/maps/place/Ecoflam/data=!4m7!3m6!1s0x40b35c8a2ac06467:0xad25f90a7e69625d!8m2!3d45.6399864!4d25.6239017!16s%2Fg%2F11hbl8yp52!19sChIJZ2TAKopcs0ARXWJpfgr5Ja0?authuser=0&hl=tr&rclk=1",
    "website_url": "http://ecoflam-service.ro/",
    "rating_text": "4,0",
    "stars": null,
    "number_of_reviews": null,
    "price_level": "",
    "open_hours": "",
    "extraction_timestamp": "2025-06-07T18:22:39.050Z",
    "source_name": "google",
    "source_query": "Irrigation Equipment",
    "source_country": "RO",
    "country": "Romania",
    "state": "Brașov County",
    "city": "Comuna Sânpetru"
  },
  {
    "source_id": "ChIJB4uBs89bs0AR6Z6tAZWj1EA",
    "name": "Black Sea Suppliers",
    "category": "Black Sea Suppliers",
    "formatted_address": "3,9(85)",
    "phone_number": "+40268317007",
    "source_url": "https://www.google.com/maps/place/Black+Sea+Suppliers/data=!4m7!3m6!1s0x40b35bcfb3818b07:0x40d4a39501ad9ee9!8m2!3d45.6800804!4d25.5870895!16s%2Fg%2F11cmcms41z!19sChIJB4uBs89bs0AR6Z6tAZWj1EA?authuser=0&hl=tr&rclk=1",
    "website_url": "http://www.blackseasuppliers.ro/",
    "rating_text": "3,9",
    "stars": null,
    "number_of_reviews": null,
    "price_level": "",
    "open_hours": "",
    "extraction_timestamp": "2025-06-07T18:22:39.051Z",
    "source_name": "google",
    "source_query": "Irrigation Equipment",
    "source_country": "RO",
    "country": "Romania",
    "state": "Brașov County",
    "city": "Comuna Sânpetru"
  },
  {
    "source_id": "ChIJe_tU3Bhbs0ARYNkGVHO5YKE",
    "name": "HIDROstore Brașov",
    "category": "HIDROstore Brașov",
    "formatted_address": "5,0(13)",
    "phone_number": "+40771576228",
    "source_url": "https://www.google.com/maps/place/HIDROstore+Bra%C8%99ov/data=!4m7!3m6!1s0x40b35b18dc54fb7b:0xa160b9735406d960!8m2!3d45.6734944!4d25.5800351!16s%2Fg%2F11w8pn_mjw!19sChIJe_tU3Bhbs0ARYNkGVHO5YKE?authuser=0&hl=tr&rclk=1",
    "website_url": "https://hidrostore.ro/brasov",
    "rating_text": "5,0",
    "stars": null,
    "number_of_reviews": null,
    "price_level": "",
    "open_hours": "",
    "extraction_timestamp": "2025-06-07T18:22:39.052Z",
    "source_name": "google",
    "source_query": "Irrigation Equipment",
    "source_country": "RO",
    "country": "Romania",
    "state": "Brașov County",
    "city": "Comuna Sânpetru"
  },
  {
    "source_id": "ChIJtRDaNxVds0ARH0zYzm8DWbE",
    "name": "CHIRILA INSTAL",
    "category": "CHIRILA INSTAL",
    "formatted_address": "5,0(17)",
    "phone_number": "+40734108310",
    "source_url": "https://www.google.com/maps/place/CHIRILA+INSTAL/data=!4m7!3m6!1s0x40b35d1537da10b5:0xb159036fced84c1f!8m2!3d45.651787!4d25.6309351!16s%2Fg%2F11vt09sry_!19sChIJtRDaNxVds0ARH0zYzm8DWbE?authuser=0&hl=tr&rclk=1",
    "website_url": "https://instalatorisanitarebrasov.ro/",
    "rating_text": "5,0",
    "stars": null,
    "number_of_reviews": null,
    "price_level": "",
    "open_hours": "",
    "extraction_timestamp": "2025-06-07T18:22:39.053Z",
    "source_name": "google",
    "source_query": "Irrigation Equipment",
    "source_country": "RO",
    "country": "Romania",
    "state": "Brașov County",
    "city": "Comuna Sânpetru"
  }
]
