[
  {
    "source_id": "ChIJaQzqLmZcs0ARU6r3VaUK6iE",
    "name": "AKRO S.R.L.",
    "category": "AKRO S.R.L.",
    "formatted_address": "4,7(13)",
    "phone_number": "+40268413180",
    "source_url": "https://www.google.com/maps/place/AKRO+S.R.L./data=!4m7!3m6!1s0x40b35c662eea0c69:0x21ea0aa555f7aa53!8m2!3d45.6485042!4d25.6406578!16s%2Fg%2F1hc250gs3!19sChIJaQzqLmZcs0ARU6r3VaUK6iE?authuser=0&hl=tr&rclk=1",
    "website_url": "https://www.akro.ro/",
    "rating_text": "4,7",
    "stars": null,
    "number_of_reviews": null,
    "price_level": "",
    "open_hours": "",
    "extraction_timestamp": "2025-06-07T18:21:16.142Z",
    "source_name": "google",
    "source_query": "Irrigation Equipment",
    "source_country": "RO",
    "country": "Romania",
    "state": "Brașov County",
    "city": "Comuna Ormeniş"
  },
  {
    "source_id": "ChIJ1S8EiMZZs0AR86hmbkUN9ow",
    "name": "Ipso Agricultura Brașov",
    "category": "Ipso Agricultura Brașov",
    "formatted_address": "4,8(12)",
    "phone_number": "+40374438921",
    "source_url": "https://www.google.com/maps/place/Ipso+Agricultura+Bra%C8%99ov/data=!4m7!3m6!1s0x40b359c688042fd5:0x8cf60d456e66a8f3!8m2!3d45.7007612!4d25.5811096!16s%2Fg%2F11h_dq5c17!19sChIJ1S8EiMZZs0AR86hmbkUN9ow?authuser=0&hl=tr&rclk=1",
    "website_url": "http://www.ipso.ro/",
    "rating_text": "4,8",
    "stars": null,
    "number_of_reviews": null,
    "price_level": "",
    "open_hours": "",
    "extraction_timestamp": "2025-06-07T18:21:16.143Z",
    "source_name": "google",
    "source_query": "Irrigation Equipment",
    "source_country": "RO",
    "country": "Romania",
    "state": "Brașov County",
    "city": "Comuna Ormeniş"
  },
  {
    "source_id": "ChIJSc52LPpds0ARRn6D2MxGEP4",
    "name": "Krongrass Equipment",
    "category": "Krongrass Equipment",
    "formatted_address": "5,0(2)",
    "phone_number": "+40744565495",
    "source_url": "https://www.google.com/maps/place/Krongrass+Equipment/data=!4m7!3m6!1s0x40b35dfa2c76ce49:0xfe1046ccd8837e46!8m2!3d45.6466883!4d25.6378089!16s%2Fg%2F11kj0x16vd!19sChIJSc52LPpds0ARRn6D2MxGEP4?authuser=0&hl=tr&rclk=1",
    "website_url": "http://www.spider-cositoare.com/",
    "rating_text": "5,0",
    "stars": null,
    "number_of_reviews": null,
    "price_level": "",
    "open_hours": "",
    "extraction_timestamp": "2025-06-07T18:21:16.143Z",
    "source_name": "google",
    "source_query": "Irrigation Equipment",
    "source_country": "RO",
    "country": "Romania",
    "state": "Brașov County",
    "city": "Comuna Ormeniş"
  },
  {
    "source_id": "ChIJxTlzQ25cs0ARbRRg7VLrKPw",
    "name": "Instal generation",
    "category": "Instal generation",
    "formatted_address": "5,0(5)",
    "phone_number": "+40745189529",
    "source_url": "https://www.google.com/maps/place/Instal+generation/data=!4m7!3m6!1s0x40b35c6e437339c5:0xfc28eb52ed60146d!8m2!3d45.6541089!4d25.63197!16s%2Fg%2F11flzgjjqz!19sChIJxTlzQ25cs0ARbRRg7VLrKPw?authuser=0&hl=tr&rclk=1",
    "website_url": "http://www.instalgeneration.ro/",
    "rating_text": "5,0",
    "stars": null,
    "number_of_reviews": null,
    "price_level": "",
    "open_hours": "",
    "extraction_timestamp": "2025-06-07T18:21:16.143Z",
    "source_name": "google",
    "source_query": "Irrigation Equipment",
    "source_country": "RO",
    "country": "Romania",
    "state": "Brașov County",
    "city": "Comuna Ormeniş"
  },
  {
    "source_id": "ChIJo4zvR6VZs0ARxGIw_N0WsqM",
    "name": "Agrorent S.R.L.",
    "category": "Agrorent S.R.L.",
    "formatted_address": "4,7(20)",
    "phone_number": "+40722566595",
    "source_url": "https://www.google.com/maps/place/Agrorent+S.R.L./data=!4m7!3m6!1s0x40b359a547ef8ca3:0xa3b216ddfc3062c4!8m2!3d45.7163001!4d25.5911326!16s%2Fg%2F1hc8n6qq0!19sChIJo4zvR6VZs0ARxGIw_N0WsqM?authuser=0&hl=tr&rclk=1",
    "website_url": "http://pesticideagrorent.ro/",
    "rating_text": "4,7",
    "stars": null,
    "number_of_reviews": null,
    "price_level": "",
    "open_hours": "",
    "extraction_timestamp": "2025-06-07T18:21:16.143Z",
    "source_name": "google",
    "source_query": "Irrigation Equipment",
    "source_country": "RO",
    "country": "Romania",
    "state": "Brașov County",
    "city": "Comuna Ormeniş"
  },
  {
    "source_id": "ChIJiYrW93hcs0ARpKmOIL1sTuI",
    "name": "Valinst Agriculture",
    "category": "Valinst Agriculture",
    "formatted_address": "5,0(1)",
    "phone_number": "+40730330543",
    "source_url": "https://www.google.com/maps/place/Valinst+Agriculture/data=!4m7!3m6!1s0x40b35c78f7d68a89:0xe24e6cbd208ea9a4!8m2!3d45.6527567!4d25.6143965!16s%2Fg%2F11hf04lgwp!19sChIJiYrW93hcs0ARpKmOIL1sTuI?authuser=0&hl=tr&rclk=1",
    "website_url": "http://www.valinst.ro/en/contact",
    "rating_text": "5,0",
    "stars": null,
    "number_of_reviews": null,
    "price_level": "",
    "open_hours": "",
    "extraction_timestamp": "2025-06-07T18:21:16.144Z",
    "source_name": "google",
    "source_query": "Irrigation Equipment",
    "source_country": "RO",
    "country": "Romania",
    "state": "Brașov County",
    "city": "Comuna Ormeniş"
  },
  {
    "source_id": "ChIJ-yCuTABNS0cRiefjdUpEpN4",
    "name": "Iluniv Comprod Srl",
    "category": "Iluniv Comprod Srl",
    "formatted_address": "5,0(1)",
    "phone_number": "",
    "source_url": "https://www.google.com/maps/place/Iluniv+Comprod+Srl/data=!4m7!3m6!1s0x474b4d004cae20fb:0xdea4444a75e3e789!8m2!3d46.006606!4d25.5536601!16s%2Fg%2F11vrx0w6lc!19sChIJ-yCuTABNS0cRiefjdUpEpN4?authuser=0&hl=tr&rclk=1",
    "website_url": "",
    "rating_text": "5,0",
    "stars": null,
    "number_of_reviews": null,
    "price_level": "",
    "open_hours": "",
    "extraction_timestamp": "2025-06-07T18:21:16.144Z",
    "source_name": "google",
    "source_query": "Irrigation Equipment",
    "source_country": "RO",
    "country": "Romania",
    "state": "Brașov County",
    "city": "Comuna Ormeniş"
  },
  {
    "source_id": "ChIJCQayaPpbs0ARhf_zEF9vwQg",
    "name": "SC Agri Sigeva SRL",
    "category": "SC Agri Sigeva SRL",
    "formatted_address": "5,0(2)",
    "phone_number": "+40722529586",
    "source_url": "https://www.google.com/maps/place/SC+Agri+Sigeva+SRL/data=!4m7!3m6!1s0x40b35bfa68b20609:0x8c16f5f10f3ff85!8m2!3d45.6744327!4d25.621811!16s%2Fg%2F1pztj9780!19sChIJCQayaPpbs0ARhf_zEF9vwQg?authuser=0&hl=tr&rclk=1",
    "website_url": "",
    "rating_text": "5,0",
    "stars": null,
    "number_of_reviews": null,
    "price_level": "",
    "open_hours": "",
    "extraction_timestamp": "2025-06-07T18:21:16.144Z",
    "source_name": "google",
    "source_query": "Irrigation Equipment",
    "source_country": "RO",
    "country": "Romania",
    "state": "Brașov County",
    "city": "Comuna Ormeniş"
  },
  {
    "source_id": "ChIJ_XZ8Tp1bs0ARaWS3dAp1zcs",
    "name": "Water Management System Brasov",
    "category": "Water Management System Brasov",
    "formatted_address": "4,2(5)",
    "phone_number": "+40268412277",
    "source_url": "https://www.google.com/maps/place/Water+Management+System+Brasov/data=!4m7!3m6!1s0x40b35b9d4e7c76fd:0xcbcd750a74b76469!8m2!3d45.6504956!4d25.5934896!16s%2Fg%2F1pp2tzrcr!19sChIJ_XZ8Tp1bs0ARaWS3dAp1zcs?authuser=0&hl=tr&rclk=1",
    "website_url": "",
    "rating_text": "4,2",
    "stars": null,
    "number_of_reviews": null,
    "price_level": "",
    "open_hours": "",
    "extraction_timestamp": "2025-06-07T18:21:16.144Z",
    "source_name": "google",
    "source_query": "Irrigation Equipment",
    "source_country": "RO",
    "country": "Romania",
    "state": "Brașov County",
    "city": "Comuna Ormeniş"
  }
]
