[
  {
    "source_id": "ChIJxTlzQ25cs0ARbRRg7VLrKPw",
    "name": "Instal generation",
    "category": "Instal generation",
    "formatted_address": "5,0(5)",
    "phone_number": "+40745189529",
    "source_url": "https://www.google.com/maps/place/Instal+generation/data=!4m7!3m6!1s0x40b35c6e437339c5:0xfc28eb52ed60146d!8m2!3d45.6541089!4d25.63197!16s%2Fg%2F11flzgjjqz!19sChIJxTlzQ25cs0ARbRRg7VLrKPw?authuser=0&hl=tr&rclk=1",
    "website_url": "",
    "rating_text": "5,0",
    "stars": null,
    "number_of_reviews": null,
    "price_level": "",
    "open_hours": "",
    "extraction_timestamp": "2025-06-07T18:12:16.471Z",
    "source_name": "google",
    "source_query": "Irrigation Equipment",
    "source_country": "RO",
    "country": "Romania",
    "state": "Brașov County",
    "city": "Comuna Augustin"
  },
  {
    "source_id": "ChIJaQzqLmZcs0ARU6r3VaUK6iE",
    "name": "AKRO S.R.L.",
    "category": "AKRO S.R.L.",
    "formatted_address": "4,7(13)",
    "phone_number": "+40268413180",
    "source_url": "https://www.google.com/maps/place/AKRO+S.R.L./data=!4m7!3m6!1s0x40b35c662eea0c69:0x21ea0aa555f7aa53!8m2!3d45.6485042!4d25.6406578!16s%2Fg%2F1hc250gs3!19sChIJaQzqLmZcs0ARU6r3VaUK6iE?authuser=0&hl=tr&rclk=1",
    "website_url": "",
    "rating_text": "4,7",
    "stars": null,
    "number_of_reviews": null,
    "price_level": "",
    "open_hours": "",
    "extraction_timestamp": "2025-06-07T18:12:16.471Z",
    "source_name": "google",
    "source_query": "Irrigation Equipment",
    "source_country": "RO",
    "country": "Romania",
    "state": "Brașov County",
    "city": "Comuna Augustin"
  },
  {
    "source_id": "ChIJ0WgHCoVZs0ARj1aHxZPRyk4",
    "name": "Agroservice Brasov",
    "category": "Agroservice Brasov",
    "formatted_address": "5,0(4)",
    "phone_number": "+40268440895",
    "source_url": "https://www.google.com/maps/place/Agroservice+Brasov/data=!4m7!3m6!1s0x40b359850a0768d1:0x4ecad193c587568f!8m2!3d45.6730469!4d25.5804142!16s%2Fg%2F11fn6tbwqm!19sChIJ0WgHCoVZs0ARj1aHxZPRyk4?authuser=0&hl=tr&rclk=1",
    "website_url": "",
    "rating_text": "5,0",
    "stars": null,
    "number_of_reviews": null,
    "price_level": "",
    "open_hours": "",
    "extraction_timestamp": "2025-06-07T18:12:16.472Z",
    "source_name": "google",
    "source_query": "Irrigation Equipment",
    "source_country": "RO",
    "country": "Romania",
    "state": "Brașov County",
    "city": "Comuna Augustin"
  },
  {
    "source_id": "ChIJCQayaPpbs0ARhf_zEF9vwQg",
    "name": "SC Agri Sigeva SRL",
    "category": "SC Agri Sigeva SRL",
    "formatted_address": "5,0(2)",
    "phone_number": "+40722529586",
    "source_url": "https://www.google.com/maps/place/SC+Agri+Sigeva+SRL/data=!4m7!3m6!1s0x40b35bfa68b20609:0x8c16f5f10f3ff85!8m2!3d45.6744327!4d25.621811!16s%2Fg%2F1pztj9780!19sChIJCQayaPpbs0ARhf_zEF9vwQg?authuser=0&hl=tr&rclk=1",
    "website_url": "",
    "rating_text": "5,0",
    "stars": null,
    "number_of_reviews": null,
    "price_level": "",
    "open_hours": "",
    "extraction_timestamp": "2025-06-07T18:12:16.472Z",
    "source_name": "google",
    "source_query": "Irrigation Equipment",
    "source_country": "RO",
    "country": "Romania",
    "state": "Brașov County",
    "city": "Comuna Augustin"
  },
  {
    "source_id": "ChIJ4ZZDEYhcs0ARo-l6WqHusqo",
    "name": "Dumian S.R.L.",
    "category": "Dumian S.R.L.",
    "formatted_address": "2,7(3)",
    "phone_number": "+40268318688",
    "source_url": "https://www.google.com/maps/place/Dumian+S.R.L./data=!4m7!3m6!1s0x40b35c88114396e1:0xaab2eea15a7ae9a3!8m2!3d45.6426687!4d25.6194748!16s%2Fg%2F1hc4h4xr9!19sChIJ4ZZDEYhcs0ARo-l6WqHusqo?authuser=0&hl=tr&rclk=1",
    "website_url": "",
    "rating_text": "2,7",
    "stars": null,
    "number_of_reviews": null,
    "price_level": "",
    "open_hours": "",
    "extraction_timestamp": "2025-06-07T18:12:16.473Z",
    "source_name": "google",
    "source_query": "Irrigation Equipment",
    "source_country": "RO",
    "country": "Romania",
    "state": "Brașov County",
    "city": "Comuna Augustin"
  },
  {
    "source_id": "ChIJtSXMroZZs0AR9WgeFzBMWhY",
    "name": "Munax Brasov",
    "category": "Munax Brasov",
    "formatted_address": "3,7(3)",
    "phone_number": "+40732970211",
    "source_url": "https://www.google.com/maps/place/Munax+Brasov/data=!4m7!3m6!1s0x40b35986aecc25b5:0x165a4c30171e68f5!8m2!3d45.7057548!4d25.5808906!16s%2Fg%2F11gd1whssx!19sChIJtSXMroZZs0AR9WgeFzBMWhY?authuser=0&hl=tr&rclk=1",
    "website_url": "",
    "rating_text": "3,7",
    "stars": null,
    "number_of_reviews": null,
    "price_level": "",
    "open_hours": "",
    "extraction_timestamp": "2025-06-07T18:12:16.473Z",
    "source_name": "google",
    "source_query": "Irrigation Equipment",
    "source_country": "RO",
    "country": "Romania",
    "state": "Brașov County",
    "city": "Comuna Augustin"
  },
  {
    "source_id": "ChIJZ8Y9r8FZs0AROEFfSlqYVZ0",
    "name": "Roplant - Garden Center",
    "category": "Roplant - Garden Center",
    "formatted_address": "5,0(43)",
    "phone_number": "+40751280415",
    "source_url": "https://www.google.com/maps/place/Roplant+-+Garden+Center/data=!4m7!3m6!1s0x40b359c1af3dc667:0x9d55985a4a5f4138!8m2!3d45.6967323!4d25.5833178!16s%2Fg%2F11h3fs20rb!19sChIJZ8Y9r8FZs0AROEFfSlqYVZ0?authuser=0&hl=tr&rclk=1",
    "website_url": "",
    "rating_text": "5,0",
    "stars": null,
    "number_of_reviews": null,
    "price_level": "",
    "open_hours": "",
    "extraction_timestamp": "2025-06-07T18:12:16.473Z",
    "source_name": "google",
    "source_query": "Irrigation Equipment",
    "source_country": "RO",
    "country": "Romania",
    "state": "Brașov County",
    "city": "Comuna Augustin"
  },
  {
    "source_id": "ChIJe_tU3Bhbs0ARYNkGVHO5YKE",
    "name": "HIDROstore Brașov",
    "category": "HIDROstore Brașov",
    "formatted_address": "5,0(13)",
    "phone_number": "+40771576228",
    "source_url": "https://www.google.com/maps/place/HIDROstore+Bra%C8%99ov/data=!4m7!3m6!1s0x40b35b18dc54fb7b:0xa160b9735406d960!8m2!3d45.6734944!4d25.5800351!16s%2Fg%2F11w8pn_mjw!19sChIJe_tU3Bhbs0ARYNkGVHO5YKE?authuser=0&hl=tr&rclk=1",
    "website_url": "",
    "rating_text": "5,0",
    "stars": null,
    "number_of_reviews": null,
    "price_level": "",
    "open_hours": "",
    "extraction_timestamp": "2025-06-07T18:12:16.474Z",
    "source_name": "google",
    "source_query": "Irrigation Equipment",
    "source_country": "RO",
    "country": "Romania",
    "state": "Brașov County",
    "city": "Comuna Augustin"
  },
  {
    "source_id": "ChIJyTpXaLJLS0cRAbPStwEo7lE",
    "name": "EMIAD MINI MARKET S.R.L",
    "category": "EMIAD MINI MARKET S.R.L",
    "formatted_address": "5,0(4)",
    "phone_number": "",
    "source_url": "https://www.google.com/maps/place/EMIAD+MINI+MARKET+S.R.L/data=!4m7!3m6!1s0x474b4bb268573ac9:0x51ee2801b7d2b301!8m2!3d46.0345937!4d25.560356!16s%2Fg%2F11k0lq8mqh!19sChIJyTpXaLJLS0cRAbPStwEo7lE?authuser=0&hl=tr&rclk=1",
    "website_url": "",
    "rating_text": "5,0",
    "stars": null,
    "number_of_reviews": null,
    "price_level": "",
    "open_hours": "",
    "extraction_timestamp": "2025-06-07T18:12:16.474Z",
    "source_name": "google",
    "source_query": "Irrigation Equipment",
    "source_country": "RO",
    "country": "Romania",
    "state": "Brașov County",
    "city": "Comuna Augustin"
  }
]
