[
  {
    "source_id": "ChIJY34eXHWgtEARbgyzfTHF9E4",
    "name": "Hidro Sal",
    "category": "Hidro Sal",
    "formatted_address": "2,3(22)",
    "phone_number": "+40268362941",
    "source_url": "https://www.google.com/maps/place/Hidro+Sal/data=!4m7!3m6!1s0x40b4a0755c1e7e63:0x4ef4c5317db30c6e!8m2!3d45.7270214!4d25.7778483!16s%2Fg%2F11cn7x2db8!19sChIJY34eXHWgtEARbgyzfTHF9E4?authuser=0&hl=tr&rclk=1",
    "website_url": "",
    "rating_text": "2,3",
    "stars": null,
    "number_of_reviews": null,
    "price_level": "",
    "open_hours": "",
    "extraction_timestamp": "2025-06-07T18:22:47.471Z",
    "source_name": "google",
    "source_query": "Irrigation Equipment",
    "source_country": "RO",
    "country": "Romania",
    "state": "Brașov County",
    "city": "Comuna Prejmer"
  },
  {
    "source_id": "ChIJ5b1n24pfs0ARf9FZvD1qMCo",
    "name": "HIDRO-SAL COM SRL",
    "category": "HIDRO-SAL COM SRL",
    "formatted_address": "2,8(17)",
    "phone_number": "+40268362941",
    "source_url": "https://www.google.com/maps/place/HIDRO-SAL+COM+SRL/data=!4m7!3m6!1s0x40b35f8adb67bde5:0x2a306a3dbc59d17f!8m2!3d45.7242774!4d25.7754802!16s%2Fg%2F11fn6sp406!19sChIJ5b1n24pfs0ARf9FZvD1qMCo?authuser=0&hl=tr&rclk=1",
    "website_url": "",
    "rating_text": "2,8",
    "stars": null,
    "number_of_reviews": null,
    "price_level": "",
    "open_hours": "",
    "extraction_timestamp": "2025-06-07T18:22:47.471Z",
    "source_name": "google",
    "source_query": "Irrigation Equipment",
    "source_country": "RO",
    "country": "Romania",
    "state": "Brașov County",
    "city": "Comuna Prejmer"
  },
  {
    "source_id": "ChIJrUTTcgVds0ARVY3m5GjfmPI",
    "name": "PIESE AUTO PREJMER - NTT TOTAL AUTO",
    "category": "PIESE AUTO PREJMER - NTT TOTAL AUTO",
    "formatted_address": "5,0(90)",
    "phone_number": "+40773805118",
    "source_url": "https://www.google.com/maps/place/PIESE+AUTO+PREJMER+-+NTT+TOTAL+AUTO/data=!4m7!3m6!1s0x40b35d0572d344ad:0xf298df68e4e68d55!8m2!3d45.7185734!4d25.7676883!16s%2Fg%2F11r86nqsw2!19sChIJrUTTcgVds0ARVY3m5GjfmPI?authuser=0&hl=tr&rclk=1",
    "website_url": "",
    "rating_text": "5,0",
    "stars": null,
    "number_of_reviews": null,
    "price_level": "",
    "open_hours": "",
    "extraction_timestamp": "2025-06-07T18:22:47.472Z",
    "source_name": "google",
    "source_query": "Irrigation Equipment",
    "source_country": "RO",
    "country": "Romania",
    "state": "Brașov County",
    "city": "Comuna Prejmer"
  },
  {
    "source_id": "ChIJYf9aGJ9fs0AR4lE_4HRoUso",
    "name": "Mepro Sisteme SRL",
    "category": "Mepro Sisteme SRL",
    "formatted_address": "5,0(4)",
    "phone_number": "+40268417087",
    "source_url": "https://www.google.com/maps/place/Mepro+Sisteme+SRL/data=!4m7!3m6!1s0x40b35f9f185aff61:0xca526874e03f51e2!8m2!3d45.7168417!4d25.7430732!16s%2Fg%2F11b7cmjgmp!19sChIJYf9aGJ9fs0AR4lE_4HRoUso?authuser=0&hl=tr&rclk=1",
    "website_url": "",
    "rating_text": "5,0",
    "stars": null,
    "number_of_reviews": null,
    "price_level": "",
    "open_hours": "",
    "extraction_timestamp": "2025-06-07T18:22:47.472Z",
    "source_name": "google",
    "source_query": "Irrigation Equipment",
    "source_country": "RO",
    "country": "Romania",
    "state": "Brașov County",
    "city": "Comuna Prejmer"
  },
  {
    "source_id": "ChIJ8fkb_I9fs0ARKVdcJ6dhMpQ",
    "name": "Marco Cars Dezmembrari",
    "category": "Marco Cars Dezmembrari",
    "formatted_address": "3,3(132)",
    "phone_number": "+40765269500",
    "source_url": "https://www.google.com/maps/place/Marco+Cars+Dezmembrari/data=!4m7!3m6!1s0x40b35f8ffc1bf9f1:0x943261a7275c5729!8m2!3d45.7135887!4d25.7812107!16s%2Fg%2F11zk96v9g!19sChIJ8fkb_I9fs0ARKVdcJ6dhMpQ?authuser=0&hl=tr&rclk=1",
    "website_url": "",
    "rating_text": "3,3",
    "stars": null,
    "number_of_reviews": null,
    "price_level": "",
    "open_hours": "",
    "extraction_timestamp": "2025-06-07T18:22:47.472Z",
    "source_name": "google",
    "source_query": "Irrigation Equipment",
    "source_country": "RO",
    "country": "Romania",
    "state": "Brașov County",
    "city": "Comuna Prejmer"
  },
  {
    "source_id": "ChIJnzvSR41fs0ARouvXZ8l6Mns",
    "name": "Livant Auto S.R.L.",
    "category": "Livant Auto S.R.L.",
    "formatted_address": "4,7(77)",
    "phone_number": "+40746420823",
    "source_url": "https://www.google.com/maps/place/Livant+Auto+S.R.L./data=!4m7!3m6!1s0x40b35f8d47d23b9f:0x7b327ac967d7eba2!8m2!3d45.7136611!4d25.7822532!16s%2Fg%2F11f54svwmd!19sChIJnzvSR41fs0ARouvXZ8l6Mns?authuser=0&hl=tr&rclk=1",
    "website_url": "",
    "rating_text": "4,7",
    "stars": null,
    "number_of_reviews": null,
    "price_level": "",
    "open_hours": "",
    "extraction_timestamp": "2025-06-07T18:22:47.473Z",
    "source_name": "google",
    "source_query": "Irrigation Equipment",
    "source_country": "RO",
    "country": "Romania",
    "state": "Brașov County",
    "city": "Comuna Prejmer"
  },
  {
    "source_id": "ChIJI4-XGJ9fs0ARUpoHn5KJEKE",
    "name": "Mepro Utilaje",
    "category": "Mepro Utilaje",
    "formatted_address": "5,0(8)",
    "phone_number": "+40268549038",
    "source_url": "https://www.google.com/maps/place/Mepro+Utilaje/data=!4m7!3m6!1s0x40b35f9f18978f23:0xa11089929f079a52!8m2!3d45.7168541!4d25.7433852!16s%2Fg%2F11cmn063z6!19sChIJI4-XGJ9fs0ARUpoHn5KJEKE?authuser=0&hl=tr&rclk=1",
    "website_url": "",
    "rating_text": "5,0",
    "stars": null,
    "number_of_reviews": null,
    "price_level": "",
    "open_hours": "",
    "extraction_timestamp": "2025-06-07T18:22:47.473Z",
    "source_name": "google",
    "source_query": "Irrigation Equipment",
    "source_country": "RO",
    "country": "Romania",
    "state": "Brașov County",
    "city": "Comuna Prejmer"
  },
  {
    "source_id": "ChIJb966q0xfs0AROZbQ9k5guAM",
    "name": "Mizerii Hidrosal",
    "category": "Mizerii Hidrosal",
    "formatted_address": "1,0(4)",
    "phone_number": "+40268362941",
    "source_url": "https://www.google.com/maps/place/Mizerii+Hidrosal/data=!4m7!3m6!1s0x40b35f4cabbade6f:0x3b8604ef6d09639!8m2!3d45.6999404!4d25.7775981!16s%2Fg%2F11hf91pp2_!19sChIJb966q0xfs0AROZbQ9k5guAM?authuser=0&hl=tr&rclk=1",
    "website_url": "",
    "rating_text": "1,0",
    "stars": null,
    "number_of_reviews": null,
    "price_level": "",
    "open_hours": "",
    "extraction_timestamp": "2025-06-07T18:22:47.473Z",
    "source_name": "google",
    "source_query": "Irrigation Equipment",
    "source_country": "RO",
    "country": "Romania",
    "state": "Brașov County",
    "city": "Comuna Prejmer"
  },
  {
    "source_id": "ChIJiYrW93hcs0ARpKmOIL1sTuI",
    "name": "Valinst Agriculture",
    "category": "Valinst Agriculture",
    "formatted_address": "5,0(1)",
    "phone_number": "+40730330543",
    "source_url": "https://www.google.com/maps/place/Valinst+Agriculture/data=!4m7!3m6!1s0x40b35c78f7d68a89:0xe24e6cbd208ea9a4!8m2!3d45.6527567!4d25.6143965!16s%2Fg%2F11hf04lgwp!19sChIJiYrW93hcs0ARpKmOIL1sTuI?authuser=0&hl=tr&rclk=1",
    "website_url": "",
    "rating_text": "5,0",
    "stars": null,
    "number_of_reviews": null,
    "price_level": "",
    "open_hours": "",
    "extraction_timestamp": "2025-06-07T18:22:47.474Z",
    "source_name": "google",
    "source_query": "Irrigation Equipment",
    "source_country": "RO",
    "country": "Romania",
    "state": "Brașov County",
    "city": "Comuna Prejmer"
  },
  {
    "source_id": "ChIJxTlzQ25cs0ARbRRg7VLrKPw",
    "name": "Instal generation",
    "category": "Instal generation",
    "formatted_address": "5,0(5)",
    "phone_number": "+40745189529",
    "source_url": "https://www.google.com/maps/place/Instal+generation/data=!4m7!3m6!1s0x40b35c6e437339c5:0xfc28eb52ed60146d!8m2!3d45.6541089!4d25.63197!16s%2Fg%2F11flzgjjqz!19sChIJxTlzQ25cs0ARbRRg7VLrKPw?authuser=0&hl=tr&rclk=1",
    "website_url": "",
    "rating_text": "5,0",
    "stars": null,
    "number_of_reviews": null,
    "price_level": "",
    "open_hours": "",
    "extraction_timestamp": "2025-06-07T18:22:47.474Z",
    "source_name": "google",
    "source_query": "Irrigation Equipment",
    "source_country": "RO",
    "country": "Romania",
    "state": "Brașov County",
    "city": "Comuna Prejmer"
  },
  {
    "source_id": "ChIJ75U28UJcs0ARn5rOXEMHehs",
    "name": "Romradiatoare",
    "category": "Romradiatoare",
    "formatted_address": "4,6(17)",
    "phone_number": "+40268317550",
    "source_url": "https://www.google.com/maps/place/Romradiatoare/data=!4m7!3m6!1s0x40b35c42f13695ef:0x1b7a07435cce9a9f!8m2!3d45.6505059!4d25.6439921!16s%2Fg%2F1tfz_l60!19sChIJ75U28UJcs0ARn5rOXEMHehs?authuser=0&hl=tr&rclk=1",
    "website_url": "",
    "rating_text": "4,6",
    "stars": null,
    "number_of_reviews": null,
    "price_level": "",
    "open_hours": "",
    "extraction_timestamp": "2025-06-07T18:22:47.474Z",
    "source_name": "google",
    "source_query": "Irrigation Equipment",
    "source_country": "RO",
    "country": "Romania",
    "state": "Brașov County",
    "city": "Comuna Prejmer"
  },
  {
    "source_id": "ChIJp-6YEEpfs0ARo2FvFTfZpF0",
    "name": "Kloer Team SRL - TUBULATURA BRASOV",
    "category": "Kloer Team SRL - TUBULATURA BRASOV",
    "formatted_address": "",
    "phone_number": "+40736922357",
    "source_url": "https://www.google.com/maps/place/Kloer+Team+SRL+-+TUBULATURA+BRASOV/data=!4m7!3m6!1s0x40b35f4a1098eea7:0x5da4d937156f61a3!8m2!3d45.7244593!4d25.7857139!16s%2Fg%2F11hkkvvk2w!19sChIJp-6YEEpfs0ARo2FvFTfZpF0?authuser=0&hl=tr&rclk=1",
    "website_url": "",
    "rating_text": "",
    "stars": null,
    "number_of_reviews": null,
    "price_level": "",
    "open_hours": "",
    "extraction_timestamp": "2025-06-07T18:22:47.475Z",
    "source_name": "google",
    "source_query": "Irrigation Equipment",
    "source_country": "RO",
    "country": "Romania",
    "state": "Brașov County",
    "city": "Comuna Prejmer"
  },
  {
    "source_id": "ChIJxYdTMgJfs0ARvX6go0lRt74",
    "name": "La Petre Macelarul",
    "category": "La Petre Macelarul",
    "formatted_address": "4,6(165)",
    "phone_number": "+40745893035",
    "source_url": "https://www.google.com/maps/place/La+Petre+Macelarul/data=!4m7!3m6!1s0x40b35f02325387c5:0xbeb75149a3a07ebd!8m2!3d45.7186436!4d25.770981!16s%2Fg%2F11hdp8kqhc!19sChIJxYdTMgJfs0ARvX6go0lRt74?authuser=0&hl=tr&rclk=1",
    "website_url": "",
    "rating_text": "4,6",
    "stars": null,
    "number_of_reviews": null,
    "price_level": "",
    "open_hours": "",
    "extraction_timestamp": "2025-06-07T18:22:47.475Z",
    "source_name": "google",
    "source_query": "Irrigation Equipment",
    "source_country": "RO",
    "country": "Romania",
    "state": "Brașov County",
    "city": "Comuna Prejmer"
  },
  {
    "source_id": "ChIJadkch41fs0ARuwmAZn8-YOM",
    "name": "LaDoiPasi",
    "category": "LaDoiPasi",
    "formatted_address": "4,0(129)",
    "phone_number": "+40374072072",
    "source_url": "https://www.google.com/maps/place/LaDoiPasi/data=!4m7!3m6!1s0x40b35f8d871cd969:0xe3603e7f668009bb!8m2!3d45.7193373!4d25.7672006!16s%2Fg%2F11cs1w5r38!19sChIJadkch41fs0ARuwmAZn8-YOM?authuser=0&hl=tr&rclk=1",
    "website_url": "",
    "rating_text": "4,0",
    "stars": null,
    "number_of_reviews": null,
    "price_level": "",
    "open_hours": "",
    "extraction_timestamp": "2025-06-07T18:22:47.475Z",
    "source_name": "google",
    "source_query": "Irrigation Equipment",
    "source_country": "RO",
    "country": "Romania",
    "state": "Brașov County",
    "city": "Comuna Prejmer"
  },
  {
    "source_id": "ChIJe_tU3Bhbs0ARYNkGVHO5YKE",
    "name": "HIDROstore Brașov",
    "category": "HIDROstore Brașov",
    "formatted_address": "5,0(13)",
    "phone_number": "+40771576228",
    "source_url": "https://www.google.com/maps/place/HIDROstore+Bra%C8%99ov/data=!4m7!3m6!1s0x40b35b18dc54fb7b:0xa160b9735406d960!8m2!3d45.6734944!4d25.5800351!16s%2Fg%2F11w8pn_mjw!19sChIJe_tU3Bhbs0ARYNkGVHO5YKE?authuser=0&hl=tr&rclk=1",
    "website_url": "",
    "rating_text": "5,0",
    "stars": null,
    "number_of_reviews": null,
    "price_level": "",
    "open_hours": "",
    "extraction_timestamp": "2025-06-07T18:22:47.476Z",
    "source_name": "google",
    "source_query": "Irrigation Equipment",
    "source_country": "RO",
    "country": "Romania",
    "state": "Brașov County",
    "city": "Comuna Prejmer"
  },
  {
    "source_id": "ChIJkbRp83dfs0ARj4lDdL0tHMY",
    "name": "Profi Super",
    "category": "Profi Super",
    "formatted_address": "3,7(419)",
    "phone_number": "+40725535926",
    "source_url": "https://www.google.com/maps/place/Profi+Super/data=!4m7!3m6!1s0x40b35f77f369b491:0xc61c2dbd7443898f!8m2!3d45.7192504!4d25.7741266!16s%2Fg%2F11ry9g8sjb!19sChIJkbRp83dfs0ARj4lDdL0tHMY?authuser=0&hl=tr&rclk=1",
    "website_url": "",
    "rating_text": "3,7",
    "stars": null,
    "number_of_reviews": null,
    "price_level": "",
    "open_hours": "",
    "extraction_timestamp": "2025-06-07T18:22:47.476Z",
    "source_name": "google",
    "source_query": "Irrigation Equipment",
    "source_country": "RO",
    "country": "Romania",
    "state": "Brașov County",
    "city": "Comuna Prejmer"
  },
  {
    "source_id": "ChIJW8BeoIpfs0ARWMxPD9Ip91M",
    "name": "LaDoiPasi",
    "category": "LaDoiPasi",
    "formatted_address": "3,7(55)",
    "phone_number": "+40740063255",
    "source_url": "https://www.google.com/maps/place/LaDoiPasi/data=!4m7!3m6!1s0x40b35f8aa05ec05b:0x53f729d20f4fcc58!8m2!3d45.7267187!4d25.7773772!16s%2Fg%2F11c1rfzh07!19sChIJW8BeoIpfs0ARWMxPD9Ip91M?authuser=0&hl=tr&rclk=1",
    "website_url": "",
    "rating_text": "3,7",
    "stars": null,
    "number_of_reviews": null,
    "price_level": "",
    "open_hours": "",
    "extraction_timestamp": "2025-06-07T18:22:47.476Z",
    "source_name": "google",
    "source_query": "Irrigation Equipment",
    "source_country": "RO",
    "country": "Romania",
    "state": "Brașov County",
    "city": "Comuna Prejmer"
  },
  {
    "source_id": "ChIJM6mAOPhfs0ARKwz3CKogCHE",
    "name": "PENNY",
    "category": "PENNY",
    "formatted_address": "4,4(165)",
    "phone_number": "+40800110111",
    "source_url": "https://www.google.com/maps/place/PENNY/data=!4m7!3m6!1s0x40b35ff83880a933:0x710820aa08f70c2b!8m2!3d45.7180151!4d25.7629232!16s%2Fg%2F11rmymmy0k!19sChIJM6mAOPhfs0ARKwz3CKogCHE?authuser=0&hl=tr&rclk=1",
    "website_url": "",
    "rating_text": "4,4",
    "stars": null,
    "number_of_reviews": null,
    "price_level": "",
    "open_hours": "",
    "extraction_timestamp": "2025-06-07T18:22:47.477Z",
    "source_name": "google",
    "source_query": "Irrigation Equipment",
    "source_country": "RO",
    "country": "Romania",
    "state": "Brașov County",
    "city": "Comuna Prejmer"
  },
  {
    "source_id": "ChIJDQSHYJ9fs0AR_d9CD8WRfHo",
    "name": "Carrefour",
    "category": "Carrefour",
    "formatted_address": "4,6(16)",
    "phone_number": "",
    "source_url": "https://www.google.com/maps/place/Carrefour/data=!4m7!3m6!1s0x40b35f9f6087040d:0x7a7c91c50f42dffd!8m2!3d45.7212055!4d25.7721596!16s%2Fg%2F11s38lkl5q!19sChIJDQSHYJ9fs0AR_d9CD8WRfHo?authuser=0&hl=tr&rclk=1",
    "website_url": "",
    "rating_text": "4,6",
    "stars": null,
    "number_of_reviews": null,
    "price_level": "",
    "open_hours": "",
    "extraction_timestamp": "2025-06-07T18:22:47.505Z",
    "source_name": "google",
    "source_query": "Irrigation Equipment",
    "source_country": "RO",
    "country": "Romania",
    "state": "Brașov County",
    "city": "Comuna Prejmer"
  }
]
