[
  {
    "source_id": "ChIJaQzqLmZcs0ARU6r3VaUK6iE",
    "name": "AKRO S.R.L.",
    "category": "AKRO S.R.L.",
    "formatted_address": "4,7(13)",
    "phone_number": "+40268413180",
    "source_url": "https://www.google.com/maps/place/AKRO+S.R.L./data=!4m7!3m6!1s0x40b35c662eea0c69:0x21ea0aa555f7aa53!8m2!3d45.6485042!4d25.6406578!16s%2Fg%2F1hc250gs3!19sChIJaQzqLmZcs0ARU6r3VaUK6iE?authuser=0&hl=tr&rclk=1",
    "website_url": "https://www.akro.ro/",
    "rating_text": "4,7",
    "stars": null,
    "number_of_reviews": null,
    "price_level": "",
    "open_hours": "",
    "extraction_timestamp": "2025-06-08T02:44:06.976Z",
    "source_name": "google",
    "source_query": "Irrigation Equipment",
    "source_country": "RO",
    "country": "Romania",
    "state": "Brașov County",
    "city": "Comuna Şoarş"
  },
  {
    "source_id": "ChIJxTlzQ25cs0ARbRRg7VLrKPw",
    "name": "Instal generation",
    "category": "Instal generation",
    "formatted_address": "5,0(5)",
    "phone_number": "+40745189529",
    "source_url": "https://www.google.com/maps/place/Instal+generation/data=!4m7!3m6!1s0x40b35c6e437339c5:0xfc28eb52ed60146d!8m2!3d45.6541089!4d25.63197!16s%2Fg%2F11flzgjjqz!19sChIJxTlzQ25cs0ARbRRg7VLrKPw?authuser=0&hl=tr&rclk=1",
    "website_url": "http://www.instalgeneration.ro/",
    "rating_text": "5,0",
    "stars": null,
    "number_of_reviews": null,
    "price_level": "",
    "open_hours": "",
    "extraction_timestamp": "2025-06-08T02:44:06.978Z",
    "source_name": "google",
    "source_query": "Irrigation Equipment",
    "source_country": "RO",
    "country": "Romania",
    "state": "Brașov County",
    "city": "Comuna Şoarş"
  },
  {
    "source_id": "ChIJSc52LPpds0ARRn6D2MxGEP4",
    "name": "Krongrass Equipment",
    "category": "Krongrass Equipment",
    "formatted_address": "5,0(2)",
    "phone_number": "+40744565495",
    "source_url": "https://www.google.com/maps/place/Krongrass+Equipment/data=!4m7!3m6!1s0x40b35dfa2c76ce49:0xfe1046ccd8837e46!8m2!3d45.6466883!4d25.6378089!16s%2Fg%2F11kj0x16vd!19sChIJSc52LPpds0ARRn6D2MxGEP4?authuser=0&hl=tr&rclk=1",
    "website_url": "http://www.spider-cositoare.com/",
    "rating_text": "5,0",
    "stars": null,
    "number_of_reviews": null,
    "price_level": "",
    "open_hours": "",
    "extraction_timestamp": "2025-06-08T02:44:06.980Z",
    "source_name": "google",
    "source_query": "Irrigation Equipment",
    "source_country": "RO",
    "country": "Romania",
    "state": "Brașov County",
    "city": "Comuna Şoarş"
  },
  {
    "source_id": "ChIJiYrW93hcs0ARpKmOIL1sTuI",
    "name": "Valinst Agriculture",
    "category": "Valinst Agriculture",
    "formatted_address": "5,0(1)",
    "phone_number": "+40730330543",
    "source_url": "https://www.google.com/maps/place/Valinst+Agriculture/data=!4m7!3m6!1s0x40b35c78f7d68a89:0xe24e6cbd208ea9a4!8m2!3d45.6527567!4d25.6143965!16s%2Fg%2F11hf04lgwp!19sChIJiYrW93hcs0ARpKmOIL1sTuI?authuser=0&hl=tr&rclk=1",
    "website_url": "http://www.valinst.ro/en/contact",
    "rating_text": "5,0",
    "stars": null,
    "number_of_reviews": null,
    "price_level": "",
    "open_hours": "",
    "extraction_timestamp": "2025-06-08T02:44:06.981Z",
    "source_name": "google",
    "source_query": "Irrigation Equipment",
    "source_country": "RO",
    "country": "Romania",
    "state": "Brașov County",
    "city": "Comuna Şoarş"
  },
  {
    "source_id": "ChIJE3GIErNz2GIRnMvSnu8JXWQ",
    "name": "Landscaping company",
    "category": "Landscaping company",
    "formatted_address": "4,9(30)",
    "phone_number": "+40755652974",
    "source_url": "https://www.google.com/maps/place/Landscaping+company/data=!4m7!3m6!1s0x62d873b312887113:0x645d09ef9ed2cb9c!8m2!3d45.6928902!4d25.6184328!16s%2Fg%2F11rqs5xt47!19sChIJE3GIErNz2GIRnMvSnu8JXWQ?authuser=0&hl=tr&rclk=1",
    "website_url": "",
    "rating_text": "4,9",
    "stars": null,
    "number_of_reviews": null,
    "price_level": "",
    "open_hours": "",
    "extraction_timestamp": "2025-06-08T02:44:06.982Z",
    "source_name": "google",
    "source_query": "Irrigation Equipment",
    "source_country": "RO",
    "country": "Romania",
    "state": "Brașov County",
    "city": "Comuna Şoarş"
  },
  {
    "source_id": "ChIJ4zH6oB8CskAR3SoNffoOeks",
    "name": "NETAFIM powered by EPRS ROMANIA",
    "category": "NETAFIM powered by EPRS ROMANIA",
    "formatted_address": "4,8(10)",
    "phone_number": "+40213186990",
    "source_url": "https://www.google.com/maps/place/NETAFIM+powered+by+EPRS+ROMANIA/data=!4m7!3m6!1s0x40b2021fa0fa31e3:0x4b7a0efa7d0d2add!8m2!3d44.5459307!4d26.0904009!16s%2Fg%2F1hc20xyql!19sChIJ4zH6oB8CskAR3SoNffoOeks?authuser=0&hl=tr&rclk=1",
    "website_url": "http://www.netafim.com.ro/",
    "rating_text": "4,8",
    "stars": null,
    "number_of_reviews": null,
    "price_level": "",
    "open_hours": "",
    "extraction_timestamp": "2025-06-08T02:44:06.984Z",
    "source_name": "google",
    "source_query": "Irrigation Equipment",
    "source_country": "RO",
    "country": "Romania",
    "state": "Brașov County",
    "city": "Comuna Şoarş"
  },
  {
    "source_id": "ChIJMev0eOdZs0ARMeiqaeoGQjs",
    "name": "Verificare Sistem de Avertizare la Incendiu",
    "category": "Verificare Sistem de Avertizare la Incendiu",
    "formatted_address": "5,0(1)",
    "phone_number": "+40757371244",
    "source_url": "https://www.google.com/maps/place/Verificare+Sistem+de+Avertizare+la+Incendiu/data=!4m7!3m6!1s0x40b359e778f4eb31:0x3b4206ea69aae831!8m2!3d45.7158082!4d25.5883415!16s%2Fg%2F11n82qz9h8!19sChIJMev0eOdZs0ARMeiqaeoGQjs?authuser=0&hl=tr&rclk=1",
    "website_url": "https://sistemavertizareincendiu.ro/",
    "rating_text": "5,0",
    "stars": null,
    "number_of_reviews": null,
    "price_level": "",
    "open_hours": "",
    "extraction_timestamp": "2025-06-08T02:44:06.985Z",
    "source_name": "google",
    "source_query": "Irrigation Equipment",
    "source_country": "RO",
    "country": "Romania",
    "state": "Brașov County",
    "city": "Comuna Şoarş"
  },
  {
    "source_id": "ChIJ75U28UJcs0ARn5rOXEMHehs",
    "name": "Romradiatoare",
    "category": "Romradiatoare",
    "formatted_address": "4,6(17)",
    "phone_number": "+40268317550",
    "source_url": "https://www.google.com/maps/place/Romradiatoare/data=!4m7!3m6!1s0x40b35c42f13695ef:0x1b7a07435cce9a9f!8m2!3d45.6505059!4d25.6439921!16s%2Fg%2F1tfz_l60!19sChIJ75U28UJcs0ARn5rOXEMHehs?authuser=0&hl=tr&rclk=1",
    "website_url": "http://www.romradiatoare.com/",
    "rating_text": "4,6",
    "stars": null,
    "number_of_reviews": null,
    "price_level": "",
    "open_hours": "",
    "extraction_timestamp": "2025-06-08T02:44:06.986Z",
    "source_name": "google",
    "source_query": "Irrigation Equipment",
    "source_country": "RO",
    "country": "Romania",
    "state": "Brașov County",
    "city": "Comuna Şoarş"
  },
  {
    "source_id": "ChIJ_XZ8Tp1bs0ARaWS3dAp1zcs",
    "name": "Water Management System Brasov",
    "category": "Water Management System Brasov",
    "formatted_address": "4,2(5)",
    "phone_number": "+40268412277",
    "source_url": "https://www.google.com/maps/place/Water+Management+System+Brasov/data=!4m7!3m6!1s0x40b35b9d4e7c76fd:0xcbcd750a74b76469!8m2!3d45.6504956!4d25.5934896!16s%2Fg%2F1pp2tzrcr!19sChIJ_XZ8Tp1bs0ARaWS3dAp1zcs?authuser=0&hl=tr&rclk=1",
    "website_url": "",
    "rating_text": "4,2",
    "stars": null,
    "number_of_reviews": null,
    "price_level": "",
    "open_hours": "",
    "extraction_timestamp": "2025-06-08T02:44:06.988Z",
    "source_name": "google",
    "source_query": "Irrigation Equipment",
    "source_country": "RO",
    "country": "Romania",
    "state": "Brașov County",
    "city": "Comuna Şoarş"
  },
  {
    "source_id": "ChIJe_tU3Bhbs0ARYNkGVHO5YKE",
    "name": "HIDROstore Brașov",
    "category": "HIDROstore Brașov",
    "formatted_address": "5,0(13)",
    "phone_number": "+40771576228",
    "source_url": "https://www.google.com/maps/place/HIDROstore+Bra%C8%99ov/data=!4m7!3m6!1s0x40b35b18dc54fb7b:0xa160b9735406d960!8m2!3d45.6734944!4d25.5800351!16s%2Fg%2F11w8pn_mjw!19sChIJe_tU3Bhbs0ARYNkGVHO5YKE?authuser=0&hl=tr&rclk=1",
    "website_url": "https://hidrostore.ro/brasov",
    "rating_text": "5,0",
    "stars": null,
    "number_of_reviews": null,
    "price_level": "",
    "open_hours": "",
    "extraction_timestamp": "2025-06-08T02:44:06.989Z",
    "source_name": "google",
    "source_query": "Irrigation Equipment",
    "source_country": "RO",
    "country": "Romania",
    "state": "Brașov County",
    "city": "Comuna Şoarş"
  },
  {
    "source_id": "ChIJCQayaPpbs0ARhf_zEF9vwQg",
    "name": "SC Agri Sigeva SRL",
    "category": "SC Agri Sigeva SRL",
    "formatted_address": "5,0(2)",
    "phone_number": "+40722529586",
    "source_url": "https://www.google.com/maps/place/SC+Agri+Sigeva+SRL/data=!4m7!3m6!1s0x40b35bfa68b20609:0x8c16f5f10f3ff85!8m2!3d45.6744327!4d25.621811!16s%2Fg%2F1pztj9780!19sChIJCQayaPpbs0ARhf_zEF9vwQg?authuser=0&hl=tr&rclk=1",
    "website_url": "",
    "rating_text": "5,0",
    "stars": null,
    "number_of_reviews": null,
    "price_level": "",
    "open_hours": "",
    "extraction_timestamp": "2025-06-08T02:44:06.991Z",
    "source_name": "google",
    "source_query": "Irrigation Equipment",
    "source_country": "RO",
    "country": "Romania",
    "state": "Brașov County",
    "city": "Comuna Şoarş"
  },
  {
    "source_id": "ChIJ4ZZDEYhcs0ARo-l6WqHusqo",
    "name": "Dumian S.R.L.",
    "category": "Dumian S.R.L.",
    "formatted_address": "2,7(3)",
    "phone_number": "+40268318688",
    "source_url": "https://www.google.com/maps/place/Dumian+S.R.L./data=!4m7!3m6!1s0x40b35c88114396e1:0xaab2eea15a7ae9a3!8m2!3d45.6426687!4d25.6194748!16s%2Fg%2F1hc4h4xr9!19sChIJ4ZZDEYhcs0ARo-l6WqHusqo?authuser=0&hl=tr&rclk=1",
    "website_url": "https://www.listafirme.ro/dumian-srl-1095718/",
    "rating_text": "2,7",
    "stars": null,
    "number_of_reviews": null,
    "price_level": "",
    "open_hours": "",
    "extraction_timestamp": "2025-06-08T02:44:06.993Z",
    "source_name": "google",
    "source_query": "Irrigation Equipment",
    "source_country": "RO",
    "country": "Romania",
    "state": "Brașov County",
    "city": "Comuna Şoarş"
  },
  {
    "source_id": "ChIJIwAAwDbgs0ARaUsylN1Bd9k",
    "name": "Garden Systeme SRL",
    "category": "Garden Systeme SRL",
    "formatted_address": "4,0(9)",
    "phone_number": "+40744378400",
    "source_url": "https://www.google.com/maps/place/Garden+Systeme+SRL/data=!4m7!3m6!1s0x40b3e036c0000023:0xd97741dd94324b69!8m2!3d45.2406204!4d26.875743!16s%2Fg%2F11bytw4426!19sChIJIwAAwDbgs0ARaUsylN1Bd9k?authuser=0&hl=tr&rclk=1",
    "website_url": "https://gardensysteme.ro/",
    "rating_text": "4,0",
    "stars": null,
    "number_of_reviews": null,
    "price_level": "",
    "open_hours": "",
    "extraction_timestamp": "2025-06-08T02:44:06.994Z",
    "source_name": "google",
    "source_query": "Irrigation Equipment",
    "source_country": "RO",
    "country": "Romania",
    "state": "Brașov County",
    "city": "Comuna Şoarş"
  },
  {
    "source_id": "ChIJcVPq0H5cs0ARLGLKYvogpcE",
    "name": "Aqua S.R.L.",
    "category": "Aqua S.R.L.",
    "formatted_address": "",
    "phone_number": "+40268330708",
    "source_url": "https://www.google.com/maps/place/Aqua+S.R.L./data=!4m7!3m6!1s0x40b35c7ed0ea5371:0xc1a520fa62ca622c!8m2!3d45.6502945!4d25.6129728!16s%2Fg%2F1hc0xlv74!19sChIJcVPq0H5cs0ARLGLKYvogpcE?authuser=0&hl=tr&rclk=1",
    "website_url": "http://www.aqua-brasov.ro/",
    "rating_text": "",
    "stars": null,
    "number_of_reviews": null,
    "price_level": "",
    "open_hours": "",
    "extraction_timestamp": "2025-06-08T02:44:06.995Z",
    "source_name": "google",
    "source_query": "Irrigation Equipment",
    "source_country": "RO",
    "country": "Romania",
    "state": "Brașov County",
    "city": "Comuna Şoarş"
  },
  {
    "source_id": "ChIJkwM39ERZs0ARdR7paBiBcDo",
    "name": "Gradina din Brasov - Rasaduri si Legume",
    "category": "Gradina din Brasov - Rasaduri si Legume",
    "formatted_address": "5,0(6)",
    "phone_number": "+40752931213",
    "source_url": "https://www.google.com/maps/place/Gradina+din+Brasov+-+Rasaduri+si+Legume/data=!4m7!3m6!1s0x40b35944f4370393:0x3a70811868e91e75!8m2!3d45.703722!4d25.5797822!16s%2Fg%2F11pvbhdhtq!19sChIJkwM39ERZs0ARdR7paBiBcDo?authuser=0&hl=tr&rclk=1",
    "website_url": "https://www.facebook.com/gradinadinbrasov",
    "rating_text": "5,0",
    "stars": null,
    "number_of_reviews": null,
    "price_level": "",
    "open_hours": "",
    "extraction_timestamp": "2025-06-08T02:44:06.997Z",
    "source_name": "google",
    "source_query": "Irrigation Equipment",
    "source_country": "RO",
    "country": "Romania",
    "state": "Brașov County",
    "city": "Comuna Şoarş"
  },
  {
    "source_id": "ChIJIRizmb6ltEARI_X5LQ-bvdY",
    "name": "Na.. SRL",
    "category": "Na.. SRL",
    "formatted_address": "",
    "phone_number": "+40730691620",
    "source_url": "https://www.google.com/maps/place/Na..+SRL/data=!4m7!3m6!1s0x40b4a5be99b31821:0xd6bd9b0f2df9f523!8m2!3d45.8665611!4d25.7716641!16s%2Fg%2F11j33l041b!19sChIJIRizmb6ltEARI_X5LQ-bvdY?authuser=0&hl=tr&rclk=1",
    "website_url": "",
    "rating_text": "",
    "stars": null,
    "number_of_reviews": null,
    "price_level": "",
    "open_hours": "",
    "extraction_timestamp": "2025-06-08T02:44:07.017Z",
    "source_name": "google",
    "source_query": "Irrigation Equipment",
    "source_country": "RO",
    "country": "Romania",
    "state": "Brașov County",
    "city": "Comuna Şoarş"
  }
]
