[
  {
    "source_id": "ChIJe2lHaKdHs0AR_V2QeYymkY4",
    "name": "Romstal",
    "category": "Romstal",
    "formatted_address": "5,0(44)",
    "phone_number": "+40372123182",
    "source_url": "https://www.google.com/maps/place/Romstal/data=!4m7!3m6!1s0x40b347a76847697b:0x8e91a68c79905dfd!8m2!3d45.5415116!4d25.3794315!16s%2Fg%2F11ldk75bp8!19sChIJe2lHaKdHs0AR_V2QeYymkY4?authuser=0&hl=tr&rclk=1",
    "website_url": "https://www.romstal.ro/",
    "rating_text": "5,0",
    "stars": null,
    "number_of_reviews": null,
    "price_level": "",
    "open_hours": "",
    "extraction_timestamp": "2025-06-07T18:13:14.526Z",
    "source_name": "google",
    "source_query": "Irrigation Equipment",
    "source_country": "RO",
    "country": "Romania",
    "state": "Brașov County",
    "city": "Comuna Moieciu"
  },
  {
    "source_id": "ChIJD7eq6NtIs0ARy5oxFsNcvNU",
    "name": "Automat pt. Băuturi Calde și Răcoritoare",
    "category": "Automat pt. Băuturi Calde și Răcoritoare",
    "formatted_address": "4,5(34)",
    "phone_number": "+40746499500",
    "source_url": "https://www.google.com/maps/place/Automat+pt.+B%C4%83uturi+Calde+%C8%99i+R%C4%83coritoare/data=!4m7!3m6!1s0x40b348dbe8aab70f:0xd5bc5cc316319acb!8m2!3d45.571792!4d25.3533381!16s%2Fg%2F11hc_0pj_l!19sChIJD7eq6NtIs0ARy5oxFsNcvNU?authuser=0&hl=tr&rclk=1",
    "website_url": "",
    "rating_text": "4,5",
    "stars": null,
    "number_of_reviews": null,
    "price_level": "",
    "open_hours": "",
    "extraction_timestamp": "2025-06-07T18:13:14.528Z",
    "source_name": "google",
    "source_query": "Irrigation Equipment",
    "source_country": "RO",
    "country": "Romania",
    "state": "Brașov County",
    "city": "Comuna Moieciu"
  },
  {
    "source_id": "ChIJhTuPd843s0ARzoHJGe6Oa8o",
    "name": "Peștera Liliecilor",
    "category": "Peștera Liliecilor",
    "formatted_address": "4,1(1.061)",
    "phone_number": "",
    "source_url": "https://www.google.com/maps/place/Pe%C8%99tera+Liliecilor/data=!4m7!3m6!1s0x40b337ce778f3b85:0xca6b8eee19c981ce!8m2!3d45.5075001!4d25.2924626!16s%2Fg%2F1229dxjl!19sChIJhTuPd843s0ARzoHJGe6Oa8o?authuser=0&hl=tr&rclk=1",
    "website_url": "",
    "rating_text": "4,1",
    "stars": null,
    "number_of_reviews": null,
    "price_level": "",
    "open_hours": "",
    "extraction_timestamp": "2025-06-07T18:13:14.551Z",
    "source_name": "google",
    "source_query": "Irrigation Equipment",
    "source_country": "RO",
    "country": "Romania",
    "state": "Brașov County",
    "city": "Comuna Moieciu"
  },
  {
    "source_id": "ChIJC54Xg-s5s0AR8MKcXver0n0",
    "name": "SuperMarket Anca",
    "category": "SuperMarket Anca",
    "formatted_address": "4,3(54)",
    "phone_number": "+40745678554",
    "source_url": "https://www.google.com/maps/place/SuperMarket+Anca/data=!4m7!3m6!1s0x40b339eb83179e0b:0x7dd2abf75e9cc2f0!8m2!3d45.4511459!4d25.3252599!16s%2Fg%2F11hywc_b92!19sChIJC54Xg-s5s0AR8MKcXver0n0?authuser=0&hl=tr&rclk=1",
    "website_url": "",
    "rating_text": "4,3",
    "stars": null,
    "number_of_reviews": null,
    "price_level": "",
    "open_hours": "",
    "extraction_timestamp": "2025-06-07T18:13:14.553Z",
    "source_name": "google",
    "source_query": "Irrigation Equipment",
    "source_country": "RO",
    "country": "Romania",
    "state": "Brașov County",
    "city": "Comuna Moieciu"
  },
  {
    "source_id": "ChIJAQ4hfvtHs0ARiB1a_-2Woik",
    "name": "EPARCBRAN - EBIKE & ESCAPE ROOM BRAN",
    "category": "EPARCBRAN - EBIKE & ESCAPE ROOM BRAN",
    "formatted_address": "5,0(67)",
    "phone_number": "+40753418268",
    "source_url": "https://www.google.com/maps/place/EPARCBRAN+-+EBIKE+%26+ESCAPE+ROOM+BRAN/data=!4m7!3m6!1s0x40b347fb7e210e01:0x29a296edff5a1d88!8m2!3d45.5246588!4d25.3995345!16s%2Fg%2F11t9h1z71y!19sChIJAQ4hfvtHs0ARiB1a_-2Woik?authuser=0&hl=tr&rclk=1",
    "website_url": "http://eparcbran.ro/",
    "rating_text": "5,0",
    "stars": null,
    "number_of_reviews": null,
    "price_level": "",
    "open_hours": "",
    "extraction_timestamp": "2025-06-07T18:13:14.555Z",
    "source_name": "google",
    "source_query": "Irrigation Equipment",
    "source_country": "RO",
    "country": "Romania",
    "state": "Brașov County",
    "city": "Comuna Moieciu"
  },
  {
    "source_id": "ChIJ-U-J8yBJs0ARlbPMbJlbrtw",
    "name": "Prăvălie Sergiana",
    "category": "Prăvălie Sergiana",
    "formatted_address": "4,4(267)",
    "phone_number": "+40368004038",
    "source_url": "https://www.google.com/maps/place/Pr%C4%83v%C4%83lie+Sergiana/data=!4m7!3m6!1s0x40b34920f3894ff9:0xdcae5b996cccb395!8m2!3d45.571399!4d25.3415644!16s%2Fg%2F1hm2150j7!19sChIJ-U-J8yBJs0ARlbPMbJlbrtw?authuser=0&hl=tr&rclk=1",
    "website_url": "http://www.sergianagrup.ro/",
    "rating_text": "4,4",
    "stars": null,
    "number_of_reviews": null,
    "price_level": "",
    "open_hours": "",
    "extraction_timestamp": "2025-06-07T18:13:14.556Z",
    "source_name": "google",
    "source_query": "Irrigation Equipment",
    "source_country": "RO",
    "country": "Romania",
    "state": "Brașov County",
    "city": "Comuna Moieciu"
  },
  {
    "source_id": "ChIJ-cNgPhs5s0ARfSdO6YEtnC4",
    "name": "Popasul Fundata SRL",
    "category": "Popasul Fundata SRL",
    "formatted_address": "4,7(74)",
    "phone_number": "+40758511483",
    "source_url": "https://www.google.com/maps/place/Popasul+Fundata+SRL/data=!4m7!3m6!1s0x40b3391b3e60c3f9:0x2e9c2d81e94e277d!8m2!3d45.4385836!4d25.3071634!16s%2Fg%2F11hdwg_cpf!19sChIJ-cNgPhs5s0ARfSdO6YEtnC4?authuser=0&hl=tr&rclk=1",
    "website_url": "",
    "rating_text": "4,7",
    "stars": null,
    "number_of_reviews": null,
    "price_level": "",
    "open_hours": "",
    "extraction_timestamp": "2025-06-07T18:13:14.558Z",
    "source_name": "google",
    "source_query": "Irrigation Equipment",
    "source_country": "RO",
    "country": "Romania",
    "state": "Brașov County",
    "city": "Comuna Moieciu"
  },
  {
    "source_id": "ChIJWxUj_o85s0ARvKyarW2zqWU",
    "name": "Magazin Mixt Angelica",
    "category": "Magazin Mixt Angelica",
    "formatted_address": "3,1(25)",
    "phone_number": "+40740972681",
    "source_url": "https://www.google.com/maps/place/Magazin+Mixt+Angelica/data=!4m7!3m6!1s0x40b3398ffe23155b:0x65a9b36dad9aacbc!8m2!3d45.4439544!4d25.3301832!16s%2Fg%2F11g2wg9sy6!19sChIJWxUj_o85s0ARvKyarW2zqWU?authuser=0&hl=tr&rclk=1",
    "website_url": "",
    "rating_text": "3,1",
    "stars": null,
    "number_of_reviews": null,
    "price_level": "",
    "open_hours": "",
    "extraction_timestamp": "2025-06-07T18:13:14.559Z",
    "source_name": "google",
    "source_query": "Irrigation Equipment",
    "source_country": "RO",
    "country": "Romania",
    "state": "Brașov County",
    "city": "Comuna Moieciu"
  },
  {
    "source_id": "ChIJVUTNo19Js0ARUbJ8t7-npDg",
    "name": "REAL LIQUOR Store",
    "category": "REAL LIQUOR Store",
    "formatted_address": "4,9(17)",
    "phone_number": "+40744806179",
    "source_url": "https://www.google.com/maps/place/REAL+LIQUOR+Store/data=!4m7!3m6!1s0x40b3495fa3cd4455:0x38a4a7bfb77cb251!8m2!3d45.5085846!4d25.3436802!16s%2Fg%2F11sgr2qc5l!19sChIJVUTNo19Js0ARUbJ8t7-npDg?authuser=0&hl=tr&rclk=1",
    "website_url": "http://www.realliquor.ro/",
    "rating_text": "4,9",
    "stars": null,
    "number_of_reviews": null,
    "price_level": "",
    "open_hours": "",
    "extraction_timestamp": "2025-06-07T18:13:14.561Z",
    "source_name": "google",
    "source_query": "Irrigation Equipment",
    "source_country": "RO",
    "country": "Romania",
    "state": "Brașov County",
    "city": "Comuna Moieciu"
  },
  {
    "source_id": "ChIJs7-xBFE3s0AROr_6DozUwPg",
    "name": "La Doi Pași",
    "category": "La Doi Pași",
    "formatted_address": "3,6(13)",
    "phone_number": "",
    "source_url": "https://www.google.com/maps/place/La+Doi+Pa%C8%99i/data=!4m7!3m6!1s0x40b3375104b1bfb3:0xf8c0d48c0efabf3a!8m2!3d45.5029849!4d25.3359816!16s%2Fg%2F11rmx67gdb!19sChIJs7-xBFE3s0AROr_6DozUwPg?authuser=0&hl=tr&rclk=1",
    "website_url": "",
    "rating_text": "3,6",
    "stars": null,
    "number_of_reviews": null,
    "price_level": "",
    "open_hours": "",
    "extraction_timestamp": "2025-06-07T18:13:14.562Z",
    "source_name": "google",
    "source_query": "Irrigation Equipment",
    "source_country": "RO",
    "country": "Romania",
    "state": "Brașov County",
    "city": "Comuna Moieciu"
  },
  {
    "source_id": "ChIJiz-B0AFIs0ARm_ShYjUm2rw",
    "name": "Market Hîncu",
    "category": "Market Hîncu",
    "formatted_address": "4,1(163)",
    "phone_number": "",
    "source_url": "https://www.google.com/maps/place/Market+H%C3%AEncu/data=!4m7!3m6!1s0x40b34801d0813f8b:0xbcda263562a1f49b!8m2!3d45.5084319!4d25.3427021!16s%2Fg%2F11g69x2bc3!19sChIJiz-B0AFIs0ARm_ShYjUm2rw?authuser=0&hl=tr&rclk=1",
    "website_url": "",
    "rating_text": "4,1",
    "stars": null,
    "number_of_reviews": null,
    "price_level": "",
    "open_hours": "",
    "extraction_timestamp": "2025-06-07T18:13:14.562Z",
    "source_name": "google",
    "source_query": "Irrigation Equipment",
    "source_country": "RO",
    "country": "Romania",
    "state": "Brașov County",
    "city": "Comuna Moieciu"
  },
  {
    "source_id": "ChIJRyHsM5c3s0ARxx9enhnLHgE",
    "name": "Arina srl",
    "category": "Arina srl",
    "formatted_address": "4,5(2)",
    "phone_number": "",
    "source_url": "https://www.google.com/maps/place/Arina+srl/data=!4m7!3m6!1s0x40b3379733ec2147:0x11ecb199e5e1fc7!8m2!3d45.5020673!4d25.3355028!16s%2Fg%2F11h3kbcs4n!19sChIJRyHsM5c3s0ARxx9enhnLHgE?authuser=0&hl=tr&rclk=1",
    "website_url": "",
    "rating_text": "4,5",
    "stars": null,
    "number_of_reviews": null,
    "price_level": "",
    "open_hours": "",
    "extraction_timestamp": "2025-06-07T18:13:14.563Z",
    "source_name": "google",
    "source_query": "Irrigation Equipment",
    "source_country": "RO",
    "country": "Romania",
    "state": "Brașov County",
    "city": "Comuna Moieciu"
  },
  {
    "source_id": "ChIJR2j87fQ3s0ARlnLgggGFsGY",
    "name": "Mega Image Shop&Go",
    "category": "Mega Image Shop&Go",
    "formatted_address": "4,1(942)",
    "phone_number": "",
    "source_url": "https://www.google.com/maps/place/Mega+Image+Shop%26Go/data=!4m7!3m6!1s0x40b337f4edfc6847:0x66b0850182e07296!8m2!3d45.502707!4d25.3359198!16s%2Fg%2F11fzf9jcj8!19sChIJR2j87fQ3s0ARlnLgggGFsGY?authuser=0&hl=tr&rclk=1",
    "website_url": "",
    "rating_text": "4,1",
    "stars": null,
    "number_of_reviews": null,
    "price_level": "",
    "open_hours": "",
    "extraction_timestamp": "2025-06-07T18:13:14.564Z",
    "source_name": "google",
    "source_query": "Irrigation Equipment",
    "source_country": "RO",
    "country": "Romania",
    "state": "Brașov County",
    "city": "Comuna Moieciu"
  },
  {
    "source_id": "ChIJ7aKv5eVHs0AR4nMJMPNPCK4",
    "name": "Nansy",
    "category": "Nansy",
    "formatted_address": "4,3(88)",
    "phone_number": "+40754559312",
    "source_url": "https://www.google.com/maps/place/Nansy/data=!4m7!3m6!1s0x40b347e5e5afa2ed:0xae084ff3300973e2!8m2!3d45.5161473!4d25.3696111!16s%2Fg%2F1pp2tykhs!19sChIJ7aKv5eVHs0AR4nMJMPNPCK4?authuser=0&hl=tr&rclk=1",
    "website_url": "",
    "rating_text": "4,3",
    "stars": null,
    "number_of_reviews": null,
    "price_level": "",
    "open_hours": "",
    "extraction_timestamp": "2025-06-07T18:13:14.565Z",
    "source_name": "google",
    "source_query": "Irrigation Equipment",
    "source_country": "RO",
    "country": "Romania",
    "state": "Brașov County",
    "city": "Comuna Moieciu"
  },
  {
    "source_id": "ChIJo0eyewZJs0AR8XtJA8jHARw",
    "name": "Prăvălie Sergiana",
    "category": "Prăvălie Sergiana",
    "formatted_address": "4,5(161)",
    "phone_number": "+40368006612",
    "source_url": "https://www.google.com/maps/place/Pr%C4%83v%C4%83lie+Sergiana/data=!4m7!3m6!1s0x40b349067bb247a3:0x1c01c7c803497bf1!8m2!3d45.5584402!4d25.3192511!16s%2Fg%2F11df0x83hb!19sChIJo0eyewZJs0AR8XtJA8jHARw?authuser=0&hl=tr&rclk=1",
    "website_url": "https://www.sergianagrup.ro/",
    "rating_text": "4,5",
    "stars": null,
    "number_of_reviews": null,
    "price_level": "",
    "open_hours": "",
    "extraction_timestamp": "2025-06-07T18:13:14.566Z",
    "source_name": "google",
    "source_query": "Irrigation Equipment",
    "source_country": "RO",
    "country": "Romania",
    "state": "Brașov County",
    "city": "Comuna Moieciu"
  },
  {
    "source_id": "ChIJR-0gJlA3s0ARruxyWuzp7wQ",
    "name": "Market Cristina",
    "category": "Market Cristina",
    "formatted_address": "4,4(63)",
    "phone_number": "+40740035560",
    "source_url": "https://www.google.com/maps/place/Market+Cristina/data=!4m7!3m6!1s0x40b337502620ed47:0x4efe9ec5a72ecae!8m2!3d45.5027427!4d25.3359774!16s%2Fg%2F11f73z3v0s!19sChIJR-0gJlA3s0ARruxyWuzp7wQ?authuser=0&hl=tr&rclk=1",
    "website_url": "",
    "rating_text": "4,4",
    "stars": null,
    "number_of_reviews": null,
    "price_level": "",
    "open_hours": "",
    "extraction_timestamp": "2025-06-07T18:13:14.567Z",
    "source_name": "google",
    "source_query": "Irrigation Equipment",
    "source_country": "RO",
    "country": "Romania",
    "state": "Brașov County",
    "city": "Comuna Moieciu"
  },
  {
    "source_id": "ChIJrRazMHw6s0AR8WhaRBZVEYk",
    "name": "Peștera Uluce",
    "category": "Peștera Uluce",
    "formatted_address": "4,4(101)",
    "phone_number": "",
    "source_url": "https://www.google.com/maps/place/Pe%C8%99tera+Uluce/data=!4m7!3m6!1s0x40b33a7c30b316ad:0x89115516445a68f1!8m2!3d45.4093913!4d25.2633137!16s%2Fg%2F1hb_dh3wl!19sChIJrRazMHw6s0AR8WhaRBZVEYk?authuser=0&hl=tr&rclk=1",
    "website_url": "",
    "rating_text": "4,4",
    "stars": null,
    "number_of_reviews": null,
    "price_level": "",
    "open_hours": "",
    "extraction_timestamp": "2025-06-07T18:13:14.568Z",
    "source_name": "google",
    "source_query": "Irrigation Equipment",
    "source_country": "RO",
    "country": "Romania",
    "state": "Brașov County",
    "city": "Comuna Moieciu"
  },
  {
    "source_id": "ChIJbw1ozIc3s0AR-4NH_QgVTm0",
    "name": "DFG Mini Market",
    "category": "DFG Mini Market",
    "formatted_address": "3,9(115)",
    "phone_number": "+40743129733",
    "source_url": "https://www.google.com/maps/place/DFG+Mini+Market/data=!4m7!3m6!1s0x40b33787cc680d6f:0x6d4e1508fd4783fb!8m2!3d45.4824846!4d25.3194539!16s%2Fg%2F1vfp23tb!19sChIJbw1ozIc3s0AR-4NH_QgVTm0?authuser=0&hl=tr&rclk=1",
    "website_url": "",
    "rating_text": "3,9",
    "stars": null,
    "number_of_reviews": null,
    "price_level": "",
    "open_hours": "",
    "extraction_timestamp": "2025-06-07T18:13:14.569Z",
    "source_name": "google",
    "source_query": "Irrigation Equipment",
    "source_country": "RO",
    "country": "Romania",
    "state": "Brașov County",
    "city": "Comuna Moieciu"
  },
  {
    "source_id": "ChIJvSecjZJHs0ARwYyodc8X5_U",
    "name": "Vampire Camping Bran Brasov Romania - official",
    "category": "Vampire Camping Bran Brasov Romania - official",
    "formatted_address": "4,3(35)",
    "phone_number": "+40724181601",
    "source_url": "https://www.google.com/maps/place/Vampire+Camping+Bran+Brasov+Romania+-+official/data=!4m7!3m6!1s0x40b347928d9c27bd:0xf5e717cf75a88cc1!8m2!3d45.5282882!4d25.3710635!16s%2Fg%2F11fksm31t9!19sChIJvSecjZJHs0ARwYyodc8X5_U?authuser=0&hl=tr&rclk=1",
    "website_url": "https://vampirecamping.ro/",
    "rating_text": "4,3",
    "stars": null,
    "number_of_reviews": null,
    "price_level": "",
    "open_hours": "",
    "extraction_timestamp": "2025-06-07T18:13:14.570Z",
    "source_name": "google",
    "source_query": "Irrigation Equipment",
    "source_country": "RO",
    "country": "Romania",
    "state": "Brașov County",
    "city": "Comuna Moieciu"
  },
  {
    "source_id": "ChIJ0YhSRsA5s0ARBirAZTTeoKo",
    "name": "Raza Soarelui",
    "category": "Raza Soarelui",
    "formatted_address": "4,6(91)",
    "phone_number": "+40723521200",
    "source_url": "https://www.google.com/maps/place/Raza+Soarelui/data=!4m10!3m9!1s0x40b339c0465288d1:0xaaa0de3465c02a06!5m2!4m1!1i2!8m2!3d45.4535136!4d25.322848!16s%2Fg%2F1jkvrbxrw!19sChIJ0YhSRsA5s0ARBirAZTTeoKo?authuser=0&hl=tr&rclk=1",
    "website_url": "",
    "rating_text": "4,6",
    "stars": null,
    "number_of_reviews": null,
    "price_level": "",
    "open_hours": "",
    "extraction_timestamp": "2025-06-07T18:13:14.571Z",
    "source_name": "google",
    "source_query": "Irrigation Equipment",
    "source_country": "RO",
    "country": "Romania",
    "state": "Brașov County",
    "city": "Comuna Moieciu"
  },
  {
    "source_id": "ChIJ49B6iQlJs0ARYCoC8NNpJ3U",
    "name": "Robobi Invest SRL",
    "category": "Robobi Invest SRL",
    "formatted_address": "4,2(9)",
    "phone_number": "",
    "source_url": "https://www.google.com/maps/place/Robobi+Invest+SRL/data=!4m7!3m6!1s0x40b34909897ad0e3:0x752769d3f0022a60!8m2!3d45.5522956!4d25.3832454!16s%2Fg%2F11lj_04t69!19sChIJ49B6iQlJs0ARYCoC8NNpJ3U?authuser=0&hl=tr&rclk=1",
    "website_url": "",
    "rating_text": "4,2",
    "stars": null,
    "number_of_reviews": null,
    "price_level": "",
    "open_hours": "",
    "extraction_timestamp": "2025-06-07T18:13:14.572Z",
    "source_name": "google",
    "source_query": "Irrigation Equipment",
    "source_country": "RO",
    "country": "Romania",
    "state": "Brașov County",
    "city": "Comuna Moieciu"
  },
  {
    "source_id": "ChIJ8epkSvFHs0ARUb8sYjwoRu8",
    "name": "Baciul branean",
    "category": "Baciul branean",
    "formatted_address": "4,6(14)",
    "phone_number": "+40771337501",
    "source_url": "https://www.google.com/maps/place/Baciul+branean/data=!4m7!3m6!1s0x40b347f14a64eaf1:0xef46283c622cbf51!8m2!3d45.5155172!4d25.3694101!16s%2Fg%2F11rzbdqgm5!19sChIJ8epkSvFHs0ARUb8sYjwoRu8?authuser=0&hl=tr&rclk=1",
    "website_url": "",
    "rating_text": "4,6",
    "stars": null,
    "number_of_reviews": null,
    "price_level": "",
    "open_hours": "",
    "extraction_timestamp": "2025-06-07T18:13:14.573Z",
    "source_name": "google",
    "source_query": "Irrigation Equipment",
    "source_country": "RO",
    "country": "Romania",
    "state": "Brașov County",
    "city": "Comuna Moieciu"
  },
  {
    "source_id": "ChIJh9nGn_ZHs0ARVvYk1Zur",
    "name": "Dino Market",
    "category": "Dino Market",
    "formatted_address": "4,3(48)",
    "phone_number": "",
    "source_url": "https://www.google.com/maps/place/Dino+Market/data=!4m7!3m6!1s0x40b347f69fc6d987:0x120aab9bd524f656!8m2!3d45.5163419!4d25.3692275!16s%2Fg%2F11d_bj6ybl!19sChIJh9nGn_ZHs0ARVvYk1ZurChI?authuser=0&hl=tr&rclk=1",
    "website_url": "",
    "rating_text": "4,3",
    "stars": null,
    "number_of_reviews": null,
    "price_level": "",
    "open_hours": "",
    "extraction_timestamp": "2025-06-07T18:13:14.574Z",
    "source_name": "google",
    "source_query": "Irrigation Equipment",
    "source_country": "RO",
    "country": "Romania",
    "state": "Brașov County",
    "city": "Comuna Moieciu"
  },
  {
    "source_id": "ChIJA3xHTYxcs0ARnkvJueur5W8",
    "name": "Ecoflam SRL",
    "category": "Ecoflam SRL",
    "formatted_address": "4,2(55)",
    "phone_number": "+40368401281",
    "source_url": "https://www.google.com/maps/place/Ecoflam+SRL/data=!4m7!3m6!1s0x40b35c8c4d477c03:0x6fe5abebb9c94b9e!8m2!3d45.6322993!4d25.6235519!16s%2Fg%2F11cs29g8qn!19sChIJA3xHTYxcs0ARnkvJueur5W8?authuser=0&hl=tr&rclk=1",
    "website_url": "",
    "rating_text": "4,2",
    "stars": null,
    "number_of_reviews": null,
    "price_level": "",
    "open_hours": "",
    "extraction_timestamp": "2025-06-07T18:13:14.575Z",
    "source_name": "google",
    "source_query": "Irrigation Equipment",
    "source_country": "RO",
    "country": "Romania",
    "state": "Brașov County",
    "city": "Comuna Moieciu"
  },
  {
    "source_id": "ChIJ81JsgB9Js0ARkp4il4u3BE0",
    "name": "Prăvălie Sergiana",
    "category": "Prăvălie Sergiana",
    "formatted_address": "4,5(18)",
    "phone_number": "+40368009410",
    "source_url": "https://www.google.com/maps/place/Pr%C4%83v%C4%83lie+Sergiana/data=!4m7!3m6!1s0x40b3491f806c52f3:0x4d04b78b97229e92!8m2!3d45.5694127!4d25.3384296!16s%2Fg%2F11f03qf8qy!19sChIJ81JsgB9Js0ARkp4il4u3BE0?authuser=0&hl=tr&rclk=1",
    "website_url": "http://www.sergianagrup.ro/",
    "rating_text": "4,5",
    "stars": null,
    "number_of_reviews": null,
    "price_level": "",
    "open_hours": "",
    "extraction_timestamp": "2025-06-07T18:13:14.577Z",
    "source_name": "google",
    "source_query": "Irrigation Equipment",
    "source_country": "RO",
    "country": "Romania",
    "state": "Brașov County",
    "city": "Comuna Moieciu"
  },
  {
    "source_id": "ChIJO2V99-VHs0ARmvvmOIhF0Ao",
    "name": "Kürtőskalács",
    "category": "Kürtőskalács",
    "formatted_address": "3,8(55)",
    "phone_number": "+40268262095",
    "source_url": "https://www.google.com/maps/place/K%C3%BCrt%C5%91skal%C3%A1cs/data=!4m7!3m6!1s0x40b347e5f77d653b:0xad0458838e6fb9a!8m2!3d45.5159159!4d25.3703881!16s%2Fg%2F1tt89rwy!19sChIJO2V99-VHs0ARmvvmOIhF0Ao?authuser=0&hl=tr&rclk=1",
    "website_url": "https://www.bizoo.ro/firma/karcsy/vanzare/115606/kurtos-kalacs-bran",
    "rating_text": "3,8",
    "stars": null,
    "number_of_reviews": null,
    "price_level": "",
    "open_hours": "",
    "extraction_timestamp": "2025-06-07T18:13:14.578Z",
    "source_name": "google",
    "source_query": "Irrigation Equipment",
    "source_country": "RO",
    "country": "Romania",
    "state": "Brașov County",
    "city": "Comuna Moieciu"
  },
  {
    "source_id": "ChIJi8XL1GVDs0ARQ3I1U70wIH0",
    "name": "Peștera de Lapte",
    "category": "Peștera de Lapte",
    "formatted_address": "4,5(129)",
    "phone_number": "",
    "source_url": "https://www.google.com/maps/place/Pe%C8%99tera+de+Lapte/data=!4m7!3m6!1s0x40b34365d4cbc58b:0x7d2030bd53357243!8m2!3d45.5908131!4d25.5647457!16s%2Fg%2F11bxb3gpy_!19sChIJi8XL1GVDs0ARQ3I1U70wIH0?authuser=0&hl=tr&rclk=1",
    "website_url": "",
    "rating_text": "4,5",
    "stars": null,
    "number_of_reviews": null,
    "price_level": "",
    "open_hours": "",
    "extraction_timestamp": "2025-06-07T18:13:14.579Z",
    "source_name": "google",
    "source_query": "Irrigation Equipment",
    "source_country": "RO",
    "country": "Romania",
    "state": "Brașov County",
    "city": "Comuna Moieciu"
  },
  {
    "source_id": "ChIJfU6zMjU5s0ARM6DzStGLTbI",
    "name": "Vila Vibrant",
    "category": "Vila Vibrant",
    "formatted_address": "5,0(88)",
    "phone_number": "+40742376542",
    "source_url": "https://www.google.com/maps/place/Vila+Vibrant/data=!4m10!3m9!1s0x40b3393532b34e7d:0xb24d8bd14af3a033!5m2!4m1!1i2!8m2!3d45.4976659!4d25.3841918!16s%2Fg%2F11t321npsk!19sChIJfU6zMjU5s0ARM6DzStGLTbI?authuser=0&hl=tr&rclk=1",
    "website_url": "https://www.vilavibrant.ro/",
    "rating_text": "5,0",
    "stars": null,
    "number_of_reviews": null,
    "price_level": "",
    "open_hours": "",
    "extraction_timestamp": "2025-06-07T18:13:14.580Z",
    "source_name": "google",
    "source_query": "Irrigation Equipment",
    "source_country": "RO",
    "country": "Romania",
    "state": "Brașov County",
    "city": "Comuna Moieciu"
  },
  {
    "source_id": "ChIJYy5T1w1Js0AR46bGYw93h8E",
    "name": "Zarnesti Market",
    "category": "Zarnesti Market",
    "formatted_address": "3,9(407)",
    "phone_number": "+40268515777",
    "source_url": "https://www.google.com/maps/place/Zarnesti+Market/data=!4m7!3m6!1s0x40b3490dd7532e63:0xc187770f63c6a6e3!8m2!3d45.5637985!4d25.3116481!16s%2Fg%2F11dxsrm867!19sChIJYy5T1w1Js0AR46bGYw93h8E?authuser=0&hl=tr&rclk=1",
    "website_url": "http://primaria-zarnesti.ro/informatii-publice-si-anunturi/agenda-cetateanului/lucrari-executate-in-2009/piata-zarnesti/",
    "rating_text": "3,9",
    "stars": null,
    "number_of_reviews": null,
    "price_level": "",
    "open_hours": "",
    "extraction_timestamp": "2025-06-07T18:13:14.582Z",
    "source_name": "google",
    "source_query": "Irrigation Equipment",
    "source_country": "RO",
    "country": "Romania",
    "state": "Brașov County",
    "city": "Comuna Moieciu"
  },
  {
    "source_id": "ChIJB5lW-eVHs0ARPRZpw79TMYY",
    "name": "Prăvălie Sergiana",
    "category": "Prăvălie Sergiana",
    "formatted_address": "4,6(62)",
    "phone_number": "+40368440163",
    "source_url": "https://www.google.com/maps/place/Pr%C4%83v%C4%83lie+Sergiana/data=!4m7!3m6!1s0x40b347e5f9569907:0x863153bfc369163d!8m2!3d45.5160865!4d25.3702162!16s%2Fg%2F1hm5bxtp4!19sChIJB5lW-eVHs0ARPRZpw79TMYY?authuser=0&hl=tr&rclk=1",
    "website_url": "http://www.sergianagrup.ro/",
    "rating_text": "4,6",
    "stars": null,
    "number_of_reviews": null,
    "price_level": "",
    "open_hours": "",
    "extraction_timestamp": "2025-06-07T18:13:14.583Z",
    "source_name": "google",
    "source_query": "Irrigation Equipment",
    "source_country": "RO",
    "country": "Romania",
    "state": "Brașov County",
    "city": "Comuna Moieciu"
  },
  {
    "source_id": "ChIJu6wDUGVLs0ARCZap1rxgMk0",
    "name": "Camping Popasul Alpinistului",
    "category": "Camping Popasul Alpinistului",
    "formatted_address": "4,8(104)",
    "phone_number": "+40740098668",
    "source_url": "https://www.google.com/maps/place/Camping+Popasul+Alpinistului/data=!4m7!3m6!1s0x40b34b655003acbb:0x4d3260bcd6a99609!8m2!3d45.5622721!4d25.1993597!16s%2Fg%2F11hjcvcznv!19sChIJu6wDUGVLs0ARCZap1rxgMk0?authuser=0&hl=tr&rclk=1",
    "website_url": "",
    "rating_text": "4,8",
    "stars": null,
    "number_of_reviews": null,
    "price_level": "",
    "open_hours": "",
    "extraction_timestamp": "2025-06-07T18:13:14.584Z",
    "source_name": "google",
    "source_query": "Irrigation Equipment",
    "source_country": "RO",
    "country": "Romania",
    "state": "Brașov County",
    "city": "Comuna Moieciu"
  }
]
