[
  {
    "source_id": "ChIJaQzqLmZcs0ARU6r3VaUK6iE",
    "name": "AKRO S.R.L.",
    "category": "AKRO S.R.L.",
    "formatted_address": "4,7(13)",
    "phone_number": "+40268413180",
    "source_url": "https://www.google.com/maps/place/AKRO+S.R.L./data=!4m7!3m6!1s0x40b35c662eea0c69:0x21ea0aa555f7aa53!8m2!3d45.6485042!4d25.6406578!16s%2Fg%2F1hc250gs3!19sChIJaQzqLmZcs0ARU6r3VaUK6iE?authuser=0&hl=tr&rclk=1",
    "website_url": "https://www.akro.ro/",
    "rating_text": "4,7",
    "stars": null,
    "number_of_reviews": null,
    "price_level": "",
    "open_hours": "",
    "extraction_timestamp": "2025-06-08T02:42:36.306Z",
    "source_name": "google",
    "source_query": "Irrigation Equipment",
    "source_country": "RO",
    "country": "Romania",
    "state": "Brașov County",
    "city": "Comuna Caţa"
  },
  {
    "source_id": "ChIJ1S8EiMZZs0AR86hmbkUN9ow",
    "name": "Ipso Agricultura Brașov",
    "category": "Ipso Agricultura Brașov",
    "formatted_address": "4,8(12)",
    "phone_number": "+40374438921",
    "source_url": "https://www.google.com/maps/place/Ipso+Agricultura+Bra%C8%99ov/data=!4m7!3m6!1s0x40b359c688042fd5:0x8cf60d456e66a8f3!8m2!3d45.7007612!4d25.5811096!16s%2Fg%2F11h_dq5c17!19sChIJ1S8EiMZZs0AR86hmbkUN9ow?authuser=0&hl=tr&rclk=1",
    "website_url": "http://www.ipso.ro/",
    "rating_text": "4,8",
    "stars": null,
    "number_of_reviews": null,
    "price_level": "",
    "open_hours": "",
    "extraction_timestamp": "2025-06-08T02:42:36.308Z",
    "source_name": "google",
    "source_query": "Irrigation Equipment",
    "source_country": "RO",
    "country": "Romania",
    "state": "Brașov County",
    "city": "Comuna Caţa"
  },
  {
    "source_id": "ChIJpRLHLAFbs0AR4aOqN_hsDuc",
    "name": "Gruppo Valinst",
    "category": "Gruppo Valinst",
    "formatted_address": "",
    "phone_number": "+40729931509",
    "source_url": "https://www.google.com/maps/place/Gruppo+Valinst/data=!4m7!3m6!1s0x40b35b012cc712a5:0xe70e6cf837aaa3e1!8m2!3d45.65515!4d25.5586001!16s%2Fg%2F1hc3rk913!19sChIJpRLHLAFbs0AR4aOqN_hsDuc?authuser=0&hl=tr&rclk=1",
    "website_url": "https://www.valinst.ro/ro/instalatii-de-irigat/universal-liniare",
    "rating_text": "",
    "stars": null,
    "number_of_reviews": null,
    "price_level": "",
    "open_hours": "",
    "extraction_timestamp": "2025-06-08T02:42:36.309Z",
    "source_name": "google",
    "source_query": "Irrigation Equipment",
    "source_country": "RO",
    "country": "Romania",
    "state": "Brașov County",
    "city": "Comuna Caţa"
  },
  {
    "source_id": "ChIJ05s_Msdbs0ARtWqcVmxiNmM",
    "name": "Industrial Plast SRL",
    "category": "Industrial Plast SRL",
    "formatted_address": "4,3(25)",
    "phone_number": "+40749270460",
    "source_url": "https://www.google.com/maps/place/Industrial+Plast+SRL/data=!4m7!3m6!1s0x40b35bc7323f9bd3:0x6336626c569c6ab5!8m2!3d45.6723806!4d25.5907429!16s%2Fg%2F113g7jczx!19sChIJ05s_Msdbs0ARtWqcVmxiNmM?authuser=0&hl=tr&rclk=1",
    "website_url": "http://www.industrialplast.ro/",
    "rating_text": "4,3",
    "stars": null,
    "number_of_reviews": null,
    "price_level": "",
    "open_hours": "",
    "extraction_timestamp": "2025-06-08T02:42:36.311Z",
    "source_name": "google",
    "source_query": "Irrigation Equipment",
    "source_country": "RO",
    "country": "Romania",
    "state": "Brașov County",
    "city": "Comuna Caţa"
  },
  {
    "source_id": "ChIJSc52LPpds0ARRn6D2MxGEP4",
    "name": "Krongrass Equipment",
    "category": "Krongrass Equipment",
    "formatted_address": "5,0(2)",
    "phone_number": "+40744565495",
    "source_url": "https://www.google.com/maps/place/Krongrass+Equipment/data=!4m7!3m6!1s0x40b35dfa2c76ce49:0xfe1046ccd8837e46!8m2!3d45.6466883!4d25.6378089!16s%2Fg%2F11kj0x16vd!19sChIJSc52LPpds0ARRn6D2MxGEP4?authuser=0&hl=tr&rclk=1",
    "website_url": "http://www.spider-cositoare.com/",
    "rating_text": "5,0",
    "stars": null,
    "number_of_reviews": null,
    "price_level": "",
    "open_hours": "",
    "extraction_timestamp": "2025-06-08T02:42:36.312Z",
    "source_name": "google",
    "source_query": "Irrigation Equipment",
    "source_country": "RO",
    "country": "Romania",
    "state": "Brașov County",
    "city": "Comuna Caţa"
  },
  {
    "source_id": "ChIJf-lWUKJbs0ARthstA3kJrE0",
    "name": "Krontherm",
    "category": "Krontherm",
    "formatted_address": "4,8(17)",
    "phone_number": "+40732143767",
    "source_url": "https://www.google.com/maps/place/Krontherm/data=!4m7!3m6!1s0x40b35ba25056e97f:0x4dac0979032d1bb6!8m2!3d45.6592117!4d25.5833936!16s%2Fg%2F1w663xq7!19sChIJf-lWUKJbs0ARthstA3kJrE0?authuser=0&hl=tr&rclk=1",
    "website_url": "http://www.krontherm.ro/",
    "rating_text": "4,8",
    "stars": null,
    "number_of_reviews": null,
    "price_level": "",
    "open_hours": "",
    "extraction_timestamp": "2025-06-08T02:42:36.314Z",
    "source_name": "google",
    "source_query": "Irrigation Equipment",
    "source_country": "RO",
    "country": "Romania",
    "state": "Brașov County",
    "city": "Comuna Caţa"
  },
  {
    "source_id": "ChIJxTlzQ25cs0ARbRRg7VLrKPw",
    "name": "Instal generation",
    "category": "Instal generation",
    "formatted_address": "5,0(5)",
    "phone_number": "+40745189529",
    "source_url": "https://www.google.com/maps/place/Instal+generation/data=!4m7!3m6!1s0x40b35c6e437339c5:0xfc28eb52ed60146d!8m2!3d45.6541089!4d25.63197!16s%2Fg%2F11flzgjjqz!19sChIJxTlzQ25cs0ARbRRg7VLrKPw?authuser=0&hl=tr&rclk=1",
    "website_url": "http://www.instalgeneration.ro/",
    "rating_text": "5,0",
    "stars": null,
    "number_of_reviews": null,
    "price_level": "",
    "open_hours": "",
    "extraction_timestamp": "2025-06-08T02:42:36.315Z",
    "source_name": "google",
    "source_query": "Irrigation Equipment",
    "source_country": "RO",
    "country": "Romania",
    "state": "Brașov County",
    "city": "Comuna Caţa"
  },
  {
    "source_id": "ChIJjwldZ5lbs0ARkh_7HsqsdHg",
    "name": "Kronstadt Trade System",
    "category": "Kronstadt Trade System",
    "formatted_address": "5,0(4)",
    "phone_number": "+40368457096",
    "source_url": "https://www.google.com/maps/place/Kronstadt+Trade+System/data=!4m7!3m6!1s0x40b35b99675d098f:0x7874acca1efb1f92!8m2!3d45.6566161!4d25.5914413!16s%2Fg%2F1pp2x9xzy!19sChIJjwldZ5lbs0ARkh_7HsqsdHg?authuser=0&hl=tr&rclk=1",
    "website_url": "http://www.kts.ro/",
    "rating_text": "5,0",
    "stars": null,
    "number_of_reviews": null,
    "price_level": "",
    "open_hours": "",
    "extraction_timestamp": "2025-06-08T02:42:36.317Z",
    "source_name": "google",
    "source_query": "Irrigation Equipment",
    "source_country": "RO",
    "country": "Romania",
    "state": "Brașov County",
    "city": "Comuna Caţa"
  },
  {
    "source_id": "ChIJu1YSjzSDw0URjcgBGv8G3NQ",
    "name": "Gradini Verzi",
    "category": "Gradini Verzi",
    "formatted_address": "5,0(19)",
    "phone_number": "+40727069669",
    "source_url": "https://www.google.com/maps/place/Gradini+Verzi/data=!4m7!3m6!1s0x45c383348f1256bb:0xd4dc06ff1a01c88d!8m2!3d45.651576!4d25.6118307!16s%2Fg%2F11sjr8sb4r!19sChIJu1YSjzSDw0URjcgBGv8G3NQ?authuser=0&hl=tr&rclk=1",
    "website_url": "http://gradiniverzi.ro/",
    "rating_text": "5,0",
    "stars": null,
    "number_of_reviews": null,
    "price_level": "",
    "open_hours": "",
    "extraction_timestamp": "2025-06-08T02:42:36.318Z",
    "source_name": "google",
    "source_query": "Irrigation Equipment",
    "source_country": "RO",
    "country": "Romania",
    "state": "Brașov County",
    "city": "Comuna Caţa"
  },
  {
    "source_id": "ChIJ__8PKx9ds0ARon5RRl1hP6E",
    "name": "Gica compresoare Import Export Italia",
    "category": "Gica compresoare Import Export Italia",
    "formatted_address": "4,6(90)",
    "phone_number": "+40368422767",
    "source_url": "https://www.google.com/maps/place/Gica+compresoare+Import+Export+Italia/data=!4m7!3m6!1s0x40b35d1f2b0fffff:0xa13f615d46517ea2!8m2!3d45.6182076!4d25.6504662!16s%2Fg%2F11g9nv_h3t!19sChIJ__8PKx9ds0ARon5RRl1hP6E?authuser=0&hl=tr&rclk=1",
    "website_url": "http://www.gica.ro/",
    "rating_text": "4,6",
    "stars": null,
    "number_of_reviews": null,
    "price_level": "",
    "open_hours": "",
    "extraction_timestamp": "2025-06-08T02:42:36.319Z",
    "source_name": "google",
    "source_query": "Irrigation Equipment",
    "source_country": "RO",
    "country": "Romania",
    "state": "Brașov County",
    "city": "Comuna Caţa"
  },
  {
    "source_id": "ChIJYRmWaqJbs0ARvsb1duCtxyI",
    "name": "TehnoSting Echipamente",
    "category": "TehnoSting Echipamente",
    "formatted_address": "4,9(7)",
    "phone_number": "+40751216567",
    "source_url": "https://www.google.com/maps/place/TehnoSting+Echipamente/data=!4m7!3m6!1s0x40b35ba26a961961:0x22c7ade076f5c6be!8m2!3d45.6899168!4d25.5825047!16s%2Fg%2F1hm54zcx1!19sChIJYRmWaqJbs0ARvsb1duCtxyI?authuser=0&hl=tr&rclk=1",
    "website_url": "http://www.tehnostingechipamente.ro/",
    "rating_text": "4,9",
    "stars": null,
    "number_of_reviews": null,
    "price_level": "",
    "open_hours": "",
    "extraction_timestamp": "2025-06-08T02:42:36.321Z",
    "source_name": "google",
    "source_query": "Irrigation Equipment",
    "source_country": "RO",
    "country": "Romania",
    "state": "Brașov County",
    "city": "Comuna Caţa"
  },
  {
    "source_id": "ChIJMev0eOdZs0ARMeiqaeoGQjs",
    "name": "Verificare Sistem de Avertizare la Incendiu",
    "category": "Verificare Sistem de Avertizare la Incendiu",
    "formatted_address": "5,0(1)",
    "phone_number": "+40757371244",
    "source_url": "https://www.google.com/maps/place/Verificare+Sistem+de+Avertizare+la+Incendiu/data=!4m7!3m6!1s0x40b359e778f4eb31:0x3b4206ea69aae831!8m2!3d45.7158082!4d25.5883415!16s%2Fg%2F11n82qz9h8!19sChIJMev0eOdZs0ARMeiqaeoGQjs?authuser=0&hl=tr&rclk=1",
    "website_url": "https://sistemavertizareincendiu.ro/",
    "rating_text": "5,0",
    "stars": null,
    "number_of_reviews": null,
    "price_level": "",
    "open_hours": "",
    "extraction_timestamp": "2025-06-08T02:42:36.322Z",
    "source_name": "google",
    "source_query": "Irrigation Equipment",
    "source_country": "RO",
    "country": "Romania",
    "state": "Brașov County",
    "city": "Comuna Caţa"
  },
  {
    "source_id": "ChIJiYrW93hcs0ARpKmOIL1sTuI",
    "name": "Valinst Agriculture",
    "category": "Valinst Agriculture",
    "formatted_address": "5,0(1)",
    "phone_number": "+40730330543",
    "source_url": "https://www.google.com/maps/place/Valinst+Agriculture/data=!4m7!3m6!1s0x40b35c78f7d68a89:0xe24e6cbd208ea9a4!8m2!3d45.6527567!4d25.6143965!16s%2Fg%2F11hf04lgwp!19sChIJiYrW93hcs0ARpKmOIL1sTuI?authuser=0&hl=tr&rclk=1",
    "website_url": "http://www.valinst.ro/en/contact",
    "rating_text": "5,0",
    "stars": null,
    "number_of_reviews": null,
    "price_level": "",
    "open_hours": "",
    "extraction_timestamp": "2025-06-08T02:42:36.323Z",
    "source_name": "google",
    "source_query": "Irrigation Equipment",
    "source_country": "RO",
    "country": "Romania",
    "state": "Brașov County",
    "city": "Comuna Caţa"
  },
  {
    "source_id": "ChIJE3GIErNz2GIRnMvSnu8JXWQ",
    "name": "Landscaping company",
    "category": "Landscaping company",
    "formatted_address": "4,9(30)",
    "phone_number": "+40755652974",
    "source_url": "https://www.google.com/maps/place/Landscaping+company/data=!4m7!3m6!1s0x62d873b312887113:0x645d09ef9ed2cb9c!8m2!3d45.6928902!4d25.6184328!16s%2Fg%2F11rqs5xt47!19sChIJE3GIErNz2GIRnMvSnu8JXWQ?authuser=0&hl=tr&rclk=1",
    "website_url": "",
    "rating_text": "4,9",
    "stars": null,
    "number_of_reviews": null,
    "price_level": "",
    "open_hours": "",
    "extraction_timestamp": "2025-06-08T02:42:36.324Z",
    "source_name": "google",
    "source_query": "Irrigation Equipment",
    "source_country": "RO",
    "country": "Romania",
    "state": "Brașov County",
    "city": "Comuna Caţa"
  },
  {
    "source_id": "ChIJ_XZ8Tp1bs0ARaWS3dAp1zcs",
    "name": "Water Management System Brasov",
    "category": "Water Management System Brasov",
    "formatted_address": "4,2(5)",
    "phone_number": "+40268412277",
    "source_url": "https://www.google.com/maps/place/Water+Management+System+Brasov/data=!4m7!3m6!1s0x40b35b9d4e7c76fd:0xcbcd750a74b76469!8m2!3d45.6504956!4d25.5934896!16s%2Fg%2F1pp2tzrcr!19sChIJ_XZ8Tp1bs0ARaWS3dAp1zcs?authuser=0&hl=tr&rclk=1",
    "website_url": "",
    "rating_text": "4,2",
    "stars": null,
    "number_of_reviews": null,
    "price_level": "",
    "open_hours": "",
    "extraction_timestamp": "2025-06-08T02:42:36.325Z",
    "source_name": "google",
    "source_query": "Irrigation Equipment",
    "source_country": "RO",
    "country": "Romania",
    "state": "Brașov County",
    "city": "Comuna Caţa"
  },
  {
    "source_id": "ChIJ75U28UJcs0ARn5rOXEMHehs",
    "name": "Romradiatoare",
    "category": "Romradiatoare",
    "formatted_address": "4,6(17)",
    "phone_number": "+40268317550",
    "source_url": "https://www.google.com/maps/place/Romradiatoare/data=!4m7!3m6!1s0x40b35c42f13695ef:0x1b7a07435cce9a9f!8m2!3d45.6505059!4d25.6439921!16s%2Fg%2F1tfz_l60!19sChIJ75U28UJcs0ARn5rOXEMHehs?authuser=0&hl=tr&rclk=1",
    "website_url": "http://www.romradiatoare.com/",
    "rating_text": "4,6",
    "stars": null,
    "number_of_reviews": null,
    "price_level": "",
    "open_hours": "",
    "extraction_timestamp": "2025-06-08T02:42:36.326Z",
    "source_name": "google",
    "source_query": "Irrigation Equipment",
    "source_country": "RO",
    "country": "Romania",
    "state": "Brașov County",
    "city": "Comuna Caţa"
  },
  {
    "source_id": "ChIJLbUqw5NZs0ARthH59UvL53Q",
    "name": "ARC Brașov",
    "category": "ARC Brașov",
    "formatted_address": "4,6(107)",
    "phone_number": "+40268472577",
    "source_url": "https://www.google.com/maps/place/ARC+Bra%C8%99ov/data=!4m7!3m6!1s0x40b35993c32ab52d:0x74e7cb4bf5f911b6!8m2!3d45.7079894!4d25.5763597!16s%2Fg%2F1tqcjqgj!19sChIJLbUqw5NZs0ARthH59UvL53Q?authuser=0&hl=tr&rclk=1",
    "website_url": "http://www.arc.ro/",
    "rating_text": "4,6",
    "stars": null,
    "number_of_reviews": null,
    "price_level": "",
    "open_hours": "",
    "extraction_timestamp": "2025-06-08T02:42:36.328Z",
    "source_name": "google",
    "source_query": "Irrigation Equipment",
    "source_country": "RO",
    "country": "Romania",
    "state": "Brașov County",
    "city": "Comuna Caţa"
  },
  {
    "source_id": "ChIJi6FDEyyhtEARXjG1waHLjVo",
    "name": "Utilajeagri.ro",
    "category": "Utilajeagri.ro",
    "formatted_address": "4,6(22)",
    "phone_number": "+40740317928",
    "source_url": "https://www.google.com/maps/place/Utilajeagri.ro/data=!4m7!3m6!1s0x40b4a12c1343a18b:0x5a8dcba1c1b5315e!8m2!3d45.7495733!4d25.767982!16s%2Fg%2F11flrmwwns!19sChIJi6FDEyyhtEARXjG1waHLjVo?authuser=0&hl=tr&rclk=1",
    "website_url": "http://www.utilajeagri.ro/",
    "rating_text": "4,6",
    "stars": null,
    "number_of_reviews": null,
    "price_level": "",
    "open_hours": "",
    "extraction_timestamp": "2025-06-08T02:42:36.329Z",
    "source_name": "google",
    "source_query": "Irrigation Equipment",
    "source_country": "RO",
    "country": "Romania",
    "state": "Brașov County",
    "city": "Comuna Caţa"
  },
  {
    "source_id": "ChIJe_tU3Bhbs0ARYNkGVHO5YKE",
    "name": "HIDROstore Brașov",
    "category": "HIDROstore Brașov",
    "formatted_address": "5,0(13)",
    "phone_number": "+40771576228",
    "source_url": "https://www.google.com/maps/place/HIDROstore+Bra%C8%99ov/data=!4m7!3m6!1s0x40b35b18dc54fb7b:0xa160b9735406d960!8m2!3d45.6734944!4d25.5800351!16s%2Fg%2F11w8pn_mjw!19sChIJe_tU3Bhbs0ARYNkGVHO5YKE?authuser=0&hl=tr&rclk=1",
    "website_url": "https://hidrostore.ro/brasov",
    "rating_text": "5,0",
    "stars": null,
    "number_of_reviews": null,
    "price_level": "",
    "open_hours": "",
    "extraction_timestamp": "2025-06-08T02:42:36.330Z",
    "source_name": "google",
    "source_query": "Irrigation Equipment",
    "source_country": "RO",
    "country": "Romania",
    "state": "Brașov County",
    "city": "Comuna Caţa"
  },
  {
    "source_id": "ChIJkwM39ERZs0ARdR7paBiBcDo",
    "name": "Gradina din Brasov - Rasaduri si Legume",
    "category": "Gradina din Brasov - Rasaduri si Legume",
    "formatted_address": "5,0(6)",
    "phone_number": "+40752931213",
    "source_url": "https://www.google.com/maps/place/Gradina+din+Brasov+-+Rasaduri+si+Legume/data=!4m7!3m6!1s0x40b35944f4370393:0x3a70811868e91e75!8m2!3d45.703722!4d25.5797822!16s%2Fg%2F11pvbhdhtq!19sChIJkwM39ERZs0ARdR7paBiBcDo?authuser=0&hl=tr&rclk=1",
    "website_url": "https://www.facebook.com/gradinadinbrasov",
    "rating_text": "5,0",
    "stars": null,
    "number_of_reviews": null,
    "price_level": "",
    "open_hours": "",
    "extraction_timestamp": "2025-06-08T02:42:36.331Z",
    "source_name": "google",
    "source_query": "Irrigation Equipment",
    "source_country": "RO",
    "country": "Romania",
    "state": "Brașov County",
    "city": "Comuna Caţa"
  },
  {
    "source_id": "ChIJrUQQMFZZs0AR6NzsnVyZJ80",
    "name": "Caldurica.ro",
    "category": "Caldurica.ro",
    "formatted_address": "5,0(77)",
    "phone_number": "+40762275709",
    "source_url": "https://www.google.com/maps/place/Caldurica.ro/data=!4m7!3m6!1s0x40b35956301044ad:0xcd27995c9decdce8!8m2!3d45.7037588!4d25.5550988!16s%2Fg%2F11j3rybftd!19sChIJrUQQMFZZs0AR6NzsnVyZJ80?authuser=0&hl=tr&rclk=1",
    "website_url": "http://caldurica.ro/",
    "rating_text": "5,0",
    "stars": null,
    "number_of_reviews": null,
    "price_level": "",
    "open_hours": "",
    "extraction_timestamp": "2025-06-08T02:42:36.332Z",
    "source_name": "google",
    "source_query": "Irrigation Equipment",
    "source_country": "RO",
    "country": "Romania",
    "state": "Brașov County",
    "city": "Comuna Caţa"
  },
  {
    "source_id": "ChIJWeFfS-lds0AR9yE35V1sBkU",
    "name": "Area 21 forest",
    "category": "Area 21 forest",
    "formatted_address": "Area 21 forest",
    "phone_number": "+40756621842",
    "source_url": "https://www.google.com/maps/place/Area+21+forest/data=!4m7!3m6!1s0x40b35de94b5fe159:0x45066c5de53721f7!8m2!3d45.6512788!4d25.6184938!16s%2Fg%2F11t3gz3yzc!19sChIJWeFfS-lds0AR9yE35V1sBkU?authuser=0&hl=tr&rclk=1",
    "website_url": "http://www.instal-brasov.ro/",
    "rating_text": "5,0",
    "stars": null,
    "number_of_reviews": null,
    "price_level": "",
    "open_hours": "",
    "extraction_timestamp": "2025-06-08T02:42:36.333Z",
    "source_name": "google",
    "source_query": "Irrigation Equipment",
    "source_country": "RO",
    "country": "Romania",
    "state": "Brașov County",
    "city": "Comuna Caţa"
  },
  {
    "source_id": "ChIJA7B1Z2Zds0ARur30HS3Ah04",
    "name": "instalator brasov NON STOP sanitare termice",
    "category": "instalator brasov NON STOP sanitare termice",
    "formatted_address": "4,2(33)",
    "phone_number": "+40755189138",
    "source_url": "https://www.google.com/maps/place/instalator+brasov+NON+STOP+sanitare+termice/data=!4m7!3m6!1s0x40b35d666775b003:0x4e87c02d1df4bdba!8m2!3d45.655991!4d25.6178539!16s%2Fg%2F11h7b34qd_!19sChIJA7B1Z2Zds0ARur30HS3Ah04?authuser=0&hl=tr&rclk=1",
    "website_url": "https://instalatorbrasov.wixsite.com/website-1",
    "rating_text": "4,2",
    "stars": null,
    "number_of_reviews": null,
    "price_level": "",
    "open_hours": "",
    "extraction_timestamp": "2025-06-08T02:42:36.335Z",
    "source_name": "google",
    "source_query": "Irrigation Equipment",
    "source_country": "RO",
    "country": "Romania",
    "state": "Brașov County",
    "city": "Comuna Caţa"
  },
  {
    "source_id": "ChIJk719965es0ARSHau3S-JmpE",
    "name": "Serstill",
    "category": "Serstill",
    "formatted_address": "4,6(22)",
    "phone_number": "+40268311511",
    "source_url": "https://www.google.com/maps/place/Serstill/data=!4m7!3m6!1s0x40b35eaef77dbd93:0x919a892fddae7648!8m2!3d45.683375!4d25.652469!16s%2Fg%2F11xdltdh5!19sChIJk719965es0ARSHau3S-JmpE?authuser=0&hl=tr&rclk=1",
    "website_url": "http://www.serstill.ro/",
    "rating_text": "4,6",
    "stars": null,
    "number_of_reviews": null,
    "price_level": "",
    "open_hours": "",
    "extraction_timestamp": "2025-06-08T02:42:36.336Z",
    "source_name": "google",
    "source_query": "Irrigation Equipment",
    "source_country": "RO",
    "country": "Romania",
    "state": "Brașov County",
    "city": "Comuna Caţa"
  },
  {
    "source_id": "ChIJBWxRW4lcs0AR4johcYtY_Us",
    "name": "Hod-Chimex",
    "category": "Hod-Chimex",
    "formatted_address": "4,3(110)",
    "phone_number": "+40268320340",
    "source_url": "https://www.google.com/maps/place/Hod-Chimex/data=!4m7!3m6!1s0x40b35c895b516c05:0x4bfd588b71213ae2!8m2!3d45.6388375!4d25.6217574!16s%2Fg%2F1wrtbc6q!19sChIJBWxRW4lcs0AR4johcYtY_Us?authuser=0&hl=tr&rclk=1",
    "website_url": "",
    "rating_text": "4,3",
    "stars": null,
    "number_of_reviews": null,
    "price_level": "",
    "open_hours": "",
    "extraction_timestamp": "2025-06-08T02:42:36.337Z",
    "source_name": "google",
    "source_query": "Irrigation Equipment",
    "source_country": "RO",
    "country": "Romania",
    "state": "Brașov County",
    "city": "Comuna Caţa"
  },
  {
    "source_id": "ChIJe6wdOnFhs0ARIwE3yBbzHho",
    "name": "MAGEREXIM",
    "category": "MAGEREXIM",
    "formatted_address": "4,9(17)",
    "phone_number": "+40741647984",
    "source_url": "https://www.google.com/maps/place/MAGEREXIM/data=!4m7!3m6!1s0x40b361713a1dac7b:0x1a1ef316c8370123!8m2!3d45.6718863!4d25.7960882!16s%2Fg%2F11jgnm3g__!19sChIJe6wdOnFhs0ARIwE3yBbzHho?authuser=0&hl=tr&rclk=1",
    "website_url": "https://magerexim.ro/",
    "rating_text": "4,9",
    "stars": null,
    "number_of_reviews": null,
    "price_level": "",
    "open_hours": "",
    "extraction_timestamp": "2025-06-08T02:42:36.338Z",
    "source_name": "google",
    "source_query": "Irrigation Equipment",
    "source_country": "RO",
    "country": "Romania",
    "state": "Brașov County",
    "city": "Comuna Caţa"
  },
  {
    "source_id": "ChIJG2EV_f9bs0ARRhFy__gil54",
    "name": "SC Instalatii Trust SA",
    "category": "SC Instalatii Trust SA",
    "formatted_address": "5,0(7)",
    "phone_number": "+40744299176",
    "source_url": "https://www.google.com/maps/place/SC+Instalatii+Trust+SA/data=!4m7!3m6!1s0x40b35bfffd15611b:0x9e9722f8ff721146!8m2!3d45.6568366!4d25.5640092!16s%2Fg%2F11jnsmfjrq!19sChIJG2EV_f9bs0ARRhFy__gil54?authuser=0&hl=tr&rclk=1",
    "website_url": "",
    "rating_text": "5,0",
    "stars": null,
    "number_of_reviews": null,
    "price_level": "",
    "open_hours": "",
    "extraction_timestamp": "2025-06-08T02:42:36.339Z",
    "source_name": "google",
    "source_query": "Irrigation Equipment",
    "source_country": "RO",
    "country": "Romania",
    "state": "Brașov County",
    "city": "Comuna Caţa"
  },
  {
    "source_id": "ChIJtRDaNxVds0ARH0zYzm8DWbE",
    "name": "CHIRILA INSTAL",
    "category": "CHIRILA INSTAL",
    "formatted_address": "5,0(17)",
    "phone_number": "+40734108310",
    "source_url": "https://www.google.com/maps/place/CHIRILA+INSTAL/data=!4m7!3m6!1s0x40b35d1537da10b5:0xb159036fced84c1f!8m2!3d45.651787!4d25.6309351!16s%2Fg%2F11vt09sry_!19sChIJtRDaNxVds0ARH0zYzm8DWbE?authuser=0&hl=tr&rclk=1",
    "website_url": "https://instalatorisanitarebrasov.ro/",
    "rating_text": "5,0",
    "stars": null,
    "number_of_reviews": null,
    "price_level": "",
    "open_hours": "",
    "extraction_timestamp": "2025-06-08T02:42:36.352Z",
    "source_name": "google",
    "source_query": "Irrigation Equipment",
    "source_country": "RO",
    "country": "Romania",
    "state": "Brașov County",
    "city": "Comuna Caţa"
  },
  {
    "source_id": "ChIJAX9ixJlbs0ARONdeqKAUFNY",
    "name": "Magazinul Fermierului",
    "category": "Magazinul Fermierului",
    "formatted_address": "4,3(358)",
    "phone_number": "+40724355430",
    "source_url": "https://www.google.com/maps/place/Magazinul+Fermierului/data=!4m7!3m6!1s0x40b35b99c4627f01:0xd61414a0a85ed738!8m2!3d45.6593757!4d25.5919892!16s%2Fg%2F1pp2vb70j!19sChIJAX9ixJlbs0ARONdeqKAUFNY?authuser=0&hl=tr&rclk=1",
    "website_url": "http://www.agro-mixt.ro/",
    "rating_text": "4,3",
    "stars": null,
    "number_of_reviews": null,
    "price_level": "",
    "open_hours": "",
    "extraction_timestamp": "2025-06-08T02:42:36.353Z",
    "source_name": "google",
    "source_query": "Irrigation Equipment",
    "source_country": "RO",
    "country": "Romania",
    "state": "Brașov County",
    "city": "Comuna Caţa"
  },
  {
    "source_id": "ChIJCQayaPpbs0ARhf_zEF9vwQg",
    "name": "SC Agri Sigeva SRL",
    "category": "SC Agri Sigeva SRL",
    "formatted_address": "5,0(2)",
    "phone_number": "+40722529586",
    "source_url": "https://www.google.com/maps/place/SC+Agri+Sigeva+SRL/data=!4m7!3m6!1s0x40b35bfa68b20609:0x8c16f5f10f3ff85!8m2!3d45.6744327!4d25.621811!16s%2Fg%2F1pztj9780!19sChIJCQayaPpbs0ARhf_zEF9vwQg?authuser=0&hl=tr&rclk=1",
    "website_url": "",
    "rating_text": "5,0",
    "stars": null,
    "number_of_reviews": null,
    "price_level": "",
    "open_hours": "",
    "extraction_timestamp": "2025-06-08T02:42:36.353Z",
    "source_name": "google",
    "source_query": "Irrigation Equipment",
    "source_country": "RO",
    "country": "Romania",
    "state": "Brașov County",
    "city": "Comuna Caţa"
  },
  {
    "source_id": "ChIJK6QNBvBds0ARK39HHf7Dr2c",
    "name": "PLAI URBAN",
    "category": "PLAI URBAN",
    "formatted_address": "5,0(3)",
    "phone_number": "+40723478882",
    "source_url": "https://www.google.com/maps/place/PLAI+URBAN/data=!4m7!3m6!1s0x40b35df0060da42b:0x67afc3fe1d477f2b!8m2!3d45.662593!4d25.631469!16s%2Fg%2F11j8p2wpb7!19sChIJK6QNBvBds0ARK39HHf7Dr2c?authuser=0&hl=tr&rclk=1",
    "website_url": "http://plaiurban.ro/",
    "rating_text": "5,0",
    "stars": null,
    "number_of_reviews": null,
    "price_level": "",
    "open_hours": "",
    "extraction_timestamp": "2025-06-08T02:42:36.354Z",
    "source_name": "google",
    "source_query": "Irrigation Equipment",
    "source_country": "RO",
    "country": "Romania",
    "state": "Brașov County",
    "city": "Comuna Caţa"
  }
]
