[
  {
    "source_id": "ChIJaQzqLmZcs0ARU6r3VaUK6iE",
    "name": "AKRO S.R.L.",
    "category": "AKRO S.R.L.",
    "formatted_address": "4,7(13)",
    "phone_number": "+40268413180",
    "source_url": "https://www.google.com/maps/place/AKRO+S.R.L./data=!4m7!3m6!1s0x40b35c662eea0c69:0x21ea0aa555f7aa53!8m2!3d45.6485042!4d25.6406578!16s%2Fg%2F1hc250gs3!19sChIJaQzqLmZcs0ARU6r3VaUK6iE?authuser=0&hl=tr&rclk=1",
    "website_url": "",
    "rating_text": "4,7",
    "stars": null,
    "number_of_reviews": null,
    "price_level": "",
    "open_hours": "",
    "extraction_timestamp": "2025-06-07T18:23:31.520Z",
    "source_name": "google",
    "source_query": "Irrigation Equipment",
    "source_country": "RO",
    "country": "Romania",
    "state": "Brașov County",
    "city": "Comuna Hărman"
  },
  {
    "source_id": "ChIJuxiX7KVes0ARH8yKDiHb6Kw",
    "name": "Glissando Brașov",
    "category": "Glissando Brașov",
    "formatted_address": "4,4(117)",
    "phone_number": "+40372918354",
    "source_url": "https://www.google.com/maps/place/Glissando+Bra%C8%99ov/data=!4m7!3m6!1s0x40b35ea5ec9718bb:0xace8db210e8acc1f!8m2!3d45.6811503!4d25.6568415!16s%2Fg%2F11g6jtdhz7!19sChIJuxiX7KVes0ARH8yKDiHb6Kw?authuser=0&hl=tr&rclk=1",
    "website_url": "",
    "rating_text": "4,4",
    "stars": null,
    "number_of_reviews": null,
    "price_level": "",
    "open_hours": "",
    "extraction_timestamp": "2025-06-07T18:23:31.521Z",
    "source_name": "google",
    "source_query": "Irrigation Equipment",
    "source_country": "RO",
    "country": "Romania",
    "state": "Brașov County",
    "city": "Comuna Hărman"
  },
  {
    "source_id": "ChIJY0GhLIJfs0AR7o2BwOUlE9U",
    "name": "Primodavid SRL",
    "category": "Primodavid SRL",
    "formatted_address": "4,5(24)",
    "phone_number": "+40723276388",
    "source_url": "https://www.google.com/maps/place/Primodavid+SRL/data=!4m7!3m6!1s0x40b35f822ca14163:0xd51325e5c0818dee!8m2!3d45.7122695!4d25.679188!16s%2Fg%2F11h03098lh!19sChIJY0GhLIJfs0AR7o2BwOUlE9U?authuser=0&hl=tr&rclk=1",
    "website_url": "",
    "rating_text": "4,5",
    "stars": null,
    "number_of_reviews": null,
    "price_level": "",
    "open_hours": "",
    "extraction_timestamp": "2025-06-07T18:23:31.521Z",
    "source_name": "google",
    "source_query": "Irrigation Equipment",
    "source_country": "RO",
    "country": "Romania",
    "state": "Brașov County",
    "city": "Comuna Hărman"
  },
  {
    "source_id": "ChIJSc52LPpds0ARRn6D2MxGEP4",
    "name": "Krongrass Equipment",
    "category": "Krongrass Equipment",
    "formatted_address": "5,0(2)",
    "phone_number": "+40744565495",
    "source_url": "https://www.google.com/maps/place/Krongrass+Equipment/data=!4m7!3m6!1s0x40b35dfa2c76ce49:0xfe1046ccd8837e46!8m2!3d45.6466883!4d25.6378089!16s%2Fg%2F11kj0x16vd!19sChIJSc52LPpds0ARRn6D2MxGEP4?authuser=0&hl=tr&rclk=1",
    "website_url": "",
    "rating_text": "5,0",
    "stars": null,
    "number_of_reviews": null,
    "price_level": "",
    "open_hours": "",
    "extraction_timestamp": "2025-06-07T18:23:31.521Z",
    "source_name": "google",
    "source_query": "Irrigation Equipment",
    "source_country": "RO",
    "country": "Romania",
    "state": "Brașov County",
    "city": "Comuna Hărman"
  },
  {
    "source_id": "ChIJzXMYSVlfs0AR36tvL222ffE",
    "name": "KroneMag",
    "category": "KroneMag",
    "formatted_address": "4,2(17)",
    "phone_number": "+40736392857",
    "source_url": "https://www.google.com/maps/place/KroneMag/data=!4m7!3m6!1s0x40b35f59491873cd:0xf17db66d2f6fabdf!8m2!3d45.7220765!4d25.6969039!16s%2Fg%2F1tfgh9_x!19sChIJzXMYSVlfs0AR36tvL222ffE?authuser=0&hl=tr&rclk=1",
    "website_url": "",
    "rating_text": "4,2",
    "stars": null,
    "number_of_reviews": null,
    "price_level": "",
    "open_hours": "",
    "extraction_timestamp": "2025-06-07T18:23:31.522Z",
    "source_name": "google",
    "source_query": "Irrigation Equipment",
    "source_country": "RO",
    "country": "Romania",
    "state": "Brașov County",
    "city": "Comuna Hărman"
  },
  {
    "source_id": "ChIJgyuUsi9fs0ARICUB6BkqEZk",
    "name": "I.I. Carmen Velican",
    "category": "I.I. Carmen Velican",
    "formatted_address": "4,5(21)",
    "phone_number": "+40740299537",
    "source_url": "https://www.google.com/maps/place/I.I.+Carmen+Velican/data=!4m7!3m6!1s0x40b35f2fb2942b83:0x99112a19e8012520!8m2!3d45.7207117!4d25.6849299!16s%2Fg%2F11cjjhf2p9!19sChIJgyuUsi9fs0ARICUB6BkqEZk?authuser=0&hl=tr&rclk=1",
    "website_url": "",
    "rating_text": "4,5",
    "stars": null,
    "number_of_reviews": null,
    "price_level": "",
    "open_hours": "",
    "extraction_timestamp": "2025-06-07T18:23:31.522Z",
    "source_name": "google",
    "source_query": "Irrigation Equipment",
    "source_country": "RO",
    "country": "Romania",
    "state": "Brașov County",
    "city": "Comuna Hărman"
  },
  {
    "source_id": "ChIJCQayaPpbs0ARhf_zEF9vwQg",
    "name": "SC Agri Sigeva SRL",
    "category": "SC Agri Sigeva SRL",
    "formatted_address": "5,0(2)",
    "phone_number": "+40722529586",
    "source_url": "https://www.google.com/maps/place/SC+Agri+Sigeva+SRL/data=!4m7!3m6!1s0x40b35bfa68b20609:0x8c16f5f10f3ff85!8m2!3d45.6744327!4d25.621811!16s%2Fg%2F1pztj9780!19sChIJCQayaPpbs0ARhf_zEF9vwQg?authuser=0&hl=tr&rclk=1",
    "website_url": "",
    "rating_text": "5,0",
    "stars": null,
    "number_of_reviews": null,
    "price_level": "",
    "open_hours": "",
    "extraction_timestamp": "2025-06-07T18:23:31.522Z",
    "source_name": "google",
    "source_query": "Irrigation Equipment",
    "source_country": "RO",
    "country": "Romania",
    "state": "Brașov County",
    "city": "Comuna Hărman"
  },
  {
    "source_id": "ChIJxTlzQ25cs0ARbRRg7VLrKPw",
    "name": "Instal generation",
    "category": "Instal generation",
    "formatted_address": "5,0(5)",
    "phone_number": "+40745189529",
    "source_url": "https://www.google.com/maps/place/Instal+generation/data=!4m7!3m6!1s0x40b35c6e437339c5:0xfc28eb52ed60146d!8m2!3d45.6541089!4d25.63197!16s%2Fg%2F11flzgjjqz!19sChIJxTlzQ25cs0ARbRRg7VLrKPw?authuser=0&hl=tr&rclk=1",
    "website_url": "",
    "rating_text": "5,0",
    "stars": null,
    "number_of_reviews": null,
    "price_level": "",
    "open_hours": "",
    "extraction_timestamp": "2025-06-07T18:23:31.523Z",
    "source_name": "google",
    "source_query": "Irrigation Equipment",
    "source_country": "RO",
    "country": "Romania",
    "state": "Brașov County",
    "city": "Comuna Hărman"
  },
  {
    "source_id": "ChIJMf6BtShfs0ARo6B8p6cmCIc",
    "name": "S.C. SIMETRIC S.R.L.",
    "category": "S.C. SIMETRIC S.R.L.",
    "formatted_address": "4,0(19)",
    "phone_number": "+40268367462",
    "source_url": "https://www.google.com/maps/place/S.C.+SIMETRIC+S.R.L./data=!4m7!3m6!1s0x40b35f28b581fe31:0x870826a7a77ca0a3!8m2!3d45.7136001!4d25.6845614!16s%2Fg%2F11c5bbpbqq!19sChIJMf6BtShfs0ARo6B8p6cmCIc?authuser=0&hl=tr&rclk=1",
    "website_url": "",
    "rating_text": "4,0",
    "stars": null,
    "number_of_reviews": null,
    "price_level": "",
    "open_hours": "",
    "extraction_timestamp": "2025-06-07T18:23:31.523Z",
    "source_name": "google",
    "source_query": "Irrigation Equipment",
    "source_country": "RO",
    "country": "Romania",
    "state": "Brașov County",
    "city": "Comuna Hărman"
  },
  {
    "source_id": "ChIJiYrW93hcs0ARpKmOIL1sTuI",
    "name": "Valinst Agriculture",
    "category": "Valinst Agriculture",
    "formatted_address": "5,0(1)",
    "phone_number": "+40730330543",
    "source_url": "https://www.google.com/maps/place/Valinst+Agriculture/data=!4m7!3m6!1s0x40b35c78f7d68a89:0xe24e6cbd208ea9a4!8m2!3d45.6527567!4d25.6143965!16s%2Fg%2F11hf04lgwp!19sChIJiYrW93hcs0ARpKmOIL1sTuI?authuser=0&hl=tr&rclk=1",
    "website_url": "",
    "rating_text": "5,0",
    "stars": null,
    "number_of_reviews": null,
    "price_level": "",
    "open_hours": "",
    "extraction_timestamp": "2025-06-07T18:23:31.523Z",
    "source_name": "google",
    "source_query": "Irrigation Equipment",
    "source_country": "RO",
    "country": "Romania",
    "state": "Brașov County",
    "city": "Comuna Hărman"
  },
  {
    "source_id": "ChIJH9FIJgxcs0AR-FS91tHqV0U",
    "name": "Ringhiopol - Depozit Materiale Electrice",
    "category": "Ringhiopol - Depozit Materiale Electrice",
    "formatted_address": "4,2(64)",
    "phone_number": "+40268314946",
    "source_url": "https://www.google.com/maps/place/Ringhiopol+-+Depozit+Materiale+Electrice/data=!4m7!3m6!1s0x40b35c0c2648d11f:0x4557ead1d6bd54f8!8m2!3d45.6716321!4d25.6413825!16s%2Fg%2F1hf2wsbkb!19sChIJH9FIJgxcs0AR-FS91tHqV0U?authuser=0&hl=tr&rclk=1",
    "website_url": "",
    "rating_text": "4,2",
    "stars": null,
    "number_of_reviews": null,
    "price_level": "",
    "open_hours": "",
    "extraction_timestamp": "2025-06-07T18:23:31.524Z",
    "source_name": "google",
    "source_query": "Irrigation Equipment",
    "source_country": "RO",
    "country": "Romania",
    "state": "Brașov County",
    "city": "Comuna Hărman"
  },
  {
    "source_id": "ChIJwVPkXpFfs0ARPmPJLCQD8sA",
    "name": "Flomitcor srl",
    "category": "Flomitcor srl",
    "formatted_address": "4,4(10)",
    "phone_number": "",
    "source_url": "https://www.google.com/maps/place/Flomitcor+srl/data=!4m7!3m6!1s0x40b35f915ee453c1:0xc0f203242cc9633e!8m2!3d45.7094521!4d25.6809231!16s%2Fg%2F11l9yrxwpy!19sChIJwVPkXpFfs0ARPmPJLCQD8sA?authuser=0&hl=tr&rclk=1",
    "website_url": "",
    "rating_text": "4,4",
    "stars": null,
    "number_of_reviews": null,
    "price_level": "",
    "open_hours": "",
    "extraction_timestamp": "2025-06-07T18:23:31.524Z",
    "source_name": "google",
    "source_query": "Irrigation Equipment",
    "source_country": "RO",
    "country": "Romania",
    "state": "Brașov County",
    "city": "Comuna Hărman"
  },
  {
    "source_id": "ChIJe_tU3Bhbs0ARYNkGVHO5YKE",
    "name": "HIDROstore Brașov",
    "category": "HIDROstore Brașov",
    "formatted_address": "5,0(13)",
    "phone_number": "+40771576228",
    "source_url": "https://www.google.com/maps/place/HIDROstore+Bra%C8%99ov/data=!4m7!3m6!1s0x40b35b18dc54fb7b:0xa160b9735406d960!8m2!3d45.6734944!4d25.5800351!16s%2Fg%2F11w8pn_mjw!19sChIJe_tU3Bhbs0ARYNkGVHO5YKE?authuser=0&hl=tr&rclk=1",
    "website_url": "",
    "rating_text": "5,0",
    "stars": null,
    "number_of_reviews": null,
    "price_level": "",
    "open_hours": "",
    "extraction_timestamp": "2025-06-07T18:23:31.524Z",
    "source_name": "google",
    "source_query": "Irrigation Equipment",
    "source_country": "RO",
    "country": "Romania",
    "state": "Brașov County",
    "city": "Comuna Hărman"
  },
  {
    "source_id": "ChIJH1vwMdlfs0ARTpuAbV4-Pbs",
    "name": "Mega Image Hărman",
    "category": "Mega Image Hărman",
    "formatted_address": "4,2(261)",
    "phone_number": "",
    "source_url": "https://www.google.com/maps/place/Mega+Image+H%C4%83rman/data=!4m7!3m6!1s0x40b35fd931f05b1f:0xbb3d3e5e6d809b4e!8m2!3d45.7051416!4d25.6885013!16s%2Fg%2F11q2jzlv9v!19sChIJH1vwMdlfs0ARTpuAbV4-Pbs?authuser=0&hl=tr&rclk=1",
    "website_url": "",
    "rating_text": "4,2",
    "stars": null,
    "number_of_reviews": null,
    "price_level": "",
    "open_hours": "",
    "extraction_timestamp": "2025-06-07T18:23:31.524Z",
    "source_name": "google",
    "source_query": "Irrigation Equipment",
    "source_country": "RO",
    "country": "Romania",
    "state": "Brașov County",
    "city": "Comuna Hărman"
  },
  {
    "source_id": "ChIJoZc0XpVds0ARlD5TWxJaVZc",
    "name": "Sfinx Camper & Conversion",
    "category": "Sfinx Camper & Conversion",
    "formatted_address": "4,8(35)",
    "phone_number": "+40728033124",
    "source_url": "https://www.google.com/maps/place/Sfinx+Camper+%26+Conversion/data=!4m7!3m6!1s0x40b35d955e3497a1:0x97555a125b533e94!8m2!3d45.7241457!4d25.6983307!16s%2Fg%2F11h261p4xx!19sChIJoZc0XpVds0ARlD5TWxJaVZc?authuser=0&hl=tr&rclk=1",
    "website_url": "",
    "rating_text": "4,8",
    "stars": null,
    "number_of_reviews": null,
    "price_level": "",
    "open_hours": "",
    "extraction_timestamp": "2025-06-07T18:23:31.525Z",
    "source_name": "google",
    "source_query": "Irrigation Equipment",
    "source_country": "RO",
    "country": "Romania",
    "state": "Brașov County",
    "city": "Comuna Hărman"
  },
  {
    "source_id": "ChIJu1GHYC9fs0ARFxKOdK_aioQ",
    "name": "Mons Mellis",
    "category": "Mons Mellis",
    "formatted_address": "4,6(91) · L 40–60",
    "phone_number": "+40742026352",
    "source_url": "https://www.google.com/maps/place/Mons+Mellis/data=!4m7!3m6!1s0x40b35f2f608751bb:0x848adaaf748e1217!8m2!3d45.7144371!4d25.6870231!16s%2Fg%2F11b6yqdv9j!19sChIJu1GHYC9fs0ARFxKOdK_aioQ?authuser=0&hl=tr&rclk=1",
    "website_url": "",
    "rating_text": "4,6",
    "stars": null,
    "number_of_reviews": null,
    "price_level": "",
    "open_hours": "",
    "extraction_timestamp": "2025-06-07T18:23:31.525Z",
    "source_name": "google",
    "source_query": "Irrigation Equipment",
    "source_country": "RO",
    "country": "Romania",
    "state": "Brașov County",
    "city": "Comuna Hărman"
  },
  {
    "source_id": "ChIJNQ0zxghas0AR0jCjzWhGpg8",
    "name": "IAR Brasov",
    "category": "IAR Brasov",
    "formatted_address": "4,5(66)",
    "phone_number": "+40268475269",
    "source_url": "https://www.google.com/maps/place/IAR+Brasov/data=!4m7!3m6!1s0x40b35a08c6330d35:0xfa64668cda330d2!8m2!3d45.693216!4d25.5311536!16s%2Fg%2F11cmcymmm5!19sChIJNQ0zxghas0AR0jCjzWhGpg8?authuser=0&hl=tr&rclk=1",
    "website_url": "",
    "rating_text": "4,5",
    "stars": null,
    "number_of_reviews": null,
    "price_level": "",
    "open_hours": "",
    "extraction_timestamp": "2025-06-07T18:23:31.525Z",
    "source_name": "google",
    "source_query": "Irrigation Equipment",
    "source_country": "RO",
    "country": "Romania",
    "state": "Brașov County",
    "city": "Comuna Hărman"
  },
  {
    "source_id": "ChIJf1IBKTFbs0ARACGsW5eYgWI",
    "name": "Drip & Grow",
    "category": "Drip & Grow",
    "formatted_address": "5,0(2)",
    "phone_number": "+40749804338",
    "source_url": "https://www.google.com/maps/place/Drip+%26+Grow/data=!4m7!3m6!1s0x40b35b312901527f:0x628198975bac2100!8m2!3d45.6937252!4d25.644182!16s%2Fg%2F11kprxztdq!19sChIJf1IBKTFbs0ARACGsW5eYgWI?authuser=0&hl=tr&rclk=1",
    "website_url": "",
    "rating_text": "5,0",
    "stars": null,
    "number_of_reviews": null,
    "price_level": "",
    "open_hours": "",
    "extraction_timestamp": "2025-06-07T18:23:31.526Z",
    "source_name": "google",
    "source_query": "Irrigation Equipment",
    "source_country": "RO",
    "country": "Romania",
    "state": "Brașov County",
    "city": "Comuna Hărman"
  },
  {
    "source_id": "ChIJ_XZ8Tp1bs0ARaWS3dAp1zcs",
    "name": "Water Management System Brasov",
    "category": "Water Management System Brasov",
    "formatted_address": "4,2(5)",
    "phone_number": "+40268412277",
    "source_url": "https://www.google.com/maps/place/Water+Management+System+Brasov/data=!4m7!3m6!1s0x40b35b9d4e7c76fd:0xcbcd750a74b76469!8m2!3d45.6504956!4d25.5934896!16s%2Fg%2F1pp2tzrcr!19sChIJ_XZ8Tp1bs0ARaWS3dAp1zcs?authuser=0&hl=tr&rclk=1",
    "website_url": "",
    "rating_text": "4,2",
    "stars": null,
    "number_of_reviews": null,
    "price_level": "",
    "open_hours": "",
    "extraction_timestamp": "2025-06-07T18:23:31.526Z",
    "source_name": "google",
    "source_query": "Irrigation Equipment",
    "source_country": "RO",
    "country": "Romania",
    "state": "Brașov County",
    "city": "Comuna Hărman"
  },
  {
    "source_id": "ChIJKXNUQ6Vbs0AR388qFzRFD6w",
    "name": "Monklint",
    "category": "Monklint",
    "formatted_address": "4,9(157) · L 40–60",
    "phone_number": "",
    "source_url": "https://www.google.com/maps/place/Monklint/data=!4m7!3m6!1s0x40b35ba543547329:0xac0f4534172acfdf!8m2!3d45.6679216!4d25.6153379!16s%2Fg%2F11q8vmgt31!19sChIJKXNUQ6Vbs0AR388qFzRFD6w?authuser=0&hl=tr&rclk=1",
    "website_url": "",
    "rating_text": "4,9",
    "stars": null,
    "number_of_reviews": null,
    "price_level": "",
    "open_hours": "",
    "extraction_timestamp": "2025-06-07T18:23:31.527Z",
    "source_name": "google",
    "source_query": "Irrigation Equipment",
    "source_country": "RO",
    "country": "Romania",
    "state": "Brașov County",
    "city": "Comuna Hărman"
  },
  {
    "source_id": "ChIJg0sMqAxcs0ARVo5HH_bMuPA",
    "name": "Timişoreana S.R.L.",
    "category": "Timişoreana S.R.L.",
    "formatted_address": "3,6(10)",
    "phone_number": "+40268315477",
    "source_url": "https://www.google.com/maps/place/Timi%C5%9Foreana+S.R.L./data=!4m7!3m6!1s0x40b35c0ca80c4b83:0xf0b8ccf61f478e56!8m2!3d45.6612402!4d25.6282789!16s%2Fg%2F1hc1gxs53!19sChIJg0sMqAxcs0ARVo5HH_bMuPA?authuser=0&hl=tr&rclk=1",
    "website_url": "",
    "rating_text": "3,6",
    "stars": null,
    "number_of_reviews": null,
    "price_level": "",
    "open_hours": "",
    "extraction_timestamp": "2025-06-07T18:23:31.527Z",
    "source_name": "google",
    "source_query": "Irrigation Equipment",
    "source_country": "RO",
    "country": "Romania",
    "state": "Brașov County",
    "city": "Comuna Hărman"
  },
  {
    "source_id": "ChIJz3OMswxcs0ARCOL2dWmmIHw",
    "name": "Bullet Paint Brasov",
    "category": "Bullet Paint Brasov",
    "formatted_address": "4,6(113)",
    "phone_number": "+40759761760",
    "source_url": "https://www.google.com/maps/place/Bullet+Paint+Brasov/data=!4m7!3m6!1s0x40b35c0cb38c73cf:0x7c20a66975f6e208!8m2!3d45.6875181!4d25.5849261!16s%2Fg%2F11btmqd5p2!19sChIJz3OMswxcs0ARCOL2dWmmIHw?authuser=0&hl=tr&rclk=1",
    "website_url": "",
    "rating_text": "4,6",
    "stars": null,
    "number_of_reviews": null,
    "price_level": "",
    "open_hours": "",
    "extraction_timestamp": "2025-06-07T18:23:31.528Z",
    "source_name": "google",
    "source_query": "Irrigation Equipment",
    "source_country": "RO",
    "country": "Romania",
    "state": "Brașov County",
    "city": "Comuna Hărman"
  },
  {
    "source_id": "ChIJr9yyEYZbs0AR3oeKlkG_SHA",
    "name": "BikeServ",
    "category": "BikeServ",
    "formatted_address": "4,7(136)",
    "phone_number": "+40799554045",
    "source_url": "https://www.google.com/maps/place/BikeServ/data=!4m7!3m6!1s0x40b35b8611b2dcaf:0x7048bf41968a87de!8m2!3d45.655468!4d25.6078484!16s%2Fg%2F11cjsn4nyz!19sChIJr9yyEYZbs0AR3oeKlkG_SHA?authuser=0&hl=tr&rclk=1",
    "website_url": "",
    "rating_text": "4,7",
    "stars": null,
    "number_of_reviews": null,
    "price_level": "",
    "open_hours": "",
    "extraction_timestamp": "2025-06-07T18:23:31.528Z",
    "source_name": "google",
    "source_query": "Irrigation Equipment",
    "source_country": "RO",
    "country": "Romania",
    "state": "Brașov County",
    "city": "Comuna Hărman"
  },
  {
    "source_id": "ChIJXbcngFlbs0ARq49pfJsq8kg",
    "name": "Liliput Com S.R.L.",
    "category": "Liliput Com S.R.L.",
    "formatted_address": "5,0(7)",
    "phone_number": "+40726385666",
    "source_url": "https://www.google.com/maps/place/Liliput+Com+S.R.L./data=!4m7!3m6!1s0x40b35b598027b75d:0x48f22a9b7c698fab!8m2!3d45.6753967!4d25.6458725!16s%2Fg%2F11vcq0n494!19sChIJXbcngFlbs0ARq49pfJsq8kg?authuser=0&hl=tr&rclk=1",
    "website_url": "",
    "rating_text": "5,0",
    "stars": null,
    "number_of_reviews": null,
    "price_level": "",
    "open_hours": "",
    "extraction_timestamp": "2025-06-07T18:23:31.528Z",
    "source_name": "google",
    "source_query": "Irrigation Equipment",
    "source_country": "RO",
    "country": "Romania",
    "state": "Brașov County",
    "city": "Comuna Hărman"
  },
  {
    "source_id": "ChIJg47BmM1Zs0ARcKiub44KKS4",
    "name": "Click4Sport",
    "category": "Click4Sport",
    "formatted_address": "4,7(37)",
    "phone_number": "+40735302034",
    "source_url": "https://www.google.com/maps/place/Click4Sport/data=!4m7!3m6!1s0x40b359cd98c18e83:0x2e290a8e6faea870!8m2!3d45.7041889!4d25.5808328!16s%2Fg%2F11h7lpqtpl!19sChIJg47BmM1Zs0ARcKiub44KKS4?authuser=0&hl=tr&rclk=1",
    "website_url": "",
    "rating_text": "4,7",
    "stars": null,
    "number_of_reviews": null,
    "price_level": "",
    "open_hours": "",
    "extraction_timestamp": "2025-06-07T18:23:31.528Z",
    "source_name": "google",
    "source_query": "Irrigation Equipment",
    "source_country": "RO",
    "country": "Romania",
    "state": "Brașov County",
    "city": "Comuna Hărman"
  },
  {
    "source_id": "ChIJkwM39ERZs0ARdR7paBiBcDo",
    "name": "Gradina din Brasov - Rasaduri si Legume",
    "category": "Gradina din Brasov - Rasaduri si Legume",
    "formatted_address": "5,0(6)",
    "phone_number": "+40752931213",
    "source_url": "https://www.google.com/maps/place/Gradina+din+Brasov+-+Rasaduri+si+Legume/data=!4m7!3m6!1s0x40b35944f4370393:0x3a70811868e91e75!8m2!3d45.703722!4d25.5797822!16s%2Fg%2F11pvbhdhtq!19sChIJkwM39ERZs0ARdR7paBiBcDo?authuser=0&hl=tr&rclk=1",
    "website_url": "",
    "rating_text": "5,0",
    "stars": null,
    "number_of_reviews": null,
    "price_level": "",
    "open_hours": "",
    "extraction_timestamp": "2025-06-07T18:23:31.529Z",
    "source_name": "google",
    "source_query": "Irrigation Equipment",
    "source_country": "RO",
    "country": "Romania",
    "state": "Brașov County",
    "city": "Comuna Hărman"
  }
]
