[
  {
    "source_id": "ChIJF47D08lbs0AREsnEqsHFG2k",
    "name": "Proflex BV S.R.L.",
    "category": "Proflex BV S.R.L.",
    "formatted_address": "4,5(75)",
    "phone_number": "+40268442131",
    "source_url": "https://www.google.com/maps/place/Proflex+BV+S.R.L./data=!4m7!3m6!1s0x40b35bc9d3c38e17:0x691bc5c1aac4c912!8m2!3d45.6735112!4d25.5799858!16s%2Fg%2F1tdkq944!19sChIJF47D08lbs0AREsnEqsHFG2k?authuser=0&hl=tr&rclk=1",
    "website_url": "",
    "rating_text": "4,5",
    "stars": null,
    "number_of_reviews": null,
    "price_level": "",
    "open_hours": "",
    "extraction_timestamp": "2025-06-07T18:15:47.931Z",
    "source_name": "google",
    "source_query": "Irrigation Equipment",
    "source_country": "RO",
    "country": "Romania",
    "state": "Brașov County",
    "city": "Feldioara"
  },
  {
    "source_id": "ChIJix4DS_motEARbJQf9xM-iBk",
    "name": "Semiramida",
    "category": "Semiramida",
    "formatted_address": "",
    "phone_number": "+40756474593",
    "source_url": "https://www.google.com/maps/place/Semiramida/data=!4m7!3m6!1s0x40b4a8f94b031e8b:0x19883e13f71f946c!8m2!3d45.8172707!4d25.5863879!16s%2Fg%2F11j0jkrwzn!19sChIJix4DS_motEARbJQf9xM-iBk?authuser=0&hl=tr&rclk=1",
    "website_url": "",
    "rating_text": "",
    "stars": null,
    "number_of_reviews": null,
    "price_level": "",
    "open_hours": "",
    "extraction_timestamp": "2025-06-07T18:15:47.933Z",
    "source_name": "google",
    "source_query": "Irrigation Equipment",
    "source_country": "RO",
    "country": "Romania",
    "state": "Brașov County",
    "city": "Feldioara"
  },
  {
    "source_id": "ChIJP592JeWotEARyhJ1o762pmo",
    "name": "Laru CNC S.R.L.",
    "category": "Laru CNC S.R.L.",
    "formatted_address": "4,2(13)",
    "phone_number": "+40268265407",
    "source_url": "https://www.google.com/maps/place/Laru+CNC+S.R.L./data=!4m7!3m6!1s0x40b4a8e525769f3f:0x6aa6b6bea37512ca!8m2!3d45.8207545!4d25.5950353!16s%2Fg%2F1hc6f8j54!19sChIJP592JeWotEARyhJ1o762pmo?authuser=0&hl=tr&rclk=1",
    "website_url": "",
    "rating_text": "4,2",
    "stars": null,
    "number_of_reviews": null,
    "price_level": "",
    "open_hours": "",
    "extraction_timestamp": "2025-06-07T18:15:47.935Z",
    "source_name": "google",
    "source_query": "Irrigation Equipment",
    "source_country": "RO",
    "country": "Romania",
    "state": "Brașov County",
    "city": "Feldioara"
  },
  {
    "source_id": "ChIJiYrW93hcs0ARpKmOIL1sTuI",
    "name": "Valinst Agriculture",
    "category": "Valinst Agriculture",
    "formatted_address": "5,0(1)",
    "phone_number": "+40730330543",
    "source_url": "https://www.google.com/maps/place/Valinst+Agriculture/data=!4m7!3m6!1s0x40b35c78f7d68a89:0xe24e6cbd208ea9a4!8m2!3d45.6527567!4d25.6143965!16s%2Fg%2F11hf04lgwp!19sChIJiYrW93hcs0ARpKmOIL1sTuI?authuser=0&hl=tr&rclk=1",
    "website_url": "",
    "rating_text": "5,0",
    "stars": null,
    "number_of_reviews": null,
    "price_level": "",
    "open_hours": "",
    "extraction_timestamp": "2025-06-07T18:15:47.936Z",
    "source_name": "google",
    "source_query": "Irrigation Equipment",
    "source_country": "RO",
    "country": "Romania",
    "state": "Brașov County",
    "city": "Feldioara"
  },
  {
    "source_id": "ChIJxTlzQ25cs0ARbRRg7VLrKPw",
    "name": "Instal generation",
    "category": "Instal generation",
    "formatted_address": "5,0(5)",
    "phone_number": "+40745189529",
    "source_url": "https://www.google.com/maps/place/Instal+generation/data=!4m7!3m6!1s0x40b35c6e437339c5:0xfc28eb52ed60146d!8m2!3d45.6541089!4d25.63197!16s%2Fg%2F11flzgjjqz!19sChIJxTlzQ25cs0ARbRRg7VLrKPw?authuser=0&hl=tr&rclk=1",
    "website_url": "",
    "rating_text": "5,0",
    "stars": null,
    "number_of_reviews": null,
    "price_level": "",
    "open_hours": "",
    "extraction_timestamp": "2025-06-07T18:15:47.937Z",
    "source_name": "google",
    "source_query": "Irrigation Equipment",
    "source_country": "RO",
    "country": "Romania",
    "state": "Brașov County",
    "city": "Feldioara"
  },
  {
    "source_id": "ChIJw6Gl1G-ptEARgRz_jT1iga4",
    "name": "Profi Loco",
    "category": "Profi Loco",
    "formatted_address": "4,1(220)",
    "phone_number": "+40799001413",
    "source_url": "https://www.google.com/maps/place/Profi+Loco/data=!4m7!3m6!1s0x40b4a96fd4a5a1c3:0xae81623d8dff1c81!8m2!3d45.8185959!4d25.5938843!16s%2Fg%2F11fl5qrwv3!19sChIJw6Gl1G-ptEARgRz_jT1iga4?authuser=0&hl=tr&rclk=1",
    "website_url": "",
    "rating_text": "4,1",
    "stars": null,
    "number_of_reviews": null,
    "price_level": "",
    "open_hours": "",
    "extraction_timestamp": "2025-06-07T18:15:47.939Z",
    "source_name": "google",
    "source_query": "Irrigation Equipment",
    "source_country": "RO",
    "country": "Romania",
    "state": "Brașov County",
    "city": "Feldioara"
  },
  {
    "source_id": "ChIJxctJYfqotEARqIiz41lsxoQ",
    "name": "ZebraPay",
    "category": "ZebraPay",
    "formatted_address": "3,6(32)",
    "phone_number": "+40372776060",
    "source_url": "https://www.google.com/maps/place/ZebraPay/data=!4m7!3m6!1s0x40b4a8fa6149cbc5:0x84c66c59e3b388a8!8m2!3d45.8186521!4d25.5938608!16s%2Fg%2F11fx6fvpjx!19sChIJxctJYfqotEARqIiz41lsxoQ?authuser=0&hl=tr&rclk=1",
    "website_url": "",
    "rating_text": "3,6",
    "stars": null,
    "number_of_reviews": null,
    "price_level": "",
    "open_hours": "",
    "extraction_timestamp": "2025-06-07T18:15:47.940Z",
    "source_name": "google",
    "source_query": "Irrigation Equipment",
    "source_country": "RO",
    "country": "Romania",
    "state": "Brașov County",
    "city": "Feldioara"
  },
  {
    "source_id": "ChIJe_tU3Bhbs0ARYNkGVHO5YKE",
    "name": "HIDROstore Brașov",
    "category": "HIDROstore Brașov",
    "formatted_address": "5,0(13)",
    "phone_number": "+40771576228",
    "source_url": "https://www.google.com/maps/place/HIDROstore+Bra%C8%99ov/data=!4m7!3m6!1s0x40b35b18dc54fb7b:0xa160b9735406d960!8m2!3d45.6734944!4d25.5800351!16s%2Fg%2F11w8pn_mjw!19sChIJe_tU3Bhbs0ARYNkGVHO5YKE?authuser=0&hl=tr&rclk=1",
    "website_url": "",
    "rating_text": "5,0",
    "stars": null,
    "number_of_reviews": null,
    "price_level": "",
    "open_hours": "",
    "extraction_timestamp": "2025-06-07T18:15:47.942Z",
    "source_name": "google",
    "source_query": "Irrigation Equipment",
    "source_country": "RO",
    "country": "Romania",
    "state": "Brașov County",
    "city": "Feldioara"
  },
  {
    "source_id": "ChIJIRizmb6ltEARI_X5LQ-bvdY",
    "name": "Na.. SRL",
    "category": "Na.. SRL",
    "formatted_address": "",
    "phone_number": "+40730691620",
    "source_url": "https://www.google.com/maps/place/Na..+SRL/data=!4m7!3m6!1s0x40b4a5be99b31821:0xd6bd9b0f2df9f523!8m2!3d45.8665611!4d25.7716641!16s%2Fg%2F11j33l041b!19sChIJIRizmb6ltEARI_X5LQ-bvdY?authuser=0&hl=tr&rclk=1",
    "website_url": "",
    "rating_text": "",
    "stars": null,
    "number_of_reviews": null,
    "price_level": "",
    "open_hours": "",
    "extraction_timestamp": "2025-06-07T18:15:47.943Z",
    "source_name": "google",
    "source_query": "Irrigation Equipment",
    "source_country": "RO",
    "country": "Romania",
    "state": "Brașov County",
    "city": "Feldioara"
  },
  {
    "source_id": "ChIJ0a7GaxCptEARaEntZyV7WxU",
    "name": "La doi paşi",
    "category": "La doi paşi",
    "formatted_address": "4,0(2)",
    "phone_number": "+40374072072",
    "source_url": "https://www.google.com/maps/place/La+doi+pa%C5%9Fi/data=!4m7!3m6!1s0x40b4a9106bc6aed1:0x155b7b2567ed4968!8m2!3d45.8188771!4d25.5931981!16s%2Fg%2F11h8j6ps5s!19sChIJ0a7GaxCptEARaEntZyV7WxU?authuser=0&hl=tr&rclk=1",
    "website_url": "",
    "rating_text": "4,0",
    "stars": null,
    "number_of_reviews": null,
    "price_level": "",
    "open_hours": "",
    "extraction_timestamp": "2025-06-07T18:15:47.944Z",
    "source_name": "google",
    "source_query": "Irrigation Equipment",
    "source_country": "RO",
    "country": "Romania",
    "state": "Brașov County",
    "city": "Feldioara"
  }
]
