[
  {
    "source_id": "ChIJ-cNgPhs5s0ARfSdO6YEtnC4",
    "name": "Popasul Fundata SRL",
    "category": "Popasul Fundata SRL",
    "formatted_address": "4,7(74)",
    "phone_number": "+40758511483",
    "source_url": "https://www.google.com/maps/place/Popasul+Fundata+SRL/data=!4m7!3m6!1s0x40b3391b3e60c3f9:0x2e9c2d81e94e277d!8m2!3d45.4385836!4d25.3071634!16s%2Fg%2F11hdwg_cpf!19sChIJ-cNgPhs5s0ARfSdO6YEtnC4?authuser=0&hl=tr&rclk=1",
    "website_url": "",
    "rating_text": "4,7",
    "stars": null,
    "number_of_reviews": null,
    "price_level": "",
    "open_hours": "",
    "extraction_timestamp": "2025-06-07T18:16:50.975Z",
    "source_name": "google",
    "source_query": "Irrigation Equipment",
    "source_country": "RO",
    "country": "Romania",
    "state": "Brașov County",
    "city": "Fundata"
  },
  {
    "source_id": "ChIJ6fDXtw47s0ARdXGfekJ6ZTY",
    "name": "La Doi Pasi",
    "category": "La Doi Pasi",
    "formatted_address": "4,9(21)",
    "phone_number": "+40374072072",
    "source_url": "https://www.google.com/maps/place/La+Doi+Pasi/data=!4m7!3m6!1s0x40b33b0eb7d7f0e9:0x36657a427a9f7175!8m2!3d45.4364553!4d25.298969!16s%2Fg%2F11g3wy3q2j!19sChIJ6fDXtw47s0ARdXGfekJ6ZTY?authuser=0&hl=tr&rclk=1",
    "website_url": "",
    "rating_text": "4,9",
    "stars": null,
    "number_of_reviews": null,
    "price_level": "",
    "open_hours": "",
    "extraction_timestamp": "2025-06-07T18:16:50.975Z",
    "source_name": "google",
    "source_query": "Irrigation Equipment",
    "source_country": "RO",
    "country": "Romania",
    "state": "Brașov County",
    "city": "Fundata"
  },
  {
    "source_id": "ChIJTTd7ncJds0ARLDSObK61acM",
    "name": "Alser Forest SA",
    "category": "Alser Forest SA",
    "formatted_address": "4,4(54)",
    "phone_number": "+40744995450",
    "source_url": "https://www.google.com/maps/place/Alser+Forest+SA/data=!4m7!3m6!1s0x40b35dc29d7b374d:0xc369b5ae6c8e342c!8m2!3d45.651181!4d25.706244!16s%2Fg%2F11cjj7f9ft!19sChIJTTd7ncJds0ARLDSObK61acM?authuser=0&hl=tr&rclk=1",
    "website_url": "",
    "rating_text": "4,4",
    "stars": null,
    "number_of_reviews": null,
    "price_level": "",
    "open_hours": "",
    "extraction_timestamp": "2025-06-07T18:16:50.975Z",
    "source_name": "google",
    "source_query": "Irrigation Equipment",
    "source_country": "RO",
    "country": "Romania",
    "state": "Brașov County",
    "city": "Fundata"
  },
  {
    "source_id": "ChIJKXK8Zo5bs0ARuJsSfXX4sjk",
    "name": "B.A.D.I. - SKF Brasov",
    "category": "B.A.D.I. - SKF Brasov",
    "formatted_address": "4,2(5)",
    "phone_number": "+40727400004",
    "source_url": "https://www.google.com/maps/place/B.A.D.I.+-+SKF+Brasov/data=!4m7!3m6!1s0x40b35b8e66bc7229:0x39b2f8757d129bb8!8m2!3d45.9425072!4d25.0201084!16s%2Fg%2F11h3ftcp7t!19sChIJKXK8Zo5bs0ARuJsSfXX4sjk?authuser=0&hl=tr&rclk=1",
    "website_url": "",
    "rating_text": "4,2",
    "stars": null,
    "number_of_reviews": null,
    "price_level": "",
    "open_hours": "",
    "extraction_timestamp": "2025-06-07T18:16:50.975Z",
    "source_name": "google",
    "source_query": "Irrigation Equipment",
    "source_country": "RO",
    "country": "Romania",
    "state": "Brașov County",
    "city": "Fundata"
  },
  {
    "source_id": "ChIJe_tU3Bhbs0ARYNkGVHO5YKE",
    "name": "HIDROstore Brașov",
    "category": "HIDROstore Brașov",
    "formatted_address": "5,0(13)",
    "phone_number": "+40771576228",
    "source_url": "https://www.google.com/maps/place/HIDROstore+Bra%C8%99ov/data=!4m7!3m6!1s0x40b35b18dc54fb7b:0xa160b9735406d960!8m2!3d45.6734944!4d25.5800351!16s%2Fg%2F11w8pn_mjw!19sChIJe_tU3Bhbs0ARYNkGVHO5YKE?authuser=0&hl=tr&rclk=1",
    "website_url": "",
    "rating_text": "5,0",
    "stars": null,
    "number_of_reviews": null,
    "price_level": "",
    "open_hours": "",
    "extraction_timestamp": "2025-06-07T18:16:50.976Z",
    "source_name": "google",
    "source_query": "Irrigation Equipment",
    "source_country": "RO",
    "country": "Romania",
    "state": "Brașov County",
    "city": "Fundata"
  },
  {
    "source_id": "ChIJi6FDEyyhtEARXjG1waHLjVo",
    "name": "Utilajeagri.ro",
    "category": "Utilajeagri.ro",
    "formatted_address": "4,6(22)",
    "phone_number": "+40740317928",
    "source_url": "https://www.google.com/maps/place/Utilajeagri.ro/data=!4m7!3m6!1s0x40b4a12c1343a18b:0x5a8dcba1c1b5315e!8m2!3d45.7495733!4d25.767982!16s%2Fg%2F11flrmwwns!19sChIJi6FDEyyhtEARXjG1waHLjVo?authuser=0&hl=tr&rclk=1",
    "website_url": "",
    "rating_text": "4,6",
    "stars": null,
    "number_of_reviews": null,
    "price_level": "",
    "open_hours": "",
    "extraction_timestamp": "2025-06-07T18:16:50.976Z",
    "source_name": "google",
    "source_query": "Irrigation Equipment",
    "source_country": "RO",
    "country": "Romania",
    "state": "Brașov County",
    "city": "Fundata"
  },
  {
    "source_id": "ChIJZ8Y9r8FZs0AROEFfSlqYVZ0",
    "name": "Roplant - Garden Center",
    "category": "Roplant - Garden Center",
    "formatted_address": "5,0(43)",
    "phone_number": "+40751280415",
    "source_url": "https://www.google.com/maps/place/Roplant+-+Garden+Center/data=!4m7!3m6!1s0x40b359c1af3dc667:0x9d55985a4a5f4138!8m2!3d45.6967323!4d25.5833178!16s%2Fg%2F11h3fs20rb!19sChIJZ8Y9r8FZs0AROEFfSlqYVZ0?authuser=0&hl=tr&rclk=1",
    "website_url": "",
    "rating_text": "5,0",
    "stars": null,
    "number_of_reviews": null,
    "price_level": "",
    "open_hours": "",
    "extraction_timestamp": "2025-06-07T18:16:50.976Z",
    "source_name": "google",
    "source_query": "Irrigation Equipment",
    "source_country": "RO",
    "country": "Romania",
    "state": "Brașov County",
    "city": "Fundata"
  },
  {
    "source_id": "ChIJq0ip0twrt0ARpzBT3Z7qenM",
    "name": "Irriga",
    "category": "Irriga",
    "formatted_address": "",
    "phone_number": "+40757822614",
    "source_url": "https://www.google.com/maps/place/Irriga/data=!4m7!3m6!1s0x40b72bdcd2a948ab:0x737aea9edd5330a7!8m2!3d45.0940525!4d26.7794577!16s%2Fg%2F11l3192q7b!19sChIJq0ip0twrt0ARpzBT3Z7qenM?authuser=0&hl=tr&rclk=1",
    "website_url": "",
    "rating_text": "",
    "stars": null,
    "number_of_reviews": null,
    "price_level": "",
    "open_hours": "",
    "extraction_timestamp": "2025-06-07T18:16:51.011Z",
    "source_name": "google",
    "source_query": "Irrigation Equipment",
    "source_country": "RO",
    "country": "Romania",
    "state": "Brașov County",
    "city": "Fundata"
  },
  {
    "source_id": "ChIJ_Xqprh_btkARTm7Zzh2rMO4",
    "name": "Roagro - Tehnologii agricole",
    "category": "Roagro - Tehnologii agricole",
    "formatted_address": "5,0(1)",
    "phone_number": "+40790999988",
    "source_url": "https://www.google.com/maps/place/Roagro+-+Tehnologii+agricole/data=!4m7!3m6!1s0x40b6db1faea97afd:0xee30ab1dced96e4e!8m2!3d45.4086378!4d27.9410625!16s%2Fg%2F11wwgjgpzr!19sChIJ_Xqprh_btkARTm7Zzh2rMO4?authuser=0&hl=tr&rclk=1",
    "website_url": "",
    "rating_text": "5,0",
    "stars": null,
    "number_of_reviews": null,
    "price_level": "",
    "open_hours": "",
    "extraction_timestamp": "2025-06-07T18:16:51.012Z",
    "source_name": "google",
    "source_query": "Irrigation Equipment",
    "source_country": "RO",
    "country": "Romania",
    "state": "Brașov County",
    "city": "Fundata"
  }
]
