[
  {
    "source_id": "ChIJNVvu46mhTEcRZfxvobbBc3s",
    "name": "Romstal",
    "category": "Romstal",
    "formatted_address": "5,0(26)",
    "phone_number": "+40372123154",
    "source_url": "https://www.google.com/maps/place/Romstal/data=!4m7!3m6!1s0x474ca1a9e3ee5b35:0x7b73c1b6a16ffc65!8m2!3d45.8435314!4d24.9822014!16s%2Fg%2F11krs20wnc!19sChIJNVvu46mhTEcRZfxvobbBc3s?authuser=0&hl=tr&rclk=1",
    "website_url": "",
    "rating_text": "5,0",
    "stars": null,
    "number_of_reviews": null,
    "price_level": "",
    "open_hours": "",
    "extraction_timestamp": "2025-06-08T02:45:22.311Z",
    "source_name": "google",
    "source_query": "Irrigation Equipment",
    "source_country": "RO",
    "country": "Romania",
    "state": "Brașov County",
    "city": "Făgăraș"
  },
  {
    "source_id": "ChIJ54ftMp2hTEcRVt9kfQszN8E",
    "name": "Janmar Com",
    "category": "Janmar Com",
    "formatted_address": "4,3(306)",
    "phone_number": "+40732409952",
    "source_url": "https://www.google.com/maps/place/Janmar+Com/data=!4m7!3m6!1s0x474ca19d32ed87e7:0xc137330b7d64df56!8m2!3d45.8429663!4d24.9593099!16s%2Fg%2F1hcbh3kjk!19sChIJ54ftMp2hTEcRVt9kfQszN8E?authuser=0&hl=tr&rclk=1",
    "website_url": "",
    "rating_text": "4,3",
    "stars": null,
    "number_of_reviews": null,
    "price_level": "",
    "open_hours": "",
    "extraction_timestamp": "2025-06-08T02:45:22.312Z",
    "source_name": "google",
    "source_query": "Irrigation Equipment",
    "source_country": "RO",
    "country": "Romania",
    "state": "Brașov County",
    "city": "Făgăraș"
  },
  {
    "source_id": "ChIJ-_U9XnehTEcRw41vlRHlctU",
    "name": "YATO FAGARAS",
    "category": "YATO FAGARAS",
    "formatted_address": "4,9(43)",
    "phone_number": "+40747977159",
    "source_url": "https://www.google.com/maps/place/YATO+FAGARAS/data=!4m7!3m6!1s0x474ca1775e3df5fb:0xd572e511956f8dc3!8m2!3d45.8464057!4d24.9760042!16s%2Fg%2F11f4qfdd90!19sChIJ-_U9XnehTEcRw41vlRHlctU?authuser=0&hl=tr&rclk=1",
    "website_url": "",
    "rating_text": "4,9",
    "stars": null,
    "number_of_reviews": null,
    "price_level": "",
    "open_hours": "",
    "extraction_timestamp": "2025-06-08T02:45:22.316Z",
    "source_name": "google",
    "source_query": "Irrigation Equipment",
    "source_country": "RO",
    "country": "Romania",
    "state": "Brașov County",
    "city": "Făgăraș"
  },
  {
    "source_id": "ChIJj0Ykf_SjTEcR4qHx6IU3XzE",
    "name": "STIHL - A&V2008 Solutions",
    "category": "STIHL - A&V2008 Solutions",
    "formatted_address": "4,6(45)",
    "phone_number": "+40765277668",
    "source_url": "https://www.google.com/maps/place/STIHL+-+A%26V2008+Solutions/data=!4m7!3m6!1s0x474ca3f47f24468f:0x315f3785e8f1a1e2!8m2!3d45.8412547!4d24.9657873!16s%2Fg%2F11h_t84hl6!19sChIJj0Ykf_SjTEcR4qHx6IU3XzE?authuser=0&hl=tr&rclk=1",
    "website_url": "",
    "rating_text": "4,6",
    "stars": null,
    "number_of_reviews": null,
    "price_level": "",
    "open_hours": "",
    "extraction_timestamp": "2025-06-08T02:45:22.317Z",
    "source_name": "google",
    "source_query": "Irrigation Equipment",
    "source_country": "RO",
    "country": "Romania",
    "state": "Brașov County",
    "city": "Făgăraș"
  },
  {
    "source_id": "ChIJifLpN4KhTEcRAWNULAKo_j0",
    "name": "Ficus Impex S.R.L.",
    "category": "Ficus Impex S.R.L.",
    "formatted_address": "4,3(53)",
    "phone_number": "+40766616339",
    "source_url": "https://www.google.com/maps/place/Ficus+Impex+S.R.L./data=!4m7!3m6!1s0x474ca18237e9f289:0x3dfea8022c546301!8m2!3d45.8322373!4d24.9760765!16s%2Fg%2F1tcxt0gf!19sChIJifLpN4KhTEcRAWNULAKo_j0?authuser=0&hl=tr&rclk=1",
    "website_url": "",
    "rating_text": "4,3",
    "stars": null,
    "number_of_reviews": null,
    "price_level": "",
    "open_hours": "",
    "extraction_timestamp": "2025-06-08T02:45:22.348Z",
    "source_name": "google",
    "source_query": "Irrigation Equipment",
    "source_country": "RO",
    "country": "Romania",
    "state": "Brașov County",
    "city": "Făgăraș"
  },
  {
    "source_id": "ChIJIdz-JNyjTEcR4XSJCB8wyKk",
    "name": "Sirfa Con S.R.L.",
    "category": "Sirfa Con S.R.L.",
    "formatted_address": "4,6(112)",
    "phone_number": "+40268280161",
    "source_url": "https://www.google.com/maps/place/Sirfa+Con+S.R.L./data=!4m7!3m6!1s0x474ca3dc24fedc21:0xa9c8301f088974e1!8m2!3d45.8308457!4d24.9759165!16s%2Fg%2F1hc1kz5t7!19sChIJIdz-JNyjTEcR4XSJCB8wyKk?authuser=0&hl=tr&rclk=1",
    "website_url": "",
    "rating_text": "4,6",
    "stars": null,
    "number_of_reviews": null,
    "price_level": "",
    "open_hours": "",
    "extraction_timestamp": "2025-06-08T02:45:22.349Z",
    "source_name": "google",
    "source_query": "Irrigation Equipment",
    "source_country": "RO",
    "country": "Romania",
    "state": "Brașov County",
    "city": "Făgăraș"
  },
  {
    "source_id": "ChIJuRx2eqejTEcRrCemceIWiso",
    "name": "Azzuro Cons",
    "category": "Azzuro Cons",
    "formatted_address": "4,5(62)",
    "phone_number": "+40268214400",
    "source_url": "https://www.google.com/maps/place/Azzuro+Cons/data=!4m7!3m6!1s0x474ca3a77a761cb9:0xca8a16e271a627ac!8m2!3d45.8328809!4d24.9662443!16s%2Fg%2F113ghxy_w!19sChIJuRx2eqejTEcRrCemceIWiso?authuser=0&hl=tr&rclk=1",
    "website_url": "",
    "rating_text": "4,5",
    "stars": null,
    "number_of_reviews": null,
    "price_level": "",
    "open_hours": "",
    "extraction_timestamp": "2025-06-08T02:45:22.350Z",
    "source_name": "google",
    "source_query": "Irrigation Equipment",
    "source_country": "RO",
    "country": "Romania",
    "state": "Brașov County",
    "city": "Făgăraș"
  },
  {
    "source_id": "ChIJwUyLYRijTEcRWJxV2Dp0LNg",
    "name": "Riovirg - Depozit",
    "category": "Riovirg - Depozit",
    "formatted_address": "4,3(30)",
    "phone_number": "+40730119950",
    "source_url": "https://www.google.com/maps/place/Riovirg+-+Depozit/data=!4m7!3m6!1s0x474ca318618b4cc1:0xd82c743ad8559c58!8m2!3d45.8319208!4d24.9734906!16s%2Fg%2F11kxjslf63!19sChIJwUyLYRijTEcRWJxV2Dp0LNg?authuser=0&hl=tr&rclk=1",
    "website_url": "",
    "rating_text": "4,3",
    "stars": null,
    "number_of_reviews": null,
    "price_level": "",
    "open_hours": "",
    "extraction_timestamp": "2025-06-08T02:45:22.351Z",
    "source_name": "google",
    "source_query": "Irrigation Equipment",
    "source_country": "RO",
    "country": "Romania",
    "state": "Brașov County",
    "city": "Făgăraș"
  },
  {
    "source_id": "ChIJifLpN4KhTEcR1qWM4RcWOY8",
    "name": "Riovirg S.R.L.",
    "category": "Riovirg S.R.L.",
    "formatted_address": "4,0(85)",
    "phone_number": "+40730119950",
    "source_url": "https://www.google.com/maps/place/Riovirg+S.R.L./data=!4m7!3m6!1s0x474ca18237e9f289:0x8f391617e18ca5d6!8m2!3d45.8370808!4d24.975067!16s%2Fg%2F1tfrfk2n!19sChIJifLpN4KhTEcR1qWM4RcWOY8?authuser=0&hl=tr&rclk=1",
    "website_url": "",
    "rating_text": "4,0",
    "stars": null,
    "number_of_reviews": null,
    "price_level": "",
    "open_hours": "",
    "extraction_timestamp": "2025-06-08T02:45:22.352Z",
    "source_name": "google",
    "source_query": "Irrigation Equipment",
    "source_country": "RO",
    "country": "Romania",
    "state": "Brașov County",
    "city": "Făgăraș"
  },
  {
    "source_id": "ChIJ52AYRHyhTEcRsor6LcE09rc",
    "name": "Molifag S.R.L.",
    "category": "Molifag S.R.L.",
    "formatted_address": "4,2(38)",
    "phone_number": "+40268217098",
    "source_url": "https://www.google.com/maps/place/Molifag+S.R.L./data=!4m7!3m6!1s0x474ca17c441860e7:0xb7f634c12dfa8ab2!8m2!3d45.8379819!4d24.9741112!16s%2Fg%2F1hc6mv7j2!19sChIJ52AYRHyhTEcRsor6LcE09rc?authuser=0&hl=tr&rclk=1",
    "website_url": "",
    "rating_text": "4,2",
    "stars": null,
    "number_of_reviews": null,
    "price_level": "",
    "open_hours": "",
    "extraction_timestamp": "2025-06-08T02:45:22.353Z",
    "source_name": "google",
    "source_query": "Irrigation Equipment",
    "source_country": "RO",
    "country": "Romania",
    "state": "Brașov County",
    "city": "Făgăraș"
  },
  {
    "source_id": "ChIJAQAAU96jTEcRJivZT6EwNkE",
    "name": "Guérin Roumanie",
    "category": "Guérin Roumanie",
    "formatted_address": "4,0(3)",
    "phone_number": "+40268212142",
    "source_url": "https://www.google.com/maps/place/Gu%C3%A9rin+Roumanie/data=!4m7!3m6!1s0x474ca3de53000001:0x413630a14fd92b26!8m2!3d45.8321266!4d24.9843746!16s%2Fg%2F11h4620_36!19sChIJAQAAU96jTEcRJivZT6EwNkE?authuser=0&hl=tr&rclk=1",
    "website_url": "",
    "rating_text": "4,0",
    "stars": null,
    "number_of_reviews": null,
    "price_level": "",
    "open_hours": "",
    "extraction_timestamp": "2025-06-08T02:45:22.353Z",
    "source_name": "google",
    "source_query": "Irrigation Equipment",
    "source_country": "RO",
    "country": "Romania",
    "state": "Brașov County",
    "city": "Făgăraș"
  },
  {
    "source_id": "ChIJme-iXHmhTEcRzQMOsS5ad-s",
    "name": "Piața Agroalimentară Făgăraș",
    "category": "Piața Agroalimentară Făgăraș",
    "formatted_address": "3,9(712)",
    "phone_number": "+40268211313",
    "source_url": "https://www.google.com/maps/place/Pia%C8%9Ba+Agroalimentar%C4%83+F%C4%83g%C4%83ra%C8%99/data=!4m7!3m6!1s0x474ca1795ca2ef99:0xeb775a2eb10e03cd!8m2!3d45.8425761!4d24.9732124!16s%2Fg%2F1tctwbn2!19sChIJme-iXHmhTEcRzQMOsS5ad-s?authuser=0&hl=tr&rclk=1",
    "website_url": "",
    "rating_text": "3,9",
    "stars": null,
    "number_of_reviews": null,
    "price_level": "",
    "open_hours": "",
    "extraction_timestamp": "2025-06-08T02:45:22.354Z",
    "source_name": "google",
    "source_query": "Irrigation Equipment",
    "source_country": "RO",
    "country": "Romania",
    "state": "Brașov County",
    "city": "Făgăraș"
  },
  {
    "source_id": "ChIJuQijsYahTEcRiRGAQEltDwg",
    "name": "Total Copy Fagaras",
    "category": "Total Copy Fagaras",
    "formatted_address": "4,5(44)",
    "phone_number": "+40720528286",
    "source_url": "https://www.google.com/maps/place/Total+Copy+Fagaras/data=!4m7!3m6!1s0x474ca186b1a308b9:0x80f6d4940801189!8m2!3d45.8311414!4d24.9544051!16s%2Fg%2F1tn04l47!19sChIJuQijsYahTEcRiRGAQEltDwg?authuser=0&hl=tr&rclk=1",
    "website_url": "",
    "rating_text": "4,5",
    "stars": null,
    "number_of_reviews": null,
    "price_level": "",
    "open_hours": "",
    "extraction_timestamp": "2025-06-08T02:45:22.355Z",
    "source_name": "google",
    "source_query": "Irrigation Equipment",
    "source_country": "RO",
    "country": "Romania",
    "state": "Brașov County",
    "city": "Făgăraș"
  },
  {
    "source_id": "ChIJ-ybJytGjTEcR7hea05FdzoY",
    "name": "Tida S.R.L.",
    "category": "Tida S.R.L.",
    "formatted_address": "4,2(5)",
    "phone_number": "+40722308451",
    "source_url": "https://www.google.com/maps/place/Tida+S.R.L./data=!4m7!3m6!1s0x474ca3d1cac926fb:0x86ce5d91d39a17ee!8m2!3d45.8392184!4d24.9669951!16s%2Fg%2F1hc33ffy0!19sChIJ-ybJytGjTEcR7hea05FdzoY?authuser=0&hl=tr&rclk=1",
    "website_url": "",
    "rating_text": "4,2",
    "stars": null,
    "number_of_reviews": null,
    "price_level": "",
    "open_hours": "",
    "extraction_timestamp": "2025-06-08T02:45:22.356Z",
    "source_name": "google",
    "source_query": "Irrigation Equipment",
    "source_country": "RO",
    "country": "Romania",
    "state": "Brașov County",
    "city": "Făgăraș"
  },
  {
    "source_id": "ChIJdWz5nEKhTEcRFyZGjF0KKEM",
    "name": "Piese de bicicletă & Articole pescuit Fagaras",
    "category": "Piese de bicicletă & Articole pescuit Fagaras",
    "formatted_address": "4,9(17)",
    "phone_number": "+40762277799",
    "source_url": "https://www.google.com/maps/place/Piese+de+biciclet%C4%83+%26+Articole+pescuit+Fagaras/data=!4m7!3m6!1s0x474ca1429cf96c75:0x43280a5d8c462617!8m2!3d45.8466348!4d24.9749924!16s%2Fg%2F11j9fd22rp!19sChIJdWz5nEKhTEcRFyZGjF0KKEM?authuser=0&hl=tr&rclk=1",
    "website_url": "",
    "rating_text": "4,9",
    "stars": null,
    "number_of_reviews": null,
    "price_level": "",
    "open_hours": "",
    "extraction_timestamp": "2025-06-08T02:45:22.357Z",
    "source_name": "google",
    "source_query": "Irrigation Equipment",
    "source_country": "RO",
    "country": "Romania",
    "state": "Brașov County",
    "city": "Făgăraș"
  },
  {
    "source_id": "ChIJCwloYgChTEcR0azaKhN_lh8",
    "name": "Eternity Impex SRL",
    "category": "Eternity Impex SRL",
    "formatted_address": "",
    "phone_number": "+40744321281",
    "source_url": "https://www.google.com/maps/place/Eternity+Impex+SRL/data=!4m7!3m6!1s0x474ca1006268090b:0x1f967f132adaacd1!8m2!3d45.8379564!4d24.971648!16s%2Fg%2F11yc0xx9g1!19sChIJCwloYgChTEcR0azaKhN_lh8?authuser=0&hl=tr&rclk=1",
    "website_url": "",
    "rating_text": "",
    "stars": null,
    "number_of_reviews": null,
    "price_level": "",
    "open_hours": "",
    "extraction_timestamp": "2025-06-08T02:45:22.358Z",
    "source_name": "google",
    "source_query": "Irrigation Equipment",
    "source_country": "RO",
    "country": "Romania",
    "state": "Brașov County",
    "city": "Făgăraș"
  },
  {
    "source_id": "ChIJg1rGVaejTEcRR-xPM35jN6M",
    "name": "Riovirg",
    "category": "Riovirg",
    "formatted_address": "2,7(6)",
    "phone_number": "",
    "source_url": "https://www.google.com/maps/place/Riovirg/data=!4m7!3m6!1s0x474ca3a755c65a83:0xa337637e334fec47!8m2!3d45.8364333!4d24.9695026!16s%2Fg%2F11rg57ptln!19sChIJg1rGVaejTEcRR-xPM35jN6M?authuser=0&hl=tr&rclk=1",
    "website_url": "",
    "rating_text": "2,7",
    "stars": null,
    "number_of_reviews": null,
    "price_level": "",
    "open_hours": "",
    "extraction_timestamp": "2025-06-08T02:45:22.359Z",
    "source_name": "google",
    "source_query": "Irrigation Equipment",
    "source_country": "RO",
    "country": "Romania",
    "state": "Brașov County",
    "city": "Făgăraș"
  },
  {
    "source_id": "ChIJaXKm60mhTEcRpsmi9sgPLwM",
    "name": "Sportisimo",
    "category": "Sportisimo",
    "formatted_address": "4,5(263)",
    "phone_number": "+40728980842",
    "source_url": "https://www.google.com/maps/place/Sportisimo/data=!4m7!3m6!1s0x474ca149eba67269:0x32f0fc8f6a2c9a6!8m2!3d45.8408989!4d24.9887084!16s%2Fg%2F11g3xn54s2!19sChIJaXKm60mhTEcRpsmi9sgPLwM?authuser=0&hl=tr&rclk=1",
    "website_url": "",
    "rating_text": "4,5",
    "stars": null,
    "number_of_reviews": null,
    "price_level": "",
    "open_hours": "",
    "extraction_timestamp": "2025-06-08T02:45:22.360Z",
    "source_name": "google",
    "source_query": "Irrigation Equipment",
    "source_country": "RO",
    "country": "Romania",
    "state": "Brașov County",
    "city": "Făgăraș"
  },
  {
    "source_id": "ChIJk59NOQGhTEcROGJBrx5_LXU",
    "name": "Riovirg",
    "category": "Riovirg",
    "formatted_address": "2,0(2)",
    "phone_number": "",
    "source_url": "https://www.google.com/maps/place/Riovirg/data=!4m7!3m6!1s0x474ca101394d9f93:0x752d7f1eaf416238!8m2!3d45.8385678!4d24.9674763!16s%2Fg%2F11s7tzj4hj!19sChIJk59NOQGhTEcROGJBrx5_LXU?authuser=0&hl=tr&rclk=1",
    "website_url": "",
    "rating_text": "2,0",
    "stars": null,
    "number_of_reviews": null,
    "price_level": "",
    "open_hours": "",
    "extraction_timestamp": "2025-06-08T02:45:22.361Z",
    "source_name": "google",
    "source_query": "Irrigation Equipment",
    "source_country": "RO",
    "country": "Romania",
    "state": "Brașov County",
    "city": "Făgăraș"
  },
  {
    "source_id": "ChIJVyY_QXyhTEcR6mAb9iJwOSU",
    "name": "Practic Construct",
    "category": "Practic Construct",
    "formatted_address": "4,3(4)",
    "phone_number": "+40368418028",
    "source_url": "https://www.google.com/maps/place/Practic+Construct/data=!4m7!3m6!1s0x474ca17c413f2657:0x25397022f61b60ea!8m2!3d45.8402181!4d24.9735077!16s%2Fg%2F11c1pgp2hc!19sChIJVyY_QXyhTEcR6mAb9iJwOSU?authuser=0&hl=tr&rclk=1",
    "website_url": "",
    "rating_text": "4,3",
    "stars": null,
    "number_of_reviews": null,
    "price_level": "",
    "open_hours": "",
    "extraction_timestamp": "2025-06-08T02:45:22.361Z",
    "source_name": "google",
    "source_query": "Irrigation Equipment",
    "source_country": "RO",
    "country": "Romania",
    "state": "Brașov County",
    "city": "Făgăraș"
  },
  {
    "source_id": "ChIJ-fRGRDOhTEcRwRWcedL1mww",
    "name": "UNIX Făgăraș",
    "category": "UNIX Făgăraș",
    "formatted_address": "4,1(54)",
    "phone_number": "+40377100138",
    "source_url": "https://www.google.com/maps/place/UNIX+F%C4%83g%C4%83ra%C8%99/data=!4m7!3m6!1s0x474ca1334446f4f9:0xc9bf5d2799c15c1!8m2!3d45.8322269!4d24.9751272!16s%2Fg%2F11h4yct6_6!19sChIJ-fRGRDOhTEcRwRWcedL1mww?authuser=0&hl=tr&rclk=1",
    "website_url": "",
    "rating_text": "4,1",
    "stars": null,
    "number_of_reviews": null,
    "price_level": "",
    "open_hours": "",
    "extraction_timestamp": "2025-06-08T02:45:22.362Z",
    "source_name": "google",
    "source_query": "Irrigation Equipment",
    "source_country": "RO",
    "country": "Romania",
    "state": "Brașov County",
    "city": "Făgăraș"
  },
  {
    "source_id": "ChIJN8Ht5GmhTEcRH9Sh3bE4ioQ",
    "name": "SC AZZURO CONS SRL - Termopane + Certificat Energetic",
    "category": "SC AZZURO CONS SRL - Termopane + Certificat Energetic",
    "formatted_address": "5,0(13)",
    "phone_number": "+40729777479",
    "source_url": "https://www.google.com/maps/place/SC+AZZURO+CONS+SRL+-+Termopane+%2B+Certificat+Energetic/data=!4m7!3m6!1s0x474ca169e4edc137:0x848a38b1dda1d41f!8m2!3d45.8393315!4d24.9706384!16s%2Fg%2F11gt53j810!19sChIJN8Ht5GmhTEcRH9Sh3bE4ioQ?authuser=0&hl=tr&rclk=1",
    "website_url": "",
    "rating_text": "5,0",
    "stars": null,
    "number_of_reviews": null,
    "price_level": "",
    "open_hours": "",
    "extraction_timestamp": "2025-06-08T02:45:22.363Z",
    "source_name": "google",
    "source_query": "Irrigation Equipment",
    "source_country": "RO",
    "country": "Romania",
    "state": "Brașov County",
    "city": "Făgăraș"
  },
  {
    "source_id": "ChIJaXSYtGyjTEcR_jXimLUQqi8",
    "name": "Navomodele Navomag",
    "category": "Navomodele Navomag",
    "formatted_address": "4,8(4)",
    "phone_number": "+40720007927",
    "source_url": "https://www.google.com/maps/place/Navomodele+Navomag/data=!4m7!3m6!1s0x474ca36cb4987469:0x2faa10b598e235fe!8m2!3d45.8297495!4d24.9793707!16s%2Fg%2F11ghnc24tr!19sChIJaXSYtGyjTEcR_jXimLUQqi8?authuser=0&hl=tr&rclk=1",
    "website_url": "",
    "rating_text": "4,8",
    "stars": null,
    "number_of_reviews": null,
    "price_level": "",
    "open_hours": "",
    "extraction_timestamp": "2025-06-08T02:45:22.364Z",
    "source_name": "google",
    "source_query": "Irrigation Equipment",
    "source_country": "RO",
    "country": "Romania",
    "state": "Brașov County",
    "city": "Făgăraș"
  },
  {
    "source_id": "ChIJZ8IkQ3ihTEcRT3Ncu9rtc_g",
    "name": "LeFruMarin",
    "category": "LeFruMarin",
    "formatted_address": "4,2(18)",
    "phone_number": "+40268212303",
    "source_url": "https://www.google.com/maps/place/LeFruMarin/data=!4m7!3m6!1s0x474ca1784324c267:0xf873eddabb5c734f!8m2!3d45.8453798!4d24.9710735!16s%2Fg%2F1td_3zbr!19sChIJZ8IkQ3ihTEcRT3Ncu9rtc_g?authuser=0&hl=tr&rclk=1",
    "website_url": "",
    "rating_text": "4,2",
    "stars": null,
    "number_of_reviews": null,
    "price_level": "",
    "open_hours": "",
    "extraction_timestamp": "2025-06-08T02:45:22.365Z",
    "source_name": "google",
    "source_query": "Irrigation Equipment",
    "source_country": "RO",
    "country": "Romania",
    "state": "Brașov County",
    "city": "Făgăraș"
  },
  {
    "source_id": "ChIJj0zlzuKjTEcRZeWSS6KfsSo",
    "name": "Doliro Transcon",
    "category": "Doliro Transcon",
    "formatted_address": "4,9(11)",
    "phone_number": "+40729208910",
    "source_url": "https://www.google.com/maps/place/Doliro+Transcon/data=!4m7!3m6!1s0x474ca3e2cee54c8f:0x2ab19fa24b92e565!8m2!3d45.8327142!4d24.9707789!16s%2Fg%2F11jfqw4y12!19sChIJj0zlzuKjTEcRZeWSS6KfsSo?authuser=0&hl=tr&rclk=1",
    "website_url": "",
    "rating_text": "4,9",
    "stars": null,
    "number_of_reviews": null,
    "price_level": "",
    "open_hours": "",
    "extraction_timestamp": "2025-06-08T02:45:22.365Z",
    "source_name": "google",
    "source_query": "Irrigation Equipment",
    "source_country": "RO",
    "country": "Romania",
    "state": "Brașov County",
    "city": "Făgăraș"
  },
  {
    "source_id": "ChIJZ2EaBLShTEcR4OGU9xLB1VA",
    "name": "Detergenti Import Italia (SC FIRES ALEX SRL)",
    "category": "Detergenti Import Italia (SC FIRES ALEX SRL)",
    "formatted_address": "4,8(6)",
    "phone_number": "+40773862842",
    "source_url": "https://www.google.com/maps/place/Detergenti+Import+Italia+%28SC+FIRES+ALEX+SRL%29/data=!4m7!3m6!1s0x474ca1b4041a6167:0x50d5c112f794e1e0!8m2!3d45.8425306!4d24.9687189!16s%2Fg%2F11h5dn0xb2!19sChIJZ2EaBLShTEcR4OGU9xLB1VA?authuser=0&hl=tr&rclk=1",
    "website_url": "",
    "rating_text": "4,8",
    "stars": null,
    "number_of_reviews": null,
    "price_level": "",
    "open_hours": "",
    "extraction_timestamp": "2025-06-08T02:45:22.366Z",
    "source_name": "google",
    "source_query": "Irrigation Equipment",
    "source_country": "RO",
    "country": "Romania",
    "state": "Brașov County",
    "city": "Făgăraș"
  },
  {
    "source_id": "ChIJ2bVvMGShTEcR1Yh_6J0zYXU",
    "name": "Pensiunea D&D",
    "category": "Pensiunea D&D",
    "formatted_address": "4,2(225)",
    "phone_number": "+40724004800",
    "source_url": "https://www.google.com/maps/place/Pensiunea+D%26D/data=!4m10!3m9!1s0x474ca164306fb5d9:0x7561339de87f88d5!5m2!4m1!1i2!8m2!3d45.8403063!4d24.9855944!16s%2Fg%2F1ptvt7n09!19sChIJ2bVvMGShTEcR1Yh_6J0zYXU?authuser=0&hl=tr&rclk=1",
    "website_url": "",
    "rating_text": "4,2",
    "stars": null,
    "number_of_reviews": null,
    "price_level": "",
    "open_hours": "",
    "extraction_timestamp": "2025-06-08T02:45:22.367Z",
    "source_name": "google",
    "source_query": "Irrigation Equipment",
    "source_country": "RO",
    "country": "Romania",
    "state": "Brașov County",
    "city": "Făgăraș"
  }
]
