[
  {
    "source_id": "ChIJUZSfpzZbs0ARH_h_hCdSYxY",
    "name": "Bauer Kompressoren Romania",
    "category": "Bauer Kompressoren Romania",
    "formatted_address": "4,8(6)",
    "phone_number": "",
    "source_url": "https://www.google.com/maps/place/Bauer+Kompressoren+Romania/data=!4m7!3m6!1s0x40b35b36a79f9451:0x16635227847ff81f!8m2!3d45.6482328!4d25.5297628!16s%2Fg%2F11txfb39bf!19sChIJUZSfpzZbs0ARH_h_hCdSYxY?authuser=0&hl=tr&rclk=1",
    "website_url": "https://www.bauer-kompressoren.ro/",
    "rating_text": "4,8",
    "stars": null,
    "number_of_reviews": null,
    "price_level": "",
    "open_hours": "",
    "extraction_timestamp": "2025-06-07T18:10:38.047Z",
    "source_name": "google",
    "source_query": "Irrigation Equipment",
    "source_country": "RO",
    "country": "Romania",
    "state": "Brașov County",
    "city": "Ghimbav"
  },
  {
    "source_id": "ChIJbVR0BF9bs0ARHI3Kpp6_nTk",
    "name": "ISO ELECTRIC",
    "category": "ISO ELECTRIC",
    "formatted_address": "4,8(6)",
    "phone_number": "+40767191856",
    "source_url": "https://www.google.com/maps/place/ISO+ELECTRIC/data=!4m7!3m6!1s0x40b35b5f0474546d:0x399dbf9ea6ca8d1c!8m2!3d45.6677017!4d25.5050823!16s%2Fg%2F11rf6mxvlb!19sChIJbVR0BF9bs0ARHI3Kpp6_nTk?authuser=0&hl=tr&rclk=1",
    "website_url": "",
    "rating_text": "4,8",
    "stars": null,
    "number_of_reviews": null,
    "price_level": "",
    "open_hours": "",
    "extraction_timestamp": "2025-06-07T18:10:38.048Z",
    "source_name": "google",
    "source_query": "Irrigation Equipment",
    "source_country": "RO",
    "country": "Romania",
    "state": "Brașov County",
    "city": "Ghimbav"
  },
  {
    "source_id": "ChIJf1IBKTFbs0ARACGsW5eYgWI",
    "name": "Drip & Grow",
    "category": "Drip & Grow",
    "formatted_address": "5,0(2)",
    "phone_number": "+40749804338",
    "source_url": "https://www.google.com/maps/place/Drip+%26+Grow/data=!4m7!3m6!1s0x40b35b312901527f:0x628198975bac2100!8m2!3d45.6937252!4d25.644182!16s%2Fg%2F11kprxztdq!19sChIJf1IBKTFbs0ARACGsW5eYgWI?authuser=0&hl=tr&rclk=1",
    "website_url": "http://www.dripandgrow.ro/",
    "rating_text": "5,0",
    "stars": null,
    "number_of_reviews": null,
    "price_level": "",
    "open_hours": "",
    "extraction_timestamp": "2025-06-07T18:10:38.048Z",
    "source_name": "google",
    "source_query": "Irrigation Equipment",
    "source_country": "RO",
    "country": "Romania",
    "state": "Brașov County",
    "city": "Ghimbav"
  },
  {
    "source_id": "ChIJSc52LPpds0ARRn6D2MxGEP4",
    "name": "Krongrass Equipment",
    "category": "Krongrass Equipment",
    "formatted_address": "5,0(2)",
    "phone_number": "+40744565495",
    "source_url": "https://www.google.com/maps/place/Krongrass+Equipment/data=!4m7!3m6!1s0x40b35dfa2c76ce49:0xfe1046ccd8837e46!8m2!3d45.6466883!4d25.6378089!16s%2Fg%2F11kj0x16vd!19sChIJSc52LPpds0ARRn6D2MxGEP4?authuser=0&hl=tr&rclk=1",
    "website_url": "http://www.spider-cositoare.com/",
    "rating_text": "5,0",
    "stars": null,
    "number_of_reviews": null,
    "price_level": "",
    "open_hours": "",
    "extraction_timestamp": "2025-06-07T18:10:38.048Z",
    "source_name": "google",
    "source_query": "Irrigation Equipment",
    "source_country": "RO",
    "country": "Romania",
    "state": "Brașov County",
    "city": "Ghimbav"
  },
  {
    "source_id": "ChIJxTlzQ25cs0ARbRRg7VLrKPw",
    "name": "Instal generation",
    "category": "Instal generation",
    "formatted_address": "5,0(5)",
    "phone_number": "+40745189529",
    "source_url": "https://www.google.com/maps/place/Instal+generation/data=!4m7!3m6!1s0x40b35c6e437339c5:0xfc28eb52ed60146d!8m2!3d45.6541089!4d25.63197!16s%2Fg%2F11flzgjjqz!19sChIJxTlzQ25cs0ARbRRg7VLrKPw?authuser=0&hl=tr&rclk=1",
    "website_url": "http://www.instalgeneration.ro/",
    "rating_text": "5,0",
    "stars": null,
    "number_of_reviews": null,
    "price_level": "",
    "open_hours": "",
    "extraction_timestamp": "2025-06-07T18:10:38.049Z",
    "source_name": "google",
    "source_query": "Irrigation Equipment",
    "source_country": "RO",
    "country": "Romania",
    "state": "Brașov County",
    "city": "Ghimbav"
  },
  {
    "source_id": "ChIJ30Wh5YZas0ARdwdSvQpIYgk",
    "name": "Piramis Srl",
    "category": "Piramis Srl",
    "formatted_address": "4,6(48)",
    "phone_number": "+40368800808",
    "source_url": "https://www.google.com/maps/place/Piramis+Srl/data=!4m7!3m6!1s0x40b35a86e5a145df:0x962480abd520777!8m2!3d45.6668663!4d25.508958!16s%2Fg%2F11g9rkytd4!19sChIJ30Wh5YZas0ARdwdSvQpIYgk?authuser=0&hl=tr&rclk=1",
    "website_url": "https://piramisconstruct.ro/",
    "rating_text": "4,6",
    "stars": null,
    "number_of_reviews": null,
    "price_level": "",
    "open_hours": "",
    "extraction_timestamp": "2025-06-07T18:10:38.049Z",
    "source_name": "google",
    "source_query": "Irrigation Equipment",
    "source_country": "RO",
    "country": "Romania",
    "state": "Brașov County",
    "city": "Ghimbav"
  },
  {
    "source_id": "ChIJfy9ySulbs0ARjTkyGIT6EVQ",
    "name": "Amenajare Drumuri și Asfaltări Brașov | GAM",
    "category": "Amenajare Drumuri și Asfaltări Brașov | GAM",
    "formatted_address": "4,5(2)",
    "phone_number": "+40743660938",
    "source_url": "https://www.google.com/maps/place/Amenajare+Drumuri+%C8%99i+Asfalt%C4%83ri+Bra%C8%99ov+%7C+GAM/data=!4m7!3m6!1s0x40b35be94a722f7f:0x5411fa841832398d!8m2!3d45.6630759!4d25.5037935!16s%2Fg%2F11vyx601k8!19sChIJfy9ySulbs0ARjTkyGIT6EVQ?authuser=0&hl=tr&rclk=1",
    "website_url": "https://gamasfaltari.ro/",
    "rating_text": "4,5",
    "stars": null,
    "number_of_reviews": null,
    "price_level": "",
    "open_hours": "",
    "extraction_timestamp": "2025-06-07T18:10:38.050Z",
    "source_name": "google",
    "source_query": "Irrigation Equipment",
    "source_country": "RO",
    "country": "Romania",
    "state": "Brașov County",
    "city": "Ghimbav"
  },
  {
    "source_id": "ChIJk3rJuNBbs0ARSk5po_HIu_s",
    "name": "AXS Machinery închirieri utilaje terasamente Ghimbav Brasov",
    "category": "AXS Machinery închirieri utilaje terasamente Ghimbav Brasov",
    "formatted_address": "5,0(2)",
    "phone_number": "+40753985778",
    "source_url": "https://www.google.com/maps/place/AXS+Machinery+%C3%AEnchirieri+utilaje+terasamente+Ghimbav+Brasov/data=!4m7!3m6!1s0x40b35bd0b8c97a93:0xfbbbc8f1a3694e4a!8m2!3d45.6568199!4d25.5049673!16s%2Fg%2F11ssbf2cj1!19sChIJk3rJuNBbs0ARSk5po_HIu_s?authuser=0&hl=tr&rclk=1",
    "website_url": "http://www.utilajebrasov.ro/",
    "rating_text": "5,0",
    "stars": null,
    "number_of_reviews": null,
    "price_level": "",
    "open_hours": "",
    "extraction_timestamp": "2025-06-07T18:10:38.050Z",
    "source_name": "google",
    "source_query": "Irrigation Equipment",
    "source_country": "RO",
    "country": "Romania",
    "state": "Brașov County",
    "city": "Ghimbav"
  },
  {
    "source_id": "ChIJNQ0zxghas0AR0jCjzWhGpg8",
    "name": "IAR Brasov",
    "category": "IAR Brasov",
    "formatted_address": "4,5(66)",
    "phone_number": "+40268475269",
    "source_url": "https://www.google.com/maps/place/IAR+Brasov/data=!4m7!3m6!1s0x40b35a08c6330d35:0xfa64668cda330d2!8m2!3d45.693216!4d25.5311536!16s%2Fg%2F11cmcymmm5!19sChIJNQ0zxghas0AR0jCjzWhGpg8?authuser=0&hl=tr&rclk=1",
    "website_url": "http://www.iar.ro/",
    "rating_text": "4,5",
    "stars": null,
    "number_of_reviews": null,
    "price_level": "",
    "open_hours": "",
    "extraction_timestamp": "2025-06-07T18:10:38.050Z",
    "source_name": "google",
    "source_query": "Irrigation Equipment",
    "source_country": "RO",
    "country": "Romania",
    "state": "Brașov County",
    "city": "Ghimbav"
  },
  {
    "source_id": "ChIJiYrW93hcs0ARpKmOIL1sTuI",
    "name": "Valinst Agriculture",
    "category": "Valinst Agriculture",
    "formatted_address": "5,0(1)",
    "phone_number": "+40730330543",
    "source_url": "https://www.google.com/maps/place/Valinst+Agriculture/data=!4m7!3m6!1s0x40b35c78f7d68a89:0xe24e6cbd208ea9a4!8m2!3d45.6527567!4d25.6143965!16s%2Fg%2F11hf04lgwp!19sChIJiYrW93hcs0ARpKmOIL1sTuI?authuser=0&hl=tr&rclk=1",
    "website_url": "http://www.valinst.ro/en/contact",
    "rating_text": "5,0",
    "stars": null,
    "number_of_reviews": null,
    "price_level": "",
    "open_hours": "",
    "extraction_timestamp": "2025-06-07T18:10:38.051Z",
    "source_name": "google",
    "source_query": "Irrigation Equipment",
    "source_country": "RO",
    "country": "Romania",
    "state": "Brașov County",
    "city": "Ghimbav"
  },
  {
    "source_id": "ChIJe_tU3Bhbs0ARYNkGVHO5YKE",
    "name": "HIDROstore Brașov",
    "category": "HIDROstore Brașov",
    "formatted_address": "5,0(13)",
    "phone_number": "+40771576228",
    "source_url": "https://www.google.com/maps/place/HIDROstore+Bra%C8%99ov/data=!4m7!3m6!1s0x40b35b18dc54fb7b:0xa160b9735406d960!8m2!3d45.6734944!4d25.5800351!16s%2Fg%2F11w8pn_mjw!19sChIJe_tU3Bhbs0ARYNkGVHO5YKE?authuser=0&hl=tr&rclk=1",
    "website_url": "https://hidrostore.ro/brasov",
    "rating_text": "5,0",
    "stars": null,
    "number_of_reviews": null,
    "price_level": "",
    "open_hours": "",
    "extraction_timestamp": "2025-06-07T18:10:38.051Z",
    "source_name": "google",
    "source_query": "Irrigation Equipment",
    "source_country": "RO",
    "country": "Romania",
    "state": "Brașov County",
    "city": "Ghimbav"
  },
  {
    "source_id": "ChIJP1bi345as0ARR57nY5MXCgk",
    "name": "Tess Brasov",
    "category": "Tess Brasov",
    "formatted_address": "4,2(928)",
    "phone_number": "+40268473040",
    "source_url": "https://www.google.com/maps/place/Tess+Brasov/data=!4m7!3m6!1s0x40b35a8edfe2563f:0x90a179363e79e47!8m2!3d45.6627862!4d25.5137686!16s%2Fg%2F1tf275ch!19sChIJP1bi345as0ARR57nY5MXCgk?authuser=0&hl=tr&rclk=1",
    "website_url": "http://www.tess.ro/",
    "rating_text": "4,2",
    "stars": null,
    "number_of_reviews": null,
    "price_level": "",
    "open_hours": "",
    "extraction_timestamp": "2025-06-07T18:10:38.051Z",
    "source_name": "google",
    "source_query": "Irrigation Equipment",
    "source_country": "RO",
    "country": "Romania",
    "state": "Brașov County",
    "city": "Ghimbav"
  },
  {
    "source_id": "ChIJy17x2YZas0ARnp4p4OmtckY",
    "name": "Crinalina",
    "category": "Crinalina",
    "formatted_address": "4,3(175)",
    "phone_number": "+40737667077",
    "source_url": "https://www.google.com/maps/place/Crinalina/data=!4m7!3m6!1s0x40b35a86d9f15ecb:0x4672ade9e0299e9e!8m2!3d45.6670479!4d25.5083575!16s%2Fg%2F11csb01tmw!19sChIJy17x2YZas0ARnp4p4OmtckY?authuser=0&hl=tr&rclk=1",
    "website_url": "",
    "rating_text": "4,3",
    "stars": null,
    "number_of_reviews": null,
    "price_level": "",
    "open_hours": "",
    "extraction_timestamp": "2025-06-07T18:10:38.052Z",
    "source_name": "google",
    "source_query": "Irrigation Equipment",
    "source_country": "RO",
    "country": "Romania",
    "state": "Brașov County",
    "city": "Ghimbav"
  },
  {
    "source_id": "ChIJ75U28UJcs0ARn5rOXEMHehs",
    "name": "Romradiatoare",
    "category": "Romradiatoare",
    "formatted_address": "4,6(17)",
    "phone_number": "+40268317550",
    "source_url": "https://www.google.com/maps/place/Romradiatoare/data=!4m7!3m6!1s0x40b35c42f13695ef:0x1b7a07435cce9a9f!8m2!3d45.6505059!4d25.6439921!16s%2Fg%2F1tfz_l60!19sChIJ75U28UJcs0ARn5rOXEMHehs?authuser=0&hl=tr&rclk=1",
    "website_url": "http://www.romradiatoare.com/",
    "rating_text": "4,6",
    "stars": null,
    "number_of_reviews": null,
    "price_level": "",
    "open_hours": "",
    "extraction_timestamp": "2025-06-07T18:10:38.052Z",
    "source_name": "google",
    "source_query": "Irrigation Equipment",
    "source_country": "RO",
    "country": "Romania",
    "state": "Brașov County",
    "city": "Ghimbav"
  },
  {
    "source_id": "ChIJ4ZZDEYhcs0ARo-l6WqHusqo",
    "name": "Dumian S.R.L.",
    "category": "Dumian S.R.L.",
    "formatted_address": "2,7(3)",
    "phone_number": "+40268318688",
    "source_url": "https://www.google.com/maps/place/Dumian+S.R.L./data=!4m7!3m6!1s0x40b35c88114396e1:0xaab2eea15a7ae9a3!8m2!3d45.6426687!4d25.6194748!16s%2Fg%2F1hc4h4xr9!19sChIJ4ZZDEYhcs0ARo-l6WqHusqo?authuser=0&hl=tr&rclk=1",
    "website_url": "https://www.listafirme.ro/dumian-srl-1095718/",
    "rating_text": "2,7",
    "stars": null,
    "number_of_reviews": null,
    "price_level": "",
    "open_hours": "",
    "extraction_timestamp": "2025-06-07T18:10:38.053Z",
    "source_name": "google",
    "source_query": "Irrigation Equipment",
    "source_country": "RO",
    "country": "Romania",
    "state": "Brașov County",
    "city": "Ghimbav"
  },
  {
    "source_id": "ChIJzTLnH31bs0ARWr1XOxoyVdc",
    "name": "Center Market",
    "category": "Center Market",
    "formatted_address": "4,6(15)",
    "phone_number": "+40732820870",
    "source_url": "https://www.google.com/maps/place/Center+Market/data=!4m7!3m6!1s0x40b35b7d1fe732cd:0xd755321a3b57bd5a!8m2!3d45.663886!4d25.506272!16s%2Fg%2F11t7bmks2k!19sChIJzTLnH31bs0ARWr1XOxoyVdc?authuser=0&hl=tr&rclk=1",
    "website_url": "https://www.facebook.com/piataghimbav/",
    "rating_text": "4,6",
    "stars": null,
    "number_of_reviews": null,
    "price_level": "",
    "open_hours": "",
    "extraction_timestamp": "2025-06-07T18:10:38.053Z",
    "source_name": "google",
    "source_query": "Irrigation Equipment",
    "source_country": "RO",
    "country": "Romania",
    "state": "Brașov County",
    "city": "Ghimbav"
  },
  {
    "source_id": "ChIJixa4D7Fbs0ARN71GcVeMdvI",
    "name": "LA PARTER",
    "category": "LA PARTER",
    "formatted_address": "4,6(207)",
    "phone_number": "",
    "source_url": "https://www.google.com/maps/place/LA+PARTER/data=!4m7!3m6!1s0x40b35bb10fb8168b:0xf2768c577146bd37!8m2!3d45.6585201!4d25.5089683!16s%2Fg%2F11h160nm1f!19sChIJixa4D7Fbs0ARN71GcVeMdvI?authuser=0&hl=tr&rclk=1",
    "website_url": "http://laparter.ro/",
    "rating_text": "4,6",
    "stars": null,
    "number_of_reviews": null,
    "price_level": "",
    "open_hours": "",
    "extraction_timestamp": "2025-06-07T18:10:38.053Z",
    "source_name": "google",
    "source_query": "Irrigation Equipment",
    "source_country": "RO",
    "country": "Romania",
    "state": "Brașov County",
    "city": "Ghimbav"
  },
  {
    "source_id": "ChIJ9d2aS4JZs0ARi-pZTsrzGJE",
    "name": "Electrician Brasov",
    "category": "Electrician Brasov",
    "formatted_address": "5,0(28)",
    "phone_number": "+40752779779",
    "source_url": "https://www.google.com/maps/place/Electrician+Brasov/data=!4m7!3m6!1s0x40b359824b9addf5:0x9118f3ca4e59ea8b!8m2!3d45.6524781!4d25.5964628!16s%2Fg%2F11r7vnbs_t!19sChIJ9d2aS4JZs0ARi-pZTsrzGJE?authuser=0&hl=tr&rclk=1",
    "website_url": "https://instalator-brasov.ro/electrician-brasov/",
    "rating_text": "5,0",
    "stars": null,
    "number_of_reviews": null,
    "price_level": "",
    "open_hours": "",
    "extraction_timestamp": "2025-06-07T18:10:38.054Z",
    "source_name": "google",
    "source_query": "Irrigation Equipment",
    "source_country": "RO",
    "country": "Romania",
    "state": "Brașov County",
    "city": "Ghimbav"
  },
  {
    "source_id": "ChIJIc6vcABbs0ARaybhFFSaEcE",
    "name": "Magazin Non-Stop Honu",
    "category": "Magazin Non-Stop Honu",
    "formatted_address": "5,0(10)",
    "phone_number": "+40762187720",
    "source_url": "https://www.google.com/maps/place/Magazin+Non-Stop+Honu/data=!4m7!3m6!1s0x40b35b0070afce21:0xc1119a5414e1266b!8m2!3d45.6672094!4d25.5081557!16s%2Fg%2F11vz94nf1t!19sChIJIc6vcABbs0ARaybhFFSaEcE?authuser=0&hl=tr&rclk=1",
    "website_url": "",
    "rating_text": "5,0",
    "stars": null,
    "number_of_reviews": null,
    "price_level": "",
    "open_hours": "",
    "extraction_timestamp": "2025-06-07T18:10:38.054Z",
    "source_name": "google",
    "source_query": "Irrigation Equipment",
    "source_country": "RO",
    "country": "Romania",
    "state": "Brașov County",
    "city": "Ghimbav"
  },
  {
    "source_id": "ChIJE_VYbfhas0ARTjBBP3r8Ojw",
    "name": "Arabesque",
    "category": "Arabesque",
    "formatted_address": "3,5(555)",
    "phone_number": "+40374012345",
    "source_url": "https://www.google.com/maps/place/Arabesque/data=!4m7!3m6!1s0x40b35af86d58f513:0x3c3afc7a3f41304e!8m2!3d45.6608096!4d25.5460872!16s%2Fg%2F1q5bnhz3h!19sChIJE_VYbfhas0ARTjBBP3r8Ojw?authuser=0&hl=tr&rclk=1",
    "website_url": "https://arabesque.ro/",
    "rating_text": "3,5",
    "stars": null,
    "number_of_reviews": null,
    "price_level": "",
    "open_hours": "",
    "extraction_timestamp": "2025-06-07T18:10:38.071Z",
    "source_name": "google",
    "source_query": "Irrigation Equipment",
    "source_country": "RO",
    "country": "Romania",
    "state": "Brașov County",
    "city": "Ghimbav"
  },
  {
    "source_id": "ChIJlzC5ZptZs0AR-E0gh9kCJfQ",
    "name": "Meseriaș Instalator Brașov - KIRILA LUCIPA SRL",
    "category": "Meseriaș Instalator Brașov - KIRILA LUCIPA SRL",
    "formatted_address": "4,9(31)",
    "phone_number": "+40730354076",
    "source_url": "https://www.google.com/maps/place/Meseria%C8%99+Instalator+Bra%C8%99ov+-+KIRILA+LUCIPA+SRL/data=!4m7!3m6!1s0x40b3599b66b93097:0xf42502d987204df8!8m2!3d45.691429!4d25.6294113!16s%2Fg%2F11t5b1c2ry!19sChIJlzC5ZptZs0AR-E0gh9kCJfQ?authuser=0&hl=tr&rclk=1",
    "website_url": "",
    "rating_text": "4,9",
    "stars": null,
    "number_of_reviews": null,
    "price_level": "",
    "open_hours": "",
    "extraction_timestamp": "2025-06-07T18:10:38.072Z",
    "source_name": "google",
    "source_query": "Irrigation Equipment",
    "source_country": "RO",
    "country": "Romania",
    "state": "Brașov County",
    "city": "Ghimbav"
  },
  {
    "source_id": "ChIJu1YSjzSDw0URjcgBGv8G3NQ",
    "name": "Gradini Verzi",
    "category": "Gradini Verzi",
    "formatted_address": "5,0(19)",
    "phone_number": "+40727069669",
    "source_url": "https://www.google.com/maps/place/Gradini+Verzi/data=!4m7!3m6!1s0x45c383348f1256bb:0xd4dc06ff1a01c88d!8m2!3d45.651576!4d25.6118307!16s%2Fg%2F11sjr8sb4r!19sChIJu1YSjzSDw0URjcgBGv8G3NQ?authuser=0&hl=tr&rclk=1",
    "website_url": "http://gradiniverzi.ro/",
    "rating_text": "5,0",
    "stars": null,
    "number_of_reviews": null,
    "price_level": "",
    "open_hours": "",
    "extraction_timestamp": "2025-06-07T18:10:38.074Z",
    "source_name": "google",
    "source_query": "Irrigation Equipment",
    "source_country": "RO",
    "country": "Romania",
    "state": "Brașov County",
    "city": "Ghimbav"
  },
  {
    "source_id": "ChIJGdpng5LyCyIR2nqaWAfAjDg",
    "name": "24/7 InstaloMania™ - Instalator Brasov - Electrician Brasov",
    "category": "24/7 InstaloMania™ - Instalator Brasov - Electrician Brasov",
    "formatted_address": "24/7 InstaloMania™ - Instalator Brasov - Electrician Brasov",
    "phone_number": "+40756618439",
    "source_url": "https://www.google.com/maps/place/24%2F7+InstaloMania%E2%84%A2+-+Instalator+Brasov+-+Electrician+Brasov/data=!4m7!3m6!1s0x220bf2928367da19:0x388cc007589a7ada!8m2!3d45.6543492!4d25.6127264!16s%2Fg%2F11j_20n1xw!19sChIJGdpng5LyCyIR2nqaWAfAjDg?authuser=0&hl=tr&rclk=1",
    "website_url": "http://www.instalomania.ro/",
    "rating_text": "4,9",
    "stars": null,
    "number_of_reviews": null,
    "price_level": "",
    "open_hours": "",
    "extraction_timestamp": "2025-06-07T18:10:38.075Z",
    "source_name": "google",
    "source_query": "Irrigation Equipment",
    "source_country": "RO",
    "country": "Romania",
    "state": "Brașov County",
    "city": "Ghimbav"
  },
  {
    "source_id": "ChIJe6wdOnFhs0ARIwE3yBbzHho",
    "name": "MAGEREXIM",
    "category": "MAGEREXIM",
    "formatted_address": "4,9(17)",
    "phone_number": "+40741647984",
    "source_url": "https://www.google.com/maps/place/MAGEREXIM/data=!4m7!3m6!1s0x40b361713a1dac7b:0x1a1ef316c8370123!8m2!3d45.6718863!4d25.7960882!16s%2Fg%2F11jgnm3g__!19sChIJe6wdOnFhs0ARIwE3yBbzHho?authuser=0&hl=tr&rclk=1",
    "website_url": "https://magerexim.ro/",
    "rating_text": "4,9",
    "stars": null,
    "number_of_reviews": null,
    "price_level": "",
    "open_hours": "",
    "extraction_timestamp": "2025-06-07T18:10:38.076Z",
    "source_name": "google",
    "source_query": "Irrigation Equipment",
    "source_country": "RO",
    "country": "Romania",
    "state": "Brașov County",
    "city": "Ghimbav"
  },
  {
    "source_id": "ChIJBWxRW4lcs0AR4johcYtY_Us",
    "name": "Hod-Chimex",
    "category": "Hod-Chimex",
    "formatted_address": "4,3(110)",
    "phone_number": "+40268320340",
    "source_url": "https://www.google.com/maps/place/Hod-Chimex/data=!4m7!3m6!1s0x40b35c895b516c05:0x4bfd588b71213ae2!8m2!3d45.6388375!4d25.6217574!16s%2Fg%2F1wrtbc6q!19sChIJBWxRW4lcs0AR4johcYtY_Us?authuser=0&hl=tr&rclk=1",
    "website_url": "",
    "rating_text": "4,3",
    "stars": null,
    "number_of_reviews": null,
    "price_level": "",
    "open_hours": "",
    "extraction_timestamp": "2025-06-07T18:10:38.076Z",
    "source_name": "google",
    "source_query": "Irrigation Equipment",
    "source_country": "RO",
    "country": "Romania",
    "state": "Brașov County",
    "city": "Ghimbav"
  },
  {
    "source_id": "ChIJA7B1Z2Zds0ARur30HS3Ah04",
    "name": "instalator brasov NON STOP sanitare termice",
    "category": "instalator brasov NON STOP sanitare termice",
    "formatted_address": "4,2(33)",
    "phone_number": "+40755189138",
    "source_url": "https://www.google.com/maps/place/instalator+brasov+NON+STOP+sanitare+termice/data=!4m7!3m6!1s0x40b35d666775b003:0x4e87c02d1df4bdba!8m2!3d45.655991!4d25.6178539!16s%2Fg%2F11h7b34qd_!19sChIJA7B1Z2Zds0ARur30HS3Ah04?authuser=0&hl=tr&rclk=1",
    "website_url": "https://instalatorbrasov.wixsite.com/website-1",
    "rating_text": "4,2",
    "stars": null,
    "number_of_reviews": null,
    "price_level": "",
    "open_hours": "",
    "extraction_timestamp": "2025-06-07T18:10:38.077Z",
    "source_name": "google",
    "source_query": "Irrigation Equipment",
    "source_country": "RO",
    "country": "Romania",
    "state": "Brașov County",
    "city": "Ghimbav"
  },
  {
    "source_id": "ChIJeSzL3Vxds0AR6X-B95oOv-w",
    "name": "Profi termo rapid srl",
    "category": "Profi termo rapid srl",
    "formatted_address": "5,0(1)",
    "phone_number": "+40749217335",
    "source_url": "https://www.google.com/maps/place/Profi+termo+rapid+srl/data=!4m7!3m6!1s0x40b35d5cddcb2c79:0xecbf0e9af7817fe9!8m2!3d45.6561935!4d25.6182168!16s%2Fg%2F11v9kvqrk8!19sChIJeSzL3Vxds0AR6X-B95oOv-w?authuser=0&hl=tr&rclk=1",
    "website_url": "",
    "rating_text": "5,0",
    "stars": null,
    "number_of_reviews": null,
    "price_level": "",
    "open_hours": "",
    "extraction_timestamp": "2025-06-07T18:10:38.078Z",
    "source_name": "google",
    "source_query": "Irrigation Equipment",
    "source_country": "RO",
    "country": "Romania",
    "state": "Brașov County",
    "city": "Ghimbav"
  },
  {
    "source_id": "ChIJ533c6G5ds0ARRQFuSRJfj0A",
    "name": "optim instal",
    "category": "optim instal",
    "formatted_address": "5,0(2)",
    "phone_number": "+40755189138",
    "source_url": "https://www.google.com/maps/place/optim+instal/data=!4m7!3m6!1s0x40b35d6ee8dc7de7:0x408f5f12496e0145!8m2!3d45.6574762!4d25.6195777!16s%2Fg%2F11hdvhkgsn!19sChIJ533c6G5ds0ARRQFuSRJfj0A?authuser=0&hl=tr&rclk=1",
    "website_url": "",
    "rating_text": "5,0",
    "stars": null,
    "number_of_reviews": null,
    "price_level": "",
    "open_hours": "",
    "extraction_timestamp": "2025-06-07T18:10:38.080Z",
    "source_name": "google",
    "source_query": "Irrigation Equipment",
    "source_country": "RO",
    "country": "Romania",
    "state": "Brașov County",
    "city": "Ghimbav"
  },
  {
    "source_id": "ChIJCzF_OmNcs0ARIuaS30c_Uok",
    "name": "SC Contor Group SA",
    "category": "SC Contor Group SA",
    "formatted_address": "",
    "phone_number": "+40268306334",
    "source_url": "https://www.google.com/maps/place/SC+Contor+Group+SA/data=!4m7!3m6!1s0x40b35c633a7f310b:0x89523f47df92e622!8m2!3d45.6462633!4d25.6228284!16s%2Fg%2F1hc1jflnj!19sChIJCzF_OmNcs0ARIuaS30c_Uok?authuser=0&hl=tr&rclk=1",
    "website_url": "",
    "rating_text": "",
    "stars": null,
    "number_of_reviews": null,
    "price_level": "",
    "open_hours": "",
    "extraction_timestamp": "2025-06-07T18:10:38.081Z",
    "source_name": "google",
    "source_query": "Irrigation Equipment",
    "source_country": "RO",
    "country": "Romania",
    "state": "Brașov County",
    "city": "Ghimbav"
  },
  {
    "source_id": "ChIJ9Zd2jX9ds0AROE-qFBs59r4",
    "name": "IZORARE ECOSYSTEM S.R.L.",
    "category": "IZORARE ECOSYSTEM S.R.L.",
    "formatted_address": "4,7(15)",
    "phone_number": "+40752529099",
    "source_url": "https://www.google.com/maps/place/IZORARE+ECOSYSTEM+S.R.L./data=!4m7!3m6!1s0x40b35d7f8d7697f5:0xbef6391b14aa4f38!8m2!3d45.6255463!4d25.6934206!16s%2Fg%2F1yg93q4n0!19sChIJ9Zd2jX9ds0AROE-qFBs59r4?authuser=0&hl=tr&rclk=1",
    "website_url": "http://www.izorare.ro/",
    "rating_text": "4,7",
    "stars": null,
    "number_of_reviews": null,
    "price_level": "",
    "open_hours": "",
    "extraction_timestamp": "2025-06-07T18:10:38.082Z",
    "source_name": "google",
    "source_query": "Irrigation Equipment",
    "source_country": "RO",
    "country": "Romania",
    "state": "Brașov County",
    "city": "Ghimbav"
  },
  {
    "source_id": "ChIJ-S12dNJbs0ARYBrWXx8xPwk",
    "name": "Uniprest Instal Brașov",
    "category": "Uniprest Instal Brașov",
    "formatted_address": "4,8(11)",
    "phone_number": "+40734730447",
    "source_url": "https://www.google.com/maps/place/Uniprest+Instal+Bra%C8%99ov/data=!4m7!3m6!1s0x40b35bd274762df9:0x93f311f5fd61a60!8m2!3d45.6791809!4d25.6348915!16s%2Fg%2F11cnbsbfmc!19sChIJ-S12dNJbs0ARYBrWXx8xPwk?authuser=0&hl=tr&rclk=1",
    "website_url": "http://www.uniprest.ro/",
    "rating_text": "4,8",
    "stars": null,
    "number_of_reviews": null,
    "price_level": "",
    "open_hours": "",
    "extraction_timestamp": "2025-06-07T18:10:38.083Z",
    "source_name": "google",
    "source_query": "Irrigation Equipment",
    "source_country": "RO",
    "country": "Romania",
    "state": "Brașov County",
    "city": "Ghimbav"
  },
  {
    "source_id": "ChIJGbgEUZlbs0ARlVqJY2Ku8uQ",
    "name": "Biscaya Co S.R.L.",
    "category": "Biscaya Co S.R.L.",
    "formatted_address": "",
    "phone_number": "+40773301516",
    "source_url": "https://www.google.com/maps/place/Biscaya+Co+S.R.L./data=!4m7!3m6!1s0x40b35b995104b819:0xe4f2ae6263895a95!8m2!3d45.6579891!4d25.5873908!16s%2Fg%2F1hc3p_w0j!19sChIJGbgEUZlbs0ARlVqJY2Ku8uQ?authuser=0&hl=tr&rclk=1",
    "website_url": "",
    "rating_text": "",
    "stars": null,
    "number_of_reviews": null,
    "price_level": "",
    "open_hours": "",
    "extraction_timestamp": "2025-06-07T18:10:38.085Z",
    "source_name": "google",
    "source_query": "Irrigation Equipment",
    "source_country": "RO",
    "country": "Romania",
    "state": "Brașov County",
    "city": "Ghimbav"
  },
  {
    "source_id": "ChIJIxm9dLpbs0ARsW3XtOWGS_A",
    "name": "The Liquor Store Brașov",
    "category": "The Liquor Store Brașov",
    "formatted_address": "5,0(1)",
    "phone_number": "",
    "source_url": "https://www.google.com/maps/place/The+Liquor+Store+Bra%C8%99ov/data=!4m7!3m6!1s0x40b35bba74bd1923:0xf04b86e5b4d76db1!8m2!3d45.6685938!4d25.6145457!16s%2Fg%2F11xcgrthmt!19sChIJIxm9dLpbs0ARsW3XtOWGS_A?authuser=0&hl=tr&rclk=1",
    "website_url": "https://theliquor.store.ro/",
    "rating_text": "5,0",
    "stars": null,
    "number_of_reviews": null,
    "price_level": "",
    "open_hours": "",
    "extraction_timestamp": "2025-06-07T18:10:38.085Z",
    "source_name": "google",
    "source_query": "Irrigation Equipment",
    "source_country": "RO",
    "country": "Romania",
    "state": "Brașov County",
    "city": "Ghimbav"
  },
  {
    "source_id": "ChIJPZGrFXxbs0ARpAWHcPtNTGw",
    "name": "Green Spot - Amenajari Gradini Brasov | Intretineri Gradini Brasov",
    "category": "Green Spot - Amenajari Gradini Brasov | Intretineri Gradini Brasov",
    "formatted_address": "4,9(102)",
    "phone_number": "+40721120791",
    "source_url": "https://www.google.com/maps/place/Green+Spot+-+Amenajari+Gradini+Brasov+%7C+Intretineri+Gradini+Brasov/data=!4m7!3m6!1s0x40b35b7c15ab913d:0x6c4c4dfb708705a4!8m2!3d45.674179!4d25.6188278!16s%2Fg%2F11c3tqs_kk!19sChIJPZGrFXxbs0ARpAWHcPtNTGw?authuser=0&hl=tr&rclk=1",
    "website_url": "http://www.greenspot.ro/",
    "rating_text": "4,9",
    "stars": null,
    "number_of_reviews": null,
    "price_level": "",
    "open_hours": "",
    "extraction_timestamp": "2025-06-07T18:10:38.086Z",
    "source_name": "google",
    "source_query": "Irrigation Equipment",
    "source_country": "RO",
    "country": "Romania",
    "state": "Brașov County",
    "city": "Ghimbav"
  }
]
