[
  {
    "source_id": "ChIJ05s_Msdbs0ARtWqcVmxiNmM",
    "name": "Industrial Plast SRL",
    "category": "Industrial Plast SRL",
    "formatted_address": "4,3(25)",
    "phone_number": "+40749270460",
    "source_url": "https://www.google.com/maps/place/Industrial+Plast+SRL/data=!4m7!3m6!1s0x40b35bc7323f9bd3:0x6336626c569c6ab5!8m2!3d45.6723806!4d25.5907429!16s%2Fg%2F113g7jczx!19sChIJ05s_Msdbs0ARtWqcVmxiNmM?authuser=0&hl=tr&rclk=1",
    "website_url": "",
    "rating_text": "4,3",
    "stars": null,
    "number_of_reviews": null,
    "price_level": "",
    "open_hours": "",
    "extraction_timestamp": "2025-06-07T18:26:20.852Z",
    "source_name": "google",
    "source_query": "Irrigation Equipment",
    "source_country": "RO",
    "country": "Romania",
    "state": "Brașov County",
    "city": "Holbav"
  },
  {
    "source_id": "ChIJaQzqLmZcs0ARU6r3VaUK6iE",
    "name": "AKRO S.R.L.",
    "category": "AKRO S.R.L.",
    "formatted_address": "4,7(13)",
    "phone_number": "+40268413180",
    "source_url": "https://www.google.com/maps/place/AKRO+S.R.L./data=!4m7!3m6!1s0x40b35c662eea0c69:0x21ea0aa555f7aa53!8m2!3d45.6485042!4d25.6406578!16s%2Fg%2F1hc250gs3!19sChIJaQzqLmZcs0ARU6r3VaUK6iE?authuser=0&hl=tr&rclk=1",
    "website_url": "",
    "rating_text": "4,7",
    "stars": null,
    "number_of_reviews": null,
    "price_level": "",
    "open_hours": "",
    "extraction_timestamp": "2025-06-07T18:26:20.853Z",
    "source_name": "google",
    "source_query": "Irrigation Equipment",
    "source_country": "RO",
    "country": "Romania",
    "state": "Brașov County",
    "city": "Holbav"
  },
  {
    "source_id": "ChIJLb_Eartbs0ARsgyH2lUGGNM",
    "name": "Techno Pro",
    "category": "Techno Pro",
    "formatted_address": "4,3(493)",
    "phone_number": "+40752424242",
    "source_url": "https://www.google.com/maps/place/Techno+Pro/data=!4m7!3m6!1s0x40b35bbb6ac4bf2d:0xd3180655da870cb2!8m2!3d45.6640885!4d25.5813535!16s%2Fg%2F1jkz4jl5x!19sChIJLb_Eartbs0ARsgyH2lUGGNM?authuser=0&hl=tr&rclk=1",
    "website_url": "",
    "rating_text": "4,3",
    "stars": null,
    "number_of_reviews": null,
    "price_level": "",
    "open_hours": "",
    "extraction_timestamp": "2025-06-07T18:26:20.853Z",
    "source_name": "google",
    "source_query": "Irrigation Equipment",
    "source_country": "RO",
    "country": "Romania",
    "state": "Brașov County",
    "city": "Holbav"
  },
  {
    "source_id": "ChIJSc52LPpds0ARRn6D2MxGEP4",
    "name": "Krongrass Equipment",
    "category": "Krongrass Equipment",
    "formatted_address": "5,0(2)",
    "phone_number": "+40744565495",
    "source_url": "https://www.google.com/maps/place/Krongrass+Equipment/data=!4m7!3m6!1s0x40b35dfa2c76ce49:0xfe1046ccd8837e46!8m2!3d45.6466883!4d25.6378089!16s%2Fg%2F11kj0x16vd!19sChIJSc52LPpds0ARRn6D2MxGEP4?authuser=0&hl=tr&rclk=1",
    "website_url": "",
    "rating_text": "5,0",
    "stars": null,
    "number_of_reviews": null,
    "price_level": "",
    "open_hours": "",
    "extraction_timestamp": "2025-06-07T18:26:20.853Z",
    "source_name": "google",
    "source_query": "Irrigation Equipment",
    "source_country": "RO",
    "country": "Romania",
    "state": "Brașov County",
    "city": "Holbav"
  },
  {
    "source_id": "ChIJiYrW93hcs0ARpKmOIL1sTuI",
    "name": "Valinst Agriculture",
    "category": "Valinst Agriculture",
    "formatted_address": "5,0(1)",
    "phone_number": "+40730330543",
    "source_url": "https://www.google.com/maps/place/Valinst+Agriculture/data=!4m7!3m6!1s0x40b35c78f7d68a89:0xe24e6cbd208ea9a4!8m2!3d45.6527567!4d25.6143965!16s%2Fg%2F11hf04lgwp!19sChIJiYrW93hcs0ARpKmOIL1sTuI?authuser=0&hl=tr&rclk=1",
    "website_url": "",
    "rating_text": "5,0",
    "stars": null,
    "number_of_reviews": null,
    "price_level": "",
    "open_hours": "",
    "extraction_timestamp": "2025-06-07T18:26:20.854Z",
    "source_name": "google",
    "source_query": "Irrigation Equipment",
    "source_country": "RO",
    "country": "Romania",
    "state": "Brașov County",
    "city": "Holbav"
  },
  {
    "source_id": "ChIJe_tU3Bhbs0ARYNkGVHO5YKE",
    "name": "HIDROstore Brașov",
    "category": "HIDROstore Brașov",
    "formatted_address": "5,0(13)",
    "phone_number": "+40771576228",
    "source_url": "https://www.google.com/maps/place/HIDROstore+Bra%C8%99ov/data=!4m7!3m6!1s0x40b35b18dc54fb7b:0xa160b9735406d960!8m2!3d45.6734944!4d25.5800351!16s%2Fg%2F11w8pn_mjw!19sChIJe_tU3Bhbs0ARYNkGVHO5YKE?authuser=0&hl=tr&rclk=1",
    "website_url": "",
    "rating_text": "5,0",
    "stars": null,
    "number_of_reviews": null,
    "price_level": "",
    "open_hours": "",
    "extraction_timestamp": "2025-06-07T18:26:20.865Z",
    "source_name": "google",
    "source_query": "Irrigation Equipment",
    "source_country": "RO",
    "country": "Romania",
    "state": "Brașov County",
    "city": "Holbav"
  },
  {
    "source_id": "ChIJ75U28UJcs0ARn5rOXEMHehs",
    "name": "Romradiatoare",
    "category": "Romradiatoare",
    "formatted_address": "4,6(17)",
    "phone_number": "+40268317550",
    "source_url": "https://www.google.com/maps/place/Romradiatoare/data=!4m7!3m6!1s0x40b35c42f13695ef:0x1b7a07435cce9a9f!8m2!3d45.6505059!4d25.6439921!16s%2Fg%2F1tfz_l60!19sChIJ75U28UJcs0ARn5rOXEMHehs?authuser=0&hl=tr&rclk=1",
    "website_url": "",
    "rating_text": "4,6",
    "stars": null,
    "number_of_reviews": null,
    "price_level": "",
    "open_hours": "",
    "extraction_timestamp": "2025-06-07T18:26:20.865Z",
    "source_name": "google",
    "source_query": "Irrigation Equipment",
    "source_country": "RO",
    "country": "Romania",
    "state": "Brașov County",
    "city": "Holbav"
  },
  {
    "source_id": "ChIJxTlzQ25cs0ARbRRg7VLrKPw",
    "name": "Instal generation",
    "category": "Instal generation",
    "formatted_address": "5,0(5)",
    "phone_number": "+40745189529",
    "source_url": "https://www.google.com/maps/place/Instal+generation/data=!4m7!3m6!1s0x40b35c6e437339c5:0xfc28eb52ed60146d!8m2!3d45.6541089!4d25.63197!16s%2Fg%2F11flzgjjqz!19sChIJxTlzQ25cs0ARbRRg7VLrKPw?authuser=0&hl=tr&rclk=1",
    "website_url": "",
    "rating_text": "5,0",
    "stars": null,
    "number_of_reviews": null,
    "price_level": "",
    "open_hours": "",
    "extraction_timestamp": "2025-06-07T18:26:20.865Z",
    "source_name": "google",
    "source_query": "Irrigation Equipment",
    "source_country": "RO",
    "country": "Romania",
    "state": "Brașov County",
    "city": "Holbav"
  }
]
