[
  {
    "source_id": "ChIJ05s_Msdbs0ARtWqcVmxiNmM",
    "name": "Industrial Plast SRL",
    "category": "Industrial Plast SRL",
    "formatted_address": "4,3(25)",
    "phone_number": "+40749270460",
    "source_url": "https://www.google.com/maps/place/Industrial+Plast+SRL/data=!4m7!3m6!1s0x40b35bc7323f9bd3:0x6336626c569c6ab5!8m2!3d45.6723806!4d25.5907429!16s%2Fg%2F113g7jczx!19sChIJ05s_Msdbs0ARtWqcVmxiNmM?authuser=0&hl=tr&rclk=1",
    "website_url": "",
    "rating_text": "4,3",
    "stars": null,
    "number_of_reviews": null,
    "price_level": "",
    "open_hours": "",
    "extraction_timestamp": "2025-06-08T02:45:02.609Z",
    "source_name": "google",
    "source_query": "Irrigation Equipment",
    "source_country": "RO",
    "country": "Romania",
    "state": "Brașov County",
    "city": "Hălchiu"
  },
  {
    "source_id": "ChIJaQzqLmZcs0ARU6r3VaUK6iE",
    "name": "AKRO S.R.L.",
    "category": "AKRO S.R.L.",
    "formatted_address": "4,7(13)",
    "phone_number": "+40268413180",
    "source_url": "https://www.google.com/maps/place/AKRO+S.R.L./data=!4m7!3m6!1s0x40b35c662eea0c69:0x21ea0aa555f7aa53!8m2!3d45.6485042!4d25.6406578!16s%2Fg%2F1hc250gs3!19sChIJaQzqLmZcs0ARU6r3VaUK6iE?authuser=0&hl=tr&rclk=1",
    "website_url": "",
    "rating_text": "4,7",
    "stars": null,
    "number_of_reviews": null,
    "price_level": "",
    "open_hours": "",
    "extraction_timestamp": "2025-06-08T02:45:02.609Z",
    "source_name": "google",
    "source_query": "Irrigation Equipment",
    "source_country": "RO",
    "country": "Romania",
    "state": "Brașov County",
    "city": "Hălchiu"
  },
  {
    "source_id": "ChIJrX5InkxXs0ARReQYklU1iZ8",
    "name": "Nova Chem",
    "category": "Nova Chem",
    "formatted_address": "4,7(39)",
    "phone_number": "+40730038587",
    "source_url": "https://www.google.com/maps/place/Nova+Chem/data=!4m7!3m6!1s0x40b3574c9e487ead:0x9f8935559218e445!8m2!3d45.7505797!4d25.5796955!16s%2Fg%2F11hzjj5m4v!19sChIJrX5InkxXs0ARReQYklU1iZ8?authuser=0&hl=tr&rclk=1",
    "website_url": "",
    "rating_text": "4,7",
    "stars": null,
    "number_of_reviews": null,
    "price_level": "",
    "open_hours": "",
    "extraction_timestamp": "2025-06-08T02:45:02.610Z",
    "source_name": "google",
    "source_query": "Irrigation Equipment",
    "source_country": "RO",
    "country": "Romania",
    "state": "Brașov County",
    "city": "Hălchiu"
  },
  {
    "source_id": "ChIJh6wXwKdXs0ARHU3hVBC-9dU",
    "name": "Helsy Prod Impex SRL",
    "category": "Helsy Prod Impex SRL",
    "formatted_address": "4,8(13)",
    "phone_number": "",
    "source_url": "https://www.google.com/maps/place/Helsy+Prod+Impex+SRL/data=!4m7!3m6!1s0x40b357a7c017ac87:0xd5f5be1054e14d1d!8m2!3d45.7671182!4d25.5492283!16s%2Fg%2F11hrzwfg0p!19sChIJh6wXwKdXs0ARHU3hVBC-9dU?authuser=0&hl=tr&rclk=1",
    "website_url": "",
    "rating_text": "4,8",
    "stars": null,
    "number_of_reviews": null,
    "price_level": "",
    "open_hours": "",
    "extraction_timestamp": "2025-06-08T02:45:02.610Z",
    "source_name": "google",
    "source_query": "Irrigation Equipment",
    "source_country": "RO",
    "country": "Romania",
    "state": "Brașov County",
    "city": "Hălchiu"
  },
  {
    "source_id": "ChIJJ9v5HblXs0AR_1M-lpmhirw",
    "name": "Doripesco",
    "category": "Doripesco",
    "formatted_address": "4,1(223)",
    "phone_number": "+40268481682",
    "source_url": "https://www.google.com/maps/place/Doripesco/data=!4m7!3m6!1s0x40b357b91df9db27:0xbc8aa199963e53ff!8m2!3d45.7611143!4d25.5437884!16s%2Fg%2F1hc28_3f3!19sChIJJ9v5HblXs0AR_1M-lpmhirw?authuser=0&hl=tr&rclk=1",
    "website_url": "",
    "rating_text": "4,1",
    "stars": null,
    "number_of_reviews": null,
    "price_level": "",
    "open_hours": "",
    "extraction_timestamp": "2025-06-08T02:45:02.610Z",
    "source_name": "google",
    "source_query": "Irrigation Equipment",
    "source_country": "RO",
    "country": "Romania",
    "state": "Brașov County",
    "city": "Hălchiu"
  },
  {
    "source_id": "ChIJCQayaPpbs0ARhf_zEF9vwQg",
    "name": "SC Agri Sigeva SRL",
    "category": "SC Agri Sigeva SRL",
    "formatted_address": "5,0(2)",
    "phone_number": "+40722529586",
    "source_url": "https://www.google.com/maps/place/SC+Agri+Sigeva+SRL/data=!4m7!3m6!1s0x40b35bfa68b20609:0x8c16f5f10f3ff85!8m2!3d45.6744327!4d25.621811!16s%2Fg%2F1pztj9780!19sChIJCQayaPpbs0ARhf_zEF9vwQg?authuser=0&hl=tr&rclk=1",
    "website_url": "",
    "rating_text": "5,0",
    "stars": null,
    "number_of_reviews": null,
    "price_level": "",
    "open_hours": "",
    "extraction_timestamp": "2025-06-08T02:45:02.611Z",
    "source_name": "google",
    "source_query": "Irrigation Equipment",
    "source_country": "RO",
    "country": "Romania",
    "state": "Brașov County",
    "city": "Hălchiu"
  },
  {
    "source_id": "ChIJiYrW93hcs0ARpKmOIL1sTuI",
    "name": "Valinst Agriculture",
    "category": "Valinst Agriculture",
    "formatted_address": "5,0(1)",
    "phone_number": "+40730330543",
    "source_url": "https://www.google.com/maps/place/Valinst+Agriculture/data=!4m7!3m6!1s0x40b35c78f7d68a89:0xe24e6cbd208ea9a4!8m2!3d45.6527567!4d25.6143965!16s%2Fg%2F11hf04lgwp!19sChIJiYrW93hcs0ARpKmOIL1sTuI?authuser=0&hl=tr&rclk=1",
    "website_url": "",
    "rating_text": "5,0",
    "stars": null,
    "number_of_reviews": null,
    "price_level": "",
    "open_hours": "",
    "extraction_timestamp": "2025-06-08T02:45:02.611Z",
    "source_name": "google",
    "source_query": "Irrigation Equipment",
    "source_country": "RO",
    "country": "Romania",
    "state": "Brașov County",
    "city": "Hălchiu"
  },
  {
    "source_id": "ChIJxTlzQ25cs0ARbRRg7VLrKPw",
    "name": "Instal generation",
    "category": "Instal generation",
    "formatted_address": "5,0(5)",
    "phone_number": "+40745189529",
    "source_url": "https://www.google.com/maps/place/Instal+generation/data=!4m7!3m6!1s0x40b35c6e437339c5:0xfc28eb52ed60146d!8m2!3d45.6541089!4d25.63197!16s%2Fg%2F11flzgjjqz!19sChIJxTlzQ25cs0ARbRRg7VLrKPw?authuser=0&hl=tr&rclk=1",
    "website_url": "",
    "rating_text": "5,0",
    "stars": null,
    "number_of_reviews": null,
    "price_level": "",
    "open_hours": "",
    "extraction_timestamp": "2025-06-08T02:45:02.611Z",
    "source_name": "google",
    "source_query": "Irrigation Equipment",
    "source_country": "RO",
    "country": "Romania",
    "state": "Brașov County",
    "city": "Hălchiu"
  },
  {
    "source_id": "ChIJe_tU3Bhbs0ARYNkGVHO5YKE",
    "name": "HIDROstore Brașov",
    "category": "HIDROstore Brașov",
    "formatted_address": "5,0(13)",
    "phone_number": "+40771576228",
    "source_url": "https://www.google.com/maps/place/HIDROstore+Bra%C8%99ov/data=!4m7!3m6!1s0x40b35b18dc54fb7b:0xa160b9735406d960!8m2!3d45.6734944!4d25.5800351!16s%2Fg%2F11w8pn_mjw!19sChIJe_tU3Bhbs0ARYNkGVHO5YKE?authuser=0&hl=tr&rclk=1",
    "website_url": "",
    "rating_text": "5,0",
    "stars": null,
    "number_of_reviews": null,
    "price_level": "",
    "open_hours": "",
    "extraction_timestamp": "2025-06-08T02:45:02.612Z",
    "source_name": "google",
    "source_query": "Irrigation Equipment",
    "source_country": "RO",
    "country": "Romania",
    "state": "Brașov County",
    "city": "Hălchiu"
  },
  {
    "source_id": "ChIJ2U1dOBFds0ARVahiJzcRMfY",
    "name": "Hidraulica",
    "category": "Hidraulica",
    "formatted_address": "4,3(126)",
    "phone_number": "+40268276526",
    "source_url": "https://www.google.com/maps/place/Hidraulica/data=!4m7!3m6!1s0x40b35d11385d4dd9:0xf63111372762a855!8m2!3d45.6182657!4d25.6645712!16s%2Fg%2F1xb2c1vz!19sChIJ2U1dOBFds0ARVahiJzcRMfY?authuser=0&hl=tr&rclk=1",
    "website_url": "",
    "rating_text": "4,3",
    "stars": null,
    "number_of_reviews": null,
    "price_level": "",
    "open_hours": "",
    "extraction_timestamp": "2025-06-08T02:45:02.612Z",
    "source_name": "google",
    "source_query": "Irrigation Equipment",
    "source_country": "RO",
    "country": "Romania",
    "state": "Brașov County",
    "city": "Hălchiu"
  },
  {
    "source_id": "ChIJY0aVZTFXs0ARCW8T9JIl99U",
    "name": "Profi Loco",
    "category": "Profi Loco",
    "formatted_address": "4,1(150)",
    "phone_number": "+40799908507",
    "source_url": "https://www.google.com/maps/place/Profi+Loco/data=!4m7!3m6!1s0x40b3573165954663:0xd5f72592f4136f09!8m2!3d45.7605682!4d25.5447348!16s%2Fg%2F11gm8sn42t!19sChIJY0aVZTFXs0ARCW8T9JIl99U?authuser=0&hl=tr&rclk=1",
    "website_url": "",
    "rating_text": "4,1",
    "stars": null,
    "number_of_reviews": null,
    "price_level": "",
    "open_hours": "",
    "extraction_timestamp": "2025-06-08T02:45:02.612Z",
    "source_name": "google",
    "source_query": "Irrigation Equipment",
    "source_country": "RO",
    "country": "Romania",
    "state": "Brașov County",
    "city": "Hălchiu"
  },
  {
    "source_id": "ChIJaddb4AVbs0ARNtiE7mCZ8bo",
    "name": "Plasticos Prod S.R.L.",
    "category": "Plasticos Prod S.R.L.",
    "formatted_address": "",
    "phone_number": "+40744325460",
    "source_url": "https://www.google.com/maps/place/Plasticos+Prod+S.R.L./data=!4m7!3m6!1s0x40b35b05e05bd769:0xbaf19960ee84d836!8m2!3d45.6529736!4d25.5653119!16s%2Fg%2F1hc2w459_!19sChIJaddb4AVbs0ARNtiE7mCZ8bo?authuser=0&hl=tr&rclk=1",
    "website_url": "",
    "rating_text": "",
    "stars": null,
    "number_of_reviews": null,
    "price_level": "",
    "open_hours": "",
    "extraction_timestamp": "2025-06-08T02:45:02.613Z",
    "source_name": "google",
    "source_query": "Irrigation Equipment",
    "source_country": "RO",
    "country": "Romania",
    "state": "Brașov County",
    "city": "Hălchiu"
  },
  {
    "source_id": "ChIJb_-OmHdXs0ARuwT1siVztTc",
    "name": "Măcelărie Fresh Market",
    "category": "Măcelărie Fresh Market",
    "formatted_address": "4,6(5)",
    "phone_number": "+40748615059",
    "source_url": "https://www.google.com/maps/place/M%C4%83cel%C4%83rie+Fresh+Market/data=!4m7!3m6!1s0x40b35777988eff6f:0x37b57325b2f504bb!8m2!3d45.7611388!4d25.5434737!16s%2Fg%2F11fnw0bwtw!19sChIJb_-OmHdXs0ARuwT1siVztTc?authuser=0&hl=tr&rclk=1",
    "website_url": "",
    "rating_text": "4,6",
    "stars": null,
    "number_of_reviews": null,
    "price_level": "",
    "open_hours": "",
    "extraction_timestamp": "2025-06-08T02:45:02.613Z",
    "source_name": "google",
    "source_query": "Irrigation Equipment",
    "source_country": "RO",
    "country": "Romania",
    "state": "Brașov County",
    "city": "Hălchiu"
  },
  {
    "source_id": "ChIJMev0eOdZs0ARMeiqaeoGQjs",
    "name": "Verificare Sistem de Avertizare la Incendiu",
    "category": "Verificare Sistem de Avertizare la Incendiu",
    "formatted_address": "5,0(1)",
    "phone_number": "+40757371244",
    "source_url": "https://www.google.com/maps/place/Verificare+Sistem+de+Avertizare+la+Incendiu/data=!4m7!3m6!1s0x40b359e778f4eb31:0x3b4206ea69aae831!8m2!3d45.7158082!4d25.5883415!16s%2Fg%2F11n82qz9h8!19sChIJMev0eOdZs0ARMeiqaeoGQjs?authuser=0&hl=tr&rclk=1",
    "website_url": "",
    "rating_text": "5,0",
    "stars": null,
    "number_of_reviews": null,
    "price_level": "",
    "open_hours": "",
    "extraction_timestamp": "2025-06-08T02:45:02.613Z",
    "source_name": "google",
    "source_query": "Irrigation Equipment",
    "source_country": "RO",
    "country": "Romania",
    "state": "Brașov County",
    "city": "Hălchiu"
  },
  {
    "source_id": "ChIJn2PllT9Xs0ARu70hN7hfbTs",
    "name": "Magazin alimentar",
    "category": "Magazin alimentar",
    "formatted_address": "5,0(2)",
    "phone_number": "+40726628003",
    "source_url": "https://www.google.com/maps/place/Magazin+alimentar/data=!4m7!3m6!1s0x40b3573f95e5639f:0x3b6d5fb83721bdbb!8m2!3d45.7611097!4d25.542371!16s%2Fg%2F11swty189f!19sChIJn2PllT9Xs0ARu70hN7hfbTs?authuser=0&hl=tr&rclk=1",
    "website_url": "",
    "rating_text": "5,0",
    "stars": null,
    "number_of_reviews": null,
    "price_level": "",
    "open_hours": "",
    "extraction_timestamp": "2025-06-08T02:45:02.613Z",
    "source_name": "google",
    "source_query": "Irrigation Equipment",
    "source_country": "RO",
    "country": "Romania",
    "state": "Brașov County",
    "city": "Hălchiu"
  }
]
