[
  {
    "source_id": "ChIJ9Zd2jX9ds0AROE-qFBs59r4",
    "name": "IZORARE ECOSYSTEM S.R.L.",
    "category": "IZORARE ECOSYSTEM S.R.L.",
    "formatted_address": "4,7(15)",
    "phone_number": "+40752529099",
    "source_url": "https://www.google.com/maps/place/IZORARE+ECOSYSTEM+S.R.L./data=!4m7!3m6!1s0x40b35d7f8d7697f5:0xbef6391b14aa4f38!8m2!3d45.6255463!4d25.6934206!16s%2Fg%2F1yg93q4n0!19sChIJ9Zd2jX9ds0AROE-qFBs59r4?authuser=0&hl=tr&rclk=1",
    "website_url": "http://www.izorare.ro/",
    "rating_text": "4,7",
    "stars": null,
    "number_of_reviews": null,
    "price_level": "",
    "open_hours": "",
    "extraction_timestamp": "2025-06-07T18:21:34.630Z",
    "source_name": "google",
    "source_query": "Irrigation Equipment",
    "source_country": "RO",
    "country": "Romania",
    "state": "Brașov County",
    "city": "Municipiul Sãcele"
  },
  {
    "source_id": "ChIJ2U1dOBFds0ARVahiJzcRMfY",
    "name": "Hidraulica",
    "category": "Hidraulica",
    "formatted_address": "4,3(126)",
    "phone_number": "+40268276526",
    "source_url": "https://www.google.com/maps/place/Hidraulica/data=!4m7!3m6!1s0x40b35d11385d4dd9:0xf63111372762a855!8m2!3d45.6182657!4d25.6645712!16s%2Fg%2F1xb2c1vz!19sChIJ2U1dOBFds0ARVahiJzcRMfY?authuser=0&hl=tr&rclk=1",
    "website_url": "http://www.hidraulica.ro/",
    "rating_text": "4,3",
    "stars": null,
    "number_of_reviews": null,
    "price_level": "",
    "open_hours": "",
    "extraction_timestamp": "2025-06-07T18:21:34.632Z",
    "source_name": "google",
    "source_query": "Irrigation Equipment",
    "source_country": "RO",
    "country": "Romania",
    "state": "Brașov County",
    "city": "Municipiul Sãcele"
  },
  {
    "source_id": "ChIJrQ897ttds0ARhdWdpolRtbY",
    "name": "Instal Carpatica",
    "category": "Instal Carpatica",
    "formatted_address": "4,8(12)",
    "phone_number": "+40372919332",
    "source_url": "https://www.google.com/maps/place/Instal+Carpatica/data=!4m7!3m6!1s0x40b35ddbee3d0fad:0xb6b55189a69dd585!8m2!3d45.6182504!4d25.64334!16s%2Fg%2F11fnlthr36!19sChIJrQ897ttds0ARhdWdpolRtbY?authuser=0&hl=tr&rclk=1",
    "website_url": "https://instalcarpatica.ro/",
    "rating_text": "4,8",
    "stars": null,
    "number_of_reviews": null,
    "price_level": "",
    "open_hours": "",
    "extraction_timestamp": "2025-06-07T18:21:34.633Z",
    "source_name": "google",
    "source_query": "Irrigation Equipment",
    "source_country": "RO",
    "country": "Romania",
    "state": "Brașov County",
    "city": "Municipiul Sãcele"
  },
  {
    "source_id": "ChIJA3xHTYxcs0ARnkvJueur5W8",
    "name": "Ecoflam SRL",
    "category": "Ecoflam SRL",
    "formatted_address": "4,2(55)",
    "phone_number": "+40368401281",
    "source_url": "https://www.google.com/maps/place/Ecoflam+SRL/data=!4m7!3m6!1s0x40b35c8c4d477c03:0x6fe5abebb9c94b9e!8m2!3d45.6322993!4d25.6235519!16s%2Fg%2F11cs29g8qn!19sChIJA3xHTYxcs0ARnkvJueur5W8?authuser=0&hl=tr&rclk=1",
    "website_url": "",
    "rating_text": "4,2",
    "stars": null,
    "number_of_reviews": null,
    "price_level": "",
    "open_hours": "",
    "extraction_timestamp": "2025-06-07T18:21:34.635Z",
    "source_name": "google",
    "source_query": "Irrigation Equipment",
    "source_country": "RO",
    "country": "Romania",
    "state": "Brașov County",
    "city": "Municipiul Sãcele"
  },
  {
    "source_id": "ChIJ7ea_UCJns0ARwR0N6SCrfd8",
    "name": "Master House Grup",
    "category": "Master House Grup",
    "formatted_address": "4,8(61)",
    "phone_number": "+40744835332",
    "source_url": "https://www.google.com/maps/place/Master+House+Grup/data=!4m7!3m6!1s0x40b3672250bfe6ed:0xdf7dab20e90d1dc1!8m2!3d45.6178159!4d25.7190381!16s%2Fg%2F11rrrs359l!19sChIJ7ea_UCJns0ARwR0N6SCrfd8?authuser=0&hl=tr&rclk=1",
    "website_url": "",
    "rating_text": "4,8",
    "stars": null,
    "number_of_reviews": null,
    "price_level": "",
    "open_hours": "",
    "extraction_timestamp": "2025-06-07T18:21:34.636Z",
    "source_name": "google",
    "source_query": "Irrigation Equipment",
    "source_country": "RO",
    "country": "Romania",
    "state": "Brașov County",
    "city": "Municipiul Sãcele"
  },
  {
    "source_id": "ChIJf7snJ3xds0ARg_ROIKmH_wQ",
    "name": "Sipcarp - Universul pescarilor - Articole de pescuit",
    "category": "Sipcarp - Universul pescarilor - Articole de pescuit",
    "formatted_address": "4,8(193)",
    "phone_number": "+40730512755",
    "source_url": "https://www.google.com/maps/place/Sipcarp+-+Universul+pescarilor+-+Articole+de+pescuit/data=!4m7!3m6!1s0x40b35d7c2727bb7f:0x4ff87a9204ef483!8m2!3d45.6186901!4d25.7014535!16s%2Fg%2F1hdzjx1kv!19sChIJf7snJ3xds0ARg_ROIKmH_wQ?authuser=0&hl=tr&rclk=1",
    "website_url": "",
    "rating_text": "4,8",
    "stars": null,
    "number_of_reviews": null,
    "price_level": "",
    "open_hours": "",
    "extraction_timestamp": "2025-06-07T18:21:34.638Z",
    "source_name": "google",
    "source_query": "Irrigation Equipment",
    "source_country": "RO",
    "country": "Romania",
    "state": "Brașov County",
    "city": "Municipiul Sãcele"
  },
  {
    "source_id": "ChIJF6waY_pcs0AR3kyA4lIVgZk",
    "name": "Brico Depot",
    "category": "Brico Depot",
    "formatted_address": "4,1(1.650)",
    "phone_number": "+40212043434",
    "source_url": "https://www.google.com/maps/place/Brico+Depot/data=!4m7!3m6!1s0x40b35cfa631aac17:0x99811552e2804cde!8m2!3d45.6306858!4d25.6401593!16s%2Fg%2F1tj83byg!19sChIJF6waY_pcs0AR3kyA4lIVgZk?authuser=0&hl=tr&rclk=1",
    "website_url": "https://www.bricodepot.ro/contact/",
    "rating_text": "4,1",
    "stars": null,
    "number_of_reviews": null,
    "price_level": "",
    "open_hours": "",
    "extraction_timestamp": "2025-06-07T18:21:34.641Z",
    "source_name": "google",
    "source_query": "Irrigation Equipment",
    "source_country": "RO",
    "country": "Romania",
    "state": "Brașov County",
    "city": "Municipiul Sãcele"
  },
  {
    "source_id": "ChIJIUIzH_Fcs0ARSb8mlNek1c0",
    "name": "Romstal",
    "category": "Romstal",
    "formatted_address": "4,2(367)",
    "phone_number": "+40372123117",
    "source_url": "https://www.google.com/maps/place/Romstal/data=!4m7!3m6!1s0x40b35cf11f334221:0xcdd5a4d79426bf49!8m2!3d45.6330626!4d25.636574!16s%2Fg%2F12cpmrxnc!19sChIJIUIzH_Fcs0ARSb8mlNek1c0?authuser=0&hl=tr&rclk=1",
    "website_url": "http://www.romstal.ro/",
    "rating_text": "4,2",
    "stars": null,
    "number_of_reviews": null,
    "price_level": "",
    "open_hours": "",
    "extraction_timestamp": "2025-06-07T18:21:34.643Z",
    "source_name": "google",
    "source_query": "Irrigation Equipment",
    "source_country": "RO",
    "country": "Romania",
    "state": "Brașov County",
    "city": "Municipiul Sãcele"
  },
  {
    "source_id": "ChIJaQGYLaJbs0ARWezPlclsRcU",
    "name": "AQUAS",
    "category": "AQUAS",
    "formatted_address": "5,0(45)",
    "phone_number": "+40739444400",
    "source_url": "https://www.google.com/maps/place/AQUAS/data=!4m7!3m6!1s0x40b35ba22d980169:0xc5456cc995cfec59!8m2!3d45.6366816!4d25.6207551!16s%2Fg%2F11jt0qxkjm!19sChIJaQGYLaJbs0ARWezPlclsRcU?authuser=0&hl=tr&rclk=1",
    "website_url": "https://www.aquas.ro/",
    "rating_text": "5,0",
    "stars": null,
    "number_of_reviews": null,
    "price_level": "",
    "open_hours": "",
    "extraction_timestamp": "2025-06-07T18:21:34.645Z",
    "source_name": "google",
    "source_query": "Irrigation Equipment",
    "source_country": "RO",
    "country": "Romania",
    "state": "Brașov County",
    "city": "Municipiul Sãcele"
  },
  {
    "source_id": "ChIJRcFtrApns0ARxqlpvusUB98",
    "name": "Piața Agro-Alimentară",
    "category": "Piața Agro-Alimentară",
    "formatted_address": "4,2(22)",
    "phone_number": "",
    "source_url": "https://www.google.com/maps/place/Pia%C8%9Ba+Agro-Alimentar%C4%83/data=!4m7!3m6!1s0x40b3670aac6dc145:0xdf0714ebbe69a9c6!8m2!3d45.6155826!4d25.7200367!16s%2Fg%2F11h1yg568x!19sChIJRcFtrApns0ARxqlpvusUB98?authuser=0&hl=tr&rclk=1",
    "website_url": "",
    "rating_text": "4,2",
    "stars": null,
    "number_of_reviews": null,
    "price_level": "",
    "open_hours": "",
    "extraction_timestamp": "2025-06-07T18:21:34.646Z",
    "source_name": "google",
    "source_query": "Irrigation Equipment",
    "source_country": "RO",
    "country": "Romania",
    "state": "Brașov County",
    "city": "Municipiul Sãcele"
  },
  {
    "source_id": "ChIJJw8mZhFds0ARiK_cacl5BaY",
    "name": "Arinovis Brașov - Săcele",
    "category": "Arinovis Brașov - Săcele",
    "formatted_address": "4,3(250)",
    "phone_number": "+40722624634",
    "source_url": "https://www.google.com/maps/place/Arinovis+Bra%C8%99ov+-+S%C4%83cele/data=!4m7!3m6!1s0x40b35d1166260f27:0xa60579c969dcaf88!8m2!3d45.6197727!4d25.6663471!16s%2Fg%2F1vnrjj7r!19sChIJJw8mZhFds0ARiK_cacl5BaY?authuser=0&hl=tr&rclk=1",
    "website_url": "https://www.pneu.ro/",
    "rating_text": "4,3",
    "stars": null,
    "number_of_reviews": null,
    "price_level": "",
    "open_hours": "",
    "extraction_timestamp": "2025-06-07T18:21:34.647Z",
    "source_name": "google",
    "source_query": "Irrigation Equipment",
    "source_country": "RO",
    "country": "Romania",
    "state": "Brașov County",
    "city": "Municipiul Sãcele"
  },
  {
    "source_id": "ChIJaXQwfVRds0ARD_ZSnJz3Hxc",
    "name": "R&V Instal Brasov Srl",
    "category": "R&V Instal Brasov Srl",
    "formatted_address": "3,0(2)",
    "phone_number": "+40747455535",
    "source_url": "https://www.google.com/maps/place/R%26V+Instal+Brasov+Srl/data=!4m7!3m6!1s0x40b35d547d307469:0x171ff79c9c52f60f!8m2!3d45.6116079!4d25.7245872!16s%2Fg%2F11qn82nrfn!19sChIJaXQwfVRds0ARD_ZSnJz3Hxc?authuser=0&hl=tr&rclk=1",
    "website_url": "https://www.rvinstal.ro/",
    "rating_text": "3,0",
    "stars": null,
    "number_of_reviews": null,
    "price_level": "",
    "open_hours": "",
    "extraction_timestamp": "2025-06-07T18:21:34.649Z",
    "source_name": "google",
    "source_query": "Irrigation Equipment",
    "source_country": "RO",
    "country": "Romania",
    "state": "Brașov County",
    "city": "Municipiul Sãcele"
  },
  {
    "source_id": "ChIJZ2TAKopcs0ARXWJpfgr5Ja0",
    "name": "Ecoflam",
    "category": "Ecoflam",
    "formatted_address": "4,0(3)",
    "phone_number": "+40733670019",
    "source_url": "https://www.google.com/maps/place/Ecoflam/data=!4m7!3m6!1s0x40b35c8a2ac06467:0xad25f90a7e69625d!8m2!3d45.6399864!4d25.6239017!16s%2Fg%2F11hbl8yp52!19sChIJZ2TAKopcs0ARXWJpfgr5Ja0?authuser=0&hl=tr&rclk=1",
    "website_url": "http://ecoflam-service.ro/",
    "rating_text": "4,0",
    "stars": null,
    "number_of_reviews": null,
    "price_level": "",
    "open_hours": "",
    "extraction_timestamp": "2025-06-07T18:21:34.650Z",
    "source_name": "google",
    "source_query": "Irrigation Equipment",
    "source_country": "RO",
    "country": "Romania",
    "state": "Brașov County",
    "city": "Municipiul Sãcele"
  },
  {
    "source_id": "ChIJiYrW93hcs0ARpKmOIL1sTuI",
    "name": "Valinst Agriculture",
    "category": "Valinst Agriculture",
    "formatted_address": "5,0(1)",
    "phone_number": "+40730330543",
    "source_url": "https://www.google.com/maps/place/Valinst+Agriculture/data=!4m7!3m6!1s0x40b35c78f7d68a89:0xe24e6cbd208ea9a4!8m2!3d45.6527567!4d25.6143965!16s%2Fg%2F11hf04lgwp!19sChIJiYrW93hcs0ARpKmOIL1sTuI?authuser=0&hl=tr&rclk=1",
    "website_url": "http://www.valinst.ro/en/contact",
    "rating_text": "5,0",
    "stars": null,
    "number_of_reviews": null,
    "price_level": "",
    "open_hours": "",
    "extraction_timestamp": "2025-06-07T18:21:34.651Z",
    "source_name": "google",
    "source_query": "Irrigation Equipment",
    "source_country": "RO",
    "country": "Romania",
    "state": "Brașov County",
    "city": "Municipiul Sãcele"
  },
  {
    "source_id": "ChIJBWxRW4lcs0AR4johcYtY_Us",
    "name": "Hod-Chimex",
    "category": "Hod-Chimex",
    "formatted_address": "4,3(110)",
    "phone_number": "+40268320340",
    "source_url": "https://www.google.com/maps/place/Hod-Chimex/data=!4m7!3m6!1s0x40b35c895b516c05:0x4bfd588b71213ae2!8m2!3d45.6388375!4d25.6217574!16s%2Fg%2F1wrtbc6q!19sChIJBWxRW4lcs0AR4johcYtY_Us?authuser=0&hl=tr&rclk=1",
    "website_url": "",
    "rating_text": "4,3",
    "stars": null,
    "number_of_reviews": null,
    "price_level": "",
    "open_hours": "",
    "extraction_timestamp": "2025-06-07T18:21:34.653Z",
    "source_name": "google",
    "source_query": "Irrigation Equipment",
    "source_country": "RO",
    "country": "Romania",
    "state": "Brașov County",
    "city": "Municipiul Sãcele"
  },
  {
    "source_id": "ChIJiY-oq3zZ-g0RRwymoW5w_Ik",
    "name": "NOMAD - Ciubere & Saune",
    "category": "NOMAD - Ciubere & Saune",
    "formatted_address": "4,7(63)",
    "phone_number": "+40745524291",
    "source_url": "https://www.google.com/maps/place/NOMAD+-+Ciubere+%26+Saune/data=!4m7!3m6!1s0xdfad97caba88f89:0x89fc706ea1a60c47!8m2!3d45.6206667!4d25.6998648!16s%2Fg%2F11sg5xjz7d!19sChIJiY-oq3zZ-g0RRwymoW5w_Ik?authuser=0&hl=tr&rclk=1",
    "website_url": "https://nomadhottubs.ro/",
    "rating_text": "4,7",
    "stars": null,
    "number_of_reviews": null,
    "price_level": "",
    "open_hours": "",
    "extraction_timestamp": "2025-06-07T18:21:34.654Z",
    "source_name": "google",
    "source_query": "Irrigation Equipment",
    "source_country": "RO",
    "country": "Romania",
    "state": "Brașov County",
    "city": "Municipiul Sãcele"
  },
  {
    "source_id": "ChIJz1vCAntds0ARf1yHjUJVg2g",
    "name": "Comteh Electric S.R.L.",
    "category": "Comteh Electric S.R.L.",
    "formatted_address": "5,0(1)",
    "phone_number": "+40268275589",
    "source_url": "https://www.google.com/maps/place/Comteh+Electric+S.R.L./data=!4m7!3m6!1s0x40b35d7b02c25bcf:0x688355428d875c7f!8m2!3d45.6111901!4d25.7299428!16s%2Fg%2F1td36r9t!19sChIJz1vCAntds0ARf1yHjUJVg2g?authuser=0&hl=tr&rclk=1",
    "website_url": "",
    "rating_text": "5,0",
    "stars": null,
    "number_of_reviews": null,
    "price_level": "",
    "open_hours": "",
    "extraction_timestamp": "2025-06-07T18:21:34.655Z",
    "source_name": "google",
    "source_query": "Irrigation Equipment",
    "source_country": "RO",
    "country": "Romania",
    "state": "Brașov County",
    "city": "Municipiul Sãcele"
  },
  {
    "source_id": "ChIJGc1ao_4grSwRP5A7m9VqX7o",
    "name": "Apa Kangen Romania - Lorandt Marian/Distribuitor Ionizatoare de Apa Kangen",
    "category": "Apa Kangen Romania - Lorandt Marian/Distribuitor Ionizatoare de Apa Kangen",
    "formatted_address": "",
    "phone_number": "+40732062776",
    "source_url": "https://www.google.com/maps/place/Apa+Kangen+Romania+-+Lorandt+Marian%2FDistribuitor+Ionizatoare+de+Apa+Kangen/data=!4m7!3m6!1s0x2cad20fea35acd19:0xba5f6ad59b3b903f!8m2!3d45.9425072!4d25.0201084!16s%2Fg%2F11ldj9fsfh!19sChIJGc1ao_4grSwRP5A7m9VqX7o?authuser=0&hl=tr&rclk=1",
    "website_url": "https://www.kangenbiolife.com/ro_RO/",
    "rating_text": "",
    "stars": null,
    "number_of_reviews": null,
    "price_level": "",
    "open_hours": "",
    "extraction_timestamp": "2025-06-07T18:21:34.656Z",
    "source_name": "google",
    "source_query": "Irrigation Equipment",
    "source_country": "RO",
    "country": "Romania",
    "state": "Brașov County",
    "city": "Municipiul Sãcele"
  },
  {
    "source_id": "ChIJxTlzQ25cs0ARbRRg7VLrKPw",
    "name": "Instal generation",
    "category": "Instal generation",
    "formatted_address": "5,0(5)",
    "phone_number": "+40745189529",
    "source_url": "https://www.google.com/maps/place/Instal+generation/data=!4m7!3m6!1s0x40b35c6e437339c5:0xfc28eb52ed60146d!8m2!3d45.6541089!4d25.63197!16s%2Fg%2F11flzgjjqz!19sChIJxTlzQ25cs0ARbRRg7VLrKPw?authuser=0&hl=tr&rclk=1",
    "website_url": "http://www.instalgeneration.ro/",
    "rating_text": "5,0",
    "stars": null,
    "number_of_reviews": null,
    "price_level": "",
    "open_hours": "",
    "extraction_timestamp": "2025-06-07T18:21:34.657Z",
    "source_name": "google",
    "source_query": "Irrigation Equipment",
    "source_country": "RO",
    "country": "Romania",
    "state": "Brașov County",
    "city": "Municipiul Sãcele"
  },
  {
    "source_id": "ChIJn8dW4DRds0ARS_9oKbKoBUE",
    "name": "Rosmarkt Sacele",
    "category": "Rosmarkt Sacele",
    "formatted_address": "4,8(78)",
    "phone_number": "+40722101366",
    "source_url": "https://www.google.com/maps/place/Rosmarkt+Sacele/data=!4m7!3m6!1s0x40b35d34e056c79f:0x4105a8b22968ff4b!8m2!3d45.6171298!4d25.6981333!16s%2Fg%2F11j1hpnwlb!19sChIJn8dW4DRds0ARS_9oKbKoBUE?authuser=0&hl=tr&rclk=1",
    "website_url": "http://www.rosmarkt.ro/",
    "rating_text": "4,8",
    "stars": null,
    "number_of_reviews": null,
    "price_level": "",
    "open_hours": "",
    "extraction_timestamp": "2025-06-07T18:21:34.658Z",
    "source_name": "google",
    "source_query": "Irrigation Equipment",
    "source_country": "RO",
    "country": "Romania",
    "state": "Brașov County",
    "city": "Municipiul Sãcele"
  },
  {
    "source_id": "ChIJ2as1xEpns0ARy-MUnsk08Ss",
    "name": "Magazinul Instalatorului - Tărlungeni - Kondaco III",
    "category": "Magazinul Instalatorului - Tărlungeni - Kondaco III",
    "formatted_address": "4,7(11)",
    "phone_number": "+40729957948",
    "source_url": "https://www.google.com/maps/place/Magazinul+Instalatorului+-+T%C4%83rlungeni+-+Kondaco+III/data=!4m7!3m6!1s0x40b3674ac435abd9:0x2bf134c99e14e3cb!8m2!3d45.6480392!4d25.7647329!16s%2Fg%2F11b907pvv7!19sChIJ2as1xEpns0ARy-MUnsk08Ss?authuser=0&hl=tr&rclk=1",
    "website_url": "",
    "rating_text": "4,7",
    "stars": null,
    "number_of_reviews": null,
    "price_level": "",
    "open_hours": "",
    "extraction_timestamp": "2025-06-07T18:21:34.659Z",
    "source_name": "google",
    "source_query": "Irrigation Equipment",
    "source_country": "RO",
    "country": "Romania",
    "state": "Brașov County",
    "city": "Municipiul Sãcele"
  },
  {
    "source_id": "ChIJX0YdKhVns0ARTjFtoN8P0W4",
    "name": "Profi Super",
    "category": "Profi Super",
    "formatted_address": "3,2(541)",
    "phone_number": "+40729222903",
    "source_url": "https://www.google.com/maps/place/Profi+Super/data=!4m7!3m6!1s0x40b367152a1d465f:0x6ed10fdfa06d314e!8m2!3d45.6164136!4d25.7207796!16s%2Fg%2F11ry9ghd70!19sChIJX0YdKhVns0ARTjFtoN8P0W4?authuser=0&hl=tr&rclk=1",
    "website_url": "https://www.profi.ro/?utm_source=google&utm_medium=organic&utm_campaign=dwf_local_seo",
    "rating_text": "3,2",
    "stars": null,
    "number_of_reviews": null,
    "price_level": "",
    "open_hours": "",
    "extraction_timestamp": "2025-06-07T18:21:34.660Z",
    "source_name": "google",
    "source_query": "Irrigation Equipment",
    "source_country": "RO",
    "country": "Romania",
    "state": "Brașov County",
    "city": "Municipiul Sãcele"
  },
  {
    "source_id": "ChIJ_0FbCrBds0ARiBLW5cUwwbA",
    "name": "Horticultorul srlPăstrăvărie, flori, legume și pâine de casa",
    "category": "Horticultorul srlPăstrăvărie, flori, legume și pâine de casa",
    "formatted_address": "Horticultorul srlPăstrăvărie, flori, legume și pâine de casa",
    "phone_number": "+40744571448",
    "source_url": "https://www.google.com/maps/place/Horticultorul+srlP%C4%83str%C4%83v%C4%83rie,+flori,+legume+%C8%99i+p%C3%A2ine+de+casa/data=!4m7!3m6!1s0x40b35db00a5b41ff:0xb0c130c5e5d61288!8m2!3d45.6224812!4d25.7058938!16s%2Fg%2F11fwjsnpwv!19sChIJ_0FbCrBds0ARiBLW5cUwwbA?authuser=0&hl=tr&rclk=1",
    "website_url": "https://www.facebook.com/erdely.zoltanlaszlo",
    "rating_text": "4,6",
    "stars": null,
    "number_of_reviews": null,
    "price_level": "",
    "open_hours": "",
    "extraction_timestamp": "2025-06-07T18:21:34.662Z",
    "source_name": "google",
    "source_query": "Irrigation Equipment",
    "source_country": "RO",
    "country": "Romania",
    "state": "Brașov County",
    "city": "Municipiul Sãcele"
  },
  {
    "source_id": "ChIJW1XT8phbs0ARTYtoDcvScUo",
    "name": "Planet Bike - Magazin de Biciclete Brasov",
    "category": "Planet Bike - Magazin de Biciclete Brasov",
    "formatted_address": "4,5(151)",
    "phone_number": "+40746017377",
    "source_url": "https://www.google.com/maps/place/Planet+Bike+-+Magazin+de+Biciclete+Brasov/data=!4m7!3m6!1s0x40b35b98f2d3555b:0x4a71d2cb0d688b4d!8m2!3d45.6690682!4d25.5901525!16s%2Fg%2F1q679gprl!19sChIJW1XT8phbs0ARTYtoDcvScUo?authuser=0&hl=tr&rclk=1",
    "website_url": "https://www.planetbike.ro/",
    "rating_text": "4,5",
    "stars": null,
    "number_of_reviews": null,
    "price_level": "",
    "open_hours": "",
    "extraction_timestamp": "2025-06-07T18:21:34.663Z",
    "source_name": "google",
    "source_query": "Irrigation Equipment",
    "source_country": "RO",
    "country": "Romania",
    "state": "Brașov County",
    "city": "Municipiul Sãcele"
  },
  {
    "source_id": "ChIJz1ZLlClds0ARdnZoApCXU04",
    "name": "Brutaria Tothek | Paine cu maia, patiserii proaspete, faina macinata la moara proprie",
    "category": "Brutaria Tothek | Paine cu maia, patiserii proaspete, faina macinata la moara proprie",
    "formatted_address": "Brutaria Tothek | Paine cu maia, patiserii proaspete, faina macinata la moara proprie",
    "phone_number": "+40734598831",
    "source_url": "https://www.google.com/maps/place/Brutaria+Tothek+%7C+Paine+cu+maia,+patiserii+proaspete,+faina+macinata+la+moara+proprie/data=!4m7!3m6!1s0x40b35d29944b56cf:0x4e53979002687676!8m2!3d45.619276!4d25.6946646!16s%2Fg%2F11rhbrv7j5!19sChIJz1ZLlClds0ARdnZoApCXU04?authuser=0&hl=tr&rclk=1",
    "website_url": "https://www.brutariatothek.ro/",
    "rating_text": "4,9",
    "stars": null,
    "number_of_reviews": null,
    "price_level": "",
    "open_hours": "",
    "extraction_timestamp": "2025-06-07T18:21:34.664Z",
    "source_name": "google",
    "source_query": "Irrigation Equipment",
    "source_country": "RO",
    "country": "Romania",
    "state": "Brașov County",
    "city": "Municipiul Sãcele"
  },
  {
    "source_id": "ChIJjZBWkYJns0ARdC95SIxL39Q",
    "name": "Prăvălie Sergiana",
    "category": "Prăvălie Sergiana",
    "formatted_address": "4,5(15)",
    "phone_number": "+40368004029",
    "source_url": "https://www.google.com/maps/place/Pr%C4%83v%C4%83lie+Sergiana/data=!4m7!3m6!1s0x40b367829156908d:0xd4df4b8c48792f74!8m2!3d45.6157383!4d25.718688!16s%2Fg%2F11hc_8c3sf!19sChIJjZBWkYJns0ARdC95SIxL39Q?authuser=0&hl=tr&rclk=1",
    "website_url": "http://www.sergianagrup.ro/",
    "rating_text": "4,5",
    "stars": null,
    "number_of_reviews": null,
    "price_level": "",
    "open_hours": "",
    "extraction_timestamp": "2025-06-07T18:21:34.665Z",
    "source_name": "google",
    "source_query": "Irrigation Equipment",
    "source_country": "RO",
    "country": "Romania",
    "state": "Brașov County",
    "city": "Municipiul Sãcele"
  },
  {
    "source_id": "ChIJP2Lvv3lds0ARrqtMyHNXzw0",
    "name": "Boro",
    "category": "Boro",
    "formatted_address": "4,7(10)",
    "phone_number": "+40746524807",
    "source_url": "https://www.google.com/maps/place/Boro/data=!4m7!3m6!1s0x40b35d79bfef623f:0xdcf5773c84cabae!8m2!3d45.6214816!4d25.6955174!16s%2Fg%2F11cs5sx06z!19sChIJP2Lvv3lds0ARrqtMyHNXzw0?authuser=0&hl=tr&rclk=1",
    "website_url": "",
    "rating_text": "4,7",
    "stars": null,
    "number_of_reviews": null,
    "price_level": "",
    "open_hours": "",
    "extraction_timestamp": "2025-06-07T18:21:34.666Z",
    "source_name": "google",
    "source_query": "Irrigation Equipment",
    "source_country": "RO",
    "country": "Romania",
    "state": "Brașov County",
    "city": "Municipiul Sãcele"
  },
  {
    "source_id": "ChIJqdV8-npds0ARAGuizVo_Hew",
    "name": "Brio",
    "category": "Brio",
    "formatted_address": "4,3(276)",
    "phone_number": "+40723011961",
    "source_url": "https://www.google.com/maps/place/Brio/data=!4m7!3m6!1s0x40b35d7afa7cd5a9:0xec1d3f5acda26b00!8m2!3d45.6180763!4d25.6925507!16s%2Fg%2F1tg66lr7!19sChIJqdV8-npds0ARAGuizVo_Hew?authuser=0&hl=tr&rclk=1",
    "website_url": "",
    "rating_text": "4,3",
    "stars": null,
    "number_of_reviews": null,
    "price_level": "",
    "open_hours": "",
    "extraction_timestamp": "2025-06-07T18:21:34.668Z",
    "source_name": "google",
    "source_query": "Irrigation Equipment",
    "source_country": "RO",
    "country": "Romania",
    "state": "Brașov County",
    "city": "Municipiul Sãcele"
  },
  {
    "source_id": "ChIJh6JHyjhds0ARl2J4xVBoA4g",
    "name": "Leroy Merlin",
    "category": "Leroy Merlin",
    "formatted_address": "4,6(1.552)",
    "phone_number": "+40374454551",
    "source_url": "https://www.google.com/maps/place/Leroy+Merlin/data=!4m7!3m6!1s0x40b35d38ca47a287:0x88036850c5786297!8m2!3d45.6302824!4d25.6371095!16s%2Fg%2F11rvc67lcq!19sChIJh6JHyjhds0ARl2J4xVBoA4g?authuser=0&hl=tr&rclk=1",
    "website_url": "https://www.leroymerlin.ro/",
    "rating_text": "4,6",
    "stars": null,
    "number_of_reviews": null,
    "price_level": "",
    "open_hours": "",
    "extraction_timestamp": "2025-06-07T18:21:34.670Z",
    "source_name": "google",
    "source_query": "Irrigation Equipment",
    "source_country": "RO",
    "country": "Romania",
    "state": "Brașov County",
    "city": "Municipiul Sãcele"
  }
]
