[
  {
    "source_id": "ChIJNVvu46mhTEcRZfxvobbBc3s",
    "name": "Romstal",
    "category": "Romstal",
    "formatted_address": "5,0(26)",
    "phone_number": "+40372123154",
    "source_url": "https://www.google.com/maps/place/Romstal/data=!4m7!3m6!1s0x474ca1a9e3ee5b35:0x7b73c1b6a16ffc65!8m2!3d45.8435314!4d24.9822014!16s%2Fg%2F11krs20wnc!19sChIJNVvu46mhTEcRZfxvobbBc3s?authuser=0&hl=tr&rclk=1",
    "website_url": "",
    "rating_text": "5,0",
    "stars": null,
    "number_of_reviews": null,
    "price_level": "",
    "open_hours": "",
    "extraction_timestamp": "2025-06-07T18:12:36.724Z",
    "source_name": "google",
    "source_query": "Irrigation Equipment",
    "source_country": "RO",
    "country": "Romania",
    "state": "Brașov County",
    "city": "Municipiul Fãgãraş"
  },
  {
    "source_id": "ChIJ1S8EiMZZs0AR86hmbkUN9ow",
    "name": "Ipso Agricultura Brașov",
    "category": "Ipso Agricultura Brașov",
    "formatted_address": "4,8(12)",
    "phone_number": "+40374438921",
    "source_url": "https://www.google.com/maps/place/Ipso+Agricultura+Bra%C8%99ov/data=!4m7!3m6!1s0x40b359c688042fd5:0x8cf60d456e66a8f3!8m2!3d45.7007612!4d25.5811096!16s%2Fg%2F11h_dq5c17!19sChIJ1S8EiMZZs0AR86hmbkUN9ow?authuser=0&hl=tr&rclk=1",
    "website_url": "",
    "rating_text": "4,8",
    "stars": null,
    "number_of_reviews": null,
    "price_level": "",
    "open_hours": "",
    "extraction_timestamp": "2025-06-07T18:12:36.725Z",
    "source_name": "google",
    "source_query": "Irrigation Equipment",
    "source_country": "RO",
    "country": "Romania",
    "state": "Brașov County",
    "city": "Municipiul Fãgãraş"
  },
  {
    "source_id": "ChIJ54ftMp2hTEcRVt9kfQszN8E",
    "name": "Janmar Com",
    "category": "Janmar Com",
    "formatted_address": "4,3(306)",
    "phone_number": "+40732409952",
    "source_url": "https://www.google.com/maps/place/Janmar+Com/data=!4m7!3m6!1s0x474ca19d32ed87e7:0xc137330b7d64df56!8m2!3d45.8429663!4d24.9593099!16s%2Fg%2F1hcbh3kjk!19sChIJ54ftMp2hTEcRVt9kfQszN8E?authuser=0&hl=tr&rclk=1",
    "website_url": "",
    "rating_text": "4,3",
    "stars": null,
    "number_of_reviews": null,
    "price_level": "",
    "open_hours": "",
    "extraction_timestamp": "2025-06-07T18:12:36.755Z",
    "source_name": "google",
    "source_query": "Irrigation Equipment",
    "source_country": "RO",
    "country": "Romania",
    "state": "Brașov County",
    "city": "Municipiul Fãgãraş"
  },
  {
    "source_id": "ChIJaQzqLmZcs0ARU6r3VaUK6iE",
    "name": "AKRO S.R.L.",
    "category": "AKRO S.R.L.",
    "formatted_address": "4,7(13)",
    "phone_number": "+40268413180",
    "source_url": "https://www.google.com/maps/place/AKRO+S.R.L./data=!4m7!3m6!1s0x40b35c662eea0c69:0x21ea0aa555f7aa53!8m2!3d45.6485042!4d25.6406578!16s%2Fg%2F1hc250gs3!19sChIJaQzqLmZcs0ARU6r3VaUK6iE?authuser=0&hl=tr&rclk=1",
    "website_url": "",
    "rating_text": "4,7",
    "stars": null,
    "number_of_reviews": null,
    "price_level": "",
    "open_hours": "",
    "extraction_timestamp": "2025-06-07T18:12:36.756Z",
    "source_name": "google",
    "source_query": "Irrigation Equipment",
    "source_country": "RO",
    "country": "Romania",
    "state": "Brașov County",
    "city": "Municipiul Fãgãraş"
  },
  {
    "source_id": "ChIJSc52LPpds0ARRn6D2MxGEP4",
    "name": "Krongrass Equipment",
    "category": "Krongrass Equipment",
    "formatted_address": "5,0(2)",
    "phone_number": "+40744565495",
    "source_url": "https://www.google.com/maps/place/Krongrass+Equipment/data=!4m7!3m6!1s0x40b35dfa2c76ce49:0xfe1046ccd8837e46!8m2!3d45.6466883!4d25.6378089!16s%2Fg%2F11kj0x16vd!19sChIJSc52LPpds0ARRn6D2MxGEP4?authuser=0&hl=tr&rclk=1",
    "website_url": "",
    "rating_text": "5,0",
    "stars": null,
    "number_of_reviews": null,
    "price_level": "",
    "open_hours": "",
    "extraction_timestamp": "2025-06-07T18:12:36.757Z",
    "source_name": "google",
    "source_query": "Irrigation Equipment",
    "source_country": "RO",
    "country": "Romania",
    "state": "Brașov County",
    "city": "Municipiul Fãgãraş"
  },
  {
    "source_id": "ChIJIdz-JNyjTEcR4XSJCB8wyKk",
    "name": "Sirfa Con S.R.L.",
    "category": "Sirfa Con S.R.L.",
    "formatted_address": "4,6(112)",
    "phone_number": "+40268280161",
    "source_url": "https://www.google.com/maps/place/Sirfa+Con+S.R.L./data=!4m7!3m6!1s0x474ca3dc24fedc21:0xa9c8301f088974e1!8m2!3d45.8308457!4d24.9759165!16s%2Fg%2F1hc1kz5t7!19sChIJIdz-JNyjTEcR4XSJCB8wyKk?authuser=0&hl=tr&rclk=1",
    "website_url": "",
    "rating_text": "4,6",
    "stars": null,
    "number_of_reviews": null,
    "price_level": "",
    "open_hours": "",
    "extraction_timestamp": "2025-06-07T18:12:36.758Z",
    "source_name": "google",
    "source_query": "Irrigation Equipment",
    "source_country": "RO",
    "country": "Romania",
    "state": "Brașov County",
    "city": "Municipiul Fãgãraş"
  },
  {
    "source_id": "ChIJiYrW93hcs0ARpKmOIL1sTuI",
    "name": "Valinst Agriculture",
    "category": "Valinst Agriculture",
    "formatted_address": "5,0(1)",
    "phone_number": "+40730330543",
    "source_url": "https://www.google.com/maps/place/Valinst+Agriculture/data=!4m7!3m6!1s0x40b35c78f7d68a89:0xe24e6cbd208ea9a4!8m2!3d45.6527567!4d25.6143965!16s%2Fg%2F11hf04lgwp!19sChIJiYrW93hcs0ARpKmOIL1sTuI?authuser=0&hl=tr&rclk=1",
    "website_url": "",
    "rating_text": "5,0",
    "stars": null,
    "number_of_reviews": null,
    "price_level": "",
    "open_hours": "",
    "extraction_timestamp": "2025-06-07T18:12:36.759Z",
    "source_name": "google",
    "source_query": "Irrigation Equipment",
    "source_country": "RO",
    "country": "Romania",
    "state": "Brașov County",
    "city": "Municipiul Fãgãraş"
  },
  {
    "source_id": "ChIJifLpN4KhTEcRAWNULAKo_j0",
    "name": "Ficus Impex S.R.L.",
    "category": "Ficus Impex S.R.L.",
    "formatted_address": "4,3(53)",
    "phone_number": "+40766616339",
    "source_url": "https://www.google.com/maps/place/Ficus+Impex+S.R.L./data=!4m7!3m6!1s0x474ca18237e9f289:0x3dfea8022c546301!8m2!3d45.8322373!4d24.9760765!16s%2Fg%2F1tcxt0gf!19sChIJifLpN4KhTEcRAWNULAKo_j0?authuser=0&hl=tr&rclk=1",
    "website_url": "",
    "rating_text": "4,3",
    "stars": null,
    "number_of_reviews": null,
    "price_level": "",
    "open_hours": "",
    "extraction_timestamp": "2025-06-07T18:12:36.761Z",
    "source_name": "google",
    "source_query": "Irrigation Equipment",
    "source_country": "RO",
    "country": "Romania",
    "state": "Brașov County",
    "city": "Municipiul Fãgãraş"
  },
  {
    "source_id": "ChIJuRx2eqejTEcRrCemceIWiso",
    "name": "Azzuro Cons",
    "category": "Azzuro Cons",
    "formatted_address": "4,5(62)",
    "phone_number": "+40268214400",
    "source_url": "https://www.google.com/maps/place/Azzuro+Cons/data=!4m7!3m6!1s0x474ca3a77a761cb9:0xca8a16e271a627ac!8m2!3d45.8328809!4d24.9662443!16s%2Fg%2F113ghxy_w!19sChIJuRx2eqejTEcRrCemceIWiso?authuser=0&hl=tr&rclk=1",
    "website_url": "",
    "rating_text": "4,5",
    "stars": null,
    "number_of_reviews": null,
    "price_level": "",
    "open_hours": "",
    "extraction_timestamp": "2025-06-07T18:12:36.762Z",
    "source_name": "google",
    "source_query": "Irrigation Equipment",
    "source_country": "RO",
    "country": "Romania",
    "state": "Brașov County",
    "city": "Municipiul Fãgãraş"
  },
  {
    "source_id": "ChIJAQAAU96jTEcRJivZT6EwNkE",
    "name": "Guérin Roumanie",
    "category": "Guérin Roumanie",
    "formatted_address": "4,0(3)",
    "phone_number": "+40268212142",
    "source_url": "https://www.google.com/maps/place/Gu%C3%A9rin+Roumanie/data=!4m7!3m6!1s0x474ca3de53000001:0x413630a14fd92b26!8m2!3d45.8321266!4d24.9843746!16s%2Fg%2F11h4620_36!19sChIJAQAAU96jTEcRJivZT6EwNkE?authuser=0&hl=tr&rclk=1",
    "website_url": "",
    "rating_text": "4,0",
    "stars": null,
    "number_of_reviews": null,
    "price_level": "",
    "open_hours": "",
    "extraction_timestamp": "2025-06-07T18:12:36.762Z",
    "source_name": "google",
    "source_query": "Irrigation Equipment",
    "source_country": "RO",
    "country": "Romania",
    "state": "Brașov County",
    "city": "Municipiul Fãgãraş"
  },
  {
    "source_id": "ChIJ52AYRHyhTEcRsor6LcE09rc",
    "name": "Molifag S.R.L.",
    "category": "Molifag S.R.L.",
    "formatted_address": "4,2(38)",
    "phone_number": "+40268217098",
    "source_url": "https://www.google.com/maps/place/Molifag+S.R.L./data=!4m7!3m6!1s0x474ca17c441860e7:0xb7f634c12dfa8ab2!8m2!3d45.8379819!4d24.9741112!16s%2Fg%2F1hc6mv7j2!19sChIJ52AYRHyhTEcRsor6LcE09rc?authuser=0&hl=tr&rclk=1",
    "website_url": "",
    "rating_text": "4,2",
    "stars": null,
    "number_of_reviews": null,
    "price_level": "",
    "open_hours": "",
    "extraction_timestamp": "2025-06-07T18:12:36.763Z",
    "source_name": "google",
    "source_query": "Irrigation Equipment",
    "source_country": "RO",
    "country": "Romania",
    "state": "Brașov County",
    "city": "Municipiul Fãgãraş"
  },
  {
    "source_id": "ChIJifLpN4KhTEcR1qWM4RcWOY8",
    "name": "Riovirg S.R.L.",
    "category": "Riovirg S.R.L.",
    "formatted_address": "4,0(85)",
    "phone_number": "+40730119950",
    "source_url": "https://www.google.com/maps/place/Riovirg+S.R.L./data=!4m7!3m6!1s0x474ca18237e9f289:0x8f391617e18ca5d6!8m2!3d45.8370808!4d24.975067!16s%2Fg%2F1tfrfk2n!19sChIJifLpN4KhTEcR1qWM4RcWOY8?authuser=0&hl=tr&rclk=1",
    "website_url": "",
    "rating_text": "4,0",
    "stars": null,
    "number_of_reviews": null,
    "price_level": "",
    "open_hours": "",
    "extraction_timestamp": "2025-06-07T18:12:36.765Z",
    "source_name": "google",
    "source_query": "Irrigation Equipment",
    "source_country": "RO",
    "country": "Romania",
    "state": "Brașov County",
    "city": "Municipiul Fãgãraş"
  },
  {
    "source_id": "ChIJwUyLYRijTEcRWJxV2Dp0LNg",
    "name": "Riovirg - Depozit",
    "category": "Riovirg - Depozit",
    "formatted_address": "4,3(30)",
    "phone_number": "+40730119950",
    "source_url": "https://www.google.com/maps/place/Riovirg+-+Depozit/data=!4m7!3m6!1s0x474ca318618b4cc1:0xd82c743ad8559c58!8m2!3d45.8319208!4d24.9734906!16s%2Fg%2F11kxjslf63!19sChIJwUyLYRijTEcRWJxV2Dp0LNg?authuser=0&hl=tr&rclk=1",
    "website_url": "",
    "rating_text": "4,3",
    "stars": null,
    "number_of_reviews": null,
    "price_level": "",
    "open_hours": "",
    "extraction_timestamp": "2025-06-07T18:12:36.766Z",
    "source_name": "google",
    "source_query": "Irrigation Equipment",
    "source_country": "RO",
    "country": "Romania",
    "state": "Brașov County",
    "city": "Municipiul Fãgãraş"
  },
  {
    "source_id": "ChIJsUDidwChTEcR1cTKaLbPRuY",
    "name": "Narin Market",
    "category": "Narin Market",
    "formatted_address": "5,0(2)",
    "phone_number": "+40730520510",
    "source_url": "https://www.google.com/maps/place/Narin+Market/data=!4m7!3m6!1s0x474ca10077e240b1:0xe646cfb668cac4d5!8m2!3d45.8438112!4d24.9712256!16s%2Fg%2F11mcysq2s_!19sChIJsUDidwChTEcR1cTKaLbPRuY?authuser=0&hl=tr&rclk=1",
    "website_url": "",
    "rating_text": "5,0",
    "stars": null,
    "number_of_reviews": null,
    "price_level": "",
    "open_hours": "",
    "extraction_timestamp": "2025-06-07T18:12:36.767Z",
    "source_name": "google",
    "source_query": "Irrigation Equipment",
    "source_country": "RO",
    "country": "Romania",
    "state": "Brașov County",
    "city": "Municipiul Fãgãraş"
  },
  {
    "source_id": "ChIJCQayaPpbs0ARhf_zEF9vwQg",
    "name": "SC Agri Sigeva SRL",
    "category": "SC Agri Sigeva SRL",
    "formatted_address": "5,0(2)",
    "phone_number": "+40722529586",
    "source_url": "https://www.google.com/maps/place/SC+Agri+Sigeva+SRL/data=!4m7!3m6!1s0x40b35bfa68b20609:0x8c16f5f10f3ff85!8m2!3d45.6744327!4d25.621811!16s%2Fg%2F1pztj9780!19sChIJCQayaPpbs0ARhf_zEF9vwQg?authuser=0&hl=tr&rclk=1",
    "website_url": "",
    "rating_text": "5,0",
    "stars": null,
    "number_of_reviews": null,
    "price_level": "",
    "open_hours": "",
    "extraction_timestamp": "2025-06-07T18:12:36.768Z",
    "source_name": "google",
    "source_query": "Irrigation Equipment",
    "source_country": "RO",
    "country": "Romania",
    "state": "Brașov County",
    "city": "Municipiul Fãgãraş"
  },
  {
    "source_id": "ChIJxTlzQ25cs0ARbRRg7VLrKPw",
    "name": "Instal generation",
    "category": "Instal generation",
    "formatted_address": "5,0(5)",
    "phone_number": "+40745189529",
    "source_url": "https://www.google.com/maps/place/Instal+generation/data=!4m7!3m6!1s0x40b35c6e437339c5:0xfc28eb52ed60146d!8m2!3d45.6541089!4d25.63197!16s%2Fg%2F11flzgjjqz!19sChIJxTlzQ25cs0ARbRRg7VLrKPw?authuser=0&hl=tr&rclk=1",
    "website_url": "",
    "rating_text": "5,0",
    "stars": null,
    "number_of_reviews": null,
    "price_level": "",
    "open_hours": "",
    "extraction_timestamp": "2025-06-07T18:12:36.769Z",
    "source_name": "google",
    "source_query": "Irrigation Equipment",
    "source_country": "RO",
    "country": "Romania",
    "state": "Brașov County",
    "city": "Municipiul Fãgãraş"
  },
  {
    "source_id": "ChIJaXKm60mhTEcRpsmi9sgPLwM",
    "name": "Sportisimo",
    "category": "Sportisimo",
    "formatted_address": "4,5(263)",
    "phone_number": "+40728980842",
    "source_url": "https://www.google.com/maps/place/Sportisimo/data=!4m7!3m6!1s0x474ca149eba67269:0x32f0fc8f6a2c9a6!8m2!3d45.8408989!4d24.9887084!16s%2Fg%2F11g3xn54s2!19sChIJaXKm60mhTEcRpsmi9sgPLwM?authuser=0&hl=tr&rclk=1",
    "website_url": "",
    "rating_text": "4,5",
    "stars": null,
    "number_of_reviews": null,
    "price_level": "",
    "open_hours": "",
    "extraction_timestamp": "2025-06-07T18:12:36.770Z",
    "source_name": "google",
    "source_query": "Irrigation Equipment",
    "source_country": "RO",
    "country": "Romania",
    "state": "Brașov County",
    "city": "Municipiul Fãgãraş"
  },
  {
    "source_id": "ChIJaXSYtGyjTEcR_jXimLUQqi8",
    "name": "Navomodele Navomag",
    "category": "Navomodele Navomag",
    "formatted_address": "4,8(4)",
    "phone_number": "+40720007927",
    "source_url": "https://www.google.com/maps/place/Navomodele+Navomag/data=!4m7!3m6!1s0x474ca36cb4987469:0x2faa10b598e235fe!8m2!3d45.8297495!4d24.9793707!16s%2Fg%2F11ghnc24tr!19sChIJaXSYtGyjTEcR_jXimLUQqi8?authuser=0&hl=tr&rclk=1",
    "website_url": "",
    "rating_text": "4,8",
    "stars": null,
    "number_of_reviews": null,
    "price_level": "",
    "open_hours": "",
    "extraction_timestamp": "2025-06-07T18:12:36.771Z",
    "source_name": "google",
    "source_query": "Irrigation Equipment",
    "source_country": "RO",
    "country": "Romania",
    "state": "Brașov County",
    "city": "Municipiul Fãgãraş"
  },
  {
    "source_id": "ChIJme-iXHmhTEcRzQMOsS5ad-s",
    "name": "Piața Agroalimentară Făgăraș",
    "category": "Piața Agroalimentară Făgăraș",
    "formatted_address": "3,9(712)",
    "phone_number": "+40268211313",
    "source_url": "https://www.google.com/maps/place/Pia%C8%9Ba+Agroalimentar%C4%83+F%C4%83g%C4%83ra%C8%99/data=!4m7!3m6!1s0x474ca1795ca2ef99:0xeb775a2eb10e03cd!8m2!3d45.8425761!4d24.9732124!16s%2Fg%2F1tctwbn2!19sChIJme-iXHmhTEcRzQMOsS5ad-s?authuser=0&hl=tr&rclk=1",
    "website_url": "",
    "rating_text": "3,9",
    "stars": null,
    "number_of_reviews": null,
    "price_level": "",
    "open_hours": "",
    "extraction_timestamp": "2025-06-07T18:12:36.772Z",
    "source_name": "google",
    "source_query": "Irrigation Equipment",
    "source_country": "RO",
    "country": "Romania",
    "state": "Brașov County",
    "city": "Municipiul Fãgãraş"
  },
  {
    "source_id": "ChIJdWz5nEKhTEcRFyZGjF0KKEM",
    "name": "Piese de bicicletă & Articole pescuit Fagaras",
    "category": "Piese de bicicletă & Articole pescuit Fagaras",
    "formatted_address": "4,9(17)",
    "phone_number": "+40762277799",
    "source_url": "https://www.google.com/maps/place/Piese+de+biciclet%C4%83+%26+Articole+pescuit+Fagaras/data=!4m7!3m6!1s0x474ca1429cf96c75:0x43280a5d8c462617!8m2!3d45.8466348!4d24.9749924!16s%2Fg%2F11j9fd22rp!19sChIJdWz5nEKhTEcRFyZGjF0KKEM?authuser=0&hl=tr&rclk=1",
    "website_url": "",
    "rating_text": "4,9",
    "stars": null,
    "number_of_reviews": null,
    "price_level": "",
    "open_hours": "",
    "extraction_timestamp": "2025-06-07T18:12:36.773Z",
    "source_name": "google",
    "source_query": "Irrigation Equipment",
    "source_country": "RO",
    "country": "Romania",
    "state": "Brașov County",
    "city": "Municipiul Fãgãraş"
  },
  {
    "source_id": "ChIJk719965es0ARSHau3S-JmpE",
    "name": "Serstill",
    "category": "Serstill",
    "formatted_address": "4,6(22)",
    "phone_number": "+40268311511",
    "source_url": "https://www.google.com/maps/place/Serstill/data=!4m7!3m6!1s0x40b35eaef77dbd93:0x919a892fddae7648!8m2!3d45.683375!4d25.652469!16s%2Fg%2F11xdltdh5!19sChIJk719965es0ARSHau3S-JmpE?authuser=0&hl=tr&rclk=1",
    "website_url": "",
    "rating_text": "4,6",
    "stars": null,
    "number_of_reviews": null,
    "price_level": "",
    "open_hours": "",
    "extraction_timestamp": "2025-06-07T18:12:36.774Z",
    "source_name": "google",
    "source_query": "Irrigation Equipment",
    "source_country": "RO",
    "country": "Romania",
    "state": "Brașov County",
    "city": "Municipiul Fãgãraş"
  },
  {
    "source_id": "ChIJWeFfS-lds0AR9yE35V1sBkU",
    "name": "Area 21 forest",
    "category": "Area 21 forest",
    "formatted_address": "Area 21 forest",
    "phone_number": "+40756621842",
    "source_url": "https://www.google.com/maps/place/Area+21+forest/data=!4m7!3m6!1s0x40b35de94b5fe159:0x45066c5de53721f7!8m2!3d45.6512788!4d25.6184938!16s%2Fg%2F11t3gz3yzc!19sChIJWeFfS-lds0AR9yE35V1sBkU?authuser=0&hl=tr&rclk=1",
    "website_url": "",
    "rating_text": "5,0",
    "stars": null,
    "number_of_reviews": null,
    "price_level": "",
    "open_hours": "",
    "extraction_timestamp": "2025-06-07T18:12:36.775Z",
    "source_name": "google",
    "source_query": "Irrigation Equipment",
    "source_country": "RO",
    "country": "Romania",
    "state": "Brașov County",
    "city": "Municipiul Fãgãraş"
  },
  {
    "source_id": "ChIJBWxRW4lcs0AR4johcYtY_Us",
    "name": "Hod-Chimex",
    "category": "Hod-Chimex",
    "formatted_address": "4,3(110)",
    "phone_number": "+40268320340",
    "source_url": "https://www.google.com/maps/place/Hod-Chimex/data=!4m7!3m6!1s0x40b35c895b516c05:0x4bfd588b71213ae2!8m2!3d45.6388375!4d25.6217574!16s%2Fg%2F1wrtbc6q!19sChIJBWxRW4lcs0AR4johcYtY_Us?authuser=0&hl=tr&rclk=1",
    "website_url": "",
    "rating_text": "4,3",
    "stars": null,
    "number_of_reviews": null,
    "price_level": "",
    "open_hours": "",
    "extraction_timestamp": "2025-06-07T18:12:36.776Z",
    "source_name": "google",
    "source_query": "Irrigation Equipment",
    "source_country": "RO",
    "country": "Romania",
    "state": "Brașov County",
    "city": "Municipiul Fãgãraş"
  },
  {
    "source_id": "ChIJA7B1Z2Zds0ARur30HS3Ah04",
    "name": "instalator brasov NON STOP sanitare termice",
    "category": "instalator brasov NON STOP sanitare termice",
    "formatted_address": "4,2(33)",
    "phone_number": "+40755189138",
    "source_url": "https://www.google.com/maps/place/instalator+brasov+NON+STOP+sanitare+termice/data=!4m7!3m6!1s0x40b35d666775b003:0x4e87c02d1df4bdba!8m2!3d45.655991!4d25.6178539!16s%2Fg%2F11h7b34qd_!19sChIJA7B1Z2Zds0ARur30HS3Ah04?authuser=0&hl=tr&rclk=1",
    "website_url": "",
    "rating_text": "4,2",
    "stars": null,
    "number_of_reviews": null,
    "price_level": "",
    "open_hours": "",
    "extraction_timestamp": "2025-06-07T18:12:36.777Z",
    "source_name": "google",
    "source_query": "Irrigation Equipment",
    "source_country": "RO",
    "country": "Romania",
    "state": "Brașov County",
    "city": "Municipiul Fãgãraş"
  },
  {
    "source_id": "ChIJlzC5ZptZs0AR-E0gh9kCJfQ",
    "name": "Meseriaș Instalator Brașov - KIRILA LUCIPA SRL",
    "category": "Meseriaș Instalator Brașov - KIRILA LUCIPA SRL",
    "formatted_address": "4,9(31)",
    "phone_number": "+40730354076",
    "source_url": "https://www.google.com/maps/place/Meseria%C8%99+Instalator+Bra%C8%99ov+-+KIRILA+LUCIPA+SRL/data=!4m7!3m6!1s0x40b3599b66b93097:0xf42502d987204df8!8m2!3d45.691429!4d25.6294113!16s%2Fg%2F11t5b1c2ry!19sChIJlzC5ZptZs0AR-E0gh9kCJfQ?authuser=0&hl=tr&rclk=1",
    "website_url": "",
    "rating_text": "4,9",
    "stars": null,
    "number_of_reviews": null,
    "price_level": "",
    "open_hours": "",
    "extraction_timestamp": "2025-06-07T18:12:36.778Z",
    "source_name": "google",
    "source_query": "Irrigation Equipment",
    "source_country": "RO",
    "country": "Romania",
    "state": "Brașov County",
    "city": "Municipiul Fãgãraş"
  },
  {
    "source_id": "ChIJAX9ixJlbs0ARONdeqKAUFNY",
    "name": "Magazinul Fermierului",
    "category": "Magazinul Fermierului",
    "formatted_address": "4,3(358)",
    "phone_number": "+40724355430",
    "source_url": "https://www.google.com/maps/place/Magazinul+Fermierului/data=!4m7!3m6!1s0x40b35b99c4627f01:0xd61414a0a85ed738!8m2!3d45.6593757!4d25.5919892!16s%2Fg%2F1pp2vb70j!19sChIJAX9ixJlbs0ARONdeqKAUFNY?authuser=0&hl=tr&rclk=1",
    "website_url": "",
    "rating_text": "4,3",
    "stars": null,
    "number_of_reviews": null,
    "price_level": "",
    "open_hours": "",
    "extraction_timestamp": "2025-06-07T18:12:36.779Z",
    "source_name": "google",
    "source_query": "Irrigation Equipment",
    "source_country": "RO",
    "country": "Romania",
    "state": "Brașov County",
    "city": "Municipiul Fãgãraş"
  },
  {
    "source_id": "ChIJG2EV_f9bs0ARRhFy__gil54",
    "name": "SC Instalatii Trust SA",
    "category": "SC Instalatii Trust SA",
    "formatted_address": "5,0(7)",
    "phone_number": "+40744299176",
    "source_url": "https://www.google.com/maps/place/SC+Instalatii+Trust+SA/data=!4m7!3m6!1s0x40b35bfffd15611b:0x9e9722f8ff721146!8m2!3d45.6568366!4d25.5640092!16s%2Fg%2F11jnsmfjrq!19sChIJG2EV_f9bs0ARRhFy__gil54?authuser=0&hl=tr&rclk=1",
    "website_url": "",
    "rating_text": "5,0",
    "stars": null,
    "number_of_reviews": null,
    "price_level": "",
    "open_hours": "",
    "extraction_timestamp": "2025-06-07T18:12:36.780Z",
    "source_name": "google",
    "source_query": "Irrigation Equipment",
    "source_country": "RO",
    "country": "Romania",
    "state": "Brașov County",
    "city": "Municipiul Fãgãraş"
  },
  {
    "source_id": "ChIJNQavzEFds0ARge4fIXKd1lA",
    "name": "Smart Power Consulting",
    "category": "Smart Power Consulting",
    "formatted_address": "4,0(1)",
    "phone_number": "+40730636711",
    "source_url": "https://www.google.com/maps/place/Smart+Power+Consulting/data=!4m7!3m6!1s0x40b35d41ccaf0635:0x50d69d72211fee81!8m2!3d45.6514777!4d25.61525!16s%2Fg%2F11h3mb816r!19sChIJNQavzEFds0ARge4fIXKd1lA?authuser=0&hl=tr&rclk=1",
    "website_url": "",
    "rating_text": "4,0",
    "stars": null,
    "number_of_reviews": null,
    "price_level": "",
    "open_hours": "",
    "extraction_timestamp": "2025-06-07T18:12:36.781Z",
    "source_name": "google",
    "source_query": "Irrigation Equipment",
    "source_country": "RO",
    "country": "Romania",
    "state": "Brașov County",
    "city": "Municipiul Fãgãraş"
  },
  {
    "source_id": "ChIJe_tU3Bhbs0ARYNkGVHO5YKE",
    "name": "HIDROstore Brașov",
    "category": "HIDROstore Brașov",
    "formatted_address": "5,0(13)",
    "phone_number": "+40771576228",
    "source_url": "https://www.google.com/maps/place/HIDROstore+Bra%C8%99ov/data=!4m7!3m6!1s0x40b35b18dc54fb7b:0xa160b9735406d960!8m2!3d45.6734944!4d25.5800351!16s%2Fg%2F11w8pn_mjw!19sChIJe_tU3Bhbs0ARYNkGVHO5YKE?authuser=0&hl=tr&rclk=1",
    "website_url": "",
    "rating_text": "5,0",
    "stars": null,
    "number_of_reviews": null,
    "price_level": "",
    "open_hours": "",
    "extraction_timestamp": "2025-06-07T18:12:36.782Z",
    "source_name": "google",
    "source_query": "Irrigation Equipment",
    "source_country": "RO",
    "country": "Romania",
    "state": "Brașov County",
    "city": "Municipiul Fãgãraş"
  },
  {
    "source_id": "ChIJZ2TAKopcs0ARXWJpfgr5Ja0",
    "name": "Ecoflam",
    "category": "Ecoflam",
    "formatted_address": "4,0(3)",
    "phone_number": "+40733670019",
    "source_url": "https://www.google.com/maps/place/Ecoflam/data=!4m7!3m6!1s0x40b35c8a2ac06467:0xad25f90a7e69625d!8m2!3d45.6399864!4d25.6239017!16s%2Fg%2F11hbl8yp52!19sChIJZ2TAKopcs0ARXWJpfgr5Ja0?authuser=0&hl=tr&rclk=1",
    "website_url": "",
    "rating_text": "4,0",
    "stars": null,
    "number_of_reviews": null,
    "price_level": "",
    "open_hours": "",
    "extraction_timestamp": "2025-06-07T18:12:36.783Z",
    "source_name": "google",
    "source_query": "Irrigation Equipment",
    "source_country": "RO",
    "country": "Romania",
    "state": "Brașov County",
    "city": "Municipiul Fãgãraş"
  },
  {
    "source_id": "ChIJ_XZ8Tp1bs0ARaWS3dAp1zcs",
    "name": "Water Management System Brasov",
    "category": "Water Management System Brasov",
    "formatted_address": "4,2(5)",
    "phone_number": "+40268412277",
    "source_url": "https://www.google.com/maps/place/Water+Management+System+Brasov/data=!4m7!3m6!1s0x40b35b9d4e7c76fd:0xcbcd750a74b76469!8m2!3d45.6504956!4d25.5934896!16s%2Fg%2F1pp2tzrcr!19sChIJ_XZ8Tp1bs0ARaWS3dAp1zcs?authuser=0&hl=tr&rclk=1",
    "website_url": "",
    "rating_text": "4,2",
    "stars": null,
    "number_of_reviews": null,
    "price_level": "",
    "open_hours": "",
    "extraction_timestamp": "2025-06-07T18:12:36.784Z",
    "source_name": "google",
    "source_query": "Irrigation Equipment",
    "source_country": "RO",
    "country": "Romania",
    "state": "Brașov County",
    "city": "Municipiul Fãgãraş"
  }
]
