[
  {
    "source_id": "ChIJTR_DrUdRs0ARZeOT_QeRUFc",
    "name": "Taiss 1",
    "category": "Taiss 1",
    "formatted_address": "4,7(152)",
    "phone_number": "+40268252000",
    "source_url": "https://www.google.com/maps/place/Taiss+1/data=!4m7!3m6!1s0x40b35147adc31f4d:0x57509107fd93e365!8m2!3d45.6941394!4d25.4462398!16s%2Fg%2F11h1yg1_tp!19sChIJTR_DrUdRs0ARZeOT_QeRUFc?authuser=0&hl=tr&rclk=1",
    "website_url": "",
    "rating_text": "4,7",
    "stars": null,
    "number_of_reviews": null,
    "price_level": "",
    "open_hours": "",
    "extraction_timestamp": "2025-06-08T02:46:01.158Z",
    "source_name": "google",
    "source_query": "Irrigation Equipment",
    "source_country": "RO",
    "country": "Romania",
    "state": "Brașov County",
    "city": "Municipiul  Codlea"
  },
  {
    "source_id": "ChIJN8sRSRBRs0ARdjYyW053ofg",
    "name": "Eliascon",
    "category": "Eliascon",
    "formatted_address": "4,6(117)",
    "phone_number": "+40268506363",
    "source_url": "https://www.google.com/maps/place/Eliascon/data=!4m7!3m6!1s0x40b351104911cb37:0xf8a1774e5b323676!8m2!3d45.696353!4d25.443853!16s%2Fg%2F1hc90fbn8!19sChIJN8sRSRBRs0ARdjYyW053ofg?authuser=0&hl=tr&rclk=1",
    "website_url": "",
    "rating_text": "4,6",
    "stars": null,
    "number_of_reviews": null,
    "price_level": "",
    "open_hours": "",
    "extraction_timestamp": "2025-06-08T02:46:01.160Z",
    "source_name": "google",
    "source_query": "Irrigation Equipment",
    "source_country": "RO",
    "country": "Romania",
    "state": "Brașov County",
    "city": "Municipiul  Codlea"
  },
  {
    "source_id": "ChIJD9v3XxFRs0ARmTH7X0msjoU",
    "name": "SC Popa SRL",
    "category": "SC Popa SRL",
    "formatted_address": "3,7(6)",
    "phone_number": "+40268251820",
    "source_url": "https://www.google.com/maps/place/SC+Popa+SRL/data=!4m7!3m6!1s0x40b351115ff7db0f:0x858eac495ffb3199!8m2!3d45.6986658!4d25.4437535!16s%2Fg%2F11c5s7sdm5!19sChIJD9v3XxFRs0ARmTH7X0msjoU?authuser=0&hl=tr&rclk=1",
    "website_url": "",
    "rating_text": "3,7",
    "stars": null,
    "number_of_reviews": null,
    "price_level": "",
    "open_hours": "",
    "extraction_timestamp": "2025-06-08T02:46:01.162Z",
    "source_name": "google",
    "source_query": "Irrigation Equipment",
    "source_country": "RO",
    "country": "Romania",
    "state": "Brașov County",
    "city": "Municipiul  Codlea"
  },
  {
    "source_id": "ChIJlx4s-cZRs0ARy0P8X_6-1g8",
    "name": "Magazin & Service de utilaje BG PRO SERVICE SRL",
    "category": "Magazin & Service de utilaje BG PRO SERVICE SRL",
    "formatted_address": "5,0(4)",
    "phone_number": "+40747523512",
    "source_url": "https://www.google.com/maps/place/Magazin+%26+Service+de+utilaje+BG+PRO+SERVICE+SRL/data=!4m7!3m6!1s0x40b351c6f92c1e97:0xfd6befe5ffc43cb!8m2!3d45.6983012!4d25.4449283!16s%2Fg%2F11y4bnq1mj!19sChIJlx4s-cZRs0ARy0P8X_6-1g8?authuser=0&hl=tr&rclk=1",
    "website_url": "",
    "rating_text": "5,0",
    "stars": null,
    "number_of_reviews": null,
    "price_level": "",
    "open_hours": "",
    "extraction_timestamp": "2025-06-08T02:46:01.164Z",
    "source_name": "google",
    "source_query": "Irrigation Equipment",
    "source_country": "RO",
    "country": "Romania",
    "state": "Brașov County",
    "city": "Municipiul  Codlea"
  },
  {
    "source_id": "ChIJaQzqLmZcs0ARU6r3VaUK6iE",
    "name": "AKRO S.R.L.",
    "category": "AKRO S.R.L.",
    "formatted_address": "4,7(13)",
    "phone_number": "+40268413180",
    "source_url": "https://www.google.com/maps/place/AKRO+S.R.L./data=!4m7!3m6!1s0x40b35c662eea0c69:0x21ea0aa555f7aa53!8m2!3d45.6485042!4d25.6406578!16s%2Fg%2F1hc250gs3!19sChIJaQzqLmZcs0ARU6r3VaUK6iE?authuser=0&hl=tr&rclk=1",
    "website_url": "",
    "rating_text": "4,7",
    "stars": null,
    "number_of_reviews": null,
    "price_level": "",
    "open_hours": "",
    "extraction_timestamp": "2025-06-08T02:46:01.165Z",
    "source_name": "google",
    "source_query": "Irrigation Equipment",
    "source_country": "RO",
    "country": "Romania",
    "state": "Brașov County",
    "city": "Municipiul  Codlea"
  },
  {
    "source_id": "ChIJX46IIIZas0ARI4N7IBtzs5o",
    "name": "BRASTING SRL",
    "category": "BRASTING SRL",
    "formatted_address": "5,0(3)",
    "phone_number": "+40368884884",
    "source_url": "https://www.google.com/maps/place/BRASTING+SRL/data=!4m7!3m6!1s0x40b35a8620888e5f:0x9ab3731b207b8323!8m2!3d45.6956354!4d25.4508587!16s%2Fg%2F11c30sbvyd!19sChIJX46IIIZas0ARI4N7IBtzs5o?authuser=0&hl=tr&rclk=1",
    "website_url": "",
    "rating_text": "5,0",
    "stars": null,
    "number_of_reviews": null,
    "price_level": "",
    "open_hours": "",
    "extraction_timestamp": "2025-06-08T02:46:01.166Z",
    "source_name": "google",
    "source_query": "Irrigation Equipment",
    "source_country": "RO",
    "country": "Romania",
    "state": "Brașov County",
    "city": "Municipiul  Codlea"
  },
  {
    "source_id": "ChIJ8WuYTBFRs0ARl58KWwATLSw",
    "name": "Piese Auto GENACOM SRL",
    "category": "Piese Auto GENACOM SRL",
    "formatted_address": "4,7(49)",
    "phone_number": "+40755069649",
    "source_url": "https://www.google.com/maps/place/Piese+Auto+GENACOM+SRL/data=!4m7!3m6!1s0x40b351114c986bf1:0x2c2d13005b0a9f97!8m2!3d45.7004097!4d25.4442095!16s%2Fg%2F11gfd5dw8j!19sChIJ8WuYTBFRs0ARl58KWwATLSw?authuser=0&hl=tr&rclk=1",
    "website_url": "",
    "rating_text": "4,7",
    "stars": null,
    "number_of_reviews": null,
    "price_level": "",
    "open_hours": "",
    "extraction_timestamp": "2025-06-08T02:46:01.167Z",
    "source_name": "google",
    "source_query": "Irrigation Equipment",
    "source_country": "RO",
    "country": "Romania",
    "state": "Brașov County",
    "city": "Municipiul  Codlea"
  },
  {
    "source_id": "ChIJ5T77pgRRs0ARj4ne_VN0ogs",
    "name": "Popa Codlea",
    "category": "Popa Codlea",
    "formatted_address": "5,0(1)",
    "phone_number": "+40752272452",
    "source_url": "https://www.google.com/maps/place/Popa+Codlea/data=!4m7!3m6!1s0x40b35104a6fb3ee5:0xba27453fdde898f!8m2!3d45.6924041!4d25.4507452!16s%2Fg%2F11h_6pnhvj!19sChIJ5T77pgRRs0ARj4ne_VN0ogs?authuser=0&hl=tr&rclk=1",
    "website_url": "",
    "rating_text": "5,0",
    "stars": null,
    "number_of_reviews": null,
    "price_level": "",
    "open_hours": "",
    "extraction_timestamp": "2025-06-08T02:46:01.168Z",
    "source_name": "google",
    "source_query": "Irrigation Equipment",
    "source_country": "RO",
    "country": "Romania",
    "state": "Brașov County",
    "city": "Municipiul  Codlea"
  },
  {
    "source_id": "ChIJj72MIxZRs0ARSr41PYBdeCI",
    "name": "Exotic 9 Mai",
    "category": "Exotic 9 Mai",
    "formatted_address": "3,8(128)",
    "phone_number": "",
    "source_url": "https://www.google.com/maps/place/Exotic+9+Mai/data=!4m7!3m6!1s0x40b35116238cbd8f:0x22785d803d35be4a!8m2!3d45.7040701!4d25.4487123!16s%2Fg%2F11fx9bz2lh!19sChIJj72MIxZRs0ARSr41PYBdeCI?authuser=0&hl=tr&rclk=1",
    "website_url": "",
    "rating_text": "3,8",
    "stars": null,
    "number_of_reviews": null,
    "price_level": "",
    "open_hours": "",
    "extraction_timestamp": "2025-06-08T02:46:01.169Z",
    "source_name": "google",
    "source_query": "Irrigation Equipment",
    "source_country": "RO",
    "country": "Romania",
    "state": "Brașov County",
    "city": "Municipiul  Codlea"
  },
  {
    "source_id": "ChIJPwRoYidRs0ARhWYuG2_SZKQ",
    "name": "Exotic",
    "category": "Exotic",
    "formatted_address": "4,2(20)",
    "phone_number": "",
    "source_url": "https://www.google.com/maps/place/Exotic/data=!4m7!3m6!1s0x40b351276268043f:0xa464d26f1b2e6685!8m2!3d45.7025147!4d25.4428292!16s%2Fg%2F11h4fjfb0k!19sChIJPwRoYidRs0ARhWYuG2_SZKQ?authuser=0&hl=tr&rclk=1",
    "website_url": "",
    "rating_text": "4,2",
    "stars": null,
    "number_of_reviews": null,
    "price_level": "",
    "open_hours": "",
    "extraction_timestamp": "2025-06-08T02:46:01.169Z",
    "source_name": "google",
    "source_query": "Irrigation Equipment",
    "source_country": "RO",
    "country": "Romania",
    "state": "Brașov County",
    "city": "Municipiul  Codlea"
  },
  {
    "source_id": "ChIJqcUzPBRRs0ARiDx6djVYsVI",
    "name": "Prăvălie Sergiana",
    "category": "Prăvălie Sergiana",
    "formatted_address": "4,3(98)",
    "phone_number": "+40368461033",
    "source_url": "https://www.google.com/maps/place/Pr%C4%83v%C4%83lie+Sergiana/data=!4m7!3m6!1s0x40b351143c33c5a9:0x52b15835767a3c88!8m2!3d45.7023876!4d25.4428279!16s%2Fg%2F11c1s11v2b!19sChIJqcUzPBRRs0ARiDx6djVYsVI?authuser=0&hl=tr&rclk=1",
    "website_url": "",
    "rating_text": "4,3",
    "stars": null,
    "number_of_reviews": null,
    "price_level": "",
    "open_hours": "",
    "extraction_timestamp": "2025-06-08T02:46:01.170Z",
    "source_name": "google",
    "source_query": "Irrigation Equipment",
    "source_country": "RO",
    "country": "Romania",
    "state": "Brașov County",
    "city": "Municipiul  Codlea"
  },
  {
    "source_id": "ChIJl3lHMwRRs0ARYKHjgtcYbeM",
    "name": "La Doi Pași",
    "category": "La Doi Pași",
    "formatted_address": "4,3(186)",
    "phone_number": "+40726919675",
    "source_url": "https://www.google.com/maps/place/La+Doi+Pa%C8%99i/data=!4m7!3m6!1s0x40b3510433477997:0xe36d18d782e3a160!8m2!3d45.690854!4d25.4457321!16s%2Fg%2F11dxm376t5!19sChIJl3lHMwRRs0ARYKHjgtcYbeM?authuser=0&hl=tr&rclk=1",
    "website_url": "",
    "rating_text": "4,3",
    "stars": null,
    "number_of_reviews": null,
    "price_level": "",
    "open_hours": "",
    "extraction_timestamp": "2025-06-08T02:46:01.171Z",
    "source_name": "google",
    "source_query": "Irrigation Equipment",
    "source_country": "RO",
    "country": "Romania",
    "state": "Brașov County",
    "city": "Municipiul  Codlea"
  },
  {
    "source_id": "ChIJ4yBrWgRRs0ARrCC2uE79O4c",
    "name": "Prăvălie Sergiana",
    "category": "Prăvălie Sergiana",
    "formatted_address": "4,3(13)",
    "phone_number": "+40368469359",
    "source_url": "https://www.google.com/maps/place/Pr%C4%83v%C4%83lie+Sergiana/data=!4m7!3m6!1s0x40b351045a6b20e3:0x873bfd4eb8b620ac!8m2!3d45.6917177!4d25.4455301!16s%2Fg%2F11hcz24hmz!19sChIJ4yBrWgRRs0ARrCC2uE79O4c?authuser=0&hl=tr&rclk=1",
    "website_url": "",
    "rating_text": "4,3",
    "stars": null,
    "number_of_reviews": null,
    "price_level": "",
    "open_hours": "",
    "extraction_timestamp": "2025-06-08T02:46:01.173Z",
    "source_name": "google",
    "source_query": "Irrigation Equipment",
    "source_country": "RO",
    "country": "Romania",
    "state": "Brașov County",
    "city": "Municipiul  Codlea"
  },
  {
    "source_id": "ChIJO1JYUTxRs0ARFRpw5xn_N74",
    "name": "Exotic Market",
    "category": "Exotic Market",
    "formatted_address": "3,4(22)",
    "phone_number": "",
    "source_url": "https://www.google.com/maps/place/Exotic+Market/data=!4m7!3m6!1s0x40b3513c5158523b:0xbe37ff19e7701a15!8m2!3d45.7065332!4d25.4520133!16s%2Fg%2F11h002fh1_!19sChIJO1JYUTxRs0ARFRpw5xn_N74?authuser=0&hl=tr&rclk=1",
    "website_url": "",
    "rating_text": "3,4",
    "stars": null,
    "number_of_reviews": null,
    "price_level": "",
    "open_hours": "",
    "extraction_timestamp": "2025-06-08T02:46:01.173Z",
    "source_name": "google",
    "source_query": "Irrigation Equipment",
    "source_country": "RO",
    "country": "Romania",
    "state": "Brașov County",
    "city": "Municipiul  Codlea"
  },
  {
    "source_id": "ChIJN-1pMhdRs0AR8IVg451clR0",
    "name": "Prăvălie Sergiana",
    "category": "Prăvălie Sergiana",
    "formatted_address": "4,7(21)",
    "phone_number": "+40368800650",
    "source_url": "https://www.google.com/maps/place/Pr%C4%83v%C4%83lie+Sergiana/data=!4m7!3m6!1s0x40b351173269ed37:0x1d955c9de36085f0!8m2!3d45.6999066!4d25.4475122!16s%2Fg%2F11hd07tj8g!19sChIJN-1pMhdRs0AR8IVg451clR0?authuser=0&hl=tr&rclk=1",
    "website_url": "",
    "rating_text": "4,7",
    "stars": null,
    "number_of_reviews": null,
    "price_level": "",
    "open_hours": "",
    "extraction_timestamp": "2025-06-08T02:46:01.174Z",
    "source_name": "google",
    "source_query": "Irrigation Equipment",
    "source_country": "RO",
    "country": "Romania",
    "state": "Brașov County",
    "city": "Municipiul  Codlea"
  },
  {
    "source_id": "ChIJ1-DuWKhRs0ARdQqWHt8AwuU",
    "name": "Agamex",
    "category": "Agamex",
    "formatted_address": "5,0(1)",
    "phone_number": "",
    "source_url": "https://www.google.com/maps/place/Agamex/data=!4m7!3m6!1s0x40b351a858eee0d7:0xe5c200df1e960a75!8m2!3d45.687776!4d25.4534541!16s%2Fg%2F11hlf7_8p2!19sChIJ1-DuWKhRs0ARdQqWHt8AwuU?authuser=0&hl=tr&rclk=1",
    "website_url": "",
    "rating_text": "5,0",
    "stars": null,
    "number_of_reviews": null,
    "price_level": "",
    "open_hours": "",
    "extraction_timestamp": "2025-06-08T02:46:01.175Z",
    "source_name": "google",
    "source_query": "Irrigation Equipment",
    "source_country": "RO",
    "country": "Romania",
    "state": "Brașov County",
    "city": "Municipiul  Codlea"
  },
  {
    "source_id": "ChIJvZXzij1Rs0ARE7EGh-K56gc",
    "name": "Fix S.R.L.",
    "category": "Fix S.R.L.",
    "formatted_address": "4,5(15)",
    "phone_number": "+40268251951",
    "source_url": "https://www.google.com/maps/place/Fix+S.R.L./data=!4m7!3m6!1s0x40b3513d8af395bd:0x7eab9e28706b113!8m2!3d45.7011765!4d25.444553!16s%2Fg%2F1hc1ykv25!19sChIJvZXzij1Rs0ARE7EGh-K56gc?authuser=0&hl=tr&rclk=1",
    "website_url": "",
    "rating_text": "4,5",
    "stars": null,
    "number_of_reviews": null,
    "price_level": "",
    "open_hours": "",
    "extraction_timestamp": "2025-06-08T02:46:01.176Z",
    "source_name": "google",
    "source_query": "Irrigation Equipment",
    "source_country": "RO",
    "country": "Romania",
    "state": "Brașov County",
    "city": "Municipiul  Codlea"
  },
  {
    "source_id": "ChIJRxWSewRRs0ARjoplv_XRFIE",
    "name": "Lidl",
    "category": "Lidl",
    "formatted_address": "4,3(2.490)",
    "phone_number": "+40800896622",
    "source_url": "https://www.google.com/maps/place/Lidl/data=!4m7!3m6!1s0x40b351047b921547:0x8114d1f5bf658a8e!8m2!3d45.6913279!4d25.4492397!16s%2Fg%2F119t9_jzn!19sChIJRxWSewRRs0ARjoplv_XRFIE?authuser=0&hl=tr&rclk=1",
    "website_url": "",
    "rating_text": "4,3",
    "stars": null,
    "number_of_reviews": null,
    "price_level": "",
    "open_hours": "",
    "extraction_timestamp": "2025-06-08T02:46:01.179Z",
    "source_name": "google",
    "source_query": "Irrigation Equipment",
    "source_country": "RO",
    "country": "Romania",
    "state": "Brașov County",
    "city": "Municipiul  Codlea"
  },
  {
    "source_id": "ChIJEdrlBwRRs0ARsA3kEqQh6lI",
    "name": "Kaufland",
    "category": "Kaufland",
    "formatted_address": "4,1(2.875)",
    "phone_number": "+40800080888",
    "source_url": "https://www.google.com/maps/place/Kaufland/data=!4m7!3m6!1s0x40b3510407e5da11:0x52ea21a412e40db0!8m2!3d45.6894374!4d25.4483222!16s%2Fg%2F11ddt2_jpq!19sChIJEdrlBwRRs0ARsA3kEqQh6lI?authuser=0&hl=tr&rclk=1",
    "website_url": "",
    "rating_text": "4,1",
    "stars": null,
    "number_of_reviews": null,
    "price_level": "",
    "open_hours": "",
    "extraction_timestamp": "2025-06-08T02:46:01.181Z",
    "source_name": "google",
    "source_query": "Irrigation Equipment",
    "source_country": "RO",
    "country": "Romania",
    "state": "Brașov County",
    "city": "Municipiul  Codlea"
  },
  {
    "source_id": "ChIJiYrW93hcs0ARpKmOIL1sTuI",
    "name": "Valinst Agriculture",
    "category": "Valinst Agriculture",
    "formatted_address": "5,0(1)",
    "phone_number": "+40730330543",
    "source_url": "https://www.google.com/maps/place/Valinst+Agriculture/data=!4m7!3m6!1s0x40b35c78f7d68a89:0xe24e6cbd208ea9a4!8m2!3d45.6527567!4d25.6143965!16s%2Fg%2F11hf04lgwp!19sChIJiYrW93hcs0ARpKmOIL1sTuI?authuser=0&hl=tr&rclk=1",
    "website_url": "",
    "rating_text": "5,0",
    "stars": null,
    "number_of_reviews": null,
    "price_level": "",
    "open_hours": "",
    "extraction_timestamp": "2025-06-08T02:46:01.182Z",
    "source_name": "google",
    "source_query": "Irrigation Equipment",
    "source_country": "RO",
    "country": "Romania",
    "state": "Brașov County",
    "city": "Municipiul  Codlea"
  },
  {
    "source_id": "ChIJLb_Eartbs0ARsgyH2lUGGNM",
    "name": "Techno Pro",
    "category": "Techno Pro",
    "formatted_address": "4,3(493)",
    "phone_number": "+40752424242",
    "source_url": "https://www.google.com/maps/place/Techno+Pro/data=!4m7!3m6!1s0x40b35bbb6ac4bf2d:0xd3180655da870cb2!8m2!3d45.6640885!4d25.5813535!16s%2Fg%2F1jkz4jl5x!19sChIJLb_Eartbs0ARsgyH2lUGGNM?authuser=0&hl=tr&rclk=1",
    "website_url": "",
    "rating_text": "4,3",
    "stars": null,
    "number_of_reviews": null,
    "price_level": "",
    "open_hours": "",
    "extraction_timestamp": "2025-06-08T02:46:01.183Z",
    "source_name": "google",
    "source_query": "Irrigation Equipment",
    "source_country": "RO",
    "country": "Romania",
    "state": "Brașov County",
    "city": "Municipiul  Codlea"
  },
  {
    "source_id": "ChIJBWxRW4lcs0AR4johcYtY_Us",
    "name": "Hod-Chimex",
    "category": "Hod-Chimex",
    "formatted_address": "4,3(110)",
    "phone_number": "+40268320340",
    "source_url": "https://www.google.com/maps/place/Hod-Chimex/data=!4m7!3m6!1s0x40b35c895b516c05:0x4bfd588b71213ae2!8m2!3d45.6388375!4d25.6217574!16s%2Fg%2F1wrtbc6q!19sChIJBWxRW4lcs0AR4johcYtY_Us?authuser=0&hl=tr&rclk=1",
    "website_url": "",
    "rating_text": "4,3",
    "stars": null,
    "number_of_reviews": null,
    "price_level": "",
    "open_hours": "",
    "extraction_timestamp": "2025-06-08T02:46:01.184Z",
    "source_name": "google",
    "source_query": "Irrigation Equipment",
    "source_country": "RO",
    "country": "Romania",
    "state": "Brașov County",
    "city": "Municipiul  Codlea"
  },
  {
    "source_id": "ChIJu1YSjzSDw0URjcgBGv8G3NQ",
    "name": "Gradini Verzi",
    "category": "Gradini Verzi",
    "formatted_address": "5,0(19)",
    "phone_number": "+40727069669",
    "source_url": "https://www.google.com/maps/place/Gradini+Verzi/data=!4m7!3m6!1s0x45c383348f1256bb:0xd4dc06ff1a01c88d!8m2!3d45.651576!4d25.6118307!16s%2Fg%2F11sjr8sb4r!19sChIJu1YSjzSDw0URjcgBGv8G3NQ?authuser=0&hl=tr&rclk=1",
    "website_url": "",
    "rating_text": "5,0",
    "stars": null,
    "number_of_reviews": null,
    "price_level": "",
    "open_hours": "",
    "extraction_timestamp": "2025-06-08T02:46:01.185Z",
    "source_name": "google",
    "source_query": "Irrigation Equipment",
    "source_country": "RO",
    "country": "Romania",
    "state": "Brașov County",
    "city": "Municipiul  Codlea"
  },
  {
    "source_id": "ChIJv_o5809bs0ARFk-j_hMtkuY",
    "name": "Masif Brasov",
    "category": "Masif Brasov",
    "formatted_address": "2,9(22)",
    "phone_number": "+40368422808",
    "source_url": "https://www.google.com/maps/place/Masif+Brasov/data=!4m7!3m6!1s0x40b35b4ff339fabf:0xe6922d13fea34f16!8m2!3d45.6588992!4d25.566278!16s%2Fg%2F11r8mqc09v!19sChIJv_o5809bs0ARFk-j_hMtkuY?authuser=0&hl=tr&rclk=1",
    "website_url": "",
    "rating_text": "2,9",
    "stars": null,
    "number_of_reviews": null,
    "price_level": "",
    "open_hours": "",
    "extraction_timestamp": "2025-06-08T02:46:01.186Z",
    "source_name": "google",
    "source_query": "Irrigation Equipment",
    "source_country": "RO",
    "country": "Romania",
    "state": "Brașov County",
    "city": "Municipiul  Codlea"
  },
  {
    "source_id": "ChIJAX9ixJlbs0ARONdeqKAUFNY",
    "name": "Magazinul Fermierului",
    "category": "Magazinul Fermierului",
    "formatted_address": "4,3(358)",
    "phone_number": "+40724355430",
    "source_url": "https://www.google.com/maps/place/Magazinul+Fermierului/data=!4m7!3m6!1s0x40b35b99c4627f01:0xd61414a0a85ed738!8m2!3d45.6593757!4d25.5919892!16s%2Fg%2F1pp2vb70j!19sChIJAX9ixJlbs0ARONdeqKAUFNY?authuser=0&hl=tr&rclk=1",
    "website_url": "",
    "rating_text": "4,3",
    "stars": null,
    "number_of_reviews": null,
    "price_level": "",
    "open_hours": "",
    "extraction_timestamp": "2025-06-08T02:46:01.186Z",
    "source_name": "google",
    "source_query": "Irrigation Equipment",
    "source_country": "RO",
    "country": "Romania",
    "state": "Brașov County",
    "city": "Municipiul  Codlea"
  },
  {
    "source_id": "ChIJZ2TAKopcs0ARXWJpfgr5Ja0",
    "name": "Ecoflam",
    "category": "Ecoflam",
    "formatted_address": "4,0(3)",
    "phone_number": "+40733670019",
    "source_url": "https://www.google.com/maps/place/Ecoflam/data=!4m7!3m6!1s0x40b35c8a2ac06467:0xad25f90a7e69625d!8m2!3d45.6399864!4d25.6239017!16s%2Fg%2F11hbl8yp52!19sChIJZ2TAKopcs0ARXWJpfgr5Ja0?authuser=0&hl=tr&rclk=1",
    "website_url": "",
    "rating_text": "4,0",
    "stars": null,
    "number_of_reviews": null,
    "price_level": "",
    "open_hours": "",
    "extraction_timestamp": "2025-06-08T02:46:01.187Z",
    "source_name": "google",
    "source_query": "Irrigation Equipment",
    "source_country": "RO",
    "country": "Romania",
    "state": "Brașov County",
    "city": "Municipiul  Codlea"
  },
  {
    "source_id": "ChIJlzC5ZptZs0AR-E0gh9kCJfQ",
    "name": "Meseriaș Instalator Brașov - KIRILA LUCIPA SRL",
    "category": "Meseriaș Instalator Brașov - KIRILA LUCIPA SRL",
    "formatted_address": "4,9(31)",
    "phone_number": "+40730354076",
    "source_url": "https://www.google.com/maps/place/Meseria%C8%99+Instalator+Bra%C8%99ov+-+KIRILA+LUCIPA+SRL/data=!4m7!3m6!1s0x40b3599b66b93097:0xf42502d987204df8!8m2!3d45.691429!4d25.6294113!16s%2Fg%2F11t5b1c2ry!19sChIJlzC5ZptZs0AR-E0gh9kCJfQ?authuser=0&hl=tr&rclk=1",
    "website_url": "",
    "rating_text": "4,9",
    "stars": null,
    "number_of_reviews": null,
    "price_level": "",
    "open_hours": "",
    "extraction_timestamp": "2025-06-08T02:46:01.189Z",
    "source_name": "google",
    "source_query": "Irrigation Equipment",
    "source_country": "RO",
    "country": "Romania",
    "state": "Brașov County",
    "city": "Municipiul  Codlea"
  },
  {
    "source_id": "ChIJl2gBjc1bs0ARj3qe62Qu-o4",
    "name": "KronColoR Brasov",
    "category": "KronColoR Brasov",
    "formatted_address": "4,6(84)",
    "phone_number": "+40729093908",
    "source_url": "https://www.google.com/maps/place/KronColoR+Brasov/data=!4m7!3m6!1s0x40b35bcd8d016897:0x8efa2e64eb9e7a8f!8m2!3d45.6821564!4d25.5823097!16s%2Fg%2F1q62dg5dv!19sChIJl2gBjc1bs0ARj3qe62Qu-o4?authuser=0&hl=tr&rclk=1",
    "website_url": "",
    "rating_text": "4,6",
    "stars": null,
    "number_of_reviews": null,
    "price_level": "",
    "open_hours": "",
    "extraction_timestamp": "2025-06-08T02:46:01.190Z",
    "source_name": "google",
    "source_query": "Irrigation Equipment",
    "source_country": "RO",
    "country": "Romania",
    "state": "Brașov County",
    "city": "Municipiul  Codlea"
  },
  {
    "source_id": "ChIJA7B1Z2Zds0ARur30HS3Ah04",
    "name": "instalator brasov NON STOP sanitare termice",
    "category": "instalator brasov NON STOP sanitare termice",
    "formatted_address": "4,2(33)",
    "phone_number": "+40755189138",
    "source_url": "https://www.google.com/maps/place/instalator+brasov+NON+STOP+sanitare+termice/data=!4m7!3m6!1s0x40b35d666775b003:0x4e87c02d1df4bdba!8m2!3d45.655991!4d25.6178539!16s%2Fg%2F11h7b34qd_!19sChIJA7B1Z2Zds0ARur30HS3Ah04?authuser=0&hl=tr&rclk=1",
    "website_url": "",
    "rating_text": "4,2",
    "stars": null,
    "number_of_reviews": null,
    "price_level": "",
    "open_hours": "",
    "extraction_timestamp": "2025-06-08T02:46:01.191Z",
    "source_name": "google",
    "source_query": "Irrigation Equipment",
    "source_country": "RO",
    "country": "Romania",
    "state": "Brașov County",
    "city": "Municipiul  Codlea"
  },
  {
    "source_id": "ChIJ5_Jq4eBbs0ARtTWcI_mIh2g",
    "name": "SAURI S.R.L.",
    "category": "SAURI S.R.L.",
    "formatted_address": "4,3(12)",
    "phone_number": "+40723243611",
    "source_url": "https://www.google.com/maps/place/SAURI+S.R.L./data=!4m7!3m6!1s0x40b35be0e16af2e7:0x688788f9239c35b5!8m2!3d45.6377146!4d25.5007387!16s%2Fg%2F11k_cv8gbx!19sChIJ5_Jq4eBbs0ARtTWcI_mIh2g?authuser=0&hl=tr&rclk=1",
    "website_url": "",
    "rating_text": "4,3",
    "stars": null,
    "number_of_reviews": null,
    "price_level": "",
    "open_hours": "",
    "extraction_timestamp": "2025-06-08T02:46:01.192Z",
    "source_name": "google",
    "source_query": "Irrigation Equipment",
    "source_country": "RO",
    "country": "Romania",
    "state": "Brașov County",
    "city": "Municipiul  Codlea"
  },
  {
    "source_id": "ChIJK6QNBvBds0ARK39HHf7Dr2c",
    "name": "PLAI URBAN",
    "category": "PLAI URBAN",
    "formatted_address": "5,0(3)",
    "phone_number": "+40723478882",
    "source_url": "https://www.google.com/maps/place/PLAI+URBAN/data=!4m7!3m6!1s0x40b35df0060da42b:0x67afc3fe1d477f2b!8m2!3d45.662593!4d25.631469!16s%2Fg%2F11j8p2wpb7!19sChIJK6QNBvBds0ARK39HHf7Dr2c?authuser=0&hl=tr&rclk=1",
    "website_url": "",
    "rating_text": "5,0",
    "stars": null,
    "number_of_reviews": null,
    "price_level": "",
    "open_hours": "",
    "extraction_timestamp": "2025-06-08T02:46:01.193Z",
    "source_name": "google",
    "source_query": "Irrigation Equipment",
    "source_country": "RO",
    "country": "Romania",
    "state": "Brașov County",
    "city": "Municipiul  Codlea"
  },
  {
    "source_id": "ChIJpRLHLAFbs0AR4aOqN_hsDuc",
    "name": "Gruppo Valinst",
    "category": "Gruppo Valinst",
    "formatted_address": "",
    "phone_number": "+40729931509",
    "source_url": "https://www.google.com/maps/place/Gruppo+Valinst/data=!4m7!3m6!1s0x40b35b012cc712a5:0xe70e6cf837aaa3e1!8m2!3d45.65515!4d25.5586001!16s%2Fg%2F1hc3rk913!19sChIJpRLHLAFbs0AR4aOqN_hsDuc?authuser=0&hl=tr&rclk=1",
    "website_url": "",
    "rating_text": "",
    "stars": null,
    "number_of_reviews": null,
    "price_level": "",
    "open_hours": "",
    "extraction_timestamp": "2025-06-08T02:46:01.194Z",
    "source_name": "google",
    "source_query": "Irrigation Equipment",
    "source_country": "RO",
    "country": "Romania",
    "state": "Brașov County",
    "city": "Municipiul  Codlea"
  }
]
