[
  {
    "source_id": "ChIJUZSfpzZbs0ARH_h_hCdSYxY",
    "name": "Bauer Kompressoren Romania",
    "category": "Bauer Kompressoren Romania",
    "formatted_address": "4,8(6)",
    "phone_number": "",
    "source_url": "https://www.google.com/maps/place/Bauer+Kompressoren+Romania/data=!4m7!3m6!1s0x40b35b36a79f9451:0x16635227847ff81f!8m2!3d45.6482328!4d25.5297628!16s%2Fg%2F11txfb39bf!19sChIJUZSfpzZbs0ARH_h_hCdSYxY?authuser=0&hl=tr&rclk=1",
    "website_url": "https://www.bauer-kompressoren.ro/",
    "rating_text": "4,8",
    "stars": null,
    "number_of_reviews": null,
    "price_level": "",
    "open_hours": "",
    "extraction_timestamp": "2025-06-07T18:13:24.813Z",
    "source_name": "google",
    "source_query": "Irrigation Equipment",
    "source_country": "RO",
    "country": "Romania",
    "state": "Brașov County",
    "city": "Oraş Ghimbav"
  },
  {
    "source_id": "ChIJbVR0BF9bs0ARHI3Kpp6_nTk",
    "name": "ISO ELECTRIC",
    "category": "ISO ELECTRIC",
    "formatted_address": "4,8(6)",
    "phone_number": "+40767191856",
    "source_url": "https://www.google.com/maps/place/ISO+ELECTRIC/data=!4m7!3m6!1s0x40b35b5f0474546d:0x399dbf9ea6ca8d1c!8m2!3d45.6677017!4d25.5050823!16s%2Fg%2F11rf6mxvlb!19sChIJbVR0BF9bs0ARHI3Kpp6_nTk?authuser=0&hl=tr&rclk=1",
    "website_url": "",
    "rating_text": "4,8",
    "stars": null,
    "number_of_reviews": null,
    "price_level": "",
    "open_hours": "",
    "extraction_timestamp": "2025-06-07T18:13:24.815Z",
    "source_name": "google",
    "source_query": "Irrigation Equipment",
    "source_country": "RO",
    "country": "Romania",
    "state": "Brașov County",
    "city": "Oraş Ghimbav"
  },
  {
    "source_id": "ChIJ1S8EiMZZs0AR86hmbkUN9ow",
    "name": "Ipso Agricultura Brașov",
    "category": "Ipso Agricultura Brașov",
    "formatted_address": "4,8(12)",
    "phone_number": "+40374438921",
    "source_url": "https://www.google.com/maps/place/Ipso+Agricultura+Bra%C8%99ov/data=!4m7!3m6!1s0x40b359c688042fd5:0x8cf60d456e66a8f3!8m2!3d45.7007612!4d25.5811096!16s%2Fg%2F11h_dq5c17!19sChIJ1S8EiMZZs0AR86hmbkUN9ow?authuser=0&hl=tr&rclk=1",
    "website_url": "http://www.ipso.ro/",
    "rating_text": "4,8",
    "stars": null,
    "number_of_reviews": null,
    "price_level": "",
    "open_hours": "",
    "extraction_timestamp": "2025-06-07T18:13:24.816Z",
    "source_name": "google",
    "source_query": "Irrigation Equipment",
    "source_country": "RO",
    "country": "Romania",
    "state": "Brașov County",
    "city": "Oraş Ghimbav"
  },
  {
    "source_id": "ChIJpRLHLAFbs0AR4aOqN_hsDuc",
    "name": "Gruppo Valinst",
    "category": "Gruppo Valinst",
    "formatted_address": "",
    "phone_number": "+40729931509",
    "source_url": "https://www.google.com/maps/place/Gruppo+Valinst/data=!4m7!3m6!1s0x40b35b012cc712a5:0xe70e6cf837aaa3e1!8m2!3d45.65515!4d25.5586001!16s%2Fg%2F1hc3rk913!19sChIJpRLHLAFbs0AR4aOqN_hsDuc?authuser=0&hl=tr&rclk=1",
    "website_url": "https://www.valinst.ro/ro/instalatii-de-irigat/universal-liniare",
    "rating_text": "",
    "stars": null,
    "number_of_reviews": null,
    "price_level": "",
    "open_hours": "",
    "extraction_timestamp": "2025-06-07T18:13:24.817Z",
    "source_name": "google",
    "source_query": "Irrigation Equipment",
    "source_country": "RO",
    "country": "Romania",
    "state": "Brașov County",
    "city": "Oraş Ghimbav"
  },
  {
    "source_id": "ChIJk3rJuNBbs0ARSk5po_HIu_s",
    "name": "AXS Machinery închirieri utilaje terasamente Ghimbav Brasov",
    "category": "AXS Machinery închirieri utilaje terasamente Ghimbav Brasov",
    "formatted_address": "5,0(2)",
    "phone_number": "+40753985778",
    "source_url": "https://www.google.com/maps/place/AXS+Machinery+%C3%AEnchirieri+utilaje+terasamente+Ghimbav+Brasov/data=!4m7!3m6!1s0x40b35bd0b8c97a93:0xfbbbc8f1a3694e4a!8m2!3d45.6568199!4d25.5049673!16s%2Fg%2F11ssbf2cj1!19sChIJk3rJuNBbs0ARSk5po_HIu_s?authuser=0&hl=tr&rclk=1",
    "website_url": "http://www.utilajebrasov.ro/",
    "rating_text": "5,0",
    "stars": null,
    "number_of_reviews": null,
    "price_level": "",
    "open_hours": "",
    "extraction_timestamp": "2025-06-07T18:13:24.818Z",
    "source_name": "google",
    "source_query": "Irrigation Equipment",
    "source_country": "RO",
    "country": "Romania",
    "state": "Brașov County",
    "city": "Oraş Ghimbav"
  },
  {
    "source_id": "ChIJP1bi345as0ARR57nY5MXCgk",
    "name": "Tess Brasov",
    "category": "Tess Brasov",
    "formatted_address": "4,2(928)",
    "phone_number": "+40268473040",
    "source_url": "https://www.google.com/maps/place/Tess+Brasov/data=!4m7!3m6!1s0x40b35a8edfe2563f:0x90a179363e79e47!8m2!3d45.6627862!4d25.5137686!16s%2Fg%2F1tf275ch!19sChIJP1bi345as0ARR57nY5MXCgk?authuser=0&hl=tr&rclk=1",
    "website_url": "http://www.tess.ro/",
    "rating_text": "4,2",
    "stars": null,
    "number_of_reviews": null,
    "price_level": "",
    "open_hours": "",
    "extraction_timestamp": "2025-06-07T18:13:24.819Z",
    "source_name": "google",
    "source_query": "Irrigation Equipment",
    "source_country": "RO",
    "country": "Romania",
    "state": "Brașov County",
    "city": "Oraş Ghimbav"
  },
  {
    "source_id": "ChIJ30Wh5YZas0ARdwdSvQpIYgk",
    "name": "Piramis Srl",
    "category": "Piramis Srl",
    "formatted_address": "4,6(48)",
    "phone_number": "+40368800808",
    "source_url": "https://www.google.com/maps/place/Piramis+Srl/data=!4m7!3m6!1s0x40b35a86e5a145df:0x962480abd520777!8m2!3d45.6668663!4d25.508958!16s%2Fg%2F11g9rkytd4!19sChIJ30Wh5YZas0ARdwdSvQpIYgk?authuser=0&hl=tr&rclk=1",
    "website_url": "https://piramisconstruct.ro/",
    "rating_text": "4,6",
    "stars": null,
    "number_of_reviews": null,
    "price_level": "",
    "open_hours": "",
    "extraction_timestamp": "2025-06-07T18:13:24.820Z",
    "source_name": "google",
    "source_query": "Irrigation Equipment",
    "source_country": "RO",
    "country": "Romania",
    "state": "Brașov County",
    "city": "Oraş Ghimbav"
  },
  {
    "source_id": "ChIJNQ0zxghas0AR0jCjzWhGpg8",
    "name": "IAR Brasov",
    "category": "IAR Brasov",
    "formatted_address": "4,5(66)",
    "phone_number": "+40268475269",
    "source_url": "https://www.google.com/maps/place/IAR+Brasov/data=!4m7!3m6!1s0x40b35a08c6330d35:0xfa64668cda330d2!8m2!3d45.693216!4d25.5311536!16s%2Fg%2F11cmcymmm5!19sChIJNQ0zxghas0AR0jCjzWhGpg8?authuser=0&hl=tr&rclk=1",
    "website_url": "http://www.iar.ro/",
    "rating_text": "4,5",
    "stars": null,
    "number_of_reviews": null,
    "price_level": "",
    "open_hours": "",
    "extraction_timestamp": "2025-06-07T18:13:24.821Z",
    "source_name": "google",
    "source_query": "Irrigation Equipment",
    "source_country": "RO",
    "country": "Romania",
    "state": "Brașov County",
    "city": "Oraş Ghimbav"
  },
  {
    "source_id": "ChIJfy9ySulbs0ARjTkyGIT6EVQ",
    "name": "Amenajare Drumuri și Asfaltări Brașov | GAM",
    "category": "Amenajare Drumuri și Asfaltări Brașov | GAM",
    "formatted_address": "4,5(2)",
    "phone_number": "+40743660938",
    "source_url": "https://www.google.com/maps/place/Amenajare+Drumuri+%C8%99i+Asfalt%C4%83ri+Bra%C8%99ov+%7C+GAM/data=!4m7!3m6!1s0x40b35be94a722f7f:0x5411fa841832398d!8m2!3d45.6630759!4d25.5037935!16s%2Fg%2F11vyx601k8!19sChIJfy9ySulbs0ARjTkyGIT6EVQ?authuser=0&hl=tr&rclk=1",
    "website_url": "https://gamasfaltari.ro/",
    "rating_text": "4,5",
    "stars": null,
    "number_of_reviews": null,
    "price_level": "",
    "open_hours": "",
    "extraction_timestamp": "2025-06-07T18:13:24.822Z",
    "source_name": "google",
    "source_query": "Irrigation Equipment",
    "source_country": "RO",
    "country": "Romania",
    "state": "Brașov County",
    "city": "Oraş Ghimbav"
  },
  {
    "source_id": "ChIJyy6R5LZbs0ARQs4Qi7JH2ls",
    "name": "Instalatorul tau in Brasov - Chiaburu Instal SRL",
    "category": "Instalatorul tau in Brasov - Chiaburu Instal SRL",
    "formatted_address": "4,5(31)",
    "phone_number": "+40747530262",
    "source_url": "https://www.google.com/maps/place/Instalatorul+tau+in+Brasov+-+Chiaburu+Instal+SRL/data=!4m7!3m6!1s0x40b35bb6e4912ecb:0x5bda47b28b10ce42!8m2!3d45.6527639!4d25.5684782!16s%2Fg%2F11rydrpfqw!19sChIJyy6R5LZbs0ARQs4Qi7JH2ls?authuser=0&hl=tr&rclk=1",
    "website_url": "https://instalatorultau.ro/",
    "rating_text": "4,5",
    "stars": null,
    "number_of_reviews": null,
    "price_level": "",
    "open_hours": "",
    "extraction_timestamp": "2025-06-07T18:13:24.823Z",
    "source_name": "google",
    "source_query": "Irrigation Equipment",
    "source_country": "RO",
    "country": "Romania",
    "state": "Brașov County",
    "city": "Oraş Ghimbav"
  },
  {
    "source_id": "ChIJQWMa4Phas0ARsw4Vdl51_-E",
    "name": "HORNBACH Brașov",
    "category": "HORNBACH Brașov",
    "formatted_address": "4,3(8.596)",
    "phone_number": "+40268503281",
    "source_url": "https://www.google.com/maps/place/HORNBACH+Bra%C8%99ov/data=!4m7!3m6!1s0x40b35af8e01a6341:0xe1ff755e76150eb3!8m2!3d45.6605486!4d25.548517!16s%2Fg%2F119wj3w_h!19sChIJQWMa4Phas0ARsw4Vdl51_-E?authuser=0&hl=tr&rclk=1",
    "website_url": "https://www.hornbach.ro/cms/ro/ro/magazinul_meu/magazinele_hornbach/brasov.html?WT.z_places=782",
    "rating_text": "4,3",
    "stars": null,
    "number_of_reviews": null,
    "price_level": "",
    "open_hours": "",
    "extraction_timestamp": "2025-06-07T18:13:24.825Z",
    "source_name": "google",
    "source_query": "Irrigation Equipment",
    "source_country": "RO",
    "country": "Romania",
    "state": "Brașov County",
    "city": "Oraş Ghimbav"
  },
  {
    "source_id": "ChIJrUQQMFZZs0AR6NzsnVyZJ80",
    "name": "Caldurica.ro",
    "category": "Caldurica.ro",
    "formatted_address": "5,0(77)",
    "phone_number": "+40762275709",
    "source_url": "https://www.google.com/maps/place/Caldurica.ro/data=!4m7!3m6!1s0x40b35956301044ad:0xcd27995c9decdce8!8m2!3d45.7037588!4d25.5550988!16s%2Fg%2F11j3rybftd!19sChIJrUQQMFZZs0AR6NzsnVyZJ80?authuser=0&hl=tr&rclk=1",
    "website_url": "http://caldurica.ro/",
    "rating_text": "5,0",
    "stars": null,
    "number_of_reviews": null,
    "price_level": "",
    "open_hours": "",
    "extraction_timestamp": "2025-06-07T18:13:24.826Z",
    "source_name": "google",
    "source_query": "Irrigation Equipment",
    "source_country": "RO",
    "country": "Romania",
    "state": "Brașov County",
    "city": "Oraş Ghimbav"
  },
  {
    "source_id": "ChIJSc52LPpds0ARRn6D2MxGEP4",
    "name": "Krongrass Equipment",
    "category": "Krongrass Equipment",
    "formatted_address": "5,0(2)",
    "phone_number": "+40744565495",
    "source_url": "https://www.google.com/maps/place/Krongrass+Equipment/data=!4m7!3m6!1s0x40b35dfa2c76ce49:0xfe1046ccd8837e46!8m2!3d45.6466883!4d25.6378089!16s%2Fg%2F11kj0x16vd!19sChIJSc52LPpds0ARRn6D2MxGEP4?authuser=0&hl=tr&rclk=1",
    "website_url": "http://www.spider-cositoare.com/",
    "rating_text": "5,0",
    "stars": null,
    "number_of_reviews": null,
    "price_level": "",
    "open_hours": "",
    "extraction_timestamp": "2025-06-07T18:13:24.827Z",
    "source_name": "google",
    "source_query": "Irrigation Equipment",
    "source_country": "RO",
    "country": "Romania",
    "state": "Brașov County",
    "city": "Oraş Ghimbav"
  },
  {
    "source_id": "ChIJ5_Jq4eBbs0ARtTWcI_mIh2g",
    "name": "SAURI S.R.L.",
    "category": "SAURI S.R.L.",
    "formatted_address": "4,3(12)",
    "phone_number": "+40723243611",
    "source_url": "https://www.google.com/maps/place/SAURI+S.R.L./data=!4m7!3m6!1s0x40b35be0e16af2e7:0x688788f9239c35b5!8m2!3d45.6377146!4d25.5007387!16s%2Fg%2F11k_cv8gbx!19sChIJ5_Jq4eBbs0ARtTWcI_mIh2g?authuser=0&hl=tr&rclk=1",
    "website_url": "http://www.sauri.ro/",
    "rating_text": "4,3",
    "stars": null,
    "number_of_reviews": null,
    "price_level": "",
    "open_hours": "",
    "extraction_timestamp": "2025-06-07T18:13:24.828Z",
    "source_name": "google",
    "source_query": "Irrigation Equipment",
    "source_country": "RO",
    "country": "Romania",
    "state": "Brașov County",
    "city": "Oraş Ghimbav"
  },
  {
    "source_id": "ChIJE_VYbfhas0ARTjBBP3r8Ojw",
    "name": "Arabesque",
    "category": "Arabesque",
    "formatted_address": "3,5(555)",
    "phone_number": "+40374012345",
    "source_url": "https://www.google.com/maps/place/Arabesque/data=!4m7!3m6!1s0x40b35af86d58f513:0x3c3afc7a3f41304e!8m2!3d45.6608096!4d25.5460872!16s%2Fg%2F1q5bnhz3h!19sChIJE_VYbfhas0ARTjBBP3r8Ojw?authuser=0&hl=tr&rclk=1",
    "website_url": "https://arabesque.ro/",
    "rating_text": "3,5",
    "stars": null,
    "number_of_reviews": null,
    "price_level": "",
    "open_hours": "",
    "extraction_timestamp": "2025-06-07T18:13:24.829Z",
    "source_name": "google",
    "source_query": "Irrigation Equipment",
    "source_country": "RO",
    "country": "Romania",
    "state": "Brașov County",
    "city": "Oraş Ghimbav"
  },
  {
    "source_id": "ChIJRZCc1AgBSkcRjNk2BEPlnzE",
    "name": "IPEXIM RADIATOARE",
    "category": "IPEXIM RADIATOARE",
    "formatted_address": "5,0(9)",
    "phone_number": "+40745536191",
    "source_url": "https://www.google.com/maps/place/IPEXIM+RADIATOARE/data=!4m7!3m6!1s0x474a0108d49c9045:0x319fe5430436d98c!8m2!3d45.666672!4d25.587161!16s%2Fg%2F11n6s7lk_r!19sChIJRZCc1AgBSkcRjNk2BEPlnzE?authuser=0&hl=tr&rclk=1",
    "website_url": "https://www.ipexim-radiatoare.ro/",
    "rating_text": "5,0",
    "stars": null,
    "number_of_reviews": null,
    "price_level": "",
    "open_hours": "",
    "extraction_timestamp": "2025-06-07T18:13:24.831Z",
    "source_name": "google",
    "source_query": "Irrigation Equipment",
    "source_country": "RO",
    "country": "Romania",
    "state": "Brașov County",
    "city": "Oraş Ghimbav"
  },
  {
    "source_id": "ChIJPeKh1f9bs0AR5oratgmGcXE",
    "name": "Filtru pentru apa",
    "category": "Filtru pentru apa",
    "formatted_address": "5,0(1)",
    "phone_number": "+40725361005",
    "source_url": "https://www.google.com/maps/place/Filtru+pentru+apa/data=!4m7!3m6!1s0x40b35bffd5a1e23d:0x71718609b6da8ae6!8m2!3d45.6563261!4d25.5593094!16s%2Fg%2F11ffw71y72!19sChIJPeKh1f9bs0AR5oratgmGcXE?authuser=0&hl=tr&rclk=1",
    "website_url": "https://instalator48.ro/",
    "rating_text": "5,0",
    "stars": null,
    "number_of_reviews": null,
    "price_level": "",
    "open_hours": "",
    "extraction_timestamp": "2025-06-07T18:13:24.832Z",
    "source_name": "google",
    "source_query": "Irrigation Equipment",
    "source_country": "RO",
    "country": "Romania",
    "state": "Brașov County",
    "city": "Oraş Ghimbav"
  },
  {
    "source_id": "ChIJh4CLq-VZs0AR-Sa8um5SHsM",
    "name": "GRĂDINARII PASIONAȚI",
    "category": "GRĂDINARII PASIONAȚI",
    "formatted_address": "",
    "phone_number": "+40728833018",
    "source_url": "https://www.google.com/maps/place/GR%C4%82DINARII+PASIONA%C8%9AI/data=!4m7!3m6!1s0x40b359e5ab8b8087:0xc31e526ebabc26f9!8m2!3d45.6991766!4d25.5556544!16s%2Fg%2F11x92949nx!19sChIJh4CLq-VZs0AR-Sa8um5SHsM?authuser=0&hl=tr&rclk=1",
    "website_url": "",
    "rating_text": "",
    "stars": null,
    "number_of_reviews": null,
    "price_level": "",
    "open_hours": "",
    "extraction_timestamp": "2025-06-07T18:13:24.833Z",
    "source_name": "google",
    "source_query": "Irrigation Equipment",
    "source_country": "RO",
    "country": "Romania",
    "state": "Brașov County",
    "city": "Oraş Ghimbav"
  },
  {
    "source_id": "ChIJe_tU3Bhbs0ARYNkGVHO5YKE",
    "name": "HIDROstore Brașov",
    "category": "HIDROstore Brașov",
    "formatted_address": "5,0(13)",
    "phone_number": "+40771576228",
    "source_url": "https://www.google.com/maps/place/HIDROstore+Bra%C8%99ov/data=!4m7!3m6!1s0x40b35b18dc54fb7b:0xa160b9735406d960!8m2!3d45.6734944!4d25.5800351!16s%2Fg%2F11w8pn_mjw!19sChIJe_tU3Bhbs0ARYNkGVHO5YKE?authuser=0&hl=tr&rclk=1",
    "website_url": "https://hidrostore.ro/brasov",
    "rating_text": "5,0",
    "stars": null,
    "number_of_reviews": null,
    "price_level": "",
    "open_hours": "",
    "extraction_timestamp": "2025-06-07T18:13:24.834Z",
    "source_name": "google",
    "source_query": "Irrigation Equipment",
    "source_country": "RO",
    "country": "Romania",
    "state": "Brașov County",
    "city": "Oraş Ghimbav"
  },
  {
    "source_id": "ChIJy17x2YZas0ARnp4p4OmtckY",
    "name": "Crinalina",
    "category": "Crinalina",
    "formatted_address": "4,3(175)",
    "phone_number": "+40737667077",
    "source_url": "https://www.google.com/maps/place/Crinalina/data=!4m7!3m6!1s0x40b35a86d9f15ecb:0x4672ade9e0299e9e!8m2!3d45.6670479!4d25.5083575!16s%2Fg%2F11csb01tmw!19sChIJy17x2YZas0ARnp4p4OmtckY?authuser=0&hl=tr&rclk=1",
    "website_url": "",
    "rating_text": "4,3",
    "stars": null,
    "number_of_reviews": null,
    "price_level": "",
    "open_hours": "",
    "extraction_timestamp": "2025-06-07T18:13:24.835Z",
    "source_name": "google",
    "source_query": "Irrigation Equipment",
    "source_country": "RO",
    "country": "Romania",
    "state": "Brașov County",
    "city": "Oraş Ghimbav"
  },
  {
    "source_id": "ChIJLb_Eartbs0ARsgyH2lUGGNM",
    "name": "Techno Pro",
    "category": "Techno Pro",
    "formatted_address": "4,3(493)",
    "phone_number": "+40752424242",
    "source_url": "https://www.google.com/maps/place/Techno+Pro/data=!4m7!3m6!1s0x40b35bbb6ac4bf2d:0xd3180655da870cb2!8m2!3d45.6640885!4d25.5813535!16s%2Fg%2F1jkz4jl5x!19sChIJLb_Eartbs0ARsgyH2lUGGNM?authuser=0&hl=tr&rclk=1",
    "website_url": "http://www.scule.ro/",
    "rating_text": "4,3",
    "stars": null,
    "number_of_reviews": null,
    "price_level": "",
    "open_hours": "",
    "extraction_timestamp": "2025-06-07T18:13:24.836Z",
    "source_name": "google",
    "source_query": "Irrigation Equipment",
    "source_country": "RO",
    "country": "Romania",
    "state": "Brașov County",
    "city": "Oraş Ghimbav"
  },
  {
    "source_id": "ChIJWeFfS-lds0AR9yE35V1sBkU",
    "name": "Area 21 forest",
    "category": "Area 21 forest",
    "formatted_address": "Area 21 forest",
    "phone_number": "+40756621842",
    "source_url": "https://www.google.com/maps/place/Area+21+forest/data=!4m7!3m6!1s0x40b35de94b5fe159:0x45066c5de53721f7!8m2!3d45.6512788!4d25.6184938!16s%2Fg%2F11t3gz3yzc!19sChIJWeFfS-lds0AR9yE35V1sBkU?authuser=0&hl=tr&rclk=1",
    "website_url": "http://www.instal-brasov.ro/",
    "rating_text": "5,0",
    "stars": null,
    "number_of_reviews": null,
    "price_level": "",
    "open_hours": "",
    "extraction_timestamp": "2025-06-07T18:13:24.837Z",
    "source_name": "google",
    "source_query": "Irrigation Equipment",
    "source_country": "RO",
    "country": "Romania",
    "state": "Brașov County",
    "city": "Oraş Ghimbav"
  },
  {
    "source_id": "ChIJlzC5ZptZs0AR-E0gh9kCJfQ",
    "name": "Meseriaș Instalator Brașov - KIRILA LUCIPA SRL",
    "category": "Meseriaș Instalator Brașov - KIRILA LUCIPA SRL",
    "formatted_address": "4,9(31)",
    "phone_number": "+40730354076",
    "source_url": "https://www.google.com/maps/place/Meseria%C8%99+Instalator+Bra%C8%99ov+-+KIRILA+LUCIPA+SRL/data=!4m7!3m6!1s0x40b3599b66b93097:0xf42502d987204df8!8m2!3d45.691429!4d25.6294113!16s%2Fg%2F11t5b1c2ry!19sChIJlzC5ZptZs0AR-E0gh9kCJfQ?authuser=0&hl=tr&rclk=1",
    "website_url": "",
    "rating_text": "4,9",
    "stars": null,
    "number_of_reviews": null,
    "price_level": "",
    "open_hours": "",
    "extraction_timestamp": "2025-06-07T18:13:24.838Z",
    "source_name": "google",
    "source_query": "Irrigation Equipment",
    "source_country": "RO",
    "country": "Romania",
    "state": "Brașov County",
    "city": "Oraş Ghimbav"
  },
  {
    "source_id": "ChIJv_o5809bs0ARFk-j_hMtkuY",
    "name": "Masif Brasov",
    "category": "Masif Brasov",
    "formatted_address": "2,9(22)",
    "phone_number": "+40368422808",
    "source_url": "https://www.google.com/maps/place/Masif+Brasov/data=!4m7!3m6!1s0x40b35b4ff339fabf:0xe6922d13fea34f16!8m2!3d45.6588992!4d25.566278!16s%2Fg%2F11r8mqc09v!19sChIJv_o5809bs0ARFk-j_hMtkuY?authuser=0&hl=tr&rclk=1",
    "website_url": "http://www.masif.ro/",
    "rating_text": "2,9",
    "stars": null,
    "number_of_reviews": null,
    "price_level": "",
    "open_hours": "",
    "extraction_timestamp": "2025-06-07T18:13:24.839Z",
    "source_name": "google",
    "source_query": "Irrigation Equipment",
    "source_country": "RO",
    "country": "Romania",
    "state": "Brașov County",
    "city": "Oraş Ghimbav"
  },
  {
    "source_id": "ChIJ75U28UJcs0ARn5rOXEMHehs",
    "name": "Romradiatoare",
    "category": "Romradiatoare",
    "formatted_address": "4,6(17)",
    "phone_number": "+40268317550",
    "source_url": "https://www.google.com/maps/place/Romradiatoare/data=!4m7!3m6!1s0x40b35c42f13695ef:0x1b7a07435cce9a9f!8m2!3d45.6505059!4d25.6439921!16s%2Fg%2F1tfz_l60!19sChIJ75U28UJcs0ARn5rOXEMHehs?authuser=0&hl=tr&rclk=1",
    "website_url": "http://www.romradiatoare.com/",
    "rating_text": "4,6",
    "stars": null,
    "number_of_reviews": null,
    "price_level": "",
    "open_hours": "",
    "extraction_timestamp": "2025-06-07T18:13:24.839Z",
    "source_name": "google",
    "source_query": "Irrigation Equipment",
    "source_country": "RO",
    "country": "Romania",
    "state": "Brașov County",
    "city": "Oraş Ghimbav"
  },
  {
    "source_id": "ChIJtRDaNxVds0ARH0zYzm8DWbE",
    "name": "CHIRILA INSTAL",
    "category": "CHIRILA INSTAL",
    "formatted_address": "5,0(17)",
    "phone_number": "+40734108310",
    "source_url": "https://www.google.com/maps/place/CHIRILA+INSTAL/data=!4m7!3m6!1s0x40b35d1537da10b5:0xb159036fced84c1f!8m2!3d45.651787!4d25.6309351!16s%2Fg%2F11vt09sry_!19sChIJtRDaNxVds0ARH0zYzm8DWbE?authuser=0&hl=tr&rclk=1",
    "website_url": "https://instalatorisanitarebrasov.ro/",
    "rating_text": "5,0",
    "stars": null,
    "number_of_reviews": null,
    "price_level": "",
    "open_hours": "",
    "extraction_timestamp": "2025-06-07T18:13:24.840Z",
    "source_name": "google",
    "source_query": "Irrigation Equipment",
    "source_country": "RO",
    "country": "Romania",
    "state": "Brașov County",
    "city": "Oraş Ghimbav"
  },
  {
    "source_id": "ChIJk719965es0ARSHau3S-JmpE",
    "name": "Serstill",
    "category": "Serstill",
    "formatted_address": "4,6(22)",
    "phone_number": "+40268311511",
    "source_url": "https://www.google.com/maps/place/Serstill/data=!4m7!3m6!1s0x40b35eaef77dbd93:0x919a892fddae7648!8m2!3d45.683375!4d25.652469!16s%2Fg%2F11xdltdh5!19sChIJk719965es0ARSHau3S-JmpE?authuser=0&hl=tr&rclk=1",
    "website_url": "http://www.serstill.ro/",
    "rating_text": "4,6",
    "stars": null,
    "number_of_reviews": null,
    "price_level": "",
    "open_hours": "",
    "extraction_timestamp": "2025-06-07T18:13:24.841Z",
    "source_name": "google",
    "source_query": "Irrigation Equipment",
    "source_country": "RO",
    "country": "Romania",
    "state": "Brașov County",
    "city": "Oraş Ghimbav"
  },
  {
    "source_id": "ChIJAX9ixJlbs0ARONdeqKAUFNY",
    "name": "Magazinul Fermierului",
    "category": "Magazinul Fermierului",
    "formatted_address": "4,3(358)",
    "phone_number": "+40724355430",
    "source_url": "https://www.google.com/maps/place/Magazinul+Fermierului/data=!4m7!3m6!1s0x40b35b99c4627f01:0xd61414a0a85ed738!8m2!3d45.6593757!4d25.5919892!16s%2Fg%2F1pp2vb70j!19sChIJAX9ixJlbs0ARONdeqKAUFNY?authuser=0&hl=tr&rclk=1",
    "website_url": "http://www.agro-mixt.ro/",
    "rating_text": "4,3",
    "stars": null,
    "number_of_reviews": null,
    "price_level": "",
    "open_hours": "",
    "extraction_timestamp": "2025-06-07T18:13:24.842Z",
    "source_name": "google",
    "source_query": "Irrigation Equipment",
    "source_country": "RO",
    "country": "Romania",
    "state": "Brașov County",
    "city": "Oraş Ghimbav"
  },
  {
    "source_id": "ChIJA7B1Z2Zds0ARur30HS3Ah04",
    "name": "instalator brasov NON STOP sanitare termice",
    "category": "instalator brasov NON STOP sanitare termice",
    "formatted_address": "4,2(33)",
    "phone_number": "+40755189138",
    "source_url": "https://www.google.com/maps/place/instalator+brasov+NON+STOP+sanitare+termice/data=!4m7!3m6!1s0x40b35d666775b003:0x4e87c02d1df4bdba!8m2!3d45.655991!4d25.6178539!16s%2Fg%2F11h7b34qd_!19sChIJA7B1Z2Zds0ARur30HS3Ah04?authuser=0&hl=tr&rclk=1",
    "website_url": "https://instalatorbrasov.wixsite.com/website-1",
    "rating_text": "4,2",
    "stars": null,
    "number_of_reviews": null,
    "price_level": "",
    "open_hours": "",
    "extraction_timestamp": "2025-06-07T18:13:24.843Z",
    "source_name": "google",
    "source_query": "Irrigation Equipment",
    "source_country": "RO",
    "country": "Romania",
    "state": "Brașov County",
    "city": "Oraş Ghimbav"
  },
  {
    "source_id": "ChIJrQ897ttds0ARhdWdpolRtbY",
    "name": "Instal Carpatica",
    "category": "Instal Carpatica",
    "formatted_address": "4,8(12)",
    "phone_number": "+40372919332",
    "source_url": "https://www.google.com/maps/place/Instal+Carpatica/data=!4m7!3m6!1s0x40b35ddbee3d0fad:0xb6b55189a69dd585!8m2!3d45.6182504!4d25.64334!16s%2Fg%2F11fnlthr36!19sChIJrQ897ttds0ARhdWdpolRtbY?authuser=0&hl=tr&rclk=1",
    "website_url": "https://instalcarpatica.ro/",
    "rating_text": "4,8",
    "stars": null,
    "number_of_reviews": null,
    "price_level": "",
    "open_hours": "",
    "extraction_timestamp": "2025-06-07T18:13:24.844Z",
    "source_name": "google",
    "source_query": "Irrigation Equipment",
    "source_country": "RO",
    "country": "Romania",
    "state": "Brașov County",
    "city": "Oraş Ghimbav"
  },
  {
    "source_id": "ChIJl2gBjc1bs0ARj3qe62Qu-o4",
    "name": "KronColoR Brasov",
    "category": "KronColoR Brasov",
    "formatted_address": "4,6(84)",
    "phone_number": "+40729093908",
    "source_url": "https://www.google.com/maps/place/KronColoR+Brasov/data=!4m7!3m6!1s0x40b35bcd8d016897:0x8efa2e64eb9e7a8f!8m2!3d45.6821564!4d25.5823097!16s%2Fg%2F1q62dg5dv!19sChIJl2gBjc1bs0ARj3qe62Qu-o4?authuser=0&hl=tr&rclk=1",
    "website_url": "http://www.kroncolor.ro/",
    "rating_text": "4,6",
    "stars": null,
    "number_of_reviews": null,
    "price_level": "",
    "open_hours": "",
    "extraction_timestamp": "2025-06-07T18:13:24.846Z",
    "source_name": "google",
    "source_query": "Irrigation Equipment",
    "source_country": "RO",
    "country": "Romania",
    "state": "Brașov County",
    "city": "Oraş Ghimbav"
  }
]
