[
  {
    "source_id": "ChIJpZJ5nphFs0ARetYuCwpy8us",
    "name": "Liriada Co S.R.L.",
    "category": "Liriada Co S.R.L.",
    "formatted_address": "4,4(141)",
    "phone_number": "+40268231027",
    "source_url": "https://www.google.com/maps/place/Liriada+Co+S.R.L./data=!4m7!3m6!1s0x40b345989e7992a5:0xebf2720a0b2ed67a!8m2!3d45.5940424!4d25.4603284!16s%2Fg%2F1hc88b541!19sChIJpZJ5nphFs0ARetYuCwpy8us?authuser=0&hl=tr&rclk=1",
    "website_url": "https://liriada.ro/",
    "rating_text": "4,4",
    "stars": null,
    "number_of_reviews": null,
    "price_level": "",
    "open_hours": "",
    "extraction_timestamp": "2025-06-07T18:16:42.444Z",
    "source_name": "google",
    "source_query": "Irrigation Equipment",
    "source_country": "RO",
    "country": "Romania",
    "state": "Brașov County",
    "city": "Oraş Râşnov"
  },
  {
    "source_id": "ChIJ_6_5vXpWXwgRc56Taso7RUM",
    "name": "Desfundare si curatare canalizare, videoinspectie, instalatii",
    "category": "Desfundare si curatare canalizare, videoinspectie, instalatii",
    "formatted_address": "Desfundare si curatare canalizare, videoinspectie, instalatii",
    "phone_number": "+40745080124",
    "source_url": "https://www.google.com/maps/place/Desfundare+si+curatare+canalizare,+videoinspectie,+instalatii/data=!4m7!3m6!1s0x85f567abdf9afff:0x43453bca6a939e73!8m2!3d45.5913271!4d25.4884906!16s%2Fg%2F11rd4w4dm2!19sChIJ_6_5vXpWXwgRc56Taso7RUM?authuser=0&hl=tr&rclk=1",
    "website_url": "",
    "rating_text": "5,0",
    "stars": null,
    "number_of_reviews": null,
    "price_level": "",
    "open_hours": "",
    "extraction_timestamp": "2025-06-07T18:16:42.446Z",
    "source_name": "google",
    "source_query": "Irrigation Equipment",
    "source_country": "RO",
    "country": "Romania",
    "state": "Brașov County",
    "city": "Oraş Râşnov"
  },
  {
    "source_id": "ChIJ0WgHCoVZs0ARj1aHxZPRyk4",
    "name": "Agroservice Brasov",
    "category": "Agroservice Brasov",
    "formatted_address": "5,0(4)",
    "phone_number": "+40268440895",
    "source_url": "https://www.google.com/maps/place/Agroservice+Brasov/data=!4m7!3m6!1s0x40b359850a0768d1:0x4ecad193c587568f!8m2!3d45.6730469!4d25.5804142!16s%2Fg%2F11fn6tbwqm!19sChIJ0WgHCoVZs0ARj1aHxZPRyk4?authuser=0&hl=tr&rclk=1",
    "website_url": "http://www.agroservicebv.ro/contact/",
    "rating_text": "5,0",
    "stars": null,
    "number_of_reviews": null,
    "price_level": "",
    "open_hours": "",
    "extraction_timestamp": "2025-06-07T18:16:42.448Z",
    "source_name": "google",
    "source_query": "Irrigation Equipment",
    "source_country": "RO",
    "country": "Romania",
    "state": "Brașov County",
    "city": "Oraş Râşnov"
  },
  {
    "source_id": "ChIJe2lHaKdHs0AR_V2QeYymkY4",
    "name": "Romstal",
    "category": "Romstal",
    "formatted_address": "5,0(44)",
    "phone_number": "+40372123182",
    "source_url": "https://www.google.com/maps/place/Romstal/data=!4m7!3m6!1s0x40b347a76847697b:0x8e91a68c79905dfd!8m2!3d45.5415116!4d25.3794315!16s%2Fg%2F11ldk75bp8!19sChIJe2lHaKdHs0AR_V2QeYymkY4?authuser=0&hl=tr&rclk=1",
    "website_url": "https://www.romstal.ro/",
    "rating_text": "5,0",
    "stars": null,
    "number_of_reviews": null,
    "price_level": "",
    "open_hours": "",
    "extraction_timestamp": "2025-06-07T18:16:42.449Z",
    "source_name": "google",
    "source_query": "Irrigation Equipment",
    "source_country": "RO",
    "country": "Romania",
    "state": "Brașov County",
    "city": "Oraş Râşnov"
  },
  {
    "source_id": "ChIJxTlzQ25cs0ARbRRg7VLrKPw",
    "name": "Instal generation",
    "category": "Instal generation",
    "formatted_address": "5,0(5)",
    "phone_number": "+40745189529",
    "source_url": "https://www.google.com/maps/place/Instal+generation/data=!4m7!3m6!1s0x40b35c6e437339c5:0xfc28eb52ed60146d!8m2!3d45.6541089!4d25.63197!16s%2Fg%2F11flzgjjqz!19sChIJxTlzQ25cs0ARbRRg7VLrKPw?authuser=0&hl=tr&rclk=1",
    "website_url": "http://www.instalgeneration.ro/",
    "rating_text": "5,0",
    "stars": null,
    "number_of_reviews": null,
    "price_level": "",
    "open_hours": "",
    "extraction_timestamp": "2025-06-07T18:16:42.450Z",
    "source_name": "google",
    "source_query": "Irrigation Equipment",
    "source_country": "RO",
    "country": "Romania",
    "state": "Brașov County",
    "city": "Oraş Râşnov"
  },
  {
    "source_id": "ChIJ6fkd4pdFs0ARaY2xKsxp_H0",
    "name": "Rasnov Tools Factory",
    "category": "Rasnov Tools Factory",
    "formatted_address": "4,0(6)",
    "phone_number": "+40368800010",
    "source_url": "https://www.google.com/maps/place/Rasnov+Tools+Factory/data=!4m7!3m6!1s0x40b34597e21df9e9:0x7dfc69cc2ab18d69!8m2!3d45.5912687!4d25.4574119!16s%2Fg%2F1vxctxwx!19sChIJ6fkd4pdFs0ARaY2xKsxp_H0?authuser=0&hl=tr&rclk=1",
    "website_url": "http://www.fsr.ro/",
    "rating_text": "4,0",
    "stars": null,
    "number_of_reviews": null,
    "price_level": "",
    "open_hours": "",
    "extraction_timestamp": "2025-06-07T18:16:42.452Z",
    "source_name": "google",
    "source_query": "Irrigation Equipment",
    "source_country": "RO",
    "country": "Romania",
    "state": "Brașov County",
    "city": "Oraş Râşnov"
  },
  {
    "source_id": "ChIJx32J3gxbs0ARqGilFF9VUrw",
    "name": "KNG Koi-Natura-Garden",
    "category": "KNG Koi-Natura-Garden",
    "formatted_address": "5,0(19)",
    "phone_number": "+40751109822",
    "source_url": "https://www.google.com/maps/place/KNG+Koi-Natura-Garden/data=!4m7!3m6!1s0x40b35b0cde897dc7:0xbc52555f14a568a8!8m2!3d45.6287876!4d25.4807043!16s%2Fg%2F11rz79pfcp!19sChIJx32J3gxbs0ARqGilFF9VUrw?authuser=0&hl=tr&rclk=1",
    "website_url": "http://www.koinatura.ro/",
    "rating_text": "5,0",
    "stars": null,
    "number_of_reviews": null,
    "price_level": "",
    "open_hours": "",
    "extraction_timestamp": "2025-06-07T18:16:42.453Z",
    "source_name": "google",
    "source_query": "Irrigation Equipment",
    "source_country": "RO",
    "country": "Romania",
    "state": "Brașov County",
    "city": "Oraş Râşnov"
  },
  {
    "source_id": "ChIJCQayaPpbs0ARhf_zEF9vwQg",
    "name": "SC Agri Sigeva SRL",
    "category": "SC Agri Sigeva SRL",
    "formatted_address": "5,0(2)",
    "phone_number": "+40722529586",
    "source_url": "https://www.google.com/maps/place/SC+Agri+Sigeva+SRL/data=!4m7!3m6!1s0x40b35bfa68b20609:0x8c16f5f10f3ff85!8m2!3d45.6744327!4d25.621811!16s%2Fg%2F1pztj9780!19sChIJCQayaPpbs0ARhf_zEF9vwQg?authuser=0&hl=tr&rclk=1",
    "website_url": "",
    "rating_text": "5,0",
    "stars": null,
    "number_of_reviews": null,
    "price_level": "",
    "open_hours": "",
    "extraction_timestamp": "2025-06-07T18:16:42.454Z",
    "source_name": "google",
    "source_query": "Irrigation Equipment",
    "source_country": "RO",
    "country": "Romania",
    "state": "Brașov County",
    "city": "Oraş Râşnov"
  },
  {
    "source_id": "ChIJZ8Y9r8FZs0AROEFfSlqYVZ0",
    "name": "Roplant - Garden Center",
    "category": "Roplant - Garden Center",
    "formatted_address": "5,0(43)",
    "phone_number": "+40751280415",
    "source_url": "https://www.google.com/maps/place/Roplant+-+Garden+Center/data=!4m7!3m6!1s0x40b359c1af3dc667:0x9d55985a4a5f4138!8m2!3d45.6967323!4d25.5833178!16s%2Fg%2F11h3fs20rb!19sChIJZ8Y9r8FZs0AROEFfSlqYVZ0?authuser=0&hl=tr&rclk=1",
    "website_url": "http://www.roplant.ro/",
    "rating_text": "5,0",
    "stars": null,
    "number_of_reviews": null,
    "price_level": "",
    "open_hours": "",
    "extraction_timestamp": "2025-06-07T18:16:42.456Z",
    "source_name": "google",
    "source_query": "Irrigation Equipment",
    "source_country": "RO",
    "country": "Romania",
    "state": "Brașov County",
    "city": "Oraş Râşnov"
  },
  {
    "source_id": "ChIJ22qHcMxFs0ARQbVjT0Hd0jw",
    "name": "Magic Parc Râșnov",
    "category": "Magic Parc Râșnov",
    "formatted_address": "4,8(877)",
    "phone_number": "+40775300500",
    "source_url": "https://www.google.com/maps/place/Magic+Parc+R%C3%A2%C8%99nov/data=!4m7!3m6!1s0x40b345cc70876adb:0x3cd2dd414f63b541!8m2!3d45.5894058!4d25.476563!16s%2Fg%2F11v56ns512!19sChIJ22qHcMxFs0ARQbVjT0Hd0jw?authuser=0&hl=tr&rclk=1",
    "website_url": "https://magicparc.ro/",
    "rating_text": "4,8",
    "stars": null,
    "number_of_reviews": null,
    "price_level": "",
    "open_hours": "",
    "extraction_timestamp": "2025-06-07T18:16:42.457Z",
    "source_name": "google",
    "source_query": "Irrigation Equipment",
    "source_country": "RO",
    "country": "Romania",
    "state": "Brașov County",
    "city": "Oraş Râşnov"
  },
  {
    "source_id": "ChIJMev0eOdZs0ARMeiqaeoGQjs",
    "name": "Verificare Sistem de Avertizare la Incendiu",
    "category": "Verificare Sistem de Avertizare la Incendiu",
    "formatted_address": "5,0(1)",
    "phone_number": "+40757371244",
    "source_url": "https://www.google.com/maps/place/Verificare+Sistem+de+Avertizare+la+Incendiu/data=!4m7!3m6!1s0x40b359e778f4eb31:0x3b4206ea69aae831!8m2!3d45.7158082!4d25.5883415!16s%2Fg%2F11n82qz9h8!19sChIJMev0eOdZs0ARMeiqaeoGQjs?authuser=0&hl=tr&rclk=1",
    "website_url": "https://sistemavertizareincendiu.ro/",
    "rating_text": "5,0",
    "stars": null,
    "number_of_reviews": null,
    "price_level": "",
    "open_hours": "",
    "extraction_timestamp": "2025-06-07T18:16:42.459Z",
    "source_name": "google",
    "source_query": "Irrigation Equipment",
    "source_country": "RO",
    "country": "Romania",
    "state": "Brașov County",
    "city": "Oraş Râşnov"
  },
  {
    "source_id": "ChIJZYHl06JFs0ARwQZDhfY9JUk",
    "name": "ECO MARKET",
    "category": "ECO MARKET",
    "formatted_address": "4,1(108)",
    "phone_number": "+40734722042",
    "source_url": "https://www.google.com/maps/place/ECO+MARKET/data=!4m7!3m6!1s0x40b345a2d3e58165:0x49253df6854306c1!8m2!3d45.5908727!4d25.4609952!16s%2Fg%2F11fxdvdf15!19sChIJZYHl06JFs0ARwQZDhfY9JUk?authuser=0&hl=tr&rclk=1",
    "website_url": "",
    "rating_text": "4,1",
    "stars": null,
    "number_of_reviews": null,
    "price_level": "",
    "open_hours": "",
    "extraction_timestamp": "2025-06-07T18:16:42.460Z",
    "source_name": "google",
    "source_query": "Irrigation Equipment",
    "source_country": "RO",
    "country": "Romania",
    "state": "Brașov County",
    "city": "Oraş Râşnov"
  },
  {
    "source_id": "ChIJi6FDEyyhtEARXjG1waHLjVo",
    "name": "Utilajeagri.ro",
    "category": "Utilajeagri.ro",
    "formatted_address": "4,6(22)",
    "phone_number": "+40740317928",
    "source_url": "https://www.google.com/maps/place/Utilajeagri.ro/data=!4m7!3m6!1s0x40b4a12c1343a18b:0x5a8dcba1c1b5315e!8m2!3d45.7495733!4d25.767982!16s%2Fg%2F11flrmwwns!19sChIJi6FDEyyhtEARXjG1waHLjVo?authuser=0&hl=tr&rclk=1",
    "website_url": "http://www.utilajeagri.ro/",
    "rating_text": "4,6",
    "stars": null,
    "number_of_reviews": null,
    "price_level": "",
    "open_hours": "",
    "extraction_timestamp": "2025-06-07T18:16:42.462Z",
    "source_name": "google",
    "source_query": "Irrigation Equipment",
    "source_country": "RO",
    "country": "Romania",
    "state": "Brașov County",
    "city": "Oraş Râşnov"
  },
  {
    "source_id": "ChIJ75U28UJcs0ARn5rOXEMHehs",
    "name": "Romradiatoare",
    "category": "Romradiatoare",
    "formatted_address": "4,6(17)",
    "phone_number": "+40268317550",
    "source_url": "https://www.google.com/maps/place/Romradiatoare/data=!4m7!3m6!1s0x40b35c42f13695ef:0x1b7a07435cce9a9f!8m2!3d45.6505059!4d25.6439921!16s%2Fg%2F1tfz_l60!19sChIJ75U28UJcs0ARn5rOXEMHehs?authuser=0&hl=tr&rclk=1",
    "website_url": "http://www.romradiatoare.com/",
    "rating_text": "4,6",
    "stars": null,
    "number_of_reviews": null,
    "price_level": "",
    "open_hours": "",
    "extraction_timestamp": "2025-06-07T18:16:42.463Z",
    "source_name": "google",
    "source_query": "Irrigation Equipment",
    "source_country": "RO",
    "country": "Romania",
    "state": "Brașov County",
    "city": "Oraş Râşnov"
  },
  {
    "source_id": "ChIJe_tU3Bhbs0ARYNkGVHO5YKE",
    "name": "HIDROstore Brașov",
    "category": "HIDROstore Brașov",
    "formatted_address": "5,0(13)",
    "phone_number": "+40771576228",
    "source_url": "https://www.google.com/maps/place/HIDROstore+Bra%C8%99ov/data=!4m7!3m6!1s0x40b35b18dc54fb7b:0xa160b9735406d960!8m2!3d45.6734944!4d25.5800351!16s%2Fg%2F11w8pn_mjw!19sChIJe_tU3Bhbs0ARYNkGVHO5YKE?authuser=0&hl=tr&rclk=1",
    "website_url": "https://hidrostore.ro/brasov",
    "rating_text": "5,0",
    "stars": null,
    "number_of_reviews": null,
    "price_level": "",
    "open_hours": "",
    "extraction_timestamp": "2025-06-07T18:16:42.464Z",
    "source_name": "google",
    "source_query": "Irrigation Equipment",
    "source_country": "RO",
    "country": "Romania",
    "state": "Brașov County",
    "city": "Oraş Râşnov"
  },
  {
    "source_id": "ChIJtSXMroZZs0AR9WgeFzBMWhY",
    "name": "Munax Brasov",
    "category": "Munax Brasov",
    "formatted_address": "3,7(3)",
    "phone_number": "+40732970211",
    "source_url": "https://www.google.com/maps/place/Munax+Brasov/data=!4m7!3m6!1s0x40b35986aecc25b5:0x165a4c30171e68f5!8m2!3d45.7057548!4d25.5808906!16s%2Fg%2F11gd1whssx!19sChIJtSXMroZZs0AR9WgeFzBMWhY?authuser=0&hl=tr&rclk=1",
    "website_url": "https://www.munax.ro/",
    "rating_text": "3,7",
    "stars": null,
    "number_of_reviews": null,
    "price_level": "",
    "open_hours": "",
    "extraction_timestamp": "2025-06-07T18:16:42.465Z",
    "source_name": "google",
    "source_query": "Irrigation Equipment",
    "source_country": "RO",
    "country": "Romania",
    "state": "Brașov County",
    "city": "Oraş Râşnov"
  },
  {
    "source_id": "ChIJs4_1IhtFs0ARfhZCF0nO4Po",
    "name": "Rockstadt Extreme Fest",
    "category": "Rockstadt Extreme Fest",
    "formatted_address": "4,8(419)",
    "phone_number": "+40770800497",
    "source_url": "https://www.google.com/maps/place/Rockstadt+Extreme+Fest/data=!4m7!3m6!1s0x40b3451b22f58fb3:0xfae0ce491742167e!8m2!3d45.5885914!4d25.4784481!16s%2Fg%2F11hz211g8m!19sChIJs4_1IhtFs0ARfhZCF0nO4Po?authuser=0&hl=tr&rclk=1",
    "website_url": "http://www.rockstadtextremefest.com/",
    "rating_text": "4,8",
    "stars": null,
    "number_of_reviews": null,
    "price_level": "",
    "open_hours": "",
    "extraction_timestamp": "2025-06-07T18:16:42.466Z",
    "source_name": "google",
    "source_query": "Irrigation Equipment",
    "source_country": "RO",
    "country": "Romania",
    "state": "Brașov County",
    "city": "Oraş Râşnov"
  },
  {
    "source_id": "ChIJHWjF70RFs0ARrHGbplr7HaY",
    "name": "Conacul Ambient",
    "category": "Conacul Ambient",
    "formatted_address": "4,6(1.011)",
    "phone_number": "+40732200900",
    "source_url": "https://www.google.com/maps/place/Conacul+Ambient/data=!4m10!3m9!1s0x40b34544efc5681d:0xa61dfb5aa69b71ac!5m2!4m1!1i2!8m2!3d45.6239856!4d25.4763271!16s%2Fg%2F11bbwjrkk_!19sChIJHWjF70RFs0ARrHGbplr7HaY?authuser=0&hl=tr&rclk=1",
    "website_url": "https://www.conaculambient.ro/",
    "rating_text": "4,6",
    "stars": null,
    "number_of_reviews": null,
    "price_level": "",
    "open_hours": "",
    "extraction_timestamp": "2025-06-07T18:16:42.469Z",
    "source_name": "google",
    "source_query": "Irrigation Equipment",
    "source_country": "RO",
    "country": "Romania",
    "state": "Brașov County",
    "city": "Oraş Râşnov"
  },
  {
    "source_id": "ChIJOy1p6ypFs0ARaa3mv7MXjkk",
    "name": "Bacania lui Tomita Rasnov",
    "category": "Bacania lui Tomita Rasnov",
    "formatted_address": "4,6(29)",
    "phone_number": "+40735522442",
    "source_url": "https://www.google.com/maps/place/Bacania+lui+Tomita+Rasnov/data=!4m7!3m6!1s0x40b3452aeb692d3b:0x498e17b3bfe6ad69!8m2!3d45.5927381!4d25.4622079!16s%2Fg%2F11n0sgylfy!19sChIJOy1p6ypFs0ARaa3mv7MXjkk?authuser=0&hl=tr&rclk=1",
    "website_url": "https://www.bacanialuitomita.ro/",
    "rating_text": "4,6",
    "stars": null,
    "number_of_reviews": null,
    "price_level": "",
    "open_hours": "",
    "extraction_timestamp": "2025-06-07T18:16:42.470Z",
    "source_name": "google",
    "source_query": "Irrigation Equipment",
    "source_country": "RO",
    "country": "Romania",
    "state": "Brașov County",
    "city": "Oraş Râşnov"
  },
  {
    "source_id": "ChIJB_3GIstFs0ARWZXA8oej9gc",
    "name": "Kaufland Rasnov",
    "category": "Kaufland Rasnov",
    "formatted_address": "4,3(993)",
    "phone_number": "+40800080888",
    "source_url": "https://www.google.com/maps/place/Kaufland+Rasnov/data=!4m7!3m6!1s0x40b345cb22c6fd07:0x7f6a387f2c09559!8m2!3d45.5800178!4d25.4489266!16s%2Fg%2F11tj9wr477!19sChIJB_3GIstFs0ARWZXA8oej9gc?authuser=0&hl=tr&rclk=1",
    "website_url": "https://www.kaufland.ro/?cid=F14499B02C1000K23453W01030000",
    "rating_text": "4,3",
    "stars": null,
    "number_of_reviews": null,
    "price_level": "",
    "open_hours": "",
    "extraction_timestamp": "2025-06-07T18:16:42.471Z",
    "source_name": "google",
    "source_query": "Irrigation Equipment",
    "source_country": "RO",
    "country": "Romania",
    "state": "Brașov County",
    "city": "Oraş Râşnov"
  },
  {
    "source_id": "ChIJIQCjhE5ds0ARm8EsE328LOI",
    "name": "Rozantin Instal srl",
    "category": "Rozantin Instal srl",
    "formatted_address": "5,0(6)",
    "phone_number": "+40754400587",
    "source_url": "https://www.google.com/maps/place/Rozantin+Instal+srl/data=!4m7!3m6!1s0x40b35d4e84a30021:0xe22cbc7d132cc19b!8m2!3d45.6518549!4d25.6309277!16s%2Fg%2F11tc8wkffr!19sChIJIQCjhE5ds0ARm8EsE328LOI?authuser=0&hl=tr&rclk=1",
    "website_url": "https://instalator-instalatii.ro/",
    "rating_text": "5,0",
    "stars": null,
    "number_of_reviews": null,
    "price_level": "",
    "open_hours": "",
    "extraction_timestamp": "2025-06-07T18:16:42.473Z",
    "source_name": "google",
    "source_query": "Irrigation Equipment",
    "source_country": "RO",
    "country": "Romania",
    "state": "Brașov County",
    "city": "Oraş Râşnov"
  },
  {
    "source_id": "ChIJ1S8EiMZZs0AR86hmbkUN9ow",
    "name": "Ipso Agricultura Brașov",
    "category": "Ipso Agricultura Brașov",
    "formatted_address": "4,8(12)",
    "phone_number": "+40374438921",
    "source_url": "https://www.google.com/maps/place/Ipso+Agricultura+Bra%C8%99ov/data=!4m7!3m6!1s0x40b359c688042fd5:0x8cf60d456e66a8f3!8m2!3d45.7007612!4d25.5811096!16s%2Fg%2F11h_dq5c17!19sChIJ1S8EiMZZs0AR86hmbkUN9ow?authuser=0&hl=tr&rclk=1",
    "website_url": "http://www.ipso.ro/",
    "rating_text": "4,8",
    "stars": null,
    "number_of_reviews": null,
    "price_level": "",
    "open_hours": "",
    "extraction_timestamp": "2025-06-07T18:16:42.474Z",
    "source_name": "google",
    "source_query": "Irrigation Equipment",
    "source_country": "RO",
    "country": "Romania",
    "state": "Brașov County",
    "city": "Oraş Râşnov"
  },
  {
    "source_id": "ChIJ533c6G5ds0ARRQFuSRJfj0A",
    "name": "optim instal",
    "category": "optim instal",
    "formatted_address": "5,0(2)",
    "phone_number": "+40755189138",
    "source_url": "https://www.google.com/maps/place/optim+instal/data=!4m7!3m6!1s0x40b35d6ee8dc7de7:0x408f5f12496e0145!8m2!3d45.6574762!4d25.6195777!16s%2Fg%2F11hdvhkgsn!19sChIJ533c6G5ds0ARRQFuSRJfj0A?authuser=0&hl=tr&rclk=1",
    "website_url": "",
    "rating_text": "5,0",
    "stars": null,
    "number_of_reviews": null,
    "price_level": "",
    "open_hours": "",
    "extraction_timestamp": "2025-06-07T18:16:42.475Z",
    "source_name": "google",
    "source_query": "Irrigation Equipment",
    "source_country": "RO",
    "country": "Romania",
    "state": "Brașov County",
    "city": "Oraş Râşnov"
  },
  {
    "source_id": "ChIJzWxLYABbs0AR4bFykemoRyQ",
    "name": "KAWA coffee & friends",
    "category": "KAWA coffee & friends",
    "formatted_address": "5,0(126) · L 1–20",
    "phone_number": "",
    "source_url": "https://www.google.com/maps/place/KAWA+coffee+%26+friends/data=!4m7!3m6!1s0x40b35b00604b6ccd:0x2447a8e99172b1e1!8m2!3d45.6415421!4d25.5914237!16s%2Fg%2F11vyccj0nv!19sChIJzWxLYABbs0AR4bFykemoRyQ?authuser=0&hl=tr&rclk=1",
    "website_url": "",
    "rating_text": "5,0",
    "stars": null,
    "number_of_reviews": null,
    "price_level": "",
    "open_hours": "",
    "extraction_timestamp": "2025-06-07T18:16:42.477Z",
    "source_name": "google",
    "source_query": "Irrigation Equipment",
    "source_country": "RO",
    "country": "Romania",
    "state": "Brașov County",
    "city": "Oraş Râşnov"
  },
  {
    "source_id": "ChIJIUIzH_Fcs0ARSb8mlNek1c0",
    "name": "Romstal",
    "category": "Romstal",
    "formatted_address": "4,2(367)",
    "phone_number": "+40372123117",
    "source_url": "https://www.google.com/maps/place/Romstal/data=!4m7!3m6!1s0x40b35cf11f334221:0xcdd5a4d79426bf49!8m2!3d45.6330626!4d25.636574!16s%2Fg%2F12cpmrxnc!19sChIJIUIzH_Fcs0ARSb8mlNek1c0?authuser=0&hl=tr&rclk=1",
    "website_url": "http://www.romstal.ro/",
    "rating_text": "4,2",
    "stars": null,
    "number_of_reviews": null,
    "price_level": "",
    "open_hours": "",
    "extraction_timestamp": "2025-06-07T18:16:42.478Z",
    "source_name": "google",
    "source_query": "Irrigation Equipment",
    "source_country": "RO",
    "country": "Romania",
    "state": "Brașov County",
    "city": "Oraş Râşnov"
  },
  {
    "source_id": "ChIJrz5JZJoaiaARPopFXFQCw6g",
    "name": "Reparatii Centrale Termice In Brasov",
    "category": "Reparatii Centrale Termice In Brasov",
    "formatted_address": "5,0(6)",
    "phone_number": "+40725273546",
    "source_url": "https://www.google.com/maps/place/Reparatii+Centrale+Termice+In+Brasov/data=!4m7!3m6!1s0xa0891a9a64493eaf:0xa8c302545c458a3e!8m2!3d45.6488795!4d25.6439569!16s%2Fg%2F11vzqdvrdy!19sChIJrz5JZJoaiaARPopFXFQCw6g?authuser=0&hl=tr&rclk=1",
    "website_url": "https://centraletermicebrasov.ro/",
    "rating_text": "5,0",
    "stars": null,
    "number_of_reviews": null,
    "price_level": "",
    "open_hours": "",
    "extraction_timestamp": "2025-06-07T18:16:42.479Z",
    "source_name": "google",
    "source_query": "Irrigation Equipment",
    "source_country": "RO",
    "country": "Romania",
    "state": "Brașov County",
    "city": "Oraş Râşnov"
  },
  {
    "source_id": "ChIJeSzL3Vxds0AR6X-B95oOv-w",
    "name": "Profi termo rapid srl",
    "category": "Profi termo rapid srl",
    "formatted_address": "5,0(1)",
    "phone_number": "+40749217335",
    "source_url": "https://www.google.com/maps/place/Profi+termo+rapid+srl/data=!4m7!3m6!1s0x40b35d5cddcb2c79:0xecbf0e9af7817fe9!8m2!3d45.6561935!4d25.6182168!16s%2Fg%2F11v9kvqrk8!19sChIJeSzL3Vxds0AR6X-B95oOv-w?authuser=0&hl=tr&rclk=1",
    "website_url": "",
    "rating_text": "5,0",
    "stars": null,
    "number_of_reviews": null,
    "price_level": "",
    "open_hours": "",
    "extraction_timestamp": "2025-06-07T18:16:42.480Z",
    "source_name": "google",
    "source_query": "Irrigation Equipment",
    "source_country": "RO",
    "country": "Romania",
    "state": "Brașov County",
    "city": "Oraş Râşnov"
  },
  {
    "source_id": "ChIJ5_Jq4eBbs0ARtTWcI_mIh2g",
    "name": "SAURI S.R.L.",
    "category": "SAURI S.R.L.",
    "formatted_address": "4,3(12)",
    "phone_number": "+40723243611",
    "source_url": "https://www.google.com/maps/place/SAURI+S.R.L./data=!4m7!3m6!1s0x40b35be0e16af2e7:0x688788f9239c35b5!8m2!3d45.6377146!4d25.5007387!16s%2Fg%2F11k_cv8gbx!19sChIJ5_Jq4eBbs0ARtTWcI_mIh2g?authuser=0&hl=tr&rclk=1",
    "website_url": "http://www.sauri.ro/",
    "rating_text": "4,3",
    "stars": null,
    "number_of_reviews": null,
    "price_level": "",
    "open_hours": "",
    "extraction_timestamp": "2025-06-07T18:16:42.482Z",
    "source_name": "google",
    "source_query": "Irrigation Equipment",
    "source_country": "RO",
    "country": "Romania",
    "state": "Brașov County",
    "city": "Oraş Râşnov"
  },
  {
    "source_id": "ChIJ53sd321Fs0ARSm_SCjBLn2Y",
    "name": "MARKET CARAGIALE",
    "category": "MARKET CARAGIALE",
    "formatted_address": "4,5(74)",
    "phone_number": "",
    "source_url": "https://www.google.com/maps/place/MARKET+CARAGIALE/data=!4m7!3m6!1s0x40b3456ddf1d7be7:0x669f4b300ad26f4a!8m2!3d45.5809521!4d25.4602045!16s%2Fg%2F11jcwcw_0q!19sChIJ53sd321Fs0ARSm_SCjBLn2Y?authuser=0&hl=tr&rclk=1",
    "website_url": "https://www.facebook.com/profile.php?id=100052213762968",
    "rating_text": "4,5",
    "stars": null,
    "number_of_reviews": null,
    "price_level": "",
    "open_hours": "",
    "extraction_timestamp": "2025-06-07T18:16:42.483Z",
    "source_name": "google",
    "source_query": "Irrigation Equipment",
    "source_country": "RO",
    "country": "Romania",
    "state": "Brașov County",
    "city": "Oraş Râşnov"
  },
  {
    "source_id": "ChIJBWxRW4lcs0AR4johcYtY_Us",
    "name": "Hod-Chimex",
    "category": "Hod-Chimex",
    "formatted_address": "4,3(110)",
    "phone_number": "+40268320340",
    "source_url": "https://www.google.com/maps/place/Hod-Chimex/data=!4m7!3m6!1s0x40b35c895b516c05:0x4bfd588b71213ae2!8m2!3d45.6388375!4d25.6217574!16s%2Fg%2F1wrtbc6q!19sChIJBWxRW4lcs0AR4johcYtY_Us?authuser=0&hl=tr&rclk=1",
    "website_url": "",
    "rating_text": "4,3",
    "stars": null,
    "number_of_reviews": null,
    "price_level": "",
    "open_hours": "",
    "extraction_timestamp": "2025-06-07T18:16:42.485Z",
    "source_name": "google",
    "source_query": "Irrigation Equipment",
    "source_country": "RO",
    "country": "Romania",
    "state": "Brașov County",
    "city": "Oraş Râşnov"
  },
  {
    "source_id": "ChIJJev2R8pbs0ARfOEOHxjnf38",
    "name": "IMPRESSO",
    "category": "IMPRESSO",
    "formatted_address": "4,9(182) · L 20–40",
    "phone_number": "+40724956555",
    "source_url": "https://www.google.com/maps/place/IMPRESSO/data=!4m7!3m6!1s0x40b35bca47f6eb25:0x7f7fe7181f0ee17c!8m2!3d45.6352257!4d25.5797801!16s%2Fg%2F11hkw95wkr!19sChIJJev2R8pbs0ARfOEOHxjnf38?authuser=0&hl=tr&rclk=1",
    "website_url": "http://impresso.life/",
    "rating_text": "4,9",
    "stars": null,
    "number_of_reviews": null,
    "price_level": "",
    "open_hours": "",
    "extraction_timestamp": "2025-06-07T18:16:42.487Z",
    "source_name": "google",
    "source_query": "Irrigation Equipment",
    "source_country": "RO",
    "country": "Romania",
    "state": "Brașov County",
    "city": "Oraş Râşnov"
  },
  {
    "source_id": "ChIJpRLHLAFbs0AR4aOqN_hsDuc",
    "name": "Gruppo Valinst",
    "category": "Gruppo Valinst",
    "formatted_address": "",
    "phone_number": "+40729931509",
    "source_url": "https://www.google.com/maps/place/Gruppo+Valinst/data=!4m7!3m6!1s0x40b35b012cc712a5:0xe70e6cf837aaa3e1!8m2!3d45.65515!4d25.5586001!16s%2Fg%2F1hc3rk913!19sChIJpRLHLAFbs0AR4aOqN_hsDuc?authuser=0&hl=tr&rclk=1",
    "website_url": "https://www.valinst.ro/ro/instalatii-de-irigat/universal-liniare",
    "rating_text": "",
    "stars": null,
    "number_of_reviews": null,
    "price_level": "",
    "open_hours": "",
    "extraction_timestamp": "2025-06-07T18:16:42.488Z",
    "source_name": "google",
    "source_query": "Irrigation Equipment",
    "source_country": "RO",
    "country": "Romania",
    "state": "Brașov County",
    "city": "Oraş Râşnov"
  },
  {
    "source_id": "ChIJu1YSjzSDw0URjcgBGv8G3NQ",
    "name": "Gradini Verzi",
    "category": "Gradini Verzi",
    "formatted_address": "5,0(19)",
    "phone_number": "+40727069669",
    "source_url": "https://www.google.com/maps/place/Gradini+Verzi/data=!4m7!3m6!1s0x45c383348f1256bb:0xd4dc06ff1a01c88d!8m2!3d45.651576!4d25.6118307!16s%2Fg%2F11sjr8sb4r!19sChIJu1YSjzSDw0URjcgBGv8G3NQ?authuser=0&hl=tr&rclk=1",
    "website_url": "http://gradiniverzi.ro/",
    "rating_text": "5,0",
    "stars": null,
    "number_of_reviews": null,
    "price_level": "",
    "open_hours": "",
    "extraction_timestamp": "2025-06-07T18:16:42.489Z",
    "source_name": "google",
    "source_query": "Irrigation Equipment",
    "source_country": "RO",
    "country": "Romania",
    "state": "Brașov County",
    "city": "Oraş Râşnov"
  }
]
