[
  {
    "source_id": "ChIJaQzqLmZcs0ARU6r3VaUK6iE",
    "name": "AKRO S.R.L.",
    "category": "AKRO S.R.L.",
    "formatted_address": "4,7(13)",
    "phone_number": "+40268413180",
    "source_url": "https://www.google.com/maps/place/AKRO+S.R.L./data=!4m7!3m6!1s0x40b35c662eea0c69:0x21ea0aa555f7aa53!8m2!3d45.6485042!4d25.6406578!16s%2Fg%2F1hc250gs3!19sChIJaQzqLmZcs0ARU6r3VaUK6iE?authuser=0&hl=tr&rclk=1",
    "website_url": "https://www.akro.ro/",
    "rating_text": "4,7",
    "stars": null,
    "number_of_reviews": null,
    "price_level": "",
    "open_hours": "",
    "extraction_timestamp": "2025-06-07T18:15:39.187Z",
    "source_name": "google",
    "source_query": "Irrigation Equipment",
    "source_country": "RO",
    "country": "Romania",
    "state": "Brașov County",
    "city": "Oraş Victoria"
  },
  {
    "source_id": "ChIJHwZ0XmuVTEcRyCbuoKQSUbA",
    "name": "Riovirg",
    "category": "Riovirg",
    "formatted_address": "3,0(2)",
    "phone_number": "",
    "source_url": "https://www.google.com/maps/place/Riovirg/data=!4m7!3m6!1s0x474c956b5e74061f:0xb05112a4a0ee26c8!8m2!3d45.724085!4d24.702492!16s%2Fg%2F11tnm5b7q7!19sChIJHwZ0XmuVTEcRyCbuoKQSUbA?authuser=0&hl=tr&rclk=1",
    "website_url": "https://www.facebook.com/people/Riovirg-Rom%C3%A2nia/100061781724108/",
    "rating_text": "3,0",
    "stars": null,
    "number_of_reviews": null,
    "price_level": "",
    "open_hours": "",
    "extraction_timestamp": "2025-06-07T18:15:39.189Z",
    "source_name": "google",
    "source_query": "Irrigation Equipment",
    "source_country": "RO",
    "country": "Romania",
    "state": "Brașov County",
    "city": "Oraş Victoria"
  },
  {
    "source_id": "ChIJJ9mf_lOVTEcRax9BckvBiHs",
    "name": "Piața Agroalimentară Victoria",
    "category": "Piața Agroalimentară Victoria",
    "formatted_address": "4,0(99)",
    "phone_number": "",
    "source_url": "https://www.google.com/maps/place/Pia%C8%9Ba+Agroalimentar%C4%83+Victoria/data=!4m7!3m6!1s0x474c9553fe9fd927:0x7b88c14b72411f6b!8m2!3d45.7238594!4d24.701291!16s%2Fg%2F11fkq22nv9!19sChIJJ9mf_lOVTEcRax9BckvBiHs?authuser=0&hl=tr&rclk=1",
    "website_url": "",
    "rating_text": "4,0",
    "stars": null,
    "number_of_reviews": null,
    "price_level": "",
    "open_hours": "",
    "extraction_timestamp": "2025-06-07T18:15:39.190Z",
    "source_name": "google",
    "source_query": "Irrigation Equipment",
    "source_country": "RO",
    "country": "Romania",
    "state": "Brașov County",
    "city": "Oraş Victoria"
  },
  {
    "source_id": "ChIJUexlPVqVTEcRRS22kLKBpqA",
    "name": "Profi Super",
    "category": "Profi Super",
    "formatted_address": "4,1(246)",
    "phone_number": "+40799910388",
    "source_url": "https://www.google.com/maps/place/Profi+Super/data=!4m7!3m6!1s0x474c955a3d65ec51:0xa0a681b290b62d45!8m2!3d45.7297483!4d24.7016705!16s%2Fg%2F11g2rhtd76!19sChIJUexlPVqVTEcRRS22kLKBpqA?authuser=0&hl=tr&rclk=1",
    "website_url": "https://www.profi.ro/?utm_source=google&utm_medium=organic&utm_campaign=dwf_local_seo",
    "rating_text": "4,1",
    "stars": null,
    "number_of_reviews": null,
    "price_level": "",
    "open_hours": "",
    "extraction_timestamp": "2025-06-07T18:15:39.191Z",
    "source_name": "google",
    "source_query": "Irrigation Equipment",
    "source_country": "RO",
    "country": "Romania",
    "state": "Brașov County",
    "city": "Oraş Victoria"
  },
  {
    "source_id": "ChIJ9ygAxU2VTEcRDrZVRnn_Gr0",
    "name": "LaDoiPasi",
    "category": "LaDoiPasi",
    "formatted_address": "5,0(2)",
    "phone_number": "+40784720720",
    "source_url": "https://www.google.com/maps/place/LaDoiPasi/data=!4m7!3m6!1s0x474c954dc50028f7:0xbd1aff794655b60e!8m2!3d45.7329658!4d24.6962458!16s%2Fg%2F11vbq8b7dd!19sChIJ9ygAxU2VTEcRDrZVRnn_Gr0?authuser=0&hl=tr&rclk=1",
    "website_url": "",
    "rating_text": "5,0",
    "stars": null,
    "number_of_reviews": null,
    "price_level": "",
    "open_hours": "",
    "extraction_timestamp": "2025-06-07T18:15:39.192Z",
    "source_name": "google",
    "source_query": "Irrigation Equipment",
    "source_country": "RO",
    "country": "Romania",
    "state": "Brașov County",
    "city": "Oraş Victoria"
  },
  {
    "source_id": "ChIJiYrW93hcs0ARpKmOIL1sTuI",
    "name": "Valinst Agriculture",
    "category": "Valinst Agriculture",
    "formatted_address": "5,0(1)",
    "phone_number": "+40730330543",
    "source_url": "https://www.google.com/maps/place/Valinst+Agriculture/data=!4m7!3m6!1s0x40b35c78f7d68a89:0xe24e6cbd208ea9a4!8m2!3d45.6527567!4d25.6143965!16s%2Fg%2F11hf04lgwp!19sChIJiYrW93hcs0ARpKmOIL1sTuI?authuser=0&hl=tr&rclk=1",
    "website_url": "http://www.valinst.ro/en/contact",
    "rating_text": "5,0",
    "stars": null,
    "number_of_reviews": null,
    "price_level": "",
    "open_hours": "",
    "extraction_timestamp": "2025-06-07T18:15:39.193Z",
    "source_name": "google",
    "source_query": "Irrigation Equipment",
    "source_country": "RO",
    "country": "Romania",
    "state": "Brașov County",
    "city": "Oraş Victoria"
  },
  {
    "source_id": "ChIJW8CcUcz0TEcRyO2rFqkliRY",
    "name": "Lidl",
    "category": "Lidl",
    "formatted_address": "4,3(900)",
    "phone_number": "+40800896622",
    "source_url": "https://www.google.com/maps/place/Lidl/data=!4m7!3m6!1s0x474cf4cc519cc05b:0x168925a916abedc8!8m2!3d45.7280443!4d24.6966051!16s%2Fg%2F119x0h3j6!19sChIJW8CcUcz0TEcRyO2rFqkliRY?authuser=0&hl=tr&rclk=1",
    "website_url": "https://www.lidl.ro/",
    "rating_text": "4,3",
    "stars": null,
    "number_of_reviews": null,
    "price_level": "",
    "open_hours": "",
    "extraction_timestamp": "2025-06-07T18:15:39.195Z",
    "source_name": "google",
    "source_query": "Irrigation Equipment",
    "source_country": "RO",
    "country": "Romania",
    "state": "Brașov County",
    "city": "Oraş Victoria"
  }
]
