[
  {
    "source_id": "ChIJaQzqLmZcs0ARU6r3VaUK6iE",
    "name": "AKRO S.R.L.",
    "category": "AKRO S.R.L.",
    "formatted_address": "4,7(13)",
    "phone_number": "+40268413180",
    "source_url": "https://www.google.com/maps/place/AKRO+S.R.L./data=!4m7!3m6!1s0x40b35c662eea0c69:0x21ea0aa555f7aa53!8m2!3d45.6485042!4d25.6406578!16s%2Fg%2F1hc250gs3!19sChIJaQzqLmZcs0ARU6r3VaUK6iE?authuser=0&hl=tr&rclk=1",
    "website_url": "",
    "rating_text": "4,7",
    "stars": null,
    "number_of_reviews": null,
    "price_level": "",
    "open_hours": "",
    "extraction_timestamp": "2025-06-08T02:43:03.972Z",
    "source_name": "google",
    "source_query": "Irrigation Equipment",
    "source_country": "RO",
    "country": "Romania",
    "state": "Brașov County",
    "city": "Oraş Predeal"
  },
  {
    "source_id": "ChIJrQ897ttds0ARhdWdpolRtbY",
    "name": "Instal Carpatica",
    "category": "Instal Carpatica",
    "formatted_address": "4,8(12)",
    "phone_number": "+40372919332",
    "source_url": "https://www.google.com/maps/place/Instal+Carpatica/data=!4m7!3m6!1s0x40b35ddbee3d0fad:0xb6b55189a69dd585!8m2!3d45.6182504!4d25.64334!16s%2Fg%2F11fnlthr36!19sChIJrQ897ttds0ARhdWdpolRtbY?authuser=0&hl=tr&rclk=1",
    "website_url": "",
    "rating_text": "4,8",
    "stars": null,
    "number_of_reviews": null,
    "price_level": "",
    "open_hours": "",
    "extraction_timestamp": "2025-06-08T02:43:03.973Z",
    "source_name": "google",
    "source_query": "Irrigation Equipment",
    "source_country": "RO",
    "country": "Romania",
    "state": "Brașov County",
    "city": "Oraş Predeal"
  },
  {
    "source_id": "ChIJocUrAyZds0ARSF-q3B7sEB0",
    "name": "Service Damianis - Mecanica si Vopsitorie Brasov",
    "category": "Service Damianis - Mecanica si Vopsitorie Brasov",
    "formatted_address": "Oto Tamirhanesi · vis a vis de OMV, Calea București 17Kapalı ⋅ Açılış zamanı: Pzt 09:00 · +40 763 549 921",
    "phone_number": "+40763549921",
    "source_url": "https://www.google.com/maps/place/Service+Damianis+-+Mecanica+si+Vopsitorie+Brasov/data=!4m7!3m6!1s0x40b35d26032bc5a1:0x1d10ec1edcaa5f48!8m2!3d45.6085473!4d25.6585627!16s%2Fg%2F11xf2_10ry!19sChIJocUrAyZds0ARSF-q3B7sEB0?authuser=0&hl=tr&rclk=1",
    "website_url": "",
    "rating_text": "",
    "stars": null,
    "number_of_reviews": null,
    "price_level": "",
    "open_hours": "",
    "extraction_timestamp": "2025-06-08T02:43:03.973Z",
    "source_name": "google",
    "source_query": "Irrigation Equipment",
    "source_country": "RO",
    "country": "Romania",
    "state": "Brașov County",
    "city": "Oraş Predeal"
  },
  {
    "source_id": "ChIJA3xHTYxcs0ARnkvJueur5W8",
    "name": "Ecoflam SRL",
    "category": "Ecoflam SRL",
    "formatted_address": "4,2(55)",
    "phone_number": "+40368401281",
    "source_url": "https://www.google.com/maps/place/Ecoflam+SRL/data=!4m7!3m6!1s0x40b35c8c4d477c03:0x6fe5abebb9c94b9e!8m2!3d45.6322993!4d25.6235519!16s%2Fg%2F11cs29g8qn!19sChIJA3xHTYxcs0ARnkvJueur5W8?authuser=0&hl=tr&rclk=1",
    "website_url": "",
    "rating_text": "4,2",
    "stars": null,
    "number_of_reviews": null,
    "price_level": "",
    "open_hours": "",
    "extraction_timestamp": "2025-06-08T02:43:03.973Z",
    "source_name": "google",
    "source_query": "Irrigation Equipment",
    "source_country": "RO",
    "country": "Romania",
    "state": "Brașov County",
    "city": "Oraş Predeal"
  },
  {
    "source_id": "ChIJ9Zd2jX9ds0AROE-qFBs59r4",
    "name": "IZORARE ECOSYSTEM S.R.L.",
    "category": "IZORARE ECOSYSTEM S.R.L.",
    "formatted_address": "4,7(15)",
    "phone_number": "+40752529099",
    "source_url": "https://www.google.com/maps/place/IZORARE+ECOSYSTEM+S.R.L./data=!4m7!3m6!1s0x40b35d7f8d7697f5:0xbef6391b14aa4f38!8m2!3d45.6255463!4d25.6934206!16s%2Fg%2F1yg93q4n0!19sChIJ9Zd2jX9ds0AROE-qFBs59r4?authuser=0&hl=tr&rclk=1",
    "website_url": "",
    "rating_text": "4,7",
    "stars": null,
    "number_of_reviews": null,
    "price_level": "",
    "open_hours": "",
    "extraction_timestamp": "2025-06-08T02:43:03.974Z",
    "source_name": "google",
    "source_query": "Irrigation Equipment",
    "source_country": "RO",
    "country": "Romania",
    "state": "Brașov County",
    "city": "Oraş Predeal"
  },
  {
    "source_id": "ChIJaQGYLaJbs0ARWezPlclsRcU",
    "name": "AQUAS",
    "category": "AQUAS",
    "formatted_address": "5,0(45)",
    "phone_number": "+40739444400",
    "source_url": "https://www.google.com/maps/place/AQUAS/data=!4m7!3m6!1s0x40b35ba22d980169:0xc5456cc995cfec59!8m2!3d45.6366816!4d25.6207551!16s%2Fg%2F11jt0qxkjm!19sChIJaQGYLaJbs0ARWezPlclsRcU?authuser=0&hl=tr&rclk=1",
    "website_url": "",
    "rating_text": "5,0",
    "stars": null,
    "number_of_reviews": null,
    "price_level": "",
    "open_hours": "",
    "extraction_timestamp": "2025-06-08T02:43:03.974Z",
    "source_name": "google",
    "source_query": "Irrigation Equipment",
    "source_country": "RO",
    "country": "Romania",
    "state": "Brașov County",
    "city": "Oraş Predeal"
  },
  {
    "source_id": "ChIJA_ImfrVBs0ARMjToi7yLkj0",
    "name": "SC.Fernico SRL",
    "category": "SC.Fernico SRL",
    "formatted_address": "5,0(1)",
    "phone_number": "+40726319328",
    "source_url": "https://www.google.com/maps/place/SC.Fernico+SRL/data=!4m7!3m6!1s0x40b341b57e26f203:0x3d928bbc8be83432!8m2!3d45.507629!4d25.5748823!16s%2Fg%2F11k56m99qr!19sChIJA_ImfrVBs0ARMjToi7yLkj0?authuser=0&hl=tr&rclk=1",
    "website_url": "",
    "rating_text": "5,0",
    "stars": null,
    "number_of_reviews": null,
    "price_level": "",
    "open_hours": "",
    "extraction_timestamp": "2025-06-08T02:43:03.974Z",
    "source_name": "google",
    "source_query": "Irrigation Equipment",
    "source_country": "RO",
    "country": "Romania",
    "state": "Brașov County",
    "city": "Oraş Predeal"
  },
  {
    "source_id": "ChIJBWxRW4lcs0AR4johcYtY_Us",
    "name": "Hod-Chimex",
    "category": "Hod-Chimex",
    "formatted_address": "4,3(110)",
    "phone_number": "+40268320340",
    "source_url": "https://www.google.com/maps/place/Hod-Chimex/data=!4m7!3m6!1s0x40b35c895b516c05:0x4bfd588b71213ae2!8m2!3d45.6388375!4d25.6217574!16s%2Fg%2F1wrtbc6q!19sChIJBWxRW4lcs0AR4johcYtY_Us?authuser=0&hl=tr&rclk=1",
    "website_url": "",
    "rating_text": "4,3",
    "stars": null,
    "number_of_reviews": null,
    "price_level": "",
    "open_hours": "",
    "extraction_timestamp": "2025-06-08T02:43:03.975Z",
    "source_name": "google",
    "source_query": "Irrigation Equipment",
    "source_country": "RO",
    "country": "Romania",
    "state": "Brașov County",
    "city": "Oraş Predeal"
  },
  {
    "source_id": "ChIJIUIzH_Fcs0ARSb8mlNek1c0",
    "name": "Romstal",
    "category": "Romstal",
    "formatted_address": "4,2(367)",
    "phone_number": "+40372123117",
    "source_url": "https://www.google.com/maps/place/Romstal/data=!4m7!3m6!1s0x40b35cf11f334221:0xcdd5a4d79426bf49!8m2!3d45.6330626!4d25.636574!16s%2Fg%2F12cpmrxnc!19sChIJIUIzH_Fcs0ARSb8mlNek1c0?authuser=0&hl=tr&rclk=1",
    "website_url": "",
    "rating_text": "4,2",
    "stars": null,
    "number_of_reviews": null,
    "price_level": "",
    "open_hours": "",
    "extraction_timestamp": "2025-06-08T02:43:03.975Z",
    "source_name": "google",
    "source_query": "Irrigation Equipment",
    "source_country": "RO",
    "country": "Romania",
    "state": "Brașov County",
    "city": "Oraş Predeal"
  },
  {
    "source_id": "ChIJpZJ5nphFs0ARetYuCwpy8us",
    "name": "Liriada Co S.R.L.",
    "category": "Liriada Co S.R.L.",
    "formatted_address": "4,4(142)",
    "phone_number": "+40268231027",
    "source_url": "https://www.google.com/maps/place/Liriada+Co+S.R.L./data=!4m7!3m6!1s0x40b345989e7992a5:0xebf2720a0b2ed67a!8m2!3d45.5940424!4d25.4603284!16s%2Fg%2F1hc88b541!19sChIJpZJ5nphFs0ARetYuCwpy8us?authuser=0&hl=tr&rclk=1",
    "website_url": "",
    "rating_text": "4,4",
    "stars": null,
    "number_of_reviews": null,
    "price_level": "",
    "open_hours": "",
    "extraction_timestamp": "2025-06-08T02:43:03.976Z",
    "source_name": "google",
    "source_query": "Irrigation Equipment",
    "source_country": "RO",
    "country": "Romania",
    "state": "Brașov County",
    "city": "Oraş Predeal"
  },
  {
    "source_id": "ChIJZ2TAKopcs0ARXWJpfgr5Ja0",
    "name": "Ecoflam",
    "category": "Ecoflam",
    "formatted_address": "4,0(3)",
    "phone_number": "+40733670019",
    "source_url": "https://www.google.com/maps/place/Ecoflam/data=!4m7!3m6!1s0x40b35c8a2ac06467:0xad25f90a7e69625d!8m2!3d45.6399864!4d25.6239017!16s%2Fg%2F11hbl8yp52!19sChIJZ2TAKopcs0ARXWJpfgr5Ja0?authuser=0&hl=tr&rclk=1",
    "website_url": "",
    "rating_text": "4,0",
    "stars": null,
    "number_of_reviews": null,
    "price_level": "",
    "open_hours": "",
    "extraction_timestamp": "2025-06-08T02:43:03.976Z",
    "source_name": "google",
    "source_query": "Irrigation Equipment",
    "source_country": "RO",
    "country": "Romania",
    "state": "Brașov County",
    "city": "Oraş Predeal"
  },
  {
    "source_id": "ChIJ_6_5vXpWXwgRc56Taso7RUM",
    "name": "Desfundare si curatare canalizare, videoinspectie, instalatii",
    "category": "Desfundare si curatare canalizare, videoinspectie, instalatii",
    "formatted_address": "Desfundare si curatare canalizare, videoinspectie, instalatii",
    "phone_number": "+40745080124",
    "source_url": "https://www.google.com/maps/place/Desfundare+si+curatare+canalizare,+videoinspectie,+instalatii/data=!4m7!3m6!1s0x85f567abdf9afff:0x43453bca6a939e73!8m2!3d45.5913271!4d25.4884906!16s%2Fg%2F11rd4w4dm2!19sChIJ_6_5vXpWXwgRc56Taso7RUM?authuser=0&hl=tr&rclk=1",
    "website_url": "",
    "rating_text": "5,0",
    "stars": null,
    "number_of_reviews": null,
    "price_level": "",
    "open_hours": "",
    "extraction_timestamp": "2025-06-08T02:43:03.977Z",
    "source_name": "google",
    "source_query": "Irrigation Equipment",
    "source_country": "RO",
    "country": "Romania",
    "state": "Brașov County",
    "city": "Oraş Predeal"
  },
  {
    "source_id": "ChIJ08WvJ79Bs0AR-eIM0WY_dVY",
    "name": "Harmonie",
    "category": "Harmonie",
    "formatted_address": "4,3(319)",
    "phone_number": "+40723670219",
    "source_url": "https://www.google.com/maps/place/Harmonie/data=!4m7!3m6!1s0x40b341bf27afc5d3:0x56753f66d10ce2f9!8m2!3d45.5177144!4d25.5373617!16s%2Fg%2F1hc2hd62x!19sChIJ08WvJ79Bs0AR-eIM0WY_dVY?authuser=0&hl=tr&rclk=1",
    "website_url": "",
    "rating_text": "4,3",
    "stars": null,
    "number_of_reviews": null,
    "price_level": "",
    "open_hours": "",
    "extraction_timestamp": "2025-06-08T02:43:03.977Z",
    "source_name": "google",
    "source_query": "Irrigation Equipment",
    "source_country": "RO",
    "country": "Romania",
    "state": "Brașov County",
    "city": "Oraş Predeal"
  },
  {
    "source_id": "ChIJGc1ao_4grSwRP5A7m9VqX7o",
    "name": "Apa Kangen Romania - Lorandt Marian/Distribuitor Ionizatoare de Apa Kangen",
    "category": "Apa Kangen Romania - Lorandt Marian/Distribuitor Ionizatoare de Apa Kangen",
    "formatted_address": "",
    "phone_number": "+40732062776",
    "source_url": "https://www.google.com/maps/place/Apa+Kangen+Romania+-+Lorandt+Marian%2FDistribuitor+Ionizatoare+de+Apa+Kangen/data=!4m7!3m6!1s0x2cad20fea35acd19:0xba5f6ad59b3b903f!8m2!3d45.9425072!4d25.0201084!16s%2Fg%2F11ldj9fsfh!19sChIJGc1ao_4grSwRP5A7m9VqX7o?authuser=0&hl=tr&rclk=1",
    "website_url": "",
    "rating_text": "",
    "stars": null,
    "number_of_reviews": null,
    "price_level": "",
    "open_hours": "",
    "extraction_timestamp": "2025-06-08T02:43:03.977Z",
    "source_name": "google",
    "source_query": "Irrigation Equipment",
    "source_country": "RO",
    "country": "Romania",
    "state": "Brașov County",
    "city": "Oraş Predeal"
  },
  {
    "source_id": "ChIJQW0en8ZBs0ARzaN8j9wlQy4",
    "name": "Samicom",
    "category": "Samicom",
    "formatted_address": "4,0(444)",
    "phone_number": "",
    "source_url": "https://www.google.com/maps/place/Samicom/data=!4m7!3m6!1s0x40b341c69f1e6d41:0x2e4325dc8f7ca3cd!8m2!3d45.5065673!4d25.5749878!16s%2Fg%2F12hkm461_!19sChIJQW0en8ZBs0ARzaN8j9wlQy4?authuser=0&hl=tr&rclk=1",
    "website_url": "",
    "rating_text": "4,0",
    "stars": null,
    "number_of_reviews": null,
    "price_level": "",
    "open_hours": "",
    "extraction_timestamp": "2025-06-08T02:43:03.978Z",
    "source_name": "google",
    "source_query": "Irrigation Equipment",
    "source_country": "RO",
    "country": "Romania",
    "state": "Brașov County",
    "city": "Oraş Predeal"
  },
  {
    "source_id": "ChIJY1-jH5hBs0ARtiNXEqh8BMg",
    "name": "Casa Ana",
    "category": "Casa Ana",
    "formatted_address": "4,2(182)",
    "phone_number": "+40744813233",
    "source_url": "https://www.google.com/maps/place/Casa+Ana/data=!4m7!3m6!1s0x40b341981fa35f63:0xc8047ca8125723b6!8m2!3d45.5084223!4d25.5738069!16s%2Fg%2F11h24phw1l!19sChIJY1-jH5hBs0ARtiNXEqh8BMg?authuser=0&hl=tr&rclk=1",
    "website_url": "",
    "rating_text": "4,2",
    "stars": null,
    "number_of_reviews": null,
    "price_level": "",
    "open_hours": "",
    "extraction_timestamp": "2025-06-08T02:43:03.978Z",
    "source_name": "google",
    "source_query": "Irrigation Equipment",
    "source_country": "RO",
    "country": "Romania",
    "state": "Brașov County",
    "city": "Oraş Predeal"
  },
  {
    "source_id": "ChIJHf9ZXt_-sUARDzm2kUTL_KA",
    "name": "MAG-irigatii.ro - Rain Bird Romania Sisteme de Irigatii",
    "category": "MAG-irigatii.ro - Rain Bird Romania Sisteme de Irigatii",
    "formatted_address": "4,8(54)",
    "phone_number": "+40748093097",
    "source_url": "https://www.google.com/maps/place/MAG-irigatii.ro+-+Rain+Bird+Romania+Sisteme+de+Irigatii/data=!4m7!3m6!1s0x40b1fedf5e59ff1d:0xa0fccb4491b6390f!8m2!3d44.3735344!4d26.178023!16s%2Fg%2F11bbw_z176!19sChIJHf9ZXt_-sUARDzm2kUTL_KA?authuser=0&hl=tr&rclk=1",
    "website_url": "",
    "rating_text": "4,8",
    "stars": null,
    "number_of_reviews": null,
    "price_level": "",
    "open_hours": "",
    "extraction_timestamp": "2025-06-08T02:43:03.978Z",
    "source_name": "google",
    "source_query": "Irrigation Equipment",
    "source_country": "RO",
    "country": "Romania",
    "state": "Brașov County",
    "city": "Oraş Predeal"
  },
  {
    "source_id": "ChIJ-Ukt2sVBs0ARhCswCK39-tA",
    "name": "Prăvălie Sergiana",
    "category": "Prăvălie Sergiana",
    "formatted_address": "4,0(38)",
    "phone_number": "+40368438051",
    "source_url": "https://www.google.com/maps/place/Pr%C4%83v%C4%83lie+Sergiana/data=!4m7!3m6!1s0x40b341c5da2d49f9:0xd0fafdad08302b84!8m2!3d45.5060847!4d25.5746542!16s%2Fg%2F1hm681fhw!19sChIJ-Ukt2sVBs0ARhCswCK39-tA?authuser=0&hl=tr&rclk=1",
    "website_url": "",
    "rating_text": "4,0",
    "stars": null,
    "number_of_reviews": null,
    "price_level": "",
    "open_hours": "",
    "extraction_timestamp": "2025-06-08T02:43:03.978Z",
    "source_name": "google",
    "source_query": "Irrigation Equipment",
    "source_country": "RO",
    "country": "Romania",
    "state": "Brașov County",
    "city": "Oraş Predeal"
  },
  {
    "source_id": "ChIJe_tU3Bhbs0ARYNkGVHO5YKE",
    "name": "HIDROstore Brașov",
    "category": "HIDROstore Brașov",
    "formatted_address": "5,0(13)",
    "phone_number": "+40771576228",
    "source_url": "https://www.google.com/maps/place/HIDROstore+Bra%C8%99ov/data=!4m7!3m6!1s0x40b35b18dc54fb7b:0xa160b9735406d960!8m2!3d45.6734944!4d25.5800351!16s%2Fg%2F11w8pn_mjw!19sChIJe_tU3Bhbs0ARYNkGVHO5YKE?authuser=0&hl=tr&rclk=1",
    "website_url": "",
    "rating_text": "5,0",
    "stars": null,
    "number_of_reviews": null,
    "price_level": "",
    "open_hours": "",
    "extraction_timestamp": "2025-06-08T02:43:03.979Z",
    "source_name": "google",
    "source_query": "Irrigation Equipment",
    "source_country": "RO",
    "country": "Romania",
    "state": "Brașov County",
    "city": "Oraş Predeal"
  },
  {
    "source_id": "ChIJ4XZz_rZds0ARMvbwW1oUous",
    "name": "Anisia 2002 srl",
    "category": "Anisia 2002 srl",
    "formatted_address": "4,4(50)",
    "phone_number": "",
    "source_url": "https://www.google.com/maps/place/Anisia+2002+srl/data=!4m7!3m6!1s0x40b35db6fe7376e1:0xeba2145a5bf0f632!8m2!3d45.6176732!4d25.6507873!16s%2Fg%2F11mtd4gtxx!19sChIJ4XZz_rZds0ARMvbwW1oUous?authuser=0&hl=tr&rclk=1",
    "website_url": "",
    "rating_text": "4,4",
    "stars": null,
    "number_of_reviews": null,
    "price_level": "",
    "open_hours": "",
    "extraction_timestamp": "2025-06-08T02:43:03.991Z",
    "source_name": "google",
    "source_query": "Irrigation Equipment",
    "source_country": "RO",
    "country": "Romania",
    "state": "Brașov County",
    "city": "Oraş Predeal"
  },
  {
    "source_id": "ChIJ06UcPWi5skARia7QV0a0CqA",
    "name": "GRADISERV Mioveni",
    "category": "GRADISERV Mioveni",
    "formatted_address": "5,0(9)",
    "phone_number": "+40754569973",
    "source_url": "https://www.google.com/maps/place/GRADISERV+Mioveni/data=!4m7!3m6!1s0x40b2b9683d1ca5d3:0xa00ab44657d0ae89!8m2!3d44.9555175!4d24.9341687!16s%2Fg%2F11sdn5vfx4!19sChIJ06UcPWi5skARia7QV0a0CqA?authuser=0&hl=tr&rclk=1",
    "website_url": "",
    "rating_text": "5,0",
    "stars": null,
    "number_of_reviews": null,
    "price_level": "",
    "open_hours": "",
    "extraction_timestamp": "2025-06-08T02:43:03.991Z",
    "source_name": "google",
    "source_query": "Irrigation Equipment",
    "source_country": "RO",
    "country": "Romania",
    "state": "Brașov County",
    "city": "Oraş Predeal"
  },
  {
    "source_id": "ChIJf8EHDpShTEcRTg_8SviuBBA",
    "name": "Merti Marimatt",
    "category": "Merti Marimatt",
    "formatted_address": "4,7(54)",
    "phone_number": "",
    "source_url": "https://www.google.com/maps/place/Merti+Marimatt/data=!4m7!3m6!1s0x474ca1940e07c17f:0x1004aef84afc0f4e!8m2!3d45.8414519!4d24.9616302!16s%2Fg%2F11kv6dmv8f!19sChIJf8EHDpShTEcRTg_8SviuBBA?authuser=0&hl=tr&rclk=1",
    "website_url": "",
    "rating_text": "4,7",
    "stars": null,
    "number_of_reviews": null,
    "price_level": "",
    "open_hours": "",
    "extraction_timestamp": "2025-06-08T02:43:03.992Z",
    "source_name": "google",
    "source_query": "Irrigation Equipment",
    "source_country": "RO",
    "country": "Romania",
    "state": "Brașov County",
    "city": "Oraş Predeal"
  },
  {
    "source_id": "ChIJV8PxcK8Vs0ARef2_dpqBhlE",
    "name": "Cofetărie Delice - Bușteni",
    "category": "Cofetărie Delice - Bușteni",
    "formatted_address": "4,3(178)",
    "phone_number": "+40728584152",
    "source_url": "https://www.google.com/maps/place/Cofet%C4%83rie+Delice+-+Bu%C8%99teni/data=!4m7!3m6!1s0x40b315af70f1c357:0x5186819a76bffd79!8m2!3d45.4134113!4d25.5346265!16s%2Fg%2F11g4g71l33!19sChIJV8PxcK8Vs0ARef2_dpqBhlE?authuser=0&hl=tr&rclk=1",
    "website_url": "",
    "rating_text": "4,3",
    "stars": null,
    "number_of_reviews": null,
    "price_level": "",
    "open_hours": "",
    "extraction_timestamp": "2025-06-08T02:43:03.992Z",
    "source_name": "google",
    "source_query": "Irrigation Equipment",
    "source_country": "RO",
    "country": "Romania",
    "state": "Brașov County",
    "city": "Oraş Predeal"
  },
  {
    "source_id": "ChIJyUJ3BuP_sUARTvOmtBfaKkw",
    "name": "Studio Garden - Amenajari Gradini",
    "category": "Studio Garden - Amenajari Gradini",
    "formatted_address": "5,0(16)",
    "phone_number": "+40735285485",
    "source_url": "https://www.google.com/maps/place/Studio+Garden+-+Amenajari+Gradini/data=!4m7!3m6!1s0x40b1ffe3067742c9:0x4c2ada17b4a6f34e!8m2!3d44.4221299!4d26.1297349!16s%2Fg%2F11vymfrq12!19sChIJyUJ3BuP_sUARTvOmtBfaKkw?authuser=0&hl=tr&rclk=1",
    "website_url": "",
    "rating_text": "5,0",
    "stars": null,
    "number_of_reviews": null,
    "price_level": "",
    "open_hours": "",
    "extraction_timestamp": "2025-06-08T02:43:03.993Z",
    "source_name": "google",
    "source_query": "Irrigation Equipment",
    "source_country": "RO",
    "country": "Romania",
    "state": "Brașov County",
    "city": "Oraş Predeal"
  },
  {
    "source_id": "ChIJpRLHLAFbs0AR4aOqN_hsDuc",
    "name": "Gruppo Valinst",
    "category": "Gruppo Valinst",
    "formatted_address": "",
    "phone_number": "+40729931509",
    "source_url": "https://www.google.com/maps/place/Gruppo+Valinst/data=!4m7!3m6!1s0x40b35b012cc712a5:0xe70e6cf837aaa3e1!8m2!3d45.65515!4d25.5586001!16s%2Fg%2F1hc3rk913!19sChIJpRLHLAFbs0AR4aOqN_hsDuc?authuser=0&hl=tr&rclk=1",
    "website_url": "",
    "rating_text": "",
    "stars": null,
    "number_of_reviews": null,
    "price_level": "",
    "open_hours": "",
    "extraction_timestamp": "2025-06-08T02:43:03.993Z",
    "source_name": "google",
    "source_query": "Irrigation Equipment",
    "source_country": "RO",
    "country": "Romania",
    "state": "Brașov County",
    "city": "Oraş Predeal"
  },
  {
    "source_id": "ChIJc6J1pigHskARoVtevI4ZsJY",
    "name": "Titan Machinery Romania SRL",
    "category": "Titan Machinery Romania SRL",
    "formatted_address": "4,4(117)",
    "phone_number": "+40213504935",
    "source_url": "https://www.google.com/maps/place/Titan+Machinery+Romania+SRL/data=!4m7!3m6!1s0x40b20728a675a273:0x96b0198ebc5e5ba1!8m2!3d44.4446091!4d25.9411997!16s%2Fg%2F1hdz1snzb!19sChIJc6J1pigHskARoVtevI4ZsJY?authuser=0&hl=tr&rclk=1",
    "website_url": "",
    "rating_text": "4,4",
    "stars": null,
    "number_of_reviews": null,
    "price_level": "",
    "open_hours": "",
    "extraction_timestamp": "2025-06-08T02:43:03.994Z",
    "source_name": "google",
    "source_query": "Irrigation Equipment",
    "source_country": "RO",
    "country": "Romania",
    "state": "Brașov County",
    "city": "Oraş Predeal"
  },
  {
    "source_id": "ChIJPZGrFXxbs0ARpAWHcPtNTGw",
    "name": "Green Spot - Amenajari Gradini Brasov | Intretineri Gradini Brasov",
    "category": "Green Spot - Amenajari Gradini Brasov | Intretineri Gradini Brasov",
    "formatted_address": "4,9(102)",
    "phone_number": "+40721120791",
    "source_url": "https://www.google.com/maps/place/Green+Spot+-+Amenajari+Gradini+Brasov+%7C+Intretineri+Gradini+Brasov/data=!4m7!3m6!1s0x40b35b7c15ab913d:0x6c4c4dfb708705a4!8m2!3d45.674179!4d25.6188278!16s%2Fg%2F11c3tqs_kk!19sChIJPZGrFXxbs0ARpAWHcPtNTGw?authuser=0&hl=tr&rclk=1",
    "website_url": "",
    "rating_text": "4,9",
    "stars": null,
    "number_of_reviews": null,
    "price_level": "",
    "open_hours": "",
    "extraction_timestamp": "2025-06-08T02:43:03.994Z",
    "source_name": "google",
    "source_query": "Irrigation Equipment",
    "source_country": "RO",
    "country": "Romania",
    "state": "Brașov County",
    "city": "Oraş Predeal"
  },
  {
    "source_id": "ChIJA7B1Z2Zds0ARur30HS3Ah04",
    "name": "instalator brasov NON STOP sanitare termice",
    "category": "instalator brasov NON STOP sanitare termice",
    "formatted_address": "4,2(33)",
    "phone_number": "+40755189138",
    "source_url": "https://www.google.com/maps/place/instalator+brasov+NON+STOP+sanitare+termice/data=!4m7!3m6!1s0x40b35d666775b003:0x4e87c02d1df4bdba!8m2!3d45.655991!4d25.6178539!16s%2Fg%2F11h7b34qd_!19sChIJA7B1Z2Zds0ARur30HS3Ah04?authuser=0&hl=tr&rclk=1",
    "website_url": "",
    "rating_text": "4,2",
    "stars": null,
    "number_of_reviews": null,
    "price_level": "",
    "open_hours": "",
    "extraction_timestamp": "2025-06-08T02:43:03.995Z",
    "source_name": "google",
    "source_query": "Irrigation Equipment",
    "source_country": "RO",
    "country": "Romania",
    "state": "Brașov County",
    "city": "Oraş Predeal"
  },
  {
    "source_id": "ChIJK6QNBvBds0ARK39HHf7Dr2c",
    "name": "PLAI URBAN",
    "category": "PLAI URBAN",
    "formatted_address": "5,0(3)",
    "phone_number": "+40723478882",
    "source_url": "https://www.google.com/maps/place/PLAI+URBAN/data=!4m7!3m6!1s0x40b35df0060da42b:0x67afc3fe1d477f2b!8m2!3d45.662593!4d25.631469!16s%2Fg%2F11j8p2wpb7!19sChIJK6QNBvBds0ARK39HHf7Dr2c?authuser=0&hl=tr&rclk=1",
    "website_url": "",
    "rating_text": "5,0",
    "stars": null,
    "number_of_reviews": null,
    "price_level": "",
    "open_hours": "",
    "extraction_timestamp": "2025-06-08T02:43:03.996Z",
    "source_name": "google",
    "source_query": "Irrigation Equipment",
    "source_country": "RO",
    "country": "Romania",
    "state": "Brașov County",
    "city": "Oraş Predeal"
  },
  {
    "source_id": "ChIJG2EV_f9bs0ARRhFy__gil54",
    "name": "SC Instalatii Trust SA",
    "category": "SC Instalatii Trust SA",
    "formatted_address": "5,0(7)",
    "phone_number": "+40744299176",
    "source_url": "https://www.google.com/maps/place/SC+Instalatii+Trust+SA/data=!4m7!3m6!1s0x40b35bfffd15611b:0x9e9722f8ff721146!8m2!3d45.6568366!4d25.5640092!16s%2Fg%2F11jnsmfjrq!19sChIJG2EV_f9bs0ARRhFy__gil54?authuser=0&hl=tr&rclk=1",
    "website_url": "",
    "rating_text": "5,0",
    "stars": null,
    "number_of_reviews": null,
    "price_level": "",
    "open_hours": "",
    "extraction_timestamp": "2025-06-08T02:43:03.996Z",
    "source_name": "google",
    "source_query": "Irrigation Equipment",
    "source_country": "RO",
    "country": "Romania",
    "state": "Brașov County",
    "city": "Oraş Predeal"
  }
]
