[
  {
    "source_id": "ChIJVcYDvcZBs0ARBNEt6rQx2xc",
    "name": "Profi City",
    "category": "Profi City",
    "formatted_address": "4,0(1.955)",
    "phone_number": "+40727758014",
    "source_url": "https://www.google.com/maps/place/Profi+City/data=!4m7!3m6!1s0x40b341c6bd03c655:0x17db31b4ea2dd104!8m2!3d45.506915!4d25.574638!16s%2Fg%2F11g9dnpgv3!19sChIJVcYDvcZBs0ARBNEt6rQx2xc?authuser=0&hl=tr&rclk=1",
    "website_url": "",
    "rating_text": "4,0",
    "stars": null,
    "number_of_reviews": null,
    "price_level": "",
    "open_hours": "",
    "extraction_timestamp": "2025-06-07T18:18:20.081Z",
    "source_name": "google",
    "source_query": "Irrigation Equipment",
    "source_country": "RO",
    "country": "Romania",
    "state": "Brașov County",
    "city": "Predeal"
  },
  {
    "source_id": "ChIJQW0en8ZBs0ARzaN8j9wlQy4",
    "name": "Samicom",
    "category": "Samicom",
    "formatted_address": "4,0(444)",
    "phone_number": "",
    "source_url": "https://www.google.com/maps/place/Samicom/data=!4m7!3m6!1s0x40b341c69f1e6d41:0x2e4325dc8f7ca3cd!8m2!3d45.5065673!4d25.5749878!16s%2Fg%2F12hkm461_!19sChIJQW0en8ZBs0ARzaN8j9wlQy4?authuser=0&hl=tr&rclk=1",
    "website_url": "",
    "rating_text": "4,0",
    "stars": null,
    "number_of_reviews": null,
    "price_level": "",
    "open_hours": "",
    "extraction_timestamp": "2025-06-07T18:18:20.082Z",
    "source_name": "google",
    "source_query": "Irrigation Equipment",
    "source_country": "RO",
    "country": "Romania",
    "state": "Brașov County",
    "city": "Predeal"
  },
  {
    "source_id": "ChIJJ5ovdb9Bs0ARa7lUJhLqMtI",
    "name": "Orizont",
    "category": "Orizont",
    "formatted_address": "4,1(2.545)",
    "phone_number": "+40254525454",
    "source_url": "https://www.google.com/maps/place/Orizont/data=!4m10!3m9!1s0x40b341bf752f9a27:0xd232ea122654b96b!5m2!4m1!1i2!8m2!3d45.5115313!4d25.5707807!16s%2Fg%2F1tmqdqh6!19sChIJJ5ovdb9Bs0ARa7lUJhLqMtI?authuser=0&hl=tr&rclk=1",
    "website_url": "",
    "rating_text": "4,1",
    "stars": null,
    "number_of_reviews": null,
    "price_level": "",
    "open_hours": "",
    "extraction_timestamp": "2025-06-07T18:18:20.084Z",
    "source_name": "google",
    "source_query": "Irrigation Equipment",
    "source_country": "RO",
    "country": "Romania",
    "state": "Brașov County",
    "city": "Predeal"
  },
  {
    "source_id": "ChIJaQzqLmZcs0ARU6r3VaUK6iE",
    "name": "AKRO S.R.L.",
    "category": "AKRO S.R.L.",
    "formatted_address": "4,7(13)",
    "phone_number": "+40268413180",
    "source_url": "https://www.google.com/maps/place/AKRO+S.R.L./data=!4m7!3m6!1s0x40b35c662eea0c69:0x21ea0aa555f7aa53!8m2!3d45.6485042!4d25.6406578!16s%2Fg%2F1hc250gs3!19sChIJaQzqLmZcs0ARU6r3VaUK6iE?authuser=0&hl=tr&rclk=1",
    "website_url": "",
    "rating_text": "4,7",
    "stars": null,
    "number_of_reviews": null,
    "price_level": "",
    "open_hours": "",
    "extraction_timestamp": "2025-06-07T18:18:20.085Z",
    "source_name": "google",
    "source_query": "Irrigation Equipment",
    "source_country": "RO",
    "country": "Romania",
    "state": "Brașov County",
    "city": "Predeal"
  },
  {
    "source_id": "ChIJ08WvJ79Bs0AR-eIM0WY_dVY",
    "name": "Harmonie",
    "category": "Harmonie",
    "formatted_address": "4,3(319)",
    "phone_number": "+40723670219",
    "source_url": "https://www.google.com/maps/place/Harmonie/data=!4m10!3m9!1s0x40b341bf27afc5d3:0x56753f66d10ce2f9!5m2!4m1!1i2!8m2!3d45.5177144!4d25.5373617!16s%2Fg%2F1hc2hd62x!19sChIJ08WvJ79Bs0AR-eIM0WY_dVY?authuser=0&hl=tr&rclk=1",
    "website_url": "",
    "rating_text": "4,3",
    "stars": null,
    "number_of_reviews": null,
    "price_level": "",
    "open_hours": "",
    "extraction_timestamp": "2025-06-07T18:18:20.085Z",
    "source_name": "google",
    "source_query": "Irrigation Equipment",
    "source_country": "RO",
    "country": "Romania",
    "state": "Brașov County",
    "city": "Predeal"
  },
  {
    "source_id": "ChIJY1-jH5hBs0ARtiNXEqh8BMg",
    "name": "Casa Ana",
    "category": "Casa Ana",
    "formatted_address": "4,2(182)",
    "phone_number": "+40744813233",
    "source_url": "https://www.google.com/maps/place/Casa+Ana/data=!4m10!3m9!1s0x40b341981fa35f63:0xc8047ca8125723b6!5m2!4m1!1i2!8m2!3d45.5084223!4d25.5738069!16s%2Fg%2F11h24phw1l!19sChIJY1-jH5hBs0ARtiNXEqh8BMg?authuser=0&hl=tr&rclk=1",
    "website_url": "",
    "rating_text": "4,2",
    "stars": null,
    "number_of_reviews": null,
    "price_level": "",
    "open_hours": "",
    "extraction_timestamp": "2025-06-07T18:18:20.086Z",
    "source_name": "google",
    "source_query": "Irrigation Equipment",
    "source_country": "RO",
    "country": "Romania",
    "state": "Brașov County",
    "city": "Predeal"
  },
  {
    "source_id": "ChIJ-Ukt2sVBs0ARhCswCK39-tA",
    "name": "Prăvălie Sergiana",
    "category": "Prăvălie Sergiana",
    "formatted_address": "4,0(38)",
    "phone_number": "+40368438051",
    "source_url": "https://www.google.com/maps/place/Pr%C4%83v%C4%83lie+Sergiana/data=!4m7!3m6!1s0x40b341c5da2d49f9:0xd0fafdad08302b84!8m2!3d45.5060847!4d25.5746542!16s%2Fg%2F1hm681fhw!19sChIJ-Ukt2sVBs0ARhCswCK39-tA?authuser=0&hl=tr&rclk=1",
    "website_url": "",
    "rating_text": "4,0",
    "stars": null,
    "number_of_reviews": null,
    "price_level": "",
    "open_hours": "",
    "extraction_timestamp": "2025-06-07T18:18:20.087Z",
    "source_name": "google",
    "source_query": "Irrigation Equipment",
    "source_country": "RO",
    "country": "Romania",
    "state": "Brașov County",
    "city": "Predeal"
  },
  {
    "source_id": "ChIJX6kZKmRBs0ARUFp5iaNbiQs",
    "name": "Samicom 2",
    "category": "Samicom 2",
    "formatted_address": "4,1(29)",
    "phone_number": "",
    "source_url": "https://www.google.com/maps/place/Samicom+2/data=!4m7!3m6!1s0x40b341642a19a95f:0xb895ba389795a50!8m2!3d45.5044109!4d25.5773185!16s%2Fg%2F11fct36hhb!19sChIJX6kZKmRBs0ARUFp5iaNbiQs?authuser=0&hl=tr&rclk=1",
    "website_url": "",
    "rating_text": "4,1",
    "stars": null,
    "number_of_reviews": null,
    "price_level": "",
    "open_hours": "",
    "extraction_timestamp": "2025-06-07T18:18:20.088Z",
    "source_name": "google",
    "source_query": "Irrigation Equipment",
    "source_country": "RO",
    "country": "Romania",
    "state": "Brașov County",
    "city": "Predeal"
  },
  {
    "source_id": "ChIJpznCn3VBs0AR7GKz4uCTREk",
    "name": "Mega Image",
    "category": "Mega Image",
    "formatted_address": "4,1(454)",
    "phone_number": "",
    "source_url": "https://www.google.com/maps/place/Mega+Image/data=!4m7!3m6!1s0x40b341759fc239a7:0x494493e0e2b362ec!8m2!3d45.5051052!4d25.5738237!16s%2Fg%2F11j4g75bw0!19sChIJpznCn3VBs0AR7GKz4uCTREk?authuser=0&hl=tr&rclk=1",
    "website_url": "",
    "rating_text": "4,1",
    "stars": null,
    "number_of_reviews": null,
    "price_level": "",
    "open_hours": "",
    "extraction_timestamp": "2025-06-07T18:18:20.088Z",
    "source_name": "google",
    "source_query": "Irrigation Equipment",
    "source_country": "RO",
    "country": "Romania",
    "state": "Brașov County",
    "city": "Predeal"
  },
  {
    "source_id": "ChIJ7yc5VcRDs0ARJWNbxzSD7lI",
    "name": "Carrefour",
    "category": "Carrefour",
    "formatted_address": "4,1(1.636)",
    "phone_number": "+40374464783",
    "source_url": "https://www.google.com/maps/place/Carrefour/data=!4m7!3m6!1s0x40b343c4553927ef:0x52ee8334c75b6325!8m2!3d45.5005494!4d25.5738545!16s%2Fg%2F11c1nbqtp4!19sChIJ7yc5VcRDs0ARJWNbxzSD7lI?authuser=0&hl=tr&rclk=1",
    "website_url": "",
    "rating_text": "4,1",
    "stars": null,
    "number_of_reviews": null,
    "price_level": "",
    "open_hours": "",
    "extraction_timestamp": "2025-06-07T18:18:20.091Z",
    "source_name": "google",
    "source_query": "Irrigation Equipment",
    "source_country": "RO",
    "country": "Romania",
    "state": "Brașov County",
    "city": "Predeal"
  },
  {
    "source_id": "ChIJxTlzQ25cs0ARbRRg7VLrKPw",
    "name": "Instal generation",
    "category": "Instal generation",
    "formatted_address": "5,0(5)",
    "phone_number": "+40745189529",
    "source_url": "https://www.google.com/maps/place/Instal+generation/data=!4m7!3m6!1s0x40b35c6e437339c5:0xfc28eb52ed60146d!8m2!3d45.6541089!4d25.63197!16s%2Fg%2F11flzgjjqz!19sChIJxTlzQ25cs0ARbRRg7VLrKPw?authuser=0&hl=tr&rclk=1",
    "website_url": "",
    "rating_text": "5,0",
    "stars": null,
    "number_of_reviews": null,
    "price_level": "",
    "open_hours": "",
    "extraction_timestamp": "2025-06-07T18:18:20.092Z",
    "source_name": "google",
    "source_query": "Irrigation Equipment",
    "source_country": "RO",
    "country": "Romania",
    "state": "Brașov County",
    "city": "Predeal"
  },
  {
    "source_id": "ChIJncLkl8ZBs0ARzWQ4vFVYE_8",
    "name": "Medimfarm",
    "category": "Medimfarm",
    "formatted_address": "3,6(20)",
    "phone_number": "+40730711673",
    "source_url": "https://www.google.com/maps/place/Medimfarm/data=!4m7!3m6!1s0x40b341c697e4c29d:0xff135855bc3864cd!8m2!3d45.5046885!4d25.5743229!16s%2Fg%2F1tgj_3yx!19sChIJncLkl8ZBs0ARzWQ4vFVYE_8?authuser=0&hl=tr&rclk=1",
    "website_url": "",
    "rating_text": "3,6",
    "stars": null,
    "number_of_reviews": null,
    "price_level": "",
    "open_hours": "",
    "extraction_timestamp": "2025-06-07T18:18:20.093Z",
    "source_name": "google",
    "source_query": "Irrigation Equipment",
    "source_country": "RO",
    "country": "Romania",
    "state": "Brașov County",
    "city": "Predeal"
  },
  {
    "source_id": "ChIJnUfTYQBBs0ARDYC4At46idU",
    "name": "VIVA",
    "category": "VIVA",
    "formatted_address": "4,0(2)",
    "phone_number": "",
    "source_url": "https://www.google.com/maps/place/VIVA/data=!4m7!3m6!1s0x40b3410061d3479d:0xd5893ade02b8800d!8m2!3d45.4795296!4d25.5646837!16s%2Fg%2F11wxw_w233!19sChIJnUfTYQBBs0ARDYC4At46idU?authuser=0&hl=tr&rclk=1",
    "website_url": "",
    "rating_text": "4,0",
    "stars": null,
    "number_of_reviews": null,
    "price_level": "",
    "open_hours": "",
    "extraction_timestamp": "2025-06-07T18:18:20.094Z",
    "source_name": "google",
    "source_query": "Irrigation Equipment",
    "source_country": "RO",
    "country": "Romania",
    "state": "Brașov County",
    "city": "Predeal"
  },
  {
    "source_id": "ChIJUdCh3cVBs0ARMJRF3FZpLYw",
    "name": "Supermarket",
    "category": "Supermarket",
    "formatted_address": "4,6(5)",
    "phone_number": "",
    "source_url": "https://www.google.com/maps/place/Supermarket/data=!4m7!3m6!1s0x40b341c5dda1d051:0x8c2d6956dc459430!8m2!3d45.5042462!4d25.574279!16s%2Fg%2F11hm3r697l!19sChIJUdCh3cVBs0ARMJRF3FZpLYw?authuser=0&hl=tr&rclk=1",
    "website_url": "",
    "rating_text": "4,6",
    "stars": null,
    "number_of_reviews": null,
    "price_level": "",
    "open_hours": "",
    "extraction_timestamp": "2025-06-07T18:18:20.095Z",
    "source_name": "google",
    "source_query": "Irrigation Equipment",
    "source_country": "RO",
    "country": "Romania",
    "state": "Brașov County",
    "city": "Predeal"
  },
  {
    "source_id": "ChIJHf9ZXt_-sUARDzm2kUTL_KA",
    "name": "MAG-irigatii.ro - Rain Bird Romania Sisteme de Irigatii",
    "category": "MAG-irigatii.ro - Rain Bird Romania Sisteme de Irigatii",
    "formatted_address": "4,8(54)",
    "phone_number": "+40748093097",
    "source_url": "https://www.google.com/maps/place/MAG-irigatii.ro+-+Rain+Bird+Romania+Sisteme+de+Irigatii/data=!4m7!3m6!1s0x40b1fedf5e59ff1d:0xa0fccb4491b6390f!8m2!3d44.3735344!4d26.178023!16s%2Fg%2F11bbw_z176!19sChIJHf9ZXt_-sUARDzm2kUTL_KA?authuser=0&hl=tr&rclk=1",
    "website_url": "",
    "rating_text": "4,8",
    "stars": null,
    "number_of_reviews": null,
    "price_level": "",
    "open_hours": "",
    "extraction_timestamp": "2025-06-07T18:18:20.124Z",
    "source_name": "google",
    "source_query": "Irrigation Equipment",
    "source_country": "RO",
    "country": "Romania",
    "state": "Brașov County",
    "city": "Predeal"
  },
  {
    "source_id": "ChIJ3YdYJyZBs0ARbsHXhay5cBA",
    "name": "5 To Go",
    "category": "5 To Go",
    "formatted_address": "4,6(67) · L 1–20",
    "phone_number": "+40746583855",
    "source_url": "https://www.google.com/maps/place/5+To+Go/data=!4m7!3m6!1s0x40b34126275887dd:0x1070b9ac85d7c16e!8m2!3d45.5007797!4d25.5738843!16s%2Fg%2F11s5hj78v9!19sChIJ3YdYJyZBs0ARbsHXhay5cBA?authuser=0&hl=tr&rclk=1",
    "website_url": "",
    "rating_text": "4,6",
    "stars": null,
    "number_of_reviews": null,
    "price_level": "",
    "open_hours": "",
    "extraction_timestamp": "2025-06-07T18:18:20.125Z",
    "source_name": "google",
    "source_query": "Irrigation Equipment",
    "source_country": "RO",
    "country": "Romania",
    "state": "Brașov County",
    "city": "Predeal"
  }
]
