[
  {
    "source_id": "ChIJ3bMH_JdES0cRJ9cWSl4Ux0I",
    "name": "RUPIS CONSTRUCT SRL",
    "category": "RUPIS CONSTRUCT SRL",
    "formatted_address": "4,4(25)",
    "phone_number": "+40740068642",
    "source_url": "https://www.google.com/maps/place/RUPIS+CONSTRUCT+SRL/data=!4m7!3m6!1s0x474b4497fc07b3dd:0x42c7145e4a16d727!8m2!3d46.0396151!4d25.2291278!16s%2Fg%2F11fy1f719w!19sChIJ3bMH_JdES0cRJ9cWSl4Ux0I?authuser=0&hl=tr&rclk=1",
    "website_url": "",
    "rating_text": "4,4",
    "stars": null,
    "number_of_reviews": null,
    "price_level": "",
    "open_hours": "",
    "extraction_timestamp": "2025-06-07T18:24:51.225Z",
    "source_name": "google",
    "source_query": "Irrigation Equipment",
    "source_country": "RO",
    "country": "Romania",
    "state": "Brașov County",
    "city": "Rupea"
  },
  {
    "source_id": "ChIJdUOAzaNES0cRlynoRn2LDWA",
    "name": "Profi Super",
    "category": "Profi Super",
    "formatted_address": "3,9(586) · ₺₺",
    "phone_number": "+40730770249",
    "source_url": "https://www.google.com/maps/place/Profi+Super/data=!4m7!3m6!1s0x474b44a3cd804375:0x600d8b7d46e82997!8m2!3d46.039025!4d25.2221036!16s%2Fg%2F11c4_wcz02!19sChIJdUOAzaNES0cRlynoRn2LDWA?authuser=0&hl=tr&rclk=1",
    "website_url": "",
    "rating_text": "3,9",
    "stars": null,
    "number_of_reviews": null,
    "price_level": "",
    "open_hours": "",
    "extraction_timestamp": "2025-06-07T18:24:51.228Z",
    "source_name": "google",
    "source_query": "Irrigation Equipment",
    "source_country": "RO",
    "country": "Romania",
    "state": "Brașov County",
    "city": "Rupea"
  },
  {
    "source_id": "ChIJ5R7UexlFS0cRftWWV6H7Ues",
    "name": "Roxana Sercom",
    "category": "Roxana Sercom",
    "formatted_address": "4,3(6)",
    "phone_number": "",
    "source_url": "https://www.google.com/maps/place/Roxana+Sercom/data=!4m7!3m6!1s0x474b45197bd41ee5:0xeb51fba15796d57e!8m2!3d46.038326!4d25.2214509!16s%2Fg%2F11kdksl857!19sChIJ5R7UexlFS0cRftWWV6H7Ues?authuser=0&hl=tr&rclk=1",
    "website_url": "",
    "rating_text": "4,3",
    "stars": null,
    "number_of_reviews": null,
    "price_level": "",
    "open_hours": "",
    "extraction_timestamp": "2025-06-07T18:24:51.229Z",
    "source_name": "google",
    "source_query": "Irrigation Equipment",
    "source_country": "RO",
    "country": "Romania",
    "state": "Brașov County",
    "city": "Rupea"
  },
  {
    "source_id": "ChIJaQzqLmZcs0ARU6r3VaUK6iE",
    "name": "AKRO S.R.L.",
    "category": "AKRO S.R.L.",
    "formatted_address": "4,7(13)",
    "phone_number": "+40268413180",
    "source_url": "https://www.google.com/maps/place/AKRO+S.R.L./data=!4m7!3m6!1s0x40b35c662eea0c69:0x21ea0aa555f7aa53!8m2!3d45.6485042!4d25.6406578!16s%2Fg%2F1hc250gs3!19sChIJaQzqLmZcs0ARU6r3VaUK6iE?authuser=0&hl=tr&rclk=1",
    "website_url": "",
    "rating_text": "4,7",
    "stars": null,
    "number_of_reviews": null,
    "price_level": "",
    "open_hours": "",
    "extraction_timestamp": "2025-06-07T18:24:51.231Z",
    "source_name": "google",
    "source_query": "Irrigation Equipment",
    "source_country": "RO",
    "country": "Romania",
    "state": "Brașov County",
    "city": "Rupea"
  },
  {
    "source_id": "ChIJaXESUqFFS0cRORq0qDbvNfM",
    "name": "MMD Caffe",
    "category": "MMD Caffe",
    "formatted_address": "4,6(33) · L 1–20",
    "phone_number": "",
    "source_url": "https://www.google.com/maps/place/MMD+Caffe/data=!4m7!3m6!1s0x474b45a152127169:0xf335ef36a8b41a39!8m2!3d46.038623!4d25.2202422!16s%2Fg%2F11l2m5bg01!19sChIJaXESUqFFS0cRORq0qDbvNfM?authuser=0&hl=tr&rclk=1",
    "website_url": "",
    "rating_text": "4,6",
    "stars": null,
    "number_of_reviews": null,
    "price_level": "",
    "open_hours": "",
    "extraction_timestamp": "2025-06-07T18:24:51.233Z",
    "source_name": "google",
    "source_query": "Irrigation Equipment",
    "source_country": "RO",
    "country": "Romania",
    "state": "Brașov County",
    "city": "Rupea"
  },
  {
    "source_id": "ChIJFUoYH4tds0ARENgYezXyMW4",
    "name": "Verde CBD Pharma",
    "category": "Verde CBD Pharma",
    "formatted_address": "1,0(1)",
    "phone_number": "",
    "source_url": "https://www.google.com/maps/place/Verde+CBD+Pharma/data=!4m7!3m6!1s0x40b35d8b1f184a15:0x6e31f2357b18d810!8m2!3d46.0363012!4d25.2337202!16s%2Fg%2F11rxmr4jqd!19sChIJFUoYH4tds0ARENgYezXyMW4?authuser=0&hl=tr&rclk=1",
    "website_url": "",
    "rating_text": "1,0",
    "stars": null,
    "number_of_reviews": null,
    "price_level": "",
    "open_hours": "",
    "extraction_timestamp": "2025-06-07T18:24:51.234Z",
    "source_name": "google",
    "source_query": "Irrigation Equipment",
    "source_country": "RO",
    "country": "Romania",
    "state": "Brașov County",
    "city": "Rupea"
  },
  {
    "source_id": "ChIJy1KPtwpFS0cRis4cFg57dfw",
    "name": "PENNY",
    "category": "PENNY",
    "formatted_address": "4,4(365)",
    "phone_number": "+40800110111",
    "source_url": "https://www.google.com/maps/place/PENNY/data=!4m7!3m6!1s0x474b450ab78f52cb:0xfc757b0e161cce8a!8m2!3d46.0316874!4d25.2084632!16s%2Fg%2F11h9bmyqwy!19sChIJy1KPtwpFS0cRis4cFg57dfw?authuser=0&hl=tr&rclk=1",
    "website_url": "",
    "rating_text": "4,4",
    "stars": null,
    "number_of_reviews": null,
    "price_level": "",
    "open_hours": "",
    "extraction_timestamp": "2025-06-07T18:24:51.237Z",
    "source_name": "google",
    "source_query": "Irrigation Equipment",
    "source_country": "RO",
    "country": "Romania",
    "state": "Brașov County",
    "city": "Rupea"
  },
  {
    "source_id": "ChIJDVNpxslFS0cRt8rPkUKpdeg",
    "name": "Agrovet Cohalm",
    "category": "Agrovet Cohalm",
    "formatted_address": "",
    "phone_number": "+40733670222",
    "source_url": "https://www.google.com/maps/place/Agrovet+Cohalm/data=!4m7!3m6!1s0x474b45c9c669530d:0xe875a94291cfcab7!8m2!3d46.036517!4d25.2180531!16s%2Fg%2F11x93p7j8l!19sChIJDVNpxslFS0cRt8rPkUKpdeg?authuser=0&hl=tr&rclk=1",
    "website_url": "",
    "rating_text": "",
    "stars": null,
    "number_of_reviews": null,
    "price_level": "",
    "open_hours": "",
    "extraction_timestamp": "2025-06-07T18:24:51.239Z",
    "source_name": "google",
    "source_query": "Irrigation Equipment",
    "source_country": "RO",
    "country": "Romania",
    "state": "Brașov County",
    "city": "Rupea"
  },
  {
    "source_id": "ChIJfXnnpTFFS0cRZKKFjeNXw3M",
    "name": "Kardinal Land - piese auto",
    "category": "Kardinal Land - piese auto",
    "formatted_address": "5,0(1)",
    "phone_number": "+40748493493",
    "source_url": "https://www.google.com/maps/place/Kardinal+Land+-+piese+auto/data=!4m7!3m6!1s0x474b4531a5e7797d:0x73c357e38d85a264!8m2!3d46.0395414!4d25.2253879!16s%2Fg%2F11k50mpbch!19sChIJfXnnpTFFS0cRZKKFjeNXw3M?authuser=0&hl=tr&rclk=1",
    "website_url": "",
    "rating_text": "5,0",
    "stars": null,
    "number_of_reviews": null,
    "price_level": "",
    "open_hours": "",
    "extraction_timestamp": "2025-06-07T18:24:51.240Z",
    "source_name": "google",
    "source_query": "Irrigation Equipment",
    "source_country": "RO",
    "country": "Romania",
    "state": "Brașov County",
    "city": "Rupea"
  },
  {
    "source_id": "ChIJxTlzQ25cs0ARbRRg7VLrKPw",
    "name": "Instal generation",
    "category": "Instal generation",
    "formatted_address": "5,0(5)",
    "phone_number": "+40745189529",
    "source_url": "https://www.google.com/maps/place/Instal+generation/data=!4m7!3m6!1s0x40b35c6e437339c5:0xfc28eb52ed60146d!8m2!3d45.6541089!4d25.63197!16s%2Fg%2F11flzgjjqz!19sChIJxTlzQ25cs0ARbRRg7VLrKPw?authuser=0&hl=tr&rclk=1",
    "website_url": "",
    "rating_text": "5,0",
    "stars": null,
    "number_of_reviews": null,
    "price_level": "",
    "open_hours": "",
    "extraction_timestamp": "2025-06-07T18:24:51.242Z",
    "source_name": "google",
    "source_query": "Irrigation Equipment",
    "source_country": "RO",
    "country": "Romania",
    "state": "Brașov County",
    "city": "Rupea"
  },
  {
    "source_id": "ChIJ1UTB0KNES0cRiTT_umT-diQ",
    "name": "LeFruMarin",
    "category": "LeFruMarin",
    "formatted_address": "4,5(4)",
    "phone_number": "+40268260311",
    "source_url": "https://www.google.com/maps/place/LeFruMarin/data=!4m7!3m6!1s0x474b44a3d0c144d5:0x2476fe64baff3489!8m2!3d46.038538!4d25.2218692!16s%2Fg%2F1tf5p03h!19sChIJ1UTB0KNES0cRiTT_umT-diQ?authuser=0&hl=tr&rclk=1",
    "website_url": "",
    "rating_text": "4,5",
    "stars": null,
    "number_of_reviews": null,
    "price_level": "",
    "open_hours": "",
    "extraction_timestamp": "2025-06-07T18:24:51.244Z",
    "source_name": "google",
    "source_query": "Irrigation Equipment",
    "source_country": "RO",
    "country": "Romania",
    "state": "Brașov County",
    "city": "Rupea"
  },
  {
    "source_id": "ChIJ75U28UJcs0ARn5rOXEMHehs",
    "name": "Romradiatoare",
    "category": "Romradiatoare",
    "formatted_address": "4,6(17)",
    "phone_number": "+40268317550",
    "source_url": "https://www.google.com/maps/place/Romradiatoare/data=!4m7!3m6!1s0x40b35c42f13695ef:0x1b7a07435cce9a9f!8m2!3d45.6505059!4d25.6439921!16s%2Fg%2F1tfz_l60!19sChIJ75U28UJcs0ARn5rOXEMHehs?authuser=0&hl=tr&rclk=1",
    "website_url": "",
    "rating_text": "4,6",
    "stars": null,
    "number_of_reviews": null,
    "price_level": "",
    "open_hours": "",
    "extraction_timestamp": "2025-06-07T18:24:51.245Z",
    "source_name": "google",
    "source_query": "Irrigation Equipment",
    "source_country": "RO",
    "country": "Romania",
    "state": "Brașov County",
    "city": "Rupea"
  },
  {
    "source_id": "ChIJA1GhzJdES0cRvptoKfFthDk",
    "name": "Piese Dacia Auto",
    "category": "Piese Dacia Auto",
    "formatted_address": "4,3(8)",
    "phone_number": "",
    "source_url": "https://www.google.com/maps/place/Piese+Dacia+Auto/data=!4m7!3m6!1s0x474b4497cca15103:0x39846df129689bbe!8m2!3d46.0397628!4d25.2342589!16s%2Fg%2F11g_zg0dry!19sChIJA1GhzJdES0cRvptoKfFthDk?authuser=0&hl=tr&rclk=1",
    "website_url": "",
    "rating_text": "4,3",
    "stars": null,
    "number_of_reviews": null,
    "price_level": "",
    "open_hours": "",
    "extraction_timestamp": "2025-06-07T18:24:51.246Z",
    "source_name": "google",
    "source_query": "Irrigation Equipment",
    "source_country": "RO",
    "country": "Romania",
    "state": "Brașov County",
    "city": "Rupea"
  }
]
