[
  {
    "source_id": "ChIJpZJ5nphFs0ARetYuCwpy8us",
    "name": "Liriada Co S.R.L.",
    "category": "Liriada Co S.R.L.",
    "formatted_address": "4,4(141)",
    "phone_number": "+40268231027",
    "source_url": "https://www.google.com/maps/place/Liriada+Co+S.R.L./data=!4m7!3m6!1s0x40b345989e7992a5:0xebf2720a0b2ed67a!8m2!3d45.5940424!4d25.4603284!16s%2Fg%2F1hc88b541!19sChIJpZJ5nphFs0ARetYuCwpy8us?authuser=0&hl=tr&rclk=1",
    "website_url": "",
    "rating_text": "4,4",
    "stars": null,
    "number_of_reviews": null,
    "price_level": "",
    "open_hours": "",
    "extraction_timestamp": "2025-06-07T18:21:07.784Z",
    "source_name": "google",
    "source_query": "Irrigation Equipment",
    "source_country": "RO",
    "country": "Romania",
    "state": "Brașov County",
    "city": "Râşnov"
  },
  {
    "source_id": "ChIJ_6_5vXpWXwgRc56Taso7RUM",
    "name": "Desfundare si curatare canalizare, videoinspectie, instalatii",
    "category": "Desfundare si curatare canalizare, videoinspectie, instalatii",
    "formatted_address": "Desfundare si curatare canalizare, videoinspectie, instalatii",
    "phone_number": "+40745080124",
    "source_url": "https://www.google.com/maps/place/Desfundare+si+curatare+canalizare,+videoinspectie,+instalatii/data=!4m7!3m6!1s0x85f567abdf9afff:0x43453bca6a939e73!8m2!3d45.5913271!4d25.4884906!16s%2Fg%2F11rd4w4dm2!19sChIJ_6_5vXpWXwgRc56Taso7RUM?authuser=0&hl=tr&rclk=1",
    "website_url": "",
    "rating_text": "5,0",
    "stars": null,
    "number_of_reviews": null,
    "price_level": "",
    "open_hours": "",
    "extraction_timestamp": "2025-06-07T18:21:07.784Z",
    "source_name": "google",
    "source_query": "Irrigation Equipment",
    "source_country": "RO",
    "country": "Romania",
    "state": "Brașov County",
    "city": "Râşnov"
  },
  {
    "source_id": "ChIJ6fkd4pdFs0ARaY2xKsxp_H0",
    "name": "Rasnov Tools Factory",
    "category": "Rasnov Tools Factory",
    "formatted_address": "4,0(6)",
    "phone_number": "+40368800010",
    "source_url": "https://www.google.com/maps/place/Rasnov+Tools+Factory/data=!4m7!3m6!1s0x40b34597e21df9e9:0x7dfc69cc2ab18d69!8m2!3d45.5912687!4d25.4574119!16s%2Fg%2F1vxctxwx!19sChIJ6fkd4pdFs0ARaY2xKsxp_H0?authuser=0&hl=tr&rclk=1",
    "website_url": "",
    "rating_text": "4,0",
    "stars": null,
    "number_of_reviews": null,
    "price_level": "",
    "open_hours": "",
    "extraction_timestamp": "2025-06-07T18:21:07.784Z",
    "source_name": "google",
    "source_query": "Irrigation Equipment",
    "source_country": "RO",
    "country": "Romania",
    "state": "Brașov County",
    "city": "Râşnov"
  },
  {
    "source_id": "ChIJ22qHcMxFs0ARQbVjT0Hd0jw",
    "name": "Magic Parc Râșnov",
    "category": "Magic Parc Râșnov",
    "formatted_address": "4,8(877)",
    "phone_number": "+40775300500",
    "source_url": "https://www.google.com/maps/place/Magic+Parc+R%C3%A2%C8%99nov/data=!4m7!3m6!1s0x40b345cc70876adb:0x3cd2dd414f63b541!8m2!3d45.5894058!4d25.476563!16s%2Fg%2F11v56ns512!19sChIJ22qHcMxFs0ARQbVjT0Hd0jw?authuser=0&hl=tr&rclk=1",
    "website_url": "",
    "rating_text": "4,8",
    "stars": null,
    "number_of_reviews": null,
    "price_level": "",
    "open_hours": "",
    "extraction_timestamp": "2025-06-07T18:21:07.785Z",
    "source_name": "google",
    "source_query": "Irrigation Equipment",
    "source_country": "RO",
    "country": "Romania",
    "state": "Brașov County",
    "city": "Râşnov"
  },
  {
    "source_id": "ChIJe2lHaKdHs0AR_V2QeYymkY4",
    "name": "Romstal",
    "category": "Romstal",
    "formatted_address": "5,0(44)",
    "phone_number": "+40372123182",
    "source_url": "https://www.google.com/maps/place/Romstal/data=!4m7!3m6!1s0x40b347a76847697b:0x8e91a68c79905dfd!8m2!3d45.5415116!4d25.3794315!16s%2Fg%2F11ldk75bp8!19sChIJe2lHaKdHs0AR_V2QeYymkY4?authuser=0&hl=tr&rclk=1",
    "website_url": "",
    "rating_text": "5,0",
    "stars": null,
    "number_of_reviews": null,
    "price_level": "",
    "open_hours": "",
    "extraction_timestamp": "2025-06-07T18:21:07.785Z",
    "source_name": "google",
    "source_query": "Irrigation Equipment",
    "source_country": "RO",
    "country": "Romania",
    "state": "Brașov County",
    "city": "Râşnov"
  },
  {
    "source_id": "ChIJZYHl06JFs0ARwQZDhfY9JUk",
    "name": "ECO MARKET",
    "category": "ECO MARKET",
    "formatted_address": "4,1(108)",
    "phone_number": "+40734722042",
    "source_url": "https://www.google.com/maps/place/ECO+MARKET/data=!4m7!3m6!1s0x40b345a2d3e58165:0x49253df6854306c1!8m2!3d45.5908727!4d25.4609952!16s%2Fg%2F11fxdvdf15!19sChIJZYHl06JFs0ARwQZDhfY9JUk?authuser=0&hl=tr&rclk=1",
    "website_url": "",
    "rating_text": "4,1",
    "stars": null,
    "number_of_reviews": null,
    "price_level": "",
    "open_hours": "",
    "extraction_timestamp": "2025-06-07T18:21:07.785Z",
    "source_name": "google",
    "source_query": "Irrigation Equipment",
    "source_country": "RO",
    "country": "Romania",
    "state": "Brașov County",
    "city": "Râşnov"
  },
  {
    "source_id": "ChIJx32J3gxbs0ARqGilFF9VUrw",
    "name": "KNG Koi-Natura-Garden",
    "category": "KNG Koi-Natura-Garden",
    "formatted_address": "5,0(19)",
    "phone_number": "+40751109822",
    "source_url": "https://www.google.com/maps/place/KNG+Koi-Natura-Garden/data=!4m7!3m6!1s0x40b35b0cde897dc7:0xbc52555f14a568a8!8m2!3d45.6287876!4d25.4807043!16s%2Fg%2F11rz79pfcp!19sChIJx32J3gxbs0ARqGilFF9VUrw?authuser=0&hl=tr&rclk=1",
    "website_url": "",
    "rating_text": "5,0",
    "stars": null,
    "number_of_reviews": null,
    "price_level": "",
    "open_hours": "",
    "extraction_timestamp": "2025-06-07T18:21:07.785Z",
    "source_name": "google",
    "source_query": "Irrigation Equipment",
    "source_country": "RO",
    "country": "Romania",
    "state": "Brașov County",
    "city": "Râşnov"
  },
  {
    "source_id": "ChIJOy1p6ypFs0ARaa3mv7MXjkk",
    "name": "Bacania lui Tomita Rasnov",
    "category": "Bacania lui Tomita Rasnov",
    "formatted_address": "4,6(29)",
    "phone_number": "+40735522442",
    "source_url": "https://www.google.com/maps/place/Bacania+lui+Tomita+Rasnov/data=!4m7!3m6!1s0x40b3452aeb692d3b:0x498e17b3bfe6ad69!8m2!3d45.5927381!4d25.4622079!16s%2Fg%2F11n0sgylfy!19sChIJOy1p6ypFs0ARaa3mv7MXjkk?authuser=0&hl=tr&rclk=1",
    "website_url": "",
    "rating_text": "4,6",
    "stars": null,
    "number_of_reviews": null,
    "price_level": "",
    "open_hours": "",
    "extraction_timestamp": "2025-06-07T18:21:07.786Z",
    "source_name": "google",
    "source_query": "Irrigation Equipment",
    "source_country": "RO",
    "country": "Romania",
    "state": "Brașov County",
    "city": "Râşnov"
  },
  {
    "source_id": "ChIJs4_1IhtFs0ARfhZCF0nO4Po",
    "name": "Rockstadt Extreme Fest",
    "category": "Rockstadt Extreme Fest",
    "formatted_address": "4,8(419)",
    "phone_number": "+40770800497",
    "source_url": "https://www.google.com/maps/place/Rockstadt+Extreme+Fest/data=!4m7!3m6!1s0x40b3451b22f58fb3:0xfae0ce491742167e!8m2!3d45.5885914!4d25.4784481!16s%2Fg%2F11hz211g8m!19sChIJs4_1IhtFs0ARfhZCF0nO4Po?authuser=0&hl=tr&rclk=1",
    "website_url": "",
    "rating_text": "4,8",
    "stars": null,
    "number_of_reviews": null,
    "price_level": "",
    "open_hours": "",
    "extraction_timestamp": "2025-06-07T18:21:07.808Z",
    "source_name": "google",
    "source_query": "Irrigation Equipment",
    "source_country": "RO",
    "country": "Romania",
    "state": "Brașov County",
    "city": "Râşnov"
  },
  {
    "source_id": "ChIJ75U28UJcs0ARn5rOXEMHehs",
    "name": "Romradiatoare",
    "category": "Romradiatoare",
    "formatted_address": "4,6(17)",
    "phone_number": "+40268317550",
    "source_url": "https://www.google.com/maps/place/Romradiatoare/data=!4m7!3m6!1s0x40b35c42f13695ef:0x1b7a07435cce9a9f!8m2!3d45.6505059!4d25.6439921!16s%2Fg%2F1tfz_l60!19sChIJ75U28UJcs0ARn5rOXEMHehs?authuser=0&hl=tr&rclk=1",
    "website_url": "",
    "rating_text": "4,6",
    "stars": null,
    "number_of_reviews": null,
    "price_level": "",
    "open_hours": "",
    "extraction_timestamp": "2025-06-07T18:21:07.809Z",
    "source_name": "google",
    "source_query": "Irrigation Equipment",
    "source_country": "RO",
    "country": "Romania",
    "state": "Brașov County",
    "city": "Râşnov"
  },
  {
    "source_id": "ChIJYQJrg5hFs0ARDex48LvxiVE",
    "name": "Prăvălie Sergiana",
    "category": "Prăvălie Sergiana",
    "formatted_address": "4,3(105)",
    "phone_number": "+40368004044",
    "source_url": "https://www.google.com/maps/place/Pr%C4%83v%C4%83lie+Sergiana/data=!4m7!3m6!1s0x40b34598836b0261:0x5189f1bbf078ec0d!8m2!3d45.5927696!4d25.461921!16s%2Fg%2F11hczdj1cj!19sChIJYQJrg5hFs0ARDex48LvxiVE?authuser=0&hl=tr&rclk=1",
    "website_url": "",
    "rating_text": "4,3",
    "stars": null,
    "number_of_reviews": null,
    "price_level": "",
    "open_hours": "",
    "extraction_timestamp": "2025-06-07T18:21:07.810Z",
    "source_name": "google",
    "source_query": "Irrigation Equipment",
    "source_country": "RO",
    "country": "Romania",
    "state": "Brașov County",
    "city": "Râşnov"
  },
  {
    "source_id": "ChIJxTlzQ25cs0ARbRRg7VLrKPw",
    "name": "Instal generation",
    "category": "Instal generation",
    "formatted_address": "5,0(5)",
    "phone_number": "+40745189529",
    "source_url": "https://www.google.com/maps/place/Instal+generation/data=!4m7!3m6!1s0x40b35c6e437339c5:0xfc28eb52ed60146d!8m2!3d45.6541089!4d25.63197!16s%2Fg%2F11flzgjjqz!19sChIJxTlzQ25cs0ARbRRg7VLrKPw?authuser=0&hl=tr&rclk=1",
    "website_url": "",
    "rating_text": "5,0",
    "stars": null,
    "number_of_reviews": null,
    "price_level": "",
    "open_hours": "",
    "extraction_timestamp": "2025-06-07T18:21:07.811Z",
    "source_name": "google",
    "source_query": "Irrigation Equipment",
    "source_country": "RO",
    "country": "Romania",
    "state": "Brașov County",
    "city": "Râşnov"
  },
  {
    "source_id": "ChIJyWh2uiRFs0ARgIZEfAwNqH0",
    "name": "PIATA AGRO-ALIMENTARA",
    "category": "PIATA AGRO-ALIMENTARA",
    "formatted_address": "4,1(22)",
    "phone_number": "",
    "source_url": "https://www.google.com/maps/place/PIATA+AGRO-ALIMENTARA/data=!4m7!3m6!1s0x40b34524ba7668c9:0x7da80d0c7c448680!8m2!3d45.593533!4d25.4606461!16s%2Fg%2F11h6lld3vq!19sChIJyWh2uiRFs0ARgIZEfAwNqH0?authuser=0&hl=tr&rclk=1",
    "website_url": "",
    "rating_text": "4,1",
    "stars": null,
    "number_of_reviews": null,
    "price_level": "",
    "open_hours": "",
    "extraction_timestamp": "2025-06-07T18:21:07.811Z",
    "source_name": "google",
    "source_query": "Irrigation Equipment",
    "source_country": "RO",
    "country": "Romania",
    "state": "Brașov County",
    "city": "Râşnov"
  },
  {
    "source_id": "ChIJB_3GIstFs0ARWZXA8oej9gc",
    "name": "Kaufland Rasnov",
    "category": "Kaufland Rasnov",
    "formatted_address": "4,3(993)",
    "phone_number": "+40800080888",
    "source_url": "https://www.google.com/maps/place/Kaufland+Rasnov/data=!4m7!3m6!1s0x40b345cb22c6fd07:0x7f6a387f2c09559!8m2!3d45.5800178!4d25.4489266!16s%2Fg%2F11tj9wr477!19sChIJB_3GIstFs0ARWZXA8oej9gc?authuser=0&hl=tr&rclk=1",
    "website_url": "",
    "rating_text": "4,3",
    "stars": null,
    "number_of_reviews": null,
    "price_level": "",
    "open_hours": "",
    "extraction_timestamp": "2025-06-07T18:21:07.812Z",
    "source_name": "google",
    "source_query": "Irrigation Equipment",
    "source_country": "RO",
    "country": "Romania",
    "state": "Brașov County",
    "city": "Râşnov"
  },
  {
    "source_id": "ChIJ53sd321Fs0ARSm_SCjBLn2Y",
    "name": "MARKET CARAGIALE",
    "category": "MARKET CARAGIALE",
    "formatted_address": "4,5(74)",
    "phone_number": "",
    "source_url": "https://www.google.com/maps/place/MARKET+CARAGIALE/data=!4m7!3m6!1s0x40b3456ddf1d7be7:0x669f4b300ad26f4a!8m2!3d45.5809521!4d25.4602045!16s%2Fg%2F11jcwcw_0q!19sChIJ53sd321Fs0ARSm_SCjBLn2Y?authuser=0&hl=tr&rclk=1",
    "website_url": "",
    "rating_text": "4,5",
    "stars": null,
    "number_of_reviews": null,
    "price_level": "",
    "open_hours": "",
    "extraction_timestamp": "2025-06-07T18:21:07.813Z",
    "source_name": "google",
    "source_query": "Irrigation Equipment",
    "source_country": "RO",
    "country": "Romania",
    "state": "Brașov County",
    "city": "Râşnov"
  },
  {
    "source_id": "ChIJZ9AIF0VFs0ARgEpTOxoA4Co",
    "name": "Tipsy Cafe Râșnov",
    "category": "Tipsy Cafe Râșnov",
    "formatted_address": "4,2(5)",
    "phone_number": "+40755543958",
    "source_url": "https://www.google.com/maps/place/Tipsy+Cafe+R%C3%A2%C8%99nov/data=!4m7!3m6!1s0x40b345451708d067:0x2ae0001a3b534a80!8m2!3d45.6039941!4d25.4661145!16s%2Fg%2F11m6bdvw6z!19sChIJZ9AIF0VFs0ARgEpTOxoA4Co?authuser=0&hl=tr&rclk=1",
    "website_url": "",
    "rating_text": "4,2",
    "stars": null,
    "number_of_reviews": null,
    "price_level": "",
    "open_hours": "",
    "extraction_timestamp": "2025-06-07T18:21:07.814Z",
    "source_name": "google",
    "source_query": "Irrigation Equipment",
    "source_country": "RO",
    "country": "Romania",
    "state": "Brașov County",
    "city": "Râşnov"
  },
  {
    "source_id": "ChIJe_tU3Bhbs0ARYNkGVHO5YKE",
    "name": "HIDROstore Brașov",
    "category": "HIDROstore Brașov",
    "formatted_address": "5,0(13)",
    "phone_number": "+40771576228",
    "source_url": "https://www.google.com/maps/place/HIDROstore+Bra%C8%99ov/data=!4m7!3m6!1s0x40b35b18dc54fb7b:0xa160b9735406d960!8m2!3d45.6734944!4d25.5800351!16s%2Fg%2F11w8pn_mjw!19sChIJe_tU3Bhbs0ARYNkGVHO5YKE?authuser=0&hl=tr&rclk=1",
    "website_url": "",
    "rating_text": "5,0",
    "stars": null,
    "number_of_reviews": null,
    "price_level": "",
    "open_hours": "",
    "extraction_timestamp": "2025-06-07T18:21:07.815Z",
    "source_name": "google",
    "source_query": "Irrigation Equipment",
    "source_country": "RO",
    "country": "Romania",
    "state": "Brașov County",
    "city": "Râşnov"
  },
  {
    "source_id": "ChIJr-jlRphFs0AR-AphcUJBOZk",
    "name": "PENNY",
    "category": "PENNY",
    "formatted_address": "4,0(1.503)",
    "phone_number": "+40800110111",
    "source_url": "https://www.google.com/maps/place/PENNY/data=!4m7!3m6!1s0x40b3459846e5e8af:0x9939414271610af8!8m2!3d45.593038!4d25.457199!16s%2Fg%2F1hf32bm2p!19sChIJr-jlRphFs0AR-AphcUJBOZk?authuser=0&hl=tr&rclk=1",
    "website_url": "",
    "rating_text": "4,0",
    "stars": null,
    "number_of_reviews": null,
    "price_level": "",
    "open_hours": "",
    "extraction_timestamp": "2025-06-07T18:21:07.817Z",
    "source_name": "google",
    "source_query": "Irrigation Equipment",
    "source_country": "RO",
    "country": "Romania",
    "state": "Brașov County",
    "city": "Râşnov"
  },
  {
    "source_id": "ChIJHbLlmaNEs0ARhfmfYjyNBw0",
    "name": "Poiana Brasov Horse Riding Center",
    "category": "Poiana Brasov Horse Riding Center",
    "formatted_address": "4,5(1.003)",
    "phone_number": "+40728026952",
    "source_url": "https://www.google.com/maps/place/Poiana+Brasov+Horse+Riding+Center/data=!4m7!3m6!1s0x40b344a399e5b21d:0xd078d3c629ff985!8m2!3d45.6041286!4d25.5522439!16s%2Fg%2F11df7j11tj!19sChIJHbLlmaNEs0ARhfmfYjyNBw0?authuser=0&hl=tr&rclk=1",
    "website_url": "",
    "rating_text": "4,5",
    "stars": null,
    "number_of_reviews": null,
    "price_level": "",
    "open_hours": "",
    "extraction_timestamp": "2025-06-07T18:21:07.820Z",
    "source_name": "google",
    "source_query": "Irrigation Equipment",
    "source_country": "RO",
    "country": "Romania",
    "state": "Brașov County",
    "city": "Râşnov"
  },
  {
    "source_id": "ChIJuZUTQVFFs0AR03iFNm2BUv4",
    "name": "Prăvălie Sergiana",
    "category": "Prăvălie Sergiana",
    "formatted_address": "4,3(10)",
    "phone_number": "+40368004044",
    "source_url": "https://www.google.com/maps/place/Pr%C4%83v%C4%83lie+Sergiana/data=!4m7!3m6!1s0x40b34551411395b9:0xfe52816d368578d3!8m2!3d45.59784!4d25.4632176!16s%2Fg%2F11kb24c71_!19sChIJuZUTQVFFs0AR03iFNm2BUv4?authuser=0&hl=tr&rclk=1",
    "website_url": "",
    "rating_text": "4,3",
    "stars": null,
    "number_of_reviews": null,
    "price_level": "",
    "open_hours": "",
    "extraction_timestamp": "2025-06-07T18:21:07.821Z",
    "source_name": "google",
    "source_query": "Irrigation Equipment",
    "source_country": "RO",
    "country": "Romania",
    "state": "Brașov County",
    "city": "Râşnov"
  },
  {
    "source_id": "ChIJrUQQMFZZs0AR6NzsnVyZJ80",
    "name": "Caldurica.ro",
    "category": "Caldurica.ro",
    "formatted_address": "5,0(77)",
    "phone_number": "+40762275709",
    "source_url": "https://www.google.com/maps/place/Caldurica.ro/data=!4m7!3m6!1s0x40b35956301044ad:0xcd27995c9decdce8!8m2!3d45.7037588!4d25.5550988!16s%2Fg%2F11j3rybftd!19sChIJrUQQMFZZs0AR6NzsnVyZJ80?authuser=0&hl=tr&rclk=1",
    "website_url": "",
    "rating_text": "5,0",
    "stars": null,
    "number_of_reviews": null,
    "price_level": "",
    "open_hours": "",
    "extraction_timestamp": "2025-06-07T18:21:07.821Z",
    "source_name": "google",
    "source_query": "Irrigation Equipment",
    "source_country": "RO",
    "country": "Romania",
    "state": "Brașov County",
    "city": "Râşnov"
  },
  {
    "source_id": "ChIJk719965es0ARSHau3S-JmpE",
    "name": "Serstill",
    "category": "Serstill",
    "formatted_address": "4,6(22)",
    "phone_number": "+40268311511",
    "source_url": "https://www.google.com/maps/place/Serstill/data=!4m7!3m6!1s0x40b35eaef77dbd93:0x919a892fddae7648!8m2!3d45.683375!4d25.652469!16s%2Fg%2F11xdltdh5!19sChIJk719965es0ARSHau3S-JmpE?authuser=0&hl=tr&rclk=1",
    "website_url": "",
    "rating_text": "4,6",
    "stars": null,
    "number_of_reviews": null,
    "price_level": "",
    "open_hours": "",
    "extraction_timestamp": "2025-06-07T18:21:07.822Z",
    "source_name": "google",
    "source_query": "Irrigation Equipment",
    "source_country": "RO",
    "country": "Romania",
    "state": "Brașov County",
    "city": "Râşnov"
  },
  {
    "source_id": "ChIJpRLHLAFbs0AR4aOqN_hsDuc",
    "name": "Gruppo Valinst",
    "category": "Gruppo Valinst",
    "formatted_address": "",
    "phone_number": "+40729931509",
    "source_url": "https://www.google.com/maps/place/Gruppo+Valinst/data=!4m7!3m6!1s0x40b35b012cc712a5:0xe70e6cf837aaa3e1!8m2!3d45.65515!4d25.5586001!16s%2Fg%2F1hc3rk913!19sChIJpRLHLAFbs0AR4aOqN_hsDuc?authuser=0&hl=tr&rclk=1",
    "website_url": "",
    "rating_text": "",
    "stars": null,
    "number_of_reviews": null,
    "price_level": "",
    "open_hours": "",
    "extraction_timestamp": "2025-06-07T18:21:07.823Z",
    "source_name": "google",
    "source_query": "Irrigation Equipment",
    "source_country": "RO",
    "country": "Romania",
    "state": "Brașov County",
    "city": "Râşnov"
  },
  {
    "source_id": "ChIJrz5JZJoaiaARPopFXFQCw6g",
    "name": "Reparatii Centrale Termice In Brasov",
    "category": "Reparatii Centrale Termice In Brasov",
    "formatted_address": "5,0(6)",
    "phone_number": "+40725273546",
    "source_url": "https://www.google.com/maps/place/Reparatii+Centrale+Termice+In+Brasov/data=!4m7!3m6!1s0xa0891a9a64493eaf:0xa8c302545c458a3e!8m2!3d45.6488795!4d25.6439569!16s%2Fg%2F11vzqdvrdy!19sChIJrz5JZJoaiaARPopFXFQCw6g?authuser=0&hl=tr&rclk=1",
    "website_url": "",
    "rating_text": "5,0",
    "stars": null,
    "number_of_reviews": null,
    "price_level": "",
    "open_hours": "",
    "extraction_timestamp": "2025-06-07T18:21:07.824Z",
    "source_name": "google",
    "source_query": "Irrigation Equipment",
    "source_country": "RO",
    "country": "Romania",
    "state": "Brașov County",
    "city": "Râşnov"
  },
  {
    "source_id": "ChIJtRDaNxVds0ARH0zYzm8DWbE",
    "name": "CHIRILA INSTAL",
    "category": "CHIRILA INSTAL",
    "formatted_address": "5,0(17)",
    "phone_number": "+40734108310",
    "source_url": "https://www.google.com/maps/place/CHIRILA+INSTAL/data=!4m7!3m6!1s0x40b35d1537da10b5:0xb159036fced84c1f!8m2!3d45.651787!4d25.6309351!16s%2Fg%2F11vt09sry_!19sChIJtRDaNxVds0ARH0zYzm8DWbE?authuser=0&hl=tr&rclk=1",
    "website_url": "",
    "rating_text": "5,0",
    "stars": null,
    "number_of_reviews": null,
    "price_level": "",
    "open_hours": "",
    "extraction_timestamp": "2025-06-07T18:21:07.825Z",
    "source_name": "google",
    "source_query": "Irrigation Equipment",
    "source_country": "RO",
    "country": "Romania",
    "state": "Brașov County",
    "city": "Râşnov"
  },
  {
    "source_id": "ChIJe6wdOnFhs0ARIwE3yBbzHho",
    "name": "MAGEREXIM",
    "category": "MAGEREXIM",
    "formatted_address": "4,9(17)",
    "phone_number": "+40741647984",
    "source_url": "https://www.google.com/maps/place/MAGEREXIM/data=!4m7!3m6!1s0x40b361713a1dac7b:0x1a1ef316c8370123!8m2!3d45.6718863!4d25.7960882!16s%2Fg%2F11jgnm3g__!19sChIJe6wdOnFhs0ARIwE3yBbzHho?authuser=0&hl=tr&rclk=1",
    "website_url": "",
    "rating_text": "4,9",
    "stars": null,
    "number_of_reviews": null,
    "price_level": "",
    "open_hours": "",
    "extraction_timestamp": "2025-06-07T18:21:07.826Z",
    "source_name": "google",
    "source_query": "Irrigation Equipment",
    "source_country": "RO",
    "country": "Romania",
    "state": "Brașov County",
    "city": "Râşnov"
  },
  {
    "source_id": "ChIJWeFfS-lds0AR9yE35V1sBkU",
    "name": "Area 21 forest",
    "category": "Area 21 forest",
    "formatted_address": "Area 21 forest",
    "phone_number": "+40756621842",
    "source_url": "https://www.google.com/maps/place/Area+21+forest/data=!4m7!3m6!1s0x40b35de94b5fe159:0x45066c5de53721f7!8m2!3d45.6512788!4d25.6184938!16s%2Fg%2F11t3gz3yzc!19sChIJWeFfS-lds0AR9yE35V1sBkU?authuser=0&hl=tr&rclk=1",
    "website_url": "",
    "rating_text": "5,0",
    "stars": null,
    "number_of_reviews": null,
    "price_level": "",
    "open_hours": "",
    "extraction_timestamp": "2025-06-07T18:21:07.827Z",
    "source_name": "google",
    "source_query": "Irrigation Equipment",
    "source_country": "RO",
    "country": "Romania",
    "state": "Brașov County",
    "city": "Râşnov"
  },
  {
    "source_id": "ChIJA7B1Z2Zds0ARur30HS3Ah04",
    "name": "instalator brasov NON STOP sanitare termice",
    "category": "instalator brasov NON STOP sanitare termice",
    "formatted_address": "4,2(33)",
    "phone_number": "+40755189138",
    "source_url": "https://www.google.com/maps/place/instalator+brasov+NON+STOP+sanitare+termice/data=!4m7!3m6!1s0x40b35d666775b003:0x4e87c02d1df4bdba!8m2!3d45.655991!4d25.6178539!16s%2Fg%2F11h7b34qd_!19sChIJA7B1Z2Zds0ARur30HS3Ah04?authuser=0&hl=tr&rclk=1",
    "website_url": "",
    "rating_text": "4,2",
    "stars": null,
    "number_of_reviews": null,
    "price_level": "",
    "open_hours": "",
    "extraction_timestamp": "2025-06-07T18:21:07.828Z",
    "source_name": "google",
    "source_query": "Irrigation Equipment",
    "source_country": "RO",
    "country": "Romania",
    "state": "Brașov County",
    "city": "Râşnov"
  },
  {
    "source_id": "ChIJAX9ixJlbs0ARONdeqKAUFNY",
    "name": "Magazinul Fermierului",
    "category": "Magazinul Fermierului",
    "formatted_address": "4,3(358)",
    "phone_number": "+40724355430",
    "source_url": "https://www.google.com/maps/place/Magazinul+Fermierului/data=!4m7!3m6!1s0x40b35b99c4627f01:0xd61414a0a85ed738!8m2!3d45.6593757!4d25.5919892!16s%2Fg%2F1pp2vb70j!19sChIJAX9ixJlbs0ARONdeqKAUFNY?authuser=0&hl=tr&rclk=1",
    "website_url": "",
    "rating_text": "4,3",
    "stars": null,
    "number_of_reviews": null,
    "price_level": "",
    "open_hours": "",
    "extraction_timestamp": "2025-06-07T18:21:07.829Z",
    "source_name": "google",
    "source_query": "Irrigation Equipment",
    "source_country": "RO",
    "country": "Romania",
    "state": "Brașov County",
    "city": "Râşnov"
  }
]
