[
  {
    "source_id": "ChIJe2lHaKdHs0AR_V2QeYymkY4",
    "name": "Romstal",
    "category": "Romstal",
    "formatted_address": "5,0(44)",
    "phone_number": "+40372123182",
    "source_url": "https://www.google.com/maps/place/Romstal/data=!4m7!3m6!1s0x40b347a76847697b:0x8e91a68c79905dfd!8m2!3d45.5415116!4d25.3794315!16s%2Fg%2F11ldk75bp8!19sChIJe2lHaKdHs0AR_V2QeYymkY4?authuser=0&hl=tr&rclk=1",
    "website_url": "https://www.romstal.ro/",
    "rating_text": "5,0",
    "stars": null,
    "number_of_reviews": null,
    "price_level": "",
    "open_hours": "",
    "extraction_timestamp": "2025-06-07T18:09:51.738Z",
    "source_name": "google",
    "source_query": "Irrigation Equipment",
    "source_country": "RO",
    "country": "Romania",
    "state": "Brașov County",
    "city": "Sohodol"
  },
  {
    "source_id": "ChIJaQzqLmZcs0ARU6r3VaUK6iE",
    "name": "AKRO S.R.L.",
    "category": "AKRO S.R.L.",
    "formatted_address": "4,7(13)",
    "phone_number": "+40268413180",
    "source_url": "https://www.google.com/maps/place/AKRO+S.R.L./data=!4m7!3m6!1s0x40b35c662eea0c69:0x21ea0aa555f7aa53!8m2!3d45.6485042!4d25.6406578!16s%2Fg%2F1hc250gs3!19sChIJaQzqLmZcs0ARU6r3VaUK6iE?authuser=0&hl=tr&rclk=1",
    "website_url": "https://www.akro.ro/",
    "rating_text": "4,7",
    "stars": null,
    "number_of_reviews": null,
    "price_level": "",
    "open_hours": "",
    "extraction_timestamp": "2025-06-07T18:09:51.740Z",
    "source_name": "google",
    "source_query": "Irrigation Equipment",
    "source_country": "RO",
    "country": "Romania",
    "state": "Brașov County",
    "city": "Sohodol"
  },
  {
    "source_id": "ChIJAQ4hfvtHs0ARiB1a_-2Woik",
    "name": "EPARCBRAN - EBIKE & ESCAPE ROOM BRAN",
    "category": "EPARCBRAN - EBIKE & ESCAPE ROOM BRAN",
    "formatted_address": "5,0(67)",
    "phone_number": "+40753418268",
    "source_url": "https://www.google.com/maps/place/EPARCBRAN+-+EBIKE+%26+ESCAPE+ROOM+BRAN/data=!4m7!3m6!1s0x40b347fb7e210e01:0x29a296edff5a1d88!8m2!3d45.5246588!4d25.3995345!16s%2Fg%2F11t9h1z71y!19sChIJAQ4hfvtHs0ARiB1a_-2Woik?authuser=0&hl=tr&rclk=1",
    "website_url": "http://eparcbran.ro/",
    "rating_text": "5,0",
    "stars": null,
    "number_of_reviews": null,
    "price_level": "",
    "open_hours": "",
    "extraction_timestamp": "2025-06-07T18:09:51.742Z",
    "source_name": "google",
    "source_query": "Irrigation Equipment",
    "source_country": "RO",
    "country": "Romania",
    "state": "Brașov County",
    "city": "Sohodol"
  },
  {
    "source_id": "ChIJSc52LPpds0ARRn6D2MxGEP4",
    "name": "Krongrass Equipment",
    "category": "Krongrass Equipment",
    "formatted_address": "5,0(2)",
    "phone_number": "+40744565495",
    "source_url": "https://www.google.com/maps/place/Krongrass+Equipment/data=!4m7!3m6!1s0x40b35dfa2c76ce49:0xfe1046ccd8837e46!8m2!3d45.6466883!4d25.6378089!16s%2Fg%2F11kj0x16vd!19sChIJSc52LPpds0ARRn6D2MxGEP4?authuser=0&hl=tr&rclk=1",
    "website_url": "http://www.spider-cositoare.com/",
    "rating_text": "5,0",
    "stars": null,
    "number_of_reviews": null,
    "price_level": "",
    "open_hours": "",
    "extraction_timestamp": "2025-06-07T18:09:51.744Z",
    "source_name": "google",
    "source_query": "Irrigation Equipment",
    "source_country": "RO",
    "country": "Romania",
    "state": "Brașov County",
    "city": "Sohodol"
  },
  {
    "source_id": "ChIJvSecjZJHs0ARwYyodc8X5_U",
    "name": "Vampire Camping Bran Brasov Romania - official",
    "category": "Vampire Camping Bran Brasov Romania - official",
    "formatted_address": "4,3(35)",
    "phone_number": "+40724181601",
    "source_url": "https://www.google.com/maps/place/Vampire+Camping+Bran+Brasov+Romania+-+official/data=!4m7!3m6!1s0x40b347928d9c27bd:0xf5e717cf75a88cc1!8m2!3d45.5282882!4d25.3710635!16s%2Fg%2F11fksm31t9!19sChIJvSecjZJHs0ARwYyodc8X5_U?authuser=0&hl=tr&rclk=1",
    "website_url": "https://vampirecamping.ro/",
    "rating_text": "4,3",
    "stars": null,
    "number_of_reviews": null,
    "price_level": "",
    "open_hours": "",
    "extraction_timestamp": "2025-06-07T18:09:51.746Z",
    "source_name": "google",
    "source_query": "Irrigation Equipment",
    "source_country": "RO",
    "country": "Romania",
    "state": "Brașov County",
    "city": "Sohodol"
  },
  {
    "source_id": "ChIJxTlzQ25cs0ARbRRg7VLrKPw",
    "name": "Instal generation",
    "category": "Instal generation",
    "formatted_address": "5,0(5)",
    "phone_number": "+40745189529",
    "source_url": "https://www.google.com/maps/place/Instal+generation/data=!4m7!3m6!1s0x40b35c6e437339c5:0xfc28eb52ed60146d!8m2!3d45.6541089!4d25.63197!16s%2Fg%2F11flzgjjqz!19sChIJxTlzQ25cs0ARbRRg7VLrKPw?authuser=0&hl=tr&rclk=1",
    "website_url": "http://www.instalgeneration.ro/",
    "rating_text": "5,0",
    "stars": null,
    "number_of_reviews": null,
    "price_level": "",
    "open_hours": "",
    "extraction_timestamp": "2025-06-07T18:09:51.748Z",
    "source_name": "google",
    "source_query": "Irrigation Equipment",
    "source_country": "RO",
    "country": "Romania",
    "state": "Brașov County",
    "city": "Sohodol"
  }
]
