[
  {
    "source_id": "ChIJ9Zd2jX9ds0AROE-qFBs59r4",
    "name": "IZORARE ECOSYSTEM S.R.L.",
    "category": "IZORARE ECOSYSTEM S.R.L.",
    "formatted_address": "4,7(15)",
    "phone_number": "+40752529099",
    "source_url": "https://www.google.com/maps/place/IZORARE+ECOSYSTEM+S.R.L./data=!4m7!3m6!1s0x40b35d7f8d7697f5:0xbef6391b14aa4f38!8m2!3d45.6255463!4d25.6934206!16s%2Fg%2F1yg93q4n0!19sChIJ9Zd2jX9ds0AROE-qFBs59r4?authuser=0&hl=tr&rclk=1",
    "website_url": "",
    "rating_text": "4,7",
    "stars": null,
    "number_of_reviews": null,
    "price_level": "",
    "open_hours": "",
    "extraction_timestamp": "2025-06-07T18:20:47.811Z",
    "source_name": "google",
    "source_query": "Irrigation Equipment",
    "source_country": "RO",
    "country": "Romania",
    "state": "Brașov County",
    "city": "Săcele"
  },
  {
    "source_id": "ChIJ2U1dOBFds0ARVahiJzcRMfY",
    "name": "Hidraulica",
    "category": "Hidraulica",
    "formatted_address": "4,3(126)",
    "phone_number": "+40268276526",
    "source_url": "https://www.google.com/maps/place/Hidraulica/data=!4m7!3m6!1s0x40b35d11385d4dd9:0xf63111372762a855!8m2!3d45.6182657!4d25.6645712!16s%2Fg%2F1xb2c1vz!19sChIJ2U1dOBFds0ARVahiJzcRMfY?authuser=0&hl=tr&rclk=1",
    "website_url": "",
    "rating_text": "4,3",
    "stars": null,
    "number_of_reviews": null,
    "price_level": "",
    "open_hours": "",
    "extraction_timestamp": "2025-06-07T18:20:47.813Z",
    "source_name": "google",
    "source_query": "Irrigation Equipment",
    "source_country": "RO",
    "country": "Romania",
    "state": "Brașov County",
    "city": "Săcele"
  },
  {
    "source_id": "ChIJrQ897ttds0ARhdWdpolRtbY",
    "name": "Instal Carpatica",
    "category": "Instal Carpatica",
    "formatted_address": "4,8(12)",
    "phone_number": "+40372919332",
    "source_url": "https://www.google.com/maps/place/Instal+Carpatica/data=!4m7!3m6!1s0x40b35ddbee3d0fad:0xb6b55189a69dd585!8m2!3d45.6182504!4d25.64334!16s%2Fg%2F11fnlthr36!19sChIJrQ897ttds0ARhdWdpolRtbY?authuser=0&hl=tr&rclk=1",
    "website_url": "",
    "rating_text": "4,8",
    "stars": null,
    "number_of_reviews": null,
    "price_level": "",
    "open_hours": "",
    "extraction_timestamp": "2025-06-07T18:20:47.815Z",
    "source_name": "google",
    "source_query": "Irrigation Equipment",
    "source_country": "RO",
    "country": "Romania",
    "state": "Brașov County",
    "city": "Săcele"
  },
  {
    "source_id": "ChIJA3xHTYxcs0ARnkvJueur5W8",
    "name": "Ecoflam SRL",
    "category": "Ecoflam SRL",
    "formatted_address": "4,2(55)",
    "phone_number": "+40368401281",
    "source_url": "https://www.google.com/maps/place/Ecoflam+SRL/data=!4m7!3m6!1s0x40b35c8c4d477c03:0x6fe5abebb9c94b9e!8m2!3d45.6322993!4d25.6235519!16s%2Fg%2F11cs29g8qn!19sChIJA3xHTYxcs0ARnkvJueur5W8?authuser=0&hl=tr&rclk=1",
    "website_url": "",
    "rating_text": "4,2",
    "stars": null,
    "number_of_reviews": null,
    "price_level": "",
    "open_hours": "",
    "extraction_timestamp": "2025-06-07T18:20:47.816Z",
    "source_name": "google",
    "source_query": "Irrigation Equipment",
    "source_country": "RO",
    "country": "Romania",
    "state": "Brașov County",
    "city": "Săcele"
  },
  {
    "source_id": "ChIJw3Q44XFds0AR8u9CbY7dTnU",
    "name": "Magazinul Fermierului Yurta - Sacele",
    "category": "Magazinul Fermierului Yurta - Sacele",
    "formatted_address": "4,2(54)",
    "phone_number": "+40730040037",
    "source_url": "https://www.google.com/maps/place/Magazinul+Fermierului+Yurta+-+Sacele/data=!4m7!3m6!1s0x40b35d71e13874c3:0x754edd8e6d42eff2!8m2!3d45.6181634!4d25.6840944!16s%2Fg%2F1hf2tzbl2!19sChIJw3Q44XFds0AR8u9CbY7dTnU?authuser=0&hl=tr&rclk=1",
    "website_url": "",
    "rating_text": "4,2",
    "stars": null,
    "number_of_reviews": null,
    "price_level": "",
    "open_hours": "",
    "extraction_timestamp": "2025-06-07T18:20:47.818Z",
    "source_name": "google",
    "source_query": "Irrigation Equipment",
    "source_country": "RO",
    "country": "Romania",
    "state": "Brașov County",
    "city": "Săcele"
  },
  {
    "source_id": "ChIJ7ea_UCJns0ARwR0N6SCrfd8",
    "name": "Master House Grup",
    "category": "Master House Grup",
    "formatted_address": "4,8(61)",
    "phone_number": "+40744835332",
    "source_url": "https://www.google.com/maps/place/Master+House+Grup/data=!4m7!3m6!1s0x40b3672250bfe6ed:0xdf7dab20e90d1dc1!8m2!3d45.6178159!4d25.7190381!16s%2Fg%2F11rrrs359l!19sChIJ7ea_UCJns0ARwR0N6SCrfd8?authuser=0&hl=tr&rclk=1",
    "website_url": "",
    "rating_text": "4,8",
    "stars": null,
    "number_of_reviews": null,
    "price_level": "",
    "open_hours": "",
    "extraction_timestamp": "2025-06-07T18:20:47.819Z",
    "source_name": "google",
    "source_query": "Irrigation Equipment",
    "source_country": "RO",
    "country": "Romania",
    "state": "Brașov County",
    "city": "Săcele"
  },
  {
    "source_id": "ChIJaQGYLaJbs0ARWezPlclsRcU",
    "name": "AQUAS",
    "category": "AQUAS",
    "formatted_address": "5,0(45)",
    "phone_number": "+40739444400",
    "source_url": "https://www.google.com/maps/place/AQUAS/data=!4m7!3m6!1s0x40b35ba22d980169:0xc5456cc995cfec59!8m2!3d45.6366816!4d25.6207551!16s%2Fg%2F11jt0qxkjm!19sChIJaQGYLaJbs0ARWezPlclsRcU?authuser=0&hl=tr&rclk=1",
    "website_url": "",
    "rating_text": "5,0",
    "stars": null,
    "number_of_reviews": null,
    "price_level": "",
    "open_hours": "",
    "extraction_timestamp": "2025-06-07T18:20:47.820Z",
    "source_name": "google",
    "source_query": "Irrigation Equipment",
    "source_country": "RO",
    "country": "Romania",
    "state": "Brașov County",
    "city": "Săcele"
  },
  {
    "source_id": "ChIJIUIzH_Fcs0ARSb8mlNek1c0",
    "name": "Romstal",
    "category": "Romstal",
    "formatted_address": "4,2(367)",
    "phone_number": "+40372123117",
    "source_url": "https://www.google.com/maps/place/Romstal/data=!4m7!3m6!1s0x40b35cf11f334221:0xcdd5a4d79426bf49!8m2!3d45.6330626!4d25.636574!16s%2Fg%2F12cpmrxnc!19sChIJIUIzH_Fcs0ARSb8mlNek1c0?authuser=0&hl=tr&rclk=1",
    "website_url": "",
    "rating_text": "4,2",
    "stars": null,
    "number_of_reviews": null,
    "price_level": "",
    "open_hours": "",
    "extraction_timestamp": "2025-06-07T18:20:47.851Z",
    "source_name": "google",
    "source_query": "Irrigation Equipment",
    "source_country": "RO",
    "country": "Romania",
    "state": "Brașov County",
    "city": "Săcele"
  },
  {
    "source_id": "ChIJQQTnl2xds0ARYC468LNtdiw",
    "name": "REAX S.R.L.",
    "category": "REAX S.R.L.",
    "formatted_address": "4,6(64)",
    "phone_number": "+40722469469",
    "source_url": "https://www.google.com/maps/place/REAX+S.R.L./data=!4m7!3m6!1s0x40b35d6c97e70441:0x2c766db3f03a2e60!8m2!3d45.6200496!4d25.6660582!16s%2Fg%2F1hc884zz_!19sChIJQQTnl2xds0ARYC468LNtdiw?authuser=0&hl=tr&rclk=1",
    "website_url": "",
    "rating_text": "4,6",
    "stars": null,
    "number_of_reviews": null,
    "price_level": "",
    "open_hours": "",
    "extraction_timestamp": "2025-06-07T18:20:47.853Z",
    "source_name": "google",
    "source_query": "Irrigation Equipment",
    "source_country": "RO",
    "country": "Romania",
    "state": "Brașov County",
    "city": "Săcele"
  },
  {
    "source_id": "ChIJf7snJ3xds0ARg_ROIKmH_wQ",
    "name": "Sipcarp - Universul pescarilor - Articole de pescuit",
    "category": "Sipcarp - Universul pescarilor - Articole de pescuit",
    "formatted_address": "4,8(193)",
    "phone_number": "+40730512755",
    "source_url": "https://www.google.com/maps/place/Sipcarp+-+Universul+pescarilor+-+Articole+de+pescuit/data=!4m7!3m6!1s0x40b35d7c2727bb7f:0x4ff87a9204ef483!8m2!3d45.6186901!4d25.7014535!16s%2Fg%2F1hdzjx1kv!19sChIJf7snJ3xds0ARg_ROIKmH_wQ?authuser=0&hl=tr&rclk=1",
    "website_url": "",
    "rating_text": "4,8",
    "stars": null,
    "number_of_reviews": null,
    "price_level": "",
    "open_hours": "",
    "extraction_timestamp": "2025-06-07T18:20:47.854Z",
    "source_name": "google",
    "source_query": "Irrigation Equipment",
    "source_country": "RO",
    "country": "Romania",
    "state": "Brașov County",
    "city": "Săcele"
  },
  {
    "source_id": "ChIJF6waY_pcs0AR3kyA4lIVgZk",
    "name": "Brico Depot",
    "category": "Brico Depot",
    "formatted_address": "4,1(1.650)",
    "phone_number": "+40212043434",
    "source_url": "https://www.google.com/maps/place/Brico+Depot/data=!4m7!3m6!1s0x40b35cfa631aac17:0x99811552e2804cde!8m2!3d45.6306858!4d25.6401593!16s%2Fg%2F1tj83byg!19sChIJF6waY_pcs0AR3kyA4lIVgZk?authuser=0&hl=tr&rclk=1",
    "website_url": "",
    "rating_text": "4,1",
    "stars": null,
    "number_of_reviews": null,
    "price_level": "",
    "open_hours": "",
    "extraction_timestamp": "2025-06-07T18:20:47.857Z",
    "source_name": "google",
    "source_query": "Irrigation Equipment",
    "source_country": "RO",
    "country": "Romania",
    "state": "Brașov County",
    "city": "Săcele"
  },
  {
    "source_id": "ChIJaXQwfVRds0ARD_ZSnJz3Hxc",
    "name": "R&V Instal Brasov Srl",
    "category": "R&V Instal Brasov Srl",
    "formatted_address": "3,0(2)",
    "phone_number": "+40747455535",
    "source_url": "https://www.google.com/maps/place/R%26V+Instal+Brasov+Srl/data=!4m7!3m6!1s0x40b35d547d307469:0x171ff79c9c52f60f!8m2!3d45.6116079!4d25.7245872!16s%2Fg%2F11qn82nrfn!19sChIJaXQwfVRds0ARD_ZSnJz3Hxc?authuser=0&hl=tr&rclk=1",
    "website_url": "",
    "rating_text": "3,0",
    "stars": null,
    "number_of_reviews": null,
    "price_level": "",
    "open_hours": "",
    "extraction_timestamp": "2025-06-07T18:20:47.859Z",
    "source_name": "google",
    "source_query": "Irrigation Equipment",
    "source_country": "RO",
    "country": "Romania",
    "state": "Brașov County",
    "city": "Săcele"
  },
  {
    "source_id": "ChIJRcFtrApns0ARxqlpvusUB98",
    "name": "Piața Agro-Alimentară",
    "category": "Piața Agro-Alimentară",
    "formatted_address": "4,2(22)",
    "phone_number": "",
    "source_url": "https://www.google.com/maps/place/Pia%C8%9Ba+Agro-Alimentar%C4%83/data=!4m7!3m6!1s0x40b3670aac6dc145:0xdf0714ebbe69a9c6!8m2!3d45.6155826!4d25.7200367!16s%2Fg%2F11h1yg568x!19sChIJRcFtrApns0ARxqlpvusUB98?authuser=0&hl=tr&rclk=1",
    "website_url": "",
    "rating_text": "4,2",
    "stars": null,
    "number_of_reviews": null,
    "price_level": "",
    "open_hours": "",
    "extraction_timestamp": "2025-06-07T18:20:47.860Z",
    "source_name": "google",
    "source_query": "Irrigation Equipment",
    "source_country": "RO",
    "country": "Romania",
    "state": "Brașov County",
    "city": "Săcele"
  },
  {
    "source_id": "ChIJocUrAyZds0ARSF-q3B7sEB0",
    "name": "Service Damianis - Mecanica si Vopsitorie Brasov",
    "category": "Service Damianis - Mecanica si Vopsitorie Brasov",
    "formatted_address": "Oto Tamirhanesi · vis a vis de OMV, Calea București 17Kapalı ⋅ Açılış zamanı: Pzt 09:00 · +40 763 549 921",
    "phone_number": "+40763549921",
    "source_url": "https://www.google.com/maps/place/Service+Damianis+-+Mecanica+si+Vopsitorie+Brasov/data=!4m7!3m6!1s0x40b35d26032bc5a1:0x1d10ec1edcaa5f48!8m2!3d45.6085473!4d25.6585627!16s%2Fg%2F11xf2_10ry!19sChIJocUrAyZds0ARSF-q3B7sEB0?authuser=0&hl=tr&rclk=1",
    "website_url": "",
    "rating_text": "",
    "stars": null,
    "number_of_reviews": null,
    "price_level": "",
    "open_hours": "",
    "extraction_timestamp": "2025-06-07T18:20:47.861Z",
    "source_name": "google",
    "source_query": "Irrigation Equipment",
    "source_country": "RO",
    "country": "Romania",
    "state": "Brașov County",
    "city": "Săcele"
  },
  {
    "source_id": "ChIJJw8mZhFds0ARiK_cacl5BaY",
    "name": "Arinovis Brașov - Săcele",
    "category": "Arinovis Brașov - Săcele",
    "formatted_address": "4,3(250)",
    "phone_number": "+40722624634",
    "source_url": "https://www.google.com/maps/place/Arinovis+Bra%C8%99ov+-+S%C4%83cele/data=!4m7!3m6!1s0x40b35d1166260f27:0xa60579c969dcaf88!8m2!3d45.6197727!4d25.6663471!16s%2Fg%2F1vnrjj7r!19sChIJJw8mZhFds0ARiK_cacl5BaY?authuser=0&hl=tr&rclk=1",
    "website_url": "",
    "rating_text": "4,3",
    "stars": null,
    "number_of_reviews": null,
    "price_level": "",
    "open_hours": "",
    "extraction_timestamp": "2025-06-07T18:20:47.862Z",
    "source_name": "google",
    "source_query": "Irrigation Equipment",
    "source_country": "RO",
    "country": "Romania",
    "state": "Brașov County",
    "city": "Săcele"
  },
  {
    "source_id": "ChIJBWxRW4lcs0AR4johcYtY_Us",
    "name": "Hod-Chimex",
    "category": "Hod-Chimex",
    "formatted_address": "4,3(110)",
    "phone_number": "+40268320340",
    "source_url": "https://www.google.com/maps/place/Hod-Chimex/data=!4m7!3m6!1s0x40b35c895b516c05:0x4bfd588b71213ae2!8m2!3d45.6388375!4d25.6217574!16s%2Fg%2F1wrtbc6q!19sChIJBWxRW4lcs0AR4johcYtY_Us?authuser=0&hl=tr&rclk=1",
    "website_url": "",
    "rating_text": "4,3",
    "stars": null,
    "number_of_reviews": null,
    "price_level": "",
    "open_hours": "",
    "extraction_timestamp": "2025-06-07T18:20:47.864Z",
    "source_name": "google",
    "source_query": "Irrigation Equipment",
    "source_country": "RO",
    "country": "Romania",
    "state": "Brașov County",
    "city": "Săcele"
  },
  {
    "source_id": "ChIJZ2TAKopcs0ARXWJpfgr5Ja0",
    "name": "Ecoflam",
    "category": "Ecoflam",
    "formatted_address": "4,0(3)",
    "phone_number": "+40733670019",
    "source_url": "https://www.google.com/maps/place/Ecoflam/data=!4m7!3m6!1s0x40b35c8a2ac06467:0xad25f90a7e69625d!8m2!3d45.6399864!4d25.6239017!16s%2Fg%2F11hbl8yp52!19sChIJZ2TAKopcs0ARXWJpfgr5Ja0?authuser=0&hl=tr&rclk=1",
    "website_url": "",
    "rating_text": "4,0",
    "stars": null,
    "number_of_reviews": null,
    "price_level": "",
    "open_hours": "",
    "extraction_timestamp": "2025-06-07T18:20:47.865Z",
    "source_name": "google",
    "source_query": "Irrigation Equipment",
    "source_country": "RO",
    "country": "Romania",
    "state": "Brașov County",
    "city": "Săcele"
  },
  {
    "source_id": "ChIJz1vCAntds0ARf1yHjUJVg2g",
    "name": "Comteh Electric S.R.L.",
    "category": "Comteh Electric S.R.L.",
    "formatted_address": "5,0(1)",
    "phone_number": "+40268275589",
    "source_url": "https://www.google.com/maps/place/Comteh+Electric+S.R.L./data=!4m7!3m6!1s0x40b35d7b02c25bcf:0x688355428d875c7f!8m2!3d45.6111901!4d25.7299428!16s%2Fg%2F1td36r9t!19sChIJz1vCAntds0ARf1yHjUJVg2g?authuser=0&hl=tr&rclk=1",
    "website_url": "",
    "rating_text": "5,0",
    "stars": null,
    "number_of_reviews": null,
    "price_level": "",
    "open_hours": "",
    "extraction_timestamp": "2025-06-07T18:20:47.866Z",
    "source_name": "google",
    "source_query": "Irrigation Equipment",
    "source_country": "RO",
    "country": "Romania",
    "state": "Brașov County",
    "city": "Săcele"
  },
  {
    "source_id": "ChIJn8dW4DRds0ARS_9oKbKoBUE",
    "name": "Rosmarkt Sacele",
    "category": "Rosmarkt Sacele",
    "formatted_address": "4,8(78)",
    "phone_number": "+40722101366",
    "source_url": "https://www.google.com/maps/place/Rosmarkt+Sacele/data=!4m7!3m6!1s0x40b35d34e056c79f:0x4105a8b22968ff4b!8m2!3d45.6171298!4d25.6981333!16s%2Fg%2F11j1hpnwlb!19sChIJn8dW4DRds0ARS_9oKbKoBUE?authuser=0&hl=tr&rclk=1",
    "website_url": "",
    "rating_text": "4,8",
    "stars": null,
    "number_of_reviews": null,
    "price_level": "",
    "open_hours": "",
    "extraction_timestamp": "2025-06-07T18:20:47.867Z",
    "source_name": "google",
    "source_query": "Irrigation Equipment",
    "source_country": "RO",
    "country": "Romania",
    "state": "Brașov County",
    "city": "Săcele"
  },
  {
    "source_id": "ChIJxTlzQ25cs0ARbRRg7VLrKPw",
    "name": "Instal generation",
    "category": "Instal generation",
    "formatted_address": "5,0(5)",
    "phone_number": "+40745189529",
    "source_url": "https://www.google.com/maps/place/Instal+generation/data=!4m7!3m6!1s0x40b35c6e437339c5:0xfc28eb52ed60146d!8m2!3d45.6541089!4d25.63197!16s%2Fg%2F11flzgjjqz!19sChIJxTlzQ25cs0ARbRRg7VLrKPw?authuser=0&hl=tr&rclk=1",
    "website_url": "",
    "rating_text": "5,0",
    "stars": null,
    "number_of_reviews": null,
    "price_level": "",
    "open_hours": "",
    "extraction_timestamp": "2025-06-07T18:20:47.868Z",
    "source_name": "google",
    "source_query": "Irrigation Equipment",
    "source_country": "RO",
    "country": "Romania",
    "state": "Brașov County",
    "city": "Săcele"
  },
  {
    "source_id": "ChIJCQayaPpbs0ARhf_zEF9vwQg",
    "name": "SC Agri Sigeva SRL",
    "category": "SC Agri Sigeva SRL",
    "formatted_address": "5,0(2)",
    "phone_number": "+40722529586",
    "source_url": "https://www.google.com/maps/place/SC+Agri+Sigeva+SRL/data=!4m7!3m6!1s0x40b35bfa68b20609:0x8c16f5f10f3ff85!8m2!3d45.6744327!4d25.621811!16s%2Fg%2F1pztj9780!19sChIJCQayaPpbs0ARhf_zEF9vwQg?authuser=0&hl=tr&rclk=1",
    "website_url": "",
    "rating_text": "5,0",
    "stars": null,
    "number_of_reviews": null,
    "price_level": "",
    "open_hours": "",
    "extraction_timestamp": "2025-06-07T18:20:47.869Z",
    "source_name": "google",
    "source_query": "Irrigation Equipment",
    "source_country": "RO",
    "country": "Romania",
    "state": "Brașov County",
    "city": "Săcele"
  },
  {
    "source_id": "ChIJWeFfS-lds0AR9yE35V1sBkU",
    "name": "Area 21 forest",
    "category": "Area 21 forest",
    "formatted_address": "Area 21 forest",
    "phone_number": "+40756621842",
    "source_url": "https://www.google.com/maps/place/Area+21+forest/data=!4m7!3m6!1s0x40b35de94b5fe159:0x45066c5de53721f7!8m2!3d45.6512788!4d25.6184938!16s%2Fg%2F11t3gz3yzc!19sChIJWeFfS-lds0AR9yE35V1sBkU?authuser=0&hl=tr&rclk=1",
    "website_url": "",
    "rating_text": "5,0",
    "stars": null,
    "number_of_reviews": null,
    "price_level": "",
    "open_hours": "",
    "extraction_timestamp": "2025-06-07T18:20:47.870Z",
    "source_name": "google",
    "source_query": "Irrigation Equipment",
    "source_country": "RO",
    "country": "Romania",
    "state": "Brașov County",
    "city": "Săcele"
  },
  {
    "source_id": "ChIJA7B1Z2Zds0ARur30HS3Ah04",
    "name": "instalator brasov NON STOP sanitare termice",
    "category": "instalator brasov NON STOP sanitare termice",
    "formatted_address": "4,2(33)",
    "phone_number": "+40755189138",
    "source_url": "https://www.google.com/maps/place/instalator+brasov+NON+STOP+sanitare+termice/data=!4m7!3m6!1s0x40b35d666775b003:0x4e87c02d1df4bdba!8m2!3d45.655991!4d25.6178539!16s%2Fg%2F11h7b34qd_!19sChIJA7B1Z2Zds0ARur30HS3Ah04?authuser=0&hl=tr&rclk=1",
    "website_url": "",
    "rating_text": "4,2",
    "stars": null,
    "number_of_reviews": null,
    "price_level": "",
    "open_hours": "",
    "extraction_timestamp": "2025-06-07T18:20:47.872Z",
    "source_name": "google",
    "source_query": "Irrigation Equipment",
    "source_country": "RO",
    "country": "Romania",
    "state": "Brașov County",
    "city": "Săcele"
  },
  {
    "source_id": "ChIJtRDaNxVds0ARH0zYzm8DWbE",
    "name": "CHIRILA INSTAL",
    "category": "CHIRILA INSTAL",
    "formatted_address": "5,0(17)",
    "phone_number": "+40734108310",
    "source_url": "https://www.google.com/maps/place/CHIRILA+INSTAL/data=!4m7!3m6!1s0x40b35d1537da10b5:0xb159036fced84c1f!8m2!3d45.651787!4d25.6309351!16s%2Fg%2F11vt09sry_!19sChIJtRDaNxVds0ARH0zYzm8DWbE?authuser=0&hl=tr&rclk=1",
    "website_url": "",
    "rating_text": "5,0",
    "stars": null,
    "number_of_reviews": null,
    "price_level": "",
    "open_hours": "",
    "extraction_timestamp": "2025-06-07T18:20:47.873Z",
    "source_name": "google",
    "source_query": "Irrigation Equipment",
    "source_country": "RO",
    "country": "Romania",
    "state": "Brașov County",
    "city": "Săcele"
  },
  {
    "source_id": "ChIJNQavzEFds0ARge4fIXKd1lA",
    "name": "Smart Power Consulting",
    "category": "Smart Power Consulting",
    "formatted_address": "4,0(1)",
    "phone_number": "+40730636711",
    "source_url": "https://www.google.com/maps/place/Smart+Power+Consulting/data=!4m7!3m6!1s0x40b35d41ccaf0635:0x50d69d72211fee81!8m2!3d45.6514777!4d25.61525!16s%2Fg%2F11h3mb816r!19sChIJNQavzEFds0ARge4fIXKd1lA?authuser=0&hl=tr&rclk=1",
    "website_url": "",
    "rating_text": "4,0",
    "stars": null,
    "number_of_reviews": null,
    "price_level": "",
    "open_hours": "",
    "extraction_timestamp": "2025-06-07T18:20:47.874Z",
    "source_name": "google",
    "source_query": "Irrigation Equipment",
    "source_country": "RO",
    "country": "Romania",
    "state": "Brașov County",
    "city": "Săcele"
  },
  {
    "source_id": "ChIJe_tU3Bhbs0ARYNkGVHO5YKE",
    "name": "HIDROstore Brașov",
    "category": "HIDROstore Brașov",
    "formatted_address": "5,0(13)",
    "phone_number": "+40771576228",
    "source_url": "https://www.google.com/maps/place/HIDROstore+Bra%C8%99ov/data=!4m7!3m6!1s0x40b35b18dc54fb7b:0xa160b9735406d960!8m2!3d45.6734944!4d25.5800351!16s%2Fg%2F11w8pn_mjw!19sChIJe_tU3Bhbs0ARYNkGVHO5YKE?authuser=0&hl=tr&rclk=1",
    "website_url": "",
    "rating_text": "5,0",
    "stars": null,
    "number_of_reviews": null,
    "price_level": "",
    "open_hours": "",
    "extraction_timestamp": "2025-06-07T18:20:47.875Z",
    "source_name": "google",
    "source_query": "Irrigation Equipment",
    "source_country": "RO",
    "country": "Romania",
    "state": "Brașov County",
    "city": "Săcele"
  }
]
