[
  {
    "source_id": "ChIJaQzqLmZcs0ARU6r3VaUK6iE",
    "name": "AKRO S.R.L.",
    "category": "AKRO S.R.L.",
    "formatted_address": "4,7(13)",
    "phone_number": "+40268413180",
    "source_url": "https://www.google.com/maps/place/AKRO+S.R.L./data=!4m7!3m6!1s0x40b35c662eea0c69:0x21ea0aa555f7aa53!8m2!3d45.6485042!4d25.6406578!16s%2Fg%2F1hc250gs3!19sChIJaQzqLmZcs0ARU6r3VaUK6iE?authuser=0&hl=tr&rclk=1",
    "website_url": "https://www.akro.ro/",
    "rating_text": "4,7",
    "stars": null,
    "number_of_reviews": null,
    "price_level": "",
    "open_hours": "",
    "extraction_timestamp": "2025-06-07T18:14:38.342Z",
    "source_name": "google",
    "source_query": "Irrigation Equipment",
    "source_country": "RO",
    "country": "Romania",
    "state": "Brașov County",
    "city": "Ticuşu Vechi"
  },
  {
    "source_id": "ChIJ05s_Msdbs0ARtWqcVmxiNmM",
    "name": "Industrial Plast SRL",
    "category": "Industrial Plast SRL",
    "formatted_address": "4,3(25)",
    "phone_number": "+40749270460",
    "source_url": "https://www.google.com/maps/place/Industrial+Plast+SRL/data=!4m7!3m6!1s0x40b35bc7323f9bd3:0x6336626c569c6ab5!8m2!3d45.6723806!4d25.5907429!16s%2Fg%2F113g7jczx!19sChIJ05s_Msdbs0ARtWqcVmxiNmM?authuser=0&hl=tr&rclk=1",
    "website_url": "http://www.industrialplast.ro/",
    "rating_text": "4,3",
    "stars": null,
    "number_of_reviews": null,
    "price_level": "",
    "open_hours": "",
    "extraction_timestamp": "2025-06-07T18:14:38.342Z",
    "source_name": "google",
    "source_query": "Irrigation Equipment",
    "source_country": "RO",
    "country": "Romania",
    "state": "Brașov County",
    "city": "Ticuşu Vechi"
  },
  {
    "source_id": "ChIJTX9LMJRds0ARd-cJF3vWNj8",
    "name": "Epinvest SRL, Brasov",
    "category": "Epinvest SRL, Brasov",
    "formatted_address": "Epinvest SRL, Brasov",
    "phone_number": "+40368008089",
    "source_url": "https://www.google.com/maps/place/Epinvest+SRL,+Brasov/data=!4m7!3m6!1s0x40b35d94304b7f4d:0x3f36d67b1709e777!8m2!3d45.6717876!4d25.5757741!16s%2Fg%2F11jtb40gf1!19sChIJTX9LMJRds0ARd-cJF3vWNj8?authuser=0&hl=tr&rclk=1",
    "website_url": "http://epinvest.ro/",
    "rating_text": "4,5",
    "stars": null,
    "number_of_reviews": null,
    "price_level": "",
    "open_hours": "",
    "extraction_timestamp": "2025-06-07T18:14:38.347Z",
    "source_name": "google",
    "source_query": "Irrigation Equipment",
    "source_country": "RO",
    "country": "Romania",
    "state": "Brașov County",
    "city": "Ticuşu Vechi"
  },
  {
    "source_id": "ChIJ1S8EiMZZs0AR86hmbkUN9ow",
    "name": "Ipso Agricultura Brașov",
    "category": "Ipso Agricultura Brașov",
    "formatted_address": "4,8(12)",
    "phone_number": "+40374438921",
    "source_url": "https://www.google.com/maps/place/Ipso+Agricultura+Bra%C8%99ov/data=!4m7!3m6!1s0x40b359c688042fd5:0x8cf60d456e66a8f3!8m2!3d45.7007612!4d25.5811096!16s%2Fg%2F11h_dq5c17!19sChIJ1S8EiMZZs0AR86hmbkUN9ow?authuser=0&hl=tr&rclk=1",
    "website_url": "http://www.ipso.ro/",
    "rating_text": "4,8",
    "stars": null,
    "number_of_reviews": null,
    "price_level": "",
    "open_hours": "",
    "extraction_timestamp": "2025-06-07T18:14:38.348Z",
    "source_name": "google",
    "source_query": "Irrigation Equipment",
    "source_country": "RO",
    "country": "Romania",
    "state": "Brașov County",
    "city": "Ticuşu Vechi"
  },
  {
    "source_id": "ChIJxTlzQ25cs0ARbRRg7VLrKPw",
    "name": "Instal generation",
    "category": "Instal generation",
    "formatted_address": "5,0(5)",
    "phone_number": "+40745189529",
    "source_url": "https://www.google.com/maps/place/Instal+generation/data=!4m7!3m6!1s0x40b35c6e437339c5:0xfc28eb52ed60146d!8m2!3d45.6541089!4d25.63197!16s%2Fg%2F11flzgjjqz!19sChIJxTlzQ25cs0ARbRRg7VLrKPw?authuser=0&hl=tr&rclk=1",
    "website_url": "http://www.instalgeneration.ro/",
    "rating_text": "5,0",
    "stars": null,
    "number_of_reviews": null,
    "price_level": "",
    "open_hours": "",
    "extraction_timestamp": "2025-06-07T18:14:38.349Z",
    "source_name": "google",
    "source_query": "Irrigation Equipment",
    "source_country": "RO",
    "country": "Romania",
    "state": "Brașov County",
    "city": "Ticuşu Vechi"
  },
  {
    "source_id": "ChIJCQayaPpbs0ARhf_zEF9vwQg",
    "name": "SC Agri Sigeva SRL",
    "category": "SC Agri Sigeva SRL",
    "formatted_address": "5,0(2)",
    "phone_number": "+40722529586",
    "source_url": "https://www.google.com/maps/place/SC+Agri+Sigeva+SRL/data=!4m7!3m6!1s0x40b35bfa68b20609:0x8c16f5f10f3ff85!8m2!3d45.6744327!4d25.621811!16s%2Fg%2F1pztj9780!19sChIJCQayaPpbs0ARhf_zEF9vwQg?authuser=0&hl=tr&rclk=1",
    "website_url": "",
    "rating_text": "5,0",
    "stars": null,
    "number_of_reviews": null,
    "price_level": "",
    "open_hours": "",
    "extraction_timestamp": "2025-06-07T18:14:38.350Z",
    "source_name": "google",
    "source_query": "Irrigation Equipment",
    "source_country": "RO",
    "country": "Romania",
    "state": "Brașov County",
    "city": "Ticuşu Vechi"
  },
  {
    "source_id": "ChIJE3GIErNz2GIRnMvSnu8JXWQ",
    "name": "Landscaping company",
    "category": "Landscaping company",
    "formatted_address": "4,9(30)",
    "phone_number": "+40755652974",
    "source_url": "https://www.google.com/maps/place/Landscaping+company/data=!4m7!3m6!1s0x62d873b312887113:0x645d09ef9ed2cb9c!8m2!3d45.6928902!4d25.6184328!16s%2Fg%2F11rqs5xt47!19sChIJE3GIErNz2GIRnMvSnu8JXWQ?authuser=0&hl=tr&rclk=1",
    "website_url": "",
    "rating_text": "4,9",
    "stars": null,
    "number_of_reviews": null,
    "price_level": "",
    "open_hours": "",
    "extraction_timestamp": "2025-06-07T18:14:38.351Z",
    "source_name": "google",
    "source_query": "Irrigation Equipment",
    "source_country": "RO",
    "country": "Romania",
    "state": "Brașov County",
    "city": "Ticuşu Vechi"
  },
  {
    "source_id": "ChIJiYrW93hcs0ARpKmOIL1sTuI",
    "name": "Valinst Agriculture",
    "category": "Valinst Agriculture",
    "formatted_address": "5,0(1)",
    "phone_number": "+40730330543",
    "source_url": "https://www.google.com/maps/place/Valinst+Agriculture/data=!4m7!3m6!1s0x40b35c78f7d68a89:0xe24e6cbd208ea9a4!8m2!3d45.6527567!4d25.6143965!16s%2Fg%2F11hf04lgwp!19sChIJiYrW93hcs0ARpKmOIL1sTuI?authuser=0&hl=tr&rclk=1",
    "website_url": "http://www.valinst.ro/en/contact",
    "rating_text": "5,0",
    "stars": null,
    "number_of_reviews": null,
    "price_level": "",
    "open_hours": "",
    "extraction_timestamp": "2025-06-07T18:14:38.352Z",
    "source_name": "google",
    "source_query": "Irrigation Equipment",
    "source_country": "RO",
    "country": "Romania",
    "state": "Brașov County",
    "city": "Ticuşu Vechi"
  },
  {
    "source_id": "ChIJYRmWaqJbs0ARvsb1duCtxyI",
    "name": "TehnoSting Echipamente",
    "category": "TehnoSting Echipamente",
    "formatted_address": "4,9(7)",
    "phone_number": "+40751216567",
    "source_url": "https://www.google.com/maps/place/TehnoSting+Echipamente/data=!4m7!3m6!1s0x40b35ba26a961961:0x22c7ade076f5c6be!8m2!3d45.6899168!4d25.5825047!16s%2Fg%2F1hm54zcx1!19sChIJYRmWaqJbs0ARvsb1duCtxyI?authuser=0&hl=tr&rclk=1",
    "website_url": "http://www.tehnostingechipamente.ro/",
    "rating_text": "4,9",
    "stars": null,
    "number_of_reviews": null,
    "price_level": "",
    "open_hours": "",
    "extraction_timestamp": "2025-06-07T18:14:38.353Z",
    "source_name": "google",
    "source_query": "Irrigation Equipment",
    "source_country": "RO",
    "country": "Romania",
    "state": "Brașov County",
    "city": "Ticuşu Vechi"
  },
  {
    "source_id": "ChIJpRLHLAFbs0AR4aOqN_hsDuc",
    "name": "Gruppo Valinst",
    "category": "Gruppo Valinst",
    "formatted_address": "",
    "phone_number": "+40729931509",
    "source_url": "https://www.google.com/maps/place/Gruppo+Valinst/data=!4m7!3m6!1s0x40b35b012cc712a5:0xe70e6cf837aaa3e1!8m2!3d45.65515!4d25.5586001!16s%2Fg%2F1hc3rk913!19sChIJpRLHLAFbs0AR4aOqN_hsDuc?authuser=0&hl=tr&rclk=1",
    "website_url": "https://www.valinst.ro/ro/instalatii-de-irigat/universal-liniare",
    "rating_text": "",
    "stars": null,
    "number_of_reviews": null,
    "price_level": "",
    "open_hours": "",
    "extraction_timestamp": "2025-06-07T18:14:38.353Z",
    "source_name": "google",
    "source_query": "Irrigation Equipment",
    "source_country": "RO",
    "country": "Romania",
    "state": "Brașov County",
    "city": "Ticuşu Vechi"
  }
]
