[
  {
    "source_id": "ChIJ2as1xEpns0ARy-MUnsk08Ss",
    "name": "Magazinul Instalatorului - Tărlungeni - Kondaco III",
    "category": "Magazinul Instalatorului - Tărlungeni - Kondaco III",
    "formatted_address": "4,7(11)",
    "phone_number": "+40729957948",
    "source_url": "https://www.google.com/maps/place/Magazinul+Instalatorului+-+T%C4%83rlungeni+-+Kondaco+III/data=!4m7!3m6!1s0x40b3674ac435abd9:0x2bf134c99e14e3cb!8m2!3d45.6480392!4d25.7647329!16s%2Fg%2F11b907pvv7!19sChIJ2as1xEpns0ARy-MUnsk08Ss?authuser=0&hl=tr&rclk=1",
    "website_url": "",
    "rating_text": "4,7",
    "stars": null,
    "number_of_reviews": null,
    "price_level": "",
    "open_hours": "",
    "extraction_timestamp": "2025-06-07T18:26:29.746Z",
    "source_name": "google",
    "source_query": "Irrigation Equipment",
    "source_country": "RO",
    "country": "Romania",
    "state": "Brașov County",
    "city": "Tărlungeni"
  },
  {
    "source_id": "ChIJozYnuDVhs0ARXq9ey5krMSE",
    "name": "Materiale de construcții - Kondaco Tarlungeni",
    "category": "Materiale de construcții - Kondaco Tarlungeni",
    "formatted_address": "5,0(7)",
    "phone_number": "+40736643879",
    "source_url": "https://www.google.com/maps/place/Materiale+de+construc%C8%9Bii+-+Kondaco+Tarlungeni/data=!4m7!3m6!1s0x40b36135b82736a3:0x21312b99cb5eaf5e!8m2!3d45.6552987!4d25.7609319!16s%2Fg%2F11k_n_m6kl!19sChIJozYnuDVhs0ARXq9ey5krMSE?authuser=0&hl=tr&rclk=1",
    "website_url": "http://kondaco.ro/",
    "rating_text": "5,0",
    "stars": null,
    "number_of_reviews": null,
    "price_level": "",
    "open_hours": "",
    "extraction_timestamp": "2025-06-07T18:26:29.747Z",
    "source_name": "google",
    "source_query": "Irrigation Equipment",
    "source_country": "RO",
    "country": "Romania",
    "state": "Brașov County",
    "city": "Tărlungeni"
  },
  {
    "source_id": "ChIJde0HW_Zbs0ARCJnHniYJ4kE",
    "name": "Depozit materiale instalatii apa, gaz, sanitare - Erata Impex",
    "category": "Depozit materiale instalatii apa, gaz, sanitare - Erata Impex",
    "formatted_address": "Depozit materiale instalatii apa, gaz, sanitare - Erata Impex",
    "phone_number": "+40268548038",
    "source_url": "https://www.google.com/maps/place/Depozit+materiale+instalatii+apa,+gaz,+sanitare+-+Erata+Impex/data=!4m7!3m6!1s0x40b35bf65b07ed75:0x41e209269ec79908!8m2!3d45.6704757!4d25.6211107!16s%2Fg%2F1ptwws04c!19sChIJde0HW_Zbs0ARCJnHniYJ4kE?authuser=0&hl=tr&rclk=1",
    "website_url": "https://www.erata.ro/",
    "rating_text": "4,3",
    "stars": null,
    "number_of_reviews": null,
    "price_level": "",
    "open_hours": "",
    "extraction_timestamp": "2025-06-07T18:26:29.747Z",
    "source_name": "google",
    "source_query": "Irrigation Equipment",
    "source_country": "RO",
    "country": "Romania",
    "state": "Brașov County",
    "city": "Tărlungeni"
  },
  {
    "source_id": "ChIJgfR3ZEVns0ARc4W6RdjAAZw",
    "name": "Târgul Auto Tărlungeni",
    "category": "Târgul Auto Tărlungeni",
    "formatted_address": "3,4(725)",
    "phone_number": "",
    "source_url": "https://www.google.com/maps/place/T%C3%A2rgul+Auto+T%C4%83rlungeni/data=!4m7!3m6!1s0x40b367456477f481:0x9c01c0d845ba8573!8m2!3d45.642153!4d25.7484664!16s%2Fg%2F1v_0h85t!19sChIJgfR3ZEVns0ARc4W6RdjAAZw?authuser=0&hl=tr&rclk=1",
    "website_url": "",
    "rating_text": "3,4",
    "stars": null,
    "number_of_reviews": null,
    "price_level": "",
    "open_hours": "",
    "extraction_timestamp": "2025-06-07T18:26:29.747Z",
    "source_name": "google",
    "source_query": "Irrigation Equipment",
    "source_country": "RO",
    "country": "Romania",
    "state": "Brașov County",
    "city": "Tărlungeni"
  },
  {
    "source_id": "ChIJCQayaPpbs0ARhf_zEF9vwQg",
    "name": "SC Agri Sigeva SRL",
    "category": "SC Agri Sigeva SRL",
    "formatted_address": "5,0(2)",
    "phone_number": "+40722529586",
    "source_url": "https://www.google.com/maps/place/SC+Agri+Sigeva+SRL/data=!4m7!3m6!1s0x40b35bfa68b20609:0x8c16f5f10f3ff85!8m2!3d45.6744327!4d25.621811!16s%2Fg%2F1pztj9780!19sChIJCQayaPpbs0ARhf_zEF9vwQg?authuser=0&hl=tr&rclk=1",
    "website_url": "",
    "rating_text": "5,0",
    "stars": null,
    "number_of_reviews": null,
    "price_level": "",
    "open_hours": "",
    "extraction_timestamp": "2025-06-07T18:26:29.748Z",
    "source_name": "google",
    "source_query": "Irrigation Equipment",
    "source_country": "RO",
    "country": "Romania",
    "state": "Brașov County",
    "city": "Tărlungeni"
  },
  {
    "source_id": "ChIJxTlzQ25cs0ARbRRg7VLrKPw",
    "name": "Instal generation",
    "category": "Instal generation",
    "formatted_address": "5,0(5)",
    "phone_number": "+40745189529",
    "source_url": "https://www.google.com/maps/place/Instal+generation/data=!4m7!3m6!1s0x40b35c6e437339c5:0xfc28eb52ed60146d!8m2!3d45.6541089!4d25.63197!16s%2Fg%2F11flzgjjqz!19sChIJxTlzQ25cs0ARbRRg7VLrKPw?authuser=0&hl=tr&rclk=1",
    "website_url": "http://www.instalgeneration.ro/",
    "rating_text": "5,0",
    "stars": null,
    "number_of_reviews": null,
    "price_level": "",
    "open_hours": "",
    "extraction_timestamp": "2025-06-07T18:26:29.748Z",
    "source_name": "google",
    "source_query": "Irrigation Equipment",
    "source_country": "RO",
    "country": "Romania",
    "state": "Brașov County",
    "city": "Tărlungeni"
  },
  {
    "source_id": "ChIJ75U28UJcs0ARn5rOXEMHehs",
    "name": "Romradiatoare",
    "category": "Romradiatoare",
    "formatted_address": "4,6(17)",
    "phone_number": "+40268317550",
    "source_url": "https://www.google.com/maps/place/Romradiatoare/data=!4m7!3m6!1s0x40b35c42f13695ef:0x1b7a07435cce9a9f!8m2!3d45.6505059!4d25.6439921!16s%2Fg%2F1tfz_l60!19sChIJ75U28UJcs0ARn5rOXEMHehs?authuser=0&hl=tr&rclk=1",
    "website_url": "http://www.romradiatoare.com/",
    "rating_text": "4,6",
    "stars": null,
    "number_of_reviews": null,
    "price_level": "",
    "open_hours": "",
    "extraction_timestamp": "2025-06-07T18:26:29.748Z",
    "source_name": "google",
    "source_query": "Irrigation Equipment",
    "source_country": "RO",
    "country": "Romania",
    "state": "Brașov County",
    "city": "Tărlungeni"
  },
  {
    "source_id": "ChIJAQB0e5Rbs0ARTG7Tx5Av-Ms",
    "name": "Magazin Metalochimice, Materiale Instalatii Apa, Gaz, Sanitare - Erata Impex",
    "category": "Magazin Metalochimice, Materiale Instalatii Apa, Gaz, Sanitare - Erata Impex",
    "formatted_address": "Magazin Metalochimice, Materiale Instalatii Apa, Gaz, Sanitare - Erata Impex",
    "phone_number": "+40756103477",
    "source_url": "https://www.google.com/maps/place/Magazin+Metalochimice,+Materiale+Instalatii+Apa,+Gaz,+Sanitare+-+Erata+Impex/data=!4m7!3m6!1s0x40b35b947b740001:0xcbf82f90c7d36e4c!8m2!3d45.6655788!4d25.5997828!16s%2Fg%2F11hd1v2743!19sChIJAQB0e5Rbs0ARTG7Tx5Av-Ms?authuser=0&hl=tr&rclk=1",
    "website_url": "http://www.erata.ro/",
    "rating_text": "4,0",
    "stars": null,
    "number_of_reviews": null,
    "price_level": "",
    "open_hours": "",
    "extraction_timestamp": "2025-06-07T18:26:29.749Z",
    "source_name": "google",
    "source_query": "Irrigation Equipment",
    "source_country": "RO",
    "country": "Romania",
    "state": "Brașov County",
    "city": "Tărlungeni"
  },
  {
    "source_id": "ChIJiYrW93hcs0ARpKmOIL1sTuI",
    "name": "Valinst Agriculture",
    "category": "Valinst Agriculture",
    "formatted_address": "5,0(1)",
    "phone_number": "+40730330543",
    "source_url": "https://www.google.com/maps/place/Valinst+Agriculture/data=!4m7!3m6!1s0x40b35c78f7d68a89:0xe24e6cbd208ea9a4!8m2!3d45.6527567!4d25.6143965!16s%2Fg%2F11hf04lgwp!19sChIJiYrW93hcs0ARpKmOIL1sTuI?authuser=0&hl=tr&rclk=1",
    "website_url": "http://www.valinst.ro/en/contact",
    "rating_text": "5,0",
    "stars": null,
    "number_of_reviews": null,
    "price_level": "",
    "open_hours": "",
    "extraction_timestamp": "2025-06-07T18:26:29.749Z",
    "source_name": "google",
    "source_query": "Irrigation Equipment",
    "source_country": "RO",
    "country": "Romania",
    "state": "Brașov County",
    "city": "Tărlungeni"
  },
  {
    "source_id": "ChIJFZlXM0tns0ARZoGnCAiLrbY",
    "name": "La doi paşi",
    "category": "La doi paşi",
    "formatted_address": "3,7(50)",
    "phone_number": "+40374072072",
    "source_url": "https://www.google.com/maps/place/La+doi+pa%C5%9Fi/data=!4m7!3m6!1s0x40b3674b33579915:0xb6ad8b0808a78166!8m2!3d45.6493722!4d25.7629484!16s%2Fg%2F1ptw31xrc!19sChIJFZlXM0tns0ARZoGnCAiLrbY?authuser=0&hl=tr&rclk=1",
    "website_url": "http://www.la-doi-pasi.ro/",
    "rating_text": "3,7",
    "stars": null,
    "number_of_reviews": null,
    "price_level": "",
    "open_hours": "",
    "extraction_timestamp": "2025-06-07T18:26:29.749Z",
    "source_name": "google",
    "source_query": "Irrigation Equipment",
    "source_country": "RO",
    "country": "Romania",
    "state": "Brașov County",
    "city": "Tărlungeni"
  },
  {
    "source_id": "ChIJYRmWaqJbs0ARvsb1duCtxyI",
    "name": "TehnoSting Echipamente",
    "category": "TehnoSting Echipamente",
    "formatted_address": "4,9(7)",
    "phone_number": "+40751216567",
    "source_url": "https://www.google.com/maps/place/TehnoSting+Echipamente/data=!4m7!3m6!1s0x40b35ba26a961961:0x22c7ade076f5c6be!8m2!3d45.6899168!4d25.5825047!16s%2Fg%2F1hm54zcx1!19sChIJYRmWaqJbs0ARvsb1duCtxyI?authuser=0&hl=tr&rclk=1",
    "website_url": "http://www.tehnostingechipamente.ro/",
    "rating_text": "4,9",
    "stars": null,
    "number_of_reviews": null,
    "price_level": "",
    "open_hours": "",
    "extraction_timestamp": "2025-06-07T18:26:29.749Z",
    "source_name": "google",
    "source_query": "Irrigation Equipment",
    "source_country": "RO",
    "country": "Romania",
    "state": "Brașov County",
    "city": "Tărlungeni"
  },
  {
    "source_id": "ChIJHzIfiGdcs0ARGN48DfhfQH0",
    "name": "Palisander",
    "category": "Palisander",
    "formatted_address": "4,8(5)",
    "phone_number": "+40268326720",
    "source_url": "https://www.google.com/maps/place/Palisander/data=!4m7!3m6!1s0x40b35c67881f321f:0x7d405ff80d3cde18!8m2!3d45.6471421!4d25.6386888!16s%2Fg%2F11c45yv2gd!19sChIJHzIfiGdcs0ARGN48DfhfQH0?authuser=0&hl=tr&rclk=1",
    "website_url": "http://www.palisander.ro/",
    "rating_text": "4,8",
    "stars": null,
    "number_of_reviews": null,
    "price_level": "",
    "open_hours": "",
    "extraction_timestamp": "2025-06-07T18:26:29.750Z",
    "source_name": "google",
    "source_query": "Irrigation Equipment",
    "source_country": "RO",
    "country": "Romania",
    "state": "Brașov County",
    "city": "Tărlungeni"
  },
  {
    "source_id": "ChIJDWnPiDdns0ARfUoRU-yiZgQ",
    "name": "SC Braldico SRL",
    "category": "SC Braldico SRL",
    "formatted_address": "4,6(110) · L 20–40",
    "phone_number": "+40728289841",
    "source_url": "https://www.google.com/maps/place/SC+Braldico+SRL/data=!4m7!3m6!1s0x40b3673788cf690d:0x466a2ec53114a7d!8m2!3d45.6393368!4d25.7582261!16s%2Fg%2F1hc38wmt5!19sChIJDWnPiDdns0ARfUoRU-yiZgQ?authuser=0&hl=tr&rclk=1",
    "website_url": "https://www.facebook.com/Braldico1997",
    "rating_text": "4,6",
    "stars": null,
    "number_of_reviews": null,
    "price_level": "",
    "open_hours": "",
    "extraction_timestamp": "2025-06-07T18:26:29.750Z",
    "source_name": "google",
    "source_query": "Irrigation Equipment",
    "source_country": "RO",
    "country": "Romania",
    "state": "Brașov County",
    "city": "Tărlungeni"
  }
]
