[
  {
    "source_id": "ChIJG1N7wfdas0ARCbOQYOtMzFI",
    "name": "Rywal RHC România",
    "category": "Rywal RHC România",
    "formatted_address": "4,8(18)",
    "phone_number": "+40368100127",
    "source_url": "https://www.google.com/maps/place/Rywal+RHC+Rom%C3%A2nia/data=!4m7!3m6!1s0x40b35af7c17b531b:0x52cc4ceb6090b309!8m2!3d45.6618163!4d25.5388838!16s%2Fg%2F1pxqbmrlj!19sChIJG1N7wfdas0ARCbOQYOtMzFI?authuser=0&hl=tr&rclk=1",
    "website_url": "",
    "rating_text": "4,8",
    "stars": null,
    "number_of_reviews": null,
    "price_level": "",
    "open_hours": "",
    "extraction_timestamp": "2025-06-07T18:14:55.527Z",
    "source_name": "google",
    "source_query": "Irrigation Equipment",
    "source_country": "RO",
    "country": "Romania",
    "state": "Brașov County",
    "city": "Victoria"
  },
  {
    "source_id": "ChIJHwZ0XmuVTEcRyCbuoKQSUbA",
    "name": "Riovirg",
    "category": "Riovirg",
    "formatted_address": "3,0(2)",
    "phone_number": "",
    "source_url": "https://www.google.com/maps/place/Riovirg/data=!4m7!3m6!1s0x474c956b5e74061f:0xb05112a4a0ee26c8!8m2!3d45.724085!4d24.702492!16s%2Fg%2F11tnm5b7q7!19sChIJHwZ0XmuVTEcRyCbuoKQSUbA?authuser=0&hl=tr&rclk=1",
    "website_url": "",
    "rating_text": "3,0",
    "stars": null,
    "number_of_reviews": null,
    "price_level": "",
    "open_hours": "",
    "extraction_timestamp": "2025-06-07T18:14:55.529Z",
    "source_name": "google",
    "source_query": "Irrigation Equipment",
    "source_country": "RO",
    "country": "Romania",
    "state": "Brașov County",
    "city": "Victoria"
  },
  {
    "source_id": "ChIJJ9mf_lOVTEcRax9BckvBiHs",
    "name": "Piața Agroalimentară Victoria",
    "category": "Piața Agroalimentară Victoria",
    "formatted_address": "4,0(99)",
    "phone_number": "",
    "source_url": "https://www.google.com/maps/place/Pia%C8%9Ba+Agroalimentar%C4%83+Victoria/data=!4m7!3m6!1s0x474c9553fe9fd927:0x7b88c14b72411f6b!8m2!3d45.7238594!4d24.701291!16s%2Fg%2F11fkq22nv9!19sChIJJ9mf_lOVTEcRax9BckvBiHs?authuser=0&hl=tr&rclk=1",
    "website_url": "",
    "rating_text": "4,0",
    "stars": null,
    "number_of_reviews": null,
    "price_level": "",
    "open_hours": "",
    "extraction_timestamp": "2025-06-07T18:14:55.530Z",
    "source_name": "google",
    "source_query": "Irrigation Equipment",
    "source_country": "RO",
    "country": "Romania",
    "state": "Brașov County",
    "city": "Victoria"
  },
  {
    "source_id": "ChIJiYrW93hcs0ARpKmOIL1sTuI",
    "name": "Valinst Agriculture",
    "category": "Valinst Agriculture",
    "formatted_address": "5,0(1)",
    "phone_number": "+40730330543",
    "source_url": "https://www.google.com/maps/place/Valinst+Agriculture/data=!4m7!3m6!1s0x40b35c78f7d68a89:0xe24e6cbd208ea9a4!8m2!3d45.6527567!4d25.6143965!16s%2Fg%2F11hf04lgwp!19sChIJiYrW93hcs0ARpKmOIL1sTuI?authuser=0&hl=tr&rclk=1",
    "website_url": "",
    "rating_text": "5,0",
    "stars": null,
    "number_of_reviews": null,
    "price_level": "",
    "open_hours": "",
    "extraction_timestamp": "2025-06-07T18:14:55.531Z",
    "source_name": "google",
    "source_query": "Irrigation Equipment",
    "source_country": "RO",
    "country": "Romania",
    "state": "Brașov County",
    "city": "Victoria"
  },
  {
    "source_id": "ChIJUexlPVqVTEcRRS22kLKBpqA",
    "name": "Profi Super",
    "category": "Profi Super",
    "formatted_address": "4,1(246)",
    "phone_number": "+40799910388",
    "source_url": "https://www.google.com/maps/place/Profi+Super/data=!4m7!3m6!1s0x474c955a3d65ec51:0xa0a681b290b62d45!8m2!3d45.7297483!4d24.7016705!16s%2Fg%2F11g2rhtd76!19sChIJUexlPVqVTEcRRS22kLKBpqA?authuser=0&hl=tr&rclk=1",
    "website_url": "",
    "rating_text": "4,1",
    "stars": null,
    "number_of_reviews": null,
    "price_level": "",
    "open_hours": "",
    "extraction_timestamp": "2025-06-07T18:14:55.532Z",
    "source_name": "google",
    "source_query": "Irrigation Equipment",
    "source_country": "RO",
    "country": "Romania",
    "state": "Brașov County",
    "city": "Victoria"
  },
  {
    "source_id": "ChIJE3GIErNz2GIRnMvSnu8JXWQ",
    "name": "Landscaping company",
    "category": "Landscaping company",
    "formatted_address": "4,9(30)",
    "phone_number": "+40755652974",
    "source_url": "https://www.google.com/maps/place/Landscaping+company/data=!4m7!3m6!1s0x62d873b312887113:0x645d09ef9ed2cb9c!8m2!3d45.6928902!4d25.6184328!16s%2Fg%2F11rqs5xt47!19sChIJE3GIErNz2GIRnMvSnu8JXWQ?authuser=0&hl=tr&rclk=1",
    "website_url": "",
    "rating_text": "4,9",
    "stars": null,
    "number_of_reviews": null,
    "price_level": "",
    "open_hours": "",
    "extraction_timestamp": "2025-06-07T18:14:55.533Z",
    "source_name": "google",
    "source_query": "Irrigation Equipment",
    "source_country": "RO",
    "country": "Romania",
    "state": "Brașov County",
    "city": "Victoria"
  },
  {
    "source_id": "ChIJ9ygAxU2VTEcRDrZVRnn_Gr0",
    "name": "LaDoiPasi",
    "category": "LaDoiPasi",
    "formatted_address": "5,0(2)",
    "phone_number": "+40784720720",
    "source_url": "https://www.google.com/maps/place/LaDoiPasi/data=!4m7!3m6!1s0x474c954dc50028f7:0xbd1aff794655b60e!8m2!3d45.7329658!4d24.6962458!16s%2Fg%2F11vbq8b7dd!19sChIJ9ygAxU2VTEcRDrZVRnn_Gr0?authuser=0&hl=tr&rclk=1",
    "website_url": "",
    "rating_text": "5,0",
    "stars": null,
    "number_of_reviews": null,
    "price_level": "",
    "open_hours": "",
    "extraction_timestamp": "2025-06-07T18:14:55.534Z",
    "source_name": "google",
    "source_query": "Irrigation Equipment",
    "source_country": "RO",
    "country": "Romania",
    "state": "Brașov County",
    "city": "Victoria"
  },
  {
    "source_id": "ChIJW8CcUcz0TEcRyO2rFqkliRY",
    "name": "Lidl",
    "category": "Lidl",
    "formatted_address": "4,3(900)",
    "phone_number": "+40800896622",
    "source_url": "https://www.google.com/maps/place/Lidl/data=!4m7!3m6!1s0x474cf4cc519cc05b:0x168925a916abedc8!8m2!3d45.7280443!4d24.6966051!16s%2Fg%2F119x0h3j6!19sChIJW8CcUcz0TEcRyO2rFqkliRY?authuser=0&hl=tr&rclk=1",
    "website_url": "",
    "rating_text": "4,3",
    "stars": null,
    "number_of_reviews": null,
    "price_level": "",
    "open_hours": "",
    "extraction_timestamp": "2025-06-07T18:14:55.536Z",
    "source_name": "google",
    "source_query": "Irrigation Equipment",
    "source_country": "RO",
    "country": "Romania",
    "state": "Brașov County",
    "city": "Victoria"
  },
  {
    "source_id": "ChIJxTlzQ25cs0ARbRRg7VLrKPw",
    "name": "Instal generation",
    "category": "Instal generation",
    "formatted_address": "5,0(5)",
    "phone_number": "+40745189529",
    "source_url": "https://www.google.com/maps/place/Instal+generation/data=!4m7!3m6!1s0x40b35c6e437339c5:0xfc28eb52ed60146d!8m2!3d45.6541089!4d25.63197!16s%2Fg%2F11flzgjjqz!19sChIJxTlzQ25cs0ARbRRg7VLrKPw?authuser=0&hl=tr&rclk=1",
    "website_url": "",
    "rating_text": "5,0",
    "stars": null,
    "number_of_reviews": null,
    "price_level": "",
    "open_hours": "",
    "extraction_timestamp": "2025-06-07T18:14:55.538Z",
    "source_name": "google",
    "source_query": "Irrigation Equipment",
    "source_country": "RO",
    "country": "Romania",
    "state": "Brașov County",
    "city": "Victoria"
  },
  {
    "source_id": "ChIJoRHULOmVTEcRTn2m9X143JI",
    "name": "S.C Crazy Son SRL",
    "category": "S.C Crazy Son SRL",
    "formatted_address": "",
    "phone_number": "+40784720720",
    "source_url": "https://www.google.com/maps/place/S.C+Crazy+Son+SRL/data=!4m7!3m6!1s0x474c95e92cd411a1:0x92dc787df5a67d4e!8m2!3d45.7329658!4d24.6962458!16s%2Fg%2F11y4ftnylt!19sChIJoRHULOmVTEcRTn2m9X143JI?authuser=0&hl=tr&rclk=1",
    "website_url": "",
    "rating_text": "",
    "stars": null,
    "number_of_reviews": null,
    "price_level": "",
    "open_hours": "",
    "extraction_timestamp": "2025-06-07T18:14:55.539Z",
    "source_name": "google",
    "source_query": "Irrigation Equipment",
    "source_country": "RO",
    "country": "Romania",
    "state": "Brașov County",
    "city": "Victoria"
  },
  {
    "source_id": "ChIJw2KoQB2VTEcRpmx68IfZxoM",
    "name": "LaDoiPași",
    "category": "LaDoiPași",
    "formatted_address": "3,4(5)",
    "phone_number": "+40374072072",
    "source_url": "https://www.google.com/maps/place/LaDoiPa%C8%99i/data=!4m7!3m6!1s0x474c951d40a862c3:0x83c6d987f07a6ca6!8m2!3d45.7240599!4d24.7026664!16s%2Fg%2F11fpqbtm83!19sChIJw2KoQB2VTEcRpmx68IfZxoM?authuser=0&hl=tr&rclk=1",
    "website_url": "",
    "rating_text": "3,4",
    "stars": null,
    "number_of_reviews": null,
    "price_level": "",
    "open_hours": "",
    "extraction_timestamp": "2025-06-07T18:14:55.540Z",
    "source_name": "google",
    "source_query": "Irrigation Equipment",
    "source_country": "RO",
    "country": "Romania",
    "state": "Brașov County",
    "city": "Victoria"
  },
  {
    "source_id": "ChIJe_tU3Bhbs0ARYNkGVHO5YKE",
    "name": "HIDROstore Brașov",
    "category": "HIDROstore Brașov",
    "formatted_address": "5,0(13)",
    "phone_number": "+40771576228",
    "source_url": "https://www.google.com/maps/place/HIDROstore+Bra%C8%99ov/data=!4m7!3m6!1s0x40b35b18dc54fb7b:0xa160b9735406d960!8m2!3d45.6734944!4d25.5800351!16s%2Fg%2F11w8pn_mjw!19sChIJe_tU3Bhbs0ARYNkGVHO5YKE?authuser=0&hl=tr&rclk=1",
    "website_url": "",
    "rating_text": "5,0",
    "stars": null,
    "number_of_reviews": null,
    "price_level": "",
    "open_hours": "",
    "extraction_timestamp": "2025-06-07T18:14:55.541Z",
    "source_name": "google",
    "source_query": "Irrigation Equipment",
    "source_country": "RO",
    "country": "Romania",
    "state": "Brașov County",
    "city": "Victoria"
  },
  {
    "source_id": "ChIJMev0eOdZs0ARMeiqaeoGQjs",
    "name": "Verificare Sistem de Avertizare la Incendiu",
    "category": "Verificare Sistem de Avertizare la Incendiu",
    "formatted_address": "5,0(1)",
    "phone_number": "+40757371244",
    "source_url": "https://www.google.com/maps/place/Verificare+Sistem+de+Avertizare+la+Incendiu/data=!4m7!3m6!1s0x40b359e778f4eb31:0x3b4206ea69aae831!8m2!3d45.7158082!4d25.5883415!16s%2Fg%2F11n82qz9h8!19sChIJMev0eOdZs0ARMeiqaeoGQjs?authuser=0&hl=tr&rclk=1",
    "website_url": "",
    "rating_text": "5,0",
    "stars": null,
    "number_of_reviews": null,
    "price_level": "",
    "open_hours": "",
    "extraction_timestamp": "2025-06-07T18:14:55.543Z",
    "source_name": "google",
    "source_query": "Irrigation Equipment",
    "source_country": "RO",
    "country": "Romania",
    "state": "Brașov County",
    "city": "Victoria"
  },
  {
    "source_id": "ChIJ97vmnZdbs0ARAfrtKi2oU20",
    "name": "Sistem S.R.L.",
    "category": "Sistem S.R.L.",
    "formatted_address": "4,7(52)",
    "phone_number": "+40788595572",
    "source_url": "https://www.google.com/maps/place/Sistem+S.R.L./data=!4m7!3m6!1s0x40b35b979de6bbf7:0x6d53a82d2aedfa01!8m2!3d45.6613272!4d25.5927419!16s%2Fg%2F1hc2hk286!19sChIJ97vmnZdbs0ARAfrtKi2oU20?authuser=0&hl=tr&rclk=1",
    "website_url": "",
    "rating_text": "4,7",
    "stars": null,
    "number_of_reviews": null,
    "price_level": "",
    "open_hours": "",
    "extraction_timestamp": "2025-06-07T18:14:55.544Z",
    "source_name": "google",
    "source_query": "Irrigation Equipment",
    "source_country": "RO",
    "country": "Romania",
    "state": "Brașov County",
    "city": "Victoria"
  },
  {
    "source_id": "ChIJt-nhm2WVTEcRFUCpMQNJn24",
    "name": "Pepco",
    "category": "Pepco",
    "formatted_address": "3,8(12)",
    "phone_number": "",
    "source_url": "https://www.google.com/maps/place/Pepco/data=!4m7!3m6!1s0x474c95659be1e9b7:0x6e9f490331a94015!8m2!3d45.7299713!4d24.701697!16s%2Fg%2F11hz31sp0s!19sChIJt-nhm2WVTEcRFUCpMQNJn24?authuser=0&hl=tr&rclk=1",
    "website_url": "",
    "rating_text": "3,8",
    "stars": null,
    "number_of_reviews": null,
    "price_level": "",
    "open_hours": "",
    "extraction_timestamp": "2025-06-07T18:14:55.545Z",
    "source_name": "google",
    "source_query": "Irrigation Equipment",
    "source_country": "RO",
    "country": "Romania",
    "state": "Brașov County",
    "city": "Victoria"
  },
  {
    "source_id": "ChIJi6FDEyyhtEARXjG1waHLjVo",
    "name": "Utilajeagri.ro",
    "category": "Utilajeagri.ro",
    "formatted_address": "4,6(22)",
    "phone_number": "+40740317928",
    "source_url": "https://www.google.com/maps/place/Utilajeagri.ro/data=!4m7!3m6!1s0x40b4a12c1343a18b:0x5a8dcba1c1b5315e!8m2!3d45.7495733!4d25.767982!16s%2Fg%2F11flrmwwns!19sChIJi6FDEyyhtEARXjG1waHLjVo?authuser=0&hl=tr&rclk=1",
    "website_url": "",
    "rating_text": "4,6",
    "stars": null,
    "number_of_reviews": null,
    "price_level": "",
    "open_hours": "",
    "extraction_timestamp": "2025-06-07T18:14:55.546Z",
    "source_name": "google",
    "source_query": "Irrigation Equipment",
    "source_country": "RO",
    "country": "Romania",
    "state": "Brașov County",
    "city": "Victoria"
  },
  {
    "source_id": "ChIJdQ22S0aVTEcRLvSv0qDJt9Y",
    "name": "Penny",
    "category": "Penny",
    "formatted_address": "4,3(192)",
    "phone_number": "",
    "source_url": "https://www.google.com/maps/place/Penny/data=!4m7!3m6!1s0x474c95464bb60d75:0xd6b7c9a0d2aff42e!8m2!3d45.7275944!4d24.6985293!16s%2Fg%2F11h6nlz7hy!19sChIJdQ22S0aVTEcRLvSv0qDJt9Y?authuser=0&hl=tr&rclk=1",
    "website_url": "",
    "rating_text": "4,3",
    "stars": null,
    "number_of_reviews": null,
    "price_level": "",
    "open_hours": "",
    "extraction_timestamp": "2025-06-07T18:14:55.546Z",
    "source_name": "google",
    "source_query": "Irrigation Equipment",
    "source_country": "RO",
    "country": "Romania",
    "state": "Brașov County",
    "city": "Victoria"
  }
]
