[
  {
    "source_id": "ChIJCQayaPpbs0ARhf_zEF9vwQg",
    "name": "SC Agri Sigeva SRL",
    "category": "SC Agri Sigeva SRL",
    "formatted_address": "5,0(2)",
    "phone_number": "+40722529586",
    "source_url": "https://www.google.com/maps/place/SC+Agri+Sigeva+SRL/data=!4m7!3m6!1s0x40b35bfa68b20609:0x8c16f5f10f3ff85!8m2!3d45.6744327!4d25.621811!16s%2Fg%2F1pztj9780!19sChIJCQayaPpbs0ARhf_zEF9vwQg?authuser=0&hl=tr&rclk=1",
    "website_url": "",
    "rating_text": "5,0",
    "stars": null,
    "number_of_reviews": null,
    "price_level": "",
    "open_hours": "",
    "extraction_timestamp": "2025-06-07T18:15:30.751Z",
    "source_name": "google",
    "source_query": "Irrigation Equipment",
    "source_country": "RO",
    "country": "Romania",
    "state": "Brașov County",
    "city": "Viscri"
  },
  {
    "source_id": "ChIJiYrW93hcs0ARpKmOIL1sTuI",
    "name": "Valinst Agriculture",
    "category": "Valinst Agriculture",
    "formatted_address": "5,0(1)",
    "phone_number": "+40730330543",
    "source_url": "https://www.google.com/maps/place/Valinst+Agriculture/data=!4m7!3m6!1s0x40b35c78f7d68a89:0xe24e6cbd208ea9a4!8m2!3d45.6527567!4d25.6143965!16s%2Fg%2F11hf04lgwp!19sChIJiYrW93hcs0ARpKmOIL1sTuI?authuser=0&hl=tr&rclk=1",
    "website_url": "http://www.valinst.ro/en/contact",
    "rating_text": "5,0",
    "stars": null,
    "number_of_reviews": null,
    "price_level": "",
    "open_hours": "",
    "extraction_timestamp": "2025-06-07T18:15:30.752Z",
    "source_name": "google",
    "source_query": "Irrigation Equipment",
    "source_country": "RO",
    "country": "Romania",
    "state": "Brașov County",
    "city": "Viscri"
  },
  {
    "source_id": "ChIJH0iPX8ppS0cRJ9uOqrS0LHs",
    "name": "Viscri Caffe",
    "category": "Viscri Caffe",
    "formatted_address": "5,0(89) · L 20–40",
    "phone_number": "+40749232250",
    "source_url": "https://www.google.com/maps/place/Viscri+Caffe/data=!4m7!3m6!1s0x474b69ca5f8f481f:0x7b2cb4b4aa8edb27!8m2!3d46.0568337!4d25.0975579!16s%2Fg%2F11kr9n5fvf!19sChIJH0iPX8ppS0cRJ9uOqrS0LHs?authuser=0&hl=tr&rclk=1",
    "website_url": "",
    "rating_text": "5,0",
    "stars": null,
    "number_of_reviews": null,
    "price_level": "",
    "open_hours": "",
    "extraction_timestamp": "2025-06-07T18:15:30.752Z",
    "source_name": "google",
    "source_query": "Irrigation Equipment",
    "source_country": "RO",
    "country": "Romania",
    "state": "Brașov County",
    "city": "Viscri"
  },
  {
    "source_id": "ChIJ8UeMZ61pS0cRUTuVi7jyQZo",
    "name": "Magazin mixt si Produse naturale lucrate manual",
    "category": "Magazin mixt si Produse naturale lucrate manual",
    "formatted_address": "4,7(6)",
    "phone_number": "+40740538035",
    "source_url": "https://www.google.com/maps/place/Magazin+mixt+si+Produse+naturale+lucrate+manual/data=!4m7!3m6!1s0x474b69ad678c47f1:0x9a41f2b88b953b51!8m2!3d46.0543183!4d25.0923685!16s%2Fg%2F11l5xv02yk!19sChIJ8UeMZ61pS0cRUTuVi7jyQZo?authuser=0&hl=tr&rclk=1",
    "website_url": "",
    "rating_text": "4,7",
    "stars": null,
    "number_of_reviews": null,
    "price_level": "",
    "open_hours": "",
    "extraction_timestamp": "2025-06-07T18:15:30.752Z",
    "source_name": "google",
    "source_query": "Irrigation Equipment",
    "source_country": "RO",
    "country": "Romania",
    "state": "Brașov County",
    "city": "Viscri"
  }
]
