[
  {
    "source_id": "ChIJG1N7wfdas0ARCbOQYOtMzFI",
    "name": "Rywal RHC România",
    "category": "Rywal RHC România",
    "formatted_address": "4,8(18)",
    "phone_number": "+40368100127",
    "source_url": "https://www.google.com/maps/place/Rywal+RHC+Rom%C3%A2nia/data=!4m7!3m6!1s0x40b35af7c17b531b:0x52cc4ceb6090b309!8m2!3d45.6618163!4d25.5388838!16s%2Fg%2F1pxqbmrlj!19sChIJG1N7wfdas0ARCbOQYOtMzFI?authuser=0&hl=tr&rclk=1",
    "website_url": "http://www.rywal.ro/",
    "rating_text": "4,8",
    "stars": null,
    "number_of_reviews": null,
    "price_level": "",
    "open_hours": "",
    "extraction_timestamp": "2025-06-08T02:46:09.556Z",
    "source_name": "google",
    "source_query": "Irrigation Equipment",
    "source_country": "RO",
    "country": "Romania",
    "state": "Brașov County",
    "city": "Vulcan"
  },
  {
    "source_id": "ChIJiYrW93hcs0ARpKmOIL1sTuI",
    "name": "Valinst Agriculture",
    "category": "Valinst Agriculture",
    "formatted_address": "5,0(1)",
    "phone_number": "+40730330543",
    "source_url": "https://www.google.com/maps/place/Valinst+Agriculture/data=!4m7!3m6!1s0x40b35c78f7d68a89:0xe24e6cbd208ea9a4!8m2!3d45.6527567!4d25.6143965!16s%2Fg%2F11hf04lgwp!19sChIJiYrW93hcs0ARpKmOIL1sTuI?authuser=0&hl=tr&rclk=1",
    "website_url": "http://www.valinst.ro/en/contact",
    "rating_text": "5,0",
    "stars": null,
    "number_of_reviews": null,
    "price_level": "",
    "open_hours": "",
    "extraction_timestamp": "2025-06-08T02:46:09.556Z",
    "source_name": "google",
    "source_query": "Irrigation Equipment",
    "source_country": "RO",
    "country": "Romania",
    "state": "Brașov County",
    "city": "Vulcan"
  },
  {
    "source_id": "ChIJCQayaPpbs0ARhf_zEF9vwQg",
    "name": "SC Agri Sigeva SRL",
    "category": "SC Agri Sigeva SRL",
    "formatted_address": "5,0(2)",
    "phone_number": "+40722529586",
    "source_url": "https://www.google.com/maps/place/SC+Agri+Sigeva+SRL/data=!4m7!3m6!1s0x40b35bfa68b20609:0x8c16f5f10f3ff85!8m2!3d45.6744327!4d25.621811!16s%2Fg%2F1pztj9780!19sChIJCQayaPpbs0ARhf_zEF9vwQg?authuser=0&hl=tr&rclk=1",
    "website_url": "",
    "rating_text": "5,0",
    "stars": null,
    "number_of_reviews": null,
    "price_level": "",
    "open_hours": "",
    "extraction_timestamp": "2025-06-08T02:46:09.557Z",
    "source_name": "google",
    "source_query": "Irrigation Equipment",
    "source_country": "RO",
    "country": "Romania",
    "state": "Brașov County",
    "city": "Vulcan"
  },
  {
    "source_id": "ChIJxTlzQ25cs0ARbRRg7VLrKPw",
    "name": "Instal generation",
    "category": "Instal generation",
    "formatted_address": "5,0(5)",
    "phone_number": "+40745189529",
    "source_url": "https://www.google.com/maps/place/Instal+generation/data=!4m7!3m6!1s0x40b35c6e437339c5:0xfc28eb52ed60146d!8m2!3d45.6541089!4d25.63197!16s%2Fg%2F11flzgjjqz!19sChIJxTlzQ25cs0ARbRRg7VLrKPw?authuser=0&hl=tr&rclk=1",
    "website_url": "http://www.instalgeneration.ro/",
    "rating_text": "5,0",
    "stars": null,
    "number_of_reviews": null,
    "price_level": "",
    "open_hours": "",
    "extraction_timestamp": "2025-06-08T02:46:09.557Z",
    "source_name": "google",
    "source_query": "Irrigation Equipment",
    "source_country": "RO",
    "country": "Romania",
    "state": "Brașov County",
    "city": "Vulcan"
  },
  {
    "source_id": "ChIJf0Wxuf5Ps0ARQ4Z23pNPZ2A",
    "name": "SC TIBEROM IMPEX SRL",
    "category": "SC TIBEROM IMPEX SRL",
    "formatted_address": "4,6(19)",
    "phone_number": "+40756410044",
    "source_url": "https://www.google.com/maps/place/SC+TIBEROM+IMPEX+SRL/data=!4m7!3m6!1s0x40b34ffeb9b1457f:0x60674f93de768643!8m2!3d45.6371494!4d25.4246566!16s%2Fg%2F1hc14d4tf!19sChIJf0Wxuf5Ps0ARQ4Z23pNPZ2A?authuser=0&hl=tr&rclk=1",
    "website_url": "",
    "rating_text": "4,6",
    "stars": null,
    "number_of_reviews": null,
    "price_level": "",
    "open_hours": "",
    "extraction_timestamp": "2025-06-08T02:46:09.557Z",
    "source_name": "google",
    "source_query": "Irrigation Equipment",
    "source_country": "RO",
    "country": "Romania",
    "state": "Brașov County",
    "city": "Vulcan"
  },
  {
    "source_id": "ChIJe_tU3Bhbs0ARYNkGVHO5YKE",
    "name": "HIDROstore Brașov",
    "category": "HIDROstore Brașov",
    "formatted_address": "5,0(13)",
    "phone_number": "+40771576228",
    "source_url": "https://www.google.com/maps/place/HIDROstore+Bra%C8%99ov/data=!4m7!3m6!1s0x40b35b18dc54fb7b:0xa160b9735406d960!8m2!3d45.6734944!4d25.5800351!16s%2Fg%2F11w8pn_mjw!19sChIJe_tU3Bhbs0ARYNkGVHO5YKE?authuser=0&hl=tr&rclk=1",
    "website_url": "https://hidrostore.ro/brasov",
    "rating_text": "5,0",
    "stars": null,
    "number_of_reviews": null,
    "price_level": "",
    "open_hours": "",
    "extraction_timestamp": "2025-06-08T02:46:09.558Z",
    "source_name": "google",
    "source_query": "Irrigation Equipment",
    "source_country": "RO",
    "country": "Romania",
    "state": "Brașov County",
    "city": "Vulcan"
  },
  {
    "source_id": "ChIJPwm-Fs9Ps0ARIJ7yKhxG2i0",
    "name": "La Doi Paşi",
    "category": "La Doi Paşi",
    "formatted_address": "5,0(1)",
    "phone_number": "",
    "source_url": "https://www.google.com/maps/place/La+Doi+Pa%C5%9Fi/data=!4m7!3m6!1s0x40b34fcf16be093f:0x2dda461c2af29e20!8m2!3d45.6371608!4d25.4197801!16s%2Fg%2F11vkz3mng4!19sChIJPwm-Fs9Ps0ARIJ7yKhxG2i0?authuser=0&hl=tr&rclk=1",
    "website_url": "",
    "rating_text": "5,0",
    "stars": null,
    "number_of_reviews": null,
    "price_level": "",
    "open_hours": "",
    "extraction_timestamp": "2025-06-08T02:46:09.558Z",
    "source_name": "google",
    "source_query": "Irrigation Equipment",
    "source_country": "RO",
    "country": "Romania",
    "state": "Brașov County",
    "city": "Vulcan"
  },
  {
    "source_id": "ChIJ4ZZDEYhcs0ARo-l6WqHusqo",
    "name": "Dumian S.R.L.",
    "category": "Dumian S.R.L.",
    "formatted_address": "2,7(3)",
    "phone_number": "+40268318688",
    "source_url": "https://www.google.com/maps/place/Dumian+S.R.L./data=!4m7!3m6!1s0x40b35c88114396e1:0xaab2eea15a7ae9a3!8m2!3d45.6426687!4d25.6194748!16s%2Fg%2F1hc4h4xr9!19sChIJ4ZZDEYhcs0ARo-l6WqHusqo?authuser=0&hl=tr&rclk=1",
    "website_url": "https://www.listafirme.ro/dumian-srl-1095718/",
    "rating_text": "2,7",
    "stars": null,
    "number_of_reviews": null,
    "price_level": "",
    "open_hours": "",
    "extraction_timestamp": "2025-06-08T02:46:09.558Z",
    "source_name": "google",
    "source_query": "Irrigation Equipment",
    "source_country": "RO",
    "country": "Romania",
    "state": "Brașov County",
    "city": "Vulcan"
  }
]
