[
  {
    "source_id": "ChIJD7eq6NtIs0ARy5oxFsNcvNU",
    "name": "Automat pt. Băuturi Calde și Răcoritoare",
    "category": "Automat pt. Băuturi Calde și Răcoritoare",
    "formatted_address": "4,5(34)",
    "phone_number": "+40746499500",
    "source_url": "https://www.google.com/maps/place/Automat+pt.+B%C4%83uturi+Calde+%C8%99i+R%C4%83coritoare/data=!4m7!3m6!1s0x40b348dbe8aab70f:0xd5bc5cc316319acb!8m2!3d45.571792!4d25.3533381!16s%2Fg%2F11hc_0pj_l!19sChIJD7eq6NtIs0ARy5oxFsNcvNU?authuser=0&hl=tr&rclk=1",
    "website_url": "",
    "rating_text": "4,5",
    "stars": null,
    "number_of_reviews": null,
    "price_level": "",
    "open_hours": "",
    "extraction_timestamp": "2025-06-07T18:17:45.700Z",
    "source_name": "google",
    "source_query": "Irrigation Equipment",
    "source_country": "RO",
    "country": "Romania",
    "state": "Brașov County",
    "city": "Zărnești"
  },
  {
    "source_id": "ChIJe2lHaKdHs0AR_V2QeYymkY4",
    "name": "Romstal",
    "category": "Romstal",
    "formatted_address": "5,0(44)",
    "phone_number": "+40372123182",
    "source_url": "https://www.google.com/maps/place/Romstal/data=!4m7!3m6!1s0x40b347a76847697b:0x8e91a68c79905dfd!8m2!3d45.5415116!4d25.3794315!16s%2Fg%2F11ldk75bp8!19sChIJe2lHaKdHs0AR_V2QeYymkY4?authuser=0&hl=tr&rclk=1",
    "website_url": "",
    "rating_text": "5,0",
    "stars": null,
    "number_of_reviews": null,
    "price_level": "",
    "open_hours": "",
    "extraction_timestamp": "2025-06-07T18:17:45.702Z",
    "source_name": "google",
    "source_query": "Irrigation Equipment",
    "source_country": "RO",
    "country": "Romania",
    "state": "Brașov County",
    "city": "Zărnești"
  },
  {
    "source_id": "ChIJxSy7NN1Is0ARJG_57BSBEQw",
    "name": "Tohan S.A.",
    "category": "Tohan S.A.",
    "formatted_address": "3,5(15)",
    "phone_number": "+40268220854",
    "source_url": "https://www.google.com/maps/place/Tohan+S.A./data=!4m7!3m6!1s0x40b348dd34bb2cc5:0xc118114ecf96f24!8m2!3d45.5656132!4d25.3514313!16s%2Fg%2F1hc38wmt0!19sChIJxSy7NN1Is0ARJG_57BSBEQw?authuser=0&hl=tr&rclk=1",
    "website_url": "",
    "rating_text": "3,5",
    "stars": null,
    "number_of_reviews": null,
    "price_level": "",
    "open_hours": "",
    "extraction_timestamp": "2025-06-07T18:17:45.703Z",
    "source_name": "google",
    "source_query": "Irrigation Equipment",
    "source_country": "RO",
    "country": "Romania",
    "state": "Brașov County",
    "city": "Zărnești"
  },
  {
    "source_id": "ChIJ-U-J8yBJs0ARlbPMbJlbrtw",
    "name": "Prăvălie Sergiana",
    "category": "Prăvălie Sergiana",
    "formatted_address": "4,4(267)",
    "phone_number": "+40368004038",
    "source_url": "https://www.google.com/maps/place/Pr%C4%83v%C4%83lie+Sergiana/data=!4m7!3m6!1s0x40b34920f3894ff9:0xdcae5b996cccb395!8m2!3d45.571399!4d25.3415644!16s%2Fg%2F1hm2150j7!19sChIJ-U-J8yBJs0ARlbPMbJlbrtw?authuser=0&hl=tr&rclk=1",
    "website_url": "",
    "rating_text": "4,4",
    "stars": null,
    "number_of_reviews": null,
    "price_level": "",
    "open_hours": "",
    "extraction_timestamp": "2025-06-07T18:17:45.704Z",
    "source_name": "google",
    "source_query": "Irrigation Equipment",
    "source_country": "RO",
    "country": "Romania",
    "state": "Brașov County",
    "city": "Zărnești"
  },
  {
    "source_id": "ChIJ6bfW8g5Js0ARlG8iXCHItR4",
    "name": "La Complex - Materiale de constructii",
    "category": "La Complex - Materiale de constructii",
    "formatted_address": "5,0(3)",
    "phone_number": "+40722409769",
    "source_url": "https://www.google.com/maps/place/La+Complex+-+Materiale+de+constructii/data=!4m7!3m6!1s0x40b3490ef2d6b7e9:0x1eb5c8215c226f94!8m2!3d45.5747564!4d25.3628579!16s%2Fg%2F11y4nsxhn6!19sChIJ6bfW8g5Js0ARlG8iXCHItR4?authuser=0&hl=tr&rclk=1",
    "website_url": "",
    "rating_text": "5,0",
    "stars": null,
    "number_of_reviews": null,
    "price_level": "",
    "open_hours": "",
    "extraction_timestamp": "2025-06-07T18:17:45.705Z",
    "source_name": "google",
    "source_query": "Irrigation Equipment",
    "source_country": "RO",
    "country": "Romania",
    "state": "Brașov County",
    "city": "Zărnești"
  },
  {
    "source_id": "ChIJSyUTQg9Js0ARcOJhOifnYRM",
    "name": "Profi Super",
    "category": "Profi Super",
    "formatted_address": "3,7(604)",
    "phone_number": "+40730770186",
    "source_url": "https://www.google.com/maps/place/Profi+Super/data=!4m7!3m6!1s0x40b3490f4213254b:0x1361e7273a61e270!8m2!3d45.5606503!4d25.3166287!16s%2Fg%2F11g72f_w79!19sChIJSyUTQg9Js0ARcOJhOifnYRM?authuser=0&hl=tr&rclk=1",
    "website_url": "",
    "rating_text": "3,7",
    "stars": null,
    "number_of_reviews": null,
    "price_level": "",
    "open_hours": "",
    "extraction_timestamp": "2025-06-07T18:17:45.706Z",
    "source_name": "google",
    "source_query": "Irrigation Equipment",
    "source_country": "RO",
    "country": "Romania",
    "state": "Brașov County",
    "city": "Zărnești"
  },
  {
    "source_id": "ChIJYy5T1w1Js0AR46bGYw93h8E",
    "name": "Zarnesti Market",
    "category": "Zarnesti Market",
    "formatted_address": "3,9(407)",
    "phone_number": "+40268515777",
    "source_url": "https://www.google.com/maps/place/Zarnesti+Market/data=!4m7!3m6!1s0x40b3490dd7532e63:0xc187770f63c6a6e3!8m2!3d45.5637985!4d25.3116481!16s%2Fg%2F11dxsrm867!19sChIJYy5T1w1Js0AR46bGYw93h8E?authuser=0&hl=tr&rclk=1",
    "website_url": "",
    "rating_text": "3,9",
    "stars": null,
    "number_of_reviews": null,
    "price_level": "",
    "open_hours": "",
    "extraction_timestamp": "2025-06-07T18:17:45.707Z",
    "source_name": "google",
    "source_query": "Irrigation Equipment",
    "source_country": "RO",
    "country": "Romania",
    "state": "Brașov County",
    "city": "Zărnești"
  },
  {
    "source_id": "ChIJ0wdfdzhJs0AREX0a57KVg48",
    "name": "DUMSO SRL",
    "category": "DUMSO SRL",
    "formatted_address": "4,2(53)",
    "phone_number": "",
    "source_url": "https://www.google.com/maps/place/DUMSO+SRL/data=!4m7!3m6!1s0x40b34938775f07d3:0x8f8395b2e71a7d11!8m2!3d45.572525!4d25.3448047!16s%2Fg%2F11gk68qbp_!19sChIJ0wdfdzhJs0AREX0a57KVg48?authuser=0&hl=tr&rclk=1",
    "website_url": "",
    "rating_text": "4,2",
    "stars": null,
    "number_of_reviews": null,
    "price_level": "",
    "open_hours": "",
    "extraction_timestamp": "2025-06-07T18:17:45.708Z",
    "source_name": "google",
    "source_query": "Irrigation Equipment",
    "source_country": "RO",
    "country": "Romania",
    "state": "Brașov County",
    "city": "Zărnești"
  },
  {
    "source_id": "ChIJo0eyewZJs0AR8XtJA8jHARw",
    "name": "Prăvălie Sergiana",
    "category": "Prăvălie Sergiana",
    "formatted_address": "4,5(161)",
    "phone_number": "+40368006612",
    "source_url": "https://www.google.com/maps/place/Pr%C4%83v%C4%83lie+Sergiana/data=!4m7!3m6!1s0x40b349067bb247a3:0x1c01c7c803497bf1!8m2!3d45.5584402!4d25.3192511!16s%2Fg%2F11df0x83hb!19sChIJo0eyewZJs0AR8XtJA8jHARw?authuser=0&hl=tr&rclk=1",
    "website_url": "",
    "rating_text": "4,5",
    "stars": null,
    "number_of_reviews": null,
    "price_level": "",
    "open_hours": "",
    "extraction_timestamp": "2025-06-07T18:17:45.710Z",
    "source_name": "google",
    "source_query": "Irrigation Equipment",
    "source_country": "RO",
    "country": "Romania",
    "state": "Brașov County",
    "city": "Zărnești"
  },
  {
    "source_id": "ChIJJYMDZg9Js0AR8eKUWNAynGI",
    "name": "Prăvălie Sergiana",
    "category": "Prăvălie Sergiana",
    "formatted_address": "4,4(98)",
    "phone_number": "+40368004037",
    "source_url": "https://www.google.com/maps/place/Pr%C4%83v%C4%83lie+Sergiana/data=!4m7!3m6!1s0x40b3490f66038325:0x629c32d05894e2f1!8m2!3d45.5606514!4d25.3173644!16s%2Fg%2F1hm27xgym!19sChIJJYMDZg9Js0AR8eKUWNAynGI?authuser=0&hl=tr&rclk=1",
    "website_url": "",
    "rating_text": "4,4",
    "stars": null,
    "number_of_reviews": null,
    "price_level": "",
    "open_hours": "",
    "extraction_timestamp": "2025-06-07T18:17:45.711Z",
    "source_name": "google",
    "source_query": "Irrigation Equipment",
    "source_country": "RO",
    "country": "Romania",
    "state": "Brașov County",
    "city": "Zărnești"
  },
  {
    "source_id": "ChIJvUIMHAVJs0ARWjfJMzZbGKs",
    "name": "Profi Standard",
    "category": "Profi Standard",
    "formatted_address": "3,9(201)",
    "phone_number": "+40751276678",
    "source_url": "https://www.google.com/maps/place/Profi+Standard/data=!4m7!3m6!1s0x40b349051c0c42bd:0xab185b3633c9375a!8m2!3d45.5687488!4d25.3370891!16s%2Fg%2F11h11jsxxl!19sChIJvUIMHAVJs0ARWjfJMzZbGKs?authuser=0&hl=tr&rclk=1",
    "website_url": "",
    "rating_text": "3,9",
    "stars": null,
    "number_of_reviews": null,
    "price_level": "",
    "open_hours": "",
    "extraction_timestamp": "2025-06-07T18:17:45.712Z",
    "source_name": "google",
    "source_query": "Irrigation Equipment",
    "source_country": "RO",
    "country": "Romania",
    "state": "Brașov County",
    "city": "Zărnești"
  },
  {
    "source_id": "ChIJ81JsgB9Js0ARkp4il4u3BE0",
    "name": "Prăvălie Sergiana",
    "category": "Prăvălie Sergiana",
    "formatted_address": "4,5(18)",
    "phone_number": "+40368009410",
    "source_url": "https://www.google.com/maps/place/Pr%C4%83v%C4%83lie+Sergiana/data=!4m7!3m6!1s0x40b3491f806c52f3:0x4d04b78b97229e92!8m2!3d45.5694127!4d25.3384296!16s%2Fg%2F11f03qf8qy!19sChIJ81JsgB9Js0ARkp4il4u3BE0?authuser=0&hl=tr&rclk=1",
    "website_url": "",
    "rating_text": "4,5",
    "stars": null,
    "number_of_reviews": null,
    "price_level": "",
    "open_hours": "",
    "extraction_timestamp": "2025-06-07T18:17:45.714Z",
    "source_name": "google",
    "source_query": "Irrigation Equipment",
    "source_country": "RO",
    "country": "Romania",
    "state": "Brașov County",
    "city": "Zărnești"
  },
  {
    "source_id": "ChIJ_0rV1DZJs0ARy8pvgCnsn2g",
    "name": "La pupăza",
    "category": "La pupăza",
    "formatted_address": "4,5(17)",
    "phone_number": "",
    "source_url": "https://www.google.com/maps/place/La+pup%C4%83za/data=!4m7!3m6!1s0x40b34936d4d54aff:0x689fec29806fcacb!8m2!3d45.5749311!4d25.3445936!16s%2Fg%2F11j37qtxq4!19sChIJ_0rV1DZJs0ARy8pvgCnsn2g?authuser=0&hl=tr&rclk=1",
    "website_url": "",
    "rating_text": "4,5",
    "stars": null,
    "number_of_reviews": null,
    "price_level": "",
    "open_hours": "",
    "extraction_timestamp": "2025-06-07T18:17:45.715Z",
    "source_name": "google",
    "source_query": "Irrigation Equipment",
    "source_country": "RO",
    "country": "Romania",
    "state": "Brașov County",
    "city": "Zărnești"
  },
  {
    "source_id": "ChIJ_71kAwdJs0ARnr4i7tj_NEA",
    "name": "PENNY",
    "category": "PENNY",
    "formatted_address": "4,2(913)",
    "phone_number": "+40800110111",
    "source_url": "https://www.google.com/maps/place/PENNY/data=!4m7!3m6!1s0x40b349070364bdff:0x4034ffd8ee22be9e!8m2!3d45.5628629!4d25.3301283!16s%2Fg%2F11f6377tbt!19sChIJ_71kAwdJs0ARnr4i7tj_NEA?authuser=0&hl=tr&rclk=1",
    "website_url": "",
    "rating_text": "4,2",
    "stars": null,
    "number_of_reviews": null,
    "price_level": "",
    "open_hours": "",
    "extraction_timestamp": "2025-06-07T18:17:45.716Z",
    "source_name": "google",
    "source_query": "Irrigation Equipment",
    "source_country": "RO",
    "country": "Romania",
    "state": "Brașov County",
    "city": "Zărnești"
  },
  {
    "source_id": "ChIJtdUKZB9Js0ARE8PWnH4MdhU",
    "name": "Lidl",
    "category": "Lidl",
    "formatted_address": "4,5(1.432)",
    "phone_number": "+40800896622",
    "source_url": "https://www.google.com/maps/place/Lidl/data=!4m7!3m6!1s0x40b3491f640ad5b5:0x15760c7e9cd6c313!8m2!3d45.5726422!4d25.3483464!16s%2Fg%2F11mv_y9m5h!19sChIJtdUKZB9Js0ARE8PWnH4MdhU?authuser=0&hl=tr&rclk=1",
    "website_url": "",
    "rating_text": "4,5",
    "stars": null,
    "number_of_reviews": null,
    "price_level": "",
    "open_hours": "",
    "extraction_timestamp": "2025-06-07T18:17:45.718Z",
    "source_name": "google",
    "source_query": "Irrigation Equipment",
    "source_country": "RO",
    "country": "Romania",
    "state": "Brașov County",
    "city": "Zărnești"
  },
  {
    "source_id": "ChIJjYPMtxRJs0AR3QsB314YTgM",
    "name": "La Dănuț",
    "category": "La Dănuț",
    "formatted_address": "4,5(28)",
    "phone_number": "+40736288012",
    "source_url": "https://www.google.com/maps/place/La+D%C4%83nu%C8%9B/data=!4m7!3m6!1s0x40b34914b7cc838d:0x34e185edf010bdd!8m2!3d45.555451!4d25.3140569!16s%2Fg%2F11fm52_p9w!19sChIJjYPMtxRJs0AR3QsB314YTgM?authuser=0&hl=tr&rclk=1",
    "website_url": "",
    "rating_text": "4,5",
    "stars": null,
    "number_of_reviews": null,
    "price_level": "",
    "open_hours": "",
    "extraction_timestamp": "2025-06-07T18:17:45.719Z",
    "source_name": "google",
    "source_query": "Irrigation Equipment",
    "source_country": "RO",
    "country": "Romania",
    "state": "Brașov County",
    "city": "Zărnești"
  },
  {
    "source_id": "ChIJr9aL9iJJs0ARGrLCn00n68M",
    "name": "La doi pasi",
    "category": "La doi pasi",
    "formatted_address": "3,5(2)",
    "phone_number": "",
    "source_url": "https://www.google.com/maps/place/La+doi+pasi/data=!4m7!3m6!1s0x40b34922f68bd6af:0xc3eb274d9fc2b21a!8m2!3d45.5705655!4d25.3402142!16s%2Fg%2F11p3v9x8w2!19sChIJr9aL9iJJs0ARGrLCn00n68M?authuser=0&hl=tr&rclk=1",
    "website_url": "",
    "rating_text": "3,5",
    "stars": null,
    "number_of_reviews": null,
    "price_level": "",
    "open_hours": "",
    "extraction_timestamp": "2025-06-07T18:17:45.720Z",
    "source_name": "google",
    "source_query": "Irrigation Equipment",
    "source_country": "RO",
    "country": "Romania",
    "state": "Brașov County",
    "city": "Zărnești"
  },
  {
    "source_id": "ChIJuyse-tZJs0ARIlfsQ6KpswU",
    "name": "La Doi Pași Minimarket Padina",
    "category": "La Doi Pași Minimarket Padina",
    "formatted_address": "4,4(77)",
    "phone_number": "+40732199565",
    "source_url": "https://www.google.com/maps/place/La+Doi+Pa%C8%99i+Minimarket+Padina/data=!4m7!3m6!1s0x40b349d6fa1e2bbb:0x5b3a9a243ec5722!8m2!3d45.560941!4d25.3119!16s%2Fg%2F11g72lvkf1!19sChIJuyse-tZJs0ARIlfsQ6KpswU?authuser=0&hl=tr&rclk=1",
    "website_url": "",
    "rating_text": "4,4",
    "stars": null,
    "number_of_reviews": null,
    "price_level": "",
    "open_hours": "",
    "extraction_timestamp": "2025-06-07T18:17:45.721Z",
    "source_name": "google",
    "source_query": "Irrigation Equipment",
    "source_country": "RO",
    "country": "Romania",
    "state": "Brașov County",
    "city": "Zărnești"
  },
  {
    "source_id": "ChIJ7R8hLbJJs0ARh7gZ1mSRdfI",
    "name": "Prăvălie Sergiana",
    "category": "Prăvălie Sergiana",
    "formatted_address": "3,9(8)",
    "phone_number": "+40368009140",
    "source_url": "https://www.google.com/maps/place/Pr%C4%83v%C4%83lie+Sergiana/data=!4m7!3m6!1s0x40b349b22d211fed:0xf2759164d619b887!8m2!3d45.5729978!4d25.3437973!16s%2Fg%2F11g_v69psy!19sChIJ7R8hLbJJs0ARh7gZ1mSRdfI?authuser=0&hl=tr&rclk=1",
    "website_url": "",
    "rating_text": "3,9",
    "stars": null,
    "number_of_reviews": null,
    "price_level": "",
    "open_hours": "",
    "extraction_timestamp": "2025-06-07T18:17:45.722Z",
    "source_name": "google",
    "source_query": "Irrigation Equipment",
    "source_country": "RO",
    "country": "Romania",
    "state": "Brașov County",
    "city": "Zărnești"
  },
  {
    "source_id": "ChIJ95MDfwZJs0AREewWzf4Zy6w",
    "name": "La Badea",
    "category": "La Badea",
    "formatted_address": "4,2(27)",
    "phone_number": "",
    "source_url": "https://www.google.com/maps/place/La+Badea/data=!4m7!3m6!1s0x40b349067f0393f7:0xaccb19fecd16ec11!8m2!3d45.5584348!4d25.3194228!16s%2Fg%2F11df0xm_gh!19sChIJ95MDfwZJs0AREewWzf4Zy6w?authuser=0&hl=tr&rclk=1",
    "website_url": "",
    "rating_text": "4,2",
    "stars": null,
    "number_of_reviews": null,
    "price_level": "",
    "open_hours": "",
    "extraction_timestamp": "2025-06-07T18:17:45.723Z",
    "source_name": "google",
    "source_query": "Irrigation Equipment",
    "source_country": "RO",
    "country": "Romania",
    "state": "Brașov County",
    "city": "Zărnești"
  },
  {
    "source_id": "ChIJ2fwBWiBHs0ARCKWoFm16y50",
    "name": "Itp Bran",
    "category": "Itp Bran",
    "formatted_address": "5,0(79)",
    "phone_number": "+40725983134",
    "source_url": "https://www.google.com/maps/place/Itp+Bran/data=!4m7!3m6!1s0x40b347205a01fcd9:0x9dcb7a6d16a8a508!8m2!3d45.5386715!4d25.378032!16s%2Fg%2F11qnjnqk4h!19sChIJ2fwBWiBHs0ARCKWoFm16y50?authuser=0&hl=tr&rclk=1",
    "website_url": "",
    "rating_text": "5,0",
    "stars": null,
    "number_of_reviews": null,
    "price_level": "",
    "open_hours": "",
    "extraction_timestamp": "2025-06-07T18:17:45.724Z",
    "source_name": "google",
    "source_query": "Irrigation Equipment",
    "source_country": "RO",
    "country": "Romania",
    "state": "Brașov County",
    "city": "Zărnești"
  },
  {
    "source_id": "ChIJWY5XvL5Js0ARfTXd4oFXd6E",
    "name": "Ropharma 98 Zarnești",
    "category": "Ropharma 98 Zarnești",
    "formatted_address": "4,5(58)",
    "phone_number": "+40791330186",
    "source_url": "https://www.google.com/maps/place/Ropharma+98+Zarne%C8%99ti/data=!4m7!3m6!1s0x40b349bebc578e59:0xa1775781e2dd357d!8m2!3d45.5721399!4d25.3561804!16s%2Fg%2F11j1hm3db7!19sChIJWY5XvL5Js0ARfTXd4oFXd6E?authuser=0&hl=tr&rclk=1",
    "website_url": "",
    "rating_text": "4,5",
    "stars": null,
    "number_of_reviews": null,
    "price_level": "",
    "open_hours": "",
    "extraction_timestamp": "2025-06-07T18:17:45.724Z",
    "source_name": "google",
    "source_query": "Irrigation Equipment",
    "source_country": "RO",
    "country": "Romania",
    "state": "Brașov County",
    "city": "Zărnești"
  },
  {
    "source_id": "ChIJB8hDg51Is0ARe5dt-uCwhqA",
    "name": "MAGAZIN ALIMENTAR",
    "category": "MAGAZIN ALIMENTAR",
    "formatted_address": "4,4(128)",
    "phone_number": "",
    "source_url": "https://www.google.com/maps/place/MAGAZIN+ALIMENTAR/data=!4m7!3m6!1s0x40b3489d8343c807:0xa086b0e0fa6d977b!8m2!3d45.550461!4d25.3867281!16s%2Fg%2F11f3s00hyg!19sChIJB8hDg51Is0ARe5dt-uCwhqA?authuser=0&hl=tr&rclk=1",
    "website_url": "",
    "rating_text": "4,4",
    "stars": null,
    "number_of_reviews": null,
    "price_level": "",
    "open_hours": "",
    "extraction_timestamp": "2025-06-07T18:17:45.725Z",
    "source_name": "google",
    "source_query": "Irrigation Equipment",
    "source_country": "RO",
    "country": "Romania",
    "state": "Brașov County",
    "city": "Zărnești"
  },
  {
    "source_id": "ChIJ49B6iQlJs0ARYCoC8NNpJ3U",
    "name": "Robobi Invest SRL",
    "category": "Robobi Invest SRL",
    "formatted_address": "4,2(9)",
    "phone_number": "",
    "source_url": "https://www.google.com/maps/place/Robobi+Invest+SRL/data=!4m7!3m6!1s0x40b34909897ad0e3:0x752769d3f0022a60!8m2!3d45.5522956!4d25.3832454!16s%2Fg%2F11lj_04t69!19sChIJ49B6iQlJs0ARYCoC8NNpJ3U?authuser=0&hl=tr&rclk=1",
    "website_url": "",
    "rating_text": "4,2",
    "stars": null,
    "number_of_reviews": null,
    "price_level": "",
    "open_hours": "",
    "extraction_timestamp": "2025-06-07T18:17:45.727Z",
    "source_name": "google",
    "source_query": "Irrigation Equipment",
    "source_country": "RO",
    "country": "Romania",
    "state": "Brașov County",
    "city": "Zărnești"
  },
  {
    "source_id": "ChIJURI4XvxJs0AR_DlnGQ5kTzg",
    "name": "La Tălică",
    "category": "La Tălică",
    "formatted_address": "5,0(3)",
    "phone_number": "",
    "source_url": "https://www.google.com/maps/place/La+T%C4%83lic%C4%83/data=!4m7!3m6!1s0x40b349fc5e381251:0x384f640e196739fc!8m2!3d45.5772448!4d25.3700455!16s%2Fg%2F11shkgwlz1!19sChIJURI4XvxJs0AR_DlnGQ5kTzg?authuser=0&hl=tr&rclk=1",
    "website_url": "",
    "rating_text": "5,0",
    "stars": null,
    "number_of_reviews": null,
    "price_level": "",
    "open_hours": "",
    "extraction_timestamp": "2025-06-07T18:17:45.728Z",
    "source_name": "google",
    "source_query": "Irrigation Equipment",
    "source_country": "RO",
    "country": "Romania",
    "state": "Brașov County",
    "city": "Zărnești"
  },
  {
    "source_id": "ChIJTW_Kbg9Js0ARtAPEvptE0Y4",
    "name": "Alestro FarmVet SRL",
    "category": "Alestro FarmVet SRL",
    "formatted_address": "3,6(12)",
    "phone_number": "+40741259318",
    "source_url": "https://www.google.com/maps/place/Alestro+FarmVet+SRL/data=!4m7!3m6!1s0x40b3490f6eca6f4d:0x8ed1449bbec403b4!8m2!3d45.56086!4d25.3167404!16s%2Fg%2F11fzf23srd!19sChIJTW_Kbg9Js0ARtAPEvptE0Y4?authuser=0&hl=tr&rclk=1",
    "website_url": "",
    "rating_text": "3,6",
    "stars": null,
    "number_of_reviews": null,
    "price_level": "",
    "open_hours": "",
    "extraction_timestamp": "2025-06-07T18:17:45.729Z",
    "source_name": "google",
    "source_query": "Irrigation Equipment",
    "source_country": "RO",
    "country": "Romania",
    "state": "Brașov County",
    "city": "Zărnești"
  },
  {
    "source_id": "ChIJ0XV_1R9Js0ARl9WjGMf3-pI",
    "name": "Minimarket Rub",
    "category": "Minimarket Rub",
    "formatted_address": "4,2(38)",
    "phone_number": "",
    "source_url": "https://www.google.com/maps/place/Minimarket+Rub/data=!4m7!3m6!1s0x40b3491fd57f75d1:0x92faf7c718a3d597!8m2!3d45.558684!4d25.3240752!16s%2Fg%2F11l8qkzbzq!19sChIJ0XV_1R9Js0ARl9WjGMf3-pI?authuser=0&hl=tr&rclk=1",
    "website_url": "",
    "rating_text": "4,2",
    "stars": null,
    "number_of_reviews": null,
    "price_level": "",
    "open_hours": "",
    "extraction_timestamp": "2025-06-07T18:17:45.730Z",
    "source_name": "google",
    "source_query": "Irrigation Equipment",
    "source_country": "RO",
    "country": "Romania",
    "state": "Brașov County",
    "city": "Zărnești"
  },
  {
    "source_id": "ChIJjXa8rbBJs0ARWERy7HwFARY",
    "name": "Catena",
    "category": "Catena",
    "formatted_address": "2,9(17)",
    "phone_number": "+40755011385",
    "source_url": "https://www.google.com/maps/place/Catena/data=!4m7!3m6!1s0x40b349b0adbc768d:0x1601057cec724458!8m2!3d45.5694031!4d25.3383112!16s%2Fg%2F11gvz8pfjk!19sChIJjXa8rbBJs0ARWERy7HwFARY?authuser=0&hl=tr&rclk=1",
    "website_url": "",
    "rating_text": "2,9",
    "stars": null,
    "number_of_reviews": null,
    "price_level": "",
    "open_hours": "",
    "extraction_timestamp": "2025-06-07T18:17:45.731Z",
    "source_name": "google",
    "source_query": "Irrigation Equipment",
    "source_country": "RO",
    "country": "Romania",
    "state": "Brașov County",
    "city": "Zărnești"
  },
  {
    "source_id": "ChIJv6rrNwBJs0ARFLGj7Ni-ZMw",
    "name": "Annabella",
    "category": "Annabella",
    "formatted_address": "4,0(10)",
    "phone_number": "",
    "source_url": "https://www.google.com/maps/place/Annabella/data=!4m7!3m6!1s0x40b3490037ebaabf:0xcc64bed8eca3b114!8m2!3d45.5723992!4d25.3469836!16s%2Fg%2F11wx4b7dp1!19sChIJv6rrNwBJs0ARFLGj7Ni-ZMw?authuser=0&hl=tr&rclk=1",
    "website_url": "",
    "rating_text": "4,0",
    "stars": null,
    "number_of_reviews": null,
    "price_level": "",
    "open_hours": "",
    "extraction_timestamp": "2025-06-07T18:17:45.731Z",
    "source_name": "google",
    "source_query": "Irrigation Equipment",
    "source_country": "RO",
    "country": "Romania",
    "state": "Brașov County",
    "city": "Zărnești"
  },
  {
    "source_id": "ChIJJcR7KSBJs0ARW6yvNetlhVY",
    "name": "LeFruMarin",
    "category": "LeFruMarin",
    "formatted_address": "5,0(4)",
    "phone_number": "+40745342351",
    "source_url": "https://www.google.com/maps/place/LeFruMarin/data=!4m7!3m6!1s0x40b34920297bc425:0x568565eb35afac5b!8m2!3d45.5694089!4d25.3388151!16s%2Fg%2F1tf34g62!19sChIJJcR7KSBJs0ARW6yvNetlhVY?authuser=0&hl=tr&rclk=1",
    "website_url": "",
    "rating_text": "5,0",
    "stars": null,
    "number_of_reviews": null,
    "price_level": "",
    "open_hours": "",
    "extraction_timestamp": "2025-06-07T18:17:45.733Z",
    "source_name": "google",
    "source_query": "Irrigation Equipment",
    "source_country": "RO",
    "country": "Romania",
    "state": "Brașov County",
    "city": "Zărnești"
  },
  {
    "source_id": "ChIJOxWuKtxIs0ARTLfyDcptuoo",
    "name": "Mini Market",
    "category": "Mini Market",
    "formatted_address": "5,0(1)",
    "phone_number": "",
    "source_url": "https://www.google.com/maps/place/Mini+Market/data=!4m7!3m6!1s0x40b348dc2aae153b:0x8aba6dca0df2b74c!8m2!3d45.5691668!4d25.3499088!16s%2Fg%2F11t4klrscy!19sChIJOxWuKtxIs0ARTLfyDcptuoo?authuser=0&hl=tr&rclk=1",
    "website_url": "",
    "rating_text": "5,0",
    "stars": null,
    "number_of_reviews": null,
    "price_level": "",
    "open_hours": "",
    "extraction_timestamp": "2025-06-07T18:17:45.733Z",
    "source_name": "google",
    "source_query": "Irrigation Equipment",
    "source_country": "RO",
    "country": "Romania",
    "state": "Brașov County",
    "city": "Zărnești"
  }
]
