[
  {
    "source_id": "ChIJu-g2n-WIsUcRBeIBVUNa9Es",
    "name": "F.W.M. Schorbach KG (GmbH & Co.)",
    "category": "F.W.M. Schorbach KG (GmbH & Co.)",
    "formatted_address": "4,5(16)",
    "phone_number": "+4940511290",
    "source_url": "https://www.google.com/maps/place/F.W.M.+Schorbach+KG+%28GmbH+%26+Co.%29/data=!4m7!3m6!1s0x47b188e59f36e8bb:0x4bf45a435501e205!8m2!3d53.6086909!4d10.0079014!16s%2Fg%2F1thlm3tw!19sChIJu-g2n-WIsUcRBeIBVUNa9Es?authuser=0&hl=tr&rclk=1",
    "website_url": "",
    "rating_text": "4,5",
    "stars": null,
    "number_of_reviews": null,
    "price_level": "",
    "open_hours": "",
    "extraction_timestamp": "2025-06-07T15:19:50.333Z",
    "source_name": "google",
    "source_query": "Irrigation Equipment",
    "source_country": "DE",
    "country": "Germany",
    "state": "Hamburg",
    "city": "Alsterdorf"
  },
  {
    "source_id": "ChIJXy9-DRaJsUcRLL-gWDwhpEY",
    "name": "C&P Aquaplants",
    "category": "C&P Aquaplants",
    "formatted_address": "4,4(5)",
    "phone_number": "+494084306403",
    "source_url": "https://www.google.com/maps/place/C%26P+Aquaplants/data=!4m7!3m6!1s0x47b189160d7e2f5f:0x46a4213c58a0bf2c!8m2!3d53.6004973!4d10.038029!16s%2Fg%2F11vxxr_60x!19sChIJXy9-DRaJsUcRLL-gWDwhpEY?authuser=0&hl=tr&rclk=1",
    "website_url": "",
    "rating_text": "4,4",
    "stars": null,
    "number_of_reviews": null,
    "price_level": "",
    "open_hours": "",
    "extraction_timestamp": "2025-06-07T15:19:50.334Z",
    "source_name": "google",
    "source_query": "Irrigation Equipment",
    "source_country": "DE",
    "country": "Germany",
    "state": "Hamburg",
    "city": "Alsterdorf"
  },
  {
    "source_id": "ChIJixz8c2zzsUcRvWDIvRaRRaY",
    "name": "ABS Bewässerungssysteme",
    "category": "ABS Bewässerungssysteme",
    "formatted_address": "5,0(10)",
    "phone_number": "+494020963222",
    "source_url": "https://www.google.com/maps/place/ABS+Bew%C3%A4sserungssysteme/data=!4m7!3m6!1s0x47b1f36c73fc1c8b:0xa6459116bdc860bd!8m2!3d53.4851575!4d10.1899135!16s%2Fg%2F11pwpgyn7x!19sChIJixz8c2zzsUcRvWDIvRaRRaY?authuser=0&hl=tr&rclk=1",
    "website_url": "",
    "rating_text": "5,0",
    "stars": null,
    "number_of_reviews": null,
    "price_level": "",
    "open_hours": "",
    "extraction_timestamp": "2025-06-07T15:19:50.335Z",
    "source_name": "google",
    "source_query": "Irrigation Equipment",
    "source_country": "DE",
    "country": "Germany",
    "state": "Hamburg",
    "city": "Alsterdorf"
  },
  {
    "source_id": "ChIJl0eq2OiIsUcR3_-qgTBolPQ",
    "name": "budni - Alsterdorfer Straße",
    "category": "budni - Alsterdorfer Straße",
    "formatted_address": "4,6(46)",
    "phone_number": "+494080603030",
    "source_url": "https://www.google.com/maps/place/budni+-+Alsterdorfer+Stra%C3%9Fe/data=!4m7!3m6!1s0x47b188e8d8aa4797:0xf494683081aaffdf!8m2!3d53.6057784!4d10.0013875!16s%2Fg%2F12lrwkgxh!19sChIJl0eq2OiIsUcR3_-qgTBolPQ?authuser=0&hl=tr&rclk=1",
    "website_url": "",
    "rating_text": "4,6",
    "stars": null,
    "number_of_reviews": null,
    "price_level": "",
    "open_hours": "",
    "extraction_timestamp": "2025-06-07T15:19:50.337Z",
    "source_name": "google",
    "source_query": "Irrigation Equipment",
    "source_country": "DE",
    "country": "Germany",
    "state": "Hamburg",
    "city": "Alsterdorf"
  },
  {
    "source_id": "ChIJ7em9Wp-IsUcR-PnzCLUWox4",
    "name": "Quellklar by Hydro-Shop",
    "category": "Quellklar by Hydro-Shop",
    "formatted_address": "3,5(8)",
    "phone_number": "+49405001720",
    "source_url": "https://www.google.com/maps/place/Quellklar+by+Hydro-Shop/data=!4m7!3m6!1s0x47b1889f5abde9ed:0x1ea316b508f3f9f8!8m2!3d53.610056!4d9.974098!16s%2Fg%2F1hc3w12m3!19sChIJ7em9Wp-IsUcR-PnzCLUWox4?authuser=0&hl=tr&rclk=1",
    "website_url": "",
    "rating_text": "3,5",
    "stars": null,
    "number_of_reviews": null,
    "price_level": "",
    "open_hours": "",
    "extraction_timestamp": "2025-06-07T15:19:50.339Z",
    "source_name": "google",
    "source_query": "Irrigation Equipment",
    "source_country": "DE",
    "country": "Germany",
    "state": "Hamburg",
    "city": "Alsterdorf"
  },
  {
    "source_id": "ChIJY2oXPROJsUcRXTiZUnGdu3g",
    "name": "EDEKA Ecks",
    "category": "EDEKA Ecks",
    "formatted_address": "4,4(905)",
    "phone_number": "+494050090459",
    "source_url": "https://www.google.com/maps/place/EDEKA+Ecks/data=!4m7!3m6!1s0x47b189133d176a63:0x78bb9d715299385d!8m2!3d53.6126227!4d10.0254485!16s%2Fg%2F1td71174!19sChIJY2oXPROJsUcRXTiZUnGdu3g?authuser=0&hl=tr&rclk=1",
    "website_url": "",
    "rating_text": "4,4",
    "stars": null,
    "number_of_reviews": null,
    "price_level": "",
    "open_hours": "",
    "extraction_timestamp": "2025-06-07T15:19:50.340Z",
    "source_name": "google",
    "source_query": "Irrigation Equipment",
    "source_country": "DE",
    "country": "Germany",
    "state": "Hamburg",
    "city": "Alsterdorf"
  },
  {
    "source_id": "ChIJlU6e_-WIsUcR_KKrCOZPyBk",
    "name": "Heimtierpartner Zoo-Markt Alsterdorf GmbH",
    "category": "Heimtierpartner Zoo-Markt Alsterdorf GmbH",
    "formatted_address": "4,8(112)",
    "phone_number": "+49405119099",
    "source_url": "https://www.google.com/maps/place/Heimtierpartner+Zoo-Markt+Alsterdorf+GmbH/data=!4m7!3m6!1s0x47b188e5ff9e4e95:0x19c84fe608aba2fc!8m2!3d53.6068157!4d10.0056624!16s%2Fg%2F1tcv0h6l!19sChIJlU6e_-WIsUcR_KKrCOZPyBk?authuser=0&hl=tr&rclk=1",
    "website_url": "",
    "rating_text": "4,8",
    "stars": null,
    "number_of_reviews": null,
    "price_level": "",
    "open_hours": "",
    "extraction_timestamp": "2025-06-07T15:19:50.341Z",
    "source_name": "google",
    "source_query": "Irrigation Equipment",
    "source_country": "DE",
    "country": "Germany",
    "state": "Hamburg",
    "city": "Alsterdorf"
  },
  {
    "source_id": "ChIJ_auqKS6JsUcRZ20QTndgQyo",
    "name": "Pergola Kiosk",
    "category": "Pergola Kiosk",
    "formatted_address": "4,8(59)",
    "phone_number": "",
    "source_url": "https://www.google.com/maps/place/Pergola+Kiosk/data=!4m7!3m6!1s0x47b1892e29aaabfd:0x2a4360774e106d67!8m2!3d53.6031025!4d10.031509!16s%2Fg%2F11t2st7nvj!19sChIJ_auqKS6JsUcRZ20QTndgQyo?authuser=0&hl=tr&rclk=1",
    "website_url": "",
    "rating_text": "4,8",
    "stars": null,
    "number_of_reviews": null,
    "price_level": "",
    "open_hours": "",
    "extraction_timestamp": "2025-06-07T15:19:50.342Z",
    "source_name": "google",
    "source_query": "Irrigation Equipment",
    "source_country": "DE",
    "country": "Germany",
    "state": "Hamburg",
    "city": "Alsterdorf"
  },
  {
    "source_id": "ChIJ4R34GoKPsUcR_Di8Y72u1Q4",
    "name": "AN-Beregnungstechnik",
    "category": "AN-Beregnungstechnik",
    "formatted_address": "",
    "phone_number": "+4917673517226",
    "source_url": "https://www.google.com/maps/place/AN-Beregnungstechnik/data=!4m7!3m6!1s0x47b18f821af81de1:0xed5aebd63bc38fc!8m2!3d53.5576744!4d10.0112776!16s%2Fg%2F11x33m21xg!19sChIJ4R34GoKPsUcR_Di8Y72u1Q4?authuser=0&hl=tr&rclk=1",
    "website_url": "",
    "rating_text": "",
    "stars": null,
    "number_of_reviews": null,
    "price_level": "",
    "open_hours": "",
    "extraction_timestamp": "2025-06-07T15:19:50.343Z",
    "source_name": "google",
    "source_query": "Irrigation Equipment",
    "source_country": "DE",
    "country": "Germany",
    "state": "Hamburg",
    "city": "Alsterdorf"
  },
  {
    "source_id": "ChIJg2iGx_aIsUcRdW7gSn_cpgg",
    "name": "Getränke Hoffmann",
    "category": "Getränke Hoffmann",
    "formatted_address": "4,5(238)",
    "phone_number": "+494050790095",
    "source_url": "https://www.google.com/maps/place/Getr%C3%A4nke+Hoffmann/data=!4m7!3m6!1s0x47b188f6c7866883:0x8a6dc7f4ae06e75!8m2!3d53.618357!4d10.0040485!16s%2Fg%2F1tdz3wr7!19sChIJg2iGx_aIsUcRdW7gSn_cpgg?authuser=0&hl=tr&rclk=1",
    "website_url": "",
    "rating_text": "4,5",
    "stars": null,
    "number_of_reviews": null,
    "price_level": "",
    "open_hours": "",
    "extraction_timestamp": "2025-06-07T15:19:50.345Z",
    "source_name": "google",
    "source_query": "Irrigation Equipment",
    "source_country": "DE",
    "country": "Germany",
    "state": "Hamburg",
    "city": "Alsterdorf"
  },
  {
    "source_id": "ChIJPeRn4cCIsUcReUrGLlrwV7E",
    "name": "SUP pirates Hamburg",
    "category": "SUP pirates Hamburg",
    "formatted_address": "4,7(12)",
    "phone_number": "+4915789608406",
    "source_url": "https://www.google.com/maps/place/SUP+pirates+Hamburg/data=!4m7!3m6!1s0x47b188c0e167e43d:0xb157f05a2ec64a79!8m2!3d53.5984486!4d9.9906661!16s%2Fg%2F11g6pxmbx_!19sChIJPeRn4cCIsUcReUrGLlrwV7E?authuser=0&hl=tr&rclk=1",
    "website_url": "",
    "rating_text": "4,7",
    "stars": null,
    "number_of_reviews": null,
    "price_level": "",
    "open_hours": "",
    "extraction_timestamp": "2025-06-07T15:19:50.345Z",
    "source_name": "google",
    "source_query": "Irrigation Equipment",
    "source_country": "DE",
    "country": "Germany",
    "state": "Hamburg",
    "city": "Alsterdorf"
  }
]
