[
  {
    "source_id": "ChIJoTTkHW6GsUcRuYcF9jn7GgE",
    "name": "Emil Lüdemann GmbH & Co. KG",
    "category": "Emil Lüdemann GmbH & Co. KG",
    "formatted_address": "4,6(344)",
    "phone_number": "+49405472190",
    "source_url": "https://www.google.com/maps/place/Emil+L%C3%BCdemann+GmbH+%26+Co.+KG/data=!4m7!3m6!1s0x47b1866e1de434a1:0x11afb39f60587b9!8m2!3d53.5974091!4d9.9174937!16s%2Fg%2F1tqck8cj!19sChIJoTTkHW6GsUcRuYcF9jn7GgE?authuser=0&hl=tr&rclk=1",
    "website_url": "",
    "rating_text": "4,6",
    "stars": null,
    "number_of_reviews": null,
    "price_level": "",
    "open_hours": "",
    "extraction_timestamp": "2025-06-07T15:21:02.435Z",
    "source_name": "google",
    "source_query": "Irrigation Equipment",
    "source_country": "DE",
    "country": "Germany",
    "state": "Hamburg",
    "city": "Altona"
  },
  {
    "source_id": "ChIJSX-oGTSEsUcR_GM7UU0ELTs",
    "name": "Toplicht Schiffsausrüstung",
    "category": "Toplicht Schiffsausrüstung",
    "formatted_address": "4,6(252)",
    "phone_number": "+49408890100",
    "source_url": "https://www.google.com/maps/place/Toplicht+Schiffsausr%C3%BCstung/data=!4m7!3m6!1s0x47b1843419a87f49:0x3b2d044d513b63fc!8m2!3d53.5720532!4d9.8796257!16s%2Fg%2F1pp2vhsgz!19sChIJSX-oGTSEsUcR_GM7UU0ELTs?authuser=0&hl=tr&rclk=1",
    "website_url": "",
    "rating_text": "4,6",
    "stars": null,
    "number_of_reviews": null,
    "price_level": "",
    "open_hours": "",
    "extraction_timestamp": "2025-06-07T15:21:02.436Z",
    "source_name": "google",
    "source_query": "Irrigation Equipment",
    "source_country": "DE",
    "country": "Germany",
    "state": "Hamburg",
    "city": "Altona"
  },
  {
    "source_id": "ChIJ1657o2KFsUcR2LHctpNO31A",
    "name": "Mein Klempner Hamburg | Handwerker | Sanitär & Heizungbau | Badsanierung | Fußbodenheizung Nachrüsten | Fugentechnik",
    "category": "Mein Klempner Hamburg | Handwerker | Sanitär & Heizungbau | Badsanierung | Fußbodenheizung Nachrüsten | Fugentechnik",
    "formatted_address": "5,0(113)",
    "phone_number": "+4919024",
    "source_url": "https://www.google.com/maps/place/Mein+Klempner+Hamburg+%7C+Handwerker+%7C+Sanit%C3%A4r+%26+Heizungbau+%7C+Badsanierung+%7C+Fu%C3%9Fbodenheizung+Nachr%C3%BCsten+%7C+Fugentechnik/data=!4m7!3m6!1s0x47b18562a37baed7:0x50df4e93b6dcb1d8!8m2!3d53.5458129!4d9.904346!16s%2Fg%2F11hf3lh0p9!19sChIJ1657o2KFsUcR2LHctpNO31A?authuser=0&hl=tr&rclk=1",
    "website_url": "",
    "rating_text": "5,0",
    "stars": null,
    "number_of_reviews": null,
    "price_level": "",
    "open_hours": "",
    "extraction_timestamp": "2025-06-07T15:21:02.437Z",
    "source_name": "google",
    "source_query": "Irrigation Equipment",
    "source_country": "DE",
    "country": "Germany",
    "state": "Hamburg",
    "city": "Altona"
  },
  {
    "source_id": "ChIJyR2oh2mPsUcRBUimjPaxPJ4",
    "name": "Pflanzburg GmbH Growshop",
    "category": "Pflanzburg GmbH Growshop",
    "formatted_address": "4,2(116)",
    "phone_number": "+49404305399",
    "source_url": "https://www.google.com/maps/place/Pflanzburg+GmbH+Growshop/data=!4m7!3m6!1s0x47b18f6987a81dc9:0x9e3cb1f68ca64805!8m2!3d53.5584828!4d9.9645599!16s%2Fg%2F1tf6wdmc!19sChIJyR2oh2mPsUcRBUimjPaxPJ4?authuser=0&hl=tr&rclk=1",
    "website_url": "",
    "rating_text": "4,2",
    "stars": null,
    "number_of_reviews": null,
    "price_level": "",
    "open_hours": "",
    "extraction_timestamp": "2025-06-07T15:21:02.438Z",
    "source_name": "google",
    "source_query": "Irrigation Equipment",
    "source_country": "DE",
    "country": "Germany",
    "state": "Hamburg",
    "city": "Altona"
  },
  {
    "source_id": "ChIJWYJ2dziEsUcRX45hl7OxExQ",
    "name": "Lympha Wasserspender",
    "category": "Lympha Wasserspender",
    "formatted_address": "3,5(4)",
    "phone_number": "+494087503787",
    "source_url": "https://www.google.com/maps/place/Lympha+Wasserspender/data=!4m7!3m6!1s0x47b1843877768259:0x1413b1b397618e5f!8m2!3d53.5757163!4d9.888673!16s%2Fg%2F1td7b69x!19sChIJWYJ2dziEsUcRX45hl7OxExQ?authuser=0&hl=tr&rclk=1",
    "website_url": "",
    "rating_text": "3,5",
    "stars": null,
    "number_of_reviews": null,
    "price_level": "",
    "open_hours": "",
    "extraction_timestamp": "2025-06-07T15:21:02.439Z",
    "source_name": "google",
    "source_query": "Irrigation Equipment",
    "source_country": "DE",
    "country": "Germany",
    "state": "Hamburg",
    "city": "Altona"
  },
  {
    "source_id": "ChIJpxy1k2iPsUcRynt_ctiOA6A",
    "name": "ad fontes Solartechnik GmbH",
    "category": "ad fontes Solartechnik GmbH",
    "formatted_address": "5,0(20)",
    "phone_number": "+49404306041",
    "source_url": "https://www.google.com/maps/place/ad+fontes+Solartechnik+GmbH/data=!4m7!3m6!1s0x47b18f6893b51ca7:0xa0038ed8727f7bca!8m2!3d53.5589148!4d9.9285544!16s%2Fg%2F1tfvr_nw!19sChIJpxy1k2iPsUcRynt_ctiOA6A?authuser=0&hl=tr&rclk=1",
    "website_url": "",
    "rating_text": "5,0",
    "stars": null,
    "number_of_reviews": null,
    "price_level": "",
    "open_hours": "",
    "extraction_timestamp": "2025-06-07T15:21:02.439Z",
    "source_name": "google",
    "source_query": "Irrigation Equipment",
    "source_country": "DE",
    "country": "Germany",
    "state": "Hamburg",
    "city": "Altona"
  },
  {
    "source_id": "ChIJhf9CdwCFsUcRR0QuSVdN5NA",
    "name": "Proma Farben & Lacke Malermarkt | Gewerbe & Privat | Handwerkermarkt | Mapei | Caparol | Sikkens | Herbol | Jotun",
    "category": "Proma Farben & Lacke Malermarkt | Gewerbe & Privat | Handwerkermarkt | Mapei | Caparol | Sikkens | Herbol | Jotun",
    "formatted_address": "5,0(157)",
    "phone_number": "+494074303922",
    "source_url": "https://www.google.com/maps/place/Proma+Farben+%26+Lacke+Malermarkt+%7C+Gewerbe+%26+Privat+%7C+Handwerkermarkt+%7C+Mapei+%7C+Caparol+%7C+Sikkens+%7C+Herbol+%7C+Jotun/data=!4m7!3m6!1s0x47b185007742ff85:0xd0e44d57492e4447!8m2!3d53.5669207!4d9.9086703!16s%2Fg%2F11lg2xkx5w!19sChIJhf9CdwCFsUcRR0QuSVdN5NA?authuser=0&hl=tr&rclk=1",
    "website_url": "",
    "rating_text": "5,0",
    "stars": null,
    "number_of_reviews": null,
    "price_level": "",
    "open_hours": "",
    "extraction_timestamp": "2025-06-07T15:21:02.440Z",
    "source_name": "google",
    "source_query": "Irrigation Equipment",
    "source_country": "DE",
    "country": "Germany",
    "state": "Hamburg",
    "city": "Altona"
  },
  {
    "source_id": "ChIJbZWvBVSPsUcRztmvggSyx7w",
    "name": "HEG Engineering GmbH",
    "category": "HEG Engineering GmbH",
    "formatted_address": "5,0(1)",
    "phone_number": "+49404231110",
    "source_url": "https://www.google.com/maps/place/HEG+Engineering+GmbH/data=!4m7!3m6!1s0x47b18f5405af956d:0xbcc7b20482afd9ce!8m2!3d53.5783202!4d9.9565436!16s%2Fg%2F1v0ljv54!19sChIJbZWvBVSPsUcRztmvggSyx7w?authuser=0&hl=tr&rclk=1",
    "website_url": "",
    "rating_text": "5,0",
    "stars": null,
    "number_of_reviews": null,
    "price_level": "",
    "open_hours": "",
    "extraction_timestamp": "2025-06-07T15:21:02.441Z",
    "source_name": "google",
    "source_query": "Irrigation Equipment",
    "source_country": "DE",
    "country": "Germany",
    "state": "Hamburg",
    "city": "Altona"
  },
  {
    "source_id": "ChIJ4R34GoKPsUcR_Di8Y72u1Q4",
    "name": "AN-Beregnungstechnik",
    "category": "AN-Beregnungstechnik",
    "formatted_address": "",
    "phone_number": "+4917673517226",
    "source_url": "https://www.google.com/maps/place/AN-Beregnungstechnik/data=!4m7!3m6!1s0x47b18f821af81de1:0xed5aebd63bc38fc!8m2!3d53.5576744!4d10.0112776!16s%2Fg%2F11x33m21xg!19sChIJ4R34GoKPsUcR_Di8Y72u1Q4?authuser=0&hl=tr&rclk=1",
    "website_url": "",
    "rating_text": "",
    "stars": null,
    "number_of_reviews": null,
    "price_level": "",
    "open_hours": "",
    "extraction_timestamp": "2025-06-07T15:21:02.442Z",
    "source_name": "google",
    "source_query": "Irrigation Equipment",
    "source_country": "DE",
    "country": "Germany",
    "state": "Hamburg",
    "city": "Altona"
  },
  {
    "source_id": "ChIJK9e1W3IgskcRujMeeHH8K98",
    "name": "Friedrich Lange GmbH - Bathroom Showroom Hamburg-Bahrenfeld",
    "category": "Friedrich Lange GmbH - Bathroom Showroom Hamburg-Bahrenfeld",
    "formatted_address": "3,7(55)",
    "phone_number": "+49408996630",
    "source_url": "https://www.google.com/maps/place/Friedrich+Lange+GmbH+-+Bathroom+Showroom+Hamburg-Bahrenfeld/data=!4m7!3m6!1s0x47b220725bb5d72b:0xdf2bfc71781e33ba!8m2!3d53.5666559!4d9.9186693!16s%2Fg%2F1tfgc8s5!19sChIJK9e1W3IgskcRujMeeHH8K98?authuser=0&hl=tr&rclk=1",
    "website_url": "",
    "rating_text": "3,7",
    "stars": null,
    "number_of_reviews": null,
    "price_level": "",
    "open_hours": "",
    "extraction_timestamp": "2025-06-07T15:21:02.442Z",
    "source_name": "google",
    "source_query": "Irrigation Equipment",
    "source_country": "DE",
    "country": "Germany",
    "state": "Hamburg",
    "city": "Altona"
  },
  {
    "source_id": "ChIJK0vw8PmFsUcRb7VjJz6eUUs",
    "name": "Speidel System Drying GmbH",
    "category": "Speidel System Drying GmbH",
    "formatted_address": "4,2(19)",
    "phone_number": "+4940853280024",
    "source_url": "https://www.google.com/maps/place/Speidel+System+Drying+GmbH/data=!4m7!3m6!1s0x47b185f9f0f04b2b:0x4b519e3e2763b56f!8m2!3d53.573945!4d9.9270676!16s%2Fg%2F1th80_fv!19sChIJK0vw8PmFsUcRb7VjJz6eUUs?authuser=0&hl=tr&rclk=1",
    "website_url": "",
    "rating_text": "4,2",
    "stars": null,
    "number_of_reviews": null,
    "price_level": "",
    "open_hours": "",
    "extraction_timestamp": "2025-06-07T15:21:02.443Z",
    "source_name": "google",
    "source_query": "Irrigation Equipment",
    "source_country": "DE",
    "country": "Germany",
    "state": "Hamburg",
    "city": "Altona"
  },
  {
    "source_id": "ChIJSXMLkUUQskcRbmJhR8HXXwo",
    "name": "Aqua free Service GmbH",
    "category": "Aqua free Service GmbH",
    "formatted_address": "5,0(4)",
    "phone_number": "+494046899901",
    "source_url": "https://www.google.com/maps/place/Aqua+free+Service+GmbH/data=!4m7!3m6!1s0x47b21045910b7349:0xa5fd7c14761626e!8m2!3d53.576974!4d9.9167235!16s%2Fg%2F11c30w4pg3!19sChIJSXMLkUUQskcRbmJhR8HXXwo?authuser=0&hl=tr&rclk=1",
    "website_url": "",
    "rating_text": "5,0",
    "stars": null,
    "number_of_reviews": null,
    "price_level": "",
    "open_hours": "",
    "extraction_timestamp": "2025-06-07T15:21:02.444Z",
    "source_name": "google",
    "source_query": "Irrigation Equipment",
    "source_country": "DE",
    "country": "Germany",
    "state": "Hamburg",
    "city": "Altona"
  },
  {
    "source_id": "ChIJSXjsu_-DsUcRTW-SJeCsL5k",
    "name": "Bauzentrum Sand Hack GmbH",
    "category": "Bauzentrum Sand Hack GmbH",
    "formatted_address": "4,6(210)",
    "phone_number": "+49408393640",
    "source_url": "https://www.google.com/maps/place/Bauzentrum+Sand+Hack+GmbH/data=!4m7!3m6!1s0x47b183ffbbec7849:0x992face025926f4d!8m2!3d53.5919433!4d9.8316505!16s%2Fg%2F1tcxnqvg!19sChIJSXjsu_-DsUcRTW-SJeCsL5k?authuser=0&hl=tr&rclk=1",
    "website_url": "",
    "rating_text": "4,6",
    "stars": null,
    "number_of_reviews": null,
    "price_level": "",
    "open_hours": "",
    "extraction_timestamp": "2025-06-07T15:21:02.444Z",
    "source_name": "google",
    "source_query": "Irrigation Equipment",
    "source_country": "DE",
    "country": "Germany",
    "state": "Hamburg",
    "city": "Altona"
  },
  {
    "source_id": "ChIJqSTYZiaEsUcR9yH9Fl0VVBg",
    "name": "BAUHAUS Hamburg-Lurup",
    "category": "BAUHAUS Hamburg-Lurup",
    "formatted_address": "4,2(2.933)",
    "phone_number": "+494053327000",
    "source_url": "https://www.google.com/maps/place/BAUHAUS+Hamburg-Lurup/data=!4m7!3m6!1s0x47b1842666d824a9:0x1854155d16fd21f7!8m2!3d53.5858725!4d9.8739404!16s%2Fg%2F11b6209xtp!19sChIJqSTYZiaEsUcR9yH9Fl0VVBg?authuser=0&hl=tr&rclk=1",
    "website_url": "",
    "rating_text": "4,2",
    "stars": null,
    "number_of_reviews": null,
    "price_level": "",
    "open_hours": "",
    "extraction_timestamp": "2025-06-07T15:21:02.446Z",
    "source_name": "google",
    "source_query": "Irrigation Equipment",
    "source_country": "DE",
    "country": "Germany",
    "state": "Hamburg",
    "city": "Altona"
  },
  {
    "source_id": "ChIJfQRYrOyFsUcR7THt9-0_dys",
    "name": "Distelmaier GmbH Sanitär - Heizung - Dach",
    "category": "Distelmaier GmbH Sanitär - Heizung - Dach",
    "formatted_address": "4,9(16)",
    "phone_number": "+49408800707",
    "source_url": "https://www.google.com/maps/place/Distelmaier+GmbH+Sanit%C3%A4r+-+Heizung+-+Dach/data=!4m7!3m6!1s0x47b185ecac58047d:0x2b773fedf7ed31ed!8m2!3d53.5739738!4d9.9288069!16s%2Fg%2F1tg2ck9x!19sChIJfQRYrOyFsUcR7THt9-0_dys?authuser=0&hl=tr&rclk=1",
    "website_url": "",
    "rating_text": "4,9",
    "stars": null,
    "number_of_reviews": null,
    "price_level": "",
    "open_hours": "",
    "extraction_timestamp": "2025-06-07T15:21:02.463Z",
    "source_name": "google",
    "source_query": "Irrigation Equipment",
    "source_country": "DE",
    "country": "Germany",
    "state": "Hamburg",
    "city": "Altona"
  },
  {
    "source_id": "ChIJhRfTwEuFsUcR2SQJs_qVtu4",
    "name": "D.F. Liedelt Heizungs- und Sanitär-Großhandels-GmbH Abhol-Center",
    "category": "D.F. Liedelt Heizungs- und Sanitär-Großhandels-GmbH Abhol-Center",
    "formatted_address": "4,0(34)",
    "phone_number": "+494088302517",
    "source_url": "https://www.google.com/maps/place/D.F.+Liedelt+Heizungs-+und+Sanit%C3%A4r-Gro%C3%9Fhandels-GmbH+Abhol-Center/data=!4m7!3m6!1s0x47b1854bc0d31785:0xeeb695fab30924d9!8m2!3d53.5791778!4d9.917365!16s%2Fg%2F11h2718kns!19sChIJhRfTwEuFsUcR2SQJs_qVtu4?authuser=0&hl=tr&rclk=1",
    "website_url": "",
    "rating_text": "4,0",
    "stars": null,
    "number_of_reviews": null,
    "price_level": "",
    "open_hours": "",
    "extraction_timestamp": "2025-06-07T15:21:02.464Z",
    "source_name": "google",
    "source_query": "Irrigation Equipment",
    "source_country": "DE",
    "country": "Germany",
    "state": "Hamburg",
    "city": "Altona"
  },
  {
    "source_id": "ChIJ14zOTX2GsUcRLIdMEJrqVK8",
    "name": "Atlas Hamburg GmbH",
    "category": "Atlas Hamburg GmbH",
    "formatted_address": "4,8(62)",
    "phone_number": "+49408405420",
    "source_url": "https://www.google.com/maps/place/Atlas+Hamburg+GmbH/data=!4m7!3m6!1s0x47b1867d4dce8cd7:0xaf54ea9a104c872c!8m2!3d53.5986621!4d9.8982821!16s%2Fg%2F1tgdmm9_!19sChIJ14zOTX2GsUcRLIdMEJrqVK8?authuser=0&hl=tr&rclk=1",
    "website_url": "",
    "rating_text": "4,8",
    "stars": null,
    "number_of_reviews": null,
    "price_level": "",
    "open_hours": "",
    "extraction_timestamp": "2025-06-07T15:21:02.464Z",
    "source_name": "google",
    "source_query": "Irrigation Equipment",
    "source_country": "DE",
    "country": "Germany",
    "state": "Hamburg",
    "city": "Altona"
  },
  {
    "source_id": "ChIJC9nbqEuEsUcRtZFBRwCWrnU",
    "name": "Gerkens Haustechnik GmbH & Co. KG",
    "category": "Gerkens Haustechnik GmbH & Co. KG",
    "formatted_address": "4,5(27)",
    "phone_number": "+494073447510",
    "source_url": "https://www.google.com/maps/place/Gerkens+Haustechnik+GmbH+%26+Co.+KG/data=!4m7!3m6!1s0x47b1844ba8dbd90b:0x75ae9600474191b5!8m2!3d53.5645207!4d9.8810025!16s%2Fg%2F1tcywgsv!19sChIJC9nbqEuEsUcRtZFBRwCWrnU?authuser=0&hl=tr&rclk=1",
    "website_url": "",
    "rating_text": "4,5",
    "stars": null,
    "number_of_reviews": null,
    "price_level": "",
    "open_hours": "",
    "extraction_timestamp": "2025-06-07T15:21:02.465Z",
    "source_name": "google",
    "source_query": "Irrigation Equipment",
    "source_country": "DE",
    "country": "Germany",
    "state": "Hamburg",
    "city": "Altona"
  },
  {
    "source_id": "ChIJaYjYe9qFsUcRR_IhFed4nm0",
    "name": "SZN Sanitärzentrum Nord",
    "category": "SZN Sanitärzentrum Nord",
    "formatted_address": "4,7(15)",
    "phone_number": "+4940398999360",
    "source_url": "https://www.google.com/maps/place/SZN+Sanit%C3%A4rzentrum+Nord/data=!4m7!3m6!1s0x47b185da7bd88869:0x6d9e78e71521f247!8m2!3d53.5588498!4d9.927389!16s%2Fg%2F11nn1yymls!19sChIJaYjYe9qFsUcRR_IhFed4nm0?authuser=0&hl=tr&rclk=1",
    "website_url": "",
    "rating_text": "4,7",
    "stars": null,
    "number_of_reviews": null,
    "price_level": "",
    "open_hours": "",
    "extraction_timestamp": "2025-06-07T15:21:02.466Z",
    "source_name": "google",
    "source_query": "Irrigation Equipment",
    "source_country": "DE",
    "country": "Germany",
    "state": "Hamburg",
    "city": "Altona"
  },
  {
    "source_id": "ChIJsyyOly6EsUcRjCvlLzGVbkA",
    "name": "Henri Benthack GmbH & Co. KG",
    "category": "Henri Benthack GmbH & Co. KG",
    "formatted_address": "4,4(68)",
    "phone_number": "+494082299290",
    "source_url": "https://www.google.com/maps/place/Henri+Benthack+GmbH+%26+Co.+KG/data=!4m7!3m6!1s0x47b1842e978e2cb3:0x406e95312fe52b8c!8m2!3d53.5829571!4d9.881909!16s%2Fg%2F1ptzmny8_!19sChIJsyyOly6EsUcRjCvlLzGVbkA?authuser=0&hl=tr&rclk=1",
    "website_url": "",
    "rating_text": "4,4",
    "stars": null,
    "number_of_reviews": null,
    "price_level": "",
    "open_hours": "",
    "extraction_timestamp": "2025-06-07T15:21:02.466Z",
    "source_name": "google",
    "source_query": "Irrigation Equipment",
    "source_country": "DE",
    "country": "Germany",
    "state": "Hamburg",
    "city": "Altona"
  },
  {
    "source_id": "ChIJZfgdSIqLsUcRzda7Z0fWp4s",
    "name": "Petersen-Frey Garten- und Landschaftsbau GmbH",
    "category": "Petersen-Frey Garten- und Landschaftsbau GmbH",
    "formatted_address": "4,5(14)",
    "phone_number": "+494065681001",
    "source_url": "https://www.google.com/maps/place/Petersen-Frey+Garten-+und+Landschaftsbau+GmbH/data=!4m7!3m6!1s0x47b18b8a481df865:0x8ba7d64767bbd6cd!8m2!3d53.5729166!4d10.104079!16s%2Fg%2F1tdmtp70!19sChIJZfgdSIqLsUcRzda7Z0fWp4s?authuser=0&hl=tr&rclk=1",
    "website_url": "",
    "rating_text": "4,5",
    "stars": null,
    "number_of_reviews": null,
    "price_level": "",
    "open_hours": "",
    "extraction_timestamp": "2025-06-07T15:21:02.467Z",
    "source_name": "google",
    "source_query": "Irrigation Equipment",
    "source_country": "DE",
    "country": "Germany",
    "state": "Hamburg",
    "city": "Altona"
  },
  {
    "source_id": "ChIJw7tp1DuFsUcRFMSVtXI8YrE",
    "name": "24h Schnelldienst GmbH Abfluss & Rohrreinigung Kanalreinigung Kanaluntersuchung Kanalsanierung WC & Küchen Entstopfung",
    "category": "24h Schnelldienst GmbH Abfluss & Rohrreinigung Kanalreinigung Kanaluntersuchung Kanalsanierung WC & Küchen Entstopfung",
    "formatted_address": "24h Schnelldienst GmbH Abfluss & Rohrreinigung Kanalreinigung Kanaluntersuchung Kanalsanierung WC & Küchen Entstopfung",
    "phone_number": "+49173748952324",
    "source_url": "https://www.google.com/maps/place/24h+Schnelldienst+GmbH+Abfluss+%26+Rohrreinigung+Kanalreinigung+Kanaluntersuchung+Kanalsanierung+WC+%26+K%C3%BCchen+Entstopfung/data=!4m7!3m6!1s0x47b1853bd469bbc3:0xb1623c72b595c414!8m2!3d53.583717!4d9.8806025!16s%2Fg%2F11v3lqxrd7!19sChIJw7tp1DuFsUcRFMSVtXI8YrE?authuser=0&hl=tr&rclk=1",
    "website_url": "",
    "rating_text": "4,9",
    "stars": null,
    "number_of_reviews": null,
    "price_level": "",
    "open_hours": "",
    "extraction_timestamp": "2025-06-07T15:21:02.468Z",
    "source_name": "google",
    "source_query": "Irrigation Equipment",
    "source_country": "DE",
    "country": "Germany",
    "state": "Hamburg",
    "city": "Altona"
  },
  {
    "source_id": "ChIJ7w1ftf-HsUcRKz8GSR5K4qg",
    "name": "Action Hamburg-Lurup",
    "category": "Action Hamburg-Lurup",
    "formatted_address": "3,8(197)",
    "phone_number": "+4921130146100",
    "source_url": "https://www.google.com/maps/place/Action+Hamburg-Lurup/data=!4m7!3m6!1s0x47b187ffb55f0def:0xa8e24a1e49063f2b!8m2!3d53.5917832!4d9.8738872!16s%2Fg%2F11q8rtws7d!19sChIJ7w1ftf-HsUcRKz8GSR5K4qg?authuser=0&hl=tr&rclk=1",
    "website_url": "",
    "rating_text": "3,8",
    "stars": null,
    "number_of_reviews": null,
    "price_level": "",
    "open_hours": "",
    "extraction_timestamp": "2025-06-07T15:21:02.468Z",
    "source_name": "google",
    "source_query": "Irrigation Equipment",
    "source_country": "DE",
    "country": "Germany",
    "state": "Hamburg",
    "city": "Altona"
  },
  {
    "source_id": "ChIJK83LItiHsUcRHDZMzcI7csM",
    "name": "Action Hamburg",
    "category": "Action Hamburg",
    "formatted_address": "4,0(412)",
    "phone_number": "+4921130146100",
    "source_url": "https://www.google.com/maps/place/Action+Hamburg/data=!4m7!3m6!1s0x47b187d822cbcd2b:0xc3723bc2cd4c361c!8m2!3d53.6074867!4d9.9043553!16s%2Fg%2F11n32zysrw!19sChIJK83LItiHsUcRHDZMzcI7csM?authuser=0&hl=tr&rclk=1",
    "website_url": "",
    "rating_text": "4,0",
    "stars": null,
    "number_of_reviews": null,
    "price_level": "",
    "open_hours": "",
    "extraction_timestamp": "2025-06-07T15:21:02.469Z",
    "source_name": "google",
    "source_query": "Irrigation Equipment",
    "source_country": "DE",
    "country": "Germany",
    "state": "Hamburg",
    "city": "Altona"
  },
  {
    "source_id": "ChIJTY1jK_aPsUcRj9Bgq3fDaLA",
    "name": "WVP Haustechnik 24",
    "category": "WVP Haustechnik 24",
    "formatted_address": "5,0(1)",
    "phone_number": "+4915776245269",
    "source_url": "https://www.google.com/maps/place/WVP+Haustechnik+24/data=!4m7!3m6!1s0x47b18ff62b638d4d:0xb068c377ab60d08f!8m2!3d53.5593826!4d9.9604147!16s%2Fg%2F11xcykqwtd!19sChIJTY1jK_aPsUcRj9Bgq3fDaLA?authuser=0&hl=tr&rclk=1",
    "website_url": "",
    "rating_text": "5,0",
    "stars": null,
    "number_of_reviews": null,
    "price_level": "",
    "open_hours": "",
    "extraction_timestamp": "2025-06-07T15:21:02.470Z",
    "source_name": "google",
    "source_query": "Irrigation Equipment",
    "source_country": "DE",
    "country": "Germany",
    "state": "Hamburg",
    "city": "Altona"
  },
  {
    "source_id": "ChIJixz8c2zzsUcRvWDIvRaRRaY",
    "name": "ABS Bewässerungssysteme",
    "category": "ABS Bewässerungssysteme",
    "formatted_address": "5,0(10)",
    "phone_number": "+494020963222",
    "source_url": "https://www.google.com/maps/place/ABS+Bew%C3%A4sserungssysteme/data=!4m7!3m6!1s0x47b1f36c73fc1c8b:0xa6459116bdc860bd!8m2!3d53.4851575!4d10.1899135!16s%2Fg%2F11pwpgyn7x!19sChIJixz8c2zzsUcRvWDIvRaRRaY?authuser=0&hl=tr&rclk=1",
    "website_url": "",
    "rating_text": "5,0",
    "stars": null,
    "number_of_reviews": null,
    "price_level": "",
    "open_hours": "",
    "extraction_timestamp": "2025-06-07T15:21:02.470Z",
    "source_name": "google",
    "source_query": "Irrigation Equipment",
    "source_country": "DE",
    "country": "Germany",
    "state": "Hamburg",
    "city": "Altona"
  },
  {
    "source_id": "ChIJeVqs442FsUcR6syIB75ydFE",
    "name": "CALUMET Hamburg",
    "category": "CALUMET Hamburg",
    "formatted_address": "4,5(1.033)",
    "phone_number": "+4910334",
    "source_url": "https://www.google.com/maps/place/CALUMET+Hamburg/data=!4m7!3m6!1s0x47b1858de3ac5a79:0x517472be0788ccea!8m2!3d53.5475187!4d9.9859347!16s%2Fg%2F1td16x43!19sChIJeVqs442FsUcR6syIB75ydFE?authuser=0&hl=tr&rclk=1",
    "website_url": "",
    "rating_text": "4,5",
    "stars": null,
    "number_of_reviews": null,
    "price_level": "",
    "open_hours": "",
    "extraction_timestamp": "2025-06-07T15:21:02.471Z",
    "source_name": "google",
    "source_query": "Irrigation Equipment",
    "source_country": "DE",
    "country": "Germany",
    "state": "Hamburg",
    "city": "Altona"
  }
]
