[
  {
    "source_id": "ChIJpUVUd0iJsUcRjR86QbyuVwY",
    "name": "Globetrotter Hamburg-Barmbek",
    "category": "Globetrotter Hamburg-Barmbek",
    "formatted_address": "4,4(3.272)",
    "phone_number": "+4932724",
    "source_url": "https://www.google.com/maps/place/Globetrotter+Hamburg-Barmbek/data=!4m7!3m6!1s0x47b18948775445a5:0x657aebc413a1f8d!8m2!3d53.586304!4d10.0461001!16s%2Fg%2F1tg85q8c!19sChIJpUVUd0iJsUcRjR86QbyuVwY?authuser=0&hl=tr&rclk=1",
    "website_url": "",
    "rating_text": "4,4",
    "stars": null,
    "number_of_reviews": null,
    "price_level": "",
    "open_hours": "",
    "extraction_timestamp": "2025-06-07T15:20:52.287Z",
    "source_name": "google",
    "source_query": "Irrigation Equipment",
    "source_country": "DE",
    "country": "Germany",
    "state": "Hamburg",
    "city": "Barmbek-Nord"
  },
  {
    "source_id": "ChIJYRRrsNiLsUcRY3ZjM7KXb6A",
    "name": "Köster Pumpen Joachim Köster GmbH",
    "category": "Köster Pumpen Joachim Köster GmbH",
    "formatted_address": "4,4(7)",
    "phone_number": "+491716005534",
    "source_url": "https://www.google.com/maps/place/K%C3%B6ster+Pumpen+Joachim+K%C3%B6ster+GmbH/data=!4m7!3m6!1s0x47b18bd8b06b1461:0xa06f97b233637663!8m2!3d53.5893283!4d10.0502693!16s%2Fg%2F1tcwq5s3!19sChIJYRRrsNiLsUcRY3ZjM7KXb6A?authuser=0&hl=tr&rclk=1",
    "website_url": "",
    "rating_text": "4,4",
    "stars": null,
    "number_of_reviews": null,
    "price_level": "",
    "open_hours": "",
    "extraction_timestamp": "2025-06-07T15:20:52.288Z",
    "source_name": "google",
    "source_query": "Irrigation Equipment",
    "source_country": "DE",
    "country": "Germany",
    "state": "Hamburg",
    "city": "Barmbek-Nord"
  },
  {
    "source_id": "ChIJ5xExRJrud0kRMzWmfnvUMZw",
    "name": "AquaHansa - Wasserfiltersysteme in Hamburg und Umgebung",
    "category": "AquaHansa - Wasserfiltersysteme in Hamburg und Umgebung",
    "formatted_address": "5,0(2)",
    "phone_number": "",
    "source_url": "https://www.google.com/maps/place/AquaHansa+-+Wasserfiltersysteme+in+Hamburg+und+Umgebung/data=!4m7!3m6!1s0x4977ee9a443111e7:0x9c31d47b7ea63533!8m2!3d53.586809!4d10.0487307!16s%2Fg%2F11tnf6vn6f!19sChIJ5xExRJrud0kRMzWmfnvUMZw?authuser=0&hl=tr&rclk=1",
    "website_url": "",
    "rating_text": "5,0",
    "stars": null,
    "number_of_reviews": null,
    "price_level": "",
    "open_hours": "",
    "extraction_timestamp": "2025-06-07T15:20:52.288Z",
    "source_name": "google",
    "source_query": "Irrigation Equipment",
    "source_country": "DE",
    "country": "Germany",
    "state": "Hamburg",
    "city": "Barmbek-Nord"
  },
  {
    "source_id": "ChIJXy9-DRaJsUcRLL-gWDwhpEY",
    "name": "C&P Aquaplants",
    "category": "C&P Aquaplants",
    "formatted_address": "4,4(5)",
    "phone_number": "+494084306403",
    "source_url": "https://www.google.com/maps/place/C%26P+Aquaplants/data=!4m7!3m6!1s0x47b189160d7e2f5f:0x46a4213c58a0bf2c!8m2!3d53.6004973!4d10.038029!16s%2Fg%2F11vxxr_60x!19sChIJXy9-DRaJsUcRLL-gWDwhpEY?authuser=0&hl=tr&rclk=1",
    "website_url": "",
    "rating_text": "4,4",
    "stars": null,
    "number_of_reviews": null,
    "price_level": "",
    "open_hours": "",
    "extraction_timestamp": "2025-06-07T15:20:52.289Z",
    "source_name": "google",
    "source_query": "Irrigation Equipment",
    "source_country": "DE",
    "country": "Germany",
    "state": "Hamburg",
    "city": "Barmbek-Nord"
  },
  {
    "source_id": "ChIJSfajOk-JsUcRBnW-BWL3iqY",
    "name": "Luth Sanitärtechnik GmbH",
    "category": "Luth Sanitärtechnik GmbH",
    "formatted_address": "4,9(38)",
    "phone_number": "+49402800024",
    "source_url": "https://www.google.com/maps/place/Luth+Sanit%C3%A4rtechnik+GmbH/data=!4m7!3m6!1s0x47b1894f3aa3f649:0xa68af76205be7506!8m2!3d53.5842951!4d10.0508486!16s%2Fg%2F1tftk7zh!19sChIJSfajOk-JsUcRBnW-BWL3iqY?authuser=0&hl=tr&rclk=1",
    "website_url": "",
    "rating_text": "4,9",
    "stars": null,
    "number_of_reviews": null,
    "price_level": "",
    "open_hours": "",
    "extraction_timestamp": "2025-06-07T15:20:52.290Z",
    "source_name": "google",
    "source_query": "Irrigation Equipment",
    "source_country": "DE",
    "country": "Germany",
    "state": "Hamburg",
    "city": "Barmbek-Nord"
  },
  {
    "source_id": "ChIJEzG1RxGJsUcRhey47fvDOwg",
    "name": "STOLLE Sanitätshaus Barmbek",
    "category": "STOLLE Sanitätshaus Barmbek",
    "formatted_address": "3,8(22)",
    "phone_number": "+49406301829",
    "source_url": "https://www.google.com/maps/place/STOLLE+Sanit%C3%A4tshaus+Barmbek/data=!4m7!3m6!1s0x47b1891147b53113:0x83bc3fbedb8ec85!8m2!3d53.6033753!4d10.0398476!16s%2Fg%2F1tm87gvs!19sChIJEzG1RxGJsUcRhey47fvDOwg?authuser=0&hl=tr&rclk=1",
    "website_url": "",
    "rating_text": "3,8",
    "stars": null,
    "number_of_reviews": null,
    "price_level": "",
    "open_hours": "",
    "extraction_timestamp": "2025-06-07T15:20:52.291Z",
    "source_name": "google",
    "source_query": "Irrigation Equipment",
    "source_country": "DE",
    "country": "Germany",
    "state": "Hamburg",
    "city": "Barmbek-Nord"
  },
  {
    "source_id": "ChIJk2W7AbWOsUcR6mQ_WMhpOJw",
    "name": "GWS Wärmesysteme GmbH",
    "category": "GWS Wärmesysteme GmbH",
    "formatted_address": "5,0(15)",
    "phone_number": "+49405407091",
    "source_url": "https://www.google.com/maps/place/GWS+W%C3%A4rmesysteme+GmbH/data=!4m7!3m6!1s0x47b18eb501bb6593:0x9c3869c8583f64ea!8m2!3d53.5863242!4d10.0527944!16s%2Fg%2F1tmk7k9k!19sChIJk2W7AbWOsUcR6mQ_WMhpOJw?authuser=0&hl=tr&rclk=1",
    "website_url": "",
    "rating_text": "5,0",
    "stars": null,
    "number_of_reviews": null,
    "price_level": "",
    "open_hours": "",
    "extraction_timestamp": "2025-06-07T15:20:52.292Z",
    "source_name": "google",
    "source_query": "Irrigation Equipment",
    "source_country": "DE",
    "country": "Germany",
    "state": "Hamburg",
    "city": "Barmbek-Nord"
  },
  {
    "source_id": "ChIJkdi5H6CIsUcRLxrmamAQEGM",
    "name": "Specialized Service Center by CCHH",
    "category": "Specialized Service Center by CCHH",
    "formatted_address": "4,5(193)",
    "phone_number": "+494058955578",
    "source_url": "https://www.google.com/maps/place/Specialized+Service+Center+by+CCHH/data=!4m7!3m6!1s0x47b188a01fb9d891:0x631010606ae61a2f!8m2!3d53.5889597!4d10.0567866!16s%2Fg%2F1pty8znbf!19sChIJkdi5H6CIsUcRLxrmamAQEGM?authuser=0&hl=tr&rclk=1",
    "website_url": "",
    "rating_text": "4,5",
    "stars": null,
    "number_of_reviews": null,
    "price_level": "",
    "open_hours": "",
    "extraction_timestamp": "2025-06-07T15:20:52.292Z",
    "source_name": "google",
    "source_query": "Irrigation Equipment",
    "source_country": "DE",
    "country": "Germany",
    "state": "Hamburg",
    "city": "Barmbek-Nord"
  },
  {
    "source_id": "ChIJpw1PVpCPsUcRphcbiTz-Gws",
    "name": "Sup2go - SUP Verleih Hamburg Stadtpark",
    "category": "Sup2go - SUP Verleih Hamburg Stadtpark",
    "formatted_address": "Sup2go - SUP Verleih Hamburg Stadtpark",
    "phone_number": "+4917666336322",
    "source_url": "https://www.google.com/maps/place/Sup2go+-+SUP+Verleih+Hamburg+Stadtpark/data=!4m7!3m6!1s0x47b18f90564f0da7:0xb1bfe3c891b17a6!8m2!3d53.5918889!4d10.0262597!16s%2Fg%2F11pq27zkx6!19sChIJpw1PVpCPsUcRphcbiTz-Gws?authuser=0&hl=tr&rclk=1",
    "website_url": "",
    "rating_text": "4,8",
    "stars": null,
    "number_of_reviews": null,
    "price_level": "",
    "open_hours": "",
    "extraction_timestamp": "2025-06-07T15:20:52.293Z",
    "source_name": "google",
    "source_query": "Irrigation Equipment",
    "source_country": "DE",
    "country": "Germany",
    "state": "Hamburg",
    "city": "Barmbek-Nord"
  },
  {
    "source_id": "ChIJA3QXrz-JsUcRYVrC3ZD3_04",
    "name": "Barfital",
    "category": "Barfital",
    "formatted_address": "4,8(418)",
    "phone_number": "+494036916238",
    "source_url": "https://www.google.com/maps/place/Barfital/data=!4m7!3m6!1s0x47b1893faf177403:0x4efff790ddc25a61!8m2!3d53.590653!4d10.0445378!16s%2Fg%2F11cks58mn2!19sChIJA3QXrz-JsUcRYVrC3ZD3_04?authuser=0&hl=tr&rclk=1",
    "website_url": "",
    "rating_text": "4,8",
    "stars": null,
    "number_of_reviews": null,
    "price_level": "",
    "open_hours": "",
    "extraction_timestamp": "2025-06-07T15:20:52.294Z",
    "source_name": "google",
    "source_query": "Irrigation Equipment",
    "source_country": "DE",
    "country": "Germany",
    "state": "Hamburg",
    "city": "Barmbek-Nord"
  },
  {
    "source_id": "ChIJQeqFrziJsUcRyBCZfaerjpA",
    "name": "Bio Markt Barmbek",
    "category": "Bio Markt Barmbek",
    "formatted_address": "4,5(125)",
    "phone_number": "+494069795112",
    "source_url": "https://www.google.com/maps/place/Bio+Markt+Barmbek/data=!4m7!3m6!1s0x47b18938af85ea41:0x908eaba77d9910c8!8m2!3d53.5918735!4d10.0445332!16s%2Fg%2F1vn9n47k!19sChIJQeqFrziJsUcRyBCZfaerjpA?authuser=0&hl=tr&rclk=1",
    "website_url": "",
    "rating_text": "4,5",
    "stars": null,
    "number_of_reviews": null,
    "price_level": "",
    "open_hours": "",
    "extraction_timestamp": "2025-06-07T15:20:52.295Z",
    "source_name": "google",
    "source_query": "Irrigation Equipment",
    "source_country": "DE",
    "country": "Germany",
    "state": "Hamburg",
    "city": "Barmbek-Nord"
  },
  {
    "source_id": "ChIJuUOdID6JsUcRr12mjBf56tU",
    "name": "Gräber Räder",
    "category": "Gräber Räder",
    "formatted_address": "4,9(130)",
    "phone_number": "+49406928770",
    "source_url": "https://www.google.com/maps/place/Gr%C3%A4ber+R%C3%A4der/data=!4m7!3m6!1s0x47b1893e209d43b9:0xd5eaf9178ca65daf!8m2!3d53.5977949!4d10.0420341!16s%2Fg%2F1trsx162!19sChIJuUOdID6JsUcRr12mjBf56tU?authuser=0&hl=tr&rclk=1",
    "website_url": "",
    "rating_text": "4,9",
    "stars": null,
    "number_of_reviews": null,
    "price_level": "",
    "open_hours": "",
    "extraction_timestamp": "2025-06-07T15:20:52.296Z",
    "source_name": "google",
    "source_query": "Irrigation Equipment",
    "source_country": "DE",
    "country": "Germany",
    "state": "Hamburg",
    "city": "Barmbek-Nord"
  },
  {
    "source_id": "ChIJixz8c2zzsUcRvWDIvRaRRaY",
    "name": "ABS Bewässerungssysteme",
    "category": "ABS Bewässerungssysteme",
    "formatted_address": "5,0(10)",
    "phone_number": "+494020963222",
    "source_url": "https://www.google.com/maps/place/ABS+Bew%C3%A4sserungssysteme/data=!4m7!3m6!1s0x47b1f36c73fc1c8b:0xa6459116bdc860bd!8m2!3d53.4851575!4d10.1899135!16s%2Fg%2F11pwpgyn7x!19sChIJixz8c2zzsUcRvWDIvRaRRaY?authuser=0&hl=tr&rclk=1",
    "website_url": "",
    "rating_text": "5,0",
    "stars": null,
    "number_of_reviews": null,
    "price_level": "",
    "open_hours": "",
    "extraction_timestamp": "2025-06-07T15:20:52.296Z",
    "source_name": "google",
    "source_query": "Irrigation Equipment",
    "source_country": "DE",
    "country": "Germany",
    "state": "Hamburg",
    "city": "Barmbek-Nord"
  },
  {
    "source_id": "ChIJrcTSjE6JsUcRDJGGI1rlGtc",
    "name": "badpunkt Hamburg-Barmbek - Badausstellung der Walter WESEMEYER GmbH",
    "category": "badpunkt Hamburg-Barmbek - Badausstellung der Walter WESEMEYER GmbH",
    "formatted_address": "4,5(13)",
    "phone_number": "+494027832204",
    "source_url": "https://www.google.com/maps/place/badpunkt+Hamburg-Barmbek+-+Badausstellung+der+Walter+WESEMEYER+GmbH/data=!4m7!3m6!1s0x47b1894e8cd2c4ad:0xd71ae55a2386910c!8m2!3d53.5822039!4d10.0532023!16s%2Fg%2F11b6d00xy3!19sChIJrcTSjE6JsUcRDJGGI1rlGtc?authuser=0&hl=tr&rclk=1",
    "website_url": "",
    "rating_text": "4,5",
    "stars": null,
    "number_of_reviews": null,
    "price_level": "",
    "open_hours": "",
    "extraction_timestamp": "2025-06-07T15:20:52.297Z",
    "source_name": "google",
    "source_query": "Irrigation Equipment",
    "source_country": "DE",
    "country": "Germany",
    "state": "Hamburg",
    "city": "Barmbek-Nord"
  },
  {
    "source_id": "ChIJ_YCFYkeJsUcRWzNi26feaec",
    "name": "Onur GmbH & Co. KG",
    "category": "Onur GmbH & Co. KG",
    "formatted_address": "4,2(335)",
    "phone_number": "+494061183995",
    "source_url": "https://www.google.com/maps/place/Onur+GmbH+%26+Co.+KG/data=!4m7!3m6!1s0x47b18947628580fd:0xe769dea7db62335b!8m2!3d53.5902913!4d10.0446406!16s%2Fg%2F1tm09wf9!19sChIJ_YCFYkeJsUcRWzNi26feaec?authuser=0&hl=tr&rclk=1",
    "website_url": "",
    "rating_text": "4,2",
    "stars": null,
    "number_of_reviews": null,
    "price_level": "",
    "open_hours": "",
    "extraction_timestamp": "2025-06-07T15:20:52.298Z",
    "source_name": "google",
    "source_query": "Irrigation Equipment",
    "source_country": "DE",
    "country": "Germany",
    "state": "Hamburg",
    "city": "Barmbek-Nord"
  },
  {
    "source_id": "ChIJWaxemBaJsUcRH_ITTMJMJFw",
    "name": "Budnikowsky",
    "category": "Budnikowsky",
    "formatted_address": "4,2(80)",
    "phone_number": "+494080603030",
    "source_url": "https://www.google.com/maps/place/Budnikowsky/data=!4m7!3m6!1s0x47b18916985eac59:0x5c244cc24c13f21f!8m2!3d53.6028694!4d10.0402643!16s%2Fg%2F1pv61bhyv!19sChIJWaxemBaJsUcRH_ITTMJMJFw?authuser=0&hl=tr&rclk=1",
    "website_url": "",
    "rating_text": "4,2",
    "stars": null,
    "number_of_reviews": null,
    "price_level": "",
    "open_hours": "",
    "extraction_timestamp": "2025-06-07T15:20:52.299Z",
    "source_name": "google",
    "source_query": "Irrigation Equipment",
    "source_country": "DE",
    "country": "Germany",
    "state": "Hamburg",
    "city": "Barmbek-Nord"
  },
  {
    "source_id": "ChIJOSgktG6JsUcRBpqP8jca5tg",
    "name": "Tropicana Markt",
    "category": "Tropicana Markt",
    "formatted_address": "4,5(26)",
    "phone_number": "+4915757893648",
    "source_url": "https://www.google.com/maps/place/Tropicana+Markt/data=!4m7!3m6!1s0x47b1896eb4242839:0xd8e61a37f28f9a06!8m2!3d53.5999615!4d10.041453!16s%2Fg%2F11mhppgj9v!19sChIJOSgktG6JsUcRBpqP8jca5tg?authuser=0&hl=tr&rclk=1",
    "website_url": "",
    "rating_text": "4,5",
    "stars": null,
    "number_of_reviews": null,
    "price_level": "",
    "open_hours": "",
    "extraction_timestamp": "2025-06-07T15:20:52.300Z",
    "source_name": "google",
    "source_query": "Irrigation Equipment",
    "source_country": "DE",
    "country": "Germany",
    "state": "Hamburg",
    "city": "Barmbek-Nord"
  },
  {
    "source_id": "ChIJu4DrEz-JsUcRPBXoUt88QNw",
    "name": "Woolworth",
    "category": "Woolworth",
    "formatted_address": "3,8(856)",
    "phone_number": "+4923035938200",
    "source_url": "https://www.google.com/maps/place/Woolworth/data=!4m7!3m6!1s0x47b1893f13eb80bb:0xdc403cdf52e8153c!8m2!3d53.594029!4d10.0438857!16s%2Fg%2F1thmk198!19sChIJu4DrEz-JsUcRPBXoUt88QNw?authuser=0&hl=tr&rclk=1",
    "website_url": "",
    "rating_text": "3,8",
    "stars": null,
    "number_of_reviews": null,
    "price_level": "",
    "open_hours": "",
    "extraction_timestamp": "2025-06-07T15:20:52.300Z",
    "source_name": "google",
    "source_query": "Irrigation Equipment",
    "source_country": "DE",
    "country": "Germany",
    "state": "Hamburg",
    "city": "Barmbek-Nord"
  },
  {
    "source_id": "ChIJvZuT4YeOsUcRHLSxm_x2hVo",
    "name": "budni - Fuhlsbüttler Straße 107-109",
    "category": "budni - Fuhlsbüttler Straße 107-109",
    "formatted_address": "4,1(62)",
    "phone_number": "+49107109",
    "source_url": "https://www.google.com/maps/place/budni+-+Fuhlsb%C3%BCttler+Stra%C3%9Fe+107-109/data=!4m7!3m6!1s0x47b18e87e1939bbd:0x5a8576fc9bb1b41c!8m2!3d53.5887905!4d10.0452805!16s%2Fg%2F1hdzphyvr!19sChIJvZuT4YeOsUcRHLSxm_x2hVo?authuser=0&hl=tr&rclk=1",
    "website_url": "",
    "rating_text": "4,1",
    "stars": null,
    "number_of_reviews": null,
    "price_level": "",
    "open_hours": "",
    "extraction_timestamp": "2025-06-07T15:20:52.301Z",
    "source_name": "google",
    "source_query": "Irrigation Equipment",
    "source_country": "DE",
    "country": "Germany",
    "state": "Hamburg",
    "city": "Barmbek-Nord"
  },
  {
    "source_id": "ChIJL3DvsziJsUcRSLDUbzwgizw",
    "name": "Fils D'or Markt",
    "category": "Fils D'or Markt",
    "formatted_address": "4,7(13)",
    "phone_number": "+494069790401",
    "source_url": "https://www.google.com/maps/place/Fils+D%27or+Markt/data=!4m7!3m6!1s0x47b18938b3ef702f:0x3c8b203c6fd4b048!8m2!3d53.5919885!4d10.0439587!16s%2Fg%2F11t49_2x9b!19sChIJL3DvsziJsUcRSLDUbzwgizw?authuser=0&hl=tr&rclk=1",
    "website_url": "",
    "rating_text": "4,7",
    "stars": null,
    "number_of_reviews": null,
    "price_level": "",
    "open_hours": "",
    "extraction_timestamp": "2025-06-07T15:20:52.302Z",
    "source_name": "google",
    "source_query": "Irrigation Equipment",
    "source_country": "DE",
    "country": "Germany",
    "state": "Hamburg",
    "city": "Barmbek-Nord"
  },
  {
    "source_id": "ChIJyUt-uyWPsUcRYlfo2MwTaFw",
    "name": "GEMPP GARTENDESIGN Hamburg",
    "category": "GEMPP GARTENDESIGN Hamburg",
    "formatted_address": "4,9(28)",
    "phone_number": "+494034809460",
    "source_url": "https://www.google.com/maps/place/GEMPP+GARTENDESIGN+Hamburg/data=!4m7!3m6!1s0x47b18f25bb7e4bc9:0x5c6813ccd8e85762!8m2!3d53.6123246!4d9.9627838!16s%2Fg%2F11r8mrpg5!19sChIJyUt-uyWPsUcRYlfo2MwTaFw?authuser=0&hl=tr&rclk=1",
    "website_url": "",
    "rating_text": "4,9",
    "stars": null,
    "number_of_reviews": null,
    "price_level": "",
    "open_hours": "",
    "extraction_timestamp": "2025-06-07T15:20:52.303Z",
    "source_name": "google",
    "source_query": "Irrigation Equipment",
    "source_country": "DE",
    "country": "Germany",
    "state": "Hamburg",
    "city": "Barmbek-Nord"
  },
  {
    "source_id": "ChIJh5ZD9s2OsUcRZX-JZep71LA",
    "name": "Hände und Werke Sanitärtechnik",
    "category": "Hände und Werke Sanitärtechnik",
    "formatted_address": "4,9(29)",
    "phone_number": "+494042917661",
    "source_url": "https://www.google.com/maps/place/H%C3%A4nde+und+Werke+Sanit%C3%A4rtechnik/data=!4m7!3m6!1s0x47b18ecdf6439687:0xb0d47bea65897f65!8m2!3d53.5313554!4d10.1264087!16s%2Fg%2F11c543qwl1!19sChIJh5ZD9s2OsUcRZX-JZep71LA?authuser=0&hl=tr&rclk=1",
    "website_url": "",
    "rating_text": "4,9",
    "stars": null,
    "number_of_reviews": null,
    "price_level": "",
    "open_hours": "",
    "extraction_timestamp": "2025-06-07T15:20:52.303Z",
    "source_name": "google",
    "source_query": "Irrigation Equipment",
    "source_country": "DE",
    "country": "Germany",
    "state": "Hamburg",
    "city": "Barmbek-Nord"
  },
  {
    "source_id": "ChIJT8IYlWuJsUcRoQ5zrzufmtk",
    "name": "Prinzessin Eisbär Winterhude - Hamburg",
    "category": "Prinzessin Eisbär Winterhude - Hamburg",
    "formatted_address": "4,9(101)",
    "phone_number": "+4917664317805",
    "source_url": "https://www.google.com/maps/place/Prinzessin+Eisb%C3%A4r+Winterhude+-+Hamburg/data=!4m7!3m6!1s0x47b1896b9518c24f:0xd99a9f3baf730ea1!8m2!3d53.5813697!4d10.0097333!16s%2Fg%2F11rgrt3lkw!19sChIJT8IYlWuJsUcRoQ5zrzufmtk?authuser=0&hl=tr&rclk=1",
    "website_url": "",
    "rating_text": "4,9",
    "stars": null,
    "number_of_reviews": null,
    "price_level": "",
    "open_hours": "",
    "extraction_timestamp": "2025-06-07T15:20:52.304Z",
    "source_name": "google",
    "source_query": "Irrigation Equipment",
    "source_country": "DE",
    "country": "Germany",
    "state": "Hamburg",
    "city": "Barmbek-Nord"
  },
  {
    "source_id": "ChIJkT2vkRqMsUcRQwSvaHxKkYQ",
    "name": "The BIOFILMKILLER",
    "category": "The BIOFILMKILLER",
    "formatted_address": "",
    "phone_number": "+4915167638771",
    "source_url": "https://www.google.com/maps/place/The+BIOFILMKILLER/data=!4m7!3m6!1s0x47b18c1a91af3d91:0x84914a7c68af0443!8m2!3d53.5598497!4d10.0784309!16s%2Fg%2F11cs32py4x!19sChIJkT2vkRqMsUcRQwSvaHxKkYQ?authuser=0&hl=tr&rclk=1",
    "website_url": "",
    "rating_text": "",
    "stars": null,
    "number_of_reviews": null,
    "price_level": "",
    "open_hours": "",
    "extraction_timestamp": "2025-06-07T15:20:52.305Z",
    "source_name": "google",
    "source_query": "Irrigation Equipment",
    "source_country": "DE",
    "country": "Germany",
    "state": "Hamburg",
    "city": "Barmbek-Nord"
  },
  {
    "source_id": "ChIJ_WNK9RqJsUcR_QBLOu4VnSc",
    "name": "Der Grüngarten",
    "category": "Der Grüngarten",
    "formatted_address": "4,8(11)",
    "phone_number": "+4915253846323",
    "source_url": "https://www.google.com/maps/place/Der+Gr%C3%BCngarten/data=!4m7!3m6!1s0x47b1891af54a63fd:0x279d15ee3a4b00fd!8m2!3d53.6672334!4d10.1290552!16s%2Fg%2F11j3x9hlcg!19sChIJ_WNK9RqJsUcR_QBLOu4VnSc?authuser=0&hl=tr&rclk=1",
    "website_url": "",
    "rating_text": "4,8",
    "stars": null,
    "number_of_reviews": null,
    "price_level": "",
    "open_hours": "",
    "extraction_timestamp": "2025-06-07T15:20:52.306Z",
    "source_name": "google",
    "source_query": "Irrigation Equipment",
    "source_country": "DE",
    "country": "Germany",
    "state": "Hamburg",
    "city": "Barmbek-Nord"
  },
  {
    "source_id": "ChIJc4rf2kCJsUcRqitoomayU8c",
    "name": "Werner Pegel Haustechnik GmbH & Co. KG",
    "category": "Werner Pegel Haustechnik GmbH & Co. KG",
    "formatted_address": "4,4(29)",
    "phone_number": "+49406901440",
    "source_url": "https://www.google.com/maps/place/Werner+Pegel+Haustechnik+GmbH+%26+Co.+KG/data=!4m7!3m6!1s0x47b18940dadf8a73:0xc753b266a2682baa!8m2!3d53.5842912!4d10.0508445!16s%2Fg%2F1td129v6!19sChIJc4rf2kCJsUcRqitoomayU8c?authuser=0&hl=tr&rclk=1",
    "website_url": "",
    "rating_text": "4,4",
    "stars": null,
    "number_of_reviews": null,
    "price_level": "",
    "open_hours": "",
    "extraction_timestamp": "2025-06-07T15:20:52.306Z",
    "source_name": "google",
    "source_query": "Irrigation Equipment",
    "source_country": "DE",
    "country": "Germany",
    "state": "Hamburg",
    "city": "Barmbek-Nord"
  },
  {
    "source_id": "ChIJIfUctdSOsUcRX7KjFNyQcns",
    "name": "Adolf Stahmer GmbH & Co. KG",
    "category": "Adolf Stahmer GmbH & Co. KG",
    "formatted_address": "4,3(17)",
    "phone_number": "+494025330320",
    "source_url": "https://www.google.com/maps/place/Adolf+Stahmer+GmbH+%26+Co.+KG/data=!4m7!3m6!1s0x47b18ed4b51cf521:0x7b7290dc14a3b25f!8m2!3d53.5731!4d10.02604!16s%2Fg%2F1tdqslkc!19sChIJIfUctdSOsUcRX7KjFNyQcns?authuser=0&hl=tr&rclk=1",
    "website_url": "",
    "rating_text": "4,3",
    "stars": null,
    "number_of_reviews": null,
    "price_level": "",
    "open_hours": "",
    "extraction_timestamp": "2025-06-07T15:20:52.307Z",
    "source_name": "google",
    "source_query": "Irrigation Equipment",
    "source_country": "DE",
    "country": "Germany",
    "state": "Hamburg",
    "city": "Barmbek-Nord"
  },
  {
    "source_id": "ChIJl56AOESJsUcRCIJx2nBT0-0",
    "name": "Dechow Dienstleistungsgesellschaft mbH Heizung-Klima-Sanitär-Gebäudemanagement",
    "category": "Dechow Dienstleistungsgesellschaft mbH Heizung-Klima-Sanitär-Gebäudemanagement",
    "formatted_address": "3,4(23)",
    "phone_number": "+49406119110",
    "source_url": "https://www.google.com/maps/place/Dechow+Dienstleistungsgesellschaft+mbH+Heizung-Klima-Sanit%C3%A4r-Geb%C3%A4udemanagement/data=!4m7!3m6!1s0x47b1894438809e97:0xedd35370da718208!8m2!3d53.5895608!4d10.0539284!16s%2Fg%2F1tknzvhs!19sChIJl56AOESJsUcRCIJx2nBT0-0?authuser=0&hl=tr&rclk=1",
    "website_url": "",
    "rating_text": "3,4",
    "stars": null,
    "number_of_reviews": null,
    "price_level": "",
    "open_hours": "",
    "extraction_timestamp": "2025-06-07T15:20:52.308Z",
    "source_name": "google",
    "source_query": "Irrigation Equipment",
    "source_country": "DE",
    "country": "Germany",
    "state": "Hamburg",
    "city": "Barmbek-Nord"
  },
  {
    "source_id": "ChIJ0ZaIeL6JsUcRgNap0kVgcIs",
    "name": "Pajvod Haustechnik e.K.",
    "category": "Pajvod Haustechnik e.K.",
    "formatted_address": "4,6(10)",
    "phone_number": "",
    "source_url": "https://www.google.com/maps/place/Pajvod+Haustechnik+e.K./data=!4m7!3m6!1s0x47b189be788896d1:0x8b706045d2a9d680!8m2!3d53.578874!4d10.0605681!16s%2Fg%2F11fk8f0sy4!19sChIJ0ZaIeL6JsUcRgNap0kVgcIs?authuser=0&hl=tr&rclk=1",
    "website_url": "",
    "rating_text": "4,6",
    "stars": null,
    "number_of_reviews": null,
    "price_level": "",
    "open_hours": "",
    "extraction_timestamp": "2025-06-07T15:20:52.308Z",
    "source_name": "google",
    "source_query": "Irrigation Equipment",
    "source_country": "DE",
    "country": "Germany",
    "state": "Hamburg",
    "city": "Barmbek-Nord"
  },
  {
    "source_id": "ChIJ6WyFfUiFsUcRx7mWIlRPPc0",
    "name": "GL Sommer GmbH",
    "category": "GL Sommer GmbH",
    "formatted_address": "5,0(22)",
    "phone_number": "+494049021213",
    "source_url": "https://www.google.com/maps/place/GL+Sommer+GmbH/data=!4m7!3m6!1s0x47b185487d856ce9:0xcd3d4f542296b9c7!8m2!3d53.5782702!4d10.0577095!16s%2Fg%2F11ghtqlsgn!19sChIJ6WyFfUiFsUcRx7mWIlRPPc0?authuser=0&hl=tr&rclk=1",
    "website_url": "",
    "rating_text": "5,0",
    "stars": null,
    "number_of_reviews": null,
    "price_level": "",
    "open_hours": "",
    "extraction_timestamp": "2025-06-07T15:20:52.309Z",
    "source_name": "google",
    "source_query": "Irrigation Equipment",
    "source_country": "DE",
    "country": "Germany",
    "state": "Hamburg",
    "city": "Barmbek-Nord"
  },
  {
    "source_id": "ChIJJ3irk22JsUcRgOs1DELuO6I",
    "name": "Dreßler Sanitärtechnik",
    "category": "Dreßler Sanitärtechnik",
    "formatted_address": "4,2(17)",
    "phone_number": "+49406414023",
    "source_url": "https://www.google.com/maps/place/Dre%C3%9Fler+Sanit%C3%A4rtechnik/data=!4m7!3m6!1s0x47b1896d93ab7827:0xa23bee420c35eb80!8m2!3d53.6070912!4d10.0560143!16s%2Fg%2F1trxjb5j!19sChIJJ3irk22JsUcRgOs1DELuO6I?authuser=0&hl=tr&rclk=1",
    "website_url": "",
    "rating_text": "4,2",
    "stars": null,
    "number_of_reviews": null,
    "price_level": "",
    "open_hours": "",
    "extraction_timestamp": "2025-06-07T15:20:52.309Z",
    "source_name": "google",
    "source_query": "Irrigation Equipment",
    "source_country": "DE",
    "country": "Germany",
    "state": "Hamburg",
    "city": "Barmbek-Nord"
  },
  {
    "source_id": "ChIJA1g9Ke-LsUcRnjgtxWXKIBU",
    "name": "MediaMarkt Hamburg - Wandsbek",
    "category": "MediaMarkt Hamburg - Wandsbek",
    "formatted_address": "3,9(3.961)",
    "phone_number": "+4939613",
    "source_url": "https://www.google.com/maps/place/MediaMarkt+Hamburg+-+Wandsbek/data=!4m7!3m6!1s0x47b18bef293d5803:0x1520ca65c52d389e!8m2!3d53.5865016!4d10.0914338!16s%2Fg%2F1thq4bnf!19sChIJA1g9Ke-LsUcRnjgtxWXKIBU?authuser=0&hl=tr&rclk=1",
    "website_url": "",
    "rating_text": "3,9",
    "stars": null,
    "number_of_reviews": null,
    "price_level": "",
    "open_hours": "",
    "extraction_timestamp": "2025-06-07T15:20:52.311Z",
    "source_name": "google",
    "source_query": "Irrigation Equipment",
    "source_country": "DE",
    "country": "Germany",
    "state": "Hamburg",
    "city": "Barmbek-Nord"
  }
]
