[
  {
    "source_id": "ChIJeyaw0HePsUcRQzOcSBEjl-k",
    "name": "Hanse Bau & Bewässerungstechnik GmbH",
    "category": "Hanse Bau & Bewässerungstechnik GmbH",
    "formatted_address": "5,0(14)",
    "phone_number": "+4917630563436",
    "source_url": "https://www.google.com/maps/place/Hanse+Bau+%26+Bew%C3%A4sserungstechnik+GmbH/data=!4m7!3m6!1s0x47b18f77d0b0267b:0xe9972311489c3343!8m2!3d53.6553614!4d10.113272!16s%2Fg%2F11kb_rmhm6!19sChIJeyaw0HePsUcRQzOcSBEjl-k?authuser=0&hl=tr&rclk=1",
    "website_url": "",
    "rating_text": "5,0",
    "stars": null,
    "number_of_reviews": null,
    "price_level": "",
    "open_hours": "",
    "extraction_timestamp": "2025-06-07T15:18:37.704Z",
    "source_name": "google",
    "source_query": "Irrigation Equipment",
    "source_country": "DE",
    "country": "Germany",
    "state": "Hamburg",
    "city": "Bergstedt"
  },
  {
    "source_id": "ChIJA-Jf17sgskcR3kXFQZ96cwk",
    "name": "Gärtner Albrecht Landschaftsgestalter | Hamburg",
    "category": "Gärtner Albrecht Landschaftsgestalter | Hamburg",
    "formatted_address": "4,1(14)",
    "phone_number": "+491607847011",
    "source_url": "https://www.google.com/maps/place/G%C3%A4rtner+Albrecht+Landschaftsgestalter+%7C+Hamburg/data=!4m7!3m6!1s0x47b220bbd75fe203:0x9737a9f41c545de!8m2!3d53.6743436!4d10.1277063!16s%2Fg%2F1wk4c3cm!19sChIJA-Jf17sgskcR3kXFQZ96cwk?authuser=0&hl=tr&rclk=1",
    "website_url": "",
    "rating_text": "4,1",
    "stars": null,
    "number_of_reviews": null,
    "price_level": "",
    "open_hours": "",
    "extraction_timestamp": "2025-06-07T15:18:37.706Z",
    "source_name": "google",
    "source_query": "Irrigation Equipment",
    "source_country": "DE",
    "country": "Germany",
    "state": "Hamburg",
    "city": "Bergstedt"
  },
  {
    "source_id": "ChIJW7cs4ZQgskcRrNP-6F_ZrlA",
    "name": "Kraaz beverage center Bergstedt GmbH",
    "category": "Kraaz beverage center Bergstedt GmbH",
    "formatted_address": "4,4(295)",
    "phone_number": "+49406049251",
    "source_url": "https://www.google.com/maps/place/Kraaz+beverage+center+Bergstedt+GmbH/data=!4m7!3m6!1s0x47b22094e12cb75b:0x50aed95fe8fed3ac!8m2!3d53.6754526!4d10.1413152!16s%2Fg%2F1tk6pd4x!19sChIJW7cs4ZQgskcRrNP-6F_ZrlA?authuser=0&hl=tr&rclk=1",
    "website_url": "",
    "rating_text": "4,4",
    "stars": null,
    "number_of_reviews": null,
    "price_level": "",
    "open_hours": "",
    "extraction_timestamp": "2025-06-07T15:18:37.707Z",
    "source_name": "google",
    "source_query": "Irrigation Equipment",
    "source_country": "DE",
    "country": "Germany",
    "state": "Hamburg",
    "city": "Bergstedt"
  },
  {
    "source_id": "ChIJl94mEyshskcRKafsx59mW_4",
    "name": "Spangenberg und Schneider Heizungstechnik",
    "category": "Spangenberg und Schneider Heizungstechnik",
    "formatted_address": "4,9(80)",
    "phone_number": "+49406083036",
    "source_url": "https://www.google.com/maps/place/Spangenberg+und+Schneider+Heizungstechnik/data=!4m7!3m6!1s0x47b2212b1326de97:0xfe5b669fc7eca729!8m2!3d53.6748987!4d10.1398209!16s%2Fg%2F1v29b1zx!19sChIJl94mEyshskcRKafsx59mW_4?authuser=0&hl=tr&rclk=1",
    "website_url": "",
    "rating_text": "4,9",
    "stars": null,
    "number_of_reviews": null,
    "price_level": "",
    "open_hours": "",
    "extraction_timestamp": "2025-06-07T15:18:37.708Z",
    "source_name": "google",
    "source_query": "Irrigation Equipment",
    "source_country": "DE",
    "country": "Germany",
    "state": "Hamburg",
    "city": "Bergstedt"
  },
  {
    "source_id": "ChIJixz8c2zzsUcRvWDIvRaRRaY",
    "name": "ABS Bewässerungssysteme",
    "category": "ABS Bewässerungssysteme",
    "formatted_address": "5,0(10)",
    "phone_number": "+494020963222",
    "source_url": "https://www.google.com/maps/place/ABS+Bew%C3%A4sserungssysteme/data=!4m7!3m6!1s0x47b1f36c73fc1c8b:0xa6459116bdc860bd!8m2!3d53.4851575!4d10.1899135!16s%2Fg%2F11pwpgyn7x!19sChIJixz8c2zzsUcRvWDIvRaRRaY?authuser=0&hl=tr&rclk=1",
    "website_url": "",
    "rating_text": "5,0",
    "stars": null,
    "number_of_reviews": null,
    "price_level": "",
    "open_hours": "",
    "extraction_timestamp": "2025-06-07T15:18:37.709Z",
    "source_name": "google",
    "source_query": "Irrigation Equipment",
    "source_country": "DE",
    "country": "Germany",
    "state": "Hamburg",
    "city": "Bergstedt"
  },
  {
    "source_id": "ChIJgaY2YHWKsUcRGvLaP0kP1a4",
    "name": "Hanjo Fecht Sanitärtechnik & Heizungsbau",
    "category": "Hanjo Fecht Sanitärtechnik & Heizungsbau",
    "formatted_address": "4,9(27)",
    "phone_number": "+494041114852",
    "source_url": "https://www.google.com/maps/place/Hanjo+Fecht+Sanit%C3%A4rtechnik+%26+Heizungsbau/data=!4m7!3m6!1s0x47b18a756036a681:0xaed50f493fdaf21a!8m2!3d53.65588!4d10.13178!16s%2Fg%2F1tjcnhp7!19sChIJgaY2YHWKsUcRGvLaP0kP1a4?authuser=0&hl=tr&rclk=1",
    "website_url": "",
    "rating_text": "4,9",
    "stars": null,
    "number_of_reviews": null,
    "price_level": "",
    "open_hours": "",
    "extraction_timestamp": "2025-06-07T15:18:37.710Z",
    "source_name": "google",
    "source_query": "Irrigation Equipment",
    "source_country": "DE",
    "country": "Germany",
    "state": "Hamburg",
    "city": "Bergstedt"
  },
  {
    "source_id": "ChIJ373w3-IuAw4RcpPQlfci_1g",
    "name": "ML Marcel Loth Sanitär- und Heizungstechnik",
    "category": "ML Marcel Loth Sanitär- und Heizungstechnik",
    "formatted_address": "5,0(19)",
    "phone_number": "+494087090668",
    "source_url": "https://www.google.com/maps/place/ML+Marcel+Loth+Sanit%C3%A4r-+und+Heizungstechnik/data=!4m7!3m6!1s0xe032ee2dff0bddf:0x58ff22f795d09372!8m2!3d53.6809493!4d10.129251!16s%2Fg%2F11v6nc26t7!19sChIJ373w3-IuAw4RcpPQlfci_1g?authuser=0&hl=tr&rclk=1",
    "website_url": "",
    "rating_text": "5,0",
    "stars": null,
    "number_of_reviews": null,
    "price_level": "",
    "open_hours": "",
    "extraction_timestamp": "2025-06-07T15:18:37.711Z",
    "source_name": "google",
    "source_query": "Irrigation Equipment",
    "source_country": "DE",
    "country": "Germany",
    "state": "Hamburg",
    "city": "Bergstedt"
  },
  {
    "source_id": "ChIJo2L3gfqKsUcRcFspYRTmN78",
    "name": "Halbroeder Heizung & Sanitär GmbH",
    "category": "Halbroeder Heizung & Sanitär GmbH",
    "formatted_address": "4,6(20)",
    "phone_number": "+491737394608",
    "source_url": "https://www.google.com/maps/place/Halbroeder+Heizung+%26+Sanit%C3%A4r+GmbH/data=!4m7!3m6!1s0x47b18afa81f762a3:0xbf37e61461295b70!8m2!3d53.6562388!4d10.1490556!16s%2Fg%2F11dxfqdfl4!19sChIJo2L3gfqKsUcRcFspYRTmN78?authuser=0&hl=tr&rclk=1",
    "website_url": "",
    "rating_text": "4,6",
    "stars": null,
    "number_of_reviews": null,
    "price_level": "",
    "open_hours": "",
    "extraction_timestamp": "2025-06-07T15:18:37.712Z",
    "source_name": "google",
    "source_query": "Irrigation Equipment",
    "source_country": "DE",
    "country": "Germany",
    "state": "Hamburg",
    "city": "Bergstedt"
  },
  {
    "source_id": "ChIJowpSpmeJsUcRn1r_wkg_pPw",
    "name": "Werner Weidenbecher e.K.",
    "category": "Werner Weidenbecher e.K.",
    "formatted_address": "4,2(5)",
    "phone_number": "+4940613083",
    "source_url": "https://www.google.com/maps/place/Werner+Weidenbecher+e.K./data=!4m7!3m6!1s0x47b18967a6520aa3:0xfca43f48c2ff5a9f!8m2!3d53.6750487!4d10.1385693!16s%2Fg%2F1thmk19b!19sChIJowpSpmeJsUcRn1r_wkg_pPw?authuser=0&hl=tr&rclk=1",
    "website_url": "",
    "rating_text": "4,2",
    "stars": null,
    "number_of_reviews": null,
    "price_level": "",
    "open_hours": "",
    "extraction_timestamp": "2025-06-07T15:18:37.713Z",
    "source_name": "google",
    "source_query": "Irrigation Equipment",
    "source_country": "DE",
    "country": "Germany",
    "state": "Hamburg",
    "city": "Bergstedt"
  },
  {
    "source_id": "ChIJvU8PzYiLsUcRN63-pVHr894",
    "name": "LG Gartenbau",
    "category": "LG Gartenbau",
    "formatted_address": "4,9(33)",
    "phone_number": "+4917684502055",
    "source_url": "https://www.google.com/maps/place/LG+Gartenbau/data=!4m7!3m6!1s0x47b18b88cd0f4fbd:0xdef3eb51a5fead37!8m2!3d53.6460001!4d10.1319523!16s%2Fg%2F11vysj54vk!19sChIJvU8PzYiLsUcRN63-pVHr894?authuser=0&hl=tr&rclk=1",
    "website_url": "",
    "rating_text": "4,9",
    "stars": null,
    "number_of_reviews": null,
    "price_level": "",
    "open_hours": "",
    "extraction_timestamp": "2025-06-07T15:18:37.714Z",
    "source_name": "google",
    "source_query": "Irrigation Equipment",
    "source_country": "DE",
    "country": "Germany",
    "state": "Hamburg",
    "city": "Bergstedt"
  },
  {
    "source_id": "ChIJCdAdyrsgskcRM3gqC4UMvrw",
    "name": "budni - Wohldorfer Damm",
    "category": "budni - Wohldorfer Damm",
    "formatted_address": "3,8(42)",
    "phone_number": "+494080603030",
    "source_url": "https://www.google.com/maps/place/budni+-+Wohldorfer+Damm/data=!4m7!3m6!1s0x47b220bbca1dd009:0xbcbe0c850b2a7833!8m2!3d53.671667!4d10.1248127!16s%2Fg%2F11f4mbmdyp!19sChIJCdAdyrsgskcRM3gqC4UMvrw?authuser=0&hl=tr&rclk=1",
    "website_url": "",
    "rating_text": "3,8",
    "stars": null,
    "number_of_reviews": null,
    "price_level": "",
    "open_hours": "",
    "extraction_timestamp": "2025-06-07T15:18:37.715Z",
    "source_name": "google",
    "source_query": "Irrigation Equipment",
    "source_country": "DE",
    "country": "Germany",
    "state": "Hamburg",
    "city": "Bergstedt"
  },
  {
    "source_id": "ChIJpdw_OLsgskcRlAphBK681aw",
    "name": "Hermann Wendt´s Klempnerei und Installation e.K.",
    "category": "Hermann Wendt´s Klempnerei und Installation e.K.",
    "formatted_address": "4,3(13)",
    "phone_number": "+49406049180",
    "source_url": "https://www.google.com/maps/place/Hermann+Wendt%C2%B4s+Klempnerei+und+Installation+e.K./data=!4m7!3m6!1s0x47b220bb383fdca5:0xacd5bcae04610a94!8m2!3d53.6684476!4d10.1246014!16s%2Fg%2F1v62gqp3!19sChIJpdw_OLsgskcRlAphBK681aw?authuser=0&hl=tr&rclk=1",
    "website_url": "",
    "rating_text": "4,3",
    "stars": null,
    "number_of_reviews": null,
    "price_level": "",
    "open_hours": "",
    "extraction_timestamp": "2025-06-07T15:18:37.716Z",
    "source_name": "google",
    "source_query": "Irrigation Equipment",
    "source_country": "DE",
    "country": "Germany",
    "state": "Hamburg",
    "city": "Bergstedt"
  },
  {
    "source_id": "ChIJ5VoeusOIsUcRGgHd7aW9bfw",
    "name": "Peter Warnecke GmbH Sanitärtechnik",
    "category": "Peter Warnecke GmbH Sanitärtechnik",
    "formatted_address": "3,7(15)",
    "phone_number": "+4940515729",
    "source_url": "https://www.google.com/maps/place/Peter+Warnecke+GmbH+Sanit%C3%A4rtechnik/data=!4m7!3m6!1s0x47b188c3ba1e5ae5:0xfc6dbda5eddd011a!8m2!3d53.6747331!4d10.1392979!16s%2Fg%2F1vfp77sr!19sChIJ5VoeusOIsUcRGgHd7aW9bfw?authuser=0&hl=tr&rclk=1",
    "website_url": "",
    "rating_text": "3,7",
    "stars": null,
    "number_of_reviews": null,
    "price_level": "",
    "open_hours": "",
    "extraction_timestamp": "2025-06-07T15:18:37.717Z",
    "source_name": "google",
    "source_query": "Irrigation Equipment",
    "source_country": "DE",
    "country": "Germany",
    "state": "Hamburg",
    "city": "Bergstedt"
  },
  {
    "source_id": "ChIJhYOS__uJsUcRNwDYm5jCkOY",
    "name": "HOBBY + TECHNIK by HARTFELDER Spielzeug GmbH",
    "category": "HOBBY + TECHNIK by HARTFELDER Spielzeug GmbH",
    "formatted_address": "4,2(105)",
    "phone_number": "+494061169528",
    "source_url": "https://www.google.com/maps/place/HOBBY+%2B+TECHNIK+by+HARTFELDER+Spielzeug+GmbH/data=!4m7!3m6!1s0x47b189fbff928385:0xe690c2989bd80037!8m2!3d53.6546788!4d10.0912476!16s%2Fg%2F11c5rrcq_r!19sChIJhYOS__uJsUcRNwDYm5jCkOY?authuser=0&hl=tr&rclk=1",
    "website_url": "",
    "rating_text": "4,2",
    "stars": null,
    "number_of_reviews": null,
    "price_level": "",
    "open_hours": "",
    "extraction_timestamp": "2025-06-07T15:18:37.718Z",
    "source_name": "google",
    "source_query": "Irrigation Equipment",
    "source_country": "DE",
    "country": "Germany",
    "state": "Hamburg",
    "city": "Bergstedt"
  },
  {
    "source_id": "ChIJfdrPjSgnskcR0F4IgNR-0o4",
    "name": "Pflanzen Körner",
    "category": "Pflanzen Körner",
    "formatted_address": "4,3(587)",
    "phone_number": "+49406076910",
    "source_url": "https://www.google.com/maps/place/Pflanzen+K%C3%B6rner/data=!4m7!3m6!1s0x47b227288dcfda7d:0x8ed27ed480085ed0!8m2!3d53.6990373!4d10.1011835!16s%2Fg%2F1tdxv230!19sChIJfdrPjSgnskcR0F4IgNR-0o4?authuser=0&hl=tr&rclk=1",
    "website_url": "",
    "rating_text": "4,3",
    "stars": null,
    "number_of_reviews": null,
    "price_level": "",
    "open_hours": "",
    "extraction_timestamp": "2025-06-07T15:18:37.719Z",
    "source_name": "google",
    "source_query": "Irrigation Equipment",
    "source_country": "DE",
    "country": "Germany",
    "state": "Hamburg",
    "city": "Bergstedt"
  },
  {
    "source_id": "ChIJo3bwx7sgskcRujoYpL8F5no",
    "name": "EDEKA Jessen",
    "category": "EDEKA Jessen",
    "formatted_address": "4,3(400)",
    "phone_number": "+494060441170",
    "source_url": "https://www.google.com/maps/place/EDEKA+Jessen/data=!4m7!3m6!1s0x47b220bbc7f076a3:0x7ae605bfa4183aba!8m2!3d53.6711219!4d10.1252486!16s%2Fg%2F1tgxh3jk!19sChIJo3bwx7sgskcRujoYpL8F5no?authuser=0&hl=tr&rclk=1",
    "website_url": "",
    "rating_text": "4,3",
    "stars": null,
    "number_of_reviews": null,
    "price_level": "",
    "open_hours": "",
    "extraction_timestamp": "2025-06-07T15:18:37.720Z",
    "source_name": "google",
    "source_query": "Irrigation Equipment",
    "source_country": "DE",
    "country": "Germany",
    "state": "Hamburg",
    "city": "Bergstedt"
  },
  {
    "source_id": "ChIJhYOS__uJsUcRexErNJ3ZXIE",
    "name": "INTERSPORT Knudsen",
    "category": "INTERSPORT Knudsen",
    "formatted_address": "4,2(248)",
    "phone_number": "+494063855840",
    "source_url": "https://www.google.com/maps/place/INTERSPORT+Knudsen/data=!4m7!3m6!1s0x47b189fbff928385:0x815cd99d342b117b!8m2!3d53.6542482!4d10.0910493!16s%2Fg%2F1tfbgsrr!19sChIJhYOS__uJsUcRexErNJ3ZXIE?authuser=0&hl=tr&rclk=1",
    "website_url": "",
    "rating_text": "4,2",
    "stars": null,
    "number_of_reviews": null,
    "price_level": "",
    "open_hours": "",
    "extraction_timestamp": "2025-06-07T15:18:37.721Z",
    "source_name": "google",
    "source_query": "Irrigation Equipment",
    "source_country": "DE",
    "country": "Germany",
    "state": "Hamburg",
    "city": "Bergstedt"
  },
  {
    "source_id": "ChIJJ8q7TgGKsUcRleQtvuzmp6k",
    "name": "HAPPI MED Atlantis",
    "category": "HAPPI MED Atlantis",
    "formatted_address": "5,0(42)",
    "phone_number": "+49406017738",
    "source_url": "https://www.google.com/maps/place/HAPPI+MED+Atlantis/data=!4m7!3m6!1s0x47b18a014ebbca27:0xa9a7e6ecbe2de495!8m2!3d53.6536443!4d10.1054971!16s%2Fg%2F1tg5t31s!19sChIJJ8q7TgGKsUcRleQtvuzmp6k?authuser=0&hl=tr&rclk=1",
    "website_url": "",
    "rating_text": "5,0",
    "stars": null,
    "number_of_reviews": null,
    "price_level": "",
    "open_hours": "",
    "extraction_timestamp": "2025-06-07T15:18:37.722Z",
    "source_name": "google",
    "source_query": "Irrigation Equipment",
    "source_country": "DE",
    "country": "Germany",
    "state": "Hamburg",
    "city": "Bergstedt"
  },
  {
    "source_id": "ChIJbYakw7AhskcRCFHBpSwqL6k",
    "name": "Ellis Kiosk Ohlstedt",
    "category": "Ellis Kiosk Ohlstedt",
    "formatted_address": "5,0(12)",
    "phone_number": "+4915779354841",
    "source_url": "https://www.google.com/maps/place/Ellis+Kiosk+Ohlstedt/data=!4m7!3m6!1s0x47b221b0c3a4866d:0xa92f2a2ca5c15108!8m2!3d53.6951707!4d10.1372993!16s%2Fg%2F11xg076cw5!19sChIJbYakw7AhskcRCFHBpSwqL6k?authuser=0&hl=tr&rclk=1",
    "website_url": "",
    "rating_text": "5,0",
    "stars": null,
    "number_of_reviews": null,
    "price_level": "",
    "open_hours": "",
    "extraction_timestamp": "2025-06-07T15:18:37.723Z",
    "source_name": "google",
    "source_query": "Irrigation Equipment",
    "source_country": "DE",
    "country": "Germany",
    "state": "Hamburg",
    "city": "Bergstedt"
  },
  {
    "source_id": "ChIJ4R34GoKPsUcR_Di8Y72u1Q4",
    "name": "AN-Beregnungstechnik",
    "category": "AN-Beregnungstechnik",
    "formatted_address": "",
    "phone_number": "+4917673517226",
    "source_url": "https://www.google.com/maps/place/AN-Beregnungstechnik/data=!4m7!3m6!1s0x47b18f821af81de1:0xed5aebd63bc38fc!8m2!3d53.5576744!4d10.0112776!16s%2Fg%2F11x33m21xg!19sChIJ4R34GoKPsUcR_Di8Y72u1Q4?authuser=0&hl=tr&rclk=1",
    "website_url": "",
    "rating_text": "",
    "stars": null,
    "number_of_reviews": null,
    "price_level": "",
    "open_hours": "",
    "extraction_timestamp": "2025-06-07T15:18:37.723Z",
    "source_name": "google",
    "source_query": "Irrigation Equipment",
    "source_country": "DE",
    "country": "Germany",
    "state": "Hamburg",
    "city": "Bergstedt"
  },
  {
    "source_id": "ChIJBQqFxhKKsUcRlkgdImgW41Y",
    "name": "Paul Kahl GmbH",
    "category": "Paul Kahl GmbH",
    "formatted_address": "3,5(34)",
    "phone_number": "+494088165360",
    "source_url": "https://www.google.com/maps/place/Paul+Kahl+GmbH/data=!4m7!3m6!1s0x47b18a12c6850a05:0x56e31668221d4896!8m2!3d53.6439692!4d10.1249017!16s%2Fg%2F1tdwjkhm!19sChIJBQqFxhKKsUcRlkgdImgW41Y?authuser=0&hl=tr&rclk=1",
    "website_url": "",
    "rating_text": "3,5",
    "stars": null,
    "number_of_reviews": null,
    "price_level": "",
    "open_hours": "",
    "extraction_timestamp": "2025-06-07T15:18:37.724Z",
    "source_name": "google",
    "source_query": "Irrigation Equipment",
    "source_country": "DE",
    "country": "Germany",
    "state": "Hamburg",
    "city": "Bergstedt"
  },
  {
    "source_id": "ChIJ_WNK9RqJsUcR_QBLOu4VnSc",
    "name": "Der Grüngarten",
    "category": "Der Grüngarten",
    "formatted_address": "4,8(11)",
    "phone_number": "+4915253846323",
    "source_url": "https://www.google.com/maps/place/Der+Gr%C3%BCngarten/data=!4m7!3m6!1s0x47b1891af54a63fd:0x279d15ee3a4b00fd!8m2!3d53.6672334!4d10.1290552!16s%2Fg%2F11j3x9hlcg!19sChIJ_WNK9RqJsUcR_QBLOu4VnSc?authuser=0&hl=tr&rclk=1",
    "website_url": "",
    "rating_text": "4,8",
    "stars": null,
    "number_of_reviews": null,
    "price_level": "",
    "open_hours": "",
    "extraction_timestamp": "2025-06-07T15:18:37.725Z",
    "source_name": "google",
    "source_query": "Irrigation Equipment",
    "source_country": "DE",
    "country": "Germany",
    "state": "Hamburg",
    "city": "Bergstedt"
  },
  {
    "source_id": "ChIJs8T9XuK6Y0EROu0xZg50keg",
    "name": "Jürgen Tiedtke Heizungs- und Lüftungstechnik GmbH",
    "category": "Jürgen Tiedtke Heizungs- und Lüftungstechnik GmbH",
    "formatted_address": "4,6(41)",
    "phone_number": "+494064221138",
    "source_url": "https://www.google.com/maps/place/J%C3%BCrgen+Tiedtke+Heizungs-+und+L%C3%BCftungstechnik+GmbH/data=!4m7!3m6!1s0x4163bae25efdc4b3:0xe891740e6631ed3a!8m2!3d53.5976271!4d10.0736547!16s%2Fg%2F1vrq8pzh!19sChIJs8T9XuK6Y0EROu0xZg50keg?authuser=0&hl=tr&rclk=1",
    "website_url": "",
    "rating_text": "4,6",
    "stars": null,
    "number_of_reviews": null,
    "price_level": "",
    "open_hours": "",
    "extraction_timestamp": "2025-06-07T15:18:37.726Z",
    "source_name": "google",
    "source_query": "Irrigation Equipment",
    "source_country": "DE",
    "country": "Germany",
    "state": "Hamburg",
    "city": "Bergstedt"
  },
  {
    "source_id": "ChIJL0Fwoe2PsUcRqCK-GWyYl28",
    "name": "24h Rohr & Kanal Hilfe GmbH Abfluss & Rohrreinigung Kanalreinigung Kanaluntersuchung Kanalsanierung WC & Küchen Entstopfung",
    "category": "24h Rohr & Kanal Hilfe GmbH Abfluss & Rohrreinigung Kanalreinigung Kanaluntersuchung Kanalsanierung WC & Küchen Entstopfung",
    "formatted_address": "24h Rohr & Kanal Hilfe GmbH Abfluss & Rohrreinigung Kanalreinigung Kanaluntersuchung Kanalsanierung WC & Küchen Entstopfung",
    "phone_number": "+4930924",
    "source_url": "https://www.google.com/maps/place/24h+Rohr+%26+Kanal+Hilfe+GmbH+Abfluss+%26+Rohrreinigung+Kanalreinigung+Kanaluntersuchung+Kanalsanierung+WC+%26+K%C3%BCchen+Entstopfung/data=!4m7!3m6!1s0x47b18feda170412f:0x6f97986c19be22a8!8m2!3d53.5511691!4d10.0424434!16s%2Fg%2F11s5sfx52v!19sChIJL0Fwoe2PsUcRqCK-GWyYl28?authuser=0&hl=tr&rclk=1",
    "website_url": "",
    "rating_text": "4,9",
    "stars": null,
    "number_of_reviews": null,
    "price_level": "",
    "open_hours": "",
    "extraction_timestamp": "2025-06-07T15:18:37.727Z",
    "source_name": "google",
    "source_query": "Irrigation Equipment",
    "source_country": "DE",
    "country": "Germany",
    "state": "Hamburg",
    "city": "Bergstedt"
  },
  {
    "source_id": "ChIJBRV_lJCLsUcR2SA8gjrjqYc",
    "name": "AQUARIUM TONNDORF",
    "category": "AQUARIUM TONNDORF",
    "formatted_address": "4,5(911)",
    "phone_number": "+4940662646",
    "source_url": "https://www.google.com/maps/place/AQUARIUM+TONNDORF/data=!4m7!3m6!1s0x47b18b90947f1505:0x87a9e33a823c20d9!8m2!3d53.584423!4d10.116477!16s%2Fg%2F1tfzwk6w!19sChIJBRV_lJCLsUcR2SA8gjrjqYc?authuser=0&hl=tr&rclk=1",
    "website_url": "",
    "rating_text": "4,5",
    "stars": null,
    "number_of_reviews": null,
    "price_level": "",
    "open_hours": "",
    "extraction_timestamp": "2025-06-07T15:18:37.728Z",
    "source_name": "google",
    "source_query": "Irrigation Equipment",
    "source_country": "DE",
    "country": "Germany",
    "state": "Hamburg",
    "city": "Bergstedt"
  },
  {
    "source_id": "ChIJi4pX2IqJsUcRrHFX0360OXU",
    "name": "NORD TECHNOLOGIE - Bau & Handwerk",
    "category": "NORD TECHNOLOGIE - Bau & Handwerk",
    "formatted_address": "4,8(51)",
    "phone_number": "+491787870366",
    "source_url": "https://www.google.com/maps/place/NORD+TECHNOLOGIE+-+Bau+%26+Handwerk/data=!4m7!3m6!1s0x47b1898ad8578a8b:0x7539b47ed35771ac!8m2!3d53.6014086!4d10.1823661!16s%2Fg%2F11qp4_0rbd!19sChIJi4pX2IqJsUcRrHFX0360OXU?authuser=0&hl=tr&rclk=1",
    "website_url": "",
    "rating_text": "4,8",
    "stars": null,
    "number_of_reviews": null,
    "price_level": "",
    "open_hours": "",
    "extraction_timestamp": "2025-06-07T15:18:37.728Z",
    "source_name": "google",
    "source_query": "Irrigation Equipment",
    "source_country": "DE",
    "country": "Germany",
    "state": "Hamburg",
    "city": "Bergstedt"
  },
  {
    "source_id": "ChIJSfajOk-JsUcRBnW-BWL3iqY",
    "name": "Luth Sanitärtechnik GmbH",
    "category": "Luth Sanitärtechnik GmbH",
    "formatted_address": "4,9(38)",
    "phone_number": "+49402800024",
    "source_url": "https://www.google.com/maps/place/Luth+Sanit%C3%A4rtechnik+GmbH/data=!4m7!3m6!1s0x47b1894f3aa3f649:0xa68af76205be7506!8m2!3d53.5842951!4d10.0508486!16s%2Fg%2F1tftk7zh!19sChIJSfajOk-JsUcRBnW-BWL3iqY?authuser=0&hl=tr&rclk=1",
    "website_url": "",
    "rating_text": "4,9",
    "stars": null,
    "number_of_reviews": null,
    "price_level": "",
    "open_hours": "",
    "extraction_timestamp": "2025-06-07T15:18:37.730Z",
    "source_name": "google",
    "source_query": "Irrigation Equipment",
    "source_country": "DE",
    "country": "Germany",
    "state": "Hamburg",
    "city": "Bergstedt"
  },
  {
    "source_id": "ChIJA3QXrz-JsUcRYVrC3ZD3_04",
    "name": "Barfital",
    "category": "Barfital",
    "formatted_address": "4,8(418)",
    "phone_number": "+494036916238",
    "source_url": "https://www.google.com/maps/place/Barfital/data=!4m7!3m6!1s0x47b1893faf177403:0x4efff790ddc25a61!8m2!3d53.590653!4d10.0445378!16s%2Fg%2F11cks58mn2!19sChIJA3QXrz-JsUcRYVrC3ZD3_04?authuser=0&hl=tr&rclk=1",
    "website_url": "",
    "rating_text": "4,8",
    "stars": null,
    "number_of_reviews": null,
    "price_level": "",
    "open_hours": "",
    "extraction_timestamp": "2025-06-07T15:18:37.731Z",
    "source_name": "google",
    "source_query": "Irrigation Equipment",
    "source_country": "DE",
    "country": "Germany",
    "state": "Hamburg",
    "city": "Bergstedt"
  },
  {
    "source_id": "ChIJk2W7AbWOsUcR6mQ_WMhpOJw",
    "name": "GWS Wärmesysteme GmbH",
    "category": "GWS Wärmesysteme GmbH",
    "formatted_address": "5,0(15)",
    "phone_number": "+49405407091",
    "source_url": "https://www.google.com/maps/place/GWS+W%C3%A4rmesysteme+GmbH/data=!4m7!3m6!1s0x47b18eb501bb6593:0x9c3869c8583f64ea!8m2!3d53.5863242!4d10.0527944!16s%2Fg%2F1tmk7k9k!19sChIJk2W7AbWOsUcR6mQ_WMhpOJw?authuser=0&hl=tr&rclk=1",
    "website_url": "",
    "rating_text": "5,0",
    "stars": null,
    "number_of_reviews": null,
    "price_level": "",
    "open_hours": "",
    "extraction_timestamp": "2025-06-07T15:18:37.732Z",
    "source_name": "google",
    "source_query": "Irrigation Equipment",
    "source_country": "DE",
    "country": "Germany",
    "state": "Hamburg",
    "city": "Bergstedt"
  }
]
