[
  {
    "source_id": "ChIJixz8c2zzsUcRvWDIvRaRRaY",
    "name": "ABS Bewässerungssysteme",
    "category": "ABS Bewässerungssysteme",
    "formatted_address": "5,0(10)",
    "phone_number": "+494020963222",
    "source_url": "https://www.google.com/maps/place/ABS+Bew%C3%A4sserungssysteme/data=!4m7!3m6!1s0x47b1f36c73fc1c8b:0xa6459116bdc860bd!8m2!3d53.4851575!4d10.1899135!16s%2Fg%2F11pwpgyn7x!19sChIJixz8c2zzsUcRvWDIvRaRRaY?authuser=0&hl=tr&rclk=1",
    "website_url": "",
    "rating_text": "5,0",
    "stars": null,
    "number_of_reviews": null,
    "price_level": "",
    "open_hours": "",
    "extraction_timestamp": "2025-06-07T15:22:51.636Z",
    "source_name": "google",
    "source_query": "Irrigation Equipment",
    "source_country": "DE",
    "country": "Germany",
    "state": "Hamburg",
    "city": "Bergedorf"
  },
  {
    "source_id": "ChIJc7t16__ssUcRReh1GrtGvuc",
    "name": "Dirk Behrens Bewässerungstechnik GmbH",
    "category": "Dirk Behrens Bewässerungstechnik GmbH",
    "formatted_address": "5,0(5)",
    "phone_number": "+49407238608",
    "source_url": "https://www.google.com/maps/place/Dirk+Behrens+Bew%C3%A4sserungstechnik+GmbH/data=!4m7!3m6!1s0x47b1ecffeb75bb73:0xe7be46bb1a75e845!8m2!3d53.4307019!4d10.1950017!16s%2Fg%2F1tdmtpc8!19sChIJc7t16__ssUcRReh1GrtGvuc?authuser=0&hl=tr&rclk=1",
    "website_url": "",
    "rating_text": "5,0",
    "stars": null,
    "number_of_reviews": null,
    "price_level": "",
    "open_hours": "",
    "extraction_timestamp": "2025-06-07T15:22:51.637Z",
    "source_name": "google",
    "source_query": "Irrigation Equipment",
    "source_country": "DE",
    "country": "Germany",
    "state": "Hamburg",
    "city": "Bergedorf"
  },
  {
    "source_id": "ChIJdZHkypHysUcRf_uDvEJ_QXo",
    "name": "OBI Markt Hamburg-Bergedorf",
    "category": "OBI Markt Hamburg-Bergedorf",
    "formatted_address": "4,0(2.579)",
    "phone_number": "+494041626780",
    "source_url": "https://www.google.com/maps/place/OBI+Markt+Hamburg-Bergedorf/data=!4m7!3m6!1s0x47b1f291cae49175:0x7a417f42bc83fb7f!8m2!3d53.4883885!4d10.2007091!16s%2Fg%2F1pp2vj92j!19sChIJdZHkypHysUcRf_uDvEJ_QXo?authuser=0&hl=tr&rclk=1",
    "website_url": "",
    "rating_text": "4,0",
    "stars": null,
    "number_of_reviews": null,
    "price_level": "",
    "open_hours": "",
    "extraction_timestamp": "2025-06-07T15:22:51.639Z",
    "source_name": "google",
    "source_query": "Irrigation Equipment",
    "source_country": "DE",
    "country": "Germany",
    "state": "Hamburg",
    "city": "Bergedorf"
  },
  {
    "source_id": "ChIJM71IOU6MsUcRNZoOQiiSRsc",
    "name": "G+S Schlauchtechnik GmbH",
    "category": "G+S Schlauchtechnik GmbH",
    "formatted_address": "4,1(17)",
    "phone_number": "+4940466644400",
    "source_url": "https://www.google.com/maps/place/G%2BS+Schlauchtechnik+GmbH/data=!4m7!3m6!1s0x47b18c4e3948bd33:0xc7469228420e9a35!8m2!3d53.4953943!4d10.1108728!16s%2Fg%2F1tlc_6_f!19sChIJM71IOU6MsUcRNZoOQiiSRsc?authuser=0&hl=tr&rclk=1",
    "website_url": "",
    "rating_text": "4,1",
    "stars": null,
    "number_of_reviews": null,
    "price_level": "",
    "open_hours": "",
    "extraction_timestamp": "2025-06-07T15:22:51.640Z",
    "source_name": "google",
    "source_query": "Irrigation Equipment",
    "source_country": "DE",
    "country": "Germany",
    "state": "Hamburg",
    "city": "Bergedorf"
  },
  {
    "source_id": "ChIJiXaQj5ftsUcRLxcHR47xTO4",
    "name": "Gartenbautechnik Geereking - für Profi- und Hobbygärtner",
    "category": "Gartenbautechnik Geereking - für Profi- und Hobbygärtner",
    "formatted_address": "4,7(81)",
    "phone_number": "+49407237310",
    "source_url": "https://www.google.com/maps/place/Gartenbautechnik+Geereking+-+f%C3%BCr+Profi-+und+Hobbyg%C3%A4rtner/data=!4m7!3m6!1s0x47b1ed978f907689:0xee4cf18e4707172f!8m2!3d53.453417!4d10.2213172!16s%2Fg%2F1ts1lpz2!19sChIJiXaQj5ftsUcRLxcHR47xTO4?authuser=0&hl=tr&rclk=1",
    "website_url": "",
    "rating_text": "4,7",
    "stars": null,
    "number_of_reviews": null,
    "price_level": "",
    "open_hours": "",
    "extraction_timestamp": "2025-06-07T15:22:51.641Z",
    "source_name": "google",
    "source_query": "Irrigation Equipment",
    "source_country": "DE",
    "country": "Germany",
    "state": "Hamburg",
    "city": "Bergedorf"
  },
  {
    "source_id": "ChIJrX8CNm-NsUcRK11RkCcQoZ8",
    "name": "Riensch & Held GmbH & Co. KG",
    "category": "Riensch & Held GmbH & Co. KG",
    "formatted_address": "4,1(18)",
    "phone_number": "+4940734240",
    "source_url": "https://www.google.com/maps/place/Riensch+%26+Held+GmbH+%26+Co.+KG/data=!4m7!3m6!1s0x47b18d6f36027fad:0x9fa1102790515d2b!8m2!3d53.49414!4d10.12166!16s%2Fg%2F1tcydj56!19sChIJrX8CNm-NsUcRK11RkCcQoZ8?authuser=0&hl=tr&rclk=1",
    "website_url": "",
    "rating_text": "4,1",
    "stars": null,
    "number_of_reviews": null,
    "price_level": "",
    "open_hours": "",
    "extraction_timestamp": "2025-06-07T15:22:51.642Z",
    "source_name": "google",
    "source_query": "Irrigation Equipment",
    "source_country": "DE",
    "country": "Germany",
    "state": "Hamburg",
    "city": "Bergedorf"
  },
  {
    "source_id": "ChIJmwLvBZztsUcRTxp9hBi7CG0",
    "name": "Waterkant Pool und Service GmbH - Poolbau und Poolreinigung in Hamburg",
    "category": "Waterkant Pool und Service GmbH - Poolbau und Poolreinigung in Hamburg",
    "formatted_address": "5,0(1)",
    "phone_number": "+494021008430",
    "source_url": "https://www.google.com/maps/place/Waterkant+Pool+und+Service+GmbH+-+Poolbau+und+Poolreinigung+in+Hamburg/data=!4m7!3m6!1s0x47b1ed9c05ef029b:0x6d08bb18847d1a4f!8m2!3d53.4724182!4d10.1725656!16s%2Fg%2F11yct61_9v!19sChIJmwLvBZztsUcRTxp9hBi7CG0?authuser=0&hl=tr&rclk=1",
    "website_url": "",
    "rating_text": "5,0",
    "stars": null,
    "number_of_reviews": null,
    "price_level": "",
    "open_hours": "",
    "extraction_timestamp": "2025-06-07T15:22:51.642Z",
    "source_name": "google",
    "source_query": "Irrigation Equipment",
    "source_country": "DE",
    "country": "Germany",
    "state": "Hamburg",
    "city": "Bergedorf"
  },
  {
    "source_id": "ChIJeaN8pRJc8AYRu6BFk5lKdwA",
    "name": "Pasiek Haustechnik GmbH",
    "category": "Pasiek Haustechnik GmbH",
    "formatted_address": "5,0(55)",
    "phone_number": "+4917630333462",
    "source_url": "https://www.google.com/maps/place/Pasiek+Haustechnik+GmbH/data=!4m7!3m6!1s0x6f05c12a57ca379:0x774a999345a0bb!8m2!3d53.494139!4d10.1937777!16s%2Fg%2F11y64fh_qp!19sChIJeaN8pRJc8AYRu6BFk5lKdwA?authuser=0&hl=tr&rclk=1",
    "website_url": "",
    "rating_text": "5,0",
    "stars": null,
    "number_of_reviews": null,
    "price_level": "",
    "open_hours": "",
    "extraction_timestamp": "2025-06-07T15:22:51.643Z",
    "source_name": "google",
    "source_query": "Irrigation Equipment",
    "source_country": "DE",
    "country": "Germany",
    "state": "Hamburg",
    "city": "Bergedorf"
  },
  {
    "source_id": "ChIJsX6cP5LtsUcR6CZ8LOm0N6I",
    "name": "Hybridio GmbH",
    "category": "Hybridio GmbH",
    "formatted_address": "5,0(3)",
    "phone_number": "+494036094502000",
    "source_url": "https://www.google.com/maps/place/Hybridio+GmbH/data=!4m7!3m6!1s0x47b1ed923f9c7eb1:0xa237b4e92c7c26e8!8m2!3d53.4630946!4d10.1825048!16s%2Fg%2F11mclk0ygb!19sChIJsX6cP5LtsUcR6CZ8LOm0N6I?authuser=0&hl=tr&rclk=1",
    "website_url": "",
    "rating_text": "5,0",
    "stars": null,
    "number_of_reviews": null,
    "price_level": "",
    "open_hours": "",
    "extraction_timestamp": "2025-06-07T15:22:51.645Z",
    "source_name": "google",
    "source_query": "Irrigation Equipment",
    "source_country": "DE",
    "country": "Germany",
    "state": "Hamburg",
    "city": "Bergedorf"
  },
  {
    "source_id": "ChIJH0gpxIXysUcRGQCLqVCgFlo",
    "name": "BAUHAUS",
    "category": "BAUHAUS",
    "formatted_address": "4,2(3.768)",
    "phone_number": "+4937684",
    "source_url": "https://www.google.com/maps/place/BAUHAUS/data=!4m7!3m6!1s0x47b1f285c429481f:0x5a16a050a98b0019!8m2!3d53.48357!4d10.20742!16s%2Fg%2F1vyk1kjn!19sChIJH0gpxIXysUcRGQCLqVCgFlo?authuser=0&hl=tr&rclk=1",
    "website_url": "",
    "rating_text": "4,2",
    "stars": null,
    "number_of_reviews": null,
    "price_level": "",
    "open_hours": "",
    "extraction_timestamp": "2025-06-07T15:22:51.646Z",
    "source_name": "google",
    "source_query": "Irrigation Equipment",
    "source_country": "DE",
    "country": "Germany",
    "state": "Hamburg",
    "city": "Bergedorf"
  },
  {
    "source_id": "ChIJgeugwHmNsUcRqiTfWurZPMI",
    "name": "Buderus Niederlassung Hamburg - Bosch Thermotechnik GmbH",
    "category": "Buderus Niederlassung Hamburg - Bosch Thermotechnik GmbH",
    "formatted_address": "4,5(53)",
    "phone_number": "+498000203000",
    "source_url": "https://www.google.com/maps/place/Buderus+Niederlassung+Hamburg+-+Bosch+Thermotechnik+GmbH/data=!4m7!3m6!1s0x47b18d79c0a0eb81:0xc23cd9ea5adf24aa!8m2!3d53.49289!4d10.10436!16s%2Fg%2F1tjppk8x!19sChIJgeugwHmNsUcRqiTfWurZPMI?authuser=0&hl=tr&rclk=1",
    "website_url": "",
    "rating_text": "4,5",
    "stars": null,
    "number_of_reviews": null,
    "price_level": "",
    "open_hours": "",
    "extraction_timestamp": "2025-06-07T15:22:51.647Z",
    "source_name": "google",
    "source_query": "Irrigation Equipment",
    "source_country": "DE",
    "country": "Germany",
    "state": "Hamburg",
    "city": "Bergedorf"
  },
  {
    "source_id": "ChIJ8bTzAI_ysUcR48XpfYwE8fo",
    "name": "SATURN Hamburg Bergedorf",
    "category": "SATURN Hamburg Bergedorf",
    "formatted_address": "4,0(3.290)",
    "phone_number": "+4932904",
    "source_url": "https://www.google.com/maps/place/SATURN+Hamburg+Bergedorf/data=!4m7!3m6!1s0x47b1f28f00f3b4f1:0xfaf1048c7de9c5e3!8m2!3d53.487426!4d10.2067553!16s%2Fg%2F1td16xc3!19sChIJ8bTzAI_ysUcR48XpfYwE8fo?authuser=0&hl=tr&rclk=1",
    "website_url": "",
    "rating_text": "4,0",
    "stars": null,
    "number_of_reviews": null,
    "price_level": "",
    "open_hours": "",
    "extraction_timestamp": "2025-06-07T15:22:51.648Z",
    "source_name": "google",
    "source_query": "Irrigation Equipment",
    "source_country": "DE",
    "country": "Germany",
    "state": "Hamburg",
    "city": "Bergedorf"
  },
  {
    "source_id": "ChIJQegfnJTtsUcRbvJnLAwISFE",
    "name": "JS Beregnungstechnik e. K.",
    "category": "JS Beregnungstechnik e. K.",
    "formatted_address": "5,0(3)",
    "phone_number": "+49407389005",
    "source_url": "https://www.google.com/maps/place/JS+Beregnungstechnik+e.+K./data=!4m7!3m6!1s0x47b1ed949c1fe841:0x5148080c2c67f26e!8m2!3d53.4555916!4d10.2336258!16s%2Fg%2F1tmxq1v3!19sChIJQegfnJTtsUcRbvJnLAwISFE?authuser=0&hl=tr&rclk=1",
    "website_url": "",
    "rating_text": "5,0",
    "stars": null,
    "number_of_reviews": null,
    "price_level": "",
    "open_hours": "",
    "extraction_timestamp": "2025-06-07T15:22:51.649Z",
    "source_name": "google",
    "source_query": "Irrigation Equipment",
    "source_country": "DE",
    "country": "Germany",
    "state": "Hamburg",
    "city": "Bergedorf"
  },
  {
    "source_id": "ChIJX9g_E4TtsUcRZM0ksKgOdRc",
    "name": "Loewen Bewässerung",
    "category": "Loewen Bewässerung",
    "formatted_address": "5,0(3)",
    "phone_number": "+4915118662975",
    "source_url": "https://www.google.com/maps/place/Loewen+Bew%C3%A4sserung/data=!4m7!3m6!1s0x47b1ed84133fd85f:0x17750ea8b024cd64!8m2!3d53.4446967!4d10.2315143!16s%2Fg%2F11x0v052r9!19sChIJX9g_E4TtsUcRZM0ksKgOdRc?authuser=0&hl=tr&rclk=1",
    "website_url": "",
    "rating_text": "5,0",
    "stars": null,
    "number_of_reviews": null,
    "price_level": "",
    "open_hours": "",
    "extraction_timestamp": "2025-06-07T15:22:51.650Z",
    "source_name": "google",
    "source_query": "Irrigation Equipment",
    "source_country": "DE",
    "country": "Germany",
    "state": "Hamburg",
    "city": "Bergedorf"
  },
  {
    "source_id": "ChIJkWLe8WGYY0ERh4UMGB7RGmg",
    "name": "GWI GmbH | Heizungsbau | Bäderbau | Soforthilfe-Kundendienst",
    "category": "GWI GmbH | Heizungsbau | Bäderbau | Soforthilfe-Kundendienst",
    "formatted_address": "4,4(14)",
    "phone_number": "+49407544226",
    "source_url": "https://www.google.com/maps/place/GWI+GmbH+%7C+Heizungsbau+%7C+B%C3%A4derbau+%7C+Soforthilfe-Kundendienst/data=!4m7!3m6!1s0x41639861f1de6291:0x681ad11e180c8587!8m2!3d53.4800201!4d10.2245501!16s%2Fg%2F1vysvlnt!19sChIJkWLe8WGYY0ERh4UMGB7RGmg?authuser=0&hl=tr&rclk=1",
    "website_url": "",
    "rating_text": "4,4",
    "stars": null,
    "number_of_reviews": null,
    "price_level": "",
    "open_hours": "",
    "extraction_timestamp": "2025-06-07T15:22:51.650Z",
    "source_name": "google",
    "source_query": "Irrigation Equipment",
    "source_country": "DE",
    "country": "Germany",
    "state": "Hamburg",
    "city": "Bergedorf"
  },
  {
    "source_id": "ChIJC6G4r4bysUcRplRyx-ydmSg",
    "name": "Drive-In-Arena",
    "category": "Drive-In-Arena",
    "formatted_address": "4,3(415)",
    "phone_number": "+49407258390",
    "source_url": "https://www.google.com/maps/place/Drive-In-Arena/data=!4m7!3m6!1s0x47b1f286afb8a10b:0x28999decc77254a6!8m2!3d53.4810689!4d10.2086714!16s%2Fg%2F11h230_f0_!19sChIJC6G4r4bysUcRplRyx-ydmSg?authuser=0&hl=tr&rclk=1",
    "website_url": "",
    "rating_text": "4,3",
    "stars": null,
    "number_of_reviews": null,
    "price_level": "",
    "open_hours": "",
    "extraction_timestamp": "2025-06-07T15:22:51.673Z",
    "source_name": "google",
    "source_query": "Irrigation Equipment",
    "source_country": "DE",
    "country": "Germany",
    "state": "Hamburg",
    "city": "Bergedorf"
  },
  {
    "source_id": "ChIJzVGOv4_ysUcRh2P1V7ngZ-A",
    "name": "Megazoo Alpha GmbH - Hamburg Bergedorf",
    "category": "Megazoo Alpha GmbH - Hamburg Bergedorf",
    "formatted_address": "4,4(3.565)",
    "phone_number": "+4935654",
    "source_url": "https://www.google.com/maps/place/Megazoo+Alpha+GmbH+-+Hamburg+Bergedorf/data=!4m7!3m6!1s0x47b1f28fbf8e51cd:0xe067e0b957f56387!8m2!3d53.4865138!4d10.206369!16s%2Fg%2F1tls1xgk!19sChIJzVGOv4_ysUcRh2P1V7ngZ-A?authuser=0&hl=tr&rclk=1",
    "website_url": "",
    "rating_text": "4,4",
    "stars": null,
    "number_of_reviews": null,
    "price_level": "",
    "open_hours": "",
    "extraction_timestamp": "2025-06-07T15:22:51.674Z",
    "source_name": "google",
    "source_query": "Irrigation Equipment",
    "source_country": "DE",
    "country": "Germany",
    "state": "Hamburg",
    "city": "Bergedorf"
  },
  {
    "source_id": "ChIJY5KleNrysUcR9tO3qFAN_Js",
    "name": "GTS German Trading Service GmbH | Börnsen",
    "category": "GTS German Trading Service GmbH | Börnsen",
    "formatted_address": "3,7(3)",
    "phone_number": "+4940739115",
    "source_url": "https://www.google.com/maps/place/GTS+German+Trading+Service+GmbH+%7C+B%C3%B6rnsen/data=!4m7!3m6!1s0x47b1f2da78a59263:0x9bfc0d50a8b7d3f6!8m2!3d53.4666427!4d10.2887045!16s%2Fg%2F1hc1dg437!19sChIJY5KleNrysUcR9tO3qFAN_Js?authuser=0&hl=tr&rclk=1",
    "website_url": "",
    "rating_text": "3,7",
    "stars": null,
    "number_of_reviews": null,
    "price_level": "",
    "open_hours": "",
    "extraction_timestamp": "2025-06-07T15:22:51.675Z",
    "source_name": "google",
    "source_query": "Irrigation Equipment",
    "source_country": "DE",
    "country": "Germany",
    "state": "Hamburg",
    "city": "Bergedorf"
  },
  {
    "source_id": "ChIJ0V5c0o7ysUcRZxinl1bVa4Y",
    "name": "HARTFELDER Marken- und Qualitätsspielzeug GmbH",
    "category": "HARTFELDER Marken- und Qualitätsspielzeug GmbH",
    "formatted_address": "4,4(618)",
    "phone_number": "+494063910110",
    "source_url": "https://www.google.com/maps/place/HARTFELDER+Marken-+und+Qualit%C3%A4tsspielzeug+GmbH/data=!4m7!3m6!1s0x47b1f28ed25c5ed1:0x866bd55697a71867!8m2!3d53.4883406!4d10.2102973!16s%2Fg%2F11byxhc1tq!19sChIJ0V5c0o7ysUcRZxinl1bVa4Y?authuser=0&hl=tr&rclk=1",
    "website_url": "",
    "rating_text": "4,4",
    "stars": null,
    "number_of_reviews": null,
    "price_level": "",
    "open_hours": "",
    "extraction_timestamp": "2025-06-07T15:22:51.676Z",
    "source_name": "google",
    "source_query": "Irrigation Equipment",
    "source_country": "DE",
    "country": "Germany",
    "state": "Hamburg",
    "city": "Bergedorf"
  },
  {
    "source_id": "ChIJz9Gr19rysUcRPiVzHu19xbU",
    "name": "haase&ruther GmbH Heizung Sanitär Haustechnik",
    "category": "haase&ruther GmbH Heizung Sanitär Haustechnik",
    "formatted_address": "3,5(39)",
    "phone_number": "+494041110880",
    "source_url": "https://www.google.com/maps/place/haase%26ruther+GmbH+Heizung+Sanit%C3%A4r+Haustechnik/data=!4m7!3m6!1s0x47b1f2dad7abd1cf:0xb5c57ded1e73253e!8m2!3d53.5095322!4d10.1797113!16s%2Fg%2F1tkbx8sp!19sChIJz9Gr19rysUcRPiVzHu19xbU?authuser=0&hl=tr&rclk=1",
    "website_url": "",
    "rating_text": "3,5",
    "stars": null,
    "number_of_reviews": null,
    "price_level": "",
    "open_hours": "",
    "extraction_timestamp": "2025-06-07T15:22:51.677Z",
    "source_name": "google",
    "source_query": "Irrigation Equipment",
    "source_country": "DE",
    "country": "Germany",
    "state": "Hamburg",
    "city": "Bergedorf"
  },
  {
    "source_id": "ChIJLeoPnpDysUcRH9pFmYvAdfg",
    "name": "GTH Gebäude Technik Hamburg GmbH & Co. KG",
    "category": "GTH Gebäude Technik Hamburg GmbH & Co. KG",
    "formatted_address": "4,1(27)",
    "phone_number": "+49407258830",
    "source_url": "https://www.google.com/maps/place/GTH+Geb%C3%A4ude+Technik+Hamburg+GmbH+%26+Co.+KG/data=!4m7!3m6!1s0x47b1f2909e0fea2d:0xf875c08b9945da1f!8m2!3d53.4864949!4d10.1974636!16s%2Fg%2F1td3knc3!19sChIJLeoPnpDysUcRH9pFmYvAdfg?authuser=0&hl=tr&rclk=1",
    "website_url": "",
    "rating_text": "4,1",
    "stars": null,
    "number_of_reviews": null,
    "price_level": "",
    "open_hours": "",
    "extraction_timestamp": "2025-06-07T15:22:51.677Z",
    "source_name": "google",
    "source_query": "Irrigation Equipment",
    "source_country": "DE",
    "country": "Germany",
    "state": "Hamburg",
    "city": "Bergedorf"
  },
  {
    "source_id": "ChIJ1TzQ20-NsUcR8u6AP9ShXy8",
    "name": "Reliable Fire Sprinkler GmbH",
    "category": "Reliable Fire Sprinkler GmbH",
    "formatted_address": "",
    "phone_number": "+4940558981871",
    "source_url": "https://www.google.com/maps/place/Reliable+Fire+Sprinkler+GmbH/data=!4m7!3m6!1s0x47b18d4fdbd03cd5:0x2f5fa1d43f80eef2!8m2!3d53.4917599!4d10.106631!16s%2Fg%2F11gxx7f8yz!19sChIJ1TzQ20-NsUcR8u6AP9ShXy8?authuser=0&hl=tr&rclk=1",
    "website_url": "",
    "rating_text": "",
    "stars": null,
    "number_of_reviews": null,
    "price_level": "",
    "open_hours": "",
    "extraction_timestamp": "2025-06-07T15:22:51.679Z",
    "source_name": "google",
    "source_query": "Irrigation Equipment",
    "source_country": "DE",
    "country": "Germany",
    "state": "Hamburg",
    "city": "Bergedorf"
  },
  {
    "source_id": "ChIJj6WDqzzssUcR2V988rPhQps",
    "name": "Oliver Budig",
    "category": "Oliver Budig",
    "formatted_address": "5,0(10)",
    "phone_number": "+494079410301",
    "source_url": "https://www.google.com/maps/place/Oliver+Budig/data=!4m7!3m6!1s0x47b1ec3cab83a58f:0x9b42e1b3f27c5fd9!8m2!3d53.4118342!4d10.2344413!16s%2Fg%2F1tngpbj9!19sChIJj6WDqzzssUcR2V988rPhQps?authuser=0&hl=tr&rclk=1",
    "website_url": "",
    "rating_text": "5,0",
    "stars": null,
    "number_of_reviews": null,
    "price_level": "",
    "open_hours": "",
    "extraction_timestamp": "2025-06-07T15:22:51.679Z",
    "source_name": "google",
    "source_query": "Irrigation Equipment",
    "source_country": "DE",
    "country": "Germany",
    "state": "Hamburg",
    "city": "Bergedorf"
  },
  {
    "source_id": "ChIJ8bTzAI_ysUcRQ7YTRcpIXvI",
    "name": "Kaufland",
    "category": "Kaufland",
    "formatted_address": "4,0(3.268)",
    "phone_number": "+4932684",
    "source_url": "https://www.google.com/maps/place/Kaufland/data=!4m7!3m6!1s0x47b1f28f00f3b4f1:0xf25e48ca4513b643!8m2!3d53.4879188!4d10.2074488!16s%2Fg%2F1tlzz742!19sChIJ8bTzAI_ysUcRQ7YTRcpIXvI?authuser=0&hl=tr&rclk=1",
    "website_url": "",
    "rating_text": "4,0",
    "stars": null,
    "number_of_reviews": null,
    "price_level": "",
    "open_hours": "",
    "extraction_timestamp": "2025-06-07T15:22:51.681Z",
    "source_name": "google",
    "source_query": "Irrigation Equipment",
    "source_country": "DE",
    "country": "Germany",
    "state": "Hamburg",
    "city": "Bergedorf"
  },
  {
    "source_id": "ChIJOfOIltrysUcRIVg53utYWjk",
    "name": "Heiner Rudow GmbH Sanitärtechnik - Gasheizung - Bauklempnerei",
    "category": "Heiner Rudow GmbH Sanitärtechnik - Gasheizung - Bauklempnerei",
    "formatted_address": "4,8(13)",
    "phone_number": "+49407394044",
    "source_url": "https://www.google.com/maps/place/Heiner+Rudow+GmbH+Sanit%C3%A4rtechnik+-+Gasheizung+-+Bauklempnerei/data=!4m7!3m6!1s0x47b1f2da9688f339:0x395a58ebde395821!8m2!3d53.5109547!4d10.1826927!16s%2Fg%2F1td0m28r!19sChIJOfOIltrysUcRIVg53utYWjk?authuser=0&hl=tr&rclk=1",
    "website_url": "",
    "rating_text": "4,8",
    "stars": null,
    "number_of_reviews": null,
    "price_level": "",
    "open_hours": "",
    "extraction_timestamp": "2025-06-07T15:22:51.681Z",
    "source_name": "google",
    "source_query": "Irrigation Equipment",
    "source_country": "DE",
    "country": "Germany",
    "state": "Hamburg",
    "city": "Bergedorf"
  },
  {
    "source_id": "ChIJ7WCWS77tsUcRdD8jXy29sz0",
    "name": "Schröder & Sohn GmbH - Sanitär - Heizung - Klima Haustechnik",
    "category": "Schröder & Sohn GmbH - Sanitär - Heizung - Klima Haustechnik",
    "formatted_address": "4,8(27)",
    "phone_number": "+494072377603",
    "source_url": "https://www.google.com/maps/place/Schr%C3%B6der+%26+Sohn+GmbH+-+Sanit%C3%A4r+-+Heizung+-+Klima+Haustechnik/data=!4m7!3m6!1s0x47b1edbe4b9660ed:0x3db3bd2d5f233f74!8m2!3d53.4782582!4d10.2042729!16s%2Fg%2F1tk21_4n!19sChIJ7WCWS77tsUcRdD8jXy29sz0?authuser=0&hl=tr&rclk=1",
    "website_url": "",
    "rating_text": "4,8",
    "stars": null,
    "number_of_reviews": null,
    "price_level": "",
    "open_hours": "",
    "extraction_timestamp": "2025-06-07T15:22:51.682Z",
    "source_name": "google",
    "source_query": "Irrigation Equipment",
    "source_country": "DE",
    "country": "Germany",
    "state": "Hamburg",
    "city": "Bergedorf"
  },
  {
    "source_id": "ChIJedc5uZjtsUcReRqytvtDU8c",
    "name": "Sven Rickmeyer GmbH",
    "category": "Sven Rickmeyer GmbH",
    "formatted_address": "4,6(10)",
    "phone_number": "+49407232425",
    "source_url": "https://www.google.com/maps/place/Sven+Rickmeyer+GmbH/data=!4m7!3m6!1s0x47b1ed98b939d779:0xc75343fbb6b21a79!8m2!3d53.4532232!4d10.213839!16s%2Fg%2F1tj1r3wm!19sChIJedc5uZjtsUcReRqytvtDU8c?authuser=0&hl=tr&rclk=1",
    "website_url": "",
    "rating_text": "4,6",
    "stars": null,
    "number_of_reviews": null,
    "price_level": "",
    "open_hours": "",
    "extraction_timestamp": "2025-06-07T15:22:51.682Z",
    "source_name": "google",
    "source_query": "Irrigation Equipment",
    "source_country": "DE",
    "country": "Germany",
    "state": "Hamburg",
    "city": "Bergedorf"
  },
  {
    "source_id": "ChIJP4cpoyeNsUcRVJnshpukYHY",
    "name": "Knecht GmbH",
    "category": "Knecht GmbH",
    "formatted_address": "4,8(30)",
    "phone_number": "+49407156990",
    "source_url": "https://www.google.com/maps/place/Knecht+GmbH/data=!4m7!3m6!1s0x47b18d27a329873f:0x7660a49b86ec9954!8m2!3d53.5213619!4d10.1522649!16s%2Fg%2F1ttdxhkv!19sChIJP4cpoyeNsUcRVJnshpukYHY?authuser=0&hl=tr&rclk=1",
    "website_url": "",
    "rating_text": "4,8",
    "stars": null,
    "number_of_reviews": null,
    "price_level": "",
    "open_hours": "",
    "extraction_timestamp": "2025-06-07T15:22:51.683Z",
    "source_name": "google",
    "source_query": "Irrigation Equipment",
    "source_country": "DE",
    "country": "Germany",
    "state": "Hamburg",
    "city": "Bergedorf"
  },
  {
    "source_id": "ChIJh5ZD9s2OsUcRZX-JZep71LA",
    "name": "Hände und Werke Sanitärtechnik",
    "category": "Hände und Werke Sanitärtechnik",
    "formatted_address": "4,9(29)",
    "phone_number": "+494042917661",
    "source_url": "https://www.google.com/maps/place/H%C3%A4nde+und+Werke+Sanit%C3%A4rtechnik/data=!4m7!3m6!1s0x47b18ecdf6439687:0xb0d47bea65897f65!8m2!3d53.5313554!4d10.1264087!16s%2Fg%2F11c543qwl1!19sChIJh5ZD9s2OsUcRZX-JZep71LA?authuser=0&hl=tr&rclk=1",
    "website_url": "",
    "rating_text": "4,9",
    "stars": null,
    "number_of_reviews": null,
    "price_level": "",
    "open_hours": "",
    "extraction_timestamp": "2025-06-07T15:22:51.684Z",
    "source_name": "google",
    "source_query": "Irrigation Equipment",
    "source_country": "DE",
    "country": "Germany",
    "state": "Hamburg",
    "city": "Bergedorf"
  },
  {
    "source_id": "ChIJCQfGumnssUcRt2BERwcgNXw",
    "name": "Jürgen Mohn GmbH",
    "category": "Jürgen Mohn GmbH",
    "formatted_address": "4,4(13)",
    "phone_number": "+49407239527",
    "source_url": "https://www.google.com/maps/place/J%C3%BCrgen+Mohn+GmbH/data=!4m7!3m6!1s0x47b1ec69bac60709:0x7c352007474460b7!8m2!3d53.4072139!4d10.1609261!16s%2Fg%2F1vnrk22d!19sChIJCQfGumnssUcRt2BERwcgNXw?authuser=0&hl=tr&rclk=1",
    "website_url": "",
    "rating_text": "4,4",
    "stars": null,
    "number_of_reviews": null,
    "price_level": "",
    "open_hours": "",
    "extraction_timestamp": "2025-06-07T15:22:51.685Z",
    "source_name": "google",
    "source_query": "Irrigation Equipment",
    "source_country": "DE",
    "country": "Germany",
    "state": "Hamburg",
    "city": "Bergedorf"
  }
]
