[
  {
    "source_id": "ChIJ7em9Wp-IsUcR-PnzCLUWox4",
    "name": "Quellklar by Hydro-Shop",
    "category": "Quellklar by Hydro-Shop",
    "formatted_address": "3,5(8)",
    "phone_number": "+49405001720",
    "source_url": "https://www.google.com/maps/place/Quellklar+by+Hydro-Shop/data=!4m7!3m6!1s0x47b1889f5abde9ed:0x1ea316b508f3f9f8!8m2!3d53.610056!4d9.974098!16s%2Fg%2F1hc3w12m3!19sChIJ7em9Wp-IsUcR-PnzCLUWox4?authuser=0&hl=tr&rclk=1",
    "website_url": "",
    "rating_text": "3,5",
    "stars": null,
    "number_of_reviews": null,
    "price_level": "",
    "open_hours": "",
    "extraction_timestamp": "2025-06-07T15:18:48.120Z",
    "source_name": "google",
    "source_query": "Irrigation Equipment",
    "source_country": "DE",
    "country": "Germany",
    "state": "Hamburg",
    "city": "Duvenstedt"
  },
  {
    "source_id": "ChIJVVVl1B-PsUcRe0sT8uYkNPU",
    "name": "TurfPro GmbH",
    "category": "TurfPro GmbH",
    "formatted_address": "4,3(16)",
    "phone_number": "+494084895219",
    "source_url": "https://www.google.com/maps/place/TurfPro+GmbH/data=!4m7!3m6!1s0x47b18f1fd4655555:0xf53424e6f2134b7b!8m2!3d53.5551215!4d10.00104!16s%2Fg%2F11g1f90l5g!19sChIJVVVl1B-PsUcRe0sT8uYkNPU?authuser=0&hl=tr&rclk=1",
    "website_url": "",
    "rating_text": "4,3",
    "stars": null,
    "number_of_reviews": null,
    "price_level": "",
    "open_hours": "",
    "extraction_timestamp": "2025-06-07T15:18:48.121Z",
    "source_name": "google",
    "source_query": "Irrigation Equipment",
    "source_country": "DE",
    "country": "Germany",
    "state": "Hamburg",
    "city": "Duvenstedt"
  },
  {
    "source_id": "ChIJVeVAL9AmskcRi4DHQRKAWHc",
    "name": "Michael Krohn GmbH",
    "category": "Michael Krohn GmbH",
    "formatted_address": "4,6(13)",
    "phone_number": "+49406071459",
    "source_url": "https://www.google.com/maps/place/Michael+Krohn+GmbH/data=!4m7!3m6!1s0x47b226d02f40e555:0x7758801241c7808b!8m2!3d53.7118406!4d10.1082835!16s%2Fg%2F1tj5pt24!19sChIJVeVAL9AmskcRi4DHQRKAWHc?authuser=0&hl=tr&rclk=1",
    "website_url": "",
    "rating_text": "4,6",
    "stars": null,
    "number_of_reviews": null,
    "price_level": "",
    "open_hours": "",
    "extraction_timestamp": "2025-06-07T15:18:48.121Z",
    "source_name": "google",
    "source_query": "Irrigation Equipment",
    "source_country": "DE",
    "country": "Germany",
    "state": "Hamburg",
    "city": "Duvenstedt"
  },
  {
    "source_id": "ChIJLZnEK8kmskcRehPWa-8Mxmo",
    "name": "Gut Wulksfelde GmbH",
    "category": "Gut Wulksfelde GmbH",
    "formatted_address": "4,5(2.202)",
    "phone_number": "+49406442510",
    "source_url": "https://www.google.com/maps/place/Gut+Wulksfelde+GmbH/data=!4m7!3m6!1s0x47b226c92bc4992d:0x6ac60cef6bd6137a!8m2!3d53.7178466!4d10.1118911!16s%2Fg%2F11csb27ydn!19sChIJLZnEK8kmskcRehPWa-8Mxmo?authuser=0&hl=tr&rclk=1",
    "website_url": "",
    "rating_text": "4,5",
    "stars": null,
    "number_of_reviews": null,
    "price_level": "",
    "open_hours": "",
    "extraction_timestamp": "2025-06-07T15:18:48.122Z",
    "source_name": "google",
    "source_query": "Irrigation Equipment",
    "source_country": "DE",
    "country": "Germany",
    "state": "Hamburg",
    "city": "Duvenstedt"
  },
  {
    "source_id": "ChIJh3s_0m2PsUcRgtrThlX-kNU",
    "name": "budni - Poppenbütteler Chaussee",
    "category": "budni - Poppenbütteler Chaussee",
    "formatted_address": "4,0(36)",
    "phone_number": "+494080603030",
    "source_url": "https://www.google.com/maps/place/budni+-+Poppenb%C3%BCtteler+Chaussee/data=!4m7!3m6!1s0x47b18f6dd23f7b87:0xd590fe5586d3da82!8m2!3d53.704519!4d10.1025672!16s%2Fg%2F1ptvtg2x0!19sChIJh3s_0m2PsUcRgtrThlX-kNU?authuser=0&hl=tr&rclk=1",
    "website_url": "",
    "rating_text": "4,0",
    "stars": null,
    "number_of_reviews": null,
    "price_level": "",
    "open_hours": "",
    "extraction_timestamp": "2025-06-07T15:18:48.122Z",
    "source_name": "google",
    "source_query": "Irrigation Equipment",
    "source_country": "DE",
    "country": "Germany",
    "state": "Hamburg",
    "city": "Duvenstedt"
  },
  {
    "source_id": "ChIJnfp0w9AmskcRAqOUhQ3_6Ag",
    "name": "Lerche im Alstertal",
    "category": "Lerche im Alstertal",
    "formatted_address": "4,7(99)",
    "phone_number": "+494060761080",
    "source_url": "https://www.google.com/maps/place/Lerche+im+Alstertal/data=!4m7!3m6!1s0x47b226d0c374fa9d:0x8e8ff0d8594a302!8m2!3d53.7084847!4d10.1064198!16s%2Fg%2F1tdm2sq0!19sChIJnfp0w9AmskcRAqOUhQ3_6Ag?authuser=0&hl=tr&rclk=1",
    "website_url": "",
    "rating_text": "4,7",
    "stars": null,
    "number_of_reviews": null,
    "price_level": "",
    "open_hours": "",
    "extraction_timestamp": "2025-06-07T15:18:48.122Z",
    "source_name": "google",
    "source_query": "Irrigation Equipment",
    "source_country": "DE",
    "country": "Germany",
    "state": "Hamburg",
    "city": "Duvenstedt"
  },
  {
    "source_id": "ChIJkUcTqccnskcRxZcRDDf4mEY",
    "name": "TJADEN`s Bio Frischemarkt - Duvenstedt",
    "category": "TJADEN`s Bio Frischemarkt - Duvenstedt",
    "formatted_address": "4,4(20)",
    "phone_number": "+494089727112",
    "source_url": "https://www.google.com/maps/place/TJADEN%60s+Bio+Frischemarkt+-+Duvenstedt/data=!4m7!3m6!1s0x47b227c7a9134791:0x4698f8370c1197c5!8m2!3d53.7076333!4d10.1080594!16s%2Fg%2F11jpld53jg!19sChIJkUcTqccnskcRxZcRDDf4mEY?authuser=0&hl=tr&rclk=1",
    "website_url": "",
    "rating_text": "4,4",
    "stars": null,
    "number_of_reviews": null,
    "price_level": "",
    "open_hours": "",
    "extraction_timestamp": "2025-06-07T15:18:48.122Z",
    "source_name": "google",
    "source_query": "Irrigation Equipment",
    "source_country": "DE",
    "country": "Germany",
    "state": "Hamburg",
    "city": "Duvenstedt"
  },
  {
    "source_id": "ChIJfdrPjSgnskcR0F4IgNR-0o4",
    "name": "Pflanzen Körner",
    "category": "Pflanzen Körner",
    "formatted_address": "4,3(587)",
    "phone_number": "+49406076910",
    "source_url": "https://www.google.com/maps/place/Pflanzen+K%C3%B6rner/data=!4m7!3m6!1s0x47b227288dcfda7d:0x8ed27ed480085ed0!8m2!3d53.6990373!4d10.1011835!16s%2Fg%2F1tdxv230!19sChIJfdrPjSgnskcR0F4IgNR-0o4?authuser=0&hl=tr&rclk=1",
    "website_url": "",
    "rating_text": "4,3",
    "stars": null,
    "number_of_reviews": null,
    "price_level": "",
    "open_hours": "",
    "extraction_timestamp": "2025-06-07T15:18:48.123Z",
    "source_name": "google",
    "source_query": "Irrigation Equipment",
    "source_country": "DE",
    "country": "Germany",
    "state": "Hamburg",
    "city": "Duvenstedt"
  },
  {
    "source_id": "ChIJo9UF02UnskcRMXAEuCTxmX8",
    "name": "KRAUTH+TIMMERMANN Rehatechnik GmbH+Co.KG",
    "category": "KRAUTH+TIMMERMANN Rehatechnik GmbH+Co.KG",
    "formatted_address": "4,8(85)",
    "phone_number": "+49406060450",
    "source_url": "https://www.google.com/maps/place/KRAUTH%2BTIMMERMANN+Rehatechnik+GmbH%2BCo.KG/data=!4m7!3m6!1s0x47b22765d305d5a3:0x7f99f124b8047031!8m2!3d53.6700049!4d10.0689483!16s%2Fg%2F1v6p7xzl!19sChIJo9UF02UnskcRMXAEuCTxmX8?authuser=0&hl=tr&rclk=1",
    "website_url": "",
    "rating_text": "4,8",
    "stars": null,
    "number_of_reviews": null,
    "price_level": "",
    "open_hours": "",
    "extraction_timestamp": "2025-06-07T15:18:48.123Z",
    "source_name": "google",
    "source_query": "Irrigation Equipment",
    "source_country": "DE",
    "country": "Germany",
    "state": "Hamburg",
    "city": "Duvenstedt"
  },
  {
    "source_id": "ChIJa1xHpdAmskcRPoTg7hnS4dU",
    "name": "Duvenstedter Eiscafé",
    "category": "Duvenstedter Eiscafé",
    "formatted_address": "4,6(1.334) · ₺₺",
    "phone_number": "+491334",
    "source_url": "https://www.google.com/maps/place/Duvenstedter+Eiscaf%C3%A9/data=!4m7!3m6!1s0x47b226d0a5475c6b:0xd5e1d219eee0843e!8m2!3d53.7082985!4d10.1046611!16s%2Fg%2F1tdj386n!19sChIJa1xHpdAmskcRPoTg7hnS4dU?authuser=0&hl=tr&rclk=1",
    "website_url": "",
    "rating_text": "4,6",
    "stars": null,
    "number_of_reviews": null,
    "price_level": "",
    "open_hours": "",
    "extraction_timestamp": "2025-06-07T15:18:48.123Z",
    "source_name": "google",
    "source_query": "Irrigation Equipment",
    "source_country": "DE",
    "country": "Germany",
    "state": "Hamburg",
    "city": "Duvenstedt"
  },
  {
    "source_id": "ChIJ5WDzqkiJsUcRs-SgyO260B8",
    "name": "Wilhelm A.F. Meyer GmbH",
    "category": "Wilhelm A.F. Meyer GmbH",
    "formatted_address": "4,4(42)",
    "phone_number": "+49403006010",
    "source_url": "https://www.google.com/maps/place/Wilhelm+A.F.+Meyer+GmbH/data=!4m7!3m6!1s0x47b18948aaf360e5:0x1fd0baedc8a0e4b3!8m2!3d53.5920998!4d10.0977518!16s%2Fg%2F1tp26b7z!19sChIJ5WDzqkiJsUcRs-SgyO260B8?authuser=0&hl=tr&rclk=1",
    "website_url": "",
    "rating_text": "4,4",
    "stars": null,
    "number_of_reviews": null,
    "price_level": "",
    "open_hours": "",
    "extraction_timestamp": "2025-06-07T15:18:48.124Z",
    "source_name": "google",
    "source_query": "Irrigation Equipment",
    "source_country": "DE",
    "country": "Germany",
    "state": "Hamburg",
    "city": "Duvenstedt"
  },
  {
    "source_id": "ChIJc1xYmNAmskcR0xoFbiJowdU",
    "name": "Ellerbrock\"bathrooM and kitchen\" Ltd.",
    "category": "Ellerbrock\"bathrooM and kitchen\" Ltd.",
    "formatted_address": "4,6(228)",
    "phone_number": "+4940637991411",
    "source_url": "https://www.google.com/maps/place/Ellerbrock%22bathrooM+and+kitchen%22+Ltd./data=!4m7!3m6!1s0x47b226d098585c73:0xd5c168226e051ad3!8m2!3d53.7090743!4d10.1045975!16s%2Fg%2F1tkv8tzv!19sChIJc1xYmNAmskcR0xoFbiJowdU?authuser=0&hl=tr&rclk=1",
    "website_url": "",
    "rating_text": "4,6",
    "stars": null,
    "number_of_reviews": null,
    "price_level": "",
    "open_hours": "",
    "extraction_timestamp": "2025-06-07T15:18:48.124Z",
    "source_name": "google",
    "source_query": "Irrigation Equipment",
    "source_country": "DE",
    "country": "Germany",
    "state": "Hamburg",
    "city": "Duvenstedt"
  },
  {
    "source_id": "ChIJ4R34GoKPsUcR_Di8Y72u1Q4",
    "name": "AN-Beregnungstechnik",
    "category": "AN-Beregnungstechnik",
    "formatted_address": "",
    "phone_number": "+4917673517226",
    "source_url": "https://www.google.com/maps/place/AN-Beregnungstechnik/data=!4m7!3m6!1s0x47b18f821af81de1:0xed5aebd63bc38fc!8m2!3d53.5576744!4d10.0112776!16s%2Fg%2F11x33m21xg!19sChIJ4R34GoKPsUcR_Di8Y72u1Q4?authuser=0&hl=tr&rclk=1",
    "website_url": "",
    "rating_text": "",
    "stars": null,
    "number_of_reviews": null,
    "price_level": "",
    "open_hours": "",
    "extraction_timestamp": "2025-06-07T15:18:48.124Z",
    "source_name": "google",
    "source_query": "Irrigation Equipment",
    "source_country": "DE",
    "country": "Germany",
    "state": "Hamburg",
    "city": "Duvenstedt"
  },
  {
    "source_id": "ChIJjxK7wkMnskcRgFAChR_yHVQ",
    "name": "Fa. Joachim Stegemann Badtechnik",
    "category": "Fa. Joachim Stegemann Badtechnik",
    "formatted_address": "4,7(26)",
    "phone_number": "+49406072089",
    "source_url": "https://www.google.com/maps/place/Fa.+Joachim+Stegemann+Badtechnik/data=!4m7!3m6!1s0x47b22743c2bb128f:0x541df21f85025080!8m2!3d53.7027914!4d10.1094165!16s%2Fg%2F1tdzq5ms!19sChIJjxK7wkMnskcRgFAChR_yHVQ?authuser=0&hl=tr&rclk=1",
    "website_url": "",
    "rating_text": "4,7",
    "stars": null,
    "number_of_reviews": null,
    "price_level": "",
    "open_hours": "",
    "extraction_timestamp": "2025-06-07T15:18:48.124Z",
    "source_name": "google",
    "source_query": "Irrigation Equipment",
    "source_country": "DE",
    "country": "Germany",
    "state": "Hamburg",
    "city": "Duvenstedt"
  },
  {
    "source_id": "ChIJSWX5FESPsUcRAQCa0F5BM6s",
    "name": "WERBECK BAD-EINRICHTUNGEN | Ehlers Sanitärhandel GmbH",
    "category": "WERBECK BAD-EINRICHTUNGEN | Ehlers Sanitärhandel GmbH",
    "formatted_address": "4,8(38)",
    "phone_number": "+4940441626",
    "source_url": "https://www.google.com/maps/place/WERBECK+BAD-EINRICHTUNGEN+%7C+Ehlers+Sanit%C3%A4rhandel+GmbH/data=!4m7!3m6!1s0x47b18f4414f96549:0xab33415ed09a0001!8m2!3d53.5673791!4d9.9665242!16s%2Fg%2F1tfh3qf8!19sChIJSWX5FESPsUcRAQCa0F5BM6s?authuser=0&hl=tr&rclk=1",
    "website_url": "",
    "rating_text": "4,8",
    "stars": null,
    "number_of_reviews": null,
    "price_level": "",
    "open_hours": "",
    "extraction_timestamp": "2025-06-07T15:18:48.125Z",
    "source_name": "google",
    "source_query": "Irrigation Equipment",
    "source_country": "DE",
    "country": "Germany",
    "state": "Hamburg",
    "city": "Duvenstedt"
  },
  {
    "source_id": "ChIJ77z_VjGjY0ERcO4uPTY3cLI",
    "name": "Carl Feddersen Sea Shop",
    "category": "Carl Feddersen Sea Shop",
    "formatted_address": "4,6(124)",
    "phone_number": "+4940365968",
    "source_url": "https://www.google.com/maps/place/Carl+Feddersen+Sea+Shop/data=!4m7!3m6!1s0x4163a33156ffbcef:0xb27037363d2eee70!8m2!3d53.5457039!4d9.9871198!16s%2Fg%2F1vm79j2p!19sChIJ77z_VjGjY0ERcO4uPTY3cLI?authuser=0&hl=tr&rclk=1",
    "website_url": "",
    "rating_text": "4,6",
    "stars": null,
    "number_of_reviews": null,
    "price_level": "",
    "open_hours": "",
    "extraction_timestamp": "2025-06-07T15:18:48.125Z",
    "source_name": "google",
    "source_query": "Irrigation Equipment",
    "source_country": "DE",
    "country": "Germany",
    "state": "Hamburg",
    "city": "Duvenstedt"
  },
  {
    "source_id": "ChIJUcgA5gknskcRM2oEBoVnxfs",
    "name": "VTE-Filter GmbH",
    "category": "VTE-Filter GmbH",
    "formatted_address": "4,4(25)",
    "phone_number": "+49405210890",
    "source_url": "https://www.google.com/maps/place/VTE-Filter+GmbH/data=!4m7!3m6!1s0x47b22709e600c851:0xfbc5678506046a33!8m2!3d53.69107!4d10.05271!16s%2Fg%2F1tdl0mn6!19sChIJUcgA5gknskcRM2oEBoVnxfs?authuser=0&hl=tr&rclk=1",
    "website_url": "",
    "rating_text": "4,4",
    "stars": null,
    "number_of_reviews": null,
    "price_level": "",
    "open_hours": "",
    "extraction_timestamp": "2025-06-07T15:18:48.125Z",
    "source_name": "google",
    "source_query": "Irrigation Equipment",
    "source_country": "DE",
    "country": "Germany",
    "state": "Hamburg",
    "city": "Duvenstedt"
  },
  {
    "source_id": "ChIJBdRboysnskcR0WHaPoLqPEI",
    "name": "Arno Vogel Bad & Wärme",
    "category": "Arno Vogel Bad & Wärme",
    "formatted_address": "4,3(12)",
    "phone_number": "+49406070060",
    "source_url": "https://www.google.com/maps/place/Arno+Vogel+Bad+%26+W%C3%A4rme/data=!4m7!3m6!1s0x47b2272ba35bd405:0x423cea823eda61d1!8m2!3d54.2090768!4d9.588941!16s%2Fg%2F11b6dg845z!19sChIJBdRboysnskcR0WHaPoLqPEI?authuser=0&hl=tr&rclk=1",
    "website_url": "",
    "rating_text": "4,3",
    "stars": null,
    "number_of_reviews": null,
    "price_level": "",
    "open_hours": "",
    "extraction_timestamp": "2025-06-07T15:18:48.125Z",
    "source_name": "google",
    "source_query": "Irrigation Equipment",
    "source_country": "DE",
    "country": "Germany",
    "state": "Hamburg",
    "city": "Duvenstedt"
  },
  {
    "source_id": "ChIJa46twNcmskcRn0t42tlyPgg",
    "name": "REWE",
    "category": "REWE",
    "formatted_address": "4,1(583)",
    "phone_number": "+494060760131",
    "source_url": "https://www.google.com/maps/place/REWE/data=!4m7!3m6!1s0x47b226d7c0ad8e6b:0x83e72d9da784b9f!8m2!3d53.7040759!4d10.1045508!16s%2Fg%2F1hc0y5kg5!19sChIJa46twNcmskcRn0t42tlyPgg?authuser=0&hl=tr&rclk=1",
    "website_url": "",
    "rating_text": "4,1",
    "stars": null,
    "number_of_reviews": null,
    "price_level": "",
    "open_hours": "",
    "extraction_timestamp": "2025-06-07T15:18:48.126Z",
    "source_name": "google",
    "source_query": "Irrigation Equipment",
    "source_country": "DE",
    "country": "Germany",
    "state": "Hamburg",
    "city": "Duvenstedt"
  },
  {
    "source_id": "ChIJmXhi9WGYY0ERhQBN6k_jBS0",
    "name": "ROCHEM Water Treatment GmbH",
    "category": "ROCHEM Water Treatment GmbH",
    "formatted_address": "4,0(2)",
    "phone_number": "+494037495220",
    "source_url": "https://www.google.com/maps/place/ROCHEM+Water+Treatment+GmbH/data=!4m7!3m6!1s0x41639861f5627899:0x2d05e34fea4d0085!8m2!3d53.4805412!4d9.9941205!16s%2Fg%2F11b6jb7w77!19sChIJmXhi9WGYY0ERhQBN6k_jBS0?authuser=0&hl=tr&rclk=1",
    "website_url": "",
    "rating_text": "4,0",
    "stars": null,
    "number_of_reviews": null,
    "price_level": "",
    "open_hours": "",
    "extraction_timestamp": "2025-06-07T15:18:48.126Z",
    "source_name": "google",
    "source_query": "Irrigation Equipment",
    "source_country": "DE",
    "country": "Germany",
    "state": "Hamburg",
    "city": "Duvenstedt"
  },
  {
    "source_id": "ChIJKYrPRKMYskcRM2CvPvyDdgk",
    "name": "Kleverhof",
    "category": "Kleverhof",
    "formatted_address": "4,6(99)",
    "phone_number": "",
    "source_url": "https://www.google.com/maps/place/Kleverhof/data=!4m7!3m6!1s0x47b218a344cf8a29:0x97683fc3eaf6033!8m2!3d53.7486021!4d10.270474!16s%2Fg%2F11bzypqln6!19sChIJKYrPRKMYskcRM2CvPvyDdgk?authuser=0&hl=tr&rclk=1",
    "website_url": "",
    "rating_text": "4,6",
    "stars": null,
    "number_of_reviews": null,
    "price_level": "",
    "open_hours": "",
    "extraction_timestamp": "2025-06-07T15:18:48.126Z",
    "source_name": "google",
    "source_query": "Irrigation Equipment",
    "source_country": "DE",
    "country": "Germany",
    "state": "Hamburg",
    "city": "Duvenstedt"
  },
  {
    "source_id": "ChIJXy9-DRaJsUcRLL-gWDwhpEY",
    "name": "C&P Aquaplants",
    "category": "C&P Aquaplants",
    "formatted_address": "4,4(5)",
    "phone_number": "+494084306403",
    "source_url": "https://www.google.com/maps/place/C%26P+Aquaplants/data=!4m7!3m6!1s0x47b189160d7e2f5f:0x46a4213c58a0bf2c!8m2!3d53.6004973!4d10.038029!16s%2Fg%2F11vxxr_60x!19sChIJXy9-DRaJsUcRLL-gWDwhpEY?authuser=0&hl=tr&rclk=1",
    "website_url": "",
    "rating_text": "4,4",
    "stars": null,
    "number_of_reviews": null,
    "price_level": "",
    "open_hours": "",
    "extraction_timestamp": "2025-06-07T15:18:48.126Z",
    "source_name": "google",
    "source_query": "Irrigation Equipment",
    "source_country": "DE",
    "country": "Germany",
    "state": "Hamburg",
    "city": "Duvenstedt"
  },
  {
    "source_id": "ChIJlZVWVhn1sUcRCdWDixIpRKA",
    "name": "Riechers Pflanzen-Welt",
    "category": "Riechers Pflanzen-Welt",
    "formatted_address": "4,5(395)",
    "phone_number": "+49406759500",
    "source_url": "https://www.google.com/maps/place/Riechers+Pflanzen-Welt/data=!4m7!3m6!1s0x47b1f51956569595:0xa04429128b83d509!8m2!3d53.6086852!4d10.2406737!16s%2Fg%2F1vq9lbq7!19sChIJlZVWVhn1sUcRCdWDixIpRKA?authuser=0&hl=tr&rclk=1",
    "website_url": "",
    "rating_text": "4,5",
    "stars": null,
    "number_of_reviews": null,
    "price_level": "",
    "open_hours": "",
    "extraction_timestamp": "2025-06-07T15:18:48.127Z",
    "source_name": "google",
    "source_query": "Irrigation Equipment",
    "source_country": "DE",
    "country": "Germany",
    "state": "Hamburg",
    "city": "Duvenstedt"
  },
  {
    "source_id": "ChIJkywGF5mJsUcRTcTZFKaoTiw",
    "name": "Action Hamburg-Langenhorn",
    "category": "Action Hamburg-Langenhorn",
    "formatted_address": "4,0(1.306)",
    "phone_number": "+4913064",
    "source_url": "https://www.google.com/maps/place/Action+Hamburg-Langenhorn/data=!4m7!3m6!1s0x47b1899917062c93:0x2c4ea8a614d9c44d!8m2!3d53.6476214!4d10.0146712!16s%2Fg%2F11g22_2tdk!19sChIJkywGF5mJsUcRTcTZFKaoTiw?authuser=0&hl=tr&rclk=1",
    "website_url": "",
    "rating_text": "4,0",
    "stars": null,
    "number_of_reviews": null,
    "price_level": "",
    "open_hours": "",
    "extraction_timestamp": "2025-06-07T15:18:48.127Z",
    "source_name": "google",
    "source_query": "Irrigation Equipment",
    "source_country": "DE",
    "country": "Germany",
    "state": "Hamburg",
    "city": "Duvenstedt"
  },
  {
    "source_id": "ChIJ468LS7ApskcRG_Qhdp4-ajg",
    "name": "Action Norderstedt",
    "category": "Action Norderstedt",
    "formatted_address": "4,3(911)",
    "phone_number": "+4921130146100",
    "source_url": "https://www.google.com/maps/place/Action+Norderstedt/data=!4m7!3m6!1s0x47b229b04b0bafe3:0x386a3e9e7621f41b!8m2!3d53.7061012!4d9.9965369!16s%2Fg%2F11ff5jrrsv!19sChIJ468LS7ApskcRG_Qhdp4-ajg?authuser=0&hl=tr&rclk=1",
    "website_url": "",
    "rating_text": "4,3",
    "stars": null,
    "number_of_reviews": null,
    "price_level": "",
    "open_hours": "",
    "extraction_timestamp": "2025-06-07T15:18:48.127Z",
    "source_name": "google",
    "source_query": "Irrigation Equipment",
    "source_country": "DE",
    "country": "Germany",
    "state": "Hamburg",
    "city": "Duvenstedt"
  },
  {
    "source_id": "ChIJodZlB6kvskcRz0d676VAh-E",
    "name": "Action Henstedt-Ulzburg",
    "category": "Action Henstedt-Ulzburg",
    "formatted_address": "4,3(1.330)",
    "phone_number": "+4913304",
    "source_url": "https://www.google.com/maps/place/Action+Henstedt-Ulzburg/data=!4m7!3m6!1s0x47b22fa90765d6a1:0xe18740a5ef7a47cf!8m2!3d53.8035699!4d9.9803989!16s%2Fg%2F11f2wly81y!19sChIJodZlB6kvskcRz0d676VAh-E?authuser=0&hl=tr&rclk=1",
    "website_url": "",
    "rating_text": "4,3",
    "stars": null,
    "number_of_reviews": null,
    "price_level": "",
    "open_hours": "",
    "extraction_timestamp": "2025-06-07T15:18:48.127Z",
    "source_name": "google",
    "source_query": "Irrigation Equipment",
    "source_country": "DE",
    "country": "Germany",
    "state": "Hamburg",
    "city": "Duvenstedt"
  },
  {
    "source_id": "ChIJnUzDLPmLsUcRRDrS8GTJ2Jc",
    "name": "ARTUS Gesellschaft für Brand- und Wasserschadensanierung mbH",
    "category": "ARTUS Gesellschaft für Brand- und Wasserschadensanierung mbH",
    "formatted_address": "4,6(9)",
    "phone_number": "+49406699946024",
    "source_url": "https://www.google.com/maps/place/ARTUS+Gesellschaft+f%C3%BCr+Brand-+und+Wasserschadensanierung+mbH/data=!4m7!3m6!1s0x47b18bf92cc34c9d:0x97d8c964f0d23a44!8m2!3d53.6788461!4d10.2688622!16s%2Fg%2F11frrz09dr!19sChIJnUzDLPmLsUcRRDrS8GTJ2Jc?authuser=0&hl=tr&rclk=1",
    "website_url": "",
    "rating_text": "4,6",
    "stars": null,
    "number_of_reviews": null,
    "price_level": "",
    "open_hours": "",
    "extraction_timestamp": "2025-06-07T15:18:48.128Z",
    "source_name": "google",
    "source_query": "Irrigation Equipment",
    "source_country": "DE",
    "country": "Germany",
    "state": "Hamburg",
    "city": "Duvenstedt"
  },
  {
    "source_id": "ChIJSZxre2YnskcR3eiLLT1Z6xg",
    "name": "Sanitärtechnik Jörgen Muhs GmbH",
    "category": "Sanitärtechnik Jörgen Muhs GmbH",
    "formatted_address": "4,9(100)",
    "phone_number": "+49406066049",
    "source_url": "https://www.google.com/maps/place/Sanit%C3%A4rtechnik+J%C3%B6rgen+Muhs+GmbH/data=!4m7!3m6!1s0x47b227667b6b9c49:0x18eb593d2d8be8dd!8m2!3d53.6698484!4d10.0676231!16s%2Fg%2F1tc_d9tz!19sChIJSZxre2YnskcR3eiLLT1Z6xg?authuser=0&hl=tr&rclk=1",
    "website_url": "",
    "rating_text": "4,9",
    "stars": null,
    "number_of_reviews": null,
    "price_level": "",
    "open_hours": "",
    "extraction_timestamp": "2025-06-07T15:18:48.128Z",
    "source_name": "google",
    "source_query": "Irrigation Equipment",
    "source_country": "DE",
    "country": "Germany",
    "state": "Hamburg",
    "city": "Duvenstedt"
  },
  {
    "source_id": "ChIJGdWASmKas0cRzav9u9il3YA",
    "name": "Dogs Paradise 24",
    "category": "Dogs Paradise 24",
    "formatted_address": "3,7(58)",
    "phone_number": "+4948036016077",
    "source_url": "https://www.google.com/maps/place/Dogs+Paradise+24/data=!4m7!3m6!1s0x47b39a624a80d519:0x80dda5d8bbfdabcd!8m2!3d54.2670788!4d9.2887389!16s%2Fg%2F11bzyq1t5q!19sChIJGdWASmKas0cRzav9u9il3YA?authuser=0&hl=tr&rclk=1",
    "website_url": "",
    "rating_text": "3,7",
    "stars": null,
    "number_of_reviews": null,
    "price_level": "",
    "open_hours": "",
    "extraction_timestamp": "2025-06-07T15:18:48.128Z",
    "source_name": "google",
    "source_query": "Irrigation Equipment",
    "source_country": "DE",
    "country": "Germany",
    "state": "Hamburg",
    "city": "Duvenstedt"
  },
  {
    "source_id": "ChIJyR2oh2mPsUcRBUimjPaxPJ4",
    "name": "Pflanzburg GmbH Growshop",
    "category": "Pflanzburg GmbH Growshop",
    "formatted_address": "4,2(116)",
    "phone_number": "+49404305399",
    "source_url": "https://www.google.com/maps/place/Pflanzburg+GmbH+Growshop/data=!4m7!3m6!1s0x47b18f6987a81dc9:0x9e3cb1f68ca64805!8m2!3d53.5584828!4d9.9645599!16s%2Fg%2F1tf6wdmc!19sChIJyR2oh2mPsUcRBUimjPaxPJ4?authuser=0&hl=tr&rclk=1",
    "website_url": "",
    "rating_text": "4,2",
    "stars": null,
    "number_of_reviews": null,
    "price_level": "",
    "open_hours": "",
    "extraction_timestamp": "2025-06-07T15:18:48.128Z",
    "source_name": "google",
    "source_query": "Irrigation Equipment",
    "source_country": "DE",
    "country": "Germany",
    "state": "Hamburg",
    "city": "Duvenstedt"
  }
]
