[
  {
    "source_id": "ChIJUxWrQF-GsUcRwyUkTmpyC1A",
    "name": "HORNBACH Hamburg-Eidelstedt",
    "category": "HORNBACH Hamburg-Eidelstedt",
    "formatted_address": "4,3(5.207)",
    "phone_number": "+494025330180",
    "source_url": "https://www.google.com/maps/place/HORNBACH+Hamburg-Eidelstedt/data=!4m7!3m6!1s0x47b1865f40ab1553:0x500b726a4e2425c3!8m2!3d53.6143153!4d9.90381!16s%2Fg%2F1v9gj13h!19sChIJUxWrQF-GsUcRwyUkTmpyC1A?authuser=0&hl=tr&rclk=1",
    "website_url": "",
    "rating_text": "4,3",
    "stars": null,
    "number_of_reviews": null,
    "price_level": "",
    "open_hours": "",
    "extraction_timestamp": "2025-06-07T15:20:32.754Z",
    "source_name": "google",
    "source_query": "Irrigation Equipment",
    "source_country": "DE",
    "country": "Germany",
    "state": "Hamburg",
    "city": "Eidelstedt"
  },
  {
    "source_id": "ChIJFayYSwGHsUcRwKpGZUkZCW0",
    "name": "RUDOLF SIEVERS GmbH",
    "category": "RUDOLF SIEVERS GmbH",
    "formatted_address": "4,7(15)",
    "phone_number": "+4940559970",
    "source_url": "https://www.google.com/maps/place/RUDOLF+SIEVERS+GmbH/data=!4m7!3m6!1s0x47b187014b98ac15:0x6d0919496546aac0!8m2!3d53.6151542!4d9.9049291!16s%2Fg%2F1tmpc_1v!19sChIJFayYSwGHsUcRwKpGZUkZCW0?authuser=0&hl=tr&rclk=1",
    "website_url": "",
    "rating_text": "4,7",
    "stars": null,
    "number_of_reviews": null,
    "price_level": "",
    "open_hours": "",
    "extraction_timestamp": "2025-06-07T15:20:32.755Z",
    "source_name": "google",
    "source_query": "Irrigation Equipment",
    "source_country": "DE",
    "country": "Germany",
    "state": "Hamburg",
    "city": "Eidelstedt"
  },
  {
    "source_id": "ChIJoTTkHW6GsUcRuYcF9jn7GgE",
    "name": "Emil Lüdemann GmbH & Co. KG",
    "category": "Emil Lüdemann GmbH & Co. KG",
    "formatted_address": "4,6(344)",
    "phone_number": "+49405472190",
    "source_url": "https://www.google.com/maps/place/Emil+L%C3%BCdemann+GmbH+%26+Co.+KG/data=!4m7!3m6!1s0x47b1866e1de434a1:0x11afb39f60587b9!8m2!3d53.5974091!4d9.9174937!16s%2Fg%2F1tqck8cj!19sChIJoTTkHW6GsUcRuYcF9jn7GgE?authuser=0&hl=tr&rclk=1",
    "website_url": "",
    "rating_text": "4,6",
    "stars": null,
    "number_of_reviews": null,
    "price_level": "",
    "open_hours": "",
    "extraction_timestamp": "2025-06-07T15:20:32.755Z",
    "source_name": "google",
    "source_query": "Irrigation Equipment",
    "source_country": "DE",
    "country": "Germany",
    "state": "Hamburg",
    "city": "Eidelstedt"
  },
  {
    "source_id": "ChIJK83LItiHsUcRHDZMzcI7csM",
    "name": "Action Hamburg",
    "category": "Action Hamburg",
    "formatted_address": "4,0(412)",
    "phone_number": "+4921130146100",
    "source_url": "https://www.google.com/maps/place/Action+Hamburg/data=!4m7!3m6!1s0x47b187d822cbcd2b:0xc3723bc2cd4c361c!8m2!3d53.6074867!4d9.9043553!16s%2Fg%2F11n32zysrw!19sChIJK83LItiHsUcRHDZMzcI7csM?authuser=0&hl=tr&rclk=1",
    "website_url": "",
    "rating_text": "4,0",
    "stars": null,
    "number_of_reviews": null,
    "price_level": "",
    "open_hours": "",
    "extraction_timestamp": "2025-06-07T15:20:32.756Z",
    "source_name": "google",
    "source_query": "Irrigation Equipment",
    "source_country": "DE",
    "country": "Germany",
    "state": "Hamburg",
    "city": "Eidelstedt"
  },
  {
    "source_id": "ChIJT5kNVm6GsUcRGdpMJN5HjvE",
    "name": "Wonsak carbonic Service GmbH",
    "category": "Wonsak carbonic Service GmbH",
    "formatted_address": "4,8(108)",
    "phone_number": "+49404910444",
    "source_url": "https://www.google.com/maps/place/Wonsak+carbonic+Service+GmbH/data=!4m7!3m6!1s0x47b1866e560d994f:0xf18e47de244cda19!8m2!3d53.6008453!4d9.9176142!16s%2Fg%2F1v9l9v55!19sChIJT5kNVm6GsUcRGdpMJN5HjvE?authuser=0&hl=tr&rclk=1",
    "website_url": "",
    "rating_text": "4,8",
    "stars": null,
    "number_of_reviews": null,
    "price_level": "",
    "open_hours": "",
    "extraction_timestamp": "2025-06-07T15:20:32.756Z",
    "source_name": "google",
    "source_query": "Irrigation Equipment",
    "source_country": "DE",
    "country": "Germany",
    "state": "Hamburg",
    "city": "Eidelstedt"
  },
  {
    "source_id": "ChIJieKGE2CGsUcRAmGAsC6SUBE",
    "name": "Erden Market Eidelstedt",
    "category": "Erden Market Eidelstedt",
    "formatted_address": "4,0(579)",
    "phone_number": "+494027869512",
    "source_url": "https://www.google.com/maps/place/Erden+Market+Eidelstedt/data=!4m7!3m6!1s0x47b186601386e289:0x1150922eb0806102!8m2!3d53.6087366!4d9.9021131!16s%2Fg%2F1tdltb68!19sChIJieKGE2CGsUcRAmGAsC6SUBE?authuser=0&hl=tr&rclk=1",
    "website_url": "",
    "rating_text": "4,0",
    "stars": null,
    "number_of_reviews": null,
    "price_level": "",
    "open_hours": "",
    "extraction_timestamp": "2025-06-07T15:20:32.757Z",
    "source_name": "google",
    "source_query": "Irrigation Equipment",
    "source_country": "DE",
    "country": "Germany",
    "state": "Hamburg",
    "city": "Eidelstedt"
  },
  {
    "source_id": "ChIJs7j28liGsUcRZATj_Q6blF0",
    "name": "E-Center STRUVE - Eidelstedt",
    "category": "E-Center STRUVE - Eidelstedt",
    "formatted_address": "4,4(2.510)",
    "phone_number": "+49405719860",
    "source_url": "https://www.google.com/maps/place/E-Center+STRUVE+-+Eidelstedt/data=!4m7!3m6!1s0x47b18658f2f6b8b3:0x5d949b0efde30464!8m2!3d53.6159641!4d9.9044851!16s%2Fg%2F1th80_g0!19sChIJs7j28liGsUcRZATj_Q6blF0?authuser=0&hl=tr&rclk=1",
    "website_url": "",
    "rating_text": "4,4",
    "stars": null,
    "number_of_reviews": null,
    "price_level": "",
    "open_hours": "",
    "extraction_timestamp": "2025-06-07T15:20:32.783Z",
    "source_name": "google",
    "source_query": "Irrigation Equipment",
    "source_country": "DE",
    "country": "Germany",
    "state": "Hamburg",
    "city": "Eidelstedt"
  },
  {
    "source_id": "ChIJAQAQh_WGsUcRPPPD9ZCsDBw",
    "name": "DAS HEFT - Arbeitsschutz beim Schweißen",
    "category": "DAS HEFT - Arbeitsschutz beim Schweißen",
    "formatted_address": "",
    "phone_number": "+49408519990",
    "source_url": "https://www.google.com/maps/place/DAS+HEFT+-+Arbeitsschutz+beim+Schwei%C3%9Fen/data=!4m7!3m6!1s0x47b186f587100001:0x1c0cac90f5c3f33c!8m2!3d53.6128982!4d9.9017715!16s%2Fg%2F11h0mvp0m0!19sChIJAQAQh_WGsUcRPPPD9ZCsDBw?authuser=0&hl=tr&rclk=1",
    "website_url": "",
    "rating_text": "",
    "stars": null,
    "number_of_reviews": null,
    "price_level": "",
    "open_hours": "",
    "extraction_timestamp": "2025-06-07T15:20:32.784Z",
    "source_name": "google",
    "source_query": "Irrigation Equipment",
    "source_country": "DE",
    "country": "Germany",
    "state": "Hamburg",
    "city": "Eidelstedt"
  },
  {
    "source_id": "ChIJvSbaCk2HsUcRMY8vy1niftc",
    "name": "HORNBACH Gartencenter Hamburg-Eidelstedt",
    "category": "HORNBACH Gartencenter Hamburg-Eidelstedt",
    "formatted_address": "5,0(1)",
    "phone_number": "+494025330180",
    "source_url": "https://www.google.com/maps/place/HORNBACH+Gartencenter+Hamburg-Eidelstedt/data=!4m7!3m6!1s0x47b1874d0ada26bd:0xd77ee259cb2f8f31!8m2!3d53.6143229!4d9.9036852!16s%2Fg%2F11vzvnhsks!19sChIJvSbaCk2HsUcRMY8vy1niftc?authuser=0&hl=tr&rclk=1",
    "website_url": "",
    "rating_text": "5,0",
    "stars": null,
    "number_of_reviews": null,
    "price_level": "",
    "open_hours": "",
    "extraction_timestamp": "2025-06-07T15:20:32.785Z",
    "source_name": "google",
    "source_query": "Irrigation Equipment",
    "source_country": "DE",
    "country": "Germany",
    "state": "Hamburg",
    "city": "Eidelstedt"
  },
  {
    "source_id": "ChIJq34evliGsUcRRpd1uVEmdig",
    "name": "Smyths Toys Superstore Hamburg-Eidelstedt",
    "category": "Smyths Toys Superstore Hamburg-Eidelstedt",
    "formatted_address": "3,5(375)",
    "phone_number": "+4940356231640",
    "source_url": "https://www.google.com/maps/place/Smyths+Toys+Superstore+Hamburg-Eidelstedt/data=!4m7!3m6!1s0x47b18658be1e7eab:0x28762651b9759746!8m2!3d53.616444!4d9.9046519!16s%2Fg%2F1thfdh31!19sChIJq34evliGsUcRRpd1uVEmdig?authuser=0&hl=tr&rclk=1",
    "website_url": "",
    "rating_text": "3,5",
    "stars": null,
    "number_of_reviews": null,
    "price_level": "",
    "open_hours": "",
    "extraction_timestamp": "2025-06-07T15:20:32.786Z",
    "source_name": "google",
    "source_query": "Irrigation Equipment",
    "source_country": "DE",
    "country": "Germany",
    "state": "Hamburg",
    "city": "Eidelstedt"
  },
  {
    "source_id": "ChIJ14zOTX2GsUcRLIdMEJrqVK8",
    "name": "Atlas Hamburg GmbH",
    "category": "Atlas Hamburg GmbH",
    "formatted_address": "4,8(62)",
    "phone_number": "+49408405420",
    "source_url": "https://www.google.com/maps/place/Atlas+Hamburg+GmbH/data=!4m7!3m6!1s0x47b1867d4dce8cd7:0xaf54ea9a104c872c!8m2!3d53.5986621!4d9.8982821!16s%2Fg%2F1tgdmm9_!19sChIJ14zOTX2GsUcRLIdMEJrqVK8?authuser=0&hl=tr&rclk=1",
    "website_url": "",
    "rating_text": "4,8",
    "stars": null,
    "number_of_reviews": null,
    "price_level": "",
    "open_hours": "",
    "extraction_timestamp": "2025-06-07T15:20:32.786Z",
    "source_name": "google",
    "source_query": "Irrigation Equipment",
    "source_country": "DE",
    "country": "Germany",
    "state": "Hamburg",
    "city": "Eidelstedt"
  },
  {
    "source_id": "ChIJcQB98fOGsUcRqOc4BaqCE-8",
    "name": "Armin Paech",
    "category": "Armin Paech",
    "formatted_address": "3,0(6)",
    "phone_number": "+49408807577",
    "source_url": "https://www.google.com/maps/place/Armin+Paech/data=!4m7!3m6!1s0x47b186f3f17d0071:0xef1382aa0538e7a8!8m2!3d53.6149902!4d9.8944118!16s%2Fg%2F1tgb6dkr!19sChIJcQB98fOGsUcRqOc4BaqCE-8?authuser=0&hl=tr&rclk=1",
    "website_url": "",
    "rating_text": "3,0",
    "stars": null,
    "number_of_reviews": null,
    "price_level": "",
    "open_hours": "",
    "extraction_timestamp": "2025-06-07T15:20:32.787Z",
    "source_name": "google",
    "source_query": "Irrigation Equipment",
    "source_country": "DE",
    "country": "Germany",
    "state": "Hamburg",
    "city": "Eidelstedt"
  },
  {
    "source_id": "ChIJsXIu0ViGsUcR8b0jZS4MUkw",
    "name": "WaschSalon Eidelstedt - Ihre Badausstellung",
    "category": "WaschSalon Eidelstedt - Ihre Badausstellung",
    "formatted_address": "4,4(15)",
    "phone_number": "+4940559976570",
    "source_url": "https://www.google.com/maps/place/WaschSalon+Eidelstedt+-+Ihre+Badausstellung/data=!4m7!3m6!1s0x47b18658d12e72b1:0x4c520c2e6523bdf1!8m2!3d53.615271!4d9.9049174!16s%2Fg%2F11g9qdy04j!19sChIJsXIu0ViGsUcR8b0jZS4MUkw?authuser=0&hl=tr&rclk=1",
    "website_url": "",
    "rating_text": "4,4",
    "stars": null,
    "number_of_reviews": null,
    "price_level": "",
    "open_hours": "",
    "extraction_timestamp": "2025-06-07T15:20:32.788Z",
    "source_name": "google",
    "source_query": "Irrigation Equipment",
    "source_country": "DE",
    "country": "Germany",
    "state": "Hamburg",
    "city": "Eidelstedt"
  },
  {
    "source_id": "ChIJMxOU0R2HsUcRPeR6_VoFqMo",
    "name": "Nabulsi Markt",
    "category": "Nabulsi Markt",
    "formatted_address": "4,6(130)",
    "phone_number": "+491735367440",
    "source_url": "https://www.google.com/maps/place/Nabulsi+Markt/data=!4m7!3m6!1s0x47b1871dd1941333:0xcaa8055afd7ae43d!8m2!3d53.6064898!4d9.901296!16s%2Fg%2F11hyr28l83!19sChIJMxOU0R2HsUcRPeR6_VoFqMo?authuser=0&hl=tr&rclk=1",
    "website_url": "",
    "rating_text": "4,6",
    "stars": null,
    "number_of_reviews": null,
    "price_level": "",
    "open_hours": "",
    "extraction_timestamp": "2025-06-07T15:20:32.789Z",
    "source_name": "google",
    "source_query": "Irrigation Equipment",
    "source_country": "DE",
    "country": "Germany",
    "state": "Hamburg",
    "city": "Eidelstedt"
  },
  {
    "source_id": "ChIJARMfdRqGsUcRJg2EVddwWHY",
    "name": "Locatec Hamburg - R.D. Ortungstechnik",
    "category": "Locatec Hamburg - R.D. Ortungstechnik",
    "formatted_address": "5,0(28)",
    "phone_number": "+494018050128",
    "source_url": "https://www.google.com/maps/place/Locatec+Hamburg+-+R.D.+Ortungstechnik/data=!4m7!3m6!1s0x47b1861a751f1301:0x765870d755840d26!8m2!3d53.5980761!4d9.9146824!16s%2Fg%2F12htvmygz!19sChIJARMfdRqGsUcRJg2EVddwWHY?authuser=0&hl=tr&rclk=1",
    "website_url": "",
    "rating_text": "5,0",
    "stars": null,
    "number_of_reviews": null,
    "price_level": "",
    "open_hours": "",
    "extraction_timestamp": "2025-06-07T15:20:32.790Z",
    "source_name": "google",
    "source_query": "Irrigation Equipment",
    "source_country": "DE",
    "country": "Germany",
    "state": "Hamburg",
    "city": "Eidelstedt"
  },
  {
    "source_id": "ChIJieKGE2CGsUcRyg3cwDsVfSY",
    "name": "Woolworth",
    "category": "Woolworth",
    "formatted_address": "3,6(744)",
    "phone_number": "+4923035938200",
    "source_url": "https://www.google.com/maps/place/Woolworth/data=!4m7!3m6!1s0x47b186601386e289:0x267d153bc0dc0dca!8m2!3d53.6086524!4d9.9023571!16s%2Fg%2F1tkf0034!19sChIJieKGE2CGsUcRyg3cwDsVfSY?authuser=0&hl=tr&rclk=1",
    "website_url": "",
    "rating_text": "3,6",
    "stars": null,
    "number_of_reviews": null,
    "price_level": "",
    "open_hours": "",
    "extraction_timestamp": "2025-06-07T15:20:32.791Z",
    "source_name": "google",
    "source_query": "Irrigation Equipment",
    "source_country": "DE",
    "country": "Germany",
    "state": "Hamburg",
    "city": "Eidelstedt"
  },
  {
    "source_id": "ChIJQ6rCUrSHsUcRfMynU6Ryuyc",
    "name": "BAUHAUS Stadtgarten Hamburg-Stellingen",
    "category": "BAUHAUS Stadtgarten Hamburg-Stellingen",
    "formatted_address": "4,4(37)",
    "phone_number": "+494052108980",
    "source_url": "https://www.google.com/maps/place/BAUHAUS+Stadtgarten+Hamburg-Stellingen/data=!4m7!3m6!1s0x47b187b452c2aa43:0x27bb72a453a7cc7c!8m2!3d53.5963074!4d9.9216836!16s%2Fg%2F11l2gkc0k8!19sChIJQ6rCUrSHsUcRfMynU6Ryuyc?authuser=0&hl=tr&rclk=1",
    "website_url": "",
    "rating_text": "4,4",
    "stars": null,
    "number_of_reviews": null,
    "price_level": "",
    "open_hours": "",
    "extraction_timestamp": "2025-06-07T15:20:32.792Z",
    "source_name": "google",
    "source_query": "Irrigation Equipment",
    "source_country": "DE",
    "country": "Germany",
    "state": "Hamburg",
    "city": "Eidelstedt"
  },
  {
    "source_id": "ChIJ-6YeVGCGsUcRpryhpOc5hQA",
    "name": "Eidelstedt Weekly Market",
    "category": "Eidelstedt Weekly Market",
    "formatted_address": "4,2(266)",
    "phone_number": "+4940428013708",
    "source_url": "https://www.google.com/maps/place/Eidelstedt+Weekly+Market/data=!4m7!3m6!1s0x47b18660541ea6fb:0x8539e7a4a1bca6!8m2!3d53.6072387!4d9.9039621!16s%2Fg%2F11f0146s19!19sChIJ-6YeVGCGsUcRpryhpOc5hQA?authuser=0&hl=tr&rclk=1",
    "website_url": "",
    "rating_text": "4,2",
    "stars": null,
    "number_of_reviews": null,
    "price_level": "",
    "open_hours": "",
    "extraction_timestamp": "2025-06-07T15:20:32.793Z",
    "source_name": "google",
    "source_query": "Irrigation Equipment",
    "source_country": "DE",
    "country": "Germany",
    "state": "Hamburg",
    "city": "Eidelstedt"
  },
  {
    "source_id": "ChIJXzZ-N2SGsUcR04kbBOuRpQc",
    "name": "Karl Körner Haus- und Elektrotechnik GmbH",
    "category": "Karl Körner Haus- und Elektrotechnik GmbH",
    "formatted_address": "4,5(36)",
    "phone_number": "+49405719750",
    "source_url": "https://www.google.com/maps/place/Karl+K%C3%B6rner+Haus-+und+Elektrotechnik+GmbH/data=!4m7!3m6!1s0x47b18664377e365f:0x7a591eb041b89d3!8m2!3d53.6023926!4d9.9086287!16s%2Fg%2F1vxdxbl5!19sChIJXzZ-N2SGsUcR04kbBOuRpQc?authuser=0&hl=tr&rclk=1",
    "website_url": "",
    "rating_text": "4,5",
    "stars": null,
    "number_of_reviews": null,
    "price_level": "",
    "open_hours": "",
    "extraction_timestamp": "2025-06-07T15:20:32.794Z",
    "source_name": "google",
    "source_query": "Irrigation Equipment",
    "source_country": "DE",
    "country": "Germany",
    "state": "Hamburg",
    "city": "Eidelstedt"
  },
  {
    "source_id": "ChIJ7em9Wp-IsUcR-PnzCLUWox4",
    "name": "Quellklar by Hydro-Shop",
    "category": "Quellklar by Hydro-Shop",
    "formatted_address": "3,5(8)",
    "phone_number": "+49405001720",
    "source_url": "https://www.google.com/maps/place/Quellklar+by+Hydro-Shop/data=!4m7!3m6!1s0x47b1889f5abde9ed:0x1ea316b508f3f9f8!8m2!3d53.610056!4d9.974098!16s%2Fg%2F1hc3w12m3!19sChIJ7em9Wp-IsUcR-PnzCLUWox4?authuser=0&hl=tr&rclk=1",
    "website_url": "",
    "rating_text": "3,5",
    "stars": null,
    "number_of_reviews": null,
    "price_level": "",
    "open_hours": "",
    "extraction_timestamp": "2025-06-07T15:20:32.795Z",
    "source_name": "google",
    "source_query": "Irrigation Equipment",
    "source_country": "DE",
    "country": "Germany",
    "state": "Hamburg",
    "city": "Eidelstedt"
  },
  {
    "source_id": "ChIJ7w1ftf-HsUcRKz8GSR5K4qg",
    "name": "Action Hamburg-Lurup",
    "category": "Action Hamburg-Lurup",
    "formatted_address": "3,8(197)",
    "phone_number": "+4921130146100",
    "source_url": "https://www.google.com/maps/place/Action+Hamburg-Lurup/data=!4m7!3m6!1s0x47b187ffb55f0def:0xa8e24a1e49063f2b!8m2!3d53.5917832!4d9.8738872!16s%2Fg%2F11q8rtws7d!19sChIJ7w1ftf-HsUcRKz8GSR5K4qg?authuser=0&hl=tr&rclk=1",
    "website_url": "",
    "rating_text": "3,8",
    "stars": null,
    "number_of_reviews": null,
    "price_level": "",
    "open_hours": "",
    "extraction_timestamp": "2025-06-07T15:20:32.796Z",
    "source_name": "google",
    "source_query": "Irrigation Equipment",
    "source_country": "DE",
    "country": "Germany",
    "state": "Hamburg",
    "city": "Eidelstedt"
  },
  {
    "source_id": "ChIJw7tp1DuFsUcRFMSVtXI8YrE",
    "name": "24h Schnelldienst GmbH Abfluss & Rohrreinigung Kanalreinigung Kanaluntersuchung Kanalsanierung WC & Küchen Entstopfung",
    "category": "24h Schnelldienst GmbH Abfluss & Rohrreinigung Kanalreinigung Kanaluntersuchung Kanalsanierung WC & Küchen Entstopfung",
    "formatted_address": "24h Schnelldienst GmbH Abfluss & Rohrreinigung Kanalreinigung Kanaluntersuchung Kanalsanierung WC & Küchen Entstopfung",
    "phone_number": "+49173748952324",
    "source_url": "https://www.google.com/maps/place/24h+Schnelldienst+GmbH+Abfluss+%26+Rohrreinigung+Kanalreinigung+Kanaluntersuchung+Kanalsanierung+WC+%26+K%C3%BCchen+Entstopfung/data=!4m7!3m6!1s0x47b1853bd469bbc3:0xb1623c72b595c414!8m2!3d53.583717!4d9.8806025!16s%2Fg%2F11v3lqxrd7!19sChIJw7tp1DuFsUcRFMSVtXI8YrE?authuser=0&hl=tr&rclk=1",
    "website_url": "",
    "rating_text": "4,9",
    "stars": null,
    "number_of_reviews": null,
    "price_level": "",
    "open_hours": "",
    "extraction_timestamp": "2025-06-07T15:20:32.796Z",
    "source_name": "google",
    "source_query": "Irrigation Equipment",
    "source_country": "DE",
    "country": "Germany",
    "state": "Hamburg",
    "city": "Eidelstedt"
  },
  {
    "source_id": "ChIJbZWvBVSPsUcRztmvggSyx7w",
    "name": "HEG Engineering GmbH",
    "category": "HEG Engineering GmbH",
    "formatted_address": "5,0(1)",
    "phone_number": "+49404231110",
    "source_url": "https://www.google.com/maps/place/HEG+Engineering+GmbH/data=!4m7!3m6!1s0x47b18f5405af956d:0xbcc7b20482afd9ce!8m2!3d53.5783202!4d9.9565436!16s%2Fg%2F1v0ljv54!19sChIJbZWvBVSPsUcRztmvggSyx7w?authuser=0&hl=tr&rclk=1",
    "website_url": "",
    "rating_text": "5,0",
    "stars": null,
    "number_of_reviews": null,
    "price_level": "",
    "open_hours": "",
    "extraction_timestamp": "2025-06-07T15:20:32.797Z",
    "source_name": "google",
    "source_query": "Irrigation Equipment",
    "source_country": "DE",
    "country": "Germany",
    "state": "Hamburg",
    "city": "Eidelstedt"
  },
  {
    "source_id": "ChIJYYPjnZY2TAUR2CqudFq9ZPI",
    "name": "VisionBau GmbH",
    "category": "VisionBau GmbH",
    "formatted_address": "5,0(2)",
    "phone_number": "+49172672895824",
    "source_url": "https://www.google.com/maps/place/VisionBau+GmbH/data=!4m7!3m6!1s0x54c36969de38361:0xf264bd5a74ae2ad8!8m2!3d53.6138179!4d9.9720064!16s%2Fg%2F11x8c_kfdd!19sChIJYYPjnZY2TAUR2CqudFq9ZPI?authuser=0&hl=tr&rclk=1",
    "website_url": "",
    "rating_text": "5,0",
    "stars": null,
    "number_of_reviews": null,
    "price_level": "",
    "open_hours": "",
    "extraction_timestamp": "2025-06-07T15:20:32.798Z",
    "source_name": "google",
    "source_query": "Irrigation Equipment",
    "source_country": "DE",
    "country": "Germany",
    "state": "Hamburg",
    "city": "Eidelstedt"
  },
  {
    "source_id": "ChIJxZVlezilCw4R9VuK6_bQu1I",
    "name": "Sanitär Notdienst Hamburg",
    "category": "Sanitär Notdienst Hamburg",
    "formatted_address": "",
    "phone_number": "+491768732119324",
    "source_url": "https://www.google.com/maps/place/Sanit%C3%A4r+Notdienst+Hamburg/data=!4m7!3m6!1s0xe0ba5387b6595c5:0x52bbd0f6eb8a5bf5!8m2!3d53.6797291!4d9.3700201!16s%2Fg%2F11x73992b2!19sChIJxZVlezilCw4R9VuK6_bQu1I?authuser=0&hl=tr&rclk=1",
    "website_url": "",
    "rating_text": "",
    "stars": null,
    "number_of_reviews": null,
    "price_level": "",
    "open_hours": "",
    "extraction_timestamp": "2025-06-07T15:20:32.799Z",
    "source_name": "google",
    "source_query": "Irrigation Equipment",
    "source_country": "DE",
    "country": "Germany",
    "state": "Hamburg",
    "city": "Eidelstedt"
  },
  {
    "source_id": "ChIJH_obaWCGsUcR6Wz3oLK4PlY",
    "name": "Halk Pazari",
    "category": "Halk Pazari",
    "formatted_address": "4,0(89)",
    "phone_number": "",
    "source_url": "https://www.google.com/maps/place/Halk+Pazari/data=!4m7!3m6!1s0x47b18660691bfa1f:0x563eb8b2a0f76ce9!8m2!3d53.6084333!4d9.9028003!16s%2Fg%2F11cmv2vcb0!19sChIJH_obaWCGsUcR6Wz3oLK4PlY?authuser=0&hl=tr&rclk=1",
    "website_url": "",
    "rating_text": "4,0",
    "stars": null,
    "number_of_reviews": null,
    "price_level": "",
    "open_hours": "",
    "extraction_timestamp": "2025-06-07T15:20:32.799Z",
    "source_name": "google",
    "source_query": "Irrigation Equipment",
    "source_country": "DE",
    "country": "Germany",
    "state": "Hamburg",
    "city": "Eidelstedt"
  },
  {
    "source_id": "ChIJw15m8BSJsUcRmKdVoLFx2Ao",
    "name": "ElbHandWerk Sanitär und Heizung GmbH",
    "category": "ElbHandWerk Sanitär und Heizung GmbH",
    "formatted_address": "4,8(68)",
    "phone_number": "+494050724999",
    "source_url": "https://www.google.com/maps/place/ElbHandWerk+Sanit%C3%A4r+und+Heizung+GmbH/data=!4m7!3m6!1s0x47b18914f0665ec3:0xad871b1a055a798!8m2!3d53.6006701!4d9.9697996!16s%2Fg%2F11j57gc743!19sChIJw15m8BSJsUcRmKdVoLFx2Ao?authuser=0&hl=tr&rclk=1",
    "website_url": "",
    "rating_text": "4,8",
    "stars": null,
    "number_of_reviews": null,
    "price_level": "",
    "open_hours": "",
    "extraction_timestamp": "2025-06-07T15:20:32.800Z",
    "source_name": "google",
    "source_query": "Irrigation Equipment",
    "source_country": "DE",
    "country": "Germany",
    "state": "Hamburg",
    "city": "Eidelstedt"
  },
  {
    "source_id": "ChIJM9whZwGHsUcR_Mqgzt2xTmk",
    "name": "Mine-Faruk-Kiosk 01",
    "category": "Mine-Faruk-Kiosk 01",
    "formatted_address": "5,0(21)",
    "phone_number": "+4917624132451",
    "source_url": "https://www.google.com/maps/place/Mine-Faruk-Kiosk+01/data=!4m7!3m6!1s0x47b187016721dc33:0x694eb1ddcea0cafc!8m2!3d53.6050548!4d9.9289947!16s%2Fg%2F11y6_32__y!19sChIJM9whZwGHsUcR_Mqgzt2xTmk?authuser=0&hl=tr&rclk=1",
    "website_url": "",
    "rating_text": "5,0",
    "stars": null,
    "number_of_reviews": null,
    "price_level": "",
    "open_hours": "",
    "extraction_timestamp": "2025-06-07T15:20:32.800Z",
    "source_name": "google",
    "source_query": "Irrigation Equipment",
    "source_country": "DE",
    "country": "Germany",
    "state": "Hamburg",
    "city": "Eidelstedt"
  },
  {
    "source_id": "ChIJhRfTwEuFsUcR2SQJs_qVtu4",
    "name": "D.F. Liedelt Heizungs- und Sanitär-Großhandels-GmbH Abhol-Center",
    "category": "D.F. Liedelt Heizungs- und Sanitär-Großhandels-GmbH Abhol-Center",
    "formatted_address": "4,0(34)",
    "phone_number": "+494088302517",
    "source_url": "https://www.google.com/maps/place/D.F.+Liedelt+Heizungs-+und+Sanit%C3%A4r-Gro%C3%9Fhandels-GmbH+Abhol-Center/data=!4m7!3m6!1s0x47b1854bc0d31785:0xeeb695fab30924d9!8m2!3d53.5791778!4d9.917365!16s%2Fg%2F11h2718kns!19sChIJhRfTwEuFsUcR2SQJs_qVtu4?authuser=0&hl=tr&rclk=1",
    "website_url": "",
    "rating_text": "4,0",
    "stars": null,
    "number_of_reviews": null,
    "price_level": "",
    "open_hours": "",
    "extraction_timestamp": "2025-06-07T15:20:32.801Z",
    "source_name": "google",
    "source_query": "Irrigation Equipment",
    "source_country": "DE",
    "country": "Germany",
    "state": "Hamburg",
    "city": "Eidelstedt"
  },
  {
    "source_id": "ChIJXy9-DRaJsUcRLL-gWDwhpEY",
    "name": "C&P Aquaplants",
    "category": "C&P Aquaplants",
    "formatted_address": "4,4(5)",
    "phone_number": "+494084306403",
    "source_url": "https://www.google.com/maps/place/C%26P+Aquaplants/data=!4m7!3m6!1s0x47b189160d7e2f5f:0x46a4213c58a0bf2c!8m2!3d53.6004973!4d10.038029!16s%2Fg%2F11vxxr_60x!19sChIJXy9-DRaJsUcRLL-gWDwhpEY?authuser=0&hl=tr&rclk=1",
    "website_url": "",
    "rating_text": "4,4",
    "stars": null,
    "number_of_reviews": null,
    "price_level": "",
    "open_hours": "",
    "extraction_timestamp": "2025-06-07T15:20:32.802Z",
    "source_name": "google",
    "source_query": "Irrigation Equipment",
    "source_country": "DE",
    "country": "Germany",
    "state": "Hamburg",
    "city": "Eidelstedt"
  },
  {
    "source_id": "ChIJAe4JwViGsUcRtt4zhjrVUR8",
    "name": "Dallmeyers Backhus im E-Center",
    "category": "Dallmeyers Backhus im E-Center",
    "formatted_address": "2,5(55) · €1–10",
    "phone_number": "+494041918907",
    "source_url": "https://www.google.com/maps/place/Dallmeyers+Backhus+im+E-Center/data=!4m7!3m6!1s0x47b18658c109ee01:0x1f51d53a8633deb6!8m2!3d53.615359!4d9.9044069!16s%2Fg%2F11byym3tj8!19sChIJAe4JwViGsUcRtt4zhjrVUR8?authuser=0&hl=tr&rclk=1",
    "website_url": "",
    "rating_text": "2,5",
    "stars": null,
    "number_of_reviews": null,
    "price_level": "",
    "open_hours": "",
    "extraction_timestamp": "2025-06-07T15:20:32.803Z",
    "source_name": "google",
    "source_query": "Irrigation Equipment",
    "source_country": "DE",
    "country": "Germany",
    "state": "Hamburg",
    "city": "Eidelstedt"
  },
  {
    "source_id": "ChIJYcCW8GCGsUcRG1T9LxKn-V0",
    "name": "REWE City",
    "category": "REWE City",
    "formatted_address": "4,0(90)",
    "phone_number": "+494078012191",
    "source_url": "https://www.google.com/maps/place/REWE+City/data=!4m7!3m6!1s0x47b18660f096c061:0x5df9a7122ffd541b!8m2!3d53.6067063!4d9.9032808!16s%2Fg%2F1tdy839r!19sChIJYcCW8GCGsUcRG1T9LxKn-V0?authuser=0&hl=tr&rclk=1",
    "website_url": "",
    "rating_text": "4,0",
    "stars": null,
    "number_of_reviews": null,
    "price_level": "",
    "open_hours": "",
    "extraction_timestamp": "2025-06-07T15:20:32.803Z",
    "source_name": "google",
    "source_query": "Irrigation Equipment",
    "source_country": "DE",
    "country": "Germany",
    "state": "Hamburg",
    "city": "Eidelstedt"
  }
]
