[
  {
    "source_id": "ChIJoTTkHW6GsUcRuYcF9jn7GgE",
    "name": "Emil Lüdemann GmbH & Co. KG",
    "category": "Emil Lüdemann GmbH & Co. KG",
    "formatted_address": "4,6(344)",
    "phone_number": "+49405472190",
    "source_url": "https://www.google.com/maps/place/Emil+L%C3%BCdemann+GmbH+%26+Co.+KG/data=!4m7!3m6!1s0x47b1866e1de434a1:0x11afb39f60587b9!8m2!3d53.5974091!4d9.9174937!16s%2Fg%2F1tqck8cj!19sChIJoTTkHW6GsUcRuYcF9jn7GgE?authuser=0&hl=tr&rclk=1",
    "website_url": "",
    "rating_text": "4,6",
    "stars": null,
    "number_of_reviews": null,
    "price_level": "",
    "open_hours": "",
    "extraction_timestamp": "2025-06-07T15:21:23.378Z",
    "source_name": "google",
    "source_query": "Irrigation Equipment",
    "source_country": "DE",
    "country": "Germany",
    "state": "Hamburg",
    "city": "Eimsbüttel"
  },
  {
    "source_id": "ChIJ7em9Wp-IsUcR-PnzCLUWox4",
    "name": "Quellklar by Hydro-Shop",
    "category": "Quellklar by Hydro-Shop",
    "formatted_address": "3,5(8)",
    "phone_number": "+49405001720",
    "source_url": "https://www.google.com/maps/place/Quellklar+by+Hydro-Shop/data=!4m7!3m6!1s0x47b1889f5abde9ed:0x1ea316b508f3f9f8!8m2!3d53.610056!4d9.974098!16s%2Fg%2F1hc3w12m3!19sChIJ7em9Wp-IsUcR-PnzCLUWox4?authuser=0&hl=tr&rclk=1",
    "website_url": "",
    "rating_text": "3,5",
    "stars": null,
    "number_of_reviews": null,
    "price_level": "",
    "open_hours": "",
    "extraction_timestamp": "2025-06-07T15:21:23.379Z",
    "source_name": "google",
    "source_query": "Irrigation Equipment",
    "source_country": "DE",
    "country": "Germany",
    "state": "Hamburg",
    "city": "Eimsbüttel"
  },
  {
    "source_id": "ChIJbZWvBVSPsUcRztmvggSyx7w",
    "name": "HEG Engineering GmbH",
    "category": "HEG Engineering GmbH",
    "formatted_address": "5,0(1)",
    "phone_number": "+49404231110",
    "source_url": "https://www.google.com/maps/place/HEG+Engineering+GmbH/data=!4m7!3m6!1s0x47b18f5405af956d:0xbcc7b20482afd9ce!8m2!3d53.5783202!4d9.9565436!16s%2Fg%2F1v0ljv54!19sChIJbZWvBVSPsUcRztmvggSyx7w?authuser=0&hl=tr&rclk=1",
    "website_url": "",
    "rating_text": "5,0",
    "stars": null,
    "number_of_reviews": null,
    "price_level": "",
    "open_hours": "",
    "extraction_timestamp": "2025-06-07T15:21:23.380Z",
    "source_name": "google",
    "source_query": "Irrigation Equipment",
    "source_country": "DE",
    "country": "Germany",
    "state": "Hamburg",
    "city": "Eimsbüttel"
  },
  {
    "source_id": "ChIJVVVl1B-PsUcRe0sT8uYkNPU",
    "name": "TurfPro GmbH",
    "category": "TurfPro GmbH",
    "formatted_address": "4,3(16)",
    "phone_number": "+494084895219",
    "source_url": "https://www.google.com/maps/place/TurfPro+GmbH/data=!4m7!3m6!1s0x47b18f1fd4655555:0xf53424e6f2134b7b!8m2!3d53.5551215!4d10.00104!16s%2Fg%2F11g1f90l5g!19sChIJVVVl1B-PsUcRe0sT8uYkNPU?authuser=0&hl=tr&rclk=1",
    "website_url": "",
    "rating_text": "4,3",
    "stars": null,
    "number_of_reviews": null,
    "price_level": "",
    "open_hours": "",
    "extraction_timestamp": "2025-06-07T15:21:23.380Z",
    "source_name": "google",
    "source_query": "Irrigation Equipment",
    "source_country": "DE",
    "country": "Germany",
    "state": "Hamburg",
    "city": "Eimsbüttel"
  },
  {
    "source_id": "ChIJyR2oh2mPsUcRBUimjPaxPJ4",
    "name": "Pflanzburg GmbH Growshop",
    "category": "Pflanzburg GmbH Growshop",
    "formatted_address": "4,2(116)",
    "phone_number": "+49404305399",
    "source_url": "https://www.google.com/maps/place/Pflanzburg+GmbH+Growshop/data=!4m7!3m6!1s0x47b18f6987a81dc9:0x9e3cb1f68ca64805!8m2!3d53.5584828!4d9.9645599!16s%2Fg%2F1tf6wdmc!19sChIJyR2oh2mPsUcRBUimjPaxPJ4?authuser=0&hl=tr&rclk=1",
    "website_url": "",
    "rating_text": "4,2",
    "stars": null,
    "number_of_reviews": null,
    "price_level": "",
    "open_hours": "",
    "extraction_timestamp": "2025-06-07T15:21:23.381Z",
    "source_name": "google",
    "source_query": "Irrigation Equipment",
    "source_country": "DE",
    "country": "Germany",
    "state": "Hamburg",
    "city": "Eimsbüttel"
  },
  {
    "source_id": "ChIJCxFSMgiGsUcRtlj7xi1g3Ow",
    "name": "Deckma Hamburg GmbH",
    "category": "Deckma Hamburg GmbH",
    "formatted_address": "4,0(10)",
    "phone_number": "+49405488760",
    "source_url": "https://www.google.com/maps/place/Deckma+Hamburg+GmbH/data=!4m7!3m6!1s0x47b186083252110b:0xecdc602dc6fb58b6!8m2!3d53.5860241!4d9.9339293!16s%2Fg%2F1tgqhgrr!19sChIJCxFSMgiGsUcRtlj7xi1g3Ow?authuser=0&hl=tr&rclk=1",
    "website_url": "",
    "rating_text": "4,0",
    "stars": null,
    "number_of_reviews": null,
    "price_level": "",
    "open_hours": "",
    "extraction_timestamp": "2025-06-07T15:21:23.382Z",
    "source_name": "google",
    "source_query": "Irrigation Equipment",
    "source_country": "DE",
    "country": "Germany",
    "state": "Hamburg",
    "city": "Eimsbüttel"
  },
  {
    "source_id": "ChIJrVOfblCPsUcR1t3_OrL5TSk",
    "name": "Vineyard Hamburg GmbH",
    "category": "Vineyard Hamburg GmbH",
    "formatted_address": "4,3(560)",
    "phone_number": "+494043213230",
    "source_url": "https://www.google.com/maps/place/Vineyard+Hamburg+GmbH/data=!4m7!3m6!1s0x47b18f506e9f53ad:0x294df9b23affddd6!8m2!3d53.5761553!4d9.9536123!16s%2Fg%2F1tfkk734!19sChIJrVOfblCPsUcR1t3_OrL5TSk?authuser=0&hl=tr&rclk=1",
    "website_url": "",
    "rating_text": "4,3",
    "stars": null,
    "number_of_reviews": null,
    "price_level": "",
    "open_hours": "",
    "extraction_timestamp": "2025-06-07T15:21:23.383Z",
    "source_name": "google",
    "source_query": "Irrigation Equipment",
    "source_country": "DE",
    "country": "Germany",
    "state": "Hamburg",
    "city": "Eimsbüttel"
  },
  {
    "source_id": "ChIJY24_2eOOsUcRlgh309VEt8M",
    "name": "MediaMarkt Tech Village Hamburg",
    "category": "MediaMarkt Tech Village Hamburg",
    "formatted_address": "4,2(23.660)",
    "phone_number": "+49236604",
    "source_url": "https://www.google.com/maps/place/MediaMarkt+Tech+Village+Hamburg/data=!4m7!3m6!1s0x47b18ee3d93f6e63:0xc3b744d5d3770896!8m2!3d53.5511444!4d10.0056203!16s%2Fg%2F1tdrdf7v!19sChIJY24_2eOOsUcRlgh309VEt8M?authuser=0&hl=tr&rclk=1",
    "website_url": "",
    "rating_text": "4,2",
    "stars": null,
    "number_of_reviews": null,
    "price_level": "",
    "open_hours": "",
    "extraction_timestamp": "2025-06-07T15:21:23.384Z",
    "source_name": "google",
    "source_query": "Irrigation Equipment",
    "source_country": "DE",
    "country": "Germany",
    "state": "Hamburg",
    "city": "Eimsbüttel"
  },
  {
    "source_id": "ChIJK0vw8PmFsUcRb7VjJz6eUUs",
    "name": "Speidel System Drying GmbH",
    "category": "Speidel System Drying GmbH",
    "formatted_address": "4,2(19)",
    "phone_number": "+4940853280024",
    "source_url": "https://www.google.com/maps/place/Speidel+System+Drying+GmbH/data=!4m7!3m6!1s0x47b185f9f0f04b2b:0x4b519e3e2763b56f!8m2!3d53.573945!4d9.9270676!16s%2Fg%2F1th80_fv!19sChIJK0vw8PmFsUcRb7VjJz6eUUs?authuser=0&hl=tr&rclk=1",
    "website_url": "",
    "rating_text": "4,2",
    "stars": null,
    "number_of_reviews": null,
    "price_level": "",
    "open_hours": "",
    "extraction_timestamp": "2025-06-07T15:21:23.385Z",
    "source_name": "google",
    "source_query": "Irrigation Equipment",
    "source_country": "DE",
    "country": "Germany",
    "state": "Hamburg",
    "city": "Eimsbüttel"
  },
  {
    "source_id": "ChIJ4R34GoKPsUcR_Di8Y72u1Q4",
    "name": "AN-Beregnungstechnik",
    "category": "AN-Beregnungstechnik",
    "formatted_address": "",
    "phone_number": "+4917673517226",
    "source_url": "https://www.google.com/maps/place/AN-Beregnungstechnik/data=!4m7!3m6!1s0x47b18f821af81de1:0xed5aebd63bc38fc!8m2!3d53.5576744!4d10.0112776!16s%2Fg%2F11x33m21xg!19sChIJ4R34GoKPsUcR_Di8Y72u1Q4?authuser=0&hl=tr&rclk=1",
    "website_url": "",
    "rating_text": "",
    "stars": null,
    "number_of_reviews": null,
    "price_level": "",
    "open_hours": "",
    "extraction_timestamp": "2025-06-07T15:21:23.386Z",
    "source_name": "google",
    "source_query": "Irrigation Equipment",
    "source_country": "DE",
    "country": "Germany",
    "state": "Hamburg",
    "city": "Eimsbüttel"
  },
  {
    "source_id": "ChIJyUt-uyWPsUcRYlfo2MwTaFw",
    "name": "GEMPP GARTENDESIGN Hamburg",
    "category": "GEMPP GARTENDESIGN Hamburg",
    "formatted_address": "4,9(28)",
    "phone_number": "+494034809460",
    "source_url": "https://www.google.com/maps/place/GEMPP+GARTENDESIGN+Hamburg/data=!4m7!3m6!1s0x47b18f25bb7e4bc9:0x5c6813ccd8e85762!8m2!3d53.6123246!4d9.9627838!16s%2Fg%2F11r8mrpg5!19sChIJyUt-uyWPsUcRYlfo2MwTaFw?authuser=0&hl=tr&rclk=1",
    "website_url": "",
    "rating_text": "4,9",
    "stars": null,
    "number_of_reviews": null,
    "price_level": "",
    "open_hours": "",
    "extraction_timestamp": "2025-06-07T15:21:23.386Z",
    "source_name": "google",
    "source_query": "Irrigation Equipment",
    "source_country": "DE",
    "country": "Germany",
    "state": "Hamburg",
    "city": "Eimsbüttel"
  },
  {
    "source_id": "ChIJSWX5FESPsUcRAQCa0F5BM6s",
    "name": "WERBECK BAD-EINRICHTUNGEN | Ehlers Sanitärhandel GmbH",
    "category": "WERBECK BAD-EINRICHTUNGEN | Ehlers Sanitärhandel GmbH",
    "formatted_address": "4,8(38)",
    "phone_number": "+4940441626",
    "source_url": "https://www.google.com/maps/place/WERBECK+BAD-EINRICHTUNGEN+%7C+Ehlers+Sanit%C3%A4rhandel+GmbH/data=!4m7!3m6!1s0x47b18f4414f96549:0xab33415ed09a0001!8m2!3d53.5673791!4d9.9665242!16s%2Fg%2F1tfh3qf8!19sChIJSWX5FESPsUcRAQCa0F5BM6s?authuser=0&hl=tr&rclk=1",
    "website_url": "",
    "rating_text": "4,8",
    "stars": null,
    "number_of_reviews": null,
    "price_level": "",
    "open_hours": "",
    "extraction_timestamp": "2025-06-07T15:21:23.387Z",
    "source_name": "google",
    "source_query": "Irrigation Equipment",
    "source_country": "DE",
    "country": "Germany",
    "state": "Hamburg",
    "city": "Eimsbüttel"
  },
  {
    "source_id": "ChIJ3bFqLziPsUcRCkAWr3zpqBk",
    "name": "Flumm Richard GmbH Plumbing Heating and Electric",
    "category": "Flumm Richard GmbH Plumbing Heating and Electric",
    "formatted_address": "3,9(32)",
    "phone_number": "+4940446502",
    "source_url": "https://www.google.com/maps/place/Flumm+Richard+GmbH+Plumbing+Heating+and+Electric/data=!4m7!3m6!1s0x47b18f382f6ab1dd:0x19a8e97caf16400a!8m2!3d53.5698534!4d9.9794699!16s%2Fg%2F1tfrwk84!19sChIJ3bFqLziPsUcRCkAWr3zpqBk?authuser=0&hl=tr&rclk=1",
    "website_url": "",
    "rating_text": "3,9",
    "stars": null,
    "number_of_reviews": null,
    "price_level": "",
    "open_hours": "",
    "extraction_timestamp": "2025-06-07T15:21:23.388Z",
    "source_name": "google",
    "source_query": "Irrigation Equipment",
    "source_country": "DE",
    "country": "Germany",
    "state": "Hamburg",
    "city": "Eimsbüttel"
  },
  {
    "source_id": "ChIJDyc4TLiOsUcRN2MJ3wIVePI",
    "name": "Fieberitz Luftentfeuchter Hamburg | Beratung, Verkauf, Service",
    "category": "Fieberitz Luftentfeuchter Hamburg | Beratung, Verkauf, Service",
    "formatted_address": "Fieberitz Luftentfeuchter Hamburg | Beratung, Verkauf, Service",
    "phone_number": "+494025198445",
    "source_url": "https://www.google.com/maps/place/Fieberitz+Luftentfeuchter+Hamburg+%7C+Beratung,+Verkauf,+Service/data=!4m7!3m6!1s0x47b18eb84c38270f:0xf2781502df096337!8m2!3d53.601163!4d9.9694538!16s%2Fg%2F1tcvygrz!19sChIJDyc4TLiOsUcRN2MJ3wIVePI?authuser=0&hl=tr&rclk=1",
    "website_url": "",
    "rating_text": "5,0",
    "stars": null,
    "number_of_reviews": null,
    "price_level": "",
    "open_hours": "",
    "extraction_timestamp": "2025-06-07T15:21:23.389Z",
    "source_name": "google",
    "source_query": "Irrigation Equipment",
    "source_country": "DE",
    "country": "Germany",
    "state": "Hamburg",
    "city": "Eimsbüttel"
  },
  {
    "source_id": "ChIJw15m8BSJsUcRmKdVoLFx2Ao",
    "name": "ElbHandWerk Sanitär und Heizung GmbH",
    "category": "ElbHandWerk Sanitär und Heizung GmbH",
    "formatted_address": "4,8(68)",
    "phone_number": "+494050724999",
    "source_url": "https://www.google.com/maps/place/ElbHandWerk+Sanit%C3%A4r+und+Heizung+GmbH/data=!4m7!3m6!1s0x47b18914f0665ec3:0xad871b1a055a798!8m2!3d53.6006701!4d9.9697996!16s%2Fg%2F11j57gc743!19sChIJw15m8BSJsUcRmKdVoLFx2Ao?authuser=0&hl=tr&rclk=1",
    "website_url": "",
    "rating_text": "4,8",
    "stars": null,
    "number_of_reviews": null,
    "price_level": "",
    "open_hours": "",
    "extraction_timestamp": "2025-06-07T15:21:23.389Z",
    "source_name": "google",
    "source_query": "Irrigation Equipment",
    "source_country": "DE",
    "country": "Germany",
    "state": "Hamburg",
    "city": "Eimsbüttel"
  },
  {
    "source_id": "ChIJ1657o2KFsUcR2LHctpNO31A",
    "name": "Mein Klempner Hamburg | Handwerker | Sanitär & Heizungbau | Badsanierung | Fußbodenheizung Nachrüsten | Fugentechnik",
    "category": "Mein Klempner Hamburg | Handwerker | Sanitär & Heizungbau | Badsanierung | Fußbodenheizung Nachrüsten | Fugentechnik",
    "formatted_address": "5,0(113)",
    "phone_number": "+4919024",
    "source_url": "https://www.google.com/maps/place/Mein+Klempner+Hamburg+%7C+Handwerker+%7C+Sanit%C3%A4r+%26+Heizungbau+%7C+Badsanierung+%7C+Fu%C3%9Fbodenheizung+Nachr%C3%BCsten+%7C+Fugentechnik/data=!4m7!3m6!1s0x47b18562a37baed7:0x50df4e93b6dcb1d8!8m2!3d53.5458129!4d9.904346!16s%2Fg%2F11hf3lh0p9!19sChIJ1657o2KFsUcR2LHctpNO31A?authuser=0&hl=tr&rclk=1",
    "website_url": "",
    "rating_text": "5,0",
    "stars": null,
    "number_of_reviews": null,
    "price_level": "",
    "open_hours": "",
    "extraction_timestamp": "2025-06-07T15:21:23.390Z",
    "source_name": "google",
    "source_query": "Irrigation Equipment",
    "source_country": "DE",
    "country": "Germany",
    "state": "Hamburg",
    "city": "Eimsbüttel"
  },
  {
    "source_id": "ChIJK9e1W3IgskcRujMeeHH8K98",
    "name": "Friedrich Lange GmbH - Bathroom Showroom Hamburg-Bahrenfeld",
    "category": "Friedrich Lange GmbH - Bathroom Showroom Hamburg-Bahrenfeld",
    "formatted_address": "3,7(55)",
    "phone_number": "+49408996630",
    "source_url": "https://www.google.com/maps/place/Friedrich+Lange+GmbH+-+Bathroom+Showroom+Hamburg-Bahrenfeld/data=!4m7!3m6!1s0x47b220725bb5d72b:0xdf2bfc71781e33ba!8m2!3d53.5666559!4d9.9186693!16s%2Fg%2F1tfgc8s5!19sChIJK9e1W3IgskcRujMeeHH8K98?authuser=0&hl=tr&rclk=1",
    "website_url": "",
    "rating_text": "3,7",
    "stars": null,
    "number_of_reviews": null,
    "price_level": "",
    "open_hours": "",
    "extraction_timestamp": "2025-06-07T15:21:23.391Z",
    "source_name": "google",
    "source_query": "Irrigation Equipment",
    "source_country": "DE",
    "country": "Germany",
    "state": "Hamburg",
    "city": "Eimsbüttel"
  },
  {
    "source_id": "ChIJXcnbDFaPsUcR7Mbrmrz5GlE",
    "name": "Quickshop",
    "category": "Quickshop",
    "formatted_address": "4,8(113)",
    "phone_number": "+494043214232",
    "source_url": "https://www.google.com/maps/place/Quickshop/data=!4m7!3m6!1s0x47b18f560cdbc95d:0x511af9bc9aebc6ec!8m2!3d53.5777339!4d9.9512208!16s%2Fg%2F11df81j980!19sChIJXcnbDFaPsUcR7Mbrmrz5GlE?authuser=0&hl=tr&rclk=1",
    "website_url": "",
    "rating_text": "4,8",
    "stars": null,
    "number_of_reviews": null,
    "price_level": "",
    "open_hours": "",
    "extraction_timestamp": "2025-06-07T15:21:23.391Z",
    "source_name": "google",
    "source_query": "Irrigation Equipment",
    "source_country": "DE",
    "country": "Germany",
    "state": "Hamburg",
    "city": "Eimsbüttel"
  },
  {
    "source_id": "ChIJ0fs9R1uPsUcRpx2PgiKnCLE",
    "name": "Aydin Markt",
    "category": "Aydin Markt",
    "formatted_address": "4,8(82)",
    "phone_number": "+49404301537",
    "source_url": "https://www.google.com/maps/place/Aydin+Markt/data=!4m7!3m6!1s0x47b18f5b473dfbd1:0xb108a722828f1da7!8m2!3d53.567807!4d9.959732!16s%2Fg%2F1td0xjdr!19sChIJ0fs9R1uPsUcRpx2PgiKnCLE?authuser=0&hl=tr&rclk=1",
    "website_url": "",
    "rating_text": "4,8",
    "stars": null,
    "number_of_reviews": null,
    "price_level": "",
    "open_hours": "",
    "extraction_timestamp": "2025-06-07T15:21:23.392Z",
    "source_name": "google",
    "source_query": "Irrigation Equipment",
    "source_country": "DE",
    "country": "Germany",
    "state": "Hamburg",
    "city": "Eimsbüttel"
  },
  {
    "source_id": "ChIJ7Wa191aPsUcRMrE873AjU20",
    "name": "Kiosk 104",
    "category": "Kiosk 104",
    "formatted_address": "4,3(40)",
    "phone_number": "",
    "source_url": "https://www.google.com/maps/place/Kiosk+104/data=!4m7!3m6!1s0x47b18f56f7b566ed:0x6d532370ef3cb132!8m2!3d53.5761601!4d9.9526109!16s%2Fg%2F11cn32vzlv!19sChIJ7Wa191aPsUcRMrE873AjU20?authuser=0&hl=tr&rclk=1",
    "website_url": "",
    "rating_text": "4,3",
    "stars": null,
    "number_of_reviews": null,
    "price_level": "",
    "open_hours": "",
    "extraction_timestamp": "2025-06-07T15:21:23.393Z",
    "source_name": "google",
    "source_query": "Irrigation Equipment",
    "source_country": "DE",
    "country": "Germany",
    "state": "Hamburg",
    "city": "Eimsbüttel"
  },
  {
    "source_id": "ChIJXy9-DRaJsUcRLL-gWDwhpEY",
    "name": "C&P Aquaplants",
    "category": "C&P Aquaplants",
    "formatted_address": "4,4(5)",
    "phone_number": "+494084306403",
    "source_url": "https://www.google.com/maps/place/C%26P+Aquaplants/data=!4m7!3m6!1s0x47b189160d7e2f5f:0x46a4213c58a0bf2c!8m2!3d53.6004973!4d10.038029!16s%2Fg%2F11vxxr_60x!19sChIJXy9-DRaJsUcRLL-gWDwhpEY?authuser=0&hl=tr&rclk=1",
    "website_url": "",
    "rating_text": "4,4",
    "stars": null,
    "number_of_reviews": null,
    "price_level": "",
    "open_hours": "",
    "extraction_timestamp": "2025-06-07T15:21:23.393Z",
    "source_name": "google",
    "source_query": "Irrigation Equipment",
    "source_country": "DE",
    "country": "Germany",
    "state": "Hamburg",
    "city": "Eimsbüttel"
  },
  {
    "source_id": "ChIJF3I0De6PsUcRnqTKtee--DU",
    "name": "KIOSK Osterstrasse",
    "category": "KIOSK Osterstrasse",
    "formatted_address": "4,2(13)",
    "phone_number": "",
    "source_url": "https://www.google.com/maps/place/KIOSK+Osterstrasse/data=!4m7!3m6!1s0x47b18fee0d347217:0x35f8bee7b5caa49e!8m2!3d53.5745786!4d9.9582676!16s%2Fg%2F11llkrz16c!19sChIJF3I0De6PsUcRnqTKtee--DU?authuser=0&hl=tr&rclk=1",
    "website_url": "",
    "rating_text": "4,2",
    "stars": null,
    "number_of_reviews": null,
    "price_level": "",
    "open_hours": "",
    "extraction_timestamp": "2025-06-07T15:21:23.394Z",
    "source_name": "google",
    "source_query": "Irrigation Equipment",
    "source_country": "DE",
    "country": "Germany",
    "state": "Hamburg",
    "city": "Eimsbüttel"
  },
  {
    "source_id": "ChIJT8IYlWuJsUcRoQ5zrzufmtk",
    "name": "Prinzessin Eisbär Winterhude - Hamburg",
    "category": "Prinzessin Eisbär Winterhude - Hamburg",
    "formatted_address": "4,9(101)",
    "phone_number": "+4917664317805",
    "source_url": "https://www.google.com/maps/place/Prinzessin+Eisb%C3%A4r+Winterhude+-+Hamburg/data=!4m7!3m6!1s0x47b1896b9518c24f:0xd99a9f3baf730ea1!8m2!3d53.5813697!4d10.0097333!16s%2Fg%2F11rgrt3lkw!19sChIJT8IYlWuJsUcRoQ5zrzufmtk?authuser=0&hl=tr&rclk=1",
    "website_url": "",
    "rating_text": "4,9",
    "stars": null,
    "number_of_reviews": null,
    "price_level": "",
    "open_hours": "",
    "extraction_timestamp": "2025-06-07T15:21:23.395Z",
    "source_name": "google",
    "source_query": "Irrigation Equipment",
    "source_country": "DE",
    "country": "Germany",
    "state": "Hamburg",
    "city": "Eimsbüttel"
  },
  {
    "source_id": "ChIJh9UeKUW7Y0ERktmflj86jv8",
    "name": "Schreib-Insel",
    "category": "Schreib-Insel",
    "formatted_address": "4,3(42)",
    "phone_number": "",
    "source_url": "https://www.google.com/maps/place/Schreib-Insel/data=!4m7!3m6!1s0x4163bb45291ed587:0xff8e3a3f969fd992!8m2!3d53.5795524!4d9.9492141!16s%2Fg%2F11b75nr2wg!19sChIJh9UeKUW7Y0ERktmflj86jv8?authuser=0&hl=tr&rclk=1",
    "website_url": "",
    "rating_text": "4,3",
    "stars": null,
    "number_of_reviews": null,
    "price_level": "",
    "open_hours": "",
    "extraction_timestamp": "2025-06-07T15:21:23.395Z",
    "source_name": "google",
    "source_query": "Irrigation Equipment",
    "source_country": "DE",
    "country": "Germany",
    "state": "Hamburg",
    "city": "Eimsbüttel"
  },
  {
    "source_id": "ChIJ1_KMdFaPsUcRBKsdWwowYhY",
    "name": "Uzun Süleyman Kiosk",
    "category": "Uzun Süleyman Kiosk",
    "formatted_address": "4,4(24)",
    "phone_number": "",
    "source_url": "https://www.google.com/maps/place/Uzun+S%C3%BCleyman+Kiosk/data=!4m7!3m6!1s0x47b18f56748cf2d7:0x1662300a5b1dab04!8m2!3d53.5778172!4d9.9516755!16s%2Fg%2F1tq8hm8z!19sChIJ1_KMdFaPsUcRBKsdWwowYhY?authuser=0&hl=tr&rclk=1",
    "website_url": "",
    "rating_text": "4,4",
    "stars": null,
    "number_of_reviews": null,
    "price_level": "",
    "open_hours": "",
    "extraction_timestamp": "2025-06-07T15:21:23.395Z",
    "source_name": "google",
    "source_query": "Irrigation Equipment",
    "source_country": "DE",
    "country": "Germany",
    "state": "Hamburg",
    "city": "Eimsbüttel"
  },
  {
    "source_id": "ChIJSXjsu_-DsUcRTW-SJeCsL5k",
    "name": "Bauzentrum Sand Hack GmbH",
    "category": "Bauzentrum Sand Hack GmbH",
    "formatted_address": "4,6(210)",
    "phone_number": "+49408393640",
    "source_url": "https://www.google.com/maps/place/Bauzentrum+Sand+Hack+GmbH/data=!4m7!3m6!1s0x47b183ffbbec7849:0x992face025926f4d!8m2!3d53.5919433!4d9.8316505!16s%2Fg%2F1tcxnqvg!19sChIJSXjsu_-DsUcRTW-SJeCsL5k?authuser=0&hl=tr&rclk=1",
    "website_url": "",
    "rating_text": "4,6",
    "stars": null,
    "number_of_reviews": null,
    "price_level": "",
    "open_hours": "",
    "extraction_timestamp": "2025-06-07T15:21:23.396Z",
    "source_name": "google",
    "source_query": "Irrigation Equipment",
    "source_country": "DE",
    "country": "Germany",
    "state": "Hamburg",
    "city": "Eimsbüttel"
  },
  {
    "source_id": "ChIJ8T6jqoCPsUcRwBXUAgmQLAY",
    "name": "Café Bueno",
    "category": "Café Bueno",
    "formatted_address": "4,9(7)",
    "phone_number": "",
    "source_url": "https://www.google.com/maps/place/Caf%C3%A9+Bueno/data=!4m7!3m6!1s0x47b18f80aaa33ef1:0x62c900902d415c0!8m2!3d53.5780432!4d9.9504004!16s%2Fg%2F11x8_0zjsv!19sChIJ8T6jqoCPsUcRwBXUAgmQLAY?authuser=0&hl=tr&rclk=1",
    "website_url": "",
    "rating_text": "4,9",
    "stars": null,
    "number_of_reviews": null,
    "price_level": "",
    "open_hours": "",
    "extraction_timestamp": "2025-06-07T15:21:23.397Z",
    "source_name": "google",
    "source_query": "Irrigation Equipment",
    "source_country": "DE",
    "country": "Germany",
    "state": "Hamburg",
    "city": "Eimsbüttel"
  },
  {
    "source_id": "ChIJw7tp1DuFsUcRFMSVtXI8YrE",
    "name": "24h Schnelldienst GmbH Abfluss & Rohrreinigung Kanalreinigung Kanaluntersuchung Kanalsanierung WC & Küchen Entstopfung",
    "category": "24h Schnelldienst GmbH Abfluss & Rohrreinigung Kanalreinigung Kanaluntersuchung Kanalsanierung WC & Küchen Entstopfung",
    "formatted_address": "24h Schnelldienst GmbH Abfluss & Rohrreinigung Kanalreinigung Kanaluntersuchung Kanalsanierung WC & Küchen Entstopfung",
    "phone_number": "+49173748952324",
    "source_url": "https://www.google.com/maps/place/24h+Schnelldienst+GmbH+Abfluss+%26+Rohrreinigung+Kanalreinigung+Kanaluntersuchung+Kanalsanierung+WC+%26+K%C3%BCchen+Entstopfung/data=!4m7!3m6!1s0x47b1853bd469bbc3:0xb1623c72b595c414!8m2!3d53.583717!4d9.8806025!16s%2Fg%2F11v3lqxrd7!19sChIJw7tp1DuFsUcRFMSVtXI8YrE?authuser=0&hl=tr&rclk=1",
    "website_url": "",
    "rating_text": "4,9",
    "stars": null,
    "number_of_reviews": null,
    "price_level": "",
    "open_hours": "",
    "extraction_timestamp": "2025-06-07T15:21:23.397Z",
    "source_name": "google",
    "source_query": "Irrigation Equipment",
    "source_country": "DE",
    "country": "Germany",
    "state": "Hamburg",
    "city": "Eimsbüttel"
  }
]
