[
  {
    "source_id": "ChIJV0qxe-yLsUcRUAusxcT2Iy0",
    "name": "toom Baumarkt Hamburg-Wandsbek",
    "category": "toom Baumarkt Hamburg-Wandsbek",
    "formatted_address": "4,1(2.439)",
    "phone_number": "+49406969710",
    "source_url": "https://www.google.com/maps/place/toom+Baumarkt+Hamburg-Wandsbek/data=!4m7!3m6!1s0x47b18bec7bb14a57:0x2d23f6c4c5ac0b50!8m2!3d53.5873574!4d10.0985942!16s%2Fg%2F1vpfhlth!19sChIJV0qxe-yLsUcRUAusxcT2Iy0?authuser=0&hl=tr&rclk=1",
    "website_url": "https://toom.de/m/hamburg-wandsbek/",
    "rating_text": "4,1",
    "stars": null,
    "number_of_reviews": null,
    "price_level": "",
    "open_hours": "",
    "extraction_timestamp": "2025-06-07T15:19:09.706Z",
    "source_name": "google",
    "source_query": "Irrigation Equipment",
    "source_country": "DE",
    "country": "Germany",
    "state": "Hamburg",
    "city": "Farmsen-Berne"
  },
  {
    "source_id": "ChIJjQDhyLmLsUcRP-h-KFJiWhg",
    "name": "STOLLE Sanitätshaus Farmsen",
    "category": "STOLLE Sanitätshaus Farmsen",
    "formatted_address": "3,1(136)",
    "phone_number": "+4940645960",
    "source_url": "https://www.google.com/maps/place/STOLLE+Sanit%C3%A4tshaus+Farmsen/data=!4m7!3m6!1s0x47b18bb9c8e1008d:0x185a6252287ee83f!8m2!3d53.6014865!4d10.1137229!16s%2Fg%2F1tgpm257!19sChIJjQDhyLmLsUcRP-h-KFJiWhg?authuser=0&hl=tr&rclk=1",
    "website_url": "https://stolle-sanitaetshaus.sanoa.net/standort/stolle-sanitaetshaus-hamburg-farmsen/#gbp",
    "rating_text": "3,1",
    "stars": null,
    "number_of_reviews": null,
    "price_level": "",
    "open_hours": "",
    "extraction_timestamp": "2025-06-07T15:19:09.707Z",
    "source_name": "google",
    "source_query": "Irrigation Equipment",
    "source_country": "DE",
    "country": "Germany",
    "state": "Hamburg",
    "city": "Farmsen-Berne"
  },
  {
    "source_id": "ChIJeyaw0HePsUcRQzOcSBEjl-k",
    "name": "Hanse Bau & Bewässerungstechnik GmbH",
    "category": "Hanse Bau & Bewässerungstechnik GmbH",
    "formatted_address": "5,0(14)",
    "phone_number": "+4917630563436",
    "source_url": "https://www.google.com/maps/place/Hanse+Bau+%26+Bew%C3%A4sserungstechnik+GmbH/data=!4m7!3m6!1s0x47b18f77d0b0267b:0xe9972311489c3343!8m2!3d53.6553614!4d10.113272!16s%2Fg%2F11kb_rmhm6!19sChIJeyaw0HePsUcRQzOcSBEjl-k?authuser=0&hl=tr&rclk=1",
    "website_url": "http://www.hanse-bewaesserung.de/",
    "rating_text": "5,0",
    "stars": null,
    "number_of_reviews": null,
    "price_level": "",
    "open_hours": "",
    "extraction_timestamp": "2025-06-07T15:19:09.744Z",
    "source_name": "google",
    "source_query": "Irrigation Equipment",
    "source_country": "DE",
    "country": "Germany",
    "state": "Hamburg",
    "city": "Farmsen-Berne"
  },
  {
    "source_id": "ChIJ7em9Wp-IsUcR-PnzCLUWox4",
    "name": "Quellklar by Hydro-Shop",
    "category": "Quellklar by Hydro-Shop",
    "formatted_address": "3,5(8)",
    "phone_number": "+49405001720",
    "source_url": "https://www.google.com/maps/place/Quellklar+by+Hydro-Shop/data=!4m7!3m6!1s0x47b1889f5abde9ed:0x1ea316b508f3f9f8!8m2!3d53.610056!4d9.974098!16s%2Fg%2F1hc3w12m3!19sChIJ7em9Wp-IsUcR-PnzCLUWox4?authuser=0&hl=tr&rclk=1",
    "website_url": "https://quellklar.de/",
    "rating_text": "3,5",
    "stars": null,
    "number_of_reviews": null,
    "price_level": "",
    "open_hours": "",
    "extraction_timestamp": "2025-06-07T15:19:09.745Z",
    "source_name": "google",
    "source_query": "Irrigation Equipment",
    "source_country": "DE",
    "country": "Germany",
    "state": "Hamburg",
    "city": "Farmsen-Berne"
  },
  {
    "source_id": "ChIJ6fOCmK-LsUcR8tJ-5BRdxrA",
    "name": "Kaufland Hamburg-Farmsen",
    "category": "Kaufland Hamburg-Farmsen",
    "formatted_address": "3,9(1.296)",
    "phone_number": "+4912963",
    "source_url": "https://www.google.com/maps/place/Kaufland+Hamburg-Farmsen/data=!4m7!3m6!1s0x47b18baf9882f3e9:0xb0c65d14e47ed2f2!8m2!3d53.6051975!4d10.1183564!16s%2Fg%2F11s37mn1cy!19sChIJ6fOCmK-LsUcR8tJ-5BRdxrA?authuser=0&hl=tr&rclk=1",
    "website_url": "https://www.filiale.kaufland.de/?cid=F3183B02C1200K01000W01030000D1000E1000F1000G1000H1000",
    "rating_text": "3,9",
    "stars": null,
    "number_of_reviews": null,
    "price_level": "",
    "open_hours": "",
    "extraction_timestamp": "2025-06-07T15:19:09.746Z",
    "source_name": "google",
    "source_query": "Irrigation Equipment",
    "source_country": "DE",
    "country": "Germany",
    "state": "Hamburg",
    "city": "Farmsen-Berne"
  },
  {
    "source_id": "ChIJ0ZJ9VPKLsUcR5GEmqLKrd_g",
    "name": "STOLLE Orthopädie Technik",
    "category": "STOLLE Orthopädie Technik",
    "formatted_address": "4,4(15)",
    "phone_number": "+4940645960",
    "source_url": "https://www.google.com/maps/place/STOLLE+Orthop%C3%A4die+Technik/data=!4m7!3m6!1s0x47b18bf2547d92d1:0xf877abb2a82661e4!8m2!3d53.6014865!4d10.1137229!16s%2Fg%2F11sbshj_mn!19sChIJ0ZJ9VPKLsUcR5GEmqLKrd_g?authuser=0&hl=tr&rclk=1",
    "website_url": "http://www.stolle-ot.de/",
    "rating_text": "4,4",
    "stars": null,
    "number_of_reviews": null,
    "price_level": "",
    "open_hours": "",
    "extraction_timestamp": "2025-06-07T15:19:09.747Z",
    "source_name": "google",
    "source_query": "Irrigation Equipment",
    "source_country": "DE",
    "country": "Germany",
    "state": "Hamburg",
    "city": "Farmsen-Berne"
  },
  {
    "source_id": "ChIJB16fK7GLsUcRL68J8I6G-AM",
    "name": "Reformhaus Engelhardt",
    "category": "Reformhaus Engelhardt",
    "formatted_address": "3,9(13)",
    "phone_number": "+49406431140",
    "source_url": "https://www.google.com/maps/place/Reformhaus+Engelhardt/data=!4m7!3m6!1s0x47b18bb12b9f5e07:0x3f8868ef009af2f!8m2!3d53.6048503!4d10.1170072!16s%2Fg%2F1tddr7lq!19sChIJB16fK7GLsUcRL68J8I6G-AM?authuser=0&hl=tr&rclk=1",
    "website_url": "https://reformhaus.de/blogs/vita-nova/reformhaus-engelhardt-farmsen/?utm_store_id=a33043375c94bda9ef3c84908adce5b8",
    "rating_text": "3,9",
    "stars": null,
    "number_of_reviews": null,
    "price_level": "",
    "open_hours": "",
    "extraction_timestamp": "2025-06-07T15:19:09.748Z",
    "source_name": "google",
    "source_query": "Irrigation Equipment",
    "source_country": "DE",
    "country": "Germany",
    "state": "Hamburg",
    "city": "Farmsen-Berne"
  },
  {
    "source_id": "ChIJeRaLLrGLsUcRWIPFTfS-QGg",
    "name": "Budni",
    "category": "Budni",
    "formatted_address": "3,9(45)",
    "phone_number": "+494080603030",
    "source_url": "https://www.google.com/maps/place/Budni/data=!4m7!3m6!1s0x47b18bb12e8b1679:0x6840bef44dc58358!8m2!3d53.6056609!4d10.1188222!16s%2Fg%2F12lr8mk_4!19sChIJeRaLLrGLsUcRWIPFTfS-QGg?authuser=0&hl=tr&rclk=1",
    "website_url": "https://www.budni.de/filialen/22159-berner-heerweg-173-175?utm_source=google&utm_medium=standort&utm_campaign=standort-filiale&utm_content=410603",
    "rating_text": "3,9",
    "stars": null,
    "number_of_reviews": null,
    "price_level": "",
    "open_hours": "",
    "extraction_timestamp": "2025-06-07T15:19:09.749Z",
    "source_name": "google",
    "source_query": "Irrigation Equipment",
    "source_country": "DE",
    "country": "Germany",
    "state": "Hamburg",
    "city": "Farmsen-Berne"
  },
  {
    "source_id": "ChIJ9Votu7aLsUcRW8UZ0TDilQI",
    "name": "Farmsen",
    "category": "Farmsen",
    "formatted_address": "3,7(140)",
    "phone_number": "",
    "source_url": "https://www.google.com/maps/place/Farmsen/data=!4m7!3m6!1s0x47b18bb6bb2d5af5:0x295e230d119c55b!8m2!3d53.6074489!4d10.1179115!16s%2Fg%2F12221wwl!19sChIJ9Votu7aLsUcRW8UZ0TDilQI?authuser=0&hl=tr&rclk=1",
    "website_url": "",
    "rating_text": "3,7",
    "stars": null,
    "number_of_reviews": null,
    "price_level": "",
    "open_hours": "",
    "extraction_timestamp": "2025-06-07T15:19:09.750Z",
    "source_name": "google",
    "source_query": "Irrigation Equipment",
    "source_country": "DE",
    "country": "Germany",
    "state": "Hamburg",
    "city": "Farmsen-Berne"
  }
]
