[
  {
    "source_id": "ChIJASnWkcaJsUcRBXFbsf_0gRo",
    "name": "Lieblingsklempner GmbH",
    "category": "Lieblingsklempner GmbH",
    "formatted_address": "3,8(31)",
    "phone_number": "+494064891900",
    "source_url": "https://www.google.com/maps/place/Lieblingsklempner+GmbH/data=!4m7!3m6!1s0x47b189c691d62901:0x1a81f4ffb15b7105!8m2!3d53.6390209!4d10.0135194!16s%2Fg%2F11f7mc2zc4!19sChIJASnWkcaJsUcRBXFbsf_0gRo?authuser=0&hl=tr&rclk=1",
    "website_url": "",
    "rating_text": "3,8",
    "stars": null,
    "number_of_reviews": null,
    "price_level": "",
    "open_hours": "",
    "extraction_timestamp": "2025-06-07T15:19:32.974Z",
    "source_name": "google",
    "source_query": "Irrigation Equipment",
    "source_country": "DE",
    "country": "Germany",
    "state": "Hamburg",
    "city": "Fuhlsbüttel"
  },
  {
    "source_id": "ChIJ7em9Wp-IsUcR-PnzCLUWox4",
    "name": "Quellklar by Hydro-Shop",
    "category": "Quellklar by Hydro-Shop",
    "formatted_address": "3,5(8)",
    "phone_number": "+49405001720",
    "source_url": "https://www.google.com/maps/place/Quellklar+by+Hydro-Shop/data=!4m7!3m6!1s0x47b1889f5abde9ed:0x1ea316b508f3f9f8!8m2!3d53.610056!4d9.974098!16s%2Fg%2F1hc3w12m3!19sChIJ7em9Wp-IsUcR-PnzCLUWox4?authuser=0&hl=tr&rclk=1",
    "website_url": "",
    "rating_text": "3,5",
    "stars": null,
    "number_of_reviews": null,
    "price_level": "",
    "open_hours": "",
    "extraction_timestamp": "2025-06-07T15:19:32.975Z",
    "source_name": "google",
    "source_query": "Irrigation Equipment",
    "source_country": "DE",
    "country": "Germany",
    "state": "Hamburg",
    "city": "Fuhlsbüttel"
  },
  {
    "source_id": "ChIJDxzmH22VX6oRbVIwFMMtPVY",
    "name": "Bloody Water GmbH",
    "category": "Bloody Water GmbH",
    "formatted_address": "5,0(4)",
    "phone_number": "+494033475256",
    "source_url": "https://www.google.com/maps/place/Bloody+Water+GmbH/data=!4m7!3m6!1s0xaa5f956d1fe61c0f:0x563d2dc31430526d!8m2!3d53.6138996!4d9.9715077!16s%2Fg%2F11vl8jqcmv!19sChIJDxzmH22VX6oRbVIwFMMtPVY?authuser=0&hl=tr&rclk=1",
    "website_url": "",
    "rating_text": "5,0",
    "stars": null,
    "number_of_reviews": null,
    "price_level": "",
    "open_hours": "",
    "extraction_timestamp": "2025-06-07T15:19:32.975Z",
    "source_name": "google",
    "source_query": "Irrigation Equipment",
    "source_country": "DE",
    "country": "Germany",
    "state": "Hamburg",
    "city": "Fuhlsbüttel"
  },
  {
    "source_id": "ChIJ442matgmskcRvvMxEAfF78E",
    "name": "Sanifein Haustechnik GmbH",
    "category": "Sanifein Haustechnik GmbH",
    "formatted_address": "4,5(15)",
    "phone_number": "+494036915102",
    "source_url": "https://www.google.com/maps/place/Sanifein+Haustechnik+GmbH/data=!4m7!3m6!1s0x47b226d86aa68de3:0xc1efc5071031f3be!8m2!3d53.6305108!4d10.0211414!16s%2Fg%2F11d_7b1wvx!19sChIJ442matgmskcRvvMxEAfF78E?authuser=0&hl=tr&rclk=1",
    "website_url": "",
    "rating_text": "4,5",
    "stars": null,
    "number_of_reviews": null,
    "price_level": "",
    "open_hours": "",
    "extraction_timestamp": "2025-06-07T15:19:32.976Z",
    "source_name": "google",
    "source_query": "Irrigation Equipment",
    "source_country": "DE",
    "country": "Germany",
    "state": "Hamburg",
    "city": "Fuhlsbüttel"
  },
  {
    "source_id": "ChIJNZj_8laIsUcRxE_xBUI3FS0",
    "name": "TROST - Werbemittel & Textilien",
    "category": "TROST - Werbemittel & Textilien",
    "formatted_address": "5,0(4)",
    "phone_number": "+494018046223",
    "source_url": "https://www.google.com/maps/place/TROST+-+Werbemittel+%26+Textilien/data=!4m7!3m6!1s0x47b18856f2ff9835:0x2d15374205f14fc4!8m2!3d53.6251108!4d10.0176843!16s%2Fg%2F11bzyn23hc!19sChIJNZj_8laIsUcRxE_xBUI3FS0?authuser=0&hl=tr&rclk=1",
    "website_url": "",
    "rating_text": "5,0",
    "stars": null,
    "number_of_reviews": null,
    "price_level": "",
    "open_hours": "",
    "extraction_timestamp": "2025-06-07T15:19:32.977Z",
    "source_name": "google",
    "source_query": "Irrigation Equipment",
    "source_country": "DE",
    "country": "Germany",
    "state": "Hamburg",
    "city": "Fuhlsbüttel"
  },
  {
    "source_id": "ChIJHy_JYrqJsUcRqq0rv_hpQD0",
    "name": "Delph Solar GmbH",
    "category": "Delph Solar GmbH",
    "formatted_address": "5,0(2)",
    "phone_number": "+4917663399911",
    "source_url": "https://www.google.com/maps/place/Delph+Solar+GmbH/data=!4m7!3m6!1s0x47b189ba62c92f1f:0x3d4069f8bf2badaa!8m2!3d53.63236!4d10.0262799!16s%2Fg%2F11l693447j!19sChIJHy_JYrqJsUcRqq0rv_hpQD0?authuser=0&hl=tr&rclk=1",
    "website_url": "",
    "rating_text": "5,0",
    "stars": null,
    "number_of_reviews": null,
    "price_level": "",
    "open_hours": "",
    "extraction_timestamp": "2025-06-07T15:19:32.978Z",
    "source_name": "google",
    "source_query": "Irrigation Equipment",
    "source_country": "DE",
    "country": "Germany",
    "state": "Hamburg",
    "city": "Fuhlsbüttel"
  },
  {
    "source_id": "ChIJkywGF5mJsUcRTcTZFKaoTiw",
    "name": "Action Hamburg-Langenhorn",
    "category": "Action Hamburg-Langenhorn",
    "formatted_address": "4,0(1.306)",
    "phone_number": "+4913064",
    "source_url": "https://www.google.com/maps/place/Action+Hamburg-Langenhorn/data=!4m7!3m6!1s0x47b1899917062c93:0x2c4ea8a614d9c44d!8m2!3d53.6476214!4d10.0146712!16s%2Fg%2F11g22_2tdk!19sChIJkywGF5mJsUcRTcTZFKaoTiw?authuser=0&hl=tr&rclk=1",
    "website_url": "",
    "rating_text": "4,0",
    "stars": null,
    "number_of_reviews": null,
    "price_level": "",
    "open_hours": "",
    "extraction_timestamp": "2025-06-07T15:19:32.979Z",
    "source_name": "google",
    "source_query": "Irrigation Equipment",
    "source_country": "DE",
    "country": "Germany",
    "state": "Hamburg",
    "city": "Fuhlsbüttel"
  },
  {
    "source_id": "ChIJM2wZpFOIsUcRH6_XxAmdbfM",
    "name": "Fahrradhaus Meincke",
    "category": "Fahrradhaus Meincke",
    "formatted_address": "4,4(94)",
    "phone_number": "+4940503050",
    "source_url": "https://www.google.com/maps/place/Fahrradhaus+Meincke/data=!4m7!3m6!1s0x47b18853a4196c33:0xf36d9d09c4d7af1f!8m2!3d53.6285539!4d10.0243075!16s%2Fg%2F1v62gqfl!19sChIJM2wZpFOIsUcRH6_XxAmdbfM?authuser=0&hl=tr&rclk=1",
    "website_url": "",
    "rating_text": "4,4",
    "stars": null,
    "number_of_reviews": null,
    "price_level": "",
    "open_hours": "",
    "extraction_timestamp": "2025-06-07T15:19:32.980Z",
    "source_name": "google",
    "source_query": "Irrigation Equipment",
    "source_country": "DE",
    "country": "Germany",
    "state": "Hamburg",
    "city": "Fuhlsbüttel"
  },
  {
    "source_id": "ChIJVzy1kayOsUcRQdtv_ORuRBo",
    "name": "Haustechnik.Hamburg - Sager & Deus + Paul Opländer",
    "category": "Haustechnik.Hamburg - Sager & Deus + Paul Opländer",
    "formatted_address": "3,8(52)",
    "phone_number": "+49406828030",
    "source_url": "https://www.google.com/maps/place/Haustechnik.Hamburg+-+Sager+%26+Deus+%2B+Paul+Opl%C3%A4nder/data=!4m7!3m6!1s0x47b18eac91b53c57:0x1a446ee4fc6fdb41!8m2!3d53.643179!4d9.975012!16s%2Fg%2F1vbnng5l!19sChIJVzy1kayOsUcRQdtv_ORuRBo?authuser=0&hl=tr&rclk=1",
    "website_url": "",
    "rating_text": "3,8",
    "stars": null,
    "number_of_reviews": null,
    "price_level": "",
    "open_hours": "",
    "extraction_timestamp": "2025-06-07T15:19:32.981Z",
    "source_name": "google",
    "source_query": "Irrigation Equipment",
    "source_country": "DE",
    "country": "Germany",
    "state": "Hamburg",
    "city": "Fuhlsbüttel"
  },
  {
    "source_id": "ChIJyUt-uyWPsUcRYlfo2MwTaFw",
    "name": "GEMPP GARTENDESIGN Hamburg",
    "category": "GEMPP GARTENDESIGN Hamburg",
    "formatted_address": "4,9(28)",
    "phone_number": "+494034809460",
    "source_url": "https://www.google.com/maps/place/GEMPP+GARTENDESIGN+Hamburg/data=!4m7!3m6!1s0x47b18f25bb7e4bc9:0x5c6813ccd8e85762!8m2!3d53.6123246!4d9.9627838!16s%2Fg%2F11r8mrpg5!19sChIJyUt-uyWPsUcRYlfo2MwTaFw?authuser=0&hl=tr&rclk=1",
    "website_url": "",
    "rating_text": "4,9",
    "stars": null,
    "number_of_reviews": null,
    "price_level": "",
    "open_hours": "",
    "extraction_timestamp": "2025-06-07T15:19:32.982Z",
    "source_name": "google",
    "source_query": "Irrigation Equipment",
    "source_country": "DE",
    "country": "Germany",
    "state": "Hamburg",
    "city": "Fuhlsbüttel"
  },
  {
    "source_id": "ChIJWxfdmWWJsUcRKJ3HS1pTfCQ",
    "name": "DECATHLON Hamburg-Langenhorn",
    "category": "DECATHLON Hamburg-Langenhorn",
    "formatted_address": "4,3(237)",
    "phone_number": "+49405079722010",
    "source_url": "https://www.google.com/maps/place/DECATHLON+Hamburg-Langenhorn/data=!4m7!3m6!1s0x47b1896599dd175b:0x247c535a4bc79d28!8m2!3d53.649217!4d10.0140898!16s%2Fg%2F11fv4lw8t0!19sChIJWxfdmWWJsUcRKJ3HS1pTfCQ?authuser=0&hl=tr&rclk=1",
    "website_url": "",
    "rating_text": "4,3",
    "stars": null,
    "number_of_reviews": null,
    "price_level": "",
    "open_hours": "",
    "extraction_timestamp": "2025-06-07T15:19:32.982Z",
    "source_name": "google",
    "source_query": "Irrigation Equipment",
    "source_country": "DE",
    "country": "Germany",
    "state": "Hamburg",
    "city": "Fuhlsbüttel"
  },
  {
    "source_id": "ChIJQ3ldYuKIsUcR3CX3Od3wjIA",
    "name": "Alster",
    "category": "Alster",
    "formatted_address": "4,8(520)",
    "phone_number": "",
    "source_url": "https://www.google.com/maps/place/Alster/data=!4m7!3m6!1s0x47b188e2625d7943:0x808cf0dd39f725dc!8m2!3d53.6210699!4d10.0279449!16zL20vMDR2MHRs!19sChIJQ3ldYuKIsUcR3CX3Od3wjIA?authuser=0&hl=tr&rclk=1",
    "website_url": "",
    "rating_text": "4,8",
    "stars": null,
    "number_of_reviews": null,
    "price_level": "",
    "open_hours": "",
    "extraction_timestamp": "2025-06-07T15:19:32.983Z",
    "source_name": "google",
    "source_query": "Irrigation Equipment",
    "source_country": "DE",
    "country": "Germany",
    "state": "Hamburg",
    "city": "Fuhlsbüttel"
  },
  {
    "source_id": "ChIJbSNxPqyHsUcRpm7Sz30gh3s",
    "name": "budni - Erdkampsweg",
    "category": "budni - Erdkampsweg",
    "formatted_address": "4,2(31)",
    "phone_number": "+494080603030",
    "source_url": "https://www.google.com/maps/place/budni+-+Erdkampsweg/data=!4m7!3m6!1s0x47b187ac3e71236d:0x7b87207dcfd26ea6!8m2!3d53.6292416!4d10.0227569!16s%2Fg%2F1ptvvp4nc!19sChIJbSNxPqyHsUcRpm7Sz30gh3s?authuser=0&hl=tr&rclk=1",
    "website_url": "",
    "rating_text": "4,2",
    "stars": null,
    "number_of_reviews": null,
    "price_level": "",
    "open_hours": "",
    "extraction_timestamp": "2025-06-07T15:19:32.984Z",
    "source_name": "google",
    "source_query": "Irrigation Equipment",
    "source_country": "DE",
    "country": "Germany",
    "state": "Hamburg",
    "city": "Fuhlsbüttel"
  },
  {
    "source_id": "ChIJV6bPHGSIsUcRJFgnHDMmRnM",
    "name": "Hamburg Havalimanı",
    "category": "Hamburg Havalimanı",
    "formatted_address": "3,7(21.292)",
    "phone_number": "+49212923",
    "source_url": "https://www.google.com/maps/place/Hamburg+Havaliman%C4%B1/data=!4m7!3m6!1s0x47b188641ccfa657:0x734626331c275824!8m2!3d53.6318994!4d9.9957995!16zL20vMDNuNGc2!19sChIJV6bPHGSIsUcRJFgnHDMmRnM?authuser=0&hl=tr&rclk=1",
    "website_url": "",
    "rating_text": "3,7",
    "stars": null,
    "number_of_reviews": null,
    "price_level": "",
    "open_hours": "",
    "extraction_timestamp": "2025-06-07T15:19:32.985Z",
    "source_name": "google",
    "source_query": "Irrigation Equipment",
    "source_country": "DE",
    "country": "Germany",
    "state": "Hamburg",
    "city": "Fuhlsbüttel"
  },
  {
    "source_id": "ChIJl025cTmIsUcRep1KoB5a3vI",
    "name": "Kaya Markt GmbH",
    "category": "Kaya Markt GmbH",
    "formatted_address": "4,3(124)",
    "phone_number": "+494053320192",
    "source_url": "https://www.google.com/maps/place/Kaya+Markt+GmbH/data=!4m7!3m6!1s0x47b1883971b94d97:0xf2de5a1ea04a9d7a!8m2!3d53.6485582!4d10.0165037!16s%2Fg%2F1tmz5_b1!19sChIJl025cTmIsUcRep1KoB5a3vI?authuser=0&hl=tr&rclk=1",
    "website_url": "",
    "rating_text": "4,3",
    "stars": null,
    "number_of_reviews": null,
    "price_level": "",
    "open_hours": "",
    "extraction_timestamp": "2025-06-07T15:19:32.986Z",
    "source_name": "google",
    "source_query": "Irrigation Equipment",
    "source_country": "DE",
    "country": "Germany",
    "state": "Hamburg",
    "city": "Fuhlsbüttel"
  },
  {
    "source_id": "ChIJXy9-DRaJsUcRLL-gWDwhpEY",
    "name": "C&P Aquaplants",
    "category": "C&P Aquaplants",
    "formatted_address": "4,4(5)",
    "phone_number": "+494084306403",
    "source_url": "https://www.google.com/maps/place/C%26P+Aquaplants/data=!4m7!3m6!1s0x47b189160d7e2f5f:0x46a4213c58a0bf2c!8m2!3d53.6004973!4d10.038029!16s%2Fg%2F11vxxr_60x!19sChIJXy9-DRaJsUcRLL-gWDwhpEY?authuser=0&hl=tr&rclk=1",
    "website_url": "",
    "rating_text": "4,4",
    "stars": null,
    "number_of_reviews": null,
    "price_level": "",
    "open_hours": "",
    "extraction_timestamp": "2025-06-07T15:19:32.987Z",
    "source_name": "google",
    "source_query": "Irrigation Equipment",
    "source_country": "DE",
    "country": "Germany",
    "state": "Hamburg",
    "city": "Fuhlsbüttel"
  },
  {
    "source_id": "ChIJixz8c2zzsUcRvWDIvRaRRaY",
    "name": "ABS Bewässerungssysteme",
    "category": "ABS Bewässerungssysteme",
    "formatted_address": "5,0(10)",
    "phone_number": "+494020963222",
    "source_url": "https://www.google.com/maps/place/ABS+Bew%C3%A4sserungssysteme/data=!4m7!3m6!1s0x47b1f36c73fc1c8b:0xa6459116bdc860bd!8m2!3d53.4851575!4d10.1899135!16s%2Fg%2F11pwpgyn7x!19sChIJixz8c2zzsUcRvWDIvRaRRaY?authuser=0&hl=tr&rclk=1",
    "website_url": "",
    "rating_text": "5,0",
    "stars": null,
    "number_of_reviews": null,
    "price_level": "",
    "open_hours": "",
    "extraction_timestamp": "2025-06-07T15:19:32.987Z",
    "source_name": "google",
    "source_query": "Irrigation Equipment",
    "source_country": "DE",
    "country": "Germany",
    "state": "Hamburg",
    "city": "Fuhlsbüttel"
  },
  {
    "source_id": "ChIJa-iVVC6JsUcR5pSi_q57Jto",
    "name": "Klempner Hamburg-Nord | KORBUS Haus- und Sanitärtechnik",
    "category": "Klempner Hamburg-Nord | KORBUS Haus- und Sanitärtechnik",
    "formatted_address": "5,0(1)",
    "phone_number": "+4917621607956",
    "source_url": "https://www.google.com/maps/place/Klempner+Hamburg-Nord+%7C+KORBUS+Haus-+und+Sanit%C3%A4rtechnik/data=!4m7!3m6!1s0x47b1892e5495e86b:0xda267baefea294e6!8m2!3d53.633004!4d10.0238511!16s%2Fg%2F11kjjqpjhs!19sChIJa-iVVC6JsUcR5pSi_q57Jto?authuser=0&hl=tr&rclk=1",
    "website_url": "",
    "rating_text": "5,0",
    "stars": null,
    "number_of_reviews": null,
    "price_level": "",
    "open_hours": "",
    "extraction_timestamp": "2025-06-07T15:19:32.988Z",
    "source_name": "google",
    "source_query": "Irrigation Equipment",
    "source_country": "DE",
    "country": "Germany",
    "state": "Hamburg",
    "city": "Fuhlsbüttel"
  },
  {
    "source_id": "ChIJ26PHn7WJsUcRPAP3Pq3KeBI",
    "name": "Oasis Getränkemarkt",
    "category": "Oasis Getränkemarkt",
    "formatted_address": "4,7(103)",
    "phone_number": "+49405386967",
    "source_url": "https://www.google.com/maps/place/Oasis+Getr%C3%A4nkemarkt/data=!4m7!3m6!1s0x47b189b59fc7a3db:0x1278caad3ef7033c!8m2!3d53.6407215!4d10.0374116!16s%2Fg%2F1ts3k84x!19sChIJ26PHn7WJsUcRPAP3Pq3KeBI?authuser=0&hl=tr&rclk=1",
    "website_url": "",
    "rating_text": "4,7",
    "stars": null,
    "number_of_reviews": null,
    "price_level": "",
    "open_hours": "",
    "extraction_timestamp": "2025-06-07T15:19:32.989Z",
    "source_name": "google",
    "source_query": "Irrigation Equipment",
    "source_country": "DE",
    "country": "Germany",
    "state": "Hamburg",
    "city": "Fuhlsbüttel"
  },
  {
    "source_id": "ChIJs2IvhgqJsUcRaNsl0bh7-8Q",
    "name": "Sup Port Hamburg",
    "category": "Sup Port Hamburg",
    "formatted_address": "5,0(2)",
    "phone_number": "+491745647224",
    "source_url": "https://www.google.com/maps/place/Sup+Port+Hamburg/data=!4m7!3m6!1s0x47b1890a862f62b3:0xc4fb7bb8d125db68!8m2!3d53.6193144!4d10.0276205!16s%2Fg%2F11ng59nsb5!19sChIJs2IvhgqJsUcRaNsl0bh7-8Q?authuser=0&hl=tr&rclk=1",
    "website_url": "",
    "rating_text": "5,0",
    "stars": null,
    "number_of_reviews": null,
    "price_level": "",
    "open_hours": "",
    "extraction_timestamp": "2025-06-07T15:19:32.989Z",
    "source_name": "google",
    "source_query": "Irrigation Equipment",
    "source_country": "DE",
    "country": "Germany",
    "state": "Hamburg",
    "city": "Fuhlsbüttel"
  },
  {
    "source_id": "ChIJvwZQlbGNsUcR_myaBWJAQgM",
    "name": "Penning Sanitärhandel GmbH & Co. KG",
    "category": "Penning Sanitärhandel GmbH & Co. KG",
    "formatted_address": "3,5(107)",
    "phone_number": "+49407360600",
    "source_url": "https://www.google.com/maps/place/Penning+Sanit%C3%A4rhandel+GmbH+%26+Co.+KG/data=!4m7!3m6!1s0x47b18db1955006bf:0x3424062059a6cfe!8m2!3d53.5209608!4d10.0928481!16s%2Fg%2F1td16x6w!19sChIJvwZQlbGNsUcR_myaBWJAQgM?authuser=0&hl=tr&rclk=1",
    "website_url": "",
    "rating_text": "3,5",
    "stars": null,
    "number_of_reviews": null,
    "price_level": "",
    "open_hours": "",
    "extraction_timestamp": "2025-06-07T15:19:32.990Z",
    "source_name": "google",
    "source_query": "Irrigation Equipment",
    "source_country": "DE",
    "country": "Germany",
    "state": "Hamburg",
    "city": "Fuhlsbüttel"
  },
  {
    "source_id": "ChIJkT2vkRqMsUcRQwSvaHxKkYQ",
    "name": "The BIOFILMKILLER",
    "category": "The BIOFILMKILLER",
    "formatted_address": "",
    "phone_number": "+4915167638771",
    "source_url": "https://www.google.com/maps/place/The+BIOFILMKILLER/data=!4m7!3m6!1s0x47b18c1a91af3d91:0x84914a7c68af0443!8m2!3d53.5598497!4d10.0784309!16s%2Fg%2F11cs32py4x!19sChIJkT2vkRqMsUcRQwSvaHxKkYQ?authuser=0&hl=tr&rclk=1",
    "website_url": "",
    "rating_text": "",
    "stars": null,
    "number_of_reviews": null,
    "price_level": "",
    "open_hours": "",
    "extraction_timestamp": "2025-06-07T15:19:32.991Z",
    "source_name": "google",
    "source_query": "Irrigation Equipment",
    "source_country": "DE",
    "country": "Germany",
    "state": "Hamburg",
    "city": "Fuhlsbüttel"
  },
  {
    "source_id": "ChIJ14zOTX2GsUcRLIdMEJrqVK8",
    "name": "Atlas Hamburg GmbH",
    "category": "Atlas Hamburg GmbH",
    "formatted_address": "4,8(62)",
    "phone_number": "+49408405420",
    "source_url": "https://www.google.com/maps/place/Atlas+Hamburg+GmbH/data=!4m7!3m6!1s0x47b1867d4dce8cd7:0xaf54ea9a104c872c!8m2!3d53.5986621!4d9.8982821!16s%2Fg%2F1tgdmm9_!19sChIJ14zOTX2GsUcRLIdMEJrqVK8?authuser=0&hl=tr&rclk=1",
    "website_url": "",
    "rating_text": "4,8",
    "stars": null,
    "number_of_reviews": null,
    "price_level": "",
    "open_hours": "",
    "extraction_timestamp": "2025-06-07T15:19:32.992Z",
    "source_name": "google",
    "source_query": "Irrigation Equipment",
    "source_country": "DE",
    "country": "Germany",
    "state": "Hamburg",
    "city": "Fuhlsbüttel"
  },
  {
    "source_id": "ChIJu-g2n-WIsUcRBeIBVUNa9Es",
    "name": "F.W.M. Schorbach KG (GmbH & Co.)",
    "category": "F.W.M. Schorbach KG (GmbH & Co.)",
    "formatted_address": "4,5(16)",
    "phone_number": "+4940511290",
    "source_url": "https://www.google.com/maps/place/F.W.M.+Schorbach+KG+%28GmbH+%26+Co.%29/data=!4m7!3m6!1s0x47b188e59f36e8bb:0x4bf45a435501e205!8m2!3d53.6086909!4d10.0079014!16s%2Fg%2F1thlm3tw!19sChIJu-g2n-WIsUcRBeIBVUNa9Es?authuser=0&hl=tr&rclk=1",
    "website_url": "",
    "rating_text": "4,5",
    "stars": null,
    "number_of_reviews": null,
    "price_level": "",
    "open_hours": "",
    "extraction_timestamp": "2025-06-07T15:19:32.993Z",
    "source_name": "google",
    "source_query": "Irrigation Equipment",
    "source_country": "DE",
    "country": "Germany",
    "state": "Hamburg",
    "city": "Fuhlsbüttel"
  },
  {
    "source_id": "ChIJ-axr2lKNsUcRRBHroelOOfM",
    "name": "abfluss ass dröge GmbH & Co KG / Rohrreinigung / Dichtheitsprüfung / Notdienst",
    "category": "abfluss ass dröge GmbH & Co KG / Rohrreinigung / Dichtheitsprüfung / Notdienst",
    "formatted_address": "5,0(23)",
    "phone_number": "+49406887157024",
    "source_url": "https://www.google.com/maps/place/abfluss+ass+dr%C3%B6ge+GmbH+%26+Co+KG+%2F+Rohrreinigung+%2F+Dichtheitspr%C3%BCfung+%2F+Notdienst/data=!4m7!3m6!1s0x47b18d52da6bacf9:0xf3394ee9a1eb1144!8m2!3d53.5321834!4d10.095701!16s%2Fg%2F11sk94kmdr!19sChIJ-axr2lKNsUcRRBHroelOOfM?authuser=0&hl=tr&rclk=1",
    "website_url": "",
    "rating_text": "5,0",
    "stars": null,
    "number_of_reviews": null,
    "price_level": "",
    "open_hours": "",
    "extraction_timestamp": "2025-06-07T15:19:32.993Z",
    "source_name": "google",
    "source_query": "Irrigation Equipment",
    "source_country": "DE",
    "country": "Germany",
    "state": "Hamburg",
    "city": "Fuhlsbüttel"
  },
  {
    "source_id": "ChIJxRsusICFsUcRK41Scd5s5dI",
    "name": "Sanitärservice Tramdovskis e. K.",
    "category": "Sanitärservice Tramdovskis e. K.",
    "formatted_address": "4,7(20)",
    "phone_number": "+494063663960",
    "source_url": "https://www.google.com/maps/place/Sanit%C3%A4rservice+Tramdovskis+e.+K./data=!4m7!3m6!1s0x47b18580b02e1bc5:0xd2e56cde71528d2b!8m2!3d53.6615615!4d10.0077917!16s%2Fg%2F11b6dqrwhn!19sChIJxRsusICFsUcRK41Scd5s5dI?authuser=0&hl=tr&rclk=1",
    "website_url": "",
    "rating_text": "4,7",
    "stars": null,
    "number_of_reviews": null,
    "price_level": "",
    "open_hours": "",
    "extraction_timestamp": "2025-06-07T15:19:32.994Z",
    "source_name": "google",
    "source_query": "Irrigation Equipment",
    "source_country": "DE",
    "country": "Germany",
    "state": "Hamburg",
    "city": "Fuhlsbüttel"
  },
  {
    "source_id": "ChIJF9FeYIaNsUcRpP_8PxfTevg",
    "name": "Klempner hamburg - Hamwihausservice",
    "category": "Klempner hamburg - Hamwihausservice",
    "formatted_address": "5,0(24)",
    "phone_number": "+4915781049986",
    "source_url": "https://www.google.com/maps/place/Klempner+hamburg+-+Hamwihausservice/data=!4m7!3m6!1s0x47b18d86605ed117:0xf87ad3173ffcffa4!8m2!3d53.5501235!4d10.0644252!16s%2Fg%2F11y27jl8d4!19sChIJF9FeYIaNsUcRpP_8PxfTevg?authuser=0&hl=tr&rclk=1",
    "website_url": "",
    "rating_text": "5,0",
    "stars": null,
    "number_of_reviews": null,
    "price_level": "",
    "open_hours": "",
    "extraction_timestamp": "2025-06-07T15:19:32.995Z",
    "source_name": "google",
    "source_query": "Irrigation Equipment",
    "source_country": "DE",
    "country": "Germany",
    "state": "Hamburg",
    "city": "Fuhlsbüttel"
  },
  {
    "source_id": "ChIJs8T9XuK6Y0EROu0xZg50keg",
    "name": "Jürgen Tiedtke Heizungs- und Lüftungstechnik GmbH",
    "category": "Jürgen Tiedtke Heizungs- und Lüftungstechnik GmbH",
    "formatted_address": "4,6(41)",
    "phone_number": "+494064221138",
    "source_url": "https://www.google.com/maps/place/J%C3%BCrgen+Tiedtke+Heizungs-+und+L%C3%BCftungstechnik+GmbH/data=!4m7!3m6!1s0x4163bae25efdc4b3:0xe891740e6631ed3a!8m2!3d53.5976271!4d10.0736547!16s%2Fg%2F1vrq8pzh!19sChIJs8T9XuK6Y0EROu0xZg50keg?authuser=0&hl=tr&rclk=1",
    "website_url": "",
    "rating_text": "4,6",
    "stars": null,
    "number_of_reviews": null,
    "price_level": "",
    "open_hours": "",
    "extraction_timestamp": "2025-06-07T15:19:32.996Z",
    "source_name": "google",
    "source_query": "Irrigation Equipment",
    "source_country": "DE",
    "country": "Germany",
    "state": "Hamburg",
    "city": "Fuhlsbüttel"
  },
  {
    "source_id": "ChIJY24_2eOOsUcRlgh309VEt8M",
    "name": "MediaMarkt Tech Village Hamburg",
    "category": "MediaMarkt Tech Village Hamburg",
    "formatted_address": "4,2(23.660)",
    "phone_number": "+49236604",
    "source_url": "https://www.google.com/maps/place/MediaMarkt+Tech+Village+Hamburg/data=!4m7!3m6!1s0x47b18ee3d93f6e63:0xc3b744d5d3770896!8m2!3d53.5511444!4d10.0056203!16s%2Fg%2F1tdrdf7v!19sChIJY24_2eOOsUcRlgh309VEt8M?authuser=0&hl=tr&rclk=1",
    "website_url": "",
    "rating_text": "4,2",
    "stars": null,
    "number_of_reviews": null,
    "price_level": "",
    "open_hours": "",
    "extraction_timestamp": "2025-06-07T15:19:32.997Z",
    "source_name": "google",
    "source_query": "Irrigation Equipment",
    "source_country": "DE",
    "country": "Germany",
    "state": "Hamburg",
    "city": "Fuhlsbüttel"
  }
]
