[
  {
    "source_id": "ChIJQXXWsB2PsUcRUhObAMu8wuE",
    "name": "SportScheck",
    "category": "SportScheck",
    "formatted_address": "3,9(3.530)",
    "phone_number": "+4935303",
    "source_url": "https://www.google.com/maps/place/SportScheck/data=!4m7!3m6!1s0x47b18f1db0d67541:0xe1c2bccb009b1352!8m2!3d53.5508445!4d9.9963504!16s%2Fg%2F1tdlgbnc!19sChIJQXXWsB2PsUcRUhObAMu8wuE?authuser=0&hl=tr&rclk=1",
    "website_url": "",
    "rating_text": "3,9",
    "stars": null,
    "number_of_reviews": null,
    "price_level": "",
    "open_hours": "",
    "extraction_timestamp": "2025-06-07T15:21:12.517Z",
    "source_name": "google",
    "source_query": "Irrigation Equipment",
    "source_country": "DE",
    "country": "Germany",
    "state": "Hamburg",
    "city": "Hamburg-Altstadt"
  },
  {
    "source_id": "ChIJVVVl1B-PsUcRe0sT8uYkNPU",
    "name": "TurfPro GmbH",
    "category": "TurfPro GmbH",
    "formatted_address": "4,3(16)",
    "phone_number": "+494084895219",
    "source_url": "https://www.google.com/maps/place/TurfPro+GmbH/data=!4m7!3m6!1s0x47b18f1fd4655555:0xf53424e6f2134b7b!8m2!3d53.5551215!4d10.00104!16s%2Fg%2F11g1f90l5g!19sChIJVVVl1B-PsUcRe0sT8uYkNPU?authuser=0&hl=tr&rclk=1",
    "website_url": "",
    "rating_text": "4,3",
    "stars": null,
    "number_of_reviews": null,
    "price_level": "",
    "open_hours": "",
    "extraction_timestamp": "2025-06-07T15:21:12.517Z",
    "source_name": "google",
    "source_query": "Irrigation Equipment",
    "source_country": "DE",
    "country": "Germany",
    "state": "Hamburg",
    "city": "Hamburg-Altstadt"
  },
  {
    "source_id": "ChIJY24_2eOOsUcRlgh309VEt8M",
    "name": "MediaMarkt Tech Village Hamburg",
    "category": "MediaMarkt Tech Village Hamburg",
    "formatted_address": "4,2(23.660)",
    "phone_number": "+49236604",
    "source_url": "https://www.google.com/maps/place/MediaMarkt+Tech+Village+Hamburg/data=!4m7!3m6!1s0x47b18ee3d93f6e63:0xc3b744d5d3770896!8m2!3d53.5511444!4d10.0056203!16s%2Fg%2F1tdrdf7v!19sChIJY24_2eOOsUcRlgh309VEt8M?authuser=0&hl=tr&rclk=1",
    "website_url": "",
    "rating_text": "4,2",
    "stars": null,
    "number_of_reviews": null,
    "price_level": "",
    "open_hours": "",
    "extraction_timestamp": "2025-06-07T15:21:12.519Z",
    "source_name": "google",
    "source_query": "Irrigation Equipment",
    "source_country": "DE",
    "country": "Germany",
    "state": "Hamburg",
    "city": "Hamburg-Altstadt"
  },
  {
    "source_id": "ChIJWaJSZnCPsUcR_AiDFHvYHnQ",
    "name": "NOHrD & WaterRower - Brand Store Hamburg",
    "category": "NOHrD & WaterRower - Brand Store Hamburg",
    "formatted_address": "4,9(8)",
    "phone_number": "+4940537995020",
    "source_url": "https://www.google.com/maps/place/NOHrD+%26+WaterRower+-+Brand+Store+Hamburg/data=!4m7!3m6!1s0x47b18f706652a259:0x741ed87b148308fc!8m2!3d53.5538788!4d10.0029015!16s%2Fg%2F11k6zrt_yc!19sChIJWaJSZnCPsUcR_AiDFHvYHnQ?authuser=0&hl=tr&rclk=1",
    "website_url": "",
    "rating_text": "4,9",
    "stars": null,
    "number_of_reviews": null,
    "price_level": "",
    "open_hours": "",
    "extraction_timestamp": "2025-06-07T15:21:12.519Z",
    "source_name": "google",
    "source_query": "Irrigation Equipment",
    "source_country": "DE",
    "country": "Germany",
    "state": "Hamburg",
    "city": "Hamburg-Altstadt"
  },
  {
    "source_id": "ChIJFWShvx2PsUcR8kiThIgVBhU",
    "name": "Galeria",
    "category": "Galeria",
    "formatted_address": "4,2(11.527)",
    "phone_number": "+49115274",
    "source_url": "https://www.google.com/maps/place/Galeria/data=!4m7!3m6!1s0x47b18f1dbfa16415:0x15061588849348f2!8m2!3d53.5509704!4d9.9981626!16s%2Fg%2F1td_xnhl!19sChIJFWShvx2PsUcR8kiThIgVBhU?authuser=0&hl=tr&rclk=1",
    "website_url": "",
    "rating_text": "4,2",
    "stars": null,
    "number_of_reviews": null,
    "price_level": "",
    "open_hours": "",
    "extraction_timestamp": "2025-06-07T15:21:12.520Z",
    "source_name": "google",
    "source_query": "Irrigation Equipment",
    "source_country": "DE",
    "country": "Germany",
    "state": "Hamburg",
    "city": "Hamburg-Altstadt"
  },
  {
    "source_id": "ChIJ4R34GoKPsUcR_Di8Y72u1Q4",
    "name": "AN-Beregnungstechnik",
    "category": "AN-Beregnungstechnik",
    "formatted_address": "",
    "phone_number": "+4917673517226",
    "source_url": "https://www.google.com/maps/place/AN-Beregnungstechnik/data=!4m7!3m6!1s0x47b18f821af81de1:0xed5aebd63bc38fc!8m2!3d53.5576744!4d10.0112776!16s%2Fg%2F11x33m21xg!19sChIJ4R34GoKPsUcR_Di8Y72u1Q4?authuser=0&hl=tr&rclk=1",
    "website_url": "",
    "rating_text": "",
    "stars": null,
    "number_of_reviews": null,
    "price_level": "",
    "open_hours": "",
    "extraction_timestamp": "2025-06-07T15:21:12.521Z",
    "source_name": "google",
    "source_query": "Irrigation Equipment",
    "source_country": "DE",
    "country": "Germany",
    "state": "Hamburg",
    "city": "Hamburg-Altstadt"
  },
  {
    "source_id": "ChIJMx6O7uKOsUcRRaAxBIcMi1U",
    "name": "Manufactum Warenhaus",
    "category": "Manufactum Warenhaus",
    "formatted_address": "4,5(1.117)",
    "phone_number": "+4911174",
    "source_url": "https://www.google.com/maps/place/Manufactum+Warenhaus/data=!4m7!3m6!1s0x47b18ee2ee8e1e33:0x558b0c870431a045!8m2!3d53.5484527!4d10.0010223!16s%2Fg%2F1tj7d31s!19sChIJMx6O7uKOsUcRRaAxBIcMi1U?authuser=0&hl=tr&rclk=1",
    "website_url": "",
    "rating_text": "4,5",
    "stars": null,
    "number_of_reviews": null,
    "price_level": "",
    "open_hours": "",
    "extraction_timestamp": "2025-06-07T15:21:12.522Z",
    "source_name": "google",
    "source_query": "Irrigation Equipment",
    "source_country": "DE",
    "country": "Germany",
    "state": "Hamburg",
    "city": "Hamburg-Altstadt"
  },
  {
    "source_id": "ChIJq5g0ZQWPsUcReN_8zOnsI4o",
    "name": "Søstrene Grene",
    "category": "Søstrene Grene",
    "formatted_address": "4,6(132)",
    "phone_number": "",
    "source_url": "https://www.google.com/maps/place/S%C3%B8strene+Grene/data=!4m7!3m6!1s0x47b18f05653498ab:0x8a23ece9ccfcdf78!8m2!3d53.5515844!4d10.0006031!16s%2Fg%2F11p777f9kw!19sChIJq5g0ZQWPsUcReN_8zOnsI4o?authuser=0&hl=tr&rclk=1",
    "website_url": "",
    "rating_text": "4,6",
    "stars": null,
    "number_of_reviews": null,
    "price_level": "",
    "open_hours": "",
    "extraction_timestamp": "2025-06-07T15:21:12.522Z",
    "source_name": "google",
    "source_query": "Irrigation Equipment",
    "source_country": "DE",
    "country": "Germany",
    "state": "Hamburg",
    "city": "Hamburg-Altstadt"
  },
  {
    "source_id": "ChIJeVqs442FsUcR6syIB75ydFE",
    "name": "CALUMET Hamburg",
    "category": "CALUMET Hamburg",
    "formatted_address": "4,5(1.033)",
    "phone_number": "+4910334",
    "source_url": "https://www.google.com/maps/place/CALUMET+Hamburg/data=!4m7!3m6!1s0x47b1858de3ac5a79:0x517472be0788ccea!8m2!3d53.5475187!4d9.9859347!16s%2Fg%2F1td16x43!19sChIJeVqs442FsUcR6syIB75ydFE?authuser=0&hl=tr&rclk=1",
    "website_url": "",
    "rating_text": "4,5",
    "stars": null,
    "number_of_reviews": null,
    "price_level": "",
    "open_hours": "",
    "extraction_timestamp": "2025-06-07T15:21:12.523Z",
    "source_name": "google",
    "source_query": "Irrigation Equipment",
    "source_country": "DE",
    "country": "Germany",
    "state": "Hamburg",
    "city": "Hamburg-Altstadt"
  },
  {
    "source_id": "ChIJq6pq6x2PsUcRgL3RS-Dtnyg",
    "name": "go asia - Hamburg",
    "category": "go asia - Hamburg",
    "formatted_address": "4,4(1.642)",
    "phone_number": "+4916424",
    "source_url": "https://www.google.com/maps/place/go+asia+-+Hamburg/data=!4m7!3m6!1s0x47b18f1deb6aaaab:0x289fede04bd1bd80!8m2!3d53.5512755!4d9.9985353!16s%2Fg%2F11f4t_rl2v!19sChIJq6pq6x2PsUcRgL3RS-Dtnyg?authuser=0&hl=tr&rclk=1",
    "website_url": "",
    "rating_text": "4,4",
    "stars": null,
    "number_of_reviews": null,
    "price_level": "",
    "open_hours": "",
    "extraction_timestamp": "2025-06-07T15:21:12.524Z",
    "source_name": "google",
    "source_query": "Irrigation Equipment",
    "source_country": "DE",
    "country": "Germany",
    "state": "Hamburg",
    "city": "Hamburg-Altstadt"
  },
  {
    "source_id": "ChIJixz8c2zzsUcRvWDIvRaRRaY",
    "name": "ABS Bewässerungssysteme",
    "category": "ABS Bewässerungssysteme",
    "formatted_address": "5,0(10)",
    "phone_number": "+494020963222",
    "source_url": "https://www.google.com/maps/place/ABS+Bew%C3%A4sserungssysteme/data=!4m7!3m6!1s0x47b1f36c73fc1c8b:0xa6459116bdc860bd!8m2!3d53.4851575!4d10.1899135!16s%2Fg%2F11pwpgyn7x!19sChIJixz8c2zzsUcRvWDIvRaRRaY?authuser=0&hl=tr&rclk=1",
    "website_url": "",
    "rating_text": "5,0",
    "stars": null,
    "number_of_reviews": null,
    "price_level": "",
    "open_hours": "",
    "extraction_timestamp": "2025-06-07T15:21:12.525Z",
    "source_name": "google",
    "source_query": "Irrigation Equipment",
    "source_country": "DE",
    "country": "Germany",
    "state": "Hamburg",
    "city": "Hamburg-Altstadt"
  },
  {
    "source_id": "ChIJZxxtshuPsUcR6t66LRoaH-4",
    "name": "SHL Contracting Germany GmbH",
    "category": "SHL Contracting Germany GmbH",
    "formatted_address": "5,0(3)",
    "phone_number": "+491520541728024",
    "source_url": "https://www.google.com/maps/place/SHL+Contracting+Germany+GmbH/data=!4m7!3m6!1s0x47b18f1bb26d1c67:0xee1f1a1a2dbadeea!8m2!3d53.5504771!4d9.9883759!16s%2Fg%2F12lsfxbqn!19sChIJZxxtshuPsUcR6t66LRoaH-4?authuser=0&hl=tr&rclk=1",
    "website_url": "",
    "rating_text": "5,0",
    "stars": null,
    "number_of_reviews": null,
    "price_level": "",
    "open_hours": "",
    "extraction_timestamp": "2025-06-07T15:21:12.526Z",
    "source_name": "google",
    "source_query": "Irrigation Equipment",
    "source_country": "DE",
    "country": "Germany",
    "state": "Hamburg",
    "city": "Hamburg-Altstadt"
  },
  {
    "source_id": "ChIJSwlmMx2PsUcRzsvcuSXUK_c",
    "name": "Gröninger Privatbrauerei Hamburg",
    "category": "Gröninger Privatbrauerei Hamburg",
    "formatted_address": "4,1(1.615) · €20–30",
    "phone_number": "+491615",
    "source_url": "https://www.google.com/maps/place/Gr%C3%B6ninger+Privatbrauerei+Hamburg/data=!4m7!3m6!1s0x47b18f1d3366094b:0xf72bd425b9dccbce!8m2!3d53.547148!4d9.9962792!16s%2Fg%2F12301z1x!19sChIJSwlmMx2PsUcRzsvcuSXUK_c?authuser=0&hl=tr&rclk=1",
    "website_url": "",
    "rating_text": "4,1",
    "stars": null,
    "number_of_reviews": null,
    "price_level": "",
    "open_hours": "",
    "extraction_timestamp": "2025-06-07T15:21:12.527Z",
    "source_name": "google",
    "source_query": "Irrigation Equipment",
    "source_country": "DE",
    "country": "Germany",
    "state": "Hamburg",
    "city": "Hamburg-Altstadt"
  },
  {
    "source_id": "ChIJRbuh-h2PsUcRTe_EW11Rixk",
    "name": "Toysino Filiale Hamburg - vorher myToys",
    "category": "Toysino Filiale Hamburg - vorher myToys",
    "formatted_address": "4,1(552)",
    "phone_number": "+494076754570",
    "source_url": "https://www.google.com/maps/place/Toysino+Filiale+Hamburg+-+vorher+myToys/data=!4m7!3m6!1s0x47b18f1dfaa1bb45:0x198b515d5bc4ef4d!8m2!3d53.551598!4d9.9996635!16s%2Fg%2F11c5h5cfs2!19sChIJRbuh-h2PsUcRTe_EW11Rixk?authuser=0&hl=tr&rclk=1",
    "website_url": "",
    "rating_text": "4,1",
    "stars": null,
    "number_of_reviews": null,
    "price_level": "",
    "open_hours": "",
    "extraction_timestamp": "2025-06-07T15:21:12.527Z",
    "source_name": "google",
    "source_query": "Irrigation Equipment",
    "source_country": "DE",
    "country": "Germany",
    "state": "Hamburg",
    "city": "Hamburg-Altstadt"
  },
  {
    "source_id": "ChIJDYiB9uGOsUcRqMNsSgoaiuM",
    "name": "WonderWaffel Hamburg (City)",
    "category": "WonderWaffel Hamburg (City)",
    "formatted_address": "4,4(1.799) · ₺₺",
    "phone_number": "+491799",
    "source_url": "https://www.google.com/maps/place/WonderWaffel+Hamburg+%28City%29/data=!4m7!3m6!1s0x47b18ee1f681880d:0xe38a1a0a4a6cc3a8!8m2!3d53.5522834!4d10.0017121!16s%2Fg%2F11dflcrwzz!19sChIJDYiB9uGOsUcRqMNsSgoaiuM?authuser=0&hl=tr&rclk=1",
    "website_url": "",
    "rating_text": "4,4",
    "stars": null,
    "number_of_reviews": null,
    "price_level": "",
    "open_hours": "",
    "extraction_timestamp": "2025-06-07T15:21:12.528Z",
    "source_name": "google",
    "source_query": "Irrigation Equipment",
    "source_country": "DE",
    "country": "Germany",
    "state": "Hamburg",
    "city": "Hamburg-Altstadt"
  },
  {
    "source_id": "ChIJc8-YLhuPsUcRAerUB037aBs",
    "name": "Reformhaus Engelhardt",
    "category": "Reformhaus Engelhardt",
    "formatted_address": "4,5(19)",
    "phone_number": "+4940335995",
    "source_url": "https://www.google.com/maps/place/Reformhaus+Engelhardt/data=!4m7!3m6!1s0x47b18f1b2e98cf73:0x1b68fb4d07d4ea01!8m2!3d53.552!4d9.9995901!16s%2Fg%2F1tfbxj61!19sChIJc8-YLhuPsUcRAerUB037aBs?authuser=0&hl=tr&rclk=1",
    "website_url": "",
    "rating_text": "4,5",
    "stars": null,
    "number_of_reviews": null,
    "price_level": "",
    "open_hours": "",
    "extraction_timestamp": "2025-06-07T15:21:12.529Z",
    "source_name": "google",
    "source_query": "Irrigation Equipment",
    "source_country": "DE",
    "country": "Germany",
    "state": "Hamburg",
    "city": "Hamburg-Altstadt"
  },
  {
    "source_id": "ChIJ3ddvb3XrAYUR_EB2mfZ-YPc",
    "name": "ImmoDry Hamburg",
    "category": "ImmoDry Hamburg",
    "formatted_address": "4,9(31)",
    "phone_number": "+4915157209297",
    "source_url": "https://www.google.com/maps/place/ImmoDry+Hamburg/data=!4m7!3m6!1s0x8501eb756f6fd7dd:0xf7607ef6997640fc!8m2!3d53.5453399!4d9.992482!16s%2Fg%2F11rs02k0pv!19sChIJ3ddvb3XrAYUR_EB2mfZ-YPc?authuser=0&hl=tr&rclk=1",
    "website_url": "",
    "rating_text": "4,9",
    "stars": null,
    "number_of_reviews": null,
    "price_level": "",
    "open_hours": "",
    "extraction_timestamp": "2025-06-07T15:21:12.530Z",
    "source_name": "google",
    "source_query": "Irrigation Equipment",
    "source_country": "DE",
    "country": "Germany",
    "state": "Hamburg",
    "city": "Hamburg-Altstadt"
  },
  {
    "source_id": "ChIJHZq_x9-OsUcRnZNntxQFkYE",
    "name": "barca - on the Alster",
    "category": "barca - on the Alster",
    "formatted_address": "4,6(1.281)",
    "phone_number": "+4912814",
    "source_url": "https://www.google.com/maps/place/barca+-+on+the+Alster/data=!4m7!3m6!1s0x47b18edfc7bf9a1d:0x81910514b767939d!8m2!3d53.5585426!4d10.0054522!16s%2Fg%2F1tgr__cz!19sChIJHZq_x9-OsUcRnZNntxQFkYE?authuser=0&hl=tr&rclk=1",
    "website_url": "",
    "rating_text": "4,6",
    "stars": null,
    "number_of_reviews": null,
    "price_level": "",
    "open_hours": "",
    "extraction_timestamp": "2025-06-07T15:21:12.531Z",
    "source_name": "google",
    "source_query": "Irrigation Equipment",
    "source_country": "DE",
    "country": "Germany",
    "state": "Hamburg",
    "city": "Hamburg-Altstadt"
  },
  {
    "source_id": "ChIJQWWRGR6PsUcRskkHbiI4-NI",
    "name": "klar Getränke GmbH",
    "category": "klar Getränke GmbH",
    "formatted_address": "2,4(27)",
    "phone_number": "",
    "source_url": "https://www.google.com/maps/place/klar+Getr%C3%A4nke+GmbH/data=!4m7!3m6!1s0x47b18f1e19916541:0xd2f838226e0749b2!8m2!3d53.5533438!4d10.0000042!16s%2Fg%2F11d_trx_ss!19sChIJQWWRGR6PsUcRskkHbiI4-NI?authuser=0&hl=tr&rclk=1",
    "website_url": "",
    "rating_text": "2,4",
    "stars": null,
    "number_of_reviews": null,
    "price_level": "",
    "open_hours": "",
    "extraction_timestamp": "2025-06-07T15:21:12.531Z",
    "source_name": "google",
    "source_query": "Irrigation Equipment",
    "source_country": "DE",
    "country": "Germany",
    "state": "Hamburg",
    "city": "Hamburg-Altstadt"
  },
  {
    "source_id": "ChIJ15llyOOOsUcREnFVQ6RhM8c",
    "name": "Yuan Ye Europa Handels GmbH",
    "category": "Yuan Ye Europa Handels GmbH",
    "formatted_address": "4,5(1.359)",
    "phone_number": "+4913594",
    "source_url": "https://www.google.com/maps/place/Yuan+Ye+Europa+Handels+GmbH/data=!4m7!3m6!1s0x47b18ee3c86599d7:0xc73361a443557112!8m2!3d53.5505556!4d10.0044444!16s%2Fg%2F1tf9rwqp!19sChIJ15llyOOOsUcREnFVQ6RhM8c?authuser=0&hl=tr&rclk=1",
    "website_url": "",
    "rating_text": "4,5",
    "stars": null,
    "number_of_reviews": null,
    "price_level": "",
    "open_hours": "",
    "extraction_timestamp": "2025-06-07T15:21:12.532Z",
    "source_name": "google",
    "source_query": "Irrigation Equipment",
    "source_country": "DE",
    "country": "Germany",
    "state": "Hamburg",
    "city": "Hamburg-Altstadt"
  },
  {
    "source_id": "ChIJH1BHtCuPsUcRiBY3vIZfXRo",
    "name": "GGM Gastro Hamburg",
    "category": "GGM Gastro Hamburg",
    "formatted_address": "5,0(53)",
    "phone_number": "+49255372200",
    "source_url": "https://www.google.com/maps/place/GGM+Gastro+Hamburg/data=!4m7!3m6!1s0x47b18f2bb447501f:0x1a5d5f86bc371688!8m2!3d53.5468971!4d10.0258293!16s%2Fg%2F11rb4362qr!19sChIJH1BHtCuPsUcRiBY3vIZfXRo?authuser=0&hl=tr&rclk=1",
    "website_url": "",
    "rating_text": "5,0",
    "stars": null,
    "number_of_reviews": null,
    "price_level": "",
    "open_hours": "",
    "extraction_timestamp": "2025-06-07T15:21:12.533Z",
    "source_name": "google",
    "source_query": "Irrigation Equipment",
    "source_country": "DE",
    "country": "Germany",
    "state": "Hamburg",
    "city": "Hamburg-Altstadt"
  },
  {
    "source_id": "ChIJv3EnkRGPsUcR2063k2uniws",
    "name": "Mezedes",
    "category": "Mezedes",
    "formatted_address": "4,8(1.808) · €30–40",
    "phone_number": "+491808",
    "source_url": "https://www.google.com/maps/place/Mezedes/data=!4m7!3m6!1s0x47b18f11912771bf:0xb8ba76b93b74edb!8m2!3d53.5502179!4d9.980935!16s%2Fg%2F11ngss3254!19sChIJv3EnkRGPsUcR2063k2uniws?authuser=0&hl=tr&rclk=1",
    "website_url": "",
    "rating_text": "4,8",
    "stars": null,
    "number_of_reviews": null,
    "price_level": "",
    "open_hours": "",
    "extraction_timestamp": "2025-06-07T15:21:12.534Z",
    "source_name": "google",
    "source_query": "Irrigation Equipment",
    "source_country": "DE",
    "country": "Germany",
    "state": "Hamburg",
    "city": "Hamburg-Altstadt"
  },
  {
    "source_id": "ChIJHeBGIoGPsUcRnlW56vS4X-s",
    "name": "Bootshaus Alster GmbH",
    "category": "Bootshaus Alster GmbH",
    "formatted_address": "4,7(336) · €100+",
    "phone_number": "+491625141414",
    "source_url": "https://www.google.com/maps/place/Bootshaus+Alster+GmbH/data=!4m7!3m6!1s0x47b18f812246e01d:0xeb5fb8f4eab9559e!8m2!3d53.5532951!4d9.9965448!16s%2Fg%2F11rn7jl1r3!19sChIJHeBGIoGPsUcRnlW56vS4X-s?authuser=0&hl=tr&rclk=1",
    "website_url": "",
    "rating_text": "4,7",
    "stars": null,
    "number_of_reviews": null,
    "price_level": "",
    "open_hours": "",
    "extraction_timestamp": "2025-06-07T15:21:12.535Z",
    "source_name": "google",
    "source_query": "Irrigation Equipment",
    "source_country": "DE",
    "country": "Germany",
    "state": "Hamburg",
    "city": "Hamburg-Altstadt"
  },
  {
    "source_id": "ChIJQXYpiRyPsUcRItnu7tasoB4",
    "name": "Daniel Wischer",
    "category": "Daniel Wischer",
    "formatted_address": "4,5(4.601) · €20–30",
    "phone_number": "+4946014",
    "source_url": "https://www.google.com/maps/place/Daniel+Wischer/data=!4m7!3m6!1s0x47b18f1c89297641:0x1ea0acd6eeeed922!8m2!3d53.549796!4d9.9931443!16s%2Fg%2F1tfkptds!19sChIJQXYpiRyPsUcRItnu7tasoB4?authuser=0&hl=tr&rclk=1",
    "website_url": "",
    "rating_text": "4,5",
    "stars": null,
    "number_of_reviews": null,
    "price_level": "",
    "open_hours": "",
    "extraction_timestamp": "2025-06-07T15:21:12.536Z",
    "source_name": "google",
    "source_query": "Irrigation Equipment",
    "source_country": "DE",
    "country": "Germany",
    "state": "Hamburg",
    "city": "Hamburg-Altstadt"
  },
  {
    "source_id": "ChIJ35OeBeOOsUcR2mIklYCeJu8",
    "name": "KÖRRI SPEISEKONTOR Hamburg",
    "category": "KÖRRI SPEISEKONTOR Hamburg",
    "formatted_address": "4,5(2.132) · €20–40",
    "phone_number": "+491324",
    "source_url": "https://www.google.com/maps/place/K%C3%96RRI+SPEISEKONTOR+Hamburg/data=!4m7!3m6!1s0x47b18ee3059e93df:0xef269e80952462da!8m2!3d53.548607!4d10.0039553!16s%2Fg%2F1tfjdlq2!19sChIJ35OeBeOOsUcR2mIklYCeJu8?authuser=0&hl=tr&rclk=1",
    "website_url": "",
    "rating_text": "4,5",
    "stars": null,
    "number_of_reviews": null,
    "price_level": "",
    "open_hours": "",
    "extraction_timestamp": "2025-06-07T15:21:12.538Z",
    "source_name": "google",
    "source_query": "Irrigation Equipment",
    "source_country": "DE",
    "country": "Germany",
    "state": "Hamburg",
    "city": "Hamburg-Altstadt"
  },
  {
    "source_id": "ChIundefined",
    "name": "KÖRRI SPEISEKONTOR Hamburg",
    "category": "KÖRRI SPEISEKONTOR Hamburg",
    "formatted_address": "4,5(2.132) · €20–40",
    "phone_number": "+491324",
    "source_url": "https://www.google.com/maps/reserve/v/dine/c/MrN86KWJvUo?source=pa&opi=79508299&hl=tr-TR&gei=41hEaM2IOsC69u8PsO3_4Ak&sourceurl=https://www.google.com/search?tbm%3Dmap%26authuser%3D0%26hl%3Dtr%26gl%3Dtr%26pb%3D!4m12!1m3!1d75904.36833986087!2d10.0879241!3d53.52185005!2m3!1f0!2f0!3f0!3m2!1i1366!2i768!4f13.1!7i20!8i20!10b1!12m37!1m5!18b1!30b1!31m1!1b1!34e1!2m3!5m1!6e2!20e3!6m12!49b1!63m0!66b1!74i150000!85b1!91b1!114b1!149b1!193b1!206b1!212b1!213b1!10b1!12b1!13b1!14b1!16b1!17m1!3e1!20m3!5e2!6b1!14b1!46m1!1b0!96b1!19m4!2m3!1i360!2i120!4i8!20m65!2m2!1i203!2i100!3m2!2i4!5b1!6m6!1m2!1i86!2i86!1m2!1i408!2i240!7m33!1m3!1e1!2b0!3e3!1m3!1e2!2b1!3e2!1m3!1e2!2b0!3e3!1m3!1e8!2b0!3e3!1m3!1e10!2b0!3e3!1m3!1e10!2b1!3e2!1m3!1e10!2b0!3e4!1m3!1e9!2b1!3e2!2b1!9b0!15m16!1m7!1m2!1m1!1e2!2m2!1i195!2i195!3i20!1m7!1m2!1m1!1e2!2m2!1i195!2i195!3i20!22m5!1s4FhEaMepPKaD9u8P6fS86Ac:34!2s1i:0,t:246204,p:4FhEaMepPKaD9u8P6fS86Ac:34!7e81!12e22!17s4FhEaMepPKaD9u8P6fS86Ac:35!24m107!1m29!13m9!2b1!3b1!4b1!6i1!8b1!9b1!14b1!20b1!25b1!18m18!3b1!4b1!5b1!6b1!13b1!14b1!17b1!21b1!22b1!25b1!27m1!1b0!28b0!32b1!33m1!1b1!34b1!36e2!10m1!8e3!11m1!3e1!14m1!3b0!17b1!20m2!1e3!1e6!24b1!25b1!26b1!27b1!29b1!30m1!2b1!36b1!37b1!39m3!2m2!2i1!3i1!43b1!52b1!55b1!56m1!1b1!61m2!1m1!1e1!65m5!3m4!1m3!1m2!1i224!2i298!72m22!1m8!2b1!5b1!7b1!12m4!1b1!2b1!4m1!1e1!4b1!8m10!1m6!4m1!1e1!4m1!1e3!4m1!1e4!3sother_user_google_review_posts__and__hotel_and_vr_partner_review_posts!6m1!1e1!9b1!89b1!98m3!1b1!2b1!3b1!103b1!113b1!114m3!1b1!2m1!1b1!117b1!122m1!1b1!125b0!126b1!127b1!26m4!2m3!1i80!2i92!4i8!30m28!1m6!1m2!1i0!2i0!2m2!1i530!2i768!1m6!1m2!1i1316!2i0!2m2!1i1366!2i768!1m6!1m2!1i0!2i0!2m2!1i1366!2i20!1m6!1m2!1i0!2i748!2m2!1i1366!2i768!34m19!2b1!3b1!4b1!6b1!8m6!1b1!3b1!4b1!5b1!6b1!7b1!9b1!12b1!14b1!20b1!23b1!25b1!26b1!31b1!37m1!1e81!42b1!46m1!1e10!47m0!49m10!3b1!6m2!1b1!2b1!7m2!1e3!2b1!8b1!9b1!10e2!50m25!1m21!2m7!1u3!4zxZ51IGFuZGEgYcOnxLFrIG9sYW5sYXI!5e1!9s0ahUKEwjHgb6pzt-NAxWmgf0HHWk6D30Q_KkBCAcoAg!10m2!3m1!1e1!2m7!1u2!4sEn%2B%25C3%25A7ok%2Boy%2Balanlar!5e1!9s0ahUKEwjHgb6pzt-NAxWmgf0HHWk6D30Q_KkBCAgoAw!10m2!2m1!1e1!3m1!1u2!3m1!1u3!4BIAE!2e2!3m1!3b1!59BQ2dBd0Fn!61b1!67m5!7b1!10b1!14b1!15m1!1b0!69i736%26q%3DIrrigation%2BEquipment%2Bnear%2BHamburg-Altstadt%2BHamburg%2BGermany%26ech%3D1%26psi%3D4FhEaMepPKaD9u8P6fS86Ac.1749309664950.1",
    "website_url": "",
    "rating_text": "4,5",
    "stars": null,
    "number_of_reviews": null,
    "price_level": "",
    "open_hours": "",
    "extraction_timestamp": "2025-06-07T15:21:12.539Z",
    "source_name": "google",
    "source_query": "Irrigation Equipment",
    "source_country": "DE",
    "country": "Germany",
    "state": "Hamburg",
    "city": "Hamburg-Altstadt"
  },
  {
    "source_id": "ChIJETR7SBGPsUcRh8SnSNHvxrg",
    "name": "Bar Oorlam",
    "category": "Bar Oorlam",
    "formatted_address": "4,6(514) · €10–20",
    "phone_number": "+4917634367697",
    "source_url": "https://www.google.com/maps/place/Bar+Oorlam/data=!4m7!3m6!1s0x47b18f11487b3411:0xb8c6efd148a7c487!8m2!3d53.553332!4d9.9798165!16s%2Fg%2F11f2w6hg56!19sChIJETR7SBGPsUcRh8SnSNHvxrg?authuser=0&hl=tr&rclk=1",
    "website_url": "",
    "rating_text": "4,6",
    "stars": null,
    "number_of_reviews": null,
    "price_level": "",
    "open_hours": "",
    "extraction_timestamp": "2025-06-07T15:21:12.540Z",
    "source_name": "google",
    "source_query": "Irrigation Equipment",
    "source_country": "DE",
    "country": "Germany",
    "state": "Hamburg",
    "city": "Hamburg-Altstadt"
  },
  {
    "source_id": "ChIJEagorBGPsUcRjYL2NJBn0Co",
    "name": "The Irish Rover",
    "category": "The Irish Rover",
    "formatted_address": "4,5(1.488) · €20–30",
    "phone_number": "+491488",
    "source_url": "https://www.google.com/maps/place/The+Irish+Rover/data=!4m7!3m6!1s0x47b18f11ac28a811:0x2ad0679034f6828d!8m2!3d53.5507262!4d9.9808862!16s%2Fg%2F1tdnk540!19sChIJEagorBGPsUcRjYL2NJBn0Co?authuser=0&hl=tr&rclk=1",
    "website_url": "",
    "rating_text": "4,5",
    "stars": null,
    "number_of_reviews": null,
    "price_level": "",
    "open_hours": "",
    "extraction_timestamp": "2025-06-07T15:21:12.542Z",
    "source_name": "google",
    "source_query": "Irrigation Equipment",
    "source_country": "DE",
    "country": "Germany",
    "state": "Hamburg",
    "city": "Hamburg-Altstadt"
  },
  {
    "source_id": "ChIJGY8c72-PsUcRy79IOiJWCpA",
    "name": "BrewDog St. Pauli",
    "category": "BrewDog St. Pauli",
    "formatted_address": "3,9(1.758) · €20–30",
    "phone_number": "+491758",
    "source_url": "https://www.google.com/maps/place/BrewDog+St.+Pauli/data=!4m7!3m6!1s0x47b18f6fef1c8f19:0x900a56223a48bfcb!8m2!3d53.5497149!4d9.9683633!16s%2Fg%2F11h6sljtxl!19sChIJGY8c72-PsUcRy79IOiJWCpA?authuser=0&hl=tr&rclk=1",
    "website_url": "",
    "rating_text": "3,9",
    "stars": null,
    "number_of_reviews": null,
    "price_level": "",
    "open_hours": "",
    "extraction_timestamp": "2025-06-07T15:21:12.543Z",
    "source_name": "google",
    "source_query": "Irrigation Equipment",
    "source_country": "DE",
    "country": "Germany",
    "state": "Hamburg",
    "city": "Hamburg-Altstadt"
  },
  {
    "source_id": "ChIJ14zOTX2GsUcRLIdMEJrqVK8",
    "name": "Atlas Hamburg GmbH",
    "category": "Atlas Hamburg GmbH",
    "formatted_address": "4,8(62)",
    "phone_number": "+49408405420",
    "source_url": "https://www.google.com/maps/place/Atlas+Hamburg+GmbH/data=!4m7!3m6!1s0x47b1867d4dce8cd7:0xaf54ea9a104c872c!8m2!3d53.5986621!4d9.8982821!16s%2Fg%2F1tgdmm9_!19sChIJ14zOTX2GsUcRLIdMEJrqVK8?authuser=0&hl=tr&rclk=1",
    "website_url": "",
    "rating_text": "4,8",
    "stars": null,
    "number_of_reviews": null,
    "price_level": "",
    "open_hours": "",
    "extraction_timestamp": "2025-06-07T15:21:12.544Z",
    "source_name": "google",
    "source_query": "Irrigation Equipment",
    "source_country": "DE",
    "country": "Germany",
    "state": "Hamburg",
    "city": "Hamburg-Altstadt"
  },
  {
    "source_id": "ChIJUVLyI-KOsUcRYd22NWOamqU",
    "name": "Vivet",
    "category": "Vivet",
    "formatted_address": "4,1(1.360) · €10–20",
    "phone_number": "+491360",
    "source_url": "https://www.google.com/maps/place/Vivet/data=!4m7!3m6!1s0x47b18ee223f25251:0xa59a9a6335b6dd61!8m2!3d53.5518637!4d10.0027096!16s%2Fg%2F1tfd60fy!19sChIJUVLyI-KOsUcRYd22NWOamqU?authuser=0&hl=tr&rclk=1",
    "website_url": "",
    "rating_text": "4,1",
    "stars": null,
    "number_of_reviews": null,
    "price_level": "",
    "open_hours": "",
    "extraction_timestamp": "2025-06-07T15:21:12.545Z",
    "source_name": "google",
    "source_query": "Irrigation Equipment",
    "source_country": "DE",
    "country": "Germany",
    "state": "Hamburg",
    "city": "Hamburg-Altstadt"
  },
  {
    "source_id": "ChIJc2IRH-KOsUcRjMkBUuqwLTg",
    "name": "Ahoi Steffen Henssler Hamburg",
    "category": "Ahoi Steffen Henssler Hamburg",
    "formatted_address": "4,4(8.379) · €20–30",
    "phone_number": "+4983794",
    "source_url": "https://www.google.com/maps/place/Ahoi+Steffen+Henssler+Hamburg/data=!4m7!3m6!1s0x47b18ee21f116273:0x382db0ea5201c98c!8m2!3d53.5519565!4d10.0019903!16s%2Fg%2F11c32bzs4p!19sChIJc2IRH-KOsUcRjMkBUuqwLTg?authuser=0&hl=tr&rclk=1",
    "website_url": "",
    "rating_text": "4,4",
    "stars": null,
    "number_of_reviews": null,
    "price_level": "",
    "open_hours": "",
    "extraction_timestamp": "2025-06-07T15:21:12.547Z",
    "source_name": "google",
    "source_query": "Irrigation Equipment",
    "source_country": "DE",
    "country": "Germany",
    "state": "Hamburg",
    "city": "Hamburg-Altstadt"
  }
]
