[
  {
    "source_id": "ChIJv19HvRmPsUcR-OIwzah92jA",
    "name": "Globetrotter Hamburg-Gänsemarkt",
    "category": "Globetrotter Hamburg-Gänsemarkt",
    "formatted_address": "4,2(1.097)",
    "phone_number": "+4910974",
    "source_url": "https://www.google.com/maps/place/Globetrotter+Hamburg-G%C3%A4nsemarkt/data=!4m7!3m6!1s0x47b18f19bd475fbf:0x30da7da8cd30e2f8!8m2!3d53.5546346!4d9.9889458!16s%2Fg%2F11dxl0k2h4!19sChIJv19HvRmPsUcR-OIwzah92jA?authuser=0&hl=tr&rclk=1",
    "website_url": "",
    "rating_text": "4,2",
    "stars": null,
    "number_of_reviews": null,
    "price_level": "",
    "open_hours": "",
    "extraction_timestamp": "2025-06-07T15:18:04.989Z",
    "source_name": "google",
    "source_query": "Irrigation Equipment",
    "source_country": "DE",
    "country": "Germany",
    "state": "Hamburg",
    "city": "Hamburg-Mitte"
  },
  {
    "source_id": "ChIJQXXWsB2PsUcRUhObAMu8wuE",
    "name": "SportScheck",
    "category": "SportScheck",
    "formatted_address": "3,9(3.530)",
    "phone_number": "+4935303",
    "source_url": "https://www.google.com/maps/place/SportScheck/data=!4m7!3m6!1s0x47b18f1db0d67541:0xe1c2bccb009b1352!8m2!3d53.5508445!4d9.9963504!16s%2Fg%2F1tdlgbnc!19sChIJQXXWsB2PsUcRUhObAMu8wuE?authuser=0&hl=tr&rclk=1",
    "website_url": "",
    "rating_text": "3,9",
    "stars": null,
    "number_of_reviews": null,
    "price_level": "",
    "open_hours": "",
    "extraction_timestamp": "2025-06-07T15:18:04.990Z",
    "source_name": "google",
    "source_query": "Irrigation Equipment",
    "source_country": "DE",
    "country": "Germany",
    "state": "Hamburg",
    "city": "Hamburg-Mitte"
  },
  {
    "source_id": "ChIJVVVl1B-PsUcRe0sT8uYkNPU",
    "name": "TurfPro GmbH",
    "category": "TurfPro GmbH",
    "formatted_address": "4,3(16)",
    "phone_number": "+494084895219",
    "source_url": "https://www.google.com/maps/place/TurfPro+GmbH/data=!4m7!3m6!1s0x47b18f1fd4655555:0xf53424e6f2134b7b!8m2!3d53.5551215!4d10.00104!16s%2Fg%2F11g1f90l5g!19sChIJVVVl1B-PsUcRe0sT8uYkNPU?authuser=0&hl=tr&rclk=1",
    "website_url": "",
    "rating_text": "4,3",
    "stars": null,
    "number_of_reviews": null,
    "price_level": "",
    "open_hours": "",
    "extraction_timestamp": "2025-06-07T15:18:04.991Z",
    "source_name": "google",
    "source_query": "Irrigation Equipment",
    "source_country": "DE",
    "country": "Germany",
    "state": "Hamburg",
    "city": "Hamburg-Mitte"
  },
  {
    "source_id": "ChIJFWShvx2PsUcR8kiThIgVBhU",
    "name": "Galeria",
    "category": "Galeria",
    "formatted_address": "4,2(11.527)",
    "phone_number": "+49115274",
    "source_url": "https://www.google.com/maps/place/Galeria/data=!4m7!3m6!1s0x47b18f1dbfa16415:0x15061588849348f2!8m2!3d53.5509704!4d9.9981626!16s%2Fg%2F1td_xnhl!19sChIJFWShvx2PsUcR8kiThIgVBhU?authuser=0&hl=tr&rclk=1",
    "website_url": "",
    "rating_text": "4,2",
    "stars": null,
    "number_of_reviews": null,
    "price_level": "",
    "open_hours": "",
    "extraction_timestamp": "2025-06-07T15:18:04.992Z",
    "source_name": "google",
    "source_query": "Irrigation Equipment",
    "source_country": "DE",
    "country": "Germany",
    "state": "Hamburg",
    "city": "Hamburg-Mitte"
  },
  {
    "source_id": "ChIJixz8c2zzsUcRvWDIvRaRRaY",
    "name": "ABS Bewässerungssysteme",
    "category": "ABS Bewässerungssysteme",
    "formatted_address": "5,0(10)",
    "phone_number": "+494020963222",
    "source_url": "https://www.google.com/maps/place/ABS+Bew%C3%A4sserungssysteme/data=!4m7!3m6!1s0x47b1f36c73fc1c8b:0xa6459116bdc860bd!8m2!3d53.4851575!4d10.1899135!16s%2Fg%2F11pwpgyn7x!19sChIJixz8c2zzsUcRvWDIvRaRRaY?authuser=0&hl=tr&rclk=1",
    "website_url": "",
    "rating_text": "5,0",
    "stars": null,
    "number_of_reviews": null,
    "price_level": "",
    "open_hours": "",
    "extraction_timestamp": "2025-06-07T15:18:04.993Z",
    "source_name": "google",
    "source_query": "Irrigation Equipment",
    "source_country": "DE",
    "country": "Germany",
    "state": "Hamburg",
    "city": "Hamburg-Mitte"
  },
  {
    "source_id": "ChIJpWq2XxmPsUcRT8CIjUdjBTg",
    "name": "Alsterhaus",
    "category": "Alsterhaus",
    "formatted_address": "4,3(8.326)",
    "phone_number": "+4983264",
    "source_url": "https://www.google.com/maps/place/Alsterhaus/data=!4m7!3m6!1s0x47b18f195fb66aa5:0x380563478d88c04f!8m2!3d53.5531573!4d9.9920908!16s%2Fg%2F12345gr8!19sChIJpWq2XxmPsUcRT8CIjUdjBTg?authuser=0&hl=tr&rclk=1",
    "website_url": "",
    "rating_text": "4,3",
    "stars": null,
    "number_of_reviews": null,
    "price_level": "",
    "open_hours": "",
    "extraction_timestamp": "2025-06-07T15:18:04.995Z",
    "source_name": "google",
    "source_query": "Irrigation Equipment",
    "source_country": "DE",
    "country": "Germany",
    "state": "Hamburg",
    "city": "Hamburg-Mitte"
  },
  {
    "source_id": "ChIJMx6O7uKOsUcRRaAxBIcMi1U",
    "name": "Manufactum Warenhaus",
    "category": "Manufactum Warenhaus",
    "formatted_address": "4,5(1.117)",
    "phone_number": "+4911174",
    "source_url": "https://www.google.com/maps/place/Manufactum+Warenhaus/data=!4m7!3m6!1s0x47b18ee2ee8e1e33:0x558b0c870431a045!8m2!3d53.5484527!4d10.0010223!16s%2Fg%2F1tj7d31s!19sChIJMx6O7uKOsUcRRaAxBIcMi1U?authuser=0&hl=tr&rclk=1",
    "website_url": "",
    "rating_text": "4,5",
    "stars": null,
    "number_of_reviews": null,
    "price_level": "",
    "open_hours": "",
    "extraction_timestamp": "2025-06-07T15:18:04.996Z",
    "source_name": "google",
    "source_query": "Irrigation Equipment",
    "source_country": "DE",
    "country": "Germany",
    "state": "Hamburg",
    "city": "Hamburg-Mitte"
  },
  {
    "source_id": "ChIJi-Gw-HGPsUcRW9hqPiSIJgo",
    "name": "Non Stop Shop Kiosk Reeperbahn",
    "category": "Non Stop Shop Kiosk Reeperbahn",
    "formatted_address": "4,5(31)",
    "phone_number": "",
    "source_url": "https://www.google.com/maps/place/Non+Stop+Shop+Kiosk+Reeperbahn/data=!4m7!3m6!1s0x47b18f71f8b0e18b:0xa2688243e6ad85b!8m2!3d53.5496446!4d9.9617687!16s%2Fg%2F11bysjv9xt!19sChIJi-Gw-HGPsUcRW9hqPiSIJgo?authuser=0&hl=tr&rclk=1",
    "website_url": "",
    "rating_text": "4,5",
    "stars": null,
    "number_of_reviews": null,
    "price_level": "",
    "open_hours": "",
    "extraction_timestamp": "2025-06-07T15:18:04.997Z",
    "source_name": "google",
    "source_query": "Irrigation Equipment",
    "source_country": "DE",
    "country": "Germany",
    "state": "Hamburg",
    "city": "Hamburg-Mitte"
  },
  {
    "source_id": "ChIJ7em9Wp-IsUcR-PnzCLUWox4",
    "name": "Quellklar by Hydro-Shop",
    "category": "Quellklar by Hydro-Shop",
    "formatted_address": "3,5(8)",
    "phone_number": "+49405001720",
    "source_url": "https://www.google.com/maps/place/Quellklar+by+Hydro-Shop/data=!4m7!3m6!1s0x47b1889f5abde9ed:0x1ea316b508f3f9f8!8m2!3d53.610056!4d9.974098!16s%2Fg%2F1hc3w12m3!19sChIJ7em9Wp-IsUcR-PnzCLUWox4?authuser=0&hl=tr&rclk=1",
    "website_url": "",
    "rating_text": "3,5",
    "stars": null,
    "number_of_reviews": null,
    "price_level": "",
    "open_hours": "",
    "extraction_timestamp": "2025-06-07T15:18:04.997Z",
    "source_name": "google",
    "source_query": "Irrigation Equipment",
    "source_country": "DE",
    "country": "Germany",
    "state": "Hamburg",
    "city": "Hamburg-Mitte"
  },
  {
    "source_id": "ChIJ4R34GoKPsUcR_Di8Y72u1Q4",
    "name": "AN-Beregnungstechnik",
    "category": "AN-Beregnungstechnik",
    "formatted_address": "",
    "phone_number": "+4917673517226",
    "source_url": "https://www.google.com/maps/place/AN-Beregnungstechnik/data=!4m7!3m6!1s0x47b18f821af81de1:0xed5aebd63bc38fc!8m2!3d53.5576744!4d10.0112776!16s%2Fg%2F11x33m21xg!19sChIJ4R34GoKPsUcR_Di8Y72u1Q4?authuser=0&hl=tr&rclk=1",
    "website_url": "",
    "rating_text": "",
    "stars": null,
    "number_of_reviews": null,
    "price_level": "",
    "open_hours": "",
    "extraction_timestamp": "2025-06-07T15:18:04.998Z",
    "source_name": "google",
    "source_query": "Irrigation Equipment",
    "source_country": "DE",
    "country": "Germany",
    "state": "Hamburg",
    "city": "Hamburg-Mitte"
  },
  {
    "source_id": "ChIJcVfoFRGPsUcRTUtD6LFfbSQ",
    "name": "Neustadt-Kiosk",
    "category": "Neustadt-Kiosk",
    "formatted_address": "4,9(57)",
    "phone_number": "",
    "source_url": "https://www.google.com/maps/place/Neustadt-Kiosk/data=!4m7!3m6!1s0x47b18f1115e85771:0x246d5fb1e8434b4d!8m2!3d53.5524973!4d9.9805084!16s%2Fg%2F11c52jgrk1!19sChIJcVfoFRGPsUcRTUtD6LFfbSQ?authuser=0&hl=tr&rclk=1",
    "website_url": "",
    "rating_text": "4,9",
    "stars": null,
    "number_of_reviews": null,
    "price_level": "",
    "open_hours": "",
    "extraction_timestamp": "2025-06-07T15:18:04.999Z",
    "source_name": "google",
    "source_query": "Irrigation Equipment",
    "source_country": "DE",
    "country": "Germany",
    "state": "Hamburg",
    "city": "Hamburg-Mitte"
  },
  {
    "source_id": "ChIJicQ4uBuPsUcRdSd54h9hoA4",
    "name": "Faber-Castell boutique Hamburg",
    "category": "Faber-Castell boutique Hamburg",
    "formatted_address": "4,4(75)",
    "phone_number": "+494036905421",
    "source_url": "https://www.google.com/maps/place/Faber-Castell+boutique+Hamburg/data=!4m7!3m6!1s0x47b18f1bb838c489:0xea0611fe2792775!8m2!3d53.5511107!4d10.0023967!16s%2Fg%2F11bw7d4j94!19sChIJicQ4uBuPsUcRdSd54h9hoA4?authuser=0&hl=tr&rclk=1",
    "website_url": "",
    "rating_text": "4,4",
    "stars": null,
    "number_of_reviews": null,
    "price_level": "",
    "open_hours": "",
    "extraction_timestamp": "2025-06-07T15:18:04.999Z",
    "source_name": "google",
    "source_query": "Irrigation Equipment",
    "source_country": "DE",
    "country": "Germany",
    "state": "Hamburg",
    "city": "Hamburg-Mitte"
  },
  {
    "source_id": "ChIJrxAImkqOsUcR89MhXhtd_7g",
    "name": "Tropical Shop Inh. C.Stein Gemischtwarenhandel",
    "category": "Tropical Shop Inh. C.Stein Gemischtwarenhandel",
    "formatted_address": "4,6(14)",
    "phone_number": "+49407521452",
    "source_url": "https://www.google.com/maps/place/Tropical+Shop+Inh.+C.Stein+Gemischtwarenhandel/data=!4m7!3m6!1s0x47b18e4a9a0810af:0xb8ff5d1b5e21d3f3!8m2!3d53.5155019!4d9.9895108!16s%2Fg%2F1tcyk2nk!19sChIJrxAImkqOsUcR89MhXhtd_7g?authuser=0&hl=tr&rclk=1",
    "website_url": "",
    "rating_text": "4,6",
    "stars": null,
    "number_of_reviews": null,
    "price_level": "",
    "open_hours": "",
    "extraction_timestamp": "2025-06-07T15:18:05.000Z",
    "source_name": "google",
    "source_query": "Irrigation Equipment",
    "source_country": "DE",
    "country": "Germany",
    "state": "Hamburg",
    "city": "Hamburg-Mitte"
  },
  {
    "source_id": "ChIJGcDHXByPsUcR7hI6tidkXO4",
    "name": "Jack Wolfskin Store",
    "category": "Jack Wolfskin Store",
    "formatted_address": "4,5(450)",
    "phone_number": "+494030087822",
    "source_url": "https://www.google.com/maps/place/Jack+Wolfskin+Store/data=!4m7!3m6!1s0x47b18f1c5cc7c019:0xee5c6427b63a12ee!8m2!3d53.5502607!4d9.994559!16s%2Fg%2F1vrq8q0d!19sChIJGcDHXByPsUcR7hI6tidkXO4?authuser=0&hl=tr&rclk=1",
    "website_url": "",
    "rating_text": "4,5",
    "stars": null,
    "number_of_reviews": null,
    "price_level": "",
    "open_hours": "",
    "extraction_timestamp": "2025-06-07T15:18:05.001Z",
    "source_name": "google",
    "source_query": "Irrigation Equipment",
    "source_country": "DE",
    "country": "Germany",
    "state": "Hamburg",
    "city": "Hamburg-Mitte"
  },
  {
    "source_id": "ChIJq6oa9UmOsUcRmamevmdijgU",
    "name": "Antepli Ustam Baklava",
    "category": "Antepli Ustam Baklava",
    "formatted_address": "4,5(42)",
    "phone_number": "+4917673814808",
    "source_url": "https://www.google.com/maps/place/Antepli+Ustam+Baklava/data=!4m7!3m6!1s0x47b18e49f51aaaab:0x58e6267be9ea999!8m2!3d53.5157914!4d9.9936558!16s%2Fg%2F11g889b6h_!19sChIJq6oa9UmOsUcRmamevmdijgU?authuser=0&hl=tr&rclk=1",
    "website_url": "",
    "rating_text": "4,5",
    "stars": null,
    "number_of_reviews": null,
    "price_level": "",
    "open_hours": "",
    "extraction_timestamp": "2025-06-07T15:18:05.002Z",
    "source_name": "google",
    "source_query": "Irrigation Equipment",
    "source_country": "DE",
    "country": "Germany",
    "state": "Hamburg",
    "city": "Hamburg-Mitte"
  },
  {
    "source_id": "ChIJHTSLZcuPsUcRU15ynvyYO3g",
    "name": "Otto Meyer & Co.",
    "category": "Otto Meyer & Co.",
    "formatted_address": "4,7(161)",
    "phone_number": "+49407560670",
    "source_url": "https://www.google.com/maps/place/Otto+Meyer+%26+Co./data=!4m7!3m6!1s0x47b18fcb658b341d:0x783b98fc9e725e53!8m2!3d53.5103965!4d9.9831364!16s%2Fg%2F1tdmcyx4!19sChIJHTSLZcuPsUcRU15ynvyYO3g?authuser=0&hl=tr&rclk=1",
    "website_url": "",
    "rating_text": "4,7",
    "stars": null,
    "number_of_reviews": null,
    "price_level": "",
    "open_hours": "",
    "extraction_timestamp": "2025-06-07T15:18:05.003Z",
    "source_name": "google",
    "source_query": "Irrigation Equipment",
    "source_country": "DE",
    "country": "Germany",
    "state": "Hamburg",
    "city": "Hamburg-Mitte"
  },
  {
    "source_id": "ChIJJ9LSvuOOsUcR19qIZR08MWQ",
    "name": "dm-drogerie markt",
    "category": "dm-drogerie markt",
    "formatted_address": "4,2(322)",
    "phone_number": "+494030085087",
    "source_url": "https://www.google.com/maps/place/dm-drogerie+markt/data=!4m7!3m6!1s0x47b18ee3bed2d227:0x64313c1d6588dad7!8m2!3d53.5503502!4d10.0046665!16s%2Fg%2F11c4kn933v!19sChIJJ9LSvuOOsUcR19qIZR08MWQ?authuser=0&hl=tr&rclk=1",
    "website_url": "",
    "rating_text": "4,2",
    "stars": null,
    "number_of_reviews": null,
    "price_level": "",
    "open_hours": "",
    "extraction_timestamp": "2025-06-07T15:18:05.004Z",
    "source_name": "google",
    "source_query": "Irrigation Equipment",
    "source_country": "DE",
    "country": "Germany",
    "state": "Hamburg",
    "city": "Hamburg-Mitte"
  },
  {
    "source_id": "ChIJI7hZS_OPsUcRDLjUL7GrW0s",
    "name": "kaufland hamburg-st.georg",
    "category": "kaufland hamburg-st.georg",
    "formatted_address": "3,9(1.893)",
    "phone_number": "+4918933",
    "source_url": "https://www.google.com/maps/place/kaufland+hamburg-st.georg/data=!4m7!3m6!1s0x47b18ff34b59b823:0x4b5babb12fd4b80c!8m2!3d53.5524598!4d10.020126!16s%2Fg%2F11t401ks1g!19sChIJI7hZS_OPsUcRDLjUL7GrW0s?authuser=0&hl=tr&rclk=1",
    "website_url": "",
    "rating_text": "3,9",
    "stars": null,
    "number_of_reviews": null,
    "price_level": "",
    "open_hours": "",
    "extraction_timestamp": "2025-06-07T15:18:05.005Z",
    "source_name": "google",
    "source_query": "Irrigation Equipment",
    "source_country": "DE",
    "country": "Germany",
    "state": "Hamburg",
    "city": "Hamburg-Mitte"
  },
  {
    "source_id": "ChIJn-ogPEqOsUcRB9Cobmi97u0",
    "name": "Kiosk No.7",
    "category": "Kiosk No.7",
    "formatted_address": "4,4(8)",
    "phone_number": "",
    "source_url": "https://www.google.com/maps/place/Kiosk+No.7/data=!4m7!3m6!1s0x47b18e4a3c20ea9f:0xedeebd686ea8d007!8m2!3d53.5161947!4d9.9932298!16s%2Fg%2F11bztwpzgq!19sChIJn-ogPEqOsUcRB9Cobmi97u0?authuser=0&hl=tr&rclk=1",
    "website_url": "",
    "rating_text": "4,4",
    "stars": null,
    "number_of_reviews": null,
    "price_level": "",
    "open_hours": "",
    "extraction_timestamp": "2025-06-07T15:18:05.005Z",
    "source_name": "google",
    "source_query": "Irrigation Equipment",
    "source_country": "DE",
    "country": "Germany",
    "state": "Hamburg",
    "city": "Hamburg-Mitte"
  },
  {
    "source_id": "ChIJHZkpPAKPsUcROcvUPIFprsY",
    "name": "Action Hamburg-Wilhelmsburg",
    "category": "Action Hamburg-Wilhelmsburg",
    "formatted_address": "3,7(411)",
    "phone_number": "+4921130146100",
    "source_url": "https://www.google.com/maps/place/Action+Hamburg-Wilhelmsburg/data=!4m7!3m6!1s0x47b18f023c29991d:0xc6ae69813cd4cb39!8m2!3d53.4985211!4d10.0098414!16s%2Fg%2F11fknnmt25!19sChIJHZkpPAKPsUcROcvUPIFprsY?authuser=0&hl=tr&rclk=1",
    "website_url": "",
    "rating_text": "3,7",
    "stars": null,
    "number_of_reviews": null,
    "price_level": "",
    "open_hours": "",
    "extraction_timestamp": "2025-06-07T15:18:05.006Z",
    "source_name": "google",
    "source_query": "Irrigation Equipment",
    "source_country": "DE",
    "country": "Germany",
    "state": "Hamburg",
    "city": "Hamburg-Mitte"
  },
  {
    "source_id": "ChIJpcjt7DKOsUcRdjvjcJeqqf0",
    "name": "Wilhelmsburger Eisdealer",
    "category": "Wilhelmsburger Eisdealer",
    "formatted_address": "4,5(699) · ₺",
    "phone_number": "",
    "source_url": "https://www.google.com/maps/place/Wilhelmsburger+Eisdealer/data=!4m7!3m6!1s0x47b18e32ecedc8a5:0xfda9aa9770e33b76!8m2!3d53.5072019!4d9.9884131!16s%2Fg%2F11b8z16sj3!19sChIJpcjt7DKOsUcRdjvjcJeqqf0?authuser=0&hl=tr&rclk=1",
    "website_url": "",
    "rating_text": "4,5",
    "stars": null,
    "number_of_reviews": null,
    "price_level": "",
    "open_hours": "",
    "extraction_timestamp": "2025-06-07T15:18:05.007Z",
    "source_name": "google",
    "source_query": "Irrigation Equipment",
    "source_country": "DE",
    "country": "Germany",
    "state": "Hamburg",
    "city": "Hamburg-Mitte"
  },
  {
    "source_id": "ChIJj3RnBiKOsUcRJLJPlmkHRDE",
    "name": "Adese Markt II GmbH",
    "category": "Adese Markt II GmbH",
    "formatted_address": "3,9(237)",
    "phone_number": "+494075662369",
    "source_url": "https://www.google.com/maps/place/Adese+Markt+II+GmbH/data=!4m7!3m6!1s0x47b18e220667748f:0x31440769964fb224!8m2!3d53.4973757!4d10.0102796!16s%2Fg%2F1vrq8p_b!19sChIJj3RnBiKOsUcRJLJPlmkHRDE?authuser=0&hl=tr&rclk=1",
    "website_url": "",
    "rating_text": "3,9",
    "stars": null,
    "number_of_reviews": null,
    "price_level": "",
    "open_hours": "",
    "extraction_timestamp": "2025-06-07T15:18:05.008Z",
    "source_name": "google",
    "source_query": "Irrigation Equipment",
    "source_country": "DE",
    "country": "Germany",
    "state": "Hamburg",
    "city": "Hamburg-Mitte"
  },
  {
    "source_id": "ChIJqUDkzBuPsUcRDHDfHzMrmyE",
    "name": "UZWEI",
    "category": "UZWEI",
    "formatted_address": "4,3(145)",
    "phone_number": "+494035017120",
    "source_url": "https://www.google.com/maps/place/UZWEI/data=!4m7!3m6!1s0x47b18f1bcce440a9:0x219b2b331fdf700c!8m2!3d53.552157!4d9.9895275!16s%2Fg%2F11bvv4_3g9!19sChIJqUDkzBuPsUcRDHDfHzMrmyE?authuser=0&hl=tr&rclk=1",
    "website_url": "",
    "rating_text": "4,3",
    "stars": null,
    "number_of_reviews": null,
    "price_level": "",
    "open_hours": "",
    "extraction_timestamp": "2025-06-07T15:18:05.009Z",
    "source_name": "google",
    "source_query": "Irrigation Equipment",
    "source_country": "DE",
    "country": "Germany",
    "state": "Hamburg",
    "city": "Hamburg-Mitte"
  },
  {
    "source_id": "ChIJGcPkKwCPsUcR3tf3SbLL7UQ",
    "name": "REWE Center",
    "category": "REWE Center",
    "formatted_address": "3,8(89)",
    "phone_number": "+4940537998400",
    "source_url": "https://www.google.com/maps/place/REWE+Center/data=!4m7!3m6!1s0x47b18f002be4c319:0x44edcbb249f7d7de!8m2!3d53.4980363!4d10.0086565!16s%2Fg%2F11lds5v16v!19sChIJGcPkKwCPsUcR3tf3SbLL7UQ?authuser=0&hl=tr&rclk=1",
    "website_url": "",
    "rating_text": "3,8",
    "stars": null,
    "number_of_reviews": null,
    "price_level": "",
    "open_hours": "",
    "extraction_timestamp": "2025-06-07T15:18:05.010Z",
    "source_name": "google",
    "source_query": "Irrigation Equipment",
    "source_country": "DE",
    "country": "Germany",
    "state": "Hamburg",
    "city": "Hamburg-Mitte"
  },
  {
    "source_id": "ChIJha7jfKeOsUcR9hFF1eiTmQc",
    "name": "Sieveking 100",
    "category": "Sieveking 100",
    "formatted_address": "4,7(18)",
    "phone_number": "",
    "source_url": "https://www.google.com/maps/place/Sieveking+100/data=!4m7!3m6!1s0x47b18ea77ce3ae85:0x79993e8d54511f6!8m2!3d53.5597751!4d10.0635644!16s%2Fg%2F1tm67z_n!19sChIJha7jfKeOsUcR9hFF1eiTmQc?authuser=0&hl=tr&rclk=1",
    "website_url": "",
    "rating_text": "4,7",
    "stars": null,
    "number_of_reviews": null,
    "price_level": "",
    "open_hours": "",
    "extraction_timestamp": "2025-06-07T15:18:05.010Z",
    "source_name": "google",
    "source_query": "Irrigation Equipment",
    "source_country": "DE",
    "country": "Germany",
    "state": "Hamburg",
    "city": "Hamburg-Mitte"
  },
  {
    "source_id": "ChIJS9ndUFmMsUcRie3kXP_28oY",
    "name": "Eiscafé-Hille",
    "category": "Eiscafé-Hille",
    "formatted_address": "4,5(639) · ₺₺",
    "phone_number": "+491632218541",
    "source_url": "https://www.google.com/maps/place/Eiscaf%C3%A9-Hille/data=!4m7!3m6!1s0x47b18c5950ddd94b:0x86f2f6ff5ce4ed89!8m2!3d53.5455941!4d10.1058771!16s%2Fg%2F11b7jld24x!19sChIJS9ndUFmMsUcRie3kXP_28oY?authuser=0&hl=tr&rclk=1",
    "website_url": "",
    "rating_text": "4,5",
    "stars": null,
    "number_of_reviews": null,
    "price_level": "",
    "open_hours": "",
    "extraction_timestamp": "2025-06-07T15:18:05.012Z",
    "source_name": "google",
    "source_query": "Irrigation Equipment",
    "source_country": "DE",
    "country": "Germany",
    "state": "Hamburg",
    "city": "Hamburg-Mitte"
  },
  {
    "source_id": "ChIJr9JHiOqiY0ERzGHG5qWuatA",
    "name": "Kiosk 42",
    "category": "Kiosk 42",
    "formatted_address": "4,5(30)",
    "phone_number": "+494079307130",
    "source_url": "https://www.google.com/maps/place/Kiosk+42/data=!4m7!3m6!1s0x4163a2ea8847d2af:0xd06aaea5e6c661cc!8m2!3d53.5156682!4d9.9904065!16s%2Fg%2F11b7cvn80p!19sChIJr9JHiOqiY0ERzGHG5qWuatA?authuser=0&hl=tr&rclk=1",
    "website_url": "",
    "rating_text": "4,5",
    "stars": null,
    "number_of_reviews": null,
    "price_level": "",
    "open_hours": "",
    "extraction_timestamp": "2025-06-07T15:18:05.012Z",
    "source_name": "google",
    "source_query": "Irrigation Equipment",
    "source_country": "DE",
    "country": "Germany",
    "state": "Hamburg",
    "city": "Hamburg-Mitte"
  },
  {
    "source_id": "ChIJG9FP8FqMsUcRWvAhhEh2CF4",
    "name": "EisCafe VENETO IN CENTER BILLSTEDT",
    "category": "EisCafe VENETO IN CENTER BILLSTEDT",
    "formatted_address": "4,0(621) · ₺₺",
    "phone_number": "+49407325369",
    "source_url": "https://www.google.com/maps/place/EisCafe+VENETO+IN+CENTER+BILLSTEDT/data=!4m7!3m6!1s0x47b18c5af04fd11b:0x5e0876488421f05a!8m2!3d53.5400018!4d10.104658!16s%2Fg%2F11c0w03t6p!19sChIJG9FP8FqMsUcRWvAhhEh2CF4?authuser=0&hl=tr&rclk=1",
    "website_url": "",
    "rating_text": "4,0",
    "stars": null,
    "number_of_reviews": null,
    "price_level": "",
    "open_hours": "",
    "extraction_timestamp": "2025-06-07T15:18:05.014Z",
    "source_name": "google",
    "source_query": "Irrigation Equipment",
    "source_country": "DE",
    "country": "Germany",
    "state": "Hamburg",
    "city": "Hamburg-Mitte"
  },
  {
    "source_id": "ChIJo_A0lfWPsUcROfJM3vMDo98",
    "name": "JaKoThai",
    "category": "JaKoThai",
    "formatted_address": "4,6(72)",
    "phone_number": "+494064831208",
    "source_url": "https://www.google.com/maps/place/JaKoThai/data=!4m7!3m6!1s0x47b18ff59534f0a3:0xdfa303f3de4cf239!8m2!3d53.4979431!4d10.0083719!16s%2Fg%2F11s79mngtb!19sChIJo_A0lfWPsUcROfJM3vMDo98?authuser=0&hl=tr&rclk=1",
    "website_url": "",
    "rating_text": "4,6",
    "stars": null,
    "number_of_reviews": null,
    "price_level": "",
    "open_hours": "",
    "extraction_timestamp": "2025-06-07T15:18:05.014Z",
    "source_name": "google",
    "source_query": "Irrigation Equipment",
    "source_country": "DE",
    "country": "Germany",
    "state": "Hamburg",
    "city": "Hamburg-Mitte"
  },
  {
    "source_id": "ChIJz5xB-1qMsUcRPa827F6DpL0",
    "name": "Woolworth",
    "category": "Woolworth",
    "formatted_address": "4,0(687)",
    "phone_number": "+4923035938200",
    "source_url": "https://www.google.com/maps/place/Woolworth/data=!4m7!3m6!1s0x47b18c5afb419ccf:0xbda4835eec36af3d!8m2!3d53.5404724!4d10.1040667!16s%2Fg%2F11hbgh7jht!19sChIJz5xB-1qMsUcRPa827F6DpL0?authuser=0&hl=tr&rclk=1",
    "website_url": "",
    "rating_text": "4,0",
    "stars": null,
    "number_of_reviews": null,
    "price_level": "",
    "open_hours": "",
    "extraction_timestamp": "2025-06-07T15:18:05.015Z",
    "source_name": "google",
    "source_query": "Irrigation Equipment",
    "source_country": "DE",
    "country": "Germany",
    "state": "Hamburg",
    "city": "Hamburg-Mitte"
  }
]
