[
  {
    "source_id": "ChIJy65kwCqSsUcRiMQsT8dpVkA",
    "name": "OBI Markt Hamburg-Harburg",
    "category": "OBI Markt Hamburg-Harburg",
    "formatted_address": "4,5(1.114)",
    "phone_number": "+4911144",
    "source_url": "https://www.google.com/maps/place/OBI+Markt+Hamburg-Harburg/data=!4m7!3m6!1s0x47b1922ac064aecb:0x405669c74f2cc488!8m2!3d53.4533484!4d10.0018139!16s%2Fg%2F11f08d4jh9!19sChIJy65kwCqSsUcRiMQsT8dpVkA?authuser=0&hl=tr&rclk=1",
    "website_url": "",
    "rating_text": "4,5",
    "stars": null,
    "number_of_reviews": null,
    "price_level": "",
    "open_hours": "",
    "extraction_timestamp": "2025-06-07T15:19:00.921Z",
    "source_name": "google",
    "source_query": "Irrigation Equipment",
    "source_country": "DE",
    "country": "Germany",
    "state": "Hamburg",
    "city": "Harburg"
  },
  {
    "source_id": "ChIJU13t06KRsUcRxVo7Ba3cQEw",
    "name": "BAUHAUS Hamburg-Harburg",
    "category": "BAUHAUS Hamburg-Harburg",
    "formatted_address": "4,2(4.266)",
    "phone_number": "+4942664",
    "source_url": "https://www.google.com/maps/place/BAUHAUS+Hamburg-Harburg/data=!4m7!3m6!1s0x47b191a2d3ed5d53:0x4c40dcad053b5ac5!8m2!3d53.4598181!4d9.9931454!16s%2Fg%2F1tg9gm5g!19sChIJU13t06KRsUcRxVo7Ba3cQEw?authuser=0&hl=tr&rclk=1",
    "website_url": "",
    "rating_text": "4,2",
    "stars": null,
    "number_of_reviews": null,
    "price_level": "",
    "open_hours": "",
    "extraction_timestamp": "2025-06-07T15:19:00.924Z",
    "source_name": "google",
    "source_query": "Irrigation Equipment",
    "source_country": "DE",
    "country": "Germany",
    "state": "Hamburg",
    "city": "Harburg"
  },
  {
    "source_id": "ChIJixz8c2zzsUcRvWDIvRaRRaY",
    "name": "ABS Bewässerungssysteme",
    "category": "ABS Bewässerungssysteme",
    "formatted_address": "5,0(10)",
    "phone_number": "+494020963222",
    "source_url": "https://www.google.com/maps/place/ABS+Bew%C3%A4sserungssysteme/data=!4m7!3m6!1s0x47b1f36c73fc1c8b:0xa6459116bdc860bd!8m2!3d53.4851575!4d10.1899135!16s%2Fg%2F11pwpgyn7x!19sChIJixz8c2zzsUcRvWDIvRaRRaY?authuser=0&hl=tr&rclk=1",
    "website_url": "",
    "rating_text": "5,0",
    "stars": null,
    "number_of_reviews": null,
    "price_level": "",
    "open_hours": "",
    "extraction_timestamp": "2025-06-07T15:19:00.925Z",
    "source_name": "google",
    "source_query": "Irrigation Equipment",
    "source_country": "DE",
    "country": "Germany",
    "state": "Hamburg",
    "city": "Harburg"
  },
  {
    "source_id": "ChIJadKvE6SRsUcRtJB2gqwPOkM",
    "name": "SportScheck Hamburg-Harburg",
    "category": "SportScheck Hamburg-Harburg",
    "formatted_address": "4,0(691)",
    "phone_number": "+498967846733",
    "source_url": "https://www.google.com/maps/place/SportScheck+Hamburg-Harburg/data=!4m7!3m6!1s0x47b191a413afd269:0x433a0fac827690b4!8m2!3d53.4561765!4d9.9880441!16s%2Fg%2F1tc_q1sg!19sChIJadKvE6SRsUcRtJB2gqwPOkM?authuser=0&hl=tr&rclk=1",
    "website_url": "",
    "rating_text": "4,0",
    "stars": null,
    "number_of_reviews": null,
    "price_level": "",
    "open_hours": "",
    "extraction_timestamp": "2025-06-07T15:19:00.927Z",
    "source_name": "google",
    "source_query": "Irrigation Equipment",
    "source_country": "DE",
    "country": "Germany",
    "state": "Hamburg",
    "city": "Harburg"
  },
  {
    "source_id": "ChIJKQQtbqWRsUcR_QCBLN7JKNk",
    "name": "Kock & Sack GmbH",
    "category": "Kock & Sack GmbH",
    "formatted_address": "4,8(241)",
    "phone_number": "+49407673800",
    "source_url": "https://www.google.com/maps/place/Kock+%26+Sack+GmbH/data=!4m7!3m6!1s0x47b191a56e2d0429:0xd928c9de2c8100fd!8m2!3d53.4617141!4d9.9835575!16s%2Fg%2F11bzymr3h_!19sChIJKQQtbqWRsUcR_QCBLN7JKNk?authuser=0&hl=tr&rclk=1",
    "website_url": "",
    "rating_text": "4,8",
    "stars": null,
    "number_of_reviews": null,
    "price_level": "",
    "open_hours": "",
    "extraction_timestamp": "2025-06-07T15:19:00.928Z",
    "source_name": "google",
    "source_query": "Irrigation Equipment",
    "source_country": "DE",
    "country": "Germany",
    "state": "Hamburg",
    "city": "Harburg"
  },
  {
    "source_id": "ChIJyULv176RsUcRFfD1SiVvnDE",
    "name": "Handelshof Hamburg-Harburg",
    "category": "Handelshof Hamburg-Harburg",
    "formatted_address": "4,4(407)",
    "phone_number": "+4940771200",
    "source_url": "https://www.google.com/maps/place/Handelshof+Hamburg-Harburg/data=!4m7!3m6!1s0x47b191bed7ef42c9:0x319c6f254af5f015!8m2!3d53.4688295!4d9.9915259!16s%2Fg%2F1tdrdf92!19sChIJyULv176RsUcRFfD1SiVvnDE?authuser=0&hl=tr&rclk=1",
    "website_url": "",
    "rating_text": "4,4",
    "stars": null,
    "number_of_reviews": null,
    "price_level": "",
    "open_hours": "",
    "extraction_timestamp": "2025-06-07T15:19:00.930Z",
    "source_name": "google",
    "source_query": "Irrigation Equipment",
    "source_country": "DE",
    "country": "Germany",
    "state": "Hamburg",
    "city": "Harburg"
  },
  {
    "source_id": "ChIJHZ0oFaSRsUcRMacOIhr-ASE",
    "name": "MAS Impex Asian und Afro Supermarkt",
    "category": "MAS Impex Asian und Afro Supermarkt",
    "formatted_address": "3,7(135)",
    "phone_number": "+494028007805",
    "source_url": "https://www.google.com/maps/place/MAS+Impex+Asian+und+Afro+Supermarkt/data=!4m7!3m6!1s0x47b191a415289d1d:0x2101fe1a220ea731!8m2!3d53.456453!4d9.9860951!16s%2Fg%2F1tl9ln1y!19sChIJHZ0oFaSRsUcRMacOIhr-ASE?authuser=0&hl=tr&rclk=1",
    "website_url": "",
    "rating_text": "3,7",
    "stars": null,
    "number_of_reviews": null,
    "price_level": "",
    "open_hours": "",
    "extraction_timestamp": "2025-06-07T15:19:00.931Z",
    "source_name": "google",
    "source_query": "Irrigation Equipment",
    "source_country": "DE",
    "country": "Germany",
    "state": "Hamburg",
    "city": "Harburg"
  },
  {
    "source_id": "ChIJyyjQh6SRsUcR5eFoqlnvvoI",
    "name": "Smyths Toys Superstore Hamburg-Harburg",
    "category": "Smyths Toys Superstore Hamburg-Harburg",
    "formatted_address": "3,8(185)",
    "phone_number": "+4940356237642",
    "source_url": "https://www.google.com/maps/place/Smyths+Toys+Superstore+Hamburg-Harburg/data=!4m7!3m6!1s0x47b191a487d028cb:0x82beef59aa68e1e5!8m2!3d53.4575004!4d9.9870119!16s%2Fg%2F1vc_pdst!19sChIJyyjQh6SRsUcR5eFoqlnvvoI?authuser=0&hl=tr&rclk=1",
    "website_url": "",
    "rating_text": "3,8",
    "stars": null,
    "number_of_reviews": null,
    "price_level": "",
    "open_hours": "",
    "extraction_timestamp": "2025-06-07T15:19:00.932Z",
    "source_name": "google",
    "source_query": "Irrigation Equipment",
    "source_country": "DE",
    "country": "Germany",
    "state": "Hamburg",
    "city": "Harburg"
  },
  {
    "source_id": "ChIJCajrsOKYY0ERxQeykt3PN18",
    "name": "Marktkauf-Center Hamburg-Harburg",
    "category": "Marktkauf-Center Hamburg-Harburg",
    "formatted_address": "4,0(4.716)",
    "phone_number": "+4947164",
    "source_url": "https://www.google.com/maps/place/Marktkauf-Center+Hamburg-Harburg/data=!4m7!3m6!1s0x416398e2b0eba809:0x5f37cfdd92b207c5!8m2!3d53.4578294!4d9.9870336!16s%2Fg%2F1td1_9qb!19sChIJCajrsOKYY0ERxQeykt3PN18?authuser=0&hl=tr&rclk=1",
    "website_url": "",
    "rating_text": "4,0",
    "stars": null,
    "number_of_reviews": null,
    "price_level": "",
    "open_hours": "",
    "extraction_timestamp": "2025-06-07T15:19:00.934Z",
    "source_name": "google",
    "source_query": "Irrigation Equipment",
    "source_country": "DE",
    "country": "Germany",
    "state": "Hamburg",
    "city": "Harburg"
  },
  {
    "source_id": "ChIJNWxmGa-RsUcRVCcodR7kNyY",
    "name": "Die Gartenfreunde Inh. Loredan Ananie",
    "category": "Die Gartenfreunde Inh. Loredan Ananie",
    "formatted_address": "5,0(105)",
    "phone_number": "+4913324",
    "source_url": "https://www.google.com/maps/place/Die+Gartenfreunde+Inh.+Loredan+Ananie/data=!4m7!3m6!1s0x47b191af19666c35:0x2637e41e75282754!8m2!3d53.4508656!4d9.9704143!16s%2Fg%2F11hd4yk7n6!19sChIJNWxmGa-RsUcRVCcodR7kNyY?authuser=0&hl=tr&rclk=1",
    "website_url": "",
    "rating_text": "5,0",
    "stars": null,
    "number_of_reviews": null,
    "price_level": "",
    "open_hours": "",
    "extraction_timestamp": "2025-06-07T15:19:00.935Z",
    "source_name": "google",
    "source_query": "Irrigation Equipment",
    "source_country": "DE",
    "country": "Germany",
    "state": "Hamburg",
    "city": "Harburg"
  },
  {
    "source_id": "ChIJVVVl1B-PsUcRe0sT8uYkNPU",
    "name": "TurfPro GmbH",
    "category": "TurfPro GmbH",
    "formatted_address": "4,3(16)",
    "phone_number": "+494084895219",
    "source_url": "https://www.google.com/maps/place/TurfPro+GmbH/data=!4m7!3m6!1s0x47b18f1fd4655555:0xf53424e6f2134b7b!8m2!3d53.5551215!4d10.00104!16s%2Fg%2F11g1f90l5g!19sChIJVVVl1B-PsUcRe0sT8uYkNPU?authuser=0&hl=tr&rclk=1",
    "website_url": "",
    "rating_text": "4,3",
    "stars": null,
    "number_of_reviews": null,
    "price_level": "",
    "open_hours": "",
    "extraction_timestamp": "2025-06-07T15:19:00.936Z",
    "source_name": "google",
    "source_query": "Irrigation Equipment",
    "source_country": "DE",
    "country": "Germany",
    "state": "Hamburg",
    "city": "Harburg"
  },
  {
    "source_id": "ChIJa1O4qp6RsUcRAh92MqR_otA",
    "name": "OBI Hamburg-Harburg",
    "category": "OBI Hamburg-Harburg",
    "formatted_address": "4,3(3.928)",
    "phone_number": "+4939284",
    "source_url": "https://www.google.com/maps/place/OBI+Hamburg-Harburg/data=!4m7!3m6!1s0x47b1919eaab8536b:0xd0a27fa432761f02!8m2!3d53.4533484!4d10.0018139!16s%2Fg%2F1tc_d9qj!19sChIJa1O4qp6RsUcRAh92MqR_otA?authuser=0&hl=tr&rclk=1",
    "website_url": "",
    "rating_text": "4,3",
    "stars": null,
    "number_of_reviews": null,
    "price_level": "",
    "open_hours": "",
    "extraction_timestamp": "2025-06-07T15:19:00.937Z",
    "source_name": "google",
    "source_query": "Irrigation Equipment",
    "source_country": "DE",
    "country": "Germany",
    "state": "Hamburg",
    "city": "Harburg"
  },
  {
    "source_id": "ChIJ7em9Wp-IsUcR-PnzCLUWox4",
    "name": "Quellklar by Hydro-Shop",
    "category": "Quellklar by Hydro-Shop",
    "formatted_address": "3,5(8)",
    "phone_number": "+49405001720",
    "source_url": "https://www.google.com/maps/place/Quellklar+by+Hydro-Shop/data=!4m7!3m6!1s0x47b1889f5abde9ed:0x1ea316b508f3f9f8!8m2!3d53.610056!4d9.974098!16s%2Fg%2F1hc3w12m3!19sChIJ7em9Wp-IsUcR-PnzCLUWox4?authuser=0&hl=tr&rclk=1",
    "website_url": "",
    "rating_text": "3,5",
    "stars": null,
    "number_of_reviews": null,
    "price_level": "",
    "open_hours": "",
    "extraction_timestamp": "2025-06-07T15:19:00.938Z",
    "source_name": "google",
    "source_query": "Irrigation Equipment",
    "source_country": "DE",
    "country": "Germany",
    "state": "Hamburg",
    "city": "Harburg"
  },
  {
    "source_id": "ChIJM01HWqSRsUcRAb5k_5zNBm4",
    "name": "Adese Markt",
    "category": "Adese Markt",
    "formatted_address": "3,9(1.163)",
    "phone_number": "+4911633",
    "source_url": "https://www.google.com/maps/place/Adese+Markt/data=!4m7!3m6!1s0x47b191a45a474d33:0x6e06cd9cff64be01!8m2!3d53.4576222!4d9.9854933!16s%2Fg%2F1tf7r5pq!19sChIJM01HWqSRsUcRAb5k_5zNBm4?authuser=0&hl=tr&rclk=1",
    "website_url": "",
    "rating_text": "3,9",
    "stars": null,
    "number_of_reviews": null,
    "price_level": "",
    "open_hours": "",
    "extraction_timestamp": "2025-06-07T15:19:00.940Z",
    "source_name": "google",
    "source_query": "Irrigation Equipment",
    "source_country": "DE",
    "country": "Germany",
    "state": "Hamburg",
    "city": "Harburg"
  },
  {
    "source_id": "ChIJCXw_urqRsUcRtq2DOBe8qp0",
    "name": "Onur GmbH & Co. KG",
    "category": "Onur GmbH & Co. KG",
    "formatted_address": "4,1(402)",
    "phone_number": "+494076755501",
    "source_url": "https://www.google.com/maps/place/Onur+GmbH+%26+Co.+KG/data=!4m7!3m6!1s0x47b191baba3f7c09:0x9daabc173883adb6!8m2!3d53.46138!4d9.9839439!16s%2Fg%2F11cn7fs1gb!19sChIJCXw_urqRsUcRtq2DOBe8qp0?authuser=0&hl=tr&rclk=1",
    "website_url": "",
    "rating_text": "4,1",
    "stars": null,
    "number_of_reviews": null,
    "price_level": "",
    "open_hours": "",
    "extraction_timestamp": "2025-06-07T15:19:00.941Z",
    "source_name": "google",
    "source_query": "Irrigation Equipment",
    "source_country": "DE",
    "country": "Germany",
    "state": "Hamburg",
    "city": "Harburg"
  },
  {
    "source_id": "ChIJHTSLZcuPsUcRU15ynvyYO3g",
    "name": "Otto Meyer & Co.",
    "category": "Otto Meyer & Co.",
    "formatted_address": "4,7(161)",
    "phone_number": "+49407560670",
    "source_url": "https://www.google.com/maps/place/Otto+Meyer+%26+Co./data=!4m7!3m6!1s0x47b18fcb658b341d:0x783b98fc9e725e53!8m2!3d53.5103965!4d9.9831364!16s%2Fg%2F1tdmcyx4!19sChIJHTSLZcuPsUcRU15ynvyYO3g?authuser=0&hl=tr&rclk=1",
    "website_url": "",
    "rating_text": "4,7",
    "stars": null,
    "number_of_reviews": null,
    "price_level": "",
    "open_hours": "",
    "extraction_timestamp": "2025-06-07T15:19:00.943Z",
    "source_name": "google",
    "source_query": "Irrigation Equipment",
    "source_country": "DE",
    "country": "Germany",
    "state": "Hamburg",
    "city": "Harburg"
  },
  {
    "source_id": "ChIJR3w32q2RsUcRlKq0WNw0Hjk",
    "name": "Eko's Kiosk Hamburg",
    "category": "Eko's Kiosk Hamburg",
    "formatted_address": "4,3(41)",
    "phone_number": "+494021998578",
    "source_url": "https://www.google.com/maps/place/Eko%27s+Kiosk+Hamburg/data=!4m7!3m6!1s0x47b191adda377c47:0x391e34dc58b4aa94!8m2!3d53.4597449!4d9.9732801!16s%2Fg%2F11b6dtdhk0!19sChIJR3w32q2RsUcRlKq0WNw0Hjk?authuser=0&hl=tr&rclk=1",
    "website_url": "",
    "rating_text": "4,3",
    "stars": null,
    "number_of_reviews": null,
    "price_level": "",
    "open_hours": "",
    "extraction_timestamp": "2025-06-07T15:19:00.944Z",
    "source_name": "google",
    "source_query": "Irrigation Equipment",
    "source_country": "DE",
    "country": "Germany",
    "state": "Hamburg",
    "city": "Harburg"
  },
  {
    "source_id": "ChIJrX8CNm-NsUcRK11RkCcQoZ8",
    "name": "Riensch & Held GmbH & Co. KG",
    "category": "Riensch & Held GmbH & Co. KG",
    "formatted_address": "4,1(18)",
    "phone_number": "+4940734240",
    "source_url": "https://www.google.com/maps/place/Riensch+%26+Held+GmbH+%26+Co.+KG/data=!4m7!3m6!1s0x47b18d6f36027fad:0x9fa1102790515d2b!8m2!3d53.49414!4d10.12166!16s%2Fg%2F1tcydj56!19sChIJrX8CNm-NsUcRK11RkCcQoZ8?authuser=0&hl=tr&rclk=1",
    "website_url": "",
    "rating_text": "4,1",
    "stars": null,
    "number_of_reviews": null,
    "price_level": "",
    "open_hours": "",
    "extraction_timestamp": "2025-06-07T15:19:00.945Z",
    "source_name": "google",
    "source_query": "Irrigation Equipment",
    "source_country": "DE",
    "country": "Germany",
    "state": "Hamburg",
    "city": "Harburg"
  },
  {
    "source_id": "ChIJadKvE6SRsUcRQOu6vtTFKtQ",
    "name": "MediaMarkt",
    "category": "MediaMarkt",
    "formatted_address": "4,0(3.814)",
    "phone_number": "+4938144",
    "source_url": "https://www.google.com/maps/place/MediaMarkt/data=!4m7!3m6!1s0x47b191a413afd269:0xd42ac5d4bebaeb40!8m2!3d53.4561053!4d9.9881474!16s%2Fg%2F1tqnkp2f!19sChIJadKvE6SRsUcRQOu6vtTFKtQ?authuser=0&hl=tr&rclk=1",
    "website_url": "",
    "rating_text": "4,0",
    "stars": null,
    "number_of_reviews": null,
    "price_level": "",
    "open_hours": "",
    "extraction_timestamp": "2025-06-07T15:19:00.946Z",
    "source_name": "google",
    "source_query": "Irrigation Equipment",
    "source_country": "DE",
    "country": "Germany",
    "state": "Hamburg",
    "city": "Harburg"
  },
  {
    "source_id": "ChIJtd_qOKSRsUcRj9XLbNRqrEU",
    "name": "Dông Tiên Supermarkt",
    "category": "Dông Tiên Supermarkt",
    "formatted_address": "4,5(470)",
    "phone_number": "+494076756303",
    "source_url": "https://www.google.com/maps/place/D%C3%B4ng+Ti%C3%AAn+Supermarkt/data=!4m7!3m6!1s0x47b191a438eadfb5:0x45ac6ad46ccbd58f!8m2!3d53.4564147!4d9.9853145!16s%2Fg%2F1tcz7cw1!19sChIJtd_qOKSRsUcRj9XLbNRqrEU?authuser=0&hl=tr&rclk=1",
    "website_url": "",
    "rating_text": "4,5",
    "stars": null,
    "number_of_reviews": null,
    "price_level": "",
    "open_hours": "",
    "extraction_timestamp": "2025-06-07T15:19:00.947Z",
    "source_name": "google",
    "source_query": "Irrigation Equipment",
    "source_country": "DE",
    "country": "Germany",
    "state": "Hamburg",
    "city": "Harburg"
  },
  {
    "source_id": "ChIJN_q_LyGRsUcRs_wAmb3ojpk",
    "name": "Kiosk am Sand (nicht die Post)",
    "category": "Kiosk am Sand (nicht die Post)",
    "formatted_address": "3,7(321)",
    "phone_number": "",
    "source_url": "https://www.google.com/maps/place/Kiosk+am+Sand+%28nicht+die+Post%29/data=!4m7!3m6!1s0x47b191212fbffa37:0x998ee8bd9900fcb3!8m2!3d53.4621116!4d9.9795717!16s%2Fg%2F11j4mk6wt1!19sChIJN_q_LyGRsUcRs_wAmb3ojpk?authuser=0&hl=tr&rclk=1",
    "website_url": "",
    "rating_text": "3,7",
    "stars": null,
    "number_of_reviews": null,
    "price_level": "",
    "open_hours": "",
    "extraction_timestamp": "2025-06-07T15:19:00.949Z",
    "source_name": "google",
    "source_query": "Irrigation Equipment",
    "source_country": "DE",
    "country": "Germany",
    "state": "Hamburg",
    "city": "Harburg"
  },
  {
    "source_id": "ChIJY24_2eOOsUcRlgh309VEt8M",
    "name": "MediaMarkt Tech Village Hamburg",
    "category": "MediaMarkt Tech Village Hamburg",
    "formatted_address": "4,2(23.660)",
    "phone_number": "+49236604",
    "source_url": "https://www.google.com/maps/place/MediaMarkt+Tech+Village+Hamburg/data=!4m7!3m6!1s0x47b18ee3d93f6e63:0xc3b744d5d3770896!8m2!3d53.5511444!4d10.0056203!16s%2Fg%2F1tdrdf7v!19sChIJY24_2eOOsUcRlgh309VEt8M?authuser=0&hl=tr&rclk=1",
    "website_url": "",
    "rating_text": "4,2",
    "stars": null,
    "number_of_reviews": null,
    "price_level": "",
    "open_hours": "",
    "extraction_timestamp": "2025-06-07T15:19:00.951Z",
    "source_name": "google",
    "source_query": "Irrigation Equipment",
    "source_country": "DE",
    "country": "Germany",
    "state": "Hamburg",
    "city": "Harburg"
  },
  {
    "source_id": "ChIJn-EfRaWRsUcRaYQ1M5nZCr8",
    "name": "Sönmez Markt",
    "category": "Sönmez Markt",
    "formatted_address": "4,0(396)",
    "phone_number": "+494030090797",
    "source_url": "https://www.google.com/maps/place/S%C3%B6nmez+Markt/data=!4m7!3m6!1s0x47b191a5451fe19f:0xbf0ad99933358469!8m2!3d53.4598099!4d9.9826264!16s%2Fg%2F11c2pn56gg!19sChIJn-EfRaWRsUcRaYQ1M5nZCr8?authuser=0&hl=tr&rclk=1",
    "website_url": "",
    "rating_text": "4,0",
    "stars": null,
    "number_of_reviews": null,
    "price_level": "",
    "open_hours": "",
    "extraction_timestamp": "2025-06-07T15:19:00.952Z",
    "source_name": "google",
    "source_query": "Irrigation Equipment",
    "source_country": "DE",
    "country": "Germany",
    "state": "Hamburg",
    "city": "Harburg"
  },
  {
    "source_id": "ChIJ4R34GoKPsUcR_Di8Y72u1Q4",
    "name": "AN-Beregnungstechnik",
    "category": "AN-Beregnungstechnik",
    "formatted_address": "",
    "phone_number": "+4917673517226",
    "source_url": "https://www.google.com/maps/place/AN-Beregnungstechnik/data=!4m7!3m6!1s0x47b18f821af81de1:0xed5aebd63bc38fc!8m2!3d53.5576744!4d10.0112776!16s%2Fg%2F11x33m21xg!19sChIJ4R34GoKPsUcR_Di8Y72u1Q4?authuser=0&hl=tr&rclk=1",
    "website_url": "",
    "rating_text": "",
    "stars": null,
    "number_of_reviews": null,
    "price_level": "",
    "open_hours": "",
    "extraction_timestamp": "2025-06-07T15:19:00.953Z",
    "source_name": "google",
    "source_query": "Irrigation Equipment",
    "source_country": "DE",
    "country": "Germany",
    "state": "Hamburg",
    "city": "Harburg"
  },
  {
    "source_id": "ChIJcwd_DaWRsUcR-vTpJOPwstI",
    "name": "WOOLWORTH",
    "category": "WOOLWORTH",
    "formatted_address": "3,9(227)",
    "phone_number": "+4923035938200",
    "source_url": "https://www.google.com/maps/place/WOOLWORTH/data=!4m7!3m6!1s0x47b191a50d7f0773:0xd2b2f0e324e9f4fa!8m2!3d53.4599713!4d9.9815006!16s%2Fg%2F119wpjq18!19sChIJcwd_DaWRsUcR-vTpJOPwstI?authuser=0&hl=tr&rclk=1",
    "website_url": "",
    "rating_text": "3,9",
    "stars": null,
    "number_of_reviews": null,
    "price_level": "",
    "open_hours": "",
    "extraction_timestamp": "2025-06-07T15:19:00.954Z",
    "source_name": "google",
    "source_query": "Irrigation Equipment",
    "source_country": "DE",
    "country": "Germany",
    "state": "Hamburg",
    "city": "Harburg"
  },
  {
    "source_id": "ChIJc7t16__ssUcRReh1GrtGvuc",
    "name": "Dirk Behrens Bewässerungstechnik GmbH",
    "category": "Dirk Behrens Bewässerungstechnik GmbH",
    "formatted_address": "5,0(5)",
    "phone_number": "+49407238608",
    "source_url": "https://www.google.com/maps/place/Dirk+Behrens+Bew%C3%A4sserungstechnik+GmbH/data=!4m7!3m6!1s0x47b1ecffeb75bb73:0xe7be46bb1a75e845!8m2!3d53.4307019!4d10.1950017!16s%2Fg%2F1tdmtpc8!19sChIJc7t16__ssUcRReh1GrtGvuc?authuser=0&hl=tr&rclk=1",
    "website_url": "",
    "rating_text": "5,0",
    "stars": null,
    "number_of_reviews": null,
    "price_level": "",
    "open_hours": "",
    "extraction_timestamp": "2025-06-07T15:19:00.955Z",
    "source_name": "google",
    "source_query": "Irrigation Equipment",
    "source_country": "DE",
    "country": "Germany",
    "state": "Hamburg",
    "city": "Harburg"
  },
  {
    "source_id": "ChIJL9Ujq7qRsUcR2gakQGfG87Q",
    "name": "City Kiosk",
    "category": "City Kiosk",
    "formatted_address": "4,3(9)",
    "phone_number": "",
    "source_url": "https://www.google.com/maps/place/City+Kiosk/data=!4m7!3m6!1s0x47b191baab23d52f:0xb4f3c66740a406da!8m2!3d53.4612924!4d9.982272!16s%2Fg%2F1w97tg38!19sChIJL9Ujq7qRsUcR2gakQGfG87Q?authuser=0&hl=tr&rclk=1",
    "website_url": "",
    "rating_text": "4,3",
    "stars": null,
    "number_of_reviews": null,
    "price_level": "",
    "open_hours": "",
    "extraction_timestamp": "2025-06-07T15:19:00.955Z",
    "source_name": "google",
    "source_query": "Irrigation Equipment",
    "source_country": "DE",
    "country": "Germany",
    "state": "Hamburg",
    "city": "Harburg"
  },
  {
    "source_id": "ChIJzyV8LACRsUcRUM3WLCP6po8",
    "name": "Action Harburg ARCADEN",
    "category": "Action Harburg ARCADEN",
    "formatted_address": "4,1(19)",
    "phone_number": "",
    "source_url": "https://www.google.com/maps/place/Action+Harburg+ARCADEN/data=!4m7!3m6!1s0x47b191002c7c25cf:0x8fa6fa232cd6cd50!8m2!3d53.460103!4d9.9817399!16s%2Fg%2F11x11wlz8h!19sChIJzyV8LACRsUcRUM3WLCP6po8?authuser=0&hl=tr&rclk=1",
    "website_url": "",
    "rating_text": "4,1",
    "stars": null,
    "number_of_reviews": null,
    "price_level": "",
    "open_hours": "",
    "extraction_timestamp": "2025-06-07T15:19:00.956Z",
    "source_name": "google",
    "source_query": "Irrigation Equipment",
    "source_country": "DE",
    "country": "Germany",
    "state": "Hamburg",
    "city": "Harburg"
  },
  {
    "source_id": "ChIJ-axr2lKNsUcRRBHroelOOfM",
    "name": "abfluss ass dröge GmbH & Co KG / Rohrreinigung / Dichtheitsprüfung / Notdienst",
    "category": "abfluss ass dröge GmbH & Co KG / Rohrreinigung / Dichtheitsprüfung / Notdienst",
    "formatted_address": "5,0(23)",
    "phone_number": "+49406887157024",
    "source_url": "https://www.google.com/maps/place/abfluss+ass+dr%C3%B6ge+GmbH+%26+Co+KG+%2F+Rohrreinigung+%2F+Dichtheitspr%C3%BCfung+%2F+Notdienst/data=!4m7!3m6!1s0x47b18d52da6bacf9:0xf3394ee9a1eb1144!8m2!3d53.5321834!4d10.095701!16s%2Fg%2F11sk94kmdr!19sChIJ-axr2lKNsUcRRBHroelOOfM?authuser=0&hl=tr&rclk=1",
    "website_url": "",
    "rating_text": "5,0",
    "stars": null,
    "number_of_reviews": null,
    "price_level": "",
    "open_hours": "",
    "extraction_timestamp": "2025-06-07T15:19:00.957Z",
    "source_name": "google",
    "source_query": "Irrigation Equipment",
    "source_country": "DE",
    "country": "Germany",
    "state": "Hamburg",
    "city": "Harburg"
  }
]
