[
  {
    "source_id": "ChIJ6cjadQSPsUcRAgwQUOqpfaU",
    "name": "Hamburg Dungeon",
    "category": "Hamburg Dungeon",
    "formatted_address": "4,5(13.780)",
    "phone_number": "+49137804",
    "source_url": "https://www.google.com/maps/place/Hamburg+Dungeon/data=!4m7!3m6!1s0x47b18f0475dac8e9:0xa57da9ea50100c02!8m2!3d53.54384!4d9.98944!16s%2Fm%2F03bz2z4!19sChIJ6cjadQSPsUcRAgwQUOqpfaU?authuser=0&hl=tr&rclk=1",
    "website_url": "",
    "rating_text": "4,5",
    "stars": null,
    "number_of_reviews": null,
    "price_level": "",
    "open_hours": "",
    "extraction_timestamp": "2025-06-07T15:22:21.030Z",
    "source_name": "google",
    "source_query": "Irrigation Equipment",
    "source_country": "DE",
    "country": "Germany",
    "state": "Hamburg",
    "city": "Hummelsbüttel"
  },
  {
    "source_id": "ChIJYWj9xsyJsUcRd8OogR29cX4",
    "name": "hagebaumarkt Hummelsbüttel - Möller & Förster",
    "category": "hagebaumarkt Hummelsbüttel - Möller & Förster",
    "formatted_address": "4,1(2.067)",
    "phone_number": "+49406450640",
    "source_url": "https://www.google.com/maps/place/hagebaumarkt+Hummelsb%C3%BCttel+-+M%C3%B6ller+%26+F%C3%B6rster/data=!4m7!3m6!1s0x47b189ccc6fd6861:0x7e71bd1d81a8c377!8m2!3d53.6487259!4d10.0385592!16s%2Fg%2F1tdvj6_b!19sChIJYWj9xsyJsUcRd8OogR29cX4?authuser=0&hl=tr&rclk=1",
    "website_url": "",
    "rating_text": "4,1",
    "stars": null,
    "number_of_reviews": null,
    "price_level": "",
    "open_hours": "",
    "extraction_timestamp": "2025-06-07T15:22:21.034Z",
    "source_name": "google",
    "source_query": "Irrigation Equipment",
    "source_country": "DE",
    "country": "Germany",
    "state": "Hamburg",
    "city": "Hummelsbüttel"
  },
  {
    "source_id": "ChIJixz8c2zzsUcRvWDIvRaRRaY",
    "name": "ABS Bewässerungssysteme",
    "category": "ABS Bewässerungssysteme",
    "formatted_address": "5,0(10)",
    "phone_number": "+494020963222",
    "source_url": "https://www.google.com/maps/place/ABS+Bew%C3%A4sserungssysteme/data=!4m7!3m6!1s0x47b1f36c73fc1c8b:0xa6459116bdc860bd!8m2!3d53.4851575!4d10.1899135!16s%2Fg%2F11pwpgyn7x!19sChIJixz8c2zzsUcRvWDIvRaRRaY?authuser=0&hl=tr&rclk=1",
    "website_url": "",
    "rating_text": "5,0",
    "stars": null,
    "number_of_reviews": null,
    "price_level": "",
    "open_hours": "",
    "extraction_timestamp": "2025-06-07T15:22:21.050Z",
    "source_name": "google",
    "source_query": "Irrigation Equipment",
    "source_country": "DE",
    "country": "Germany",
    "state": "Hamburg",
    "city": "Hummelsbüttel"
  },
  {
    "source_id": "ChIJ54DHQFwnskcRvp7wxBSjHf0",
    "name": "RGW Garten- und Landschaftsbau",
    "category": "RGW Garten- und Landschaftsbau",
    "formatted_address": "5,0(1)",
    "phone_number": "+49406066494",
    "source_url": "https://www.google.com/maps/place/RGW+Garten-+und+Landschaftsbau/data=!4m7!3m6!1s0x47b2275c40c780e7:0xfd1da314c4f09ebe!8m2!3d53.6460664!4d10.0334484!16s%2Fg%2F1tmpjl3t!19sChIJ54DHQFwnskcRvp7wxBSjHf0?authuser=0&hl=tr&rclk=1",
    "website_url": "",
    "rating_text": "5,0",
    "stars": null,
    "number_of_reviews": null,
    "price_level": "",
    "open_hours": "",
    "extraction_timestamp": "2025-06-07T15:22:21.051Z",
    "source_name": "google",
    "source_query": "Irrigation Equipment",
    "source_country": "DE",
    "country": "Germany",
    "state": "Hamburg",
    "city": "Hummelsbüttel"
  },
  {
    "source_id": "ChIJ26PHn7WJsUcRPAP3Pq3KeBI",
    "name": "Oasis Getränkemarkt",
    "category": "Oasis Getränkemarkt",
    "formatted_address": "4,7(103)",
    "phone_number": "+49405386967",
    "source_url": "https://www.google.com/maps/place/Oasis+Getr%C3%A4nkemarkt/data=!4m7!3m6!1s0x47b189b59fc7a3db:0x1278caad3ef7033c!8m2!3d53.6407215!4d10.0374116!16s%2Fg%2F1ts3k84x!19sChIJ26PHn7WJsUcRPAP3Pq3KeBI?authuser=0&hl=tr&rclk=1",
    "website_url": "",
    "rating_text": "4,7",
    "stars": null,
    "number_of_reviews": null,
    "price_level": "",
    "open_hours": "",
    "extraction_timestamp": "2025-06-07T15:22:21.052Z",
    "source_name": "google",
    "source_query": "Irrigation Equipment",
    "source_country": "DE",
    "country": "Germany",
    "state": "Hamburg",
    "city": "Hummelsbüttel"
  },
  {
    "source_id": "ChIJM2OeFMSJsUcRZV-o-I-6vdY",
    "name": "MediaMarkt Hamburg - Hummelsbüttel",
    "category": "MediaMarkt Hamburg - Hummelsbüttel",
    "formatted_address": "3,9(2.024)",
    "phone_number": "+4922122243333",
    "source_url": "https://www.google.com/maps/place/MediaMarkt+Hamburg+-+Hummelsb%C3%BCttel/data=!4m7!3m6!1s0x47b189c4149e6333:0xd6bdba8ff8a85f65!8m2!3d53.6495885!4d10.0385604!16s%2Fg%2F1td0xjb4!19sChIJM2OeFMSJsUcRZV-o-I-6vdY?authuser=0&hl=tr&rclk=1",
    "website_url": "",
    "rating_text": "3,9",
    "stars": null,
    "number_of_reviews": null,
    "price_level": "",
    "open_hours": "",
    "extraction_timestamp": "2025-06-07T15:22:21.055Z",
    "source_name": "google",
    "source_query": "Irrigation Equipment",
    "source_country": "DE",
    "country": "Germany",
    "state": "Hamburg",
    "city": "Hummelsbüttel"
  },
  {
    "source_id": "ChIJ4UtMdcuJsUcRaH7bm8EB9Ek",
    "name": "intratec Warenhandels GmbH",
    "category": "intratec Warenhandels GmbH",
    "formatted_address": "4,4(7)",
    "phone_number": "+4940538092888",
    "source_url": "https://www.google.com/maps/place/intratec+Warenhandels+GmbH/data=!4m7!3m6!1s0x47b189cb754c4be1:0x49f401c19bdb7e68!8m2!3d53.645885!4d10.037373!16s%2Fg%2F11_q1kjp1!19sChIJ4UtMdcuJsUcRaH7bm8EB9Ek?authuser=0&hl=tr&rclk=1",
    "website_url": "",
    "rating_text": "4,4",
    "stars": null,
    "number_of_reviews": null,
    "price_level": "",
    "open_hours": "",
    "extraction_timestamp": "2025-06-07T15:22:21.056Z",
    "source_name": "google",
    "source_query": "Irrigation Equipment",
    "source_country": "DE",
    "country": "Germany",
    "state": "Hamburg",
    "city": "Hummelsbüttel"
  },
  {
    "source_id": "ChIJSZxre2YnskcR3eiLLT1Z6xg",
    "name": "Sanitärtechnik Jörgen Muhs GmbH",
    "category": "Sanitärtechnik Jörgen Muhs GmbH",
    "formatted_address": "4,9(100)",
    "phone_number": "+49406066049",
    "source_url": "https://www.google.com/maps/place/Sanit%C3%A4rtechnik+J%C3%B6rgen+Muhs+GmbH/data=!4m7!3m6!1s0x47b227667b6b9c49:0x18eb593d2d8be8dd!8m2!3d53.6698484!4d10.0676231!16s%2Fg%2F1tc_d9tz!19sChIJSZxre2YnskcR3eiLLT1Z6xg?authuser=0&hl=tr&rclk=1",
    "website_url": "",
    "rating_text": "4,9",
    "stars": null,
    "number_of_reviews": null,
    "price_level": "",
    "open_hours": "",
    "extraction_timestamp": "2025-06-07T15:22:21.057Z",
    "source_name": "google",
    "source_query": "Irrigation Equipment",
    "source_country": "DE",
    "country": "Germany",
    "state": "Hamburg",
    "city": "Hummelsbüttel"
  },
  {
    "source_id": "ChIJ7em9Wp-IsUcR-PnzCLUWox4",
    "name": "Quellklar by Hydro-Shop",
    "category": "Quellklar by Hydro-Shop",
    "formatted_address": "3,5(8)",
    "phone_number": "+49405001720",
    "source_url": "https://www.google.com/maps/place/Quellklar+by+Hydro-Shop/data=!4m7!3m6!1s0x47b1889f5abde9ed:0x1ea316b508f3f9f8!8m2!3d53.610056!4d9.974098!16s%2Fg%2F1hc3w12m3!19sChIJ7em9Wp-IsUcR-PnzCLUWox4?authuser=0&hl=tr&rclk=1",
    "website_url": "",
    "rating_text": "3,5",
    "stars": null,
    "number_of_reviews": null,
    "price_level": "",
    "open_hours": "",
    "extraction_timestamp": "2025-06-07T15:22:21.058Z",
    "source_name": "google",
    "source_query": "Irrigation Equipment",
    "source_country": "DE",
    "country": "Germany",
    "state": "Hamburg",
    "city": "Hummelsbüttel"
  },
  {
    "source_id": "ChIJFZYiLf6HsUcRp7nBv4kCBiI",
    "name": "Promaxx GmbH",
    "category": "Promaxx GmbH",
    "formatted_address": "4,3(51)",
    "phone_number": "+4940605338633",
    "source_url": "https://www.google.com/maps/place/Promaxx+GmbH/data=!4m7!3m6!1s0x47b187fe2d229615:0x22060289bfc1b9a7!8m2!3d53.6845074!4d10.0500032!16s%2Fg%2F11fxvxw2bk!19sChIJFZYiLf6HsUcRp7nBv4kCBiI?authuser=0&hl=tr&rclk=1",
    "website_url": "",
    "rating_text": "4,3",
    "stars": null,
    "number_of_reviews": null,
    "price_level": "",
    "open_hours": "",
    "extraction_timestamp": "2025-06-07T15:22:21.059Z",
    "source_name": "google",
    "source_query": "Irrigation Equipment",
    "source_country": "DE",
    "country": "Germany",
    "state": "Hamburg",
    "city": "Hummelsbüttel"
  },
  {
    "source_id": "ChIJkQcB4nknskcR8Qhm4Q9SoVg",
    "name": "Müllberg Hummelsbüttel",
    "category": "Müllberg Hummelsbüttel",
    "formatted_address": "4,5(1.030)",
    "phone_number": "+4910304",
    "source_url": "https://www.google.com/maps/place/M%C3%BCllberg+Hummelsb%C3%BCttel/data=!4m7!3m6!1s0x47b22779e2010791:0x58a1520fe16608f1!8m2!3d53.6737014!4d10.0515122!16s%2Fg%2F11c5rp8svc!19sChIJkQcB4nknskcR8Qhm4Q9SoVg?authuser=0&hl=tr&rclk=1",
    "website_url": "",
    "rating_text": "4,5",
    "stars": null,
    "number_of_reviews": null,
    "price_level": "",
    "open_hours": "",
    "extraction_timestamp": "2025-06-07T15:22:21.061Z",
    "source_name": "google",
    "source_query": "Irrigation Equipment",
    "source_country": "DE",
    "country": "Germany",
    "state": "Hamburg",
    "city": "Hummelsbüttel"
  },
  {
    "source_id": "ChIJ4R34GoKPsUcR_Di8Y72u1Q4",
    "name": "AN-Beregnungstechnik",
    "category": "AN-Beregnungstechnik",
    "formatted_address": "",
    "phone_number": "+4917673517226",
    "source_url": "https://www.google.com/maps/place/AN-Beregnungstechnik/data=!4m7!3m6!1s0x47b18f821af81de1:0xed5aebd63bc38fc!8m2!3d53.5576744!4d10.0112776!16s%2Fg%2F11x33m21xg!19sChIJ4R34GoKPsUcR_Di8Y72u1Q4?authuser=0&hl=tr&rclk=1",
    "website_url": "",
    "rating_text": "",
    "stars": null,
    "number_of_reviews": null,
    "price_level": "",
    "open_hours": "",
    "extraction_timestamp": "2025-06-07T15:22:21.061Z",
    "source_name": "google",
    "source_query": "Irrigation Equipment",
    "source_country": "DE",
    "country": "Germany",
    "state": "Hamburg",
    "city": "Hummelsbüttel"
  },
  {
    "source_id": "ChIJHy_JYrqJsUcRqq0rv_hpQD0",
    "name": "Delph Solar GmbH",
    "category": "Delph Solar GmbH",
    "formatted_address": "5,0(2)",
    "phone_number": "+4917663399911",
    "source_url": "https://www.google.com/maps/place/Delph+Solar+GmbH/data=!4m7!3m6!1s0x47b189ba62c92f1f:0x3d4069f8bf2badaa!8m2!3d53.63236!4d10.0262799!16s%2Fg%2F11l693447j!19sChIJHy_JYrqJsUcRqq0rv_hpQD0?authuser=0&hl=tr&rclk=1",
    "website_url": "",
    "rating_text": "5,0",
    "stars": null,
    "number_of_reviews": null,
    "price_level": "",
    "open_hours": "",
    "extraction_timestamp": "2025-06-07T15:22:21.063Z",
    "source_name": "google",
    "source_query": "Irrigation Equipment",
    "source_country": "DE",
    "country": "Germany",
    "state": "Hamburg",
    "city": "Hummelsbüttel"
  },
  {
    "source_id": "ChIJYT1zzTSIsUcRaPx6TUcf5-c",
    "name": "badpunkt Hummelsbüttel - Badausstellung der Peter Jensen GmbH",
    "category": "badpunkt Hummelsbüttel - Badausstellung der Peter Jensen GmbH",
    "formatted_address": "4,1(17)",
    "phone_number": "+494038011620",
    "source_url": "https://www.google.com/maps/place/badpunkt+Hummelsb%C3%BCttel+-+Badausstellung+der+Peter+Jensen+GmbH/data=!4m7!3m6!1s0x47b18834cd733d61:0xe7e71f474d7afc68!8m2!3d53.6458526!4d10.0344774!16s%2Fg%2F1tfbmchh!19sChIJYT1zzTSIsUcRaPx6TUcf5-c?authuser=0&hl=tr&rclk=1",
    "website_url": "",
    "rating_text": "4,1",
    "stars": null,
    "number_of_reviews": null,
    "price_level": "",
    "open_hours": "",
    "extraction_timestamp": "2025-06-07T15:22:21.064Z",
    "source_name": "google",
    "source_query": "Irrigation Equipment",
    "source_country": "DE",
    "country": "Germany",
    "state": "Hamburg",
    "city": "Hummelsbüttel"
  }
]
