[
  {
    "source_id": "ChIJFaPfyaqIsUcR9yAZ-8T8uuM",
    "name": "The Local Water",
    "category": "The Local Water",
    "formatted_address": "4,6(33)",
    "phone_number": "+494022632520",
    "source_url": "https://www.google.com/maps/place/The+Local+Water/data=!4m7!3m6!1s0x47b188aac9dfa315:0xe3bafcc4fb1920f7!8m2!3d53.5412057!4d9.9858411!16s%2Fg%2F11gf5kxhgk!19sChIJFaPfyaqIsUcR9yAZ-8T8uuM?authuser=0&hl=tr&rclk=1",
    "website_url": "",
    "rating_text": "4,6",
    "stars": null,
    "number_of_reviews": null,
    "price_level": "",
    "open_hours": "",
    "extraction_timestamp": "2025-06-07T15:20:41.879Z",
    "source_name": "google",
    "source_query": "Irrigation Equipment",
    "source_country": "DE",
    "country": "Germany",
    "state": "Hamburg",
    "city": "Kleiner Grasbrook"
  },
  {
    "source_id": "ChIJVVVl1B-PsUcRe0sT8uYkNPU",
    "name": "TurfPro GmbH",
    "category": "TurfPro GmbH",
    "formatted_address": "4,3(16)",
    "phone_number": "+494084895219",
    "source_url": "https://www.google.com/maps/place/TurfPro+GmbH/data=!4m7!3m6!1s0x47b18f1fd4655555:0xf53424e6f2134b7b!8m2!3d53.5551215!4d10.00104!16s%2Fg%2F11g1f90l5g!19sChIJVVVl1B-PsUcRe0sT8uYkNPU?authuser=0&hl=tr&rclk=1",
    "website_url": "",
    "rating_text": "4,3",
    "stars": null,
    "number_of_reviews": null,
    "price_level": "",
    "open_hours": "",
    "extraction_timestamp": "2025-06-07T15:20:41.879Z",
    "source_name": "google",
    "source_query": "Irrigation Equipment",
    "source_country": "DE",
    "country": "Germany",
    "state": "Hamburg",
    "city": "Kleiner Grasbrook"
  },
  {
    "source_id": "ChIJm-wrvWaOsUcRraZ8n2qCrhY",
    "name": "POESCHCO Niederlassung",
    "category": "POESCHCO Niederlassung",
    "formatted_address": "5,0(1)",
    "phone_number": "+49407892966",
    "source_url": "https://www.google.com/maps/place/POESCHCO+Niederlassung/data=!4m7!3m6!1s0x47b18e66bd2bec9b:0x16ae826a9f7ca6ad!8m2!3d53.5269254!4d10.0279326!16s%2Fg%2F1wc3094x!19sChIJm-wrvWaOsUcRraZ8n2qCrhY?authuser=0&hl=tr&rclk=1",
    "website_url": "",
    "rating_text": "5,0",
    "stars": null,
    "number_of_reviews": null,
    "price_level": "",
    "open_hours": "",
    "extraction_timestamp": "2025-06-07T15:20:41.879Z",
    "source_name": "google",
    "source_query": "Irrigation Equipment",
    "source_country": "DE",
    "country": "Germany",
    "state": "Hamburg",
    "city": "Kleiner Grasbrook"
  },
  {
    "source_id": "ChIJ4R34GoKPsUcR_Di8Y72u1Q4",
    "name": "AN-Beregnungstechnik",
    "category": "AN-Beregnungstechnik",
    "formatted_address": "",
    "phone_number": "+4917673517226",
    "source_url": "https://www.google.com/maps/place/AN-Beregnungstechnik/data=!4m7!3m6!1s0x47b18f821af81de1:0xed5aebd63bc38fc!8m2!3d53.5576744!4d10.0112776!16s%2Fg%2F11x33m21xg!19sChIJ4R34GoKPsUcR_Di8Y72u1Q4?authuser=0&hl=tr&rclk=1",
    "website_url": "",
    "rating_text": "",
    "stars": null,
    "number_of_reviews": null,
    "price_level": "",
    "open_hours": "",
    "extraction_timestamp": "2025-06-07T15:20:41.880Z",
    "source_name": "google",
    "source_query": "Irrigation Equipment",
    "source_country": "DE",
    "country": "Germany",
    "state": "Hamburg",
    "city": "Kleiner Grasbrook"
  },
  {
    "source_id": "ChIJHTSLZcuPsUcRU15ynvyYO3g",
    "name": "Otto Meyer & Co.",
    "category": "Otto Meyer & Co.",
    "formatted_address": "4,7(161)",
    "phone_number": "+49407560670",
    "source_url": "https://www.google.com/maps/place/Otto+Meyer+%26+Co./data=!4m7!3m6!1s0x47b18fcb658b341d:0x783b98fc9e725e53!8m2!3d53.5103965!4d9.9831364!16s%2Fg%2F1tdmcyx4!19sChIJHTSLZcuPsUcRU15ynvyYO3g?authuser=0&hl=tr&rclk=1",
    "website_url": "",
    "rating_text": "4,7",
    "stars": null,
    "number_of_reviews": null,
    "price_level": "",
    "open_hours": "",
    "extraction_timestamp": "2025-06-07T15:20:41.880Z",
    "source_name": "google",
    "source_query": "Irrigation Equipment",
    "source_country": "DE",
    "country": "Germany",
    "state": "Hamburg",
    "city": "Kleiner Grasbrook"
  },
  {
    "source_id": "ChIJFwjJFASPsUcRilVCB5GaAa8",
    "name": "Speicherstadt Coffee Roastery",
    "category": "Speicherstadt Coffee Roastery",
    "formatted_address": "4,5(8.880) · €10–20",
    "phone_number": "+4988804",
    "source_url": "https://www.google.com/maps/place/Speicherstadt+Coffee+Roastery/data=!4m7!3m6!1s0x47b18f0414c90817:0xaf019a910742558a!8m2!3d53.5438273!4d9.9880427!16s%2Fg%2F1tfz97cv!19sChIJFwjJFASPsUcRilVCB5GaAa8?authuser=0&hl=tr&rclk=1",
    "website_url": "",
    "rating_text": "4,5",
    "stars": null,
    "number_of_reviews": null,
    "price_level": "",
    "open_hours": "",
    "extraction_timestamp": "2025-06-07T15:20:41.880Z",
    "source_name": "google",
    "source_query": "Irrigation Equipment",
    "source_country": "DE",
    "country": "Germany",
    "state": "Hamburg",
    "city": "Kleiner Grasbrook"
  },
  {
    "source_id": "ChIJaW137QaPsUcRgdDUm73XnO8",
    "name": "Sportwerft | XCAT & ROWonAIR Händler",
    "category": "Sportwerft | XCAT & ROWonAIR Händler",
    "formatted_address": "5,0(3)",
    "phone_number": "+49404294575724",
    "source_url": "https://www.google.com/maps/place/Sportwerft+%7C+XCAT+%26+ROWonAIR+H%C3%A4ndler/data=!4m7!3m6!1s0x47b18f06ed776d69:0xef9cd7bd9bd4d081!8m2!3d53.5409951!4d9.9859393!16s%2Fg%2F11g88stpxv!19sChIJaW137QaPsUcRgdDUm73XnO8?authuser=0&hl=tr&rclk=1",
    "website_url": "",
    "rating_text": "5,0",
    "stars": null,
    "number_of_reviews": null,
    "price_level": "",
    "open_hours": "",
    "extraction_timestamp": "2025-06-07T15:20:41.881Z",
    "source_name": "google",
    "source_query": "Irrigation Equipment",
    "source_country": "DE",
    "country": "Germany",
    "state": "Hamburg",
    "city": "Kleiner Grasbrook"
  },
  {
    "source_id": "ChIJ58gYT7WPsUcRfAAxvc6G5PA",
    "name": "Gartenzauberwerk Hamburg - Comgatus GmbH",
    "category": "Gartenzauberwerk Hamburg - Comgatus GmbH",
    "formatted_address": "4,6(54)",
    "phone_number": "+494060944403",
    "source_url": "https://www.google.com/maps/place/Gartenzauberwerk+Hamburg+-+Comgatus+GmbH/data=!4m7!3m6!1s0x47b18fb54f18c8e7:0xf0e486cebd31007c!8m2!3d53.5274534!4d10.0284149!16s%2Fg%2F11b5ytm81z!19sChIJ58gYT7WPsUcRfAAxvc6G5PA?authuser=0&hl=tr&rclk=1",
    "website_url": "",
    "rating_text": "4,6",
    "stars": null,
    "number_of_reviews": null,
    "price_level": "",
    "open_hours": "",
    "extraction_timestamp": "2025-06-07T15:20:41.881Z",
    "source_name": "google",
    "source_query": "Irrigation Equipment",
    "source_country": "DE",
    "country": "Germany",
    "state": "Hamburg",
    "city": "Kleiner Grasbrook"
  },
  {
    "source_id": "ChIJ7em9Wp-IsUcR-PnzCLUWox4",
    "name": "Quellklar by Hydro-Shop",
    "category": "Quellklar by Hydro-Shop",
    "formatted_address": "3,5(8)",
    "phone_number": "+49405001720",
    "source_url": "https://www.google.com/maps/place/Quellklar+by+Hydro-Shop/data=!4m7!3m6!1s0x47b1889f5abde9ed:0x1ea316b508f3f9f8!8m2!3d53.610056!4d9.974098!16s%2Fg%2F1hc3w12m3!19sChIJ7em9Wp-IsUcR-PnzCLUWox4?authuser=0&hl=tr&rclk=1",
    "website_url": "",
    "rating_text": "3,5",
    "stars": null,
    "number_of_reviews": null,
    "price_level": "",
    "open_hours": "",
    "extraction_timestamp": "2025-06-07T15:20:41.881Z",
    "source_name": "google",
    "source_query": "Irrigation Equipment",
    "source_country": "DE",
    "country": "Germany",
    "state": "Hamburg",
    "city": "Kleiner Grasbrook"
  }
]
