[
  {
    "source_id": "ChIJkywGF5mJsUcRTcTZFKaoTiw",
    "name": "Action Hamburg-Langenhorn",
    "category": "Action Hamburg-Langenhorn",
    "formatted_address": "4,0(1.306)",
    "phone_number": "+4913064",
    "source_url": "https://www.google.com/maps/place/Action+Hamburg-Langenhorn/data=!4m7!3m6!1s0x47b1899917062c93:0x2c4ea8a614d9c44d!8m2!3d53.6476214!4d10.0146712!16s%2Fg%2F11g22_2tdk!19sChIJkywGF5mJsUcRTcTZFKaoTiw?authuser=0&hl=tr&rclk=1",
    "website_url": "",
    "rating_text": "4,0",
    "stars": null,
    "number_of_reviews": null,
    "price_level": "",
    "open_hours": "",
    "extraction_timestamp": "2025-06-07T15:18:15.668Z",
    "source_name": "google",
    "source_query": "Irrigation Equipment",
    "source_country": "DE",
    "country": "Germany",
    "state": "Hamburg",
    "city": "Langenhorn"
  },
  {
    "source_id": "ChIJe13K4AKIsUcRAbFxWu7RNqE",
    "name": "Bauhaus AG",
    "category": "Bauhaus AG",
    "formatted_address": "4,0(1.866)",
    "phone_number": "+4918664",
    "source_url": "https://www.google.com/maps/place/Bauhaus+AG/data=!4m7!3m6!1s0x47b18802e0ca5d7b:0xa136d1ee5a71b101!8m2!3d53.6646527!4d9.9940734!16s%2Fg%2F11b5qtm4k8!19sChIJe13K4AKIsUcRAbFxWu7RNqE?authuser=0&hl=tr&rclk=1",
    "website_url": "",
    "rating_text": "4,0",
    "stars": null,
    "number_of_reviews": null,
    "price_level": "",
    "open_hours": "",
    "extraction_timestamp": "2025-06-07T15:18:15.670Z",
    "source_name": "google",
    "source_query": "Irrigation Equipment",
    "source_country": "DE",
    "country": "Germany",
    "state": "Hamburg",
    "city": "Langenhorn"
  },
  {
    "source_id": "ChIJWxfdmWWJsUcRKJ3HS1pTfCQ",
    "name": "DECATHLON Hamburg-Langenhorn",
    "category": "DECATHLON Hamburg-Langenhorn",
    "formatted_address": "4,3(237)",
    "phone_number": "+49405079722010",
    "source_url": "https://www.google.com/maps/place/DECATHLON+Hamburg-Langenhorn/data=!4m7!3m6!1s0x47b1896599dd175b:0x247c535a4bc79d28!8m2!3d53.649217!4d10.0140898!16s%2Fg%2F11fv4lw8t0!19sChIJWxfdmWWJsUcRKJ3HS1pTfCQ?authuser=0&hl=tr&rclk=1",
    "website_url": "",
    "rating_text": "4,3",
    "stars": null,
    "number_of_reviews": null,
    "price_level": "",
    "open_hours": "",
    "extraction_timestamp": "2025-06-07T15:18:15.672Z",
    "source_name": "google",
    "source_query": "Irrigation Equipment",
    "source_country": "DE",
    "country": "Germany",
    "state": "Hamburg",
    "city": "Langenhorn"
  },
  {
    "source_id": "ChIJl025cTmIsUcRep1KoB5a3vI",
    "name": "Kaya Markt GmbH",
    "category": "Kaya Markt GmbH",
    "formatted_address": "4,3(124)",
    "phone_number": "+494053320192",
    "source_url": "https://www.google.com/maps/place/Kaya+Markt+GmbH/data=!4m7!3m6!1s0x47b1883971b94d97:0xf2de5a1ea04a9d7a!8m2!3d53.6485582!4d10.0165037!16s%2Fg%2F1tmz5_b1!19sChIJl025cTmIsUcRep1KoB5a3vI?authuser=0&hl=tr&rclk=1",
    "website_url": "",
    "rating_text": "4,3",
    "stars": null,
    "number_of_reviews": null,
    "price_level": "",
    "open_hours": "",
    "extraction_timestamp": "2025-06-07T15:18:15.674Z",
    "source_name": "google",
    "source_query": "Irrigation Equipment",
    "source_country": "DE",
    "country": "Germany",
    "state": "Hamburg",
    "city": "Langenhorn"
  },
  {
    "source_id": "ChIJYWj9xsyJsUcRd8OogR29cX4",
    "name": "hagebaumarkt Hummelsbüttel - Möller & Förster",
    "category": "hagebaumarkt Hummelsbüttel - Möller & Förster",
    "formatted_address": "4,1(2.067)",
    "phone_number": "+49406450640",
    "source_url": "https://www.google.com/maps/place/hagebaumarkt+Hummelsb%C3%BCttel+-+M%C3%B6ller+%26+F%C3%B6rster/data=!4m7!3m6!1s0x47b189ccc6fd6861:0x7e71bd1d81a8c377!8m2!3d53.6487259!4d10.0385592!16s%2Fg%2F1tdvj6_b!19sChIJYWj9xsyJsUcRd8OogR29cX4?authuser=0&hl=tr&rclk=1",
    "website_url": "",
    "rating_text": "4,1",
    "stars": null,
    "number_of_reviews": null,
    "price_level": "",
    "open_hours": "",
    "extraction_timestamp": "2025-06-07T15:18:15.677Z",
    "source_name": "google",
    "source_query": "Irrigation Equipment",
    "source_country": "DE",
    "country": "Germany",
    "state": "Hamburg",
    "city": "Langenhorn"
  },
  {
    "source_id": "ChIJ9-8NigkoskcRck3x-TQIrGw",
    "name": "STOLLE Sanitätshaus Langenhorn",
    "category": "STOLLE Sanitätshaus Langenhorn",
    "formatted_address": "4,0(53)",
    "phone_number": "+49405313030",
    "source_url": "https://www.google.com/maps/place/STOLLE+Sanit%C3%A4tshaus+Langenhorn/data=!4m7!3m6!1s0x47b228098a0deff7:0x6cac0834f9f14d72!8m2!3d53.6499016!4d10.0150252!16s%2Fg%2F1hhw2n4zf!19sChIJ9-8NigkoskcRck3x-TQIrGw?authuser=0&hl=tr&rclk=1",
    "website_url": "",
    "rating_text": "4,0",
    "stars": null,
    "number_of_reviews": null,
    "price_level": "",
    "open_hours": "",
    "extraction_timestamp": "2025-06-07T15:18:15.678Z",
    "source_name": "google",
    "source_query": "Irrigation Equipment",
    "source_country": "DE",
    "country": "Germany",
    "state": "Hamburg",
    "city": "Langenhorn"
  },
  {
    "source_id": "ChIJFX_jVI6JsUcR2TKHmlpDl14",
    "name": "Müller",
    "category": "Müller",
    "formatted_address": "4,2(271)",
    "phone_number": "+4940210313180",
    "source_url": "https://www.google.com/maps/place/M%C3%BCller/data=!4m7!3m6!1s0x47b1898e54e37f15:0x5e97435a9a8732d9!8m2!3d53.6499809!4d10.0137559!16s%2Fg%2F11grpvkg67!19sChIJFX_jVI6JsUcR2TKHmlpDl14?authuser=0&hl=tr&rclk=1",
    "website_url": "",
    "rating_text": "4,2",
    "stars": null,
    "number_of_reviews": null,
    "price_level": "",
    "open_hours": "",
    "extraction_timestamp": "2025-06-07T15:18:15.680Z",
    "source_name": "google",
    "source_query": "Irrigation Equipment",
    "source_country": "DE",
    "country": "Germany",
    "state": "Hamburg",
    "city": "Langenhorn"
  },
  {
    "source_id": "ChIJY6204TuIsUcRUQute7NxN38",
    "name": "Kaufland Hamburg-Nord, Krohnstieg",
    "category": "Kaufland Hamburg-Nord, Krohnstieg",
    "formatted_address": "Kaufland Hamburg-Nord, Krohnstieg",
    "phone_number": "+4939883",
    "source_url": "https://www.google.com/maps/place/Kaufland+Hamburg-Nord,+Krohnstieg/data=!4m7!3m6!1s0x47b1883be1b4ad63:0x7f3771b37bad0b51!8m2!3d53.6501548!4d10.0162349!16s%2Fg%2F1tdy83b0!19sChIJY6204TuIsUcRUQute7NxN38?authuser=0&hl=tr&rclk=1",
    "website_url": "",
    "rating_text": "3,9",
    "stars": null,
    "number_of_reviews": null,
    "price_level": "",
    "open_hours": "",
    "extraction_timestamp": "2025-06-07T15:18:15.682Z",
    "source_name": "google",
    "source_query": "Irrigation Equipment",
    "source_country": "DE",
    "country": "Germany",
    "state": "Hamburg",
    "city": "Langenhorn"
  },
  {
    "source_id": "ChIJUxlPjxiLsUcRQTVnqrbhIR4",
    "name": "B&O Service Hamburg GmbH",
    "category": "B&O Service Hamburg GmbH",
    "formatted_address": "1,8(64)",
    "phone_number": "",
    "source_url": "https://www.google.com/maps/place/B%26O+Service+Hamburg+GmbH/data=!4m7!3m6!1s0x47b18b188f4f1953:0x1e21e1b6aa673541!8m2!3d53.6526604!4d10.0183863!16s%2Fg%2F1hc64k_rq!19sChIJUxlPjxiLsUcRQTVnqrbhIR4?authuser=0&hl=tr&rclk=1",
    "website_url": "",
    "rating_text": "1,8",
    "stars": null,
    "number_of_reviews": null,
    "price_level": "",
    "open_hours": "",
    "extraction_timestamp": "2025-06-07T15:18:15.684Z",
    "source_name": "google",
    "source_query": "Irrigation Equipment",
    "source_country": "DE",
    "country": "Germany",
    "state": "Hamburg",
    "city": "Langenhorn"
  },
  {
    "source_id": "ChIJASnWkcaJsUcRBXFbsf_0gRo",
    "name": "Lieblingsklempner GmbH",
    "category": "Lieblingsklempner GmbH",
    "formatted_address": "3,8(31)",
    "phone_number": "+494064891900",
    "source_url": "https://www.google.com/maps/place/Lieblingsklempner+GmbH/data=!4m7!3m6!1s0x47b189c691d62901:0x1a81f4ffb15b7105!8m2!3d53.6390209!4d10.0135194!16s%2Fg%2F11f7mc2zc4!19sChIJASnWkcaJsUcRBXFbsf_0gRo?authuser=0&hl=tr&rclk=1",
    "website_url": "",
    "rating_text": "3,8",
    "stars": null,
    "number_of_reviews": null,
    "price_level": "",
    "open_hours": "",
    "extraction_timestamp": "2025-06-07T15:18:15.685Z",
    "source_name": "google",
    "source_query": "Irrigation Equipment",
    "source_country": "DE",
    "country": "Germany",
    "state": "Hamburg",
    "city": "Langenhorn"
  },
  {
    "source_id": "ChIJxRsusICFsUcRK41Scd5s5dI",
    "name": "Sanitärservice Tramdovskis e. K.",
    "category": "Sanitärservice Tramdovskis e. K.",
    "formatted_address": "4,7(20)",
    "phone_number": "+494063663960",
    "source_url": "https://www.google.com/maps/place/Sanit%C3%A4rservice+Tramdovskis+e.+K./data=!4m7!3m6!1s0x47b18580b02e1bc5:0xd2e56cde71528d2b!8m2!3d53.6615615!4d10.0077917!16s%2Fg%2F11b6dqrwhn!19sChIJxRsusICFsUcRK41Scd5s5dI?authuser=0&hl=tr&rclk=1",
    "website_url": "",
    "rating_text": "4,7",
    "stars": null,
    "number_of_reviews": null,
    "price_level": "",
    "open_hours": "",
    "extraction_timestamp": "2025-06-07T15:18:15.686Z",
    "source_name": "google",
    "source_query": "Irrigation Equipment",
    "source_country": "DE",
    "country": "Germany",
    "state": "Hamburg",
    "city": "Langenhorn"
  },
  {
    "source_id": "ChIJf5UjKh-IsUcRaqK_ZmOJ04I",
    "name": "Teichfolie Hamburg",
    "category": "Teichfolie Hamburg",
    "formatted_address": "",
    "phone_number": "+4940414375800",
    "source_url": "https://www.google.com/maps/place/Teichfolie+Hamburg/data=!4m7!3m6!1s0x47b1881f2a23957f:0x82d3896366bfa26a!8m2!3d53.6612864!4d10.006499!16s%2Fg%2F1tdydpgb!19sChIJf5UjKh-IsUcRaqK_ZmOJ04I?authuser=0&hl=tr&rclk=1",
    "website_url": "",
    "rating_text": "",
    "stars": null,
    "number_of_reviews": null,
    "price_level": "",
    "open_hours": "",
    "extraction_timestamp": "2025-06-07T15:18:15.687Z",
    "source_name": "google",
    "source_query": "Irrigation Equipment",
    "source_country": "DE",
    "country": "Germany",
    "state": "Hamburg",
    "city": "Langenhorn"
  },
  {
    "source_id": "ChIJ818Bg-0nskcRBcUB3LlXS48",
    "name": "Nikolaj Hamm GmbH",
    "category": "Nikolaj Hamm GmbH",
    "formatted_address": "5,0(4)",
    "phone_number": "+4917670758354",
    "source_url": "https://www.google.com/maps/place/Nikolaj+Hamm+GmbH/data=!4m7!3m6!1s0x47b227ed83015ff3:0x8f4b57b9dc01c505!8m2!3d53.6774885!4d10.0125627!16s%2Fg%2F11d_tsffld!19sChIJ818Bg-0nskcRBcUB3LlXS48?authuser=0&hl=tr&rclk=1",
    "website_url": "",
    "rating_text": "5,0",
    "stars": null,
    "number_of_reviews": null,
    "price_level": "",
    "open_hours": "",
    "extraction_timestamp": "2025-06-07T15:18:15.688Z",
    "source_name": "google",
    "source_query": "Irrigation Equipment",
    "source_country": "DE",
    "country": "Germany",
    "state": "Hamburg",
    "city": "Langenhorn"
  },
  {
    "source_id": "ChIJ_4MmoeCJsUcRnDGbSoWeOQg",
    "name": "Fräulein von Elbe Langenhorn",
    "category": "Fräulein von Elbe Langenhorn",
    "formatted_address": "3,8(436) · ₺₺",
    "phone_number": "+494052732212",
    "source_url": "https://www.google.com/maps/place/Fr%C3%A4ulein+von+Elbe+Langenhorn/data=!4m7!3m6!1s0x47b189e0a12683ff:0x8399e854a9b319c!8m2!3d53.6500997!4d10.0130319!16s%2Fg%2F11gxqpgqnm!19sChIJ_4MmoeCJsUcRnDGbSoWeOQg?authuser=0&hl=tr&rclk=1",
    "website_url": "",
    "rating_text": "3,8",
    "stars": null,
    "number_of_reviews": null,
    "price_level": "",
    "open_hours": "",
    "extraction_timestamp": "2025-06-07T15:18:15.689Z",
    "source_name": "google",
    "source_query": "Irrigation Equipment",
    "source_country": "DE",
    "country": "Germany",
    "state": "Hamburg",
    "city": "Langenhorn"
  },
  {
    "source_id": "ChIJK6WQjyeIsUcRIMYNiPe5U6A",
    "name": "EDEKA Röper",
    "category": "EDEKA Röper",
    "formatted_address": "4,0(443)",
    "phone_number": "+494053048209",
    "source_url": "https://www.google.com/maps/place/EDEKA+R%C3%B6per/data=!4m7!3m6!1s0x47b188278f90a52b:0xa053b9f7880dc620!8m2!3d53.6642029!4d10.0238838!16s%2Fg%2F1trxjb4l!19sChIJK6WQjyeIsUcRIMYNiPe5U6A?authuser=0&hl=tr&rclk=1",
    "website_url": "",
    "rating_text": "4,0",
    "stars": null,
    "number_of_reviews": null,
    "price_level": "",
    "open_hours": "",
    "extraction_timestamp": "2025-06-07T15:18:15.690Z",
    "source_name": "google",
    "source_query": "Irrigation Equipment",
    "source_country": "DE",
    "country": "Germany",
    "state": "Hamburg",
    "city": "Langenhorn"
  },
  {
    "source_id": "ChIJG8zoS1CJsUcRLkBNCr95t5s",
    "name": "STOLLE Sanitätshaus Langenhorn Ärztehaus",
    "category": "STOLLE Sanitätshaus Langenhorn Ärztehaus",
    "formatted_address": "3,7(6)",
    "phone_number": "+494064596886",
    "source_url": "https://www.google.com/maps/place/STOLLE+Sanit%C3%A4tshaus+Langenhorn+%C3%84rztehaus/data=!4m7!3m6!1s0x47b189504be8cc1b:0x9bb779bf0a4d402e!8m2!3d53.6515017!4d10.0179813!16s%2Fg%2F11lm95m8x5!19sChIJG8zoS1CJsUcRLkBNCr95t5s?authuser=0&hl=tr&rclk=1",
    "website_url": "",
    "rating_text": "3,7",
    "stars": null,
    "number_of_reviews": null,
    "price_level": "",
    "open_hours": "",
    "extraction_timestamp": "2025-06-07T15:18:15.691Z",
    "source_name": "google",
    "source_query": "Irrigation Equipment",
    "source_country": "DE",
    "country": "Germany",
    "state": "Hamburg",
    "city": "Langenhorn"
  },
  {
    "source_id": "ChIJkeveC-UnskcRLSTTmDgBiVA",
    "name": "Fahrrad Hertel",
    "category": "Fahrrad Hertel",
    "formatted_address": "3,7(207)",
    "phone_number": "+49405278080",
    "source_url": "https://www.google.com/maps/place/Fahrrad+Hertel/data=!4m7!3m6!1s0x47b227e50bdeeb91:0x5089013898d3242d!8m2!3d53.680499!4d10.0003222!16s%2Fg%2F1thgg2cx!19sChIJkeveC-UnskcRLSTTmDgBiVA?authuser=0&hl=tr&rclk=1",
    "website_url": "",
    "rating_text": "3,7",
    "stars": null,
    "number_of_reviews": null,
    "price_level": "",
    "open_hours": "",
    "extraction_timestamp": "2025-06-07T15:18:15.692Z",
    "source_name": "google",
    "source_query": "Irrigation Equipment",
    "source_country": "DE",
    "country": "Germany",
    "state": "Hamburg",
    "city": "Langenhorn"
  },
  {
    "source_id": "ChIJ8fgYkmcnskcRymE2lHEFwcU",
    "name": "Crown Gabelstapler GmbH & Co. KG",
    "category": "Crown Gabelstapler GmbH & Co. KG",
    "formatted_address": "4,1(15)",
    "phone_number": "+494030236790",
    "source_url": "https://www.google.com/maps/place/Crown+Gabelstapler+GmbH+%26+Co.+KG/data=!4m7!3m6!1s0x47b227679218f8f1:0xc5c10571943661ca!8m2!3d53.6768929!4d9.9949412!16s%2Fg%2F1hc0t20lf!19sChIJ8fgYkmcnskcRymE2lHEFwcU?authuser=0&hl=tr&rclk=1",
    "website_url": "",
    "rating_text": "4,1",
    "stars": null,
    "number_of_reviews": null,
    "price_level": "",
    "open_hours": "",
    "extraction_timestamp": "2025-06-07T15:18:15.693Z",
    "source_name": "google",
    "source_query": "Irrigation Equipment",
    "source_country": "DE",
    "country": "Germany",
    "state": "Hamburg",
    "city": "Langenhorn"
  },
  {
    "source_id": "ChIJA87_jDyJsUcRtA2zEuXYCQc",
    "name": "BAUHAUS Stadtgarten Hamburg-Langenhorn",
    "category": "BAUHAUS Stadtgarten Hamburg-Langenhorn",
    "formatted_address": "2,8(6)",
    "phone_number": "+494068860350",
    "source_url": "https://www.google.com/maps/place/BAUHAUS+Stadtgarten+Hamburg-Langenhorn/data=!4m7!3m6!1s0x47b1893c8cffce03:0x709d8e512b30db4!8m2!3d53.6646249!4d9.994049!16s%2Fg%2F11vbblhcfs!19sChIJA87_jDyJsUcRtA2zEuXYCQc?authuser=0&hl=tr&rclk=1",
    "website_url": "",
    "rating_text": "2,8",
    "stars": null,
    "number_of_reviews": null,
    "price_level": "",
    "open_hours": "",
    "extraction_timestamp": "2025-06-07T15:18:15.694Z",
    "source_name": "google",
    "source_query": "Irrigation Equipment",
    "source_country": "DE",
    "country": "Germany",
    "state": "Hamburg",
    "city": "Langenhorn"
  },
  {
    "source_id": "ChIJixz8c2zzsUcRvWDIvRaRRaY",
    "name": "ABS Bewässerungssysteme",
    "category": "ABS Bewässerungssysteme",
    "formatted_address": "5,0(10)",
    "phone_number": "+494020963222",
    "source_url": "https://www.google.com/maps/place/ABS+Bew%C3%A4sserungssysteme/data=!4m7!3m6!1s0x47b1f36c73fc1c8b:0xa6459116bdc860bd!8m2!3d53.4851575!4d10.1899135!16s%2Fg%2F11pwpgyn7x!19sChIJixz8c2zzsUcRvWDIvRaRRaY?authuser=0&hl=tr&rclk=1",
    "website_url": "",
    "rating_text": "5,0",
    "stars": null,
    "number_of_reviews": null,
    "price_level": "",
    "open_hours": "",
    "extraction_timestamp": "2025-06-07T15:18:15.695Z",
    "source_name": "google",
    "source_query": "Irrigation Equipment",
    "source_country": "DE",
    "country": "Germany",
    "state": "Hamburg",
    "city": "Langenhorn"
  },
  {
    "source_id": "ChIJkT2vkRqMsUcRQwSvaHxKkYQ",
    "name": "The BIOFILMKILLER",
    "category": "The BIOFILMKILLER",
    "formatted_address": "",
    "phone_number": "+4915167638771",
    "source_url": "https://www.google.com/maps/place/The+BIOFILMKILLER/data=!4m7!3m6!1s0x47b18c1a91af3d91:0x84914a7c68af0443!8m2!3d53.5598497!4d10.0784309!16s%2Fg%2F11cs32py4x!19sChIJkT2vkRqMsUcRQwSvaHxKkYQ?authuser=0&hl=tr&rclk=1",
    "website_url": "",
    "rating_text": "",
    "stars": null,
    "number_of_reviews": null,
    "price_level": "",
    "open_hours": "",
    "extraction_timestamp": "2025-06-07T15:18:15.695Z",
    "source_name": "google",
    "source_query": "Irrigation Equipment",
    "source_country": "DE",
    "country": "Germany",
    "state": "Hamburg",
    "city": "Langenhorn"
  }
]
