[
  {
    "source_id": "ChIJqSTYZiaEsUcR9yH9Fl0VVBg",
    "name": "BAUHAUS Hamburg-Lurup",
    "category": "BAUHAUS Hamburg-Lurup",
    "formatted_address": "4,2(2.933)",
    "phone_number": "+494053327000",
    "source_url": "https://www.google.com/maps/place/BAUHAUS+Hamburg-Lurup/data=!4m7!3m6!1s0x47b1842666d824a9:0x1854155d16fd21f7!8m2!3d53.5858725!4d9.8739404!16s%2Fg%2F11b6209xtp!19sChIJqSTYZiaEsUcR9yH9Fl0VVBg?authuser=0&hl=tr&rclk=1",
    "website_url": "",
    "rating_text": "4,2",
    "stars": null,
    "number_of_reviews": null,
    "price_level": "",
    "open_hours": "",
    "extraction_timestamp": "2025-06-07T15:24:29.307Z",
    "source_name": "google",
    "source_query": "Irrigation Equipment",
    "source_country": "DE",
    "country": "Germany",
    "state": "Hamburg",
    "city": "Lurup"
  },
  {
    "source_id": "ChIJ7em9Wp-IsUcR-PnzCLUWox4",
    "name": "Quellklar by Hydro-Shop",
    "category": "Quellklar by Hydro-Shop",
    "formatted_address": "3,5(8)",
    "phone_number": "+49405001720",
    "source_url": "https://www.google.com/maps/place/Quellklar+by+Hydro-Shop/data=!4m7!3m6!1s0x47b1889f5abde9ed:0x1ea316b508f3f9f8!8m2!3d53.610056!4d9.974098!16s%2Fg%2F1hc3w12m3!19sChIJ7em9Wp-IsUcR-PnzCLUWox4?authuser=0&hl=tr&rclk=1",
    "website_url": "",
    "rating_text": "3,5",
    "stars": null,
    "number_of_reviews": null,
    "price_level": "",
    "open_hours": "",
    "extraction_timestamp": "2025-06-07T15:24:29.308Z",
    "source_name": "google",
    "source_query": "Irrigation Equipment",
    "source_country": "DE",
    "country": "Germany",
    "state": "Hamburg",
    "city": "Lurup"
  },
  {
    "source_id": "ChIJFayYSwGHsUcRwKpGZUkZCW0",
    "name": "RUDOLF SIEVERS GmbH",
    "category": "RUDOLF SIEVERS GmbH",
    "formatted_address": "4,7(15)",
    "phone_number": "+4940559970",
    "source_url": "https://www.google.com/maps/place/RUDOLF+SIEVERS+GmbH/data=!4m7!3m6!1s0x47b187014b98ac15:0x6d0919496546aac0!8m2!3d53.6151542!4d9.9049291!16s%2Fg%2F1tmpc_1v!19sChIJFayYSwGHsUcRwKpGZUkZCW0?authuser=0&hl=tr&rclk=1",
    "website_url": "",
    "rating_text": "4,7",
    "stars": null,
    "number_of_reviews": null,
    "price_level": "",
    "open_hours": "",
    "extraction_timestamp": "2025-06-07T15:24:29.309Z",
    "source_name": "google",
    "source_query": "Irrigation Equipment",
    "source_country": "DE",
    "country": "Germany",
    "state": "Hamburg",
    "city": "Lurup"
  },
  {
    "source_id": "ChIJsyyOly6EsUcRjCvlLzGVbkA",
    "name": "Henri Benthack GmbH & Co. KG",
    "category": "Henri Benthack GmbH & Co. KG",
    "formatted_address": "4,4(68)",
    "phone_number": "+494082299290",
    "source_url": "https://www.google.com/maps/place/Henri+Benthack+GmbH+%26+Co.+KG/data=!4m7!3m6!1s0x47b1842e978e2cb3:0x406e95312fe52b8c!8m2!3d53.5829571!4d9.881909!16s%2Fg%2F1ptzmny8_!19sChIJsyyOly6EsUcRjCvlLzGVbkA?authuser=0&hl=tr&rclk=1",
    "website_url": "",
    "rating_text": "4,4",
    "stars": null,
    "number_of_reviews": null,
    "price_level": "",
    "open_hours": "",
    "extraction_timestamp": "2025-06-07T15:24:29.310Z",
    "source_name": "google",
    "source_query": "Irrigation Equipment",
    "source_country": "DE",
    "country": "Germany",
    "state": "Hamburg",
    "city": "Lurup"
  },
  {
    "source_id": "ChIJ7w1ftf-HsUcRKz8GSR5K4qg",
    "name": "Action Hamburg-Lurup",
    "category": "Action Hamburg-Lurup",
    "formatted_address": "3,8(197)",
    "phone_number": "+4921130146100",
    "source_url": "https://www.google.com/maps/place/Action+Hamburg-Lurup/data=!4m7!3m6!1s0x47b187ffb55f0def:0xa8e24a1e49063f2b!8m2!3d53.5917832!4d9.8738872!16s%2Fg%2F11q8rtws7d!19sChIJ7w1ftf-HsUcRKz8GSR5K4qg?authuser=0&hl=tr&rclk=1",
    "website_url": "",
    "rating_text": "3,8",
    "stars": null,
    "number_of_reviews": null,
    "price_level": "",
    "open_hours": "",
    "extraction_timestamp": "2025-06-07T15:24:29.311Z",
    "source_name": "google",
    "source_query": "Irrigation Equipment",
    "source_country": "DE",
    "country": "Germany",
    "state": "Hamburg",
    "city": "Lurup"
  },
  {
    "source_id": "ChIJoTTkHW6GsUcRuYcF9jn7GgE",
    "name": "Emil Lüdemann GmbH & Co. KG",
    "category": "Emil Lüdemann GmbH & Co. KG",
    "formatted_address": "4,6(344)",
    "phone_number": "+49405472190",
    "source_url": "https://www.google.com/maps/place/Emil+L%C3%BCdemann+GmbH+%26+Co.+KG/data=!4m7!3m6!1s0x47b1866e1de434a1:0x11afb39f60587b9!8m2!3d53.5974091!4d9.9174937!16s%2Fg%2F1tqck8cj!19sChIJoTTkHW6GsUcRuYcF9jn7GgE?authuser=0&hl=tr&rclk=1",
    "website_url": "",
    "rating_text": "4,6",
    "stars": null,
    "number_of_reviews": null,
    "price_level": "",
    "open_hours": "",
    "extraction_timestamp": "2025-06-07T15:24:29.312Z",
    "source_name": "google",
    "source_query": "Irrigation Equipment",
    "source_country": "DE",
    "country": "Germany",
    "state": "Hamburg",
    "city": "Lurup"
  },
  {
    "source_id": "ChIJ0aoZkiaEsUcRuNfeLCKPXsg",
    "name": "BAUHAUS Stadtgarten",
    "category": "BAUHAUS Stadtgarten",
    "formatted_address": "4,2(31)",
    "phone_number": "+494053327000",
    "source_url": "https://www.google.com/maps/place/BAUHAUS+Stadtgarten/data=!4m7!3m6!1s0x47b184269219aad1:0xc85e8f222cded7b8!8m2!3d53.58623!4d9.8731299!16s%2Fg%2F11fnrfdx13!19sChIJ0aoZkiaEsUcRuNfeLCKPXsg?authuser=0&hl=tr&rclk=1",
    "website_url": "",
    "rating_text": "4,2",
    "stars": null,
    "number_of_reviews": null,
    "price_level": "",
    "open_hours": "",
    "extraction_timestamp": "2025-06-07T15:24:29.313Z",
    "source_name": "google",
    "source_query": "Irrigation Equipment",
    "source_country": "DE",
    "country": "Germany",
    "state": "Hamburg",
    "city": "Lurup"
  },
  {
    "source_id": "ChIJj7EYvr2GsUcRDposvdyMhhU",
    "name": "Netze Minimarkt",
    "category": "Netze Minimarkt",
    "formatted_address": "4,1(50) · ₺₺",
    "phone_number": "+494046007732",
    "source_url": "https://www.google.com/maps/place/Netze+Minimarkt/data=!4m7!3m6!1s0x47b186bdbe18b18f:0x15868cdcbd2c9a0e!8m2!3d53.6054873!4d9.8671558!16s%2Fg%2F11f0wn9nyg!19sChIJj7EYvr2GsUcRDposvdyMhhU?authuser=0&hl=tr&rclk=1",
    "website_url": "",
    "rating_text": "4,1",
    "stars": null,
    "number_of_reviews": null,
    "price_level": "",
    "open_hours": "",
    "extraction_timestamp": "2025-06-07T15:24:29.314Z",
    "source_name": "google",
    "source_query": "Irrigation Equipment",
    "source_country": "DE",
    "country": "Germany",
    "state": "Hamburg",
    "city": "Lurup"
  },
  {
    "source_id": "ChIJz7-vlZ2GsUcR72VHl312Tzo",
    "name": "Kaufland Hamburg-Altona, Lurup-Cent",
    "category": "Kaufland Hamburg-Altona, Lurup-Cent",
    "formatted_address": "Kaufland Hamburg-Altona, Lurup-Cent",
    "phone_number": "+4918574",
    "source_url": "https://www.google.com/maps/place/Kaufland+Hamburg-Altona,+Lurup-Cent/data=!4m7!3m6!1s0x47b1869d95afbfcf:0x3a4f767d974765ef!8m2!3d53.591595!4d9.8742839!16s%2Fg%2F1hm627x5l!19sChIJz7-vlZ2GsUcR72VHl312Tzo?authuser=0&hl=tr&rclk=1",
    "website_url": "",
    "rating_text": "4,0",
    "stars": null,
    "number_of_reviews": null,
    "price_level": "",
    "open_hours": "",
    "extraction_timestamp": "2025-06-07T15:24:29.315Z",
    "source_name": "google",
    "source_query": "Irrigation Equipment",
    "source_country": "DE",
    "country": "Germany",
    "state": "Hamburg",
    "city": "Lurup"
  },
  {
    "source_id": "ChIJJWIOJRmFsUcRsdm3rZzvY0E",
    "name": "GLOBUS Markthalle Hamburg-Lurup",
    "category": "GLOBUS Markthalle Hamburg-Lurup",
    "formatted_address": "4,4(1.570)",
    "phone_number": "+4915704",
    "source_url": "https://www.google.com/maps/place/GLOBUS+Markthalle+Hamburg-Lurup/data=!4m7!3m6!1s0x47b18519250e6225:0x4163ef9cadb7d9b1!8m2!3d53.5840851!4d9.8704929!16s%2Fg%2F11sjfrjgfq!19sChIJJWIOJRmFsUcRsdm3rZzvY0E?authuser=0&hl=tr&rclk=1",
    "website_url": "",
    "rating_text": "4,4",
    "stars": null,
    "number_of_reviews": null,
    "price_level": "",
    "open_hours": "",
    "extraction_timestamp": "2025-06-07T15:24:29.316Z",
    "source_name": "google",
    "source_query": "Irrigation Equipment",
    "source_country": "DE",
    "country": "Germany",
    "state": "Hamburg",
    "city": "Lurup"
  },
  {
    "source_id": "ChIJVVVl1B-PsUcRe0sT8uYkNPU",
    "name": "TurfPro GmbH",
    "category": "TurfPro GmbH",
    "formatted_address": "4,3(16)",
    "phone_number": "+494084895219",
    "source_url": "https://www.google.com/maps/place/TurfPro+GmbH/data=!4m7!3m6!1s0x47b18f1fd4655555:0xf53424e6f2134b7b!8m2!3d53.5551215!4d10.00104!16s%2Fg%2F11g1f90l5g!19sChIJVVVl1B-PsUcRe0sT8uYkNPU?authuser=0&hl=tr&rclk=1",
    "website_url": "",
    "rating_text": "4,3",
    "stars": null,
    "number_of_reviews": null,
    "price_level": "",
    "open_hours": "",
    "extraction_timestamp": "2025-06-07T15:24:29.317Z",
    "source_name": "google",
    "source_query": "Irrigation Equipment",
    "source_country": "DE",
    "country": "Germany",
    "state": "Hamburg",
    "city": "Lurup"
  },
  {
    "source_id": "ChIJbSNxPqyHsUcRFNshdBtva3A",
    "name": "budni - Luruper Hauptstraße",
    "category": "budni - Luruper Hauptstraße",
    "formatted_address": "4,3(32)",
    "phone_number": "+494080603030",
    "source_url": "https://www.google.com/maps/place/budni+-+Luruper+Hauptstra%C3%9Fe/data=!4m7!3m6!1s0x47b187ac3e71236d:0x706b6f1b7421db14!8m2!3d53.59861!4d9.8591512!16s%2Fg%2F1hm27wwmm!19sChIJbSNxPqyHsUcRFNshdBtva3A?authuser=0&hl=tr&rclk=1",
    "website_url": "",
    "rating_text": "4,3",
    "stars": null,
    "number_of_reviews": null,
    "price_level": "",
    "open_hours": "",
    "extraction_timestamp": "2025-06-07T15:24:29.318Z",
    "source_name": "google",
    "source_query": "Irrigation Equipment",
    "source_country": "DE",
    "country": "Germany",
    "state": "Hamburg",
    "city": "Lurup"
  },
  {
    "source_id": "ChIJ14zOTX2GsUcRLIdMEJrqVK8",
    "name": "Atlas Hamburg GmbH",
    "category": "Atlas Hamburg GmbH",
    "formatted_address": "4,8(62)",
    "phone_number": "+49408405420",
    "source_url": "https://www.google.com/maps/place/Atlas+Hamburg+GmbH/data=!4m7!3m6!1s0x47b1867d4dce8cd7:0xaf54ea9a104c872c!8m2!3d53.5986621!4d9.8982821!16s%2Fg%2F1tgdmm9_!19sChIJ14zOTX2GsUcRLIdMEJrqVK8?authuser=0&hl=tr&rclk=1",
    "website_url": "",
    "rating_text": "4,8",
    "stars": null,
    "number_of_reviews": null,
    "price_level": "",
    "open_hours": "",
    "extraction_timestamp": "2025-06-07T15:24:29.319Z",
    "source_name": "google",
    "source_query": "Irrigation Equipment",
    "source_country": "DE",
    "country": "Germany",
    "state": "Hamburg",
    "city": "Lurup"
  },
  {
    "source_id": "ChIJEfMhuG6HsUcRxtK-guHA2_Y",
    "name": "Kiosk viersieben",
    "category": "Kiosk viersieben",
    "formatted_address": "4,5(74)",
    "phone_number": "+4915510376623",
    "source_url": "https://www.google.com/maps/place/Kiosk+viersieben/data=!4m7!3m6!1s0x47b1876eb821f311:0xf6dbc0e182bed2c6!8m2!3d53.602416!4d9.8790007!16s%2Fg%2F11h76bfkxk!19sChIJEfMhuG6HsUcRxtK-guHA2_Y?authuser=0&hl=tr&rclk=1",
    "website_url": "",
    "rating_text": "4,5",
    "stars": null,
    "number_of_reviews": null,
    "price_level": "",
    "open_hours": "",
    "extraction_timestamp": "2025-06-07T15:24:29.320Z",
    "source_name": "google",
    "source_query": "Irrigation Equipment",
    "source_country": "DE",
    "country": "Germany",
    "state": "Hamburg",
    "city": "Lurup"
  },
  {
    "source_id": "ChIJieKGE2CGsUcRAmGAsC6SUBE",
    "name": "Erden Market Eidelstedt",
    "category": "Erden Market Eidelstedt",
    "formatted_address": "4,0(579)",
    "phone_number": "+494027869512",
    "source_url": "https://www.google.com/maps/place/Erden+Market+Eidelstedt/data=!4m7!3m6!1s0x47b186601386e289:0x1150922eb0806102!8m2!3d53.6087366!4d9.9021131!16s%2Fg%2F1tdltb68!19sChIJieKGE2CGsUcRAmGAsC6SUBE?authuser=0&hl=tr&rclk=1",
    "website_url": "",
    "rating_text": "4,0",
    "stars": null,
    "number_of_reviews": null,
    "price_level": "",
    "open_hours": "",
    "extraction_timestamp": "2025-06-07T15:24:29.321Z",
    "source_name": "google",
    "source_query": "Irrigation Equipment",
    "source_country": "DE",
    "country": "Germany",
    "state": "Hamburg",
    "city": "Lurup"
  },
  {
    "source_id": "ChIJP2FNlI-GsUcRECMc8XTGrSs",
    "name": "Mix Markt",
    "category": "Mix Markt",
    "formatted_address": "4,3(1.617)",
    "phone_number": "+4916174",
    "source_url": "https://www.google.com/maps/place/Mix+Markt/data=!4m7!3m6!1s0x47b1868f944d613f:0x2badc674f11c2310!8m2!3d53.6013773!4d9.8851964!16s%2Fg%2F1s04h9wxk!19sChIJP2FNlI-GsUcRECMc8XTGrSs?authuser=0&hl=tr&rclk=1",
    "website_url": "",
    "rating_text": "4,3",
    "stars": null,
    "number_of_reviews": null,
    "price_level": "",
    "open_hours": "",
    "extraction_timestamp": "2025-06-07T15:24:29.323Z",
    "source_name": "google",
    "source_query": "Irrigation Equipment",
    "source_country": "DE",
    "country": "Germany",
    "state": "Hamburg",
    "city": "Lurup"
  },
  {
    "source_id": "ChIJK83LItiHsUcRHDZMzcI7csM",
    "name": "Action Hamburg",
    "category": "Action Hamburg",
    "formatted_address": "4,0(412)",
    "phone_number": "+4921130146100",
    "source_url": "https://www.google.com/maps/place/Action+Hamburg/data=!4m7!3m6!1s0x47b187d822cbcd2b:0xc3723bc2cd4c361c!8m2!3d53.6074867!4d9.9043553!16s%2Fg%2F11n32zysrw!19sChIJK83LItiHsUcRHDZMzcI7csM?authuser=0&hl=tr&rclk=1",
    "website_url": "",
    "rating_text": "4,0",
    "stars": null,
    "number_of_reviews": null,
    "price_level": "",
    "open_hours": "",
    "extraction_timestamp": "2025-06-07T15:24:29.324Z",
    "source_name": "google",
    "source_query": "Irrigation Equipment",
    "source_country": "DE",
    "country": "Germany",
    "state": "Hamburg",
    "city": "Lurup"
  },
  {
    "source_id": "ChIJg_p5DY-GsUcRn_V96-_jyTo",
    "name": "budni - Elbgaustraße",
    "category": "budni - Elbgaustraße",
    "formatted_address": "3,8(11)",
    "phone_number": "+494080603030",
    "source_url": "https://www.google.com/maps/place/budni+-+Elbgaustra%C3%9Fe/data=!4m7!3m6!1s0x47b1868f0d79fa83:0x3ac9e3efeb7df59f!8m2!3d53.6014692!4d9.8879511!16s%2Fg%2F1ptyxstfj!19sChIJg_p5DY-GsUcRn_V96-_jyTo?authuser=0&hl=tr&rclk=1",
    "website_url": "",
    "rating_text": "3,8",
    "stars": null,
    "number_of_reviews": null,
    "price_level": "",
    "open_hours": "",
    "extraction_timestamp": "2025-06-07T15:24:29.325Z",
    "source_name": "google",
    "source_query": "Irrigation Equipment",
    "source_country": "DE",
    "country": "Germany",
    "state": "Hamburg",
    "city": "Lurup"
  },
  {
    "source_id": "ChIJ4_xT8Z6GsUcRBdv-6Z4AKAA",
    "name": "Oli-Kiosk-, Deutsche Post Filiale 631, Lotto",
    "category": "Oli-Kiosk-, Deutsche Post Filiale 631, Lotto",
    "formatted_address": "Oli-Kiosk-, Deutsche Post Filiale 631, Lotto",
    "phone_number": "",
    "source_url": "https://www.google.com/maps/place/Oli-Kiosk-,+Deutsche+Post+Filiale+631,+Lotto/data=!4m7!3m6!1s0x47b1869ef153fce3:0x28009ee9fedb05!8m2!3d53.5978198!4d9.8606098!16s%2Fg%2F1td5w6f7!19sChIJ4_xT8Z6GsUcRBdv-6Z4AKAA?authuser=0&hl=tr&rclk=1",
    "website_url": "",
    "rating_text": "4,0",
    "stars": null,
    "number_of_reviews": null,
    "price_level": "",
    "open_hours": "",
    "extraction_timestamp": "2025-06-07T15:24:29.325Z",
    "source_name": "google",
    "source_query": "Irrigation Equipment",
    "source_country": "DE",
    "country": "Germany",
    "state": "Hamburg",
    "city": "Lurup"
  },
  {
    "source_id": "ChIJS78SWTWHsUcRuGE79pQeDUU",
    "name": "Spielhaus Fahrenort",
    "category": "Spielhaus Fahrenort",
    "formatted_address": "4,6(71)",
    "phone_number": "+4940845822",
    "source_url": "https://www.google.com/maps/place/Spielhaus+Fahrenort/data=!4m7!3m6!1s0x47b187355912bf4b:0x450d1e94f63b61b8!8m2!3d53.6000066!4d9.8730675!16s%2Fg%2F11g0g0sv59!19sChIJS78SWTWHsUcRuGE79pQeDUU?authuser=0&hl=tr&rclk=1",
    "website_url": "",
    "rating_text": "4,6",
    "stars": null,
    "number_of_reviews": null,
    "price_level": "",
    "open_hours": "",
    "extraction_timestamp": "2025-06-07T15:24:29.326Z",
    "source_name": "google",
    "source_query": "Irrigation Equipment",
    "source_country": "DE",
    "country": "Germany",
    "state": "Hamburg",
    "city": "Lurup"
  },
  {
    "source_id": "ChIJWwTsjoWFsUcRxCeL5vNRKWg",
    "name": "Mobilnet 1 (M1)",
    "category": "Mobilnet 1 (M1)",
    "formatted_address": "4,9(338)",
    "phone_number": "+494039906740",
    "source_url": "https://www.google.com/maps/place/Mobilnet+1+%28M1%29/data=!4m7!3m6!1s0x47b185858eec045b:0x682951f3e68b27c4!8m2!3d53.5522693!4d9.9300231!16s%2Fg%2F11ddznp8c3!19sChIJWwTsjoWFsUcRxCeL5vNRKWg?authuser=0&hl=tr&rclk=1",
    "website_url": "",
    "rating_text": "4,9",
    "stars": null,
    "number_of_reviews": null,
    "price_level": "",
    "open_hours": "",
    "extraction_timestamp": "2025-06-07T15:24:29.327Z",
    "source_name": "google",
    "source_query": "Irrigation Equipment",
    "source_country": "DE",
    "country": "Germany",
    "state": "Hamburg",
    "city": "Lurup"
  },
  {
    "source_id": "ChIJhfiXiA2BsUcRXZEGRLCs0ng",
    "name": "Waldi Waldenau",
    "category": "Waldi Waldenau",
    "formatted_address": "4,8(164)",
    "phone_number": "+4941016068758",
    "source_url": "https://www.google.com/maps/place/Waldi+Waldenau/data=!4m7!3m6!1s0x47b1810d8897f885:0x78d2acb04406915d!8m2!3d53.6216354!4d9.7993312!16s%2Fg%2F11c550x6kt!19sChIJhfiXiA2BsUcRXZEGRLCs0ng?authuser=0&hl=tr&rclk=1",
    "website_url": "",
    "rating_text": "4,8",
    "stars": null,
    "number_of_reviews": null,
    "price_level": "",
    "open_hours": "",
    "extraction_timestamp": "2025-06-07T15:24:29.328Z",
    "source_name": "google",
    "source_query": "Irrigation Equipment",
    "source_country": "DE",
    "country": "Germany",
    "state": "Hamburg",
    "city": "Lurup"
  },
  {
    "source_id": "ChIJrVOfblCPsUcR1t3_OrL5TSk",
    "name": "Vineyard Hamburg GmbH",
    "category": "Vineyard Hamburg GmbH",
    "formatted_address": "4,3(560)",
    "phone_number": "+494043213230",
    "source_url": "https://www.google.com/maps/place/Vineyard+Hamburg+GmbH/data=!4m7!3m6!1s0x47b18f506e9f53ad:0x294df9b23affddd6!8m2!3d53.5761553!4d9.9536123!16s%2Fg%2F1tfkk734!19sChIJrVOfblCPsUcR1t3_OrL5TSk?authuser=0&hl=tr&rclk=1",
    "website_url": "",
    "rating_text": "4,3",
    "stars": null,
    "number_of_reviews": null,
    "price_level": "",
    "open_hours": "",
    "extraction_timestamp": "2025-06-07T15:24:29.329Z",
    "source_name": "google",
    "source_query": "Irrigation Equipment",
    "source_country": "DE",
    "country": "Germany",
    "state": "Hamburg",
    "city": "Lurup"
  },
  {
    "source_id": "ChIJw7tp1DuFsUcRFMSVtXI8YrE",
    "name": "24h Schnelldienst GmbH Abfluss & Rohrreinigung Kanalreinigung Kanaluntersuchung Kanalsanierung WC & Küchen Entstopfung",
    "category": "24h Schnelldienst GmbH Abfluss & Rohrreinigung Kanalreinigung Kanaluntersuchung Kanalsanierung WC & Küchen Entstopfung",
    "formatted_address": "24h Schnelldienst GmbH Abfluss & Rohrreinigung Kanalreinigung Kanaluntersuchung Kanalsanierung WC & Küchen Entstopfung",
    "phone_number": "+49173748952324",
    "source_url": "https://www.google.com/maps/place/24h+Schnelldienst+GmbH+Abfluss+%26+Rohrreinigung+Kanalreinigung+Kanaluntersuchung+Kanalsanierung+WC+%26+K%C3%BCchen+Entstopfung/data=!4m7!3m6!1s0x47b1853bd469bbc3:0xb1623c72b595c414!8m2!3d53.583717!4d9.8806025!16s%2Fg%2F11v3lqxrd7!19sChIJw7tp1DuFsUcRFMSVtXI8YrE?authuser=0&hl=tr&rclk=1",
    "website_url": "",
    "rating_text": "4,9",
    "stars": null,
    "number_of_reviews": null,
    "price_level": "",
    "open_hours": "",
    "extraction_timestamp": "2025-06-07T15:24:29.329Z",
    "source_name": "google",
    "source_query": "Irrigation Equipment",
    "source_country": "DE",
    "country": "Germany",
    "state": "Hamburg",
    "city": "Lurup"
  },
  {
    "source_id": "ChIJf5CE9uGFsUcRoRjWFlzHyhM",
    "name": "die kleine konditorei",
    "category": "die kleine konditorei",
    "formatted_address": "4,6(430) · ₺₺",
    "phone_number": "+494060039090",
    "source_url": "https://www.google.com/maps/place/die+kleine+konditorei/data=!4m7!3m6!1s0x47b185e1f684907f:0x13cac75c16d618a1!8m2!3d53.5841263!4d9.9287167!16s%2Fg%2F1hc37np6y!19sChIJf5CE9uGFsUcRoRjWFlzHyhM?authuser=0&hl=tr&rclk=1",
    "website_url": "",
    "rating_text": "4,6",
    "stars": null,
    "number_of_reviews": null,
    "price_level": "",
    "open_hours": "",
    "extraction_timestamp": "2025-06-07T15:24:29.330Z",
    "source_name": "google",
    "source_query": "Irrigation Equipment",
    "source_country": "DE",
    "country": "Germany",
    "state": "Hamburg",
    "city": "Lurup"
  },
  {
    "source_id": "ChIJyR2oh2mPsUcRBUimjPaxPJ4",
    "name": "Pflanzburg GmbH Growshop",
    "category": "Pflanzburg GmbH Growshop",
    "formatted_address": "4,2(116)",
    "phone_number": "+49404305399",
    "source_url": "https://www.google.com/maps/place/Pflanzburg+GmbH+Growshop/data=!4m7!3m6!1s0x47b18f6987a81dc9:0x9e3cb1f68ca64805!8m2!3d53.5584828!4d9.9645599!16s%2Fg%2F1tf6wdmc!19sChIJyR2oh2mPsUcRBUimjPaxPJ4?authuser=0&hl=tr&rclk=1",
    "website_url": "",
    "rating_text": "4,2",
    "stars": null,
    "number_of_reviews": null,
    "price_level": "",
    "open_hours": "",
    "extraction_timestamp": "2025-06-07T15:24:29.331Z",
    "source_name": "google",
    "source_query": "Irrigation Equipment",
    "source_country": "DE",
    "country": "Germany",
    "state": "Hamburg",
    "city": "Lurup"
  },
  {
    "source_id": "ChIJ667_OIyPsUcRidCMDDmSR0k",
    "name": "fredis Kinderdusche",
    "category": "fredis Kinderdusche",
    "formatted_address": "4,8(74)",
    "phone_number": "+491522182934224",
    "source_url": "https://www.google.com/maps/place/fredis+Kinderdusche/data=!4m7!3m6!1s0x47b18f8c38ffaeeb:0x494792390c8cd089!8m2!3d51.175807!4d10.4541194!16s%2Fg%2F11qqphb7hl!19sChIJ667_OIyPsUcRidCMDDmSR0k?authuser=0&hl=tr&rclk=1",
    "website_url": "",
    "rating_text": "4,8",
    "stars": null,
    "number_of_reviews": null,
    "price_level": "",
    "open_hours": "",
    "extraction_timestamp": "2025-06-07T15:24:29.332Z",
    "source_name": "google",
    "source_query": "Irrigation Equipment",
    "source_country": "DE",
    "country": "Germany",
    "state": "Hamburg",
    "city": "Lurup"
  },
  {
    "source_id": "ChIJY24_2eOOsUcRlgh309VEt8M",
    "name": "MediaMarkt Tech Village Hamburg",
    "category": "MediaMarkt Tech Village Hamburg",
    "formatted_address": "4,2(23.660)",
    "phone_number": "+49236604",
    "source_url": "https://www.google.com/maps/place/MediaMarkt+Tech+Village+Hamburg/data=!4m7!3m6!1s0x47b18ee3d93f6e63:0xc3b744d5d3770896!8m2!3d53.5511444!4d10.0056203!16s%2Fg%2F1tdrdf7v!19sChIJY24_2eOOsUcRlgh309VEt8M?authuser=0&hl=tr&rclk=1",
    "website_url": "",
    "rating_text": "4,2",
    "stars": null,
    "number_of_reviews": null,
    "price_level": "",
    "open_hours": "",
    "extraction_timestamp": "2025-06-07T15:24:29.333Z",
    "source_name": "google",
    "source_query": "Irrigation Equipment",
    "source_country": "DE",
    "country": "Germany",
    "state": "Hamburg",
    "city": "Lurup"
  },
  {
    "source_id": "ChIJC9nbqEuEsUcRtZFBRwCWrnU",
    "name": "Gerkens Haustechnik GmbH & Co. KG",
    "category": "Gerkens Haustechnik GmbH & Co. KG",
    "formatted_address": "4,5(27)",
    "phone_number": "+494073447510",
    "source_url": "https://www.google.com/maps/place/Gerkens+Haustechnik+GmbH+%26+Co.+KG/data=!4m7!3m6!1s0x47b1844ba8dbd90b:0x75ae9600474191b5!8m2!3d53.5645207!4d9.8810025!16s%2Fg%2F1tcywgsv!19sChIJC9nbqEuEsUcRtZFBRwCWrnU?authuser=0&hl=tr&rclk=1",
    "website_url": "",
    "rating_text": "4,5",
    "stars": null,
    "number_of_reviews": null,
    "price_level": "",
    "open_hours": "",
    "extraction_timestamp": "2025-06-07T15:24:29.334Z",
    "source_name": "google",
    "source_query": "Irrigation Equipment",
    "source_country": "DE",
    "country": "Germany",
    "state": "Hamburg",
    "city": "Lurup"
  },
  {
    "source_id": "ChIJTfvEEzmEsUcR2x4nKs6nuWI",
    "name": "Lütge Haustechnik GmbH",
    "category": "Lütge Haustechnik GmbH",
    "formatted_address": "5,0(83)",
    "phone_number": "+494048509066",
    "source_url": "https://www.google.com/maps/place/L%C3%BCtge+Haustechnik+GmbH/data=!4m7!3m6!1s0x47b1843913c4fb4d:0x62b9a7ce2a271edb!8m2!3d53.5726231!4d9.8651707!16s%2Fg%2F11gztqs3s!19sChIJTfvEEzmEsUcR2x4nKs6nuWI?authuser=0&hl=tr&rclk=1",
    "website_url": "",
    "rating_text": "5,0",
    "stars": null,
    "number_of_reviews": null,
    "price_level": "",
    "open_hours": "",
    "extraction_timestamp": "2025-06-07T15:24:29.335Z",
    "source_name": "google",
    "source_query": "Irrigation Equipment",
    "source_country": "DE",
    "country": "Germany",
    "state": "Hamburg",
    "city": "Lurup"
  },
  {
    "source_id": "ChIJbZWvBVSPsUcRztmvggSyx7w",
    "name": "HEG Engineering GmbH",
    "category": "HEG Engineering GmbH",
    "formatted_address": "5,0(1)",
    "phone_number": "+49404231110",
    "source_url": "https://www.google.com/maps/place/HEG+Engineering+GmbH/data=!4m7!3m6!1s0x47b18f5405af956d:0xbcc7b20482afd9ce!8m2!3d53.5783202!4d9.9565436!16s%2Fg%2F1v0ljv54!19sChIJbZWvBVSPsUcRztmvggSyx7w?authuser=0&hl=tr&rclk=1",
    "website_url": "",
    "rating_text": "5,0",
    "stars": null,
    "number_of_reviews": null,
    "price_level": "",
    "open_hours": "",
    "extraction_timestamp": "2025-06-07T15:24:29.335Z",
    "source_name": "google",
    "source_query": "Irrigation Equipment",
    "source_country": "DE",
    "country": "Germany",
    "state": "Hamburg",
    "city": "Lurup"
  }
]
