[
  {
    "source_id": "ChIJZfgdSIqLsUcRzda7Z0fWp4s",
    "name": "Petersen-Frey Garten- und Landschaftsbau GmbH",
    "category": "Petersen-Frey Garten- und Landschaftsbau GmbH",
    "formatted_address": "4,5(14)",
    "phone_number": "+494065681001",
    "source_url": "https://www.google.com/maps/place/Petersen-Frey+Garten-+und+Landschaftsbau+GmbH/data=!4m7!3m6!1s0x47b18b8a481df865:0x8ba7d64767bbd6cd!8m2!3d53.5729166!4d10.104079!16s%2Fg%2F1tdmtp70!19sChIJZfgdSIqLsUcRzda7Z0fWp4s?authuser=0&hl=tr&rclk=1",
    "website_url": "",
    "rating_text": "4,5",
    "stars": null,
    "number_of_reviews": null,
    "price_level": "",
    "open_hours": "",
    "extraction_timestamp": "2025-06-07T15:24:07.922Z",
    "source_name": "google",
    "source_query": "Irrigation Equipment",
    "source_country": "DE",
    "country": "Germany",
    "state": "Hamburg",
    "city": "Marienthal"
  },
  {
    "source_id": "ChIJZ2WiEviLsUcR7VxIqWdi3Rc",
    "name": "Callidus Baumarkt",
    "category": "Callidus Baumarkt",
    "formatted_address": "4,5(49)",
    "phone_number": "+494064839188",
    "source_url": "https://www.google.com/maps/place/Callidus+Baumarkt/data=!4m7!3m6!1s0x47b18bf812a26567:0x17dd6267a9485ced!8m2!3d53.5733424!4d10.0819159!16s%2Fg%2F11c45ynqck!19sChIJZ2WiEviLsUcR7VxIqWdi3Rc?authuser=0&hl=tr&rclk=1",
    "website_url": "",
    "rating_text": "4,5",
    "stars": null,
    "number_of_reviews": null,
    "price_level": "",
    "open_hours": "",
    "extraction_timestamp": "2025-06-07T15:24:07.924Z",
    "source_name": "google",
    "source_query": "Irrigation Equipment",
    "source_country": "DE",
    "country": "Germany",
    "state": "Hamburg",
    "city": "Marienthal"
  },
  {
    "source_id": "ChIJvwxO6v-LsUcRjPnKqdkjRNg",
    "name": "Lüchau Materials Gmbh - HH Wandsbek",
    "category": "Lüchau Materials Gmbh - HH Wandsbek",
    "formatted_address": "4,5(152)",
    "phone_number": "+494048509830",
    "source_url": "https://www.google.com/maps/place/L%C3%BCchau+Materials+Gmbh+-+HH+Wandsbek/data=!4m7!3m6!1s0x47b18bffea4e0cbf:0xd84423d9a9caf98c!8m2!3d53.5749324!4d10.0710672!16s%2Fg%2F1tfcmd7z!19sChIJvwxO6v-LsUcRjPnKqdkjRNg?authuser=0&hl=tr&rclk=1",
    "website_url": "",
    "rating_text": "4,5",
    "stars": null,
    "number_of_reviews": null,
    "price_level": "",
    "open_hours": "",
    "extraction_timestamp": "2025-06-07T15:24:07.925Z",
    "source_name": "google",
    "source_query": "Irrigation Equipment",
    "source_country": "DE",
    "country": "Germany",
    "state": "Hamburg",
    "city": "Marienthal"
  },
  {
    "source_id": "ChIJixz8c2zzsUcRvWDIvRaRRaY",
    "name": "ABS Bewässerungssysteme",
    "category": "ABS Bewässerungssysteme",
    "formatted_address": "5,0(10)",
    "phone_number": "+494020963222",
    "source_url": "https://www.google.com/maps/place/ABS+Bew%C3%A4sserungssysteme/data=!4m7!3m6!1s0x47b1f36c73fc1c8b:0xa6459116bdc860bd!8m2!3d53.4851575!4d10.1899135!16s%2Fg%2F11pwpgyn7x!19sChIJixz8c2zzsUcRvWDIvRaRRaY?authuser=0&hl=tr&rclk=1",
    "website_url": "",
    "rating_text": "5,0",
    "stars": null,
    "number_of_reviews": null,
    "price_level": "",
    "open_hours": "",
    "extraction_timestamp": "2025-06-07T15:24:07.927Z",
    "source_name": "google",
    "source_query": "Irrigation Equipment",
    "source_country": "DE",
    "country": "Germany",
    "state": "Hamburg",
    "city": "Marienthal"
  },
  {
    "source_id": "ChIJ-4gDF_iLsUcRZEv5tsODY9I",
    "name": "Mutto Handels-, Betriebs- und Verwaltungs- GmbH",
    "category": "Mutto Handels-, Betriebs- und Verwaltungs- GmbH",
    "formatted_address": "Mutto Handels-, Betriebs- und Verwaltungs- GmbH",
    "phone_number": "+494075118471",
    "source_url": "https://www.google.com/maps/place/Mutto+Handels-,+Betriebs-+und+Verwaltungs-+GmbH/data=!4m7!3m6!1s0x47b18bf8170388fb:0xd26383c3b6f94b64!8m2!3d53.5776616!4d10.066052!16s%2Fg%2F11b6dpksq6!19sChIJ-4gDF_iLsUcRZEv5tsODY9I?authuser=0&hl=tr&rclk=1",
    "website_url": "",
    "rating_text": "5,0",
    "stars": null,
    "number_of_reviews": null,
    "price_level": "",
    "open_hours": "",
    "extraction_timestamp": "2025-06-07T15:24:07.928Z",
    "source_name": "google",
    "source_query": "Irrigation Equipment",
    "source_country": "DE",
    "country": "Germany",
    "state": "Hamburg",
    "city": "Marienthal"
  },
  {
    "source_id": "ChIJV8hGp_mLsUcRMbpXvWGGdOs",
    "name": "BAUHAUS Hamburg-Wandsbek",
    "category": "BAUHAUS Hamburg-Wandsbek",
    "formatted_address": "4,0(4.794)",
    "phone_number": "+4947944",
    "source_url": "https://www.google.com/maps/place/BAUHAUS+Hamburg-Wandsbek/data=!4m7!3m6!1s0x47b18bf9a746c857:0xeb748661bd57ba31!8m2!3d53.5771559!4d10.080914!16s%2Fg%2F11b63clfq5!19sChIJV8hGp_mLsUcRMbpXvWGGdOs?authuser=0&hl=tr&rclk=1",
    "website_url": "",
    "rating_text": "4,0",
    "stars": null,
    "number_of_reviews": null,
    "price_level": "",
    "open_hours": "",
    "extraction_timestamp": "2025-06-07T15:24:07.931Z",
    "source_name": "google",
    "source_query": "Irrigation Equipment",
    "source_country": "DE",
    "country": "Germany",
    "state": "Hamburg",
    "city": "Marienthal"
  },
  {
    "source_id": "ChIJiYps9TuJsUcR9KU-0r_XGD0",
    "name": "Robert Formela Heizung, Sanitär und Solartechnik, Technische Bautrocknung und Sanierung bei Wasserschäden",
    "category": "Robert Formela Heizung, Sanitär und Solartechnik, Technische Bautrocknung und Sanierung bei Wasserschäden",
    "formatted_address": "Robert Formela Heizung, Sanitär und Solartechnik, Technische Bautrocknung und Sanierung bei Wasserschäden",
    "phone_number": "+491631901775",
    "source_url": "https://www.google.com/maps/place/Robert+Formela+Heizung,+Sanit%C3%A4r+und+Solartechnik,+Technische+Bautrocknung+und+Sanierung+bei+Wassersch%C3%A4den/data=!4m7!3m6!1s0x47b1893bf56c8a89:0x3d18d7bfd23ea5f4!8m2!3d53.5665098!4d10.0995295!16s%2Fg%2F11rv7ztw50!19sChIJiYps9TuJsUcR9KU-0r_XGD0?authuser=0&hl=tr&rclk=1",
    "website_url": "",
    "rating_text": "5,0",
    "stars": null,
    "number_of_reviews": null,
    "price_level": "",
    "open_hours": "",
    "extraction_timestamp": "2025-06-07T15:24:07.933Z",
    "source_name": "google",
    "source_query": "Irrigation Equipment",
    "source_country": "DE",
    "country": "Germany",
    "state": "Hamburg",
    "city": "Marienthal"
  },
  {
    "source_id": "ChIJ4R34GoKPsUcR_Di8Y72u1Q4",
    "name": "AN-Beregnungstechnik",
    "category": "AN-Beregnungstechnik",
    "formatted_address": "",
    "phone_number": "+4917673517226",
    "source_url": "https://www.google.com/maps/place/AN-Beregnungstechnik/data=!4m7!3m6!1s0x47b18f821af81de1:0xed5aebd63bc38fc!8m2!3d53.5576744!4d10.0112776!16s%2Fg%2F11x33m21xg!19sChIJ4R34GoKPsUcR_Di8Y72u1Q4?authuser=0&hl=tr&rclk=1",
    "website_url": "",
    "rating_text": "",
    "stars": null,
    "number_of_reviews": null,
    "price_level": "",
    "open_hours": "",
    "extraction_timestamp": "2025-06-07T15:24:07.934Z",
    "source_name": "google",
    "source_query": "Irrigation Equipment",
    "source_country": "DE",
    "country": "Germany",
    "state": "Hamburg",
    "city": "Marienthal"
  },
  {
    "source_id": "ChIJHyhtPI-LsUcRT9VozJJnsz0",
    "name": "Jungnickel Sanitär GmbH",
    "category": "Jungnickel Sanitär GmbH",
    "formatted_address": "5,0(20)",
    "phone_number": "+4940663839",
    "source_url": "https://www.google.com/maps/place/Jungnickel+Sanit%C3%A4r+GmbH/data=!4m7!3m6!1s0x47b18b8f3c6d281f:0x3db36792cc68d54f!8m2!3d53.5763327!4d10.1117401!16s%2Fg%2F1tfpnrqh!19sChIJHyhtPI-LsUcRT9VozJJnsz0?authuser=0&hl=tr&rclk=1",
    "website_url": "",
    "rating_text": "5,0",
    "stars": null,
    "number_of_reviews": null,
    "price_level": "",
    "open_hours": "",
    "extraction_timestamp": "2025-06-07T15:24:07.937Z",
    "source_name": "google",
    "source_query": "Irrigation Equipment",
    "source_country": "DE",
    "country": "Germany",
    "state": "Hamburg",
    "city": "Marienthal"
  },
  {
    "source_id": "ChIJkT2vkRqMsUcRQwSvaHxKkYQ",
    "name": "The BIOFILMKILLER",
    "category": "The BIOFILMKILLER",
    "formatted_address": "",
    "phone_number": "+4915167638771",
    "source_url": "https://www.google.com/maps/place/The+BIOFILMKILLER/data=!4m7!3m6!1s0x47b18c1a91af3d91:0x84914a7c68af0443!8m2!3d53.5598497!4d10.0784309!16s%2Fg%2F11cs32py4x!19sChIJkT2vkRqMsUcRQwSvaHxKkYQ?authuser=0&hl=tr&rclk=1",
    "website_url": "",
    "rating_text": "",
    "stars": null,
    "number_of_reviews": null,
    "price_level": "",
    "open_hours": "",
    "extraction_timestamp": "2025-06-07T15:24:07.938Z",
    "source_name": "google",
    "source_query": "Irrigation Equipment",
    "source_country": "DE",
    "country": "Germany",
    "state": "Hamburg",
    "city": "Marienthal"
  },
  {
    "source_id": "ChIJHfWbd6uOsUcR60Y2cYn35sg",
    "name": "A. C. Vorwald & Sohn GmbH",
    "category": "A. C. Vorwald & Sohn GmbH",
    "formatted_address": "3,3(18)",
    "phone_number": "+494067048590",
    "source_url": "https://www.google.com/maps/place/A.+C.+Vorwald+%26+Sohn+GmbH/data=!4m7!3m6!1s0x47b18eab779bf51d:0xc8e6f789713646eb!8m2!3d53.5718071!4d10.0613193!16s%2Fg%2F1v_0hts9!19sChIJHfWbd6uOsUcR60Y2cYn35sg?authuser=0&hl=tr&rclk=1",
    "website_url": "",
    "rating_text": "3,3",
    "stars": null,
    "number_of_reviews": null,
    "price_level": "",
    "open_hours": "",
    "extraction_timestamp": "2025-06-07T15:24:07.939Z",
    "source_name": "google",
    "source_query": "Irrigation Equipment",
    "source_country": "DE",
    "country": "Germany",
    "state": "Hamburg",
    "city": "Marienthal"
  },
  {
    "source_id": "ChIJxbTzsISLsUcRoA2CHu9k2oU",
    "name": "Coloplast",
    "category": "Coloplast",
    "formatted_address": "3,5(40)",
    "phone_number": "+498007809000",
    "source_url": "https://www.google.com/maps/place/Coloplast/data=!4m7!3m6!1s0x47b18b84b0f3b4c5:0x85da64ef1e820da0!8m2!3d53.5748489!4d10.0937273!16s%2Fg%2F1tdxzyy6!19sChIJxbTzsISLsUcRoA2CHu9k2oU?authuser=0&hl=tr&rclk=1",
    "website_url": "",
    "rating_text": "3,5",
    "stars": null,
    "number_of_reviews": null,
    "price_level": "",
    "open_hours": "",
    "extraction_timestamp": "2025-06-07T15:24:07.940Z",
    "source_name": "google",
    "source_query": "Irrigation Equipment",
    "source_country": "DE",
    "country": "Germany",
    "state": "Hamburg",
    "city": "Marienthal"
  },
  {
    "source_id": "ChIJLSeMk6uOsUcRu1zhd49DRBQ",
    "name": "Alnatura Super Natur Markt",
    "category": "Alnatura Super Natur Markt",
    "formatted_address": "4,3(718)",
    "phone_number": "+494068282680",
    "source_url": "https://www.google.com/maps/place/Alnatura+Super+Natur+Markt/data=!4m7!3m6!1s0x47b18eab938c272d:0x1444438f77e15cbb!8m2!3d53.5703959!4d10.0612302!16s%2Fg%2F1tdz8gwz!19sChIJLSeMk6uOsUcRu1zhd49DRBQ?authuser=0&hl=tr&rclk=1",
    "website_url": "",
    "rating_text": "4,3",
    "stars": null,
    "number_of_reviews": null,
    "price_level": "",
    "open_hours": "",
    "extraction_timestamp": "2025-06-07T15:24:07.941Z",
    "source_name": "google",
    "source_query": "Irrigation Equipment",
    "source_country": "DE",
    "country": "Germany",
    "state": "Hamburg",
    "city": "Marienthal"
  },
  {
    "source_id": "ChIJ283m04SNsUcR6xM6VqYFawg",
    "name": "DIE MACHER.Wasser Wärme Klimatechnik.GmbH",
    "category": "DIE MACHER.Wasser Wärme Klimatechnik.GmbH",
    "formatted_address": "4,5(8)",
    "phone_number": "+494022947736",
    "source_url": "https://www.google.com/maps/place/DIE+MACHER.Wasser+W%C3%A4rme+Klimatechnik.GmbH/data=!4m7!3m6!1s0x47b18d84d3e6cddb:0x86b05a6563a13eb!8m2!3d53.554877!4d10.0654196!16s%2Fg%2F11vfbkt3z5!19sChIJ283m04SNsUcR6xM6VqYFawg?authuser=0&hl=tr&rclk=1",
    "website_url": "",
    "rating_text": "4,5",
    "stars": null,
    "number_of_reviews": null,
    "price_level": "",
    "open_hours": "",
    "extraction_timestamp": "2025-06-07T15:24:07.942Z",
    "source_name": "google",
    "source_query": "Irrigation Equipment",
    "source_country": "DE",
    "country": "Germany",
    "state": "Hamburg",
    "city": "Marienthal"
  },
  {
    "source_id": "ChIJo3h6xNOOsUcRDfIJdqpah8E",
    "name": "Alsterparkett GmbH",
    "category": "Alsterparkett GmbH",
    "formatted_address": "4,6(22)",
    "phone_number": "+494034927447",
    "source_url": "https://www.google.com/maps/place/Alsterparkett+GmbH/data=!4m7!3m6!1s0x47b18ed3c47a78a3:0xc1875aaa7609f20d!8m2!3d53.5718155!4d10.1046881!16s%2Fg%2F1q6j7vdwk!19sChIJo3h6xNOOsUcRDfIJdqpah8E?authuser=0&hl=tr&rclk=1",
    "website_url": "",
    "rating_text": "4,6",
    "stars": null,
    "number_of_reviews": null,
    "price_level": "",
    "open_hours": "",
    "extraction_timestamp": "2025-06-07T15:24:07.943Z",
    "source_name": "google",
    "source_query": "Irrigation Equipment",
    "source_country": "DE",
    "country": "Germany",
    "state": "Hamburg",
    "city": "Marienthal"
  },
  {
    "source_id": "ChIJ_WNK9RqJsUcR_QBLOu4VnSc",
    "name": "Der Grüngarten",
    "category": "Der Grüngarten",
    "formatted_address": "4,8(11)",
    "phone_number": "+4915253846323",
    "source_url": "https://www.google.com/maps/place/Der+Gr%C3%BCngarten/data=!4m7!3m6!1s0x47b1891af54a63fd:0x279d15ee3a4b00fd!8m2!3d53.6672334!4d10.1290552!16s%2Fg%2F11j3x9hlcg!19sChIJ_WNK9RqJsUcR_QBLOu4VnSc?authuser=0&hl=tr&rclk=1",
    "website_url": "",
    "rating_text": "4,8",
    "stars": null,
    "number_of_reviews": null,
    "price_level": "",
    "open_hours": "",
    "extraction_timestamp": "2025-06-07T15:24:07.944Z",
    "source_name": "google",
    "source_query": "Irrigation Equipment",
    "source_country": "DE",
    "country": "Germany",
    "state": "Hamburg",
    "city": "Marienthal"
  },
  {
    "source_id": "ChIJiQt4vquOsUcRsNIoI_U5jXo",
    "name": "Asia Markt Thanh Phong",
    "category": "Asia Markt Thanh Phong",
    "formatted_address": "4,3(426)",
    "phone_number": "+494088305262",
    "source_url": "https://www.google.com/maps/place/Asia+Markt+Thanh+Phong/data=!4m7!3m6!1s0x47b18eabbe780b89:0x7a8d39f52328d2b0!8m2!3d53.5705847!4d10.0621009!16s%2Fg%2F11c5d82kr8!19sChIJiQt4vquOsUcRsNIoI_U5jXo?authuser=0&hl=tr&rclk=1",
    "website_url": "",
    "rating_text": "4,3",
    "stars": null,
    "number_of_reviews": null,
    "price_level": "",
    "open_hours": "",
    "extraction_timestamp": "2025-06-07T15:24:07.946Z",
    "source_name": "google",
    "source_query": "Irrigation Equipment",
    "source_country": "DE",
    "country": "Germany",
    "state": "Hamburg",
    "city": "Marienthal"
  },
  {
    "source_id": "ChIJt_uNuKyOsUcR1UoY6xS13K4",
    "name": "DIVE TEAM Hamburg GmbH",
    "category": "DIVE TEAM Hamburg GmbH",
    "formatted_address": "4,9(96)",
    "phone_number": "+494020004047",
    "source_url": "https://www.google.com/maps/place/DIVE+TEAM+Hamburg+GmbH/data=!4m7!3m6!1s0x47b18eacb88dfbb7:0xaedcb514eb184ad5!8m2!3d53.5736394!4d10.0594177!16s%2Fg%2F1tdxv1yn!19sChIJt_uNuKyOsUcR1UoY6xS13K4?authuser=0&hl=tr&rclk=1",
    "website_url": "",
    "rating_text": "4,9",
    "stars": null,
    "number_of_reviews": null,
    "price_level": "",
    "open_hours": "",
    "extraction_timestamp": "2025-06-07T15:24:07.947Z",
    "source_name": "google",
    "source_query": "Irrigation Equipment",
    "source_country": "DE",
    "country": "Germany",
    "state": "Hamburg",
    "city": "Marienthal"
  },
  {
    "source_id": "ChIJnSnQt6qOsUcReQColU85ZvE",
    "name": "Thalia Hamburg Wandsbek - Quarree Wandsbek Markt",
    "category": "Thalia Hamburg Wandsbek - Quarree Wandsbek Markt",
    "formatted_address": "4,3(1.301)",
    "phone_number": "+4913014",
    "source_url": "https://www.google.com/maps/place/Thalia+Hamburg+Wandsbek+-+Quarree+Wandsbek+Markt/data=!4m7!3m6!1s0x47b18eaab7d0299d:0xf166394f95a80079!8m2!3d53.5734321!4d10.0669055!16s%2Fg%2F1tmcl8qg!19sChIJnSnQt6qOsUcReQColU85ZvE?authuser=0&hl=tr&rclk=1",
    "website_url": "",
    "rating_text": "4,3",
    "stars": null,
    "number_of_reviews": null,
    "price_level": "",
    "open_hours": "",
    "extraction_timestamp": "2025-06-07T15:24:07.948Z",
    "source_name": "google",
    "source_query": "Irrigation Equipment",
    "source_country": "DE",
    "country": "Germany",
    "state": "Hamburg",
    "city": "Marienthal"
  },
  {
    "source_id": "ChIJf6BYGjiNsUcRhVh6Wvk8YHs",
    "name": "DALL Sanitär- und Heizungstechnik",
    "category": "DALL Sanitär- und Heizungstechnik",
    "formatted_address": "5,0(6)",
    "phone_number": "+494064793823",
    "source_url": "https://www.google.com/maps/place/DALL+Sanit%C3%A4r-+und+Heizungstechnik/data=!4m7!3m6!1s0x47b18d381a58a07f:0x7b603cf95a7a5885!8m2!3d53.5661883!4d10.0773016!16s%2Fg%2F11rq0__fh9!19sChIJf6BYGjiNsUcRhVh6Wvk8YHs?authuser=0&hl=tr&rclk=1",
    "website_url": "",
    "rating_text": "5,0",
    "stars": null,
    "number_of_reviews": null,
    "price_level": "",
    "open_hours": "",
    "extraction_timestamp": "2025-06-07T15:24:07.949Z",
    "source_name": "google",
    "source_query": "Irrigation Equipment",
    "source_country": "DE",
    "country": "Germany",
    "state": "Hamburg",
    "city": "Marienthal"
  },
  {
    "source_id": "ChIJvU8PzYiLsUcRN63-pVHr894",
    "name": "LG Gartenbau",
    "category": "LG Gartenbau",
    "formatted_address": "4,9(33)",
    "phone_number": "+4917684502055",
    "source_url": "https://www.google.com/maps/place/LG+Gartenbau/data=!4m7!3m6!1s0x47b18b88cd0f4fbd:0xdef3eb51a5fead37!8m2!3d53.6460001!4d10.1319523!16s%2Fg%2F11vysj54vk!19sChIJvU8PzYiLsUcRN63-pVHr894?authuser=0&hl=tr&rclk=1",
    "website_url": "",
    "rating_text": "4,9",
    "stars": null,
    "number_of_reviews": null,
    "price_level": "",
    "open_hours": "",
    "extraction_timestamp": "2025-06-07T15:24:07.950Z",
    "source_name": "google",
    "source_query": "Irrigation Equipment",
    "source_country": "DE",
    "country": "Germany",
    "state": "Hamburg",
    "city": "Marienthal"
  },
  {
    "source_id": "ChIJBQqFxhKKsUcRlkgdImgW41Y",
    "name": "Paul Kahl GmbH",
    "category": "Paul Kahl GmbH",
    "formatted_address": "3,5(34)",
    "phone_number": "+494088165360",
    "source_url": "https://www.google.com/maps/place/Paul+Kahl+GmbH/data=!4m7!3m6!1s0x47b18a12c6850a05:0x56e31668221d4896!8m2!3d53.6439692!4d10.1249017!16s%2Fg%2F1tdwjkhm!19sChIJBQqFxhKKsUcRlkgdImgW41Y?authuser=0&hl=tr&rclk=1",
    "website_url": "",
    "rating_text": "3,5",
    "stars": null,
    "number_of_reviews": null,
    "price_level": "",
    "open_hours": "",
    "extraction_timestamp": "2025-06-07T15:24:07.951Z",
    "source_name": "google",
    "source_query": "Irrigation Equipment",
    "source_country": "DE",
    "country": "Germany",
    "state": "Hamburg",
    "city": "Marienthal"
  },
  {
    "source_id": "ChIJs8T9XuK6Y0EROu0xZg50keg",
    "name": "Jürgen Tiedtke Heizungs- und Lüftungstechnik GmbH",
    "category": "Jürgen Tiedtke Heizungs- und Lüftungstechnik GmbH",
    "formatted_address": "4,6(41)",
    "phone_number": "+494064221138",
    "source_url": "https://www.google.com/maps/place/J%C3%BCrgen+Tiedtke+Heizungs-+und+L%C3%BCftungstechnik+GmbH/data=!4m7!3m6!1s0x4163bae25efdc4b3:0xe891740e6631ed3a!8m2!3d53.5976271!4d10.0736547!16s%2Fg%2F1vrq8pzh!19sChIJs8T9XuK6Y0EROu0xZg50keg?authuser=0&hl=tr&rclk=1",
    "website_url": "",
    "rating_text": "4,6",
    "stars": null,
    "number_of_reviews": null,
    "price_level": "",
    "open_hours": "",
    "extraction_timestamp": "2025-06-07T15:24:07.953Z",
    "source_name": "google",
    "source_query": "Irrigation Equipment",
    "source_country": "DE",
    "country": "Germany",
    "state": "Hamburg",
    "city": "Marienthal"
  },
  {
    "source_id": "ChIJR46IprL0sUcRjsyWnSQDxvM",
    "name": "Quasdorf & Kagemann GmbH",
    "category": "Quasdorf & Kagemann GmbH",
    "formatted_address": "5,0(27)",
    "phone_number": "+49406706121",
    "source_url": "https://www.google.com/maps/place/Quasdorf+%26+Kagemann+GmbH/data=!4m7!3m6!1s0x47b1f4b2a6888e47:0xf3c603249d96cc8e!8m2!3d53.57455!4d10.19131!16s%2Fg%2F1tfvg8hb!19sChIJR46IprL0sUcRjsyWnSQDxvM?authuser=0&hl=tr&rclk=1",
    "website_url": "",
    "rating_text": "5,0",
    "stars": null,
    "number_of_reviews": null,
    "price_level": "",
    "open_hours": "",
    "extraction_timestamp": "2025-06-07T15:24:07.953Z",
    "source_name": "google",
    "source_query": "Irrigation Equipment",
    "source_country": "DE",
    "country": "Germany",
    "state": "Hamburg",
    "city": "Marienthal"
  },
  {
    "source_id": "ChIJh5ZD9s2OsUcRZX-JZep71LA",
    "name": "Hände und Werke Sanitärtechnik",
    "category": "Hände und Werke Sanitärtechnik",
    "formatted_address": "4,9(29)",
    "phone_number": "+494042917661",
    "source_url": "https://www.google.com/maps/place/H%C3%A4nde+und+Werke+Sanit%C3%A4rtechnik/data=!4m7!3m6!1s0x47b18ecdf6439687:0xb0d47bea65897f65!8m2!3d53.5313554!4d10.1264087!16s%2Fg%2F11c543qwl1!19sChIJh5ZD9s2OsUcRZX-JZep71LA?authuser=0&hl=tr&rclk=1",
    "website_url": "",
    "rating_text": "4,9",
    "stars": null,
    "number_of_reviews": null,
    "price_level": "",
    "open_hours": "",
    "extraction_timestamp": "2025-06-07T15:24:07.955Z",
    "source_name": "google",
    "source_query": "Irrigation Equipment",
    "source_country": "DE",
    "country": "Germany",
    "state": "Hamburg",
    "city": "Marienthal"
  },
  {
    "source_id": "ChIJi4pX2IqJsUcRrHFX0360OXU",
    "name": "NORD TECHNOLOGIE - Bau & Handwerk",
    "category": "NORD TECHNOLOGIE - Bau & Handwerk",
    "formatted_address": "4,8(51)",
    "phone_number": "+491787870366",
    "source_url": "https://www.google.com/maps/place/NORD+TECHNOLOGIE+-+Bau+%26+Handwerk/data=!4m7!3m6!1s0x47b1898ad8578a8b:0x7539b47ed35771ac!8m2!3d53.6014086!4d10.1823661!16s%2Fg%2F11qp4_0rbd!19sChIJi4pX2IqJsUcRrHFX0360OXU?authuser=0&hl=tr&rclk=1",
    "website_url": "",
    "rating_text": "4,8",
    "stars": null,
    "number_of_reviews": null,
    "price_level": "",
    "open_hours": "",
    "extraction_timestamp": "2025-06-07T15:24:07.956Z",
    "source_name": "google",
    "source_query": "Irrigation Equipment",
    "source_country": "DE",
    "country": "Germany",
    "state": "Hamburg",
    "city": "Marienthal"
  },
  {
    "source_id": "ChIJl94mEyshskcRKafsx59mW_4",
    "name": "Spangenberg und Schneider Heizungstechnik",
    "category": "Spangenberg und Schneider Heizungstechnik",
    "formatted_address": "4,9(80)",
    "phone_number": "+49406083036",
    "source_url": "https://www.google.com/maps/place/Spangenberg+und+Schneider+Heizungstechnik/data=!4m7!3m6!1s0x47b2212b1326de97:0xfe5b669fc7eca729!8m2!3d53.6748987!4d10.1398209!16s%2Fg%2F1v29b1zx!19sChIJl94mEyshskcRKafsx59mW_4?authuser=0&hl=tr&rclk=1",
    "website_url": "",
    "rating_text": "4,9",
    "stars": null,
    "number_of_reviews": null,
    "price_level": "",
    "open_hours": "",
    "extraction_timestamp": "2025-06-07T15:24:07.958Z",
    "source_name": "google",
    "source_query": "Irrigation Equipment",
    "source_country": "DE",
    "country": "Germany",
    "state": "Hamburg",
    "city": "Marienthal"
  },
  {
    "source_id": "ChIJlzmS_eyLsUcRwWke8bxujhE",
    "name": "Rudi’s Rohrreinigung Hamburg",
    "category": "Rudi’s Rohrreinigung Hamburg",
    "formatted_address": "5,0(4)",
    "phone_number": "+49403567614024",
    "source_url": "https://www.google.com/maps/place/Rudi%E2%80%99s+Rohrreinigung+Hamburg/data=!4m7!3m6!1s0x47b18becfd923997:0x118e6ebcf11e69c1!8m2!3d53.6137272!4d10.1468487!16s%2Fg%2F11kpnkp88g!19sChIJlzmS_eyLsUcRwWke8bxujhE?authuser=0&hl=tr&rclk=1",
    "website_url": "",
    "rating_text": "5,0",
    "stars": null,
    "number_of_reviews": null,
    "price_level": "",
    "open_hours": "",
    "extraction_timestamp": "2025-06-07T15:24:07.959Z",
    "source_name": "google",
    "source_query": "Irrigation Equipment",
    "source_country": "DE",
    "country": "Germany",
    "state": "Hamburg",
    "city": "Marienthal"
  },
  {
    "source_id": "ChIJG5T3QIaNsUcRSATgC-vxcyQ",
    "name": "TMN Haustechnik GmbH",
    "category": "TMN Haustechnik GmbH",
    "formatted_address": "5,0(11)",
    "phone_number": "+494044195755",
    "source_url": "https://www.google.com/maps/place/TMN+Haustechnik+GmbH/data=!4m7!3m6!1s0x47b18d8640f7941b:0x2473f1eb0be00448!8m2!3d53.5306991!4d10.1221172!16s%2Fg%2F11y5njqdt7!19sChIJG5T3QIaNsUcRSATgC-vxcyQ?authuser=0&hl=tr&rclk=1",
    "website_url": "",
    "rating_text": "5,0",
    "stars": null,
    "number_of_reviews": null,
    "price_level": "",
    "open_hours": "",
    "extraction_timestamp": "2025-06-07T15:24:07.960Z",
    "source_name": "google",
    "source_query": "Irrigation Equipment",
    "source_country": "DE",
    "country": "Germany",
    "state": "Hamburg",
    "city": "Marienthal"
  },
  {
    "source_id": "ChIJF9FeYIaNsUcRpP_8PxfTevg",
    "name": "Klempner hamburg - Hamwihausservice",
    "category": "Klempner hamburg - Hamwihausservice",
    "formatted_address": "5,0(24)",
    "phone_number": "+4915781049986",
    "source_url": "https://www.google.com/maps/place/Klempner+hamburg+-+Hamwihausservice/data=!4m7!3m6!1s0x47b18d86605ed117:0xf87ad3173ffcffa4!8m2!3d53.5501235!4d10.0644252!16s%2Fg%2F11y27jl8d4!19sChIJF9FeYIaNsUcRpP_8PxfTevg?authuser=0&hl=tr&rclk=1",
    "website_url": "",
    "rating_text": "5,0",
    "stars": null,
    "number_of_reviews": null,
    "price_level": "",
    "open_hours": "",
    "extraction_timestamp": "2025-06-07T15:24:07.962Z",
    "source_name": "google",
    "source_query": "Irrigation Equipment",
    "source_country": "DE",
    "country": "Germany",
    "state": "Hamburg",
    "city": "Marienthal"
  },
  {
    "source_id": "ChIJBT153nuLsUcR93GEXGMGuxA",
    "name": "Wolf im Garten. Inh. J. Wolf. Garten-und Landschaftspflege.",
    "category": "Wolf im Garten. Inh. J. Wolf. Garten-und Landschaftspflege.",
    "formatted_address": "4,7(20)",
    "phone_number": "+494065389239",
    "source_url": "https://www.google.com/maps/place/Wolf+im+Garten.+Inh.+J.+Wolf.+Garten-und+Landschaftspflege./data=!4m7!3m6!1s0x47b18b7bde793d05:0x10bb06635c8471f7!8m2!3d53.575027!4d10.1375045!16s%2Fg%2F11g9dk97rc!19sChIJBT153nuLsUcR93GEXGMGuxA?authuser=0&hl=tr&rclk=1",
    "website_url": "",
    "rating_text": "4,7",
    "stars": null,
    "number_of_reviews": null,
    "price_level": "",
    "open_hours": "",
    "extraction_timestamp": "2025-06-07T15:24:07.962Z",
    "source_name": "google",
    "source_query": "Irrigation Equipment",
    "source_country": "DE",
    "country": "Germany",
    "state": "Hamburg",
    "city": "Marienthal"
  }
]
