[
  {
    "source_id": "ChIJv19HvRmPsUcR-OIwzah92jA",
    "name": "Globetrotter Hamburg-Gänsemarkt",
    "category": "Globetrotter Hamburg-Gänsemarkt",
    "formatted_address": "4,2(1.097)",
    "phone_number": "+4910974",
    "source_url": "https://www.google.com/maps/place/Globetrotter+Hamburg-G%C3%A4nsemarkt/data=!4m7!3m6!1s0x47b18f19bd475fbf:0x30da7da8cd30e2f8!8m2!3d53.5546346!4d9.9889458!16s%2Fg%2F11dxl0k2h4!19sChIJv19HvRmPsUcR-OIwzah92jA?authuser=0&hl=tr&rclk=1",
    "website_url": "",
    "rating_text": "4,2",
    "stars": null,
    "number_of_reviews": null,
    "price_level": "",
    "open_hours": "",
    "extraction_timestamp": "2025-06-07T15:24:18.747Z",
    "source_name": "google",
    "source_query": "Irrigation Equipment",
    "source_country": "DE",
    "country": "Germany",
    "state": "Hamburg",
    "city": "Neustadt"
  },
  {
    "source_id": "ChIJixz8c2zzsUcRvWDIvRaRRaY",
    "name": "ABS Bewässerungssysteme",
    "category": "ABS Bewässerungssysteme",
    "formatted_address": "5,0(10)",
    "phone_number": "+494020963222",
    "source_url": "https://www.google.com/maps/place/ABS+Bew%C3%A4sserungssysteme/data=!4m7!3m6!1s0x47b1f36c73fc1c8b:0xa6459116bdc860bd!8m2!3d53.4851575!4d10.1899135!16s%2Fg%2F11pwpgyn7x!19sChIJixz8c2zzsUcRvWDIvRaRRaY?authuser=0&hl=tr&rclk=1",
    "website_url": "",
    "rating_text": "5,0",
    "stars": null,
    "number_of_reviews": null,
    "price_level": "",
    "open_hours": "",
    "extraction_timestamp": "2025-06-07T15:24:18.748Z",
    "source_name": "google",
    "source_query": "Irrigation Equipment",
    "source_country": "DE",
    "country": "Germany",
    "state": "Hamburg",
    "city": "Neustadt"
  },
  {
    "source_id": "ChIJY24_2eOOsUcRlgh309VEt8M",
    "name": "MediaMarkt Tech Village Hamburg",
    "category": "MediaMarkt Tech Village Hamburg",
    "formatted_address": "4,2(23.660)",
    "phone_number": "+49236604",
    "source_url": "https://www.google.com/maps/place/MediaMarkt+Tech+Village+Hamburg/data=!4m7!3m6!1s0x47b18ee3d93f6e63:0xc3b744d5d3770896!8m2!3d53.5511444!4d10.0056203!16s%2Fg%2F1tdrdf7v!19sChIJY24_2eOOsUcRlgh309VEt8M?authuser=0&hl=tr&rclk=1",
    "website_url": "",
    "rating_text": "4,2",
    "stars": null,
    "number_of_reviews": null,
    "price_level": "",
    "open_hours": "",
    "extraction_timestamp": "2025-06-07T15:24:18.750Z",
    "source_name": "google",
    "source_query": "Irrigation Equipment",
    "source_country": "DE",
    "country": "Germany",
    "state": "Hamburg",
    "city": "Neustadt"
  },
  {
    "source_id": "ChIJFWShvx2PsUcR8kiThIgVBhU",
    "name": "Galeria",
    "category": "Galeria",
    "formatted_address": "4,2(11.527)",
    "phone_number": "+49115274",
    "source_url": "https://www.google.com/maps/place/Galeria/data=!4m7!3m6!1s0x47b18f1dbfa16415:0x15061588849348f2!8m2!3d53.5509704!4d9.9981626!16s%2Fg%2F1td_xnhl!19sChIJFWShvx2PsUcR8kiThIgVBhU?authuser=0&hl=tr&rclk=1",
    "website_url": "",
    "rating_text": "4,2",
    "stars": null,
    "number_of_reviews": null,
    "price_level": "",
    "open_hours": "",
    "extraction_timestamp": "2025-06-07T15:24:18.751Z",
    "source_name": "google",
    "source_query": "Irrigation Equipment",
    "source_country": "DE",
    "country": "Germany",
    "state": "Hamburg",
    "city": "Neustadt"
  },
  {
    "source_id": "ChIJgT8pVmmPsUcRrDBrbpCz3oA",
    "name": "Ferd. Schüllenbach e. K.",
    "category": "Ferd. Schüllenbach e. K.",
    "formatted_address": "4,9(290)",
    "phone_number": "+49404393014",
    "source_url": "https://www.google.com/maps/place/Ferd.+Sch%C3%BCllenbach+e.+K./data=!4m7!3m6!1s0x47b18f6956293f81:0x80deb3906e6b30ac!8m2!3d53.5557454!4d9.9640275!16s%2Fg%2F1v8gb24_!19sChIJgT8pVmmPsUcRrDBrbpCz3oA?authuser=0&hl=tr&rclk=1",
    "website_url": "",
    "rating_text": "4,9",
    "stars": null,
    "number_of_reviews": null,
    "price_level": "",
    "open_hours": "",
    "extraction_timestamp": "2025-06-07T15:24:18.752Z",
    "source_name": "google",
    "source_query": "Irrigation Equipment",
    "source_country": "DE",
    "country": "Germany",
    "state": "Hamburg",
    "city": "Neustadt"
  },
  {
    "source_id": "ChIJVVVl1B-PsUcRe0sT8uYkNPU",
    "name": "TurfPro GmbH",
    "category": "TurfPro GmbH",
    "formatted_address": "4,3(16)",
    "phone_number": "+494084895219",
    "source_url": "https://www.google.com/maps/place/TurfPro+GmbH/data=!4m7!3m6!1s0x47b18f1fd4655555:0xf53424e6f2134b7b!8m2!3d53.5551215!4d10.00104!16s%2Fg%2F11g1f90l5g!19sChIJVVVl1B-PsUcRe0sT8uYkNPU?authuser=0&hl=tr&rclk=1",
    "website_url": "",
    "rating_text": "4,3",
    "stars": null,
    "number_of_reviews": null,
    "price_level": "",
    "open_hours": "",
    "extraction_timestamp": "2025-06-07T15:24:18.753Z",
    "source_name": "google",
    "source_query": "Irrigation Equipment",
    "source_country": "DE",
    "country": "Germany",
    "state": "Hamburg",
    "city": "Neustadt"
  },
  {
    "source_id": "ChIJ7em9Wp-IsUcR-PnzCLUWox4",
    "name": "Quellklar by Hydro-Shop",
    "category": "Quellklar by Hydro-Shop",
    "formatted_address": "3,5(8)",
    "phone_number": "+49405001720",
    "source_url": "https://www.google.com/maps/place/Quellklar+by+Hydro-Shop/data=!4m7!3m6!1s0x47b1889f5abde9ed:0x1ea316b508f3f9f8!8m2!3d53.610056!4d9.974098!16s%2Fg%2F1hc3w12m3!19sChIJ7em9Wp-IsUcR-PnzCLUWox4?authuser=0&hl=tr&rclk=1",
    "website_url": "",
    "rating_text": "3,5",
    "stars": null,
    "number_of_reviews": null,
    "price_level": "",
    "open_hours": "",
    "extraction_timestamp": "2025-06-07T15:24:18.754Z",
    "source_name": "google",
    "source_query": "Irrigation Equipment",
    "source_country": "DE",
    "country": "Germany",
    "state": "Hamburg",
    "city": "Neustadt"
  },
  {
    "source_id": "ChIJQXXWsB2PsUcRUhObAMu8wuE",
    "name": "SportScheck",
    "category": "SportScheck",
    "formatted_address": "3,9(3.530)",
    "phone_number": "+4935303",
    "source_url": "https://www.google.com/maps/place/SportScheck/data=!4m7!3m6!1s0x47b18f1db0d67541:0xe1c2bccb009b1352!8m2!3d53.5508445!4d9.9963504!16s%2Fg%2F1tdlgbnc!19sChIJQXXWsB2PsUcRUhObAMu8wuE?authuser=0&hl=tr&rclk=1",
    "website_url": "",
    "rating_text": "3,9",
    "stars": null,
    "number_of_reviews": null,
    "price_level": "",
    "open_hours": "",
    "extraction_timestamp": "2025-06-07T15:24:18.756Z",
    "source_name": "google",
    "source_query": "Irrigation Equipment",
    "source_country": "DE",
    "country": "Germany",
    "state": "Hamburg",
    "city": "Neustadt"
  },
  {
    "source_id": "ChIJ4R34GoKPsUcR_Di8Y72u1Q4",
    "name": "AN-Beregnungstechnik",
    "category": "AN-Beregnungstechnik",
    "formatted_address": "",
    "phone_number": "+4917673517226",
    "source_url": "https://www.google.com/maps/place/AN-Beregnungstechnik/data=!4m7!3m6!1s0x47b18f821af81de1:0xed5aebd63bc38fc!8m2!3d53.5576744!4d10.0112776!16s%2Fg%2F11x33m21xg!19sChIJ4R34GoKPsUcR_Di8Y72u1Q4?authuser=0&hl=tr&rclk=1",
    "website_url": "",
    "rating_text": "",
    "stars": null,
    "number_of_reviews": null,
    "price_level": "",
    "open_hours": "",
    "extraction_timestamp": "2025-06-07T15:24:18.757Z",
    "source_name": "google",
    "source_query": "Irrigation Equipment",
    "source_country": "DE",
    "country": "Germany",
    "state": "Hamburg",
    "city": "Neustadt"
  },
  {
    "source_id": "ChIJMx6O7uKOsUcRRaAxBIcMi1U",
    "name": "Manufactum Warenhaus",
    "category": "Manufactum Warenhaus",
    "formatted_address": "4,5(1.117)",
    "phone_number": "+4911174",
    "source_url": "https://www.google.com/maps/place/Manufactum+Warenhaus/data=!4m7!3m6!1s0x47b18ee2ee8e1e33:0x558b0c870431a045!8m2!3d53.5484527!4d10.0010223!16s%2Fg%2F1tj7d31s!19sChIJMx6O7uKOsUcRRaAxBIcMi1U?authuser=0&hl=tr&rclk=1",
    "website_url": "",
    "rating_text": "4,5",
    "stars": null,
    "number_of_reviews": null,
    "price_level": "",
    "open_hours": "",
    "extraction_timestamp": "2025-06-07T15:24:18.758Z",
    "source_name": "google",
    "source_query": "Irrigation Equipment",
    "source_country": "DE",
    "country": "Germany",
    "state": "Hamburg",
    "city": "Neustadt"
  },
  {
    "source_id": "ChIJWaJSZnCPsUcR_AiDFHvYHnQ",
    "name": "NOHrD & WaterRower - Brand Store Hamburg",
    "category": "NOHrD & WaterRower - Brand Store Hamburg",
    "formatted_address": "4,9(8)",
    "phone_number": "+4940537995020",
    "source_url": "https://www.google.com/maps/place/NOHrD+%26+WaterRower+-+Brand+Store+Hamburg/data=!4m7!3m6!1s0x47b18f706652a259:0x741ed87b148308fc!8m2!3d53.5538788!4d10.0029015!16s%2Fg%2F11k6zrt_yc!19sChIJWaJSZnCPsUcR_AiDFHvYHnQ?authuser=0&hl=tr&rclk=1",
    "website_url": "",
    "rating_text": "4,9",
    "stars": null,
    "number_of_reviews": null,
    "price_level": "",
    "open_hours": "",
    "extraction_timestamp": "2025-06-07T15:24:18.760Z",
    "source_name": "google",
    "source_query": "Irrigation Equipment",
    "source_country": "DE",
    "country": "Germany",
    "state": "Hamburg",
    "city": "Neustadt"
  },
  {
    "source_id": "ChIJq5g0ZQWPsUcReN_8zOnsI4o",
    "name": "Søstrene Grene",
    "category": "Søstrene Grene",
    "formatted_address": "4,6(132)",
    "phone_number": "",
    "source_url": "https://www.google.com/maps/place/S%C3%B8strene+Grene/data=!4m7!3m6!1s0x47b18f05653498ab:0x8a23ece9ccfcdf78!8m2!3d53.5515844!4d10.0006031!16s%2Fg%2F11p777f9kw!19sChIJq5g0ZQWPsUcReN_8zOnsI4o?authuser=0&hl=tr&rclk=1",
    "website_url": "",
    "rating_text": "4,6",
    "stars": null,
    "number_of_reviews": null,
    "price_level": "",
    "open_hours": "",
    "extraction_timestamp": "2025-06-07T15:24:18.760Z",
    "source_name": "google",
    "source_query": "Irrigation Equipment",
    "source_country": "DE",
    "country": "Germany",
    "state": "Hamburg",
    "city": "Neustadt"
  },
  {
    "source_id": "ChIJpWq2XxmPsUcRT8CIjUdjBTg",
    "name": "Alsterhaus",
    "category": "Alsterhaus",
    "formatted_address": "4,3(8.326)",
    "phone_number": "+4983264",
    "source_url": "https://www.google.com/maps/place/Alsterhaus/data=!4m7!3m6!1s0x47b18f195fb66aa5:0x380563478d88c04f!8m2!3d53.5531573!4d9.9920908!16s%2Fg%2F12345gr8!19sChIJpWq2XxmPsUcRT8CIjUdjBTg?authuser=0&hl=tr&rclk=1",
    "website_url": "",
    "rating_text": "4,3",
    "stars": null,
    "number_of_reviews": null,
    "price_level": "",
    "open_hours": "",
    "extraction_timestamp": "2025-06-07T15:24:18.762Z",
    "source_name": "google",
    "source_query": "Irrigation Equipment",
    "source_country": "DE",
    "country": "Germany",
    "state": "Hamburg",
    "city": "Neustadt"
  },
  {
    "source_id": "ChIJR5g-mBCPsUcRkxFnfUtm57I",
    "name": "EVO Fitness Hamburg Stadthausbrücke",
    "category": "EVO Fitness Hamburg Stadthausbrücke",
    "formatted_address": "4,7(412)",
    "phone_number": "+4915204568720",
    "source_url": "https://www.google.com/maps/place/EVO+Fitness+Hamburg+Stadthausbr%C3%BCcke/data=!4m7!3m6!1s0x47b18f10983e9847:0xb2e7664b7d671193!8m2!3d53.5521771!4d9.9844857!16s%2Fg%2F11gdd9lpj1!19sChIJR5g-mBCPsUcRkxFnfUtm57I?authuser=0&hl=tr&rclk=1",
    "website_url": "",
    "rating_text": "4,7",
    "stars": null,
    "number_of_reviews": null,
    "price_level": "",
    "open_hours": "",
    "extraction_timestamp": "2025-06-07T15:24:18.763Z",
    "source_name": "google",
    "source_query": "Irrigation Equipment",
    "source_country": "DE",
    "country": "Germany",
    "state": "Hamburg",
    "city": "Neustadt"
  },
  {
    "source_id": "ChIJRbuh-h2PsUcRTe_EW11Rixk",
    "name": "Toysino Filiale Hamburg - vorher myToys",
    "category": "Toysino Filiale Hamburg - vorher myToys",
    "formatted_address": "4,1(552)",
    "phone_number": "+494076754570",
    "source_url": "https://www.google.com/maps/place/Toysino+Filiale+Hamburg+-+vorher+myToys/data=!4m7!3m6!1s0x47b18f1dfaa1bb45:0x198b515d5bc4ef4d!8m2!3d53.551598!4d9.9996635!16s%2Fg%2F11c5h5cfs2!19sChIJRbuh-h2PsUcRTe_EW11Rixk?authuser=0&hl=tr&rclk=1",
    "website_url": "",
    "rating_text": "4,1",
    "stars": null,
    "number_of_reviews": null,
    "price_level": "",
    "open_hours": "",
    "extraction_timestamp": "2025-06-07T15:24:18.764Z",
    "source_name": "google",
    "source_query": "Irrigation Equipment",
    "source_country": "DE",
    "country": "Germany",
    "state": "Hamburg",
    "city": "Neustadt"
  },
  {
    "source_id": "ChIJVVUFDBmPsUcRRfT1XdhrHME",
    "name": "Schöffel-LOWA Store Hamburg",
    "category": "Schöffel-LOWA Store Hamburg",
    "formatted_address": "4,1(48)",
    "phone_number": "+494034993786",
    "source_url": "https://www.google.com/maps/place/Sch%C3%B6ffel-LOWA+Store+Hamburg/data=!4m7!3m6!1s0x47b18f190c055555:0xc11c6bd85df5f445!8m2!3d53.5547266!4d9.9905213!16s%2Fg%2F11f579_65l!19sChIJVVUFDBmPsUcRRfT1XdhrHME?authuser=0&hl=tr&rclk=1",
    "website_url": "",
    "rating_text": "4,1",
    "stars": null,
    "number_of_reviews": null,
    "price_level": "",
    "open_hours": "",
    "extraction_timestamp": "2025-06-07T15:24:18.765Z",
    "source_name": "google",
    "source_query": "Irrigation Equipment",
    "source_country": "DE",
    "country": "Germany",
    "state": "Hamburg",
    "city": "Neustadt"
  },
  {
    "source_id": "ChIJQQ-CVhiPsUcRQV7QN_5bzyU",
    "name": "Trekking König",
    "category": "Trekking König",
    "formatted_address": "4,3(261)",
    "phone_number": "+494098762295",
    "source_url": "https://www.google.com/maps/place/Trekking+K%C3%B6nig/data=!4m7!3m6!1s0x47b18f1856820f41:0x25cf5bfe37d05e41!8m2!3d53.5560968!4d9.9900968!16s%2Fg%2F1tg14st8!19sChIJQQ-CVhiPsUcRQV7QN_5bzyU?authuser=0&hl=tr&rclk=1",
    "website_url": "",
    "rating_text": "4,3",
    "stars": null,
    "number_of_reviews": null,
    "price_level": "",
    "open_hours": "",
    "extraction_timestamp": "2025-06-07T15:24:18.766Z",
    "source_name": "google",
    "source_query": "Irrigation Equipment",
    "source_country": "DE",
    "country": "Germany",
    "state": "Hamburg",
    "city": "Neustadt"
  },
  {
    "source_id": "ChIJeVqs442FsUcR6syIB75ydFE",
    "name": "CALUMET Hamburg",
    "category": "CALUMET Hamburg",
    "formatted_address": "4,5(1.033)",
    "phone_number": "+4910334",
    "source_url": "https://www.google.com/maps/place/CALUMET+Hamburg/data=!4m7!3m6!1s0x47b1858de3ac5a79:0x517472be0788ccea!8m2!3d53.5475187!4d9.9859347!16s%2Fg%2F1td16x43!19sChIJeVqs442FsUcR6syIB75ydFE?authuser=0&hl=tr&rclk=1",
    "website_url": "",
    "rating_text": "4,5",
    "stars": null,
    "number_of_reviews": null,
    "price_level": "",
    "open_hours": "",
    "extraction_timestamp": "2025-06-07T15:24:18.767Z",
    "source_name": "google",
    "source_query": "Irrigation Equipment",
    "source_country": "DE",
    "country": "Germany",
    "state": "Hamburg",
    "city": "Neustadt"
  },
  {
    "source_id": "ChIJGcDHXByPsUcR7hI6tidkXO4",
    "name": "Jack Wolfskin Store",
    "category": "Jack Wolfskin Store",
    "formatted_address": "4,5(450)",
    "phone_number": "+494030087822",
    "source_url": "https://www.google.com/maps/place/Jack+Wolfskin+Store/data=!4m7!3m6!1s0x47b18f1c5cc7c019:0xee5c6427b63a12ee!8m2!3d53.5502607!4d9.994559!16s%2Fg%2F1vrq8q0d!19sChIJGcDHXByPsUcR7hI6tidkXO4?authuser=0&hl=tr&rclk=1",
    "website_url": "",
    "rating_text": "4,5",
    "stars": null,
    "number_of_reviews": null,
    "price_level": "",
    "open_hours": "",
    "extraction_timestamp": "2025-06-07T15:24:18.768Z",
    "source_name": "google",
    "source_query": "Irrigation Equipment",
    "source_country": "DE",
    "country": "Germany",
    "state": "Hamburg",
    "city": "Neustadt"
  },
  {
    "source_id": "ChIJc8-YLhuPsUcRAerUB037aBs",
    "name": "Reformhaus Engelhardt",
    "category": "Reformhaus Engelhardt",
    "formatted_address": "4,5(19)",
    "phone_number": "+4940335995",
    "source_url": "https://www.google.com/maps/place/Reformhaus+Engelhardt/data=!4m7!3m6!1s0x47b18f1b2e98cf73:0x1b68fb4d07d4ea01!8m2!3d53.552!4d9.9995901!16s%2Fg%2F1tfbxj61!19sChIJc8-YLhuPsUcRAerUB037aBs?authuser=0&hl=tr&rclk=1",
    "website_url": "",
    "rating_text": "4,5",
    "stars": null,
    "number_of_reviews": null,
    "price_level": "",
    "open_hours": "",
    "extraction_timestamp": "2025-06-07T15:24:18.769Z",
    "source_name": "google",
    "source_query": "Irrigation Equipment",
    "source_country": "DE",
    "country": "Germany",
    "state": "Hamburg",
    "city": "Neustadt"
  },
  {
    "source_id": "ChIJFRmmplaPsUcREtapQzcs7_M",
    "name": "REWE",
    "category": "REWE",
    "formatted_address": "4,1(36)",
    "phone_number": "+4940180240570",
    "source_url": "https://www.google.com/maps/place/REWE/data=!4m7!3m6!1s0x47b18f56a6a61915:0xf3ef2c3743a9d612!8m2!3d53.5399816!4d9.9971341!16s%2Fg%2F11x8pg_q94!19sChIJFRmmplaPsUcREtapQzcs7_M?authuser=0&hl=tr&rclk=1",
    "website_url": "",
    "rating_text": "4,1",
    "stars": null,
    "number_of_reviews": null,
    "price_level": "",
    "open_hours": "",
    "extraction_timestamp": "2025-06-07T15:24:18.770Z",
    "source_name": "google",
    "source_query": "Irrigation Equipment",
    "source_country": "DE",
    "country": "Germany",
    "state": "Hamburg",
    "city": "Neustadt"
  },
  {
    "source_id": "ChIJveEy6huPsUcRUkx39dRPzq4",
    "name": "W. WEITZ Tischkultur zum Leben Hamburg",
    "category": "W. WEITZ Tischkultur zum Leben Hamburg",
    "formatted_address": "4,5(121)",
    "phone_number": "+49403785580",
    "source_url": "https://www.google.com/maps/place/W.+WEITZ+Tischkultur+zum+Leben+Hamburg/data=!4m7!3m6!1s0x47b18f1bea32e1bd:0xaece4fd4f5774c52!8m2!3d53.5519542!4d9.9910238!16s%2Fg%2F1tdcql4r!19sChIJveEy6huPsUcRUkx39dRPzq4?authuser=0&hl=tr&rclk=1",
    "website_url": "",
    "rating_text": "4,5",
    "stars": null,
    "number_of_reviews": null,
    "price_level": "",
    "open_hours": "",
    "extraction_timestamp": "2025-06-07T15:24:18.771Z",
    "source_name": "google",
    "source_query": "Irrigation Equipment",
    "source_country": "DE",
    "country": "Germany",
    "state": "Hamburg",
    "city": "Neustadt"
  },
  {
    "source_id": "ChIJq6pq6x2PsUcRgL3RS-Dtnyg",
    "name": "go asia - Hamburg",
    "category": "go asia - Hamburg",
    "formatted_address": "4,4(1.642)",
    "phone_number": "+4916424",
    "source_url": "https://www.google.com/maps/place/go+asia+-+Hamburg/data=!4m7!3m6!1s0x47b18f1deb6aaaab:0x289fede04bd1bd80!8m2!3d53.5512755!4d9.9985353!16s%2Fg%2F11f4t_rl2v!19sChIJq6pq6x2PsUcRgL3RS-Dtnyg?authuser=0&hl=tr&rclk=1",
    "website_url": "",
    "rating_text": "4,4",
    "stars": null,
    "number_of_reviews": null,
    "price_level": "",
    "open_hours": "",
    "extraction_timestamp": "2025-06-07T15:24:18.772Z",
    "source_name": "google",
    "source_query": "Irrigation Equipment",
    "source_country": "DE",
    "country": "Germany",
    "state": "Hamburg",
    "city": "Neustadt"
  },
  {
    "source_id": "ChIJK0Bw0lqMsUcRcv_JZ_g3lCk",
    "name": "Öncü Supermarkt GmbH",
    "category": "Öncü Supermarkt GmbH",
    "formatted_address": "4,2(351)",
    "phone_number": "+494073127838",
    "source_url": "https://www.google.com/maps/place/%C3%96nc%C3%BC+Supermarkt+GmbH/data=!4m7!3m6!1s0x47b18c5ad270402b:0x299437f867c9ff72!8m2!3d53.5402493!4d10.1019308!16s%2Fg%2F1td5_spg!19sChIJK0Bw0lqMsUcRcv_JZ_g3lCk?authuser=0&hl=tr&rclk=1",
    "website_url": "",
    "rating_text": "4,2",
    "stars": null,
    "number_of_reviews": null,
    "price_level": "",
    "open_hours": "",
    "extraction_timestamp": "2025-06-07T15:24:18.773Z",
    "source_name": "google",
    "source_query": "Irrigation Equipment",
    "source_country": "DE",
    "country": "Germany",
    "state": "Hamburg",
    "city": "Neustadt"
  },
  {
    "source_id": "ChIJ0fs9R1uPsUcRpx2PgiKnCLE",
    "name": "Aydin Markt",
    "category": "Aydin Markt",
    "formatted_address": "4,8(82)",
    "phone_number": "+49404301537",
    "source_url": "https://www.google.com/maps/place/Aydin+Markt/data=!4m7!3m6!1s0x47b18f5b473dfbd1:0xb108a722828f1da7!8m2!3d53.567807!4d9.959732!16s%2Fg%2F1td0xjdr!19sChIJ0fs9R1uPsUcRpx2PgiKnCLE?authuser=0&hl=tr&rclk=1",
    "website_url": "",
    "rating_text": "4,8",
    "stars": null,
    "number_of_reviews": null,
    "price_level": "",
    "open_hours": "",
    "extraction_timestamp": "2025-06-07T15:24:18.774Z",
    "source_name": "google",
    "source_query": "Irrigation Equipment",
    "source_country": "DE",
    "country": "Germany",
    "state": "Hamburg",
    "city": "Neustadt"
  },
  {
    "source_id": "ChIJY5op5OGOsUcR-zvzMdDwBpo",
    "name": "Asiamarkt Mipoong",
    "category": "Asiamarkt Mipoong",
    "formatted_address": "4,5(560)",
    "phone_number": "+4940324431",
    "source_url": "https://www.google.com/maps/place/Asiamarkt+Mipoong/data=!4m7!3m6!1s0x47b18ee1e4299a63:0x9a06f0d031f33bfb!8m2!3d53.5531014!4d10.0011698!16s%2Fg%2F1tffnd9_!19sChIJY5op5OGOsUcR-zvzMdDwBpo?authuser=0&hl=tr&rclk=1",
    "website_url": "",
    "rating_text": "4,5",
    "stars": null,
    "number_of_reviews": null,
    "price_level": "",
    "open_hours": "",
    "extraction_timestamp": "2025-06-07T15:24:18.775Z",
    "source_name": "google",
    "source_query": "Irrigation Equipment",
    "source_country": "DE",
    "country": "Germany",
    "state": "Hamburg",
    "city": "Neustadt"
  },
  {
    "source_id": "ChIJ5Rui3mONsUcRXf3eMFz86AU",
    "name": "TEDi",
    "category": "TEDi",
    "formatted_address": "4,0(461)",
    "phone_number": "+49231555770",
    "source_url": "https://www.google.com/maps/place/TEDi/data=!4m7!3m6!1s0x47b18d63dea21be5:0x5e8fc5c30defd5d!8m2!3d53.5403799!4d10.1043947!16s%2Fg%2F11hz29n2h6!19sChIJ5Rui3mONsUcRXf3eMFz86AU?authuser=0&hl=tr&rclk=1",
    "website_url": "",
    "rating_text": "4,0",
    "stars": null,
    "number_of_reviews": null,
    "price_level": "",
    "open_hours": "",
    "extraction_timestamp": "2025-06-07T15:24:18.776Z",
    "source_name": "google",
    "source_query": "Irrigation Equipment",
    "source_country": "DE",
    "country": "Germany",
    "state": "Hamburg",
    "city": "Neustadt"
  },
  {
    "source_id": "ChIJdylIRISOsUcRryFtOxRqYks",
    "name": "India Bazaar - food cheap & good",
    "category": "India Bazaar - food cheap & good",
    "formatted_address": "4,4(32)",
    "phone_number": "+494049203625",
    "source_url": "https://www.google.com/maps/place/India+Bazaar+-+food+cheap+%26+good/data=!4m7!3m6!1s0x47b18e8444482977:0x4b626a143b6d21af!8m2!3d53.539222!4d10.0459383!16s%2Fg%2F11dynn5nwf!19sChIJdylIRISOsUcRryFtOxRqYks?authuser=0&hl=tr&rclk=1",
    "website_url": "",
    "rating_text": "4,4",
    "stars": null,
    "number_of_reviews": null,
    "price_level": "",
    "open_hours": "",
    "extraction_timestamp": "2025-06-07T15:24:18.777Z",
    "source_name": "google",
    "source_query": "Irrigation Equipment",
    "source_country": "DE",
    "country": "Germany",
    "state": "Hamburg",
    "city": "Neustadt"
  },
  {
    "source_id": "ChIJV8gwW2qMsUcRUt0E6J7HWMw",
    "name": "Meydan Markt",
    "category": "Meydan Markt",
    "formatted_address": "4,3(485)",
    "phone_number": "+494063946427",
    "source_url": "https://www.google.com/maps/place/Meydan+Markt/data=!4m7!3m6!1s0x47b18c6a5b30c857:0xcc58c79ee804dd52!8m2!3d53.5514614!4d10.095339!16s%2Fg%2F1tqt8qx6!19sChIJV8gwW2qMsUcRUt0E6J7HWMw?authuser=0&hl=tr&rclk=1",
    "website_url": "",
    "rating_text": "4,3",
    "stars": null,
    "number_of_reviews": null,
    "price_level": "",
    "open_hours": "",
    "extraction_timestamp": "2025-06-07T15:24:18.777Z",
    "source_name": "google",
    "source_query": "Irrigation Equipment",
    "source_country": "DE",
    "country": "Germany",
    "state": "Hamburg",
    "city": "Neustadt"
  }
]
