[
  {
    "source_id": "ChIJXVf_CImJsUcRSO2mqNaQQYQ",
    "name": "Culligan | Wasserspender in Hamburg mieten",
    "category": "Culligan | Wasserspender in Hamburg mieten",
    "formatted_address": "4,7(27)",
    "phone_number": "+4921315123456",
    "source_url": "https://www.google.com/maps/place/Culligan+%7C+Wasserspender+in+Hamburg+mieten/data=!4m7!3m6!1s0x47b1898908ff575d:0x844190d6a8a6ed48!8m2!3d51.175807!4d10.4541194!16s%2Fg%2F11bxfzfynx!19sChIJXVf_CImJsUcRSO2mqNaQQYQ?authuser=0&hl=tr&rclk=1",
    "website_url": "",
    "rating_text": "4,7",
    "stars": null,
    "number_of_reviews": null,
    "price_level": "",
    "open_hours": "",
    "extraction_timestamp": "2025-06-07T15:21:33.978Z",
    "source_name": "google",
    "source_query": "Irrigation Equipment",
    "source_country": "DE",
    "country": "Germany",
    "state": "Hamburg",
    "city": "Ohlsdorf"
  },
  {
    "source_id": "ChIJXy9-DRaJsUcRLL-gWDwhpEY",
    "name": "C&P Aquaplants",
    "category": "C&P Aquaplants",
    "formatted_address": "4,4(5)",
    "phone_number": "+494084306403",
    "source_url": "https://www.google.com/maps/place/C%26P+Aquaplants/data=!4m7!3m6!1s0x47b189160d7e2f5f:0x46a4213c58a0bf2c!8m2!3d53.6004973!4d10.038029!16s%2Fg%2F11vxxr_60x!19sChIJXy9-DRaJsUcRLL-gWDwhpEY?authuser=0&hl=tr&rclk=1",
    "website_url": "",
    "rating_text": "4,4",
    "stars": null,
    "number_of_reviews": null,
    "price_level": "",
    "open_hours": "",
    "extraction_timestamp": "2025-06-07T15:21:33.980Z",
    "source_name": "google",
    "source_query": "Irrigation Equipment",
    "source_country": "DE",
    "country": "Germany",
    "state": "Hamburg",
    "city": "Ohlsdorf"
  },
  {
    "source_id": "ChIJixz8c2zzsUcRvWDIvRaRRaY",
    "name": "ABS Bewässerungssysteme",
    "category": "ABS Bewässerungssysteme",
    "formatted_address": "5,0(10)",
    "phone_number": "+494020963222",
    "source_url": "https://www.google.com/maps/place/ABS+Bew%C3%A4sserungssysteme/data=!4m7!3m6!1s0x47b1f36c73fc1c8b:0xa6459116bdc860bd!8m2!3d53.4851575!4d10.1899135!16s%2Fg%2F11pwpgyn7x!19sChIJixz8c2zzsUcRvWDIvRaRRaY?authuser=0&hl=tr&rclk=1",
    "website_url": "",
    "rating_text": "5,0",
    "stars": null,
    "number_of_reviews": null,
    "price_level": "",
    "open_hours": "",
    "extraction_timestamp": "2025-06-07T15:21:33.982Z",
    "source_name": "google",
    "source_query": "Irrigation Equipment",
    "source_country": "DE",
    "country": "Germany",
    "state": "Hamburg",
    "city": "Ohlsdorf"
  },
  {
    "source_id": "ChIJYWj9xsyJsUcRd8OogR29cX4",
    "name": "hagebaumarkt Hummelsbüttel - Möller & Förster",
    "category": "hagebaumarkt Hummelsbüttel - Möller & Förster",
    "formatted_address": "4,1(2.067)",
    "phone_number": "+49406450640",
    "source_url": "https://www.google.com/maps/place/hagebaumarkt+Hummelsb%C3%BCttel+-+M%C3%B6ller+%26+F%C3%B6rster/data=!4m7!3m6!1s0x47b189ccc6fd6861:0x7e71bd1d81a8c377!8m2!3d53.6487259!4d10.0385592!16s%2Fg%2F1tdvj6_b!19sChIJYWj9xsyJsUcRd8OogR29cX4?authuser=0&hl=tr&rclk=1",
    "website_url": "",
    "rating_text": "4,1",
    "stars": null,
    "number_of_reviews": null,
    "price_level": "",
    "open_hours": "",
    "extraction_timestamp": "2025-06-07T15:21:33.985Z",
    "source_name": "google",
    "source_query": "Irrigation Equipment",
    "source_country": "DE",
    "country": "Germany",
    "state": "Hamburg",
    "city": "Ohlsdorf"
  },
  {
    "source_id": "ChIJw_f6XqqJsUcRs85lyK9auEM",
    "name": "Bäderland Familienbad Ohlsdorf",
    "category": "Bäderland Familienbad Ohlsdorf",
    "formatted_address": "3,6(377)",
    "phone_number": "+4940188890",
    "source_url": "https://www.google.com/maps/place/B%C3%A4derland+Familienbad+Ohlsdorf/data=!4m7!3m6!1s0x47b189aa5efaf7c3:0x43b85aafc865ceb3!8m2!3d53.6215487!4d10.0307512!16s%2Fg%2F1v7pxjp9!19sChIJw_f6XqqJsUcRs85lyK9auEM?authuser=0&hl=tr&rclk=1",
    "website_url": "",
    "rating_text": "3,6",
    "stars": null,
    "number_of_reviews": null,
    "price_level": "",
    "open_hours": "",
    "extraction_timestamp": "2025-06-07T15:21:33.986Z",
    "source_name": "google",
    "source_query": "Irrigation Equipment",
    "source_country": "DE",
    "country": "Germany",
    "state": "Hamburg",
    "city": "Ohlsdorf"
  },
  {
    "source_id": "ChIJu-g2n-WIsUcRBeIBVUNa9Es",
    "name": "F.W.M. Schorbach KG (GmbH & Co.)",
    "category": "F.W.M. Schorbach KG (GmbH & Co.)",
    "formatted_address": "4,5(16)",
    "phone_number": "+4940511290",
    "source_url": "https://www.google.com/maps/place/F.W.M.+Schorbach+KG+%28GmbH+%26+Co.%29/data=!4m7!3m6!1s0x47b188e59f36e8bb:0x4bf45a435501e205!8m2!3d53.6086909!4d10.0079014!16s%2Fg%2F1thlm3tw!19sChIJu-g2n-WIsUcRBeIBVUNa9Es?authuser=0&hl=tr&rclk=1",
    "website_url": "",
    "rating_text": "4,5",
    "stars": null,
    "number_of_reviews": null,
    "price_level": "",
    "open_hours": "",
    "extraction_timestamp": "2025-06-07T15:21:33.987Z",
    "source_name": "google",
    "source_query": "Irrigation Equipment",
    "source_country": "DE",
    "country": "Germany",
    "state": "Hamburg",
    "city": "Ohlsdorf"
  },
  {
    "source_id": "ChIJ7em9Wp-IsUcR-PnzCLUWox4",
    "name": "Quellklar by Hydro-Shop",
    "category": "Quellklar by Hydro-Shop",
    "formatted_address": "3,5(8)",
    "phone_number": "+49405001720",
    "source_url": "https://www.google.com/maps/place/Quellklar+by+Hydro-Shop/data=!4m7!3m6!1s0x47b1889f5abde9ed:0x1ea316b508f3f9f8!8m2!3d53.610056!4d9.974098!16s%2Fg%2F1hc3w12m3!19sChIJ7em9Wp-IsUcR-PnzCLUWox4?authuser=0&hl=tr&rclk=1",
    "website_url": "",
    "rating_text": "3,5",
    "stars": null,
    "number_of_reviews": null,
    "price_level": "",
    "open_hours": "",
    "extraction_timestamp": "2025-06-07T15:21:33.988Z",
    "source_name": "google",
    "source_query": "Irrigation Equipment",
    "source_country": "DE",
    "country": "Germany",
    "state": "Hamburg",
    "city": "Ohlsdorf"
  },
  {
    "source_id": "ChIJs2IvhgqJsUcRaNsl0bh7-8Q",
    "name": "Sup Port Hamburg",
    "category": "Sup Port Hamburg",
    "formatted_address": "5,0(2)",
    "phone_number": "+491745647224",
    "source_url": "https://www.google.com/maps/place/Sup+Port+Hamburg/data=!4m7!3m6!1s0x47b1890a862f62b3:0xc4fb7bb8d125db68!8m2!3d53.6193144!4d10.0276205!16s%2Fg%2F11ng59nsb5!19sChIJs2IvhgqJsUcRaNsl0bh7-8Q?authuser=0&hl=tr&rclk=1",
    "website_url": "",
    "rating_text": "5,0",
    "stars": null,
    "number_of_reviews": null,
    "price_level": "",
    "open_hours": "",
    "extraction_timestamp": "2025-06-07T15:21:33.990Z",
    "source_name": "google",
    "source_query": "Irrigation Equipment",
    "source_country": "DE",
    "country": "Germany",
    "state": "Hamburg",
    "city": "Ohlsdorf"
  },
  {
    "source_id": "ChIJ4R34GoKPsUcR_Di8Y72u1Q4",
    "name": "AN-Beregnungstechnik",
    "category": "AN-Beregnungstechnik",
    "formatted_address": "",
    "phone_number": "+4917673517226",
    "source_url": "https://www.google.com/maps/place/AN-Beregnungstechnik/data=!4m7!3m6!1s0x47b18f821af81de1:0xed5aebd63bc38fc!8m2!3d53.5576744!4d10.0112776!16s%2Fg%2F11x33m21xg!19sChIJ4R34GoKPsUcR_Di8Y72u1Q4?authuser=0&hl=tr&rclk=1",
    "website_url": "",
    "rating_text": "",
    "stars": null,
    "number_of_reviews": null,
    "price_level": "",
    "open_hours": "",
    "extraction_timestamp": "2025-06-07T15:21:33.992Z",
    "source_name": "google",
    "source_query": "Irrigation Equipment",
    "source_country": "DE",
    "country": "Germany",
    "state": "Hamburg",
    "city": "Ohlsdorf"
  },
  {
    "source_id": "ChIJHy_JYrqJsUcRqq0rv_hpQD0",
    "name": "Delph Solar GmbH",
    "category": "Delph Solar GmbH",
    "formatted_address": "5,0(2)",
    "phone_number": "+4917663399911",
    "source_url": "https://www.google.com/maps/place/Delph+Solar+GmbH/data=!4m7!3m6!1s0x47b189ba62c92f1f:0x3d4069f8bf2badaa!8m2!3d53.63236!4d10.0262799!16s%2Fg%2F11l693447j!19sChIJHy_JYrqJsUcRqq0rv_hpQD0?authuser=0&hl=tr&rclk=1",
    "website_url": "",
    "rating_text": "5,0",
    "stars": null,
    "number_of_reviews": null,
    "price_level": "",
    "open_hours": "",
    "extraction_timestamp": "2025-06-07T15:21:33.993Z",
    "source_name": "google",
    "source_query": "Irrigation Equipment",
    "source_country": "DE",
    "country": "Germany",
    "state": "Hamburg",
    "city": "Ohlsdorf"
  },
  {
    "source_id": "ChIJ442matgmskcRvvMxEAfF78E",
    "name": "Sanifein Haustechnik GmbH",
    "category": "Sanifein Haustechnik GmbH",
    "formatted_address": "4,5(15)",
    "phone_number": "+494036915102",
    "source_url": "https://www.google.com/maps/place/Sanifein+Haustechnik+GmbH/data=!4m7!3m6!1s0x47b226d86aa68de3:0xc1efc5071031f3be!8m2!3d53.6305108!4d10.0211414!16s%2Fg%2F11d_7b1wvx!19sChIJ442matgmskcRvvMxEAfF78E?authuser=0&hl=tr&rclk=1",
    "website_url": "",
    "rating_text": "4,5",
    "stars": null,
    "number_of_reviews": null,
    "price_level": "",
    "open_hours": "",
    "extraction_timestamp": "2025-06-07T15:21:33.994Z",
    "source_name": "google",
    "source_query": "Irrigation Equipment",
    "source_country": "DE",
    "country": "Germany",
    "state": "Hamburg",
    "city": "Ohlsdorf"
  },
  {
    "source_id": "ChIJ8bCmgWSJsUcRDO7psM7zKfA",
    "name": "BAUHAUS Hamburg-Bramfeld",
    "category": "BAUHAUS Hamburg-Bramfeld",
    "formatted_address": "4,2(4.646)",
    "phone_number": "+4946464",
    "source_url": "https://www.google.com/maps/place/BAUHAUS+Hamburg-Bramfeld/data=!4m7!3m6!1s0x47b1896481a6b0f1:0xf029f3ceb0e9ee0c!8m2!3d53.6037031!4d10.0725721!16s%2Fg%2F1q5gkrhyk!19sChIJ8bCmgWSJsUcRDO7psM7zKfA?authuser=0&hl=tr&rclk=1",
    "website_url": "",
    "rating_text": "4,2",
    "stars": null,
    "number_of_reviews": null,
    "price_level": "",
    "open_hours": "",
    "extraction_timestamp": "2025-06-07T15:21:33.996Z",
    "source_name": "google",
    "source_query": "Irrigation Equipment",
    "source_country": "DE",
    "country": "Germany",
    "state": "Hamburg",
    "city": "Ohlsdorf"
  },
  {
    "source_id": "ChIJNZj_8laIsUcRxE_xBUI3FS0",
    "name": "TROST - Werbemittel & Textilien",
    "category": "TROST - Werbemittel & Textilien",
    "formatted_address": "5,0(4)",
    "phone_number": "+494018046223",
    "source_url": "https://www.google.com/maps/place/TROST+-+Werbemittel+%26+Textilien/data=!4m7!3m6!1s0x47b18856f2ff9835:0x2d15374205f14fc4!8m2!3d53.6251108!4d10.0176843!16s%2Fg%2F11bzyn23hc!19sChIJNZj_8laIsUcRxE_xBUI3FS0?authuser=0&hl=tr&rclk=1",
    "website_url": "",
    "rating_text": "5,0",
    "stars": null,
    "number_of_reviews": null,
    "price_level": "",
    "open_hours": "",
    "extraction_timestamp": "2025-06-07T15:21:33.997Z",
    "source_name": "google",
    "source_query": "Irrigation Equipment",
    "source_country": "DE",
    "country": "Germany",
    "state": "Hamburg",
    "city": "Ohlsdorf"
  },
  {
    "source_id": "ChIJiSbOEH-JsUcR7EUkwNA8rWE",
    "name": "Waldow Sanitärtechnik",
    "category": "Waldow Sanitärtechnik",
    "formatted_address": "4,3(11)",
    "phone_number": "+494069640140",
    "source_url": "https://www.google.com/maps/place/Waldow+Sanit%C3%A4rtechnik/data=!4m7!3m6!1s0x47b1897f10ce2689:0x61ad3cd0c02445ec!8m2!3d53.6079382!4d10.0503294!16s%2Fg%2F1td7b6cd!19sChIJiSbOEH-JsUcR7EUkwNA8rWE?authuser=0&hl=tr&rclk=1",
    "website_url": "",
    "rating_text": "4,3",
    "stars": null,
    "number_of_reviews": null,
    "price_level": "",
    "open_hours": "",
    "extraction_timestamp": "2025-06-07T15:21:33.999Z",
    "source_name": "google",
    "source_query": "Irrigation Equipment",
    "source_country": "DE",
    "country": "Germany",
    "state": "Hamburg",
    "city": "Ohlsdorf"
  },
  {
    "source_id": "ChIJASnWkcaJsUcRBXFbsf_0gRo",
    "name": "Lieblingsklempner GmbH",
    "category": "Lieblingsklempner GmbH",
    "formatted_address": "3,8(31)",
    "phone_number": "+494064891900",
    "source_url": "https://www.google.com/maps/place/Lieblingsklempner+GmbH/data=!4m7!3m6!1s0x47b189c691d62901:0x1a81f4ffb15b7105!8m2!3d53.6390209!4d10.0135194!16s%2Fg%2F11f7mc2zc4!19sChIJASnWkcaJsUcRBXFbsf_0gRo?authuser=0&hl=tr&rclk=1",
    "website_url": "",
    "rating_text": "3,8",
    "stars": null,
    "number_of_reviews": null,
    "price_level": "",
    "open_hours": "",
    "extraction_timestamp": "2025-06-07T15:21:34.000Z",
    "source_name": "google",
    "source_query": "Irrigation Equipment",
    "source_country": "DE",
    "country": "Germany",
    "state": "Hamburg",
    "city": "Ohlsdorf"
  },
  {
    "source_id": "ChIJX18DXW2JsUcRncOOsq_Iz9w",
    "name": "Bagunk GmbH",
    "category": "Bagunk GmbH",
    "formatted_address": "2,6(20)",
    "phone_number": "+49406370076",
    "source_url": "https://www.google.com/maps/place/Bagunk+GmbH/data=!4m7!3m6!1s0x47b1896d5d035f5f:0xdccfc8afb28ec39d!8m2!3d53.6083308!4d10.0660252!16s%2Fg%2F1tgnqqc9!19sChIJX18DXW2JsUcRncOOsq_Iz9w?authuser=0&hl=tr&rclk=1",
    "website_url": "",
    "rating_text": "2,6",
    "stars": null,
    "number_of_reviews": null,
    "price_level": "",
    "open_hours": "",
    "extraction_timestamp": "2025-06-07T15:21:34.001Z",
    "source_name": "google",
    "source_query": "Irrigation Equipment",
    "source_country": "DE",
    "country": "Germany",
    "state": "Hamburg",
    "city": "Ohlsdorf"
  },
  {
    "source_id": "ChIJQ3ldYuKIsUcR3CX3Od3wjIA",
    "name": "Alster",
    "category": "Alster",
    "formatted_address": "4,8(520)",
    "phone_number": "",
    "source_url": "https://www.google.com/maps/place/Alster/data=!4m7!3m6!1s0x47b188e2625d7943:0x808cf0dd39f725dc!8m2!3d53.6210699!4d10.0279449!16zL20vMDR2MHRs!19sChIJQ3ldYuKIsUcR3CX3Od3wjIA?authuser=0&hl=tr&rclk=1",
    "website_url": "",
    "rating_text": "4,8",
    "stars": null,
    "number_of_reviews": null,
    "price_level": "",
    "open_hours": "",
    "extraction_timestamp": "2025-06-07T15:21:34.002Z",
    "source_name": "google",
    "source_query": "Irrigation Equipment",
    "source_country": "DE",
    "country": "Germany",
    "state": "Hamburg",
    "city": "Ohlsdorf"
  },
  {
    "source_id": "ChIJs8T9XuK6Y0EROu0xZg50keg",
    "name": "Jürgen Tiedtke Heizungs- und Lüftungstechnik GmbH",
    "category": "Jürgen Tiedtke Heizungs- und Lüftungstechnik GmbH",
    "formatted_address": "4,6(41)",
    "phone_number": "+494064221138",
    "source_url": "https://www.google.com/maps/place/J%C3%BCrgen+Tiedtke+Heizungs-+und+L%C3%BCftungstechnik+GmbH/data=!4m7!3m6!1s0x4163bae25efdc4b3:0xe891740e6631ed3a!8m2!3d53.5976271!4d10.0736547!16s%2Fg%2F1vrq8pzh!19sChIJs8T9XuK6Y0EROu0xZg50keg?authuser=0&hl=tr&rclk=1",
    "website_url": "",
    "rating_text": "4,6",
    "stars": null,
    "number_of_reviews": null,
    "price_level": "",
    "open_hours": "",
    "extraction_timestamp": "2025-06-07T15:21:34.003Z",
    "source_name": "google",
    "source_query": "Irrigation Equipment",
    "source_country": "DE",
    "country": "Germany",
    "state": "Hamburg",
    "city": "Ohlsdorf"
  },
  {
    "source_id": "ChIJobcZKXmJsUcRg_expjybFwQ",
    "name": "HARTFELDER brand and quality toys GmbH",
    "category": "HARTFELDER brand and quality toys GmbH",
    "formatted_address": "4,2(343)",
    "phone_number": "+49406412292",
    "source_url": "https://www.google.com/maps/place/HARTFELDER+brand+and+quality+toys+GmbH/data=!4m7!3m6!1s0x47b189792919b7a1:0x4179b3ca6b1f783!8m2!3d53.6120823!4d10.0755789!16s%2Fg%2F1tczpdyh!19sChIJobcZKXmJsUcRg_expjybFwQ?authuser=0&hl=tr&rclk=1",
    "website_url": "",
    "rating_text": "4,2",
    "stars": null,
    "number_of_reviews": null,
    "price_level": "",
    "open_hours": "",
    "extraction_timestamp": "2025-06-07T15:21:34.004Z",
    "source_name": "google",
    "source_query": "Irrigation Equipment",
    "source_country": "DE",
    "country": "Germany",
    "state": "Hamburg",
    "city": "Ohlsdorf"
  },
  {
    "source_id": "ChIJlzZccnmJsUcRfcIt6EFQki4",
    "name": "Andreas H. Fabel",
    "category": "Andreas H. Fabel",
    "formatted_address": "",
    "phone_number": "+494064224135",
    "source_url": "https://www.google.com/maps/place/Andreas+H.+Fabel/data=!4m7!3m6!1s0x47b18979725c3697:0x2e925041e82dc27d!8m2!3d53.612884!4d10.0728386!16s%2Fg%2F1td5krc_!19sChIJlzZccnmJsUcRfcIt6EFQki4?authuser=0&hl=tr&rclk=1",
    "website_url": "",
    "rating_text": "",
    "stars": null,
    "number_of_reviews": null,
    "price_level": "",
    "open_hours": "",
    "extraction_timestamp": "2025-06-07T15:21:34.005Z",
    "source_name": "google",
    "source_query": "Irrigation Equipment",
    "source_country": "DE",
    "country": "Germany",
    "state": "Hamburg",
    "city": "Ohlsdorf"
  },
  {
    "source_id": "ChIJBQqFxhKKsUcRlkgdImgW41Y",
    "name": "Paul Kahl GmbH",
    "category": "Paul Kahl GmbH",
    "formatted_address": "3,5(34)",
    "phone_number": "+494088165360",
    "source_url": "https://www.google.com/maps/place/Paul+Kahl+GmbH/data=!4m7!3m6!1s0x47b18a12c6850a05:0x56e31668221d4896!8m2!3d53.6439692!4d10.1249017!16s%2Fg%2F1tdwjkhm!19sChIJBQqFxhKKsUcRlkgdImgW41Y?authuser=0&hl=tr&rclk=1",
    "website_url": "",
    "rating_text": "3,5",
    "stars": null,
    "number_of_reviews": null,
    "price_level": "",
    "open_hours": "",
    "extraction_timestamp": "2025-06-07T15:21:34.006Z",
    "source_name": "google",
    "source_query": "Irrigation Equipment",
    "source_country": "DE",
    "country": "Germany",
    "state": "Hamburg",
    "city": "Ohlsdorf"
  },
  {
    "source_id": "ChIJJ3irk22JsUcRgOs1DELuO6I",
    "name": "Dreßler Sanitärtechnik",
    "category": "Dreßler Sanitärtechnik",
    "formatted_address": "4,2(17)",
    "phone_number": "+49406414023",
    "source_url": "https://www.google.com/maps/place/Dre%C3%9Fler+Sanit%C3%A4rtechnik/data=!4m7!3m6!1s0x47b1896d93ab7827:0xa23bee420c35eb80!8m2!3d53.6070912!4d10.0560143!16s%2Fg%2F1trxjb5j!19sChIJJ3irk22JsUcRgOs1DELuO6I?authuser=0&hl=tr&rclk=1",
    "website_url": "",
    "rating_text": "4,2",
    "stars": null,
    "number_of_reviews": null,
    "price_level": "",
    "open_hours": "",
    "extraction_timestamp": "2025-06-07T15:21:34.007Z",
    "source_name": "google",
    "source_query": "Irrigation Equipment",
    "source_country": "DE",
    "country": "Germany",
    "state": "Hamburg",
    "city": "Ohlsdorf"
  },
  {
    "source_id": "ChIJVzy1kayOsUcRQdtv_ORuRBo",
    "name": "Haustechnik.Hamburg - Sager & Deus + Paul Opländer",
    "category": "Haustechnik.Hamburg - Sager & Deus + Paul Opländer",
    "formatted_address": "3,8(52)",
    "phone_number": "+49406828030",
    "source_url": "https://www.google.com/maps/place/Haustechnik.Hamburg+-+Sager+%26+Deus+%2B+Paul+Opl%C3%A4nder/data=!4m7!3m6!1s0x47b18eac91b53c57:0x1a446ee4fc6fdb41!8m2!3d53.643179!4d9.975012!16s%2Fg%2F1vbnng5l!19sChIJVzy1kayOsUcRQdtv_ORuRBo?authuser=0&hl=tr&rclk=1",
    "website_url": "",
    "rating_text": "3,8",
    "stars": null,
    "number_of_reviews": null,
    "price_level": "",
    "open_hours": "",
    "extraction_timestamp": "2025-06-07T15:21:34.008Z",
    "source_name": "google",
    "source_query": "Irrigation Equipment",
    "source_country": "DE",
    "country": "Germany",
    "state": "Hamburg",
    "city": "Ohlsdorf"
  },
  {
    "source_id": "ChIJSfajOk-JsUcRBnW-BWL3iqY",
    "name": "Luth Sanitärtechnik GmbH",
    "category": "Luth Sanitärtechnik GmbH",
    "formatted_address": "4,9(38)",
    "phone_number": "+49402800024",
    "source_url": "https://www.google.com/maps/place/Luth+Sanit%C3%A4rtechnik+GmbH/data=!4m7!3m6!1s0x47b1894f3aa3f649:0xa68af76205be7506!8m2!3d53.5842951!4d10.0508486!16s%2Fg%2F1tftk7zh!19sChIJSfajOk-JsUcRBnW-BWL3iqY?authuser=0&hl=tr&rclk=1",
    "website_url": "",
    "rating_text": "4,9",
    "stars": null,
    "number_of_reviews": null,
    "price_level": "",
    "open_hours": "",
    "extraction_timestamp": "2025-06-07T15:21:34.009Z",
    "source_name": "google",
    "source_query": "Irrigation Equipment",
    "source_country": "DE",
    "country": "Germany",
    "state": "Hamburg",
    "city": "Ohlsdorf"
  },
  {
    "source_id": "ChIJA3QXrz-JsUcRYVrC3ZD3_04",
    "name": "Barfital",
    "category": "Barfital",
    "formatted_address": "4,8(418)",
    "phone_number": "+494036916238",
    "source_url": "https://www.google.com/maps/place/Barfital/data=!4m7!3m6!1s0x47b1893faf177403:0x4efff790ddc25a61!8m2!3d53.590653!4d10.0445378!16s%2Fg%2F11cks58mn2!19sChIJA3QXrz-JsUcRYVrC3ZD3_04?authuser=0&hl=tr&rclk=1",
    "website_url": "",
    "rating_text": "4,8",
    "stars": null,
    "number_of_reviews": null,
    "price_level": "",
    "open_hours": "",
    "extraction_timestamp": "2025-06-07T15:21:34.010Z",
    "source_name": "google",
    "source_query": "Irrigation Equipment",
    "source_country": "DE",
    "country": "Germany",
    "state": "Hamburg",
    "city": "Ohlsdorf"
  },
  {
    "source_id": "ChIJ6WyFfUiFsUcRx7mWIlRPPc0",
    "name": "GL Sommer GmbH",
    "category": "GL Sommer GmbH",
    "formatted_address": "5,0(22)",
    "phone_number": "+494049021213",
    "source_url": "https://www.google.com/maps/place/GL+Sommer+GmbH/data=!4m7!3m6!1s0x47b185487d856ce9:0xcd3d4f542296b9c7!8m2!3d53.5782702!4d10.0577095!16s%2Fg%2F11ghtqlsgn!19sChIJ6WyFfUiFsUcRx7mWIlRPPc0?authuser=0&hl=tr&rclk=1",
    "website_url": "",
    "rating_text": "5,0",
    "stars": null,
    "number_of_reviews": null,
    "price_level": "",
    "open_hours": "",
    "extraction_timestamp": "2025-06-07T15:21:34.011Z",
    "source_name": "google",
    "source_query": "Irrigation Equipment",
    "source_country": "DE",
    "country": "Germany",
    "state": "Hamburg",
    "city": "Ohlsdorf"
  },
  {
    "source_id": "ChIJSWX5FESPsUcRAQCa0F5BM6s",
    "name": "WERBECK BAD-EINRICHTUNGEN | Ehlers Sanitärhandel GmbH",
    "category": "WERBECK BAD-EINRICHTUNGEN | Ehlers Sanitärhandel GmbH",
    "formatted_address": "4,8(38)",
    "phone_number": "+4940441626",
    "source_url": "https://www.google.com/maps/place/WERBECK+BAD-EINRICHTUNGEN+%7C+Ehlers+Sanit%C3%A4rhandel+GmbH/data=!4m7!3m6!1s0x47b18f4414f96549:0xab33415ed09a0001!8m2!3d53.5673791!4d9.9665242!16s%2Fg%2F1tfh3qf8!19sChIJSWX5FESPsUcRAQCa0F5BM6s?authuser=0&hl=tr&rclk=1",
    "website_url": "",
    "rating_text": "4,8",
    "stars": null,
    "number_of_reviews": null,
    "price_level": "",
    "open_hours": "",
    "extraction_timestamp": "2025-06-07T15:21:34.012Z",
    "source_name": "google",
    "source_query": "Irrigation Equipment",
    "source_country": "DE",
    "country": "Germany",
    "state": "Hamburg",
    "city": "Ohlsdorf"
  },
  {
    "source_id": "ChIJkywGF5mJsUcRTcTZFKaoTiw",
    "name": "Action Hamburg-Langenhorn",
    "category": "Action Hamburg-Langenhorn",
    "formatted_address": "4,0(1.306)",
    "phone_number": "+4913064",
    "source_url": "https://www.google.com/maps/place/Action+Hamburg-Langenhorn/data=!4m7!3m6!1s0x47b1899917062c93:0x2c4ea8a614d9c44d!8m2!3d53.6476214!4d10.0146712!16s%2Fg%2F11g22_2tdk!19sChIJkywGF5mJsUcRTcTZFKaoTiw?authuser=0&hl=tr&rclk=1",
    "website_url": "",
    "rating_text": "4,0",
    "stars": null,
    "number_of_reviews": null,
    "price_level": "",
    "open_hours": "",
    "extraction_timestamp": "2025-06-07T15:21:34.013Z",
    "source_name": "google",
    "source_query": "Irrigation Equipment",
    "source_country": "DE",
    "country": "Germany",
    "state": "Hamburg",
    "city": "Ohlsdorf"
  },
  {
    "source_id": "ChIJxRsusICFsUcRK41Scd5s5dI",
    "name": "Sanitärservice Tramdovskis e. K.",
    "category": "Sanitärservice Tramdovskis e. K.",
    "formatted_address": "4,7(20)",
    "phone_number": "+494063663960",
    "source_url": "https://www.google.com/maps/place/Sanit%C3%A4rservice+Tramdovskis+e.+K./data=!4m7!3m6!1s0x47b18580b02e1bc5:0xd2e56cde71528d2b!8m2!3d53.6615615!4d10.0077917!16s%2Fg%2F11b6dqrwhn!19sChIJxRsusICFsUcRK41Scd5s5dI?authuser=0&hl=tr&rclk=1",
    "website_url": "",
    "rating_text": "4,7",
    "stars": null,
    "number_of_reviews": null,
    "price_level": "",
    "open_hours": "",
    "extraction_timestamp": "2025-06-07T15:21:34.014Z",
    "source_name": "google",
    "source_query": "Irrigation Equipment",
    "source_country": "DE",
    "country": "Germany",
    "state": "Hamburg",
    "city": "Ohlsdorf"
  }
]
