[
  {
    "source_id": "ChIJFUdG4eyFsUcR2t7RSHyl8fU",
    "name": "OBI Markt Hamburg-Altona",
    "category": "OBI Markt Hamburg-Altona",
    "formatted_address": "4,2(1.232)",
    "phone_number": "+4912324",
    "source_url": "https://www.google.com/maps/place/OBI+Markt+Hamburg-Altona/data=!4m7!3m6!1s0x47b185ece1464715:0xf5f1a57c48d1deda!8m2!3d53.5660137!4d9.925829!16s%2Fg%2F1yfh_jzyr!19sChIJFUdG4eyFsUcR2t7RSHyl8fU?authuser=0&hl=tr&rclk=1",
    "website_url": "",
    "rating_text": "4,2",
    "stars": null,
    "number_of_reviews": null,
    "price_level": "",
    "open_hours": "",
    "extraction_timestamp": "2025-06-07T15:20:21.553Z",
    "source_name": "google",
    "source_query": "Irrigation Equipment",
    "source_country": "DE",
    "country": "Germany",
    "state": "Hamburg",
    "city": "Ottensen"
  },
  {
    "source_id": "ChIJg1VoxnyPsUcRWs6RVbH4b3Y",
    "name": "hagebaumarkt Altona - Möller & Förster",
    "category": "hagebaumarkt Altona - Möller & Förster",
    "formatted_address": "4,2(469)",
    "phone_number": "+494038083590",
    "source_url": "https://www.google.com/maps/place/hagebaumarkt+Altona+-+M%C3%B6ller+%26+F%C3%B6rster/data=!4m7!3m6!1s0x47b18f7cc6685583:0x766ff8b15591ce5a!8m2!3d53.5505791!4d9.944828!16s%2Fg%2F1q62jkdcj!19sChIJg1VoxnyPsUcRWs6RVbH4b3Y?authuser=0&hl=tr&rclk=1",
    "website_url": "",
    "rating_text": "4,2",
    "stars": null,
    "number_of_reviews": null,
    "price_level": "",
    "open_hours": "",
    "extraction_timestamp": "2025-06-07T15:20:21.554Z",
    "source_name": "google",
    "source_query": "Irrigation Equipment",
    "source_country": "DE",
    "country": "Germany",
    "state": "Hamburg",
    "city": "Ottensen"
  },
  {
    "source_id": "ChIJ3QSkPZCFsUcRF1ljDVlAZo8",
    "name": "MPM",
    "category": "MPM",
    "formatted_address": "4,8(23)",
    "phone_number": "+49403808990",
    "source_url": "https://www.google.com/maps/place/MPM/data=!4m7!3m6!1s0x47b185903da404dd:0x8f6640590d635917!8m2!3d53.5546174!4d9.9244176!16s%2Fg%2F1tdkwq_j!19sChIJ3QSkPZCFsUcRF1ljDVlAZo8?authuser=0&hl=tr&rclk=1",
    "website_url": "",
    "rating_text": "4,8",
    "stars": null,
    "number_of_reviews": null,
    "price_level": "",
    "open_hours": "",
    "extraction_timestamp": "2025-06-07T15:20:21.555Z",
    "source_name": "google",
    "source_query": "Irrigation Equipment",
    "source_country": "DE",
    "country": "Germany",
    "state": "Hamburg",
    "city": "Ottensen"
  },
  {
    "source_id": "ChIJUW1w_4WFsUcRCCJ3794uves",
    "name": "INTERSPORT Voswinkel MERCADO",
    "category": "INTERSPORT Voswinkel MERCADO",
    "formatted_address": "4,2(348)",
    "phone_number": "+494029812436",
    "source_url": "https://www.google.com/maps/place/INTERSPORT+Voswinkel+MERCADO/data=!4m7!3m6!1s0x47b18585ff706d51:0xebbd2edeef772208!8m2!3d53.5527548!4d9.9317886!16s%2Fg%2F1tddwtw3!19sChIJUW1w_4WFsUcRCCJ3794uves?authuser=0&hl=tr&rclk=1",
    "website_url": "",
    "rating_text": "4,2",
    "stars": null,
    "number_of_reviews": null,
    "price_level": "",
    "open_hours": "",
    "extraction_timestamp": "2025-06-07T15:20:21.556Z",
    "source_name": "google",
    "source_query": "Irrigation Equipment",
    "source_country": "DE",
    "country": "Germany",
    "state": "Hamburg",
    "city": "Ottensen"
  },
  {
    "source_id": "ChIJH4i4P46FsUcRSjHgSlIfNYo",
    "name": "Alnatura Super Natur Markt",
    "category": "Alnatura Super Natur Markt",
    "formatted_address": "4,3(231)",
    "phone_number": "+494039806227",
    "source_url": "https://www.google.com/maps/place/Alnatura+Super+Natur+Markt/data=!4m7!3m6!1s0x47b1858e3fb8881f:0x8a351f524ae0314a!8m2!3d53.55675!4d9.9285427!16s%2Fg%2F1ptyzr1l1!19sChIJH4i4P46FsUcRSjHgSlIfNYo?authuser=0&hl=tr&rclk=1",
    "website_url": "",
    "rating_text": "4,3",
    "stars": null,
    "number_of_reviews": null,
    "price_level": "",
    "open_hours": "",
    "extraction_timestamp": "2025-06-07T15:20:21.557Z",
    "source_name": "google",
    "source_query": "Irrigation Equipment",
    "source_country": "DE",
    "country": "Germany",
    "state": "Hamburg",
    "city": "Ottensen"
  },
  {
    "source_id": "ChIJ7em9Wp-IsUcR-PnzCLUWox4",
    "name": "Quellklar by Hydro-Shop",
    "category": "Quellklar by Hydro-Shop",
    "formatted_address": "3,5(8)",
    "phone_number": "+49405001720",
    "source_url": "https://www.google.com/maps/place/Quellklar+by+Hydro-Shop/data=!4m7!3m6!1s0x47b1889f5abde9ed:0x1ea316b508f3f9f8!8m2!3d53.610056!4d9.974098!16s%2Fg%2F1hc3w12m3!19sChIJ7em9Wp-IsUcR-PnzCLUWox4?authuser=0&hl=tr&rclk=1",
    "website_url": "",
    "rating_text": "3,5",
    "stars": null,
    "number_of_reviews": null,
    "price_level": "",
    "open_hours": "",
    "extraction_timestamp": "2025-06-07T15:20:21.558Z",
    "source_name": "google",
    "source_query": "Irrigation Equipment",
    "source_country": "DE",
    "country": "Germany",
    "state": "Hamburg",
    "city": "Ottensen"
  },
  {
    "source_id": "ChIJvSDvsYiFsUcRas6RCBMpGsk",
    "name": "Alnatura Super Natur Markt",
    "category": "Alnatura Super Natur Markt",
    "formatted_address": "4,4(218)",
    "phone_number": "+494023803896",
    "source_url": "https://www.google.com/maps/place/Alnatura+Super+Natur+Markt/data=!4m7!3m6!1s0x47b18588b1ef20bd:0xc91a29130891ce6a!8m2!3d53.5530331!4d9.9333711!16s%2Fg%2F1tdgtfw4!19sChIJvSDvsYiFsUcRas6RCBMpGsk?authuser=0&hl=tr&rclk=1",
    "website_url": "",
    "rating_text": "4,4",
    "stars": null,
    "number_of_reviews": null,
    "price_level": "",
    "open_hours": "",
    "extraction_timestamp": "2025-06-07T15:20:21.559Z",
    "source_name": "google",
    "source_query": "Irrigation Equipment",
    "source_country": "DE",
    "country": "Germany",
    "state": "Hamburg",
    "city": "Ottensen"
  },
  {
    "source_id": "ChIJpxy1k2iPsUcRynt_ctiOA6A",
    "name": "ad fontes Solartechnik GmbH",
    "category": "ad fontes Solartechnik GmbH",
    "formatted_address": "5,0(20)",
    "phone_number": "+49404306041",
    "source_url": "https://www.google.com/maps/place/ad+fontes+Solartechnik+GmbH/data=!4m7!3m6!1s0x47b18f6893b51ca7:0xa0038ed8727f7bca!8m2!3d53.5589148!4d9.9285544!16s%2Fg%2F1tfvr_nw!19sChIJpxy1k2iPsUcRynt_ctiOA6A?authuser=0&hl=tr&rclk=1",
    "website_url": "",
    "rating_text": "5,0",
    "stars": null,
    "number_of_reviews": null,
    "price_level": "",
    "open_hours": "",
    "extraction_timestamp": "2025-06-07T15:20:21.559Z",
    "source_name": "google",
    "source_query": "Irrigation Equipment",
    "source_country": "DE",
    "country": "Germany",
    "state": "Hamburg",
    "city": "Ottensen"
  },
  {
    "source_id": "ChIJoV_ZfEGFsUcRnJ8ZbiGYJTs",
    "name": "Almas Kiosk",
    "category": "Almas Kiosk",
    "formatted_address": "4,6(20)",
    "phone_number": "",
    "source_url": "https://www.google.com/maps/place/Almas+Kiosk/data=!4m7!3m6!1s0x47b185417cd95fa1:0x3b2598216e199f9c!8m2!3d53.5541834!4d9.9288873!16s%2Fg%2F11jn2g4d1b!19sChIJoV_ZfEGFsUcRnJ8ZbiGYJTs?authuser=0&hl=tr&rclk=1",
    "website_url": "",
    "rating_text": "4,6",
    "stars": null,
    "number_of_reviews": null,
    "price_level": "",
    "open_hours": "",
    "extraction_timestamp": "2025-06-07T15:20:21.560Z",
    "source_name": "google",
    "source_query": "Irrigation Equipment",
    "source_country": "DE",
    "country": "Germany",
    "state": "Hamburg",
    "city": "Ottensen"
  },
  {
    "source_id": "ChIJ1657o2KFsUcR2LHctpNO31A",
    "name": "Mein Klempner Hamburg | Handwerker | Sanitär & Heizungbau | Badsanierung | Fußbodenheizung Nachrüsten | Fugentechnik",
    "category": "Mein Klempner Hamburg | Handwerker | Sanitär & Heizungbau | Badsanierung | Fußbodenheizung Nachrüsten | Fugentechnik",
    "formatted_address": "5,0(113)",
    "phone_number": "+4919024",
    "source_url": "https://www.google.com/maps/place/Mein+Klempner+Hamburg+%7C+Handwerker+%7C+Sanit%C3%A4r+%26+Heizungbau+%7C+Badsanierung+%7C+Fu%C3%9Fbodenheizung+Nachr%C3%BCsten+%7C+Fugentechnik/data=!4m7!3m6!1s0x47b18562a37baed7:0x50df4e93b6dcb1d8!8m2!3d53.5458129!4d9.904346!16s%2Fg%2F11hf3lh0p9!19sChIJ1657o2KFsUcR2LHctpNO31A?authuser=0&hl=tr&rclk=1",
    "website_url": "",
    "rating_text": "5,0",
    "stars": null,
    "number_of_reviews": null,
    "price_level": "",
    "open_hours": "",
    "extraction_timestamp": "2025-06-07T15:20:21.561Z",
    "source_name": "google",
    "source_query": "Irrigation Equipment",
    "source_country": "DE",
    "country": "Germany",
    "state": "Hamburg",
    "city": "Ottensen"
  },
  {
    "source_id": "ChIJK0vw8PmFsUcRb7VjJz6eUUs",
    "name": "Speidel System Drying GmbH",
    "category": "Speidel System Drying GmbH",
    "formatted_address": "4,2(19)",
    "phone_number": "+4940853280024",
    "source_url": "https://www.google.com/maps/place/Speidel+System+Drying+GmbH/data=!4m7!3m6!1s0x47b185f9f0f04b2b:0x4b519e3e2763b56f!8m2!3d53.573945!4d9.9270676!16s%2Fg%2F1th80_fv!19sChIJK0vw8PmFsUcRb7VjJz6eUUs?authuser=0&hl=tr&rclk=1",
    "website_url": "",
    "rating_text": "4,2",
    "stars": null,
    "number_of_reviews": null,
    "price_level": "",
    "open_hours": "",
    "extraction_timestamp": "2025-06-07T15:20:21.561Z",
    "source_name": "google",
    "source_query": "Irrigation Equipment",
    "source_country": "DE",
    "country": "Germany",
    "state": "Hamburg",
    "city": "Ottensen"
  },
  {
    "source_id": "ChIJZz2onI-FsUcR2gFNy4EEeRE",
    "name": "Kiosk 2000",
    "category": "Kiosk 2000",
    "formatted_address": "4,5(73)",
    "phone_number": "+49403904242",
    "source_url": "https://www.google.com/maps/place/Kiosk+2000/data=!4m7!3m6!1s0x47b1858f9ca83d67:0x11790481cb4d01da!8m2!3d53.5535!4d9.92876!16s%2Fg%2F1txy1csb!19sChIJZz2onI-FsUcR2gFNy4EEeRE?authuser=0&hl=tr&rclk=1",
    "website_url": "",
    "rating_text": "4,5",
    "stars": null,
    "number_of_reviews": null,
    "price_level": "",
    "open_hours": "",
    "extraction_timestamp": "2025-06-07T15:20:21.562Z",
    "source_name": "google",
    "source_query": "Irrigation Equipment",
    "source_country": "DE",
    "country": "Germany",
    "state": "Hamburg",
    "city": "Ottensen"
  },
  {
    "source_id": "ChIJUbeOm4-FsUcRmGNGMlUO5ZE",
    "name": "Gia Pham Asian Supermarket",
    "category": "Gia Pham Asian Supermarket",
    "formatted_address": "4,3(302)",
    "phone_number": "+494039803468",
    "source_url": "https://www.google.com/maps/place/Gia+Pham+Asian+Supermarket/data=!4m7!3m6!1s0x47b1858f9b8eb751:0x91e50e5532466398!8m2!3d53.5539919!4d9.9281972!16s%2Fg%2F11ckw2907s!19sChIJUbeOm4-FsUcRmGNGMlUO5ZE?authuser=0&hl=tr&rclk=1",
    "website_url": "",
    "rating_text": "4,3",
    "stars": null,
    "number_of_reviews": null,
    "price_level": "",
    "open_hours": "",
    "extraction_timestamp": "2025-06-07T15:20:21.563Z",
    "source_name": "google",
    "source_query": "Irrigation Equipment",
    "source_country": "DE",
    "country": "Germany",
    "state": "Hamburg",
    "city": "Ottensen"
  },
  {
    "source_id": "ChIJ25m5b9OFsUcRNg8h2pt4h7c",
    "name": "Kiosk ALL-TO-NAH",
    "category": "Kiosk ALL-TO-NAH",
    "formatted_address": "4,5(91)",
    "phone_number": "",
    "source_url": "https://www.google.com/maps/place/Kiosk+ALL-TO-NAH/data=!4m7!3m6!1s0x47b185d36fb999db:0xb787789bda210f36!8m2!3d53.5544958!4d9.9289145!16s%2Fg%2F11qn34wx2j!19sChIJ25m5b9OFsUcRNg8h2pt4h7c?authuser=0&hl=tr&rclk=1",
    "website_url": "",
    "rating_text": "4,5",
    "stars": null,
    "number_of_reviews": null,
    "price_level": "",
    "open_hours": "",
    "extraction_timestamp": "2025-06-07T15:20:21.564Z",
    "source_name": "google",
    "source_query": "Irrigation Equipment",
    "source_country": "DE",
    "country": "Germany",
    "state": "Hamburg",
    "city": "Ottensen"
  },
  {
    "source_id": "ChIJ3we_NEKPsUcRaJWtkYXM1hI",
    "name": "Udopea Hamburg",
    "category": "Udopea Hamburg",
    "formatted_address": "4,6(374)",
    "phone_number": "+494041912883",
    "source_url": "https://www.google.com/maps/place/Udopea+Hamburg/data=!4m7!3m6!1s0x47b18f4234bf07df:0x12d6cc8591ad9568!8m2!3d53.5633062!4d9.9652483!16s%2Fg%2F1tk1m10f!19sChIJ3we_NEKPsUcRaJWtkYXM1hI?authuser=0&hl=tr&rclk=1",
    "website_url": "",
    "rating_text": "4,6",
    "stars": null,
    "number_of_reviews": null,
    "price_level": "",
    "open_hours": "",
    "extraction_timestamp": "2025-06-07T15:20:21.565Z",
    "source_name": "google",
    "source_query": "Irrigation Equipment",
    "source_country": "DE",
    "country": "Germany",
    "state": "Hamburg",
    "city": "Ottensen"
  },
  {
    "source_id": "ChIJo6K6_4WFsUcRXpwOS-2DAj8",
    "name": "Reformhaus Engelhardt",
    "category": "Reformhaus Engelhardt",
    "formatted_address": "4,0(20)",
    "phone_number": "+494039905591",
    "source_url": "https://www.google.com/maps/place/Reformhaus+Engelhardt/data=!4m7!3m6!1s0x47b18585ffbaa2a3:0x3f0283ed4b0e9c5e!8m2!3d53.5523408!4d9.9326032!16s%2Fg%2F1w8w91vc!19sChIJo6K6_4WFsUcRXpwOS-2DAj8?authuser=0&hl=tr&rclk=1",
    "website_url": "",
    "rating_text": "4,0",
    "stars": null,
    "number_of_reviews": null,
    "price_level": "",
    "open_hours": "",
    "extraction_timestamp": "2025-06-07T15:20:21.566Z",
    "source_name": "google",
    "source_query": "Irrigation Equipment",
    "source_country": "DE",
    "country": "Germany",
    "state": "Hamburg",
    "city": "Ottensen"
  },
  {
    "source_id": "ChIJz_otrp2FsUcR0bsuRksubVo",
    "name": "Brunnen Shop",
    "category": "Brunnen Shop",
    "formatted_address": "4,9(19)",
    "phone_number": "",
    "source_url": "https://www.google.com/maps/place/Brunnen+Shop/data=!4m7!3m6!1s0x47b1859dae2dfacf:0x5a6d2e4b462ebbd1!8m2!3d53.5536437!4d9.9220092!16s%2Fg%2F11rzcph_dc!19sChIJz_otrp2FsUcR0bsuRksubVo?authuser=0&hl=tr&rclk=1",
    "website_url": "",
    "rating_text": "4,9",
    "stars": null,
    "number_of_reviews": null,
    "price_level": "",
    "open_hours": "",
    "extraction_timestamp": "2025-06-07T15:20:21.566Z",
    "source_name": "google",
    "source_query": "Irrigation Equipment",
    "source_country": "DE",
    "country": "Germany",
    "state": "Hamburg",
    "city": "Ottensen"
  },
  {
    "source_id": "ChIJQ2gytY-FsUcReCx8MWXjPVs",
    "name": "Kaufmannsladen",
    "category": "Kaufmannsladen",
    "formatted_address": "4,8(92)",
    "phone_number": "+49404904792",
    "source_url": "https://www.google.com/maps/place/Kaufmannsladen/data=!4m7!3m6!1s0x47b1858fb5326843:0x5b3de365317c2c78!8m2!3d53.5555489!4d9.928339!16s%2Fg%2F1tcxnqvq!19sChIJQ2gytY-FsUcReCx8MWXjPVs?authuser=0&hl=tr&rclk=1",
    "website_url": "",
    "rating_text": "4,8",
    "stars": null,
    "number_of_reviews": null,
    "price_level": "",
    "open_hours": "",
    "extraction_timestamp": "2025-06-07T15:20:21.567Z",
    "source_name": "google",
    "source_query": "Irrigation Equipment",
    "source_country": "DE",
    "country": "Germany",
    "state": "Hamburg",
    "city": "Ottensen"
  },
  {
    "source_id": "ChIJzRwJeQqFsUcRCHVeGM9i-A8",
    "name": "HARTFELDER Marken- und Qualitätsspielzeug GmbH",
    "category": "HARTFELDER Marken- und Qualitätsspielzeug GmbH",
    "formatted_address": "4,2(173)",
    "phone_number": "+494039899357",
    "source_url": "https://www.google.com/maps/place/HARTFELDER+Marken-+und+Qualit%C3%A4tsspielzeug+GmbH/data=!4m7!3m6!1s0x47b1850a79091ccd:0xff862cf185e7508!8m2!3d53.552642!4d9.9324243!16s%2Fg%2F11gl4l4b44!19sChIJzRwJeQqFsUcRCHVeGM9i-A8?authuser=0&hl=tr&rclk=1",
    "website_url": "",
    "rating_text": "4,2",
    "stars": null,
    "number_of_reviews": null,
    "price_level": "",
    "open_hours": "",
    "extraction_timestamp": "2025-06-07T15:20:21.568Z",
    "source_name": "google",
    "source_query": "Irrigation Equipment",
    "source_country": "DE",
    "country": "Germany",
    "state": "Hamburg",
    "city": "Ottensen"
  },
  {
    "source_id": "ChIJK9e1W3IgskcRujMeeHH8K98",
    "name": "Friedrich Lange GmbH - Bathroom Showroom Hamburg-Bahrenfeld",
    "category": "Friedrich Lange GmbH - Bathroom Showroom Hamburg-Bahrenfeld",
    "formatted_address": "3,7(55)",
    "phone_number": "+49408996630",
    "source_url": "https://www.google.com/maps/place/Friedrich+Lange+GmbH+-+Bathroom+Showroom+Hamburg-Bahrenfeld/data=!4m7!3m6!1s0x47b220725bb5d72b:0xdf2bfc71781e33ba!8m2!3d53.5666559!4d9.9186693!16s%2Fg%2F1tfgc8s5!19sChIJK9e1W3IgskcRujMeeHH8K98?authuser=0&hl=tr&rclk=1",
    "website_url": "",
    "rating_text": "3,7",
    "stars": null,
    "number_of_reviews": null,
    "price_level": "",
    "open_hours": "",
    "extraction_timestamp": "2025-06-07T15:20:21.569Z",
    "source_name": "google",
    "source_query": "Irrigation Equipment",
    "source_country": "DE",
    "country": "Germany",
    "state": "Hamburg",
    "city": "Ottensen"
  },
  {
    "source_id": "ChIJGWduv7SIsUcRAkjt5S6tJRA",
    "name": "dito café & eis",
    "category": "dito café & eis",
    "formatted_address": "4,8(207)",
    "phone_number": "+494088361544",
    "source_url": "https://www.google.com/maps/place/dito+caf%C3%A9+%26+eis/data=!4m7!3m6!1s0x47b188b4bf6e6719:0x1025ad2ee5ed4802!8m2!3d53.5827985!4d9.9754492!16s%2Fg%2F11btx6mfmf!19sChIJGWduv7SIsUcRAkjt5S6tJRA?authuser=0&hl=tr&rclk=1",
    "website_url": "",
    "rating_text": "4,8",
    "stars": null,
    "number_of_reviews": null,
    "price_level": "",
    "open_hours": "",
    "extraction_timestamp": "2025-06-07T15:20:21.569Z",
    "source_name": "google",
    "source_query": "Irrigation Equipment",
    "source_country": "DE",
    "country": "Germany",
    "state": "Hamburg",
    "city": "Ottensen"
  },
  {
    "source_id": "ChIJVa4hN4WFsUcRLhDmlCR8SLE",
    "name": "Eisliebe",
    "category": "Eisliebe",
    "formatted_address": "4,7(600) · ₺₺",
    "phone_number": "+494039808482",
    "source_url": "https://www.google.com/maps/place/Eisliebe/data=!4m7!3m6!1s0x47b185853721ae55:0xb1487c2494e6102e!8m2!3d53.5514685!4d9.9252853!16s%2Fg%2F1tdq51jl!19sChIJVa4hN4WFsUcRLhDmlCR8SLE?authuser=0&hl=tr&rclk=1",
    "website_url": "",
    "rating_text": "4,7",
    "stars": null,
    "number_of_reviews": null,
    "price_level": "",
    "open_hours": "",
    "extraction_timestamp": "2025-06-07T15:20:21.571Z",
    "source_name": "google",
    "source_query": "Irrigation Equipment",
    "source_country": "DE",
    "country": "Germany",
    "state": "Hamburg",
    "city": "Ottensen"
  },
  {
    "source_id": "ChIJhf9CdwCFsUcRR0QuSVdN5NA",
    "name": "Proma Farben & Lacke Malermarkt | Gewerbe & Privat | Handwerkermarkt | Mapei | Caparol | Sikkens | Herbol | Jotun",
    "category": "Proma Farben & Lacke Malermarkt | Gewerbe & Privat | Handwerkermarkt | Mapei | Caparol | Sikkens | Herbol | Jotun",
    "formatted_address": "5,0(157)",
    "phone_number": "+494074303922",
    "source_url": "https://www.google.com/maps/place/Proma+Farben+%26+Lacke+Malermarkt+%7C+Gewerbe+%26+Privat+%7C+Handwerkermarkt+%7C+Mapei+%7C+Caparol+%7C+Sikkens+%7C+Herbol+%7C+Jotun/data=!4m7!3m6!1s0x47b185007742ff85:0xd0e44d57492e4447!8m2!3d53.5669207!4d9.9086703!16s%2Fg%2F11lg2xkx5w!19sChIJhf9CdwCFsUcRR0QuSVdN5NA?authuser=0&hl=tr&rclk=1",
    "website_url": "",
    "rating_text": "5,0",
    "stars": null,
    "number_of_reviews": null,
    "price_level": "",
    "open_hours": "",
    "extraction_timestamp": "2025-06-07T15:20:21.571Z",
    "source_name": "google",
    "source_query": "Irrigation Equipment",
    "source_country": "DE",
    "country": "Germany",
    "state": "Hamburg",
    "city": "Ottensen"
  },
  {
    "source_id": "ChIJGTJd2vyFsUcRydCJ2XhHOcY",
    "name": "die kleine konditorei",
    "category": "die kleine konditorei",
    "formatted_address": "4,6(867) · ₺₺",
    "phone_number": "+494060039090",
    "source_url": "https://www.google.com/maps/place/die+kleine+konditorei/data=!4m7!3m6!1s0x47b185fcda5d3219:0xc6394778d989d0c9!8m2!3d53.5815507!4d9.9371982!16s%2Fg%2F12hm3v4pj!19sChIJGTJd2vyFsUcRydCJ2XhHOcY?authuser=0&hl=tr&rclk=1",
    "website_url": "",
    "rating_text": "4,6",
    "stars": null,
    "number_of_reviews": null,
    "price_level": "",
    "open_hours": "",
    "extraction_timestamp": "2025-06-07T15:20:21.573Z",
    "source_name": "google",
    "source_query": "Irrigation Equipment",
    "source_country": "DE",
    "country": "Germany",
    "state": "Hamburg",
    "city": "Ottensen"
  },
  {
    "source_id": "ChIJoTTkHW6GsUcRuYcF9jn7GgE",
    "name": "Emil Lüdemann GmbH & Co. KG",
    "category": "Emil Lüdemann GmbH & Co. KG",
    "formatted_address": "4,6(344)",
    "phone_number": "+49405472190",
    "source_url": "https://www.google.com/maps/place/Emil+L%C3%BCdemann+GmbH+%26+Co.+KG/data=!4m7!3m6!1s0x47b1866e1de434a1:0x11afb39f60587b9!8m2!3d53.5974091!4d9.9174937!16s%2Fg%2F1tqck8cj!19sChIJoTTkHW6GsUcRuYcF9jn7GgE?authuser=0&hl=tr&rclk=1",
    "website_url": "",
    "rating_text": "4,6",
    "stars": null,
    "number_of_reviews": null,
    "price_level": "",
    "open_hours": "",
    "extraction_timestamp": "2025-06-07T15:20:21.573Z",
    "source_name": "google",
    "source_query": "Irrigation Equipment",
    "source_country": "DE",
    "country": "Germany",
    "state": "Hamburg",
    "city": "Ottensen"
  },
  {
    "source_id": "ChIJWwTsjoWFsUcRxCeL5vNRKWg",
    "name": "Mobilnet 1 (M1)",
    "category": "Mobilnet 1 (M1)",
    "formatted_address": "4,9(338)",
    "phone_number": "+494039906740",
    "source_url": "https://www.google.com/maps/place/Mobilnet+1+%28M1%29/data=!4m7!3m6!1s0x47b185858eec045b:0x682951f3e68b27c4!8m2!3d53.5522693!4d9.9300231!16s%2Fg%2F11ddznp8c3!19sChIJWwTsjoWFsUcRxCeL5vNRKWg?authuser=0&hl=tr&rclk=1",
    "website_url": "",
    "rating_text": "4,9",
    "stars": null,
    "number_of_reviews": null,
    "price_level": "",
    "open_hours": "",
    "extraction_timestamp": "2025-06-07T15:20:21.574Z",
    "source_name": "google",
    "source_query": "Irrigation Equipment",
    "source_country": "DE",
    "country": "Germany",
    "state": "Hamburg",
    "city": "Ottensen"
  },
  {
    "source_id": "ChIJhfiXiA2BsUcRXZEGRLCs0ng",
    "name": "Waldi Waldenau",
    "category": "Waldi Waldenau",
    "formatted_address": "4,8(164)",
    "phone_number": "+4941016068758",
    "source_url": "https://www.google.com/maps/place/Waldi+Waldenau/data=!4m7!3m6!1s0x47b1810d8897f885:0x78d2acb04406915d!8m2!3d53.6216354!4d9.7993312!16s%2Fg%2F11c550x6kt!19sChIJhfiXiA2BsUcRXZEGRLCs0ng?authuser=0&hl=tr&rclk=1",
    "website_url": "",
    "rating_text": "4,8",
    "stars": null,
    "number_of_reviews": null,
    "price_level": "",
    "open_hours": "",
    "extraction_timestamp": "2025-06-07T15:20:21.575Z",
    "source_name": "google",
    "source_query": "Irrigation Equipment",
    "source_country": "DE",
    "country": "Germany",
    "state": "Hamburg",
    "city": "Ottensen"
  },
  {
    "source_id": "ChIJWYJ2dziEsUcRX45hl7OxExQ",
    "name": "Lympha Wasserspender",
    "category": "Lympha Wasserspender",
    "formatted_address": "3,5(4)",
    "phone_number": "+494087503787",
    "source_url": "https://www.google.com/maps/place/Lympha+Wasserspender/data=!4m7!3m6!1s0x47b1843877768259:0x1413b1b397618e5f!8m2!3d53.5757163!4d9.888673!16s%2Fg%2F1td7b69x!19sChIJWYJ2dziEsUcRX45hl7OxExQ?authuser=0&hl=tr&rclk=1",
    "website_url": "",
    "rating_text": "3,5",
    "stars": null,
    "number_of_reviews": null,
    "price_level": "",
    "open_hours": "",
    "extraction_timestamp": "2025-06-07T15:20:21.576Z",
    "source_name": "google",
    "source_query": "Irrigation Equipment",
    "source_country": "DE",
    "country": "Germany",
    "state": "Hamburg",
    "city": "Ottensen"
  },
  {
    "source_id": "ChIJTfvEEzmEsUcR2x4nKs6nuWI",
    "name": "Lütge Haustechnik GmbH",
    "category": "Lütge Haustechnik GmbH",
    "formatted_address": "5,0(83)",
    "phone_number": "+494048509066",
    "source_url": "https://www.google.com/maps/place/L%C3%BCtge+Haustechnik+GmbH/data=!4m7!3m6!1s0x47b1843913c4fb4d:0x62b9a7ce2a271edb!8m2!3d53.5726231!4d9.8651707!16s%2Fg%2F11gztqs3s!19sChIJTfvEEzmEsUcR2x4nKs6nuWI?authuser=0&hl=tr&rclk=1",
    "website_url": "",
    "rating_text": "5,0",
    "stars": null,
    "number_of_reviews": null,
    "price_level": "",
    "open_hours": "",
    "extraction_timestamp": "2025-06-07T15:20:21.576Z",
    "source_name": "google",
    "source_query": "Irrigation Equipment",
    "source_country": "DE",
    "country": "Germany",
    "state": "Hamburg",
    "city": "Ottensen"
  },
  {
    "source_id": "ChIJdbiHiYWFsUcRtUhy57Lqftk",
    "name": "Bäckerei Nur Hier",
    "category": "Bäckerei Nur Hier",
    "formatted_address": "4,4(62) · €1–10",
    "phone_number": "+494055617715",
    "source_url": "https://www.google.com/maps/place/B%C3%A4ckerei+Nur+Hier/data=!4m7!3m6!1s0x47b185858987b875:0xd97eeab2e77248b5!8m2!3d53.55252!4d9.93027!16s%2Fg%2F11c2kvyd9n!19sChIJdbiHiYWFsUcRtUhy57Lqftk?authuser=0&hl=tr&rclk=1",
    "website_url": "",
    "rating_text": "4,4",
    "stars": null,
    "number_of_reviews": null,
    "price_level": "",
    "open_hours": "",
    "extraction_timestamp": "2025-06-07T15:20:21.577Z",
    "source_name": "google",
    "source_query": "Irrigation Equipment",
    "source_country": "DE",
    "country": "Germany",
    "state": "Hamburg",
    "city": "Ottensen"
  },
  {
    "source_id": "ChIJyR2oh2mPsUcRBUimjPaxPJ4",
    "name": "Pflanzburg GmbH Growshop",
    "category": "Pflanzburg GmbH Growshop",
    "formatted_address": "4,2(116)",
    "phone_number": "+49404305399",
    "source_url": "https://www.google.com/maps/place/Pflanzburg+GmbH+Growshop/data=!4m7!3m6!1s0x47b18f6987a81dc9:0x9e3cb1f68ca64805!8m2!3d53.5584828!4d9.9645599!16s%2Fg%2F1tf6wdmc!19sChIJyR2oh2mPsUcRBUimjPaxPJ4?authuser=0&hl=tr&rclk=1",
    "website_url": "",
    "rating_text": "4,2",
    "stars": null,
    "number_of_reviews": null,
    "price_level": "",
    "open_hours": "",
    "extraction_timestamp": "2025-06-07T15:20:21.578Z",
    "source_name": "google",
    "source_query": "Irrigation Equipment",
    "source_country": "DE",
    "country": "Germany",
    "state": "Hamburg",
    "city": "Ottensen"
  },
  {
    "source_id": "ChIJaXNKgoiFsUcRmfcOV0VbilQ",
    "name": "MediaMarkt Hamburg - Altona",
    "category": "MediaMarkt Hamburg - Altona",
    "formatted_address": "3,8(3.268)",
    "phone_number": "+4932683",
    "source_url": "https://www.google.com/maps/place/MediaMarkt+Hamburg+-+Altona/data=!4m7!3m6!1s0x47b18588824a7369:0x548a5b45570ef799!8m2!3d53.5523709!4d9.9353491!16s%2Fg%2F1thtnncq!19sChIJaXNKgoiFsUcRmfcOV0VbilQ?authuser=0&hl=tr&rclk=1",
    "website_url": "",
    "rating_text": "3,8",
    "stars": null,
    "number_of_reviews": null,
    "price_level": "",
    "open_hours": "",
    "extraction_timestamp": "2025-06-07T15:20:21.580Z",
    "source_name": "google",
    "source_query": "Irrigation Equipment",
    "source_country": "DE",
    "country": "Germany",
    "state": "Hamburg",
    "city": "Ottensen"
  }
]
