[
  {
    "source_id": "ChIJeyaw0HePsUcRQzOcSBEjl-k",
    "name": "Hanse Bau & Bewässerungstechnik GmbH",
    "category": "Hanse Bau & Bewässerungstechnik GmbH",
    "formatted_address": "5,0(14)",
    "phone_number": "+4917630563436",
    "source_url": "https://www.google.com/maps/place/Hanse+Bau+%26+Bew%C3%A4sserungstechnik+GmbH/data=!4m7!3m6!1s0x47b18f77d0b0267b:0xe9972311489c3343!8m2!3d53.6553614!4d10.113272!16s%2Fg%2F11kb_rmhm6!19sChIJeyaw0HePsUcRQzOcSBEjl-k?authuser=0&hl=tr&rclk=1",
    "website_url": "",
    "rating_text": "5,0",
    "stars": null,
    "number_of_reviews": null,
    "price_level": "",
    "open_hours": "",
    "extraction_timestamp": "2025-06-07T15:20:09.446Z",
    "source_name": "google",
    "source_query": "Irrigation Equipment",
    "source_country": "DE",
    "country": "Germany",
    "state": "Hamburg",
    "city": "Poppenbüttel"
  },
  {
    "source_id": "ChIJo9UF02UnskcRMXAEuCTxmX8",
    "name": "KRAUTH+TIMMERMANN Rehatechnik GmbH+Co.KG",
    "category": "KRAUTH+TIMMERMANN Rehatechnik GmbH+Co.KG",
    "formatted_address": "4,8(85)",
    "phone_number": "+49406060450",
    "source_url": "https://www.google.com/maps/place/KRAUTH%2BTIMMERMANN+Rehatechnik+GmbH%2BCo.KG/data=!4m7!3m6!1s0x47b22765d305d5a3:0x7f99f124b8047031!8m2!3d53.6700049!4d10.0689483!16s%2Fg%2F1v6p7xzl!19sChIJo9UF02UnskcRMXAEuCTxmX8?authuser=0&hl=tr&rclk=1",
    "website_url": "",
    "rating_text": "4,8",
    "stars": null,
    "number_of_reviews": null,
    "price_level": "",
    "open_hours": "",
    "extraction_timestamp": "2025-06-07T15:20:09.447Z",
    "source_name": "google",
    "source_query": "Irrigation Equipment",
    "source_country": "DE",
    "country": "Germany",
    "state": "Hamburg",
    "city": "Poppenbüttel"
  },
  {
    "source_id": "ChIJhYOS__uJsUcRexErNJ3ZXIE",
    "name": "INTERSPORT Knudsen",
    "category": "INTERSPORT Knudsen",
    "formatted_address": "4,2(248)",
    "phone_number": "+494063855840",
    "source_url": "https://www.google.com/maps/place/INTERSPORT+Knudsen/data=!4m7!3m6!1s0x47b189fbff928385:0x815cd99d342b117b!8m2!3d53.6542482!4d10.0910493!16s%2Fg%2F1tfbgsrr!19sChIJhYOS__uJsUcRexErNJ3ZXIE?authuser=0&hl=tr&rclk=1",
    "website_url": "",
    "rating_text": "4,2",
    "stars": null,
    "number_of_reviews": null,
    "price_level": "",
    "open_hours": "",
    "extraction_timestamp": "2025-06-07T15:20:09.448Z",
    "source_name": "google",
    "source_query": "Irrigation Equipment",
    "source_country": "DE",
    "country": "Germany",
    "state": "Hamburg",
    "city": "Poppenbüttel"
  },
  {
    "source_id": "ChIJozZ0-PuJsUcR_RCrmrbjGtU",
    "name": "Søstrene Grene",
    "category": "Søstrene Grene",
    "formatted_address": "4,5(315)",
    "phone_number": "",
    "source_url": "https://www.google.com/maps/place/S%C3%B8strene+Grene/data=!4m7!3m6!1s0x47b189fbf87436a3:0xd51ae3b69aab10fd!8m2!3d53.6539964!4d10.0902617!16s%2Fg%2F11dx8_q1hj!19sChIJozZ0-PuJsUcR_RCrmrbjGtU?authuser=0&hl=tr&rclk=1",
    "website_url": "",
    "rating_text": "4,5",
    "stars": null,
    "number_of_reviews": null,
    "price_level": "",
    "open_hours": "",
    "extraction_timestamp": "2025-06-07T15:20:09.449Z",
    "source_name": "google",
    "source_query": "Irrigation Equipment",
    "source_country": "DE",
    "country": "Germany",
    "state": "Hamburg",
    "city": "Poppenbüttel"
  },
  {
    "source_id": "ChIJhYOS__uJsUcRNwDYm5jCkOY",
    "name": "HOBBY + TECHNIK by HARTFELDER Spielzeug GmbH",
    "category": "HOBBY + TECHNIK by HARTFELDER Spielzeug GmbH",
    "formatted_address": "4,2(105)",
    "phone_number": "+494061169528",
    "source_url": "https://www.google.com/maps/place/HOBBY+%2B+TECHNIK+by+HARTFELDER+Spielzeug+GmbH/data=!4m7!3m6!1s0x47b189fbff928385:0xe690c2989bd80037!8m2!3d53.6546788!4d10.0912476!16s%2Fg%2F11c5rrcq_r!19sChIJhYOS__uJsUcRNwDYm5jCkOY?authuser=0&hl=tr&rclk=1",
    "website_url": "",
    "rating_text": "4,2",
    "stars": null,
    "number_of_reviews": null,
    "price_level": "",
    "open_hours": "",
    "extraction_timestamp": "2025-06-07T15:20:09.450Z",
    "source_name": "google",
    "source_query": "Irrigation Equipment",
    "source_country": "DE",
    "country": "Germany",
    "state": "Hamburg",
    "city": "Poppenbüttel"
  },
  {
    "source_id": "ChIJSZxre2YnskcR3eiLLT1Z6xg",
    "name": "Sanitärtechnik Jörgen Muhs GmbH",
    "category": "Sanitärtechnik Jörgen Muhs GmbH",
    "formatted_address": "4,9(100)",
    "phone_number": "+49406066049",
    "source_url": "https://www.google.com/maps/place/Sanit%C3%A4rtechnik+J%C3%B6rgen+Muhs+GmbH/data=!4m7!3m6!1s0x47b227667b6b9c49:0x18eb593d2d8be8dd!8m2!3d53.6698484!4d10.0676231!16s%2Fg%2F1tc_d9tz!19sChIJSZxre2YnskcR3eiLLT1Z6xg?authuser=0&hl=tr&rclk=1",
    "website_url": "",
    "rating_text": "4,9",
    "stars": null,
    "number_of_reviews": null,
    "price_level": "",
    "open_hours": "",
    "extraction_timestamp": "2025-06-07T15:20:09.451Z",
    "source_name": "google",
    "source_query": "Irrigation Equipment",
    "source_country": "DE",
    "country": "Germany",
    "state": "Hamburg",
    "city": "Poppenbüttel"
  },
  {
    "source_id": "ChIJXVf_CImJsUcRSO2mqNaQQYQ",
    "name": "Culligan | Wasserspender in Hamburg mieten",
    "category": "Culligan | Wasserspender in Hamburg mieten",
    "formatted_address": "4,7(27)",
    "phone_number": "+4921315123456",
    "source_url": "https://www.google.com/maps/place/Culligan+%7C+Wasserspender+in+Hamburg+mieten/data=!4m7!3m6!1s0x47b1898908ff575d:0x844190d6a8a6ed48!8m2!3d51.175807!4d10.4541194!16s%2Fg%2F11bxfzfynx!19sChIJXVf_CImJsUcRSO2mqNaQQYQ?authuser=0&hl=tr&rclk=1",
    "website_url": "",
    "rating_text": "4,7",
    "stars": null,
    "number_of_reviews": null,
    "price_level": "",
    "open_hours": "",
    "extraction_timestamp": "2025-06-07T15:20:09.452Z",
    "source_name": "google",
    "source_query": "Irrigation Equipment",
    "source_country": "DE",
    "country": "Germany",
    "state": "Hamburg",
    "city": "Poppenbüttel"
  },
  {
    "source_id": "ChIJYWj9xsyJsUcRd8OogR29cX4",
    "name": "hagebaumarkt Hummelsbüttel - Möller & Förster",
    "category": "hagebaumarkt Hummelsbüttel - Möller & Förster",
    "formatted_address": "4,1(2.067)",
    "phone_number": "+49406450640",
    "source_url": "https://www.google.com/maps/place/hagebaumarkt+Hummelsb%C3%BCttel+-+M%C3%B6ller+%26+F%C3%B6rster/data=!4m7!3m6!1s0x47b189ccc6fd6861:0x7e71bd1d81a8c377!8m2!3d53.6487259!4d10.0385592!16s%2Fg%2F1tdvj6_b!19sChIJYWj9xsyJsUcRd8OogR29cX4?authuser=0&hl=tr&rclk=1",
    "website_url": "",
    "rating_text": "4,1",
    "stars": null,
    "number_of_reviews": null,
    "price_level": "",
    "open_hours": "",
    "extraction_timestamp": "2025-06-07T15:20:09.455Z",
    "source_name": "google",
    "source_query": "Irrigation Equipment",
    "source_country": "DE",
    "country": "Germany",
    "state": "Hamburg",
    "city": "Poppenbüttel"
  },
  {
    "source_id": "ChIJywsKSWYnskcRU2DIIjxZ5eY",
    "name": "Mackens + Sohn GmbH",
    "category": "Mackens + Sohn GmbH",
    "formatted_address": "4,8(30)",
    "phone_number": "+49406087250",
    "source_url": "https://www.google.com/maps/place/Mackens+%2B+Sohn+GmbH/data=!4m7!3m6!1s0x47b22766490a0bcb:0xe6e5593c22c86053!8m2!3d53.6705946!4d10.0706213!16s%2Fg%2F1tj1r3yt!19sChIJywsKSWYnskcRU2DIIjxZ5eY?authuser=0&hl=tr&rclk=1",
    "website_url": "",
    "rating_text": "4,8",
    "stars": null,
    "number_of_reviews": null,
    "price_level": "",
    "open_hours": "",
    "extraction_timestamp": "2025-06-07T15:20:09.457Z",
    "source_name": "google",
    "source_query": "Irrigation Equipment",
    "source_country": "DE",
    "country": "Germany",
    "state": "Hamburg",
    "city": "Poppenbüttel"
  },
  {
    "source_id": "ChIJb4z31WUnskcRrYl99u7nEJg",
    "name": "Drägert Gebäudetechnik GmbH",
    "category": "Drägert Gebäudetechnik GmbH",
    "formatted_address": "4,7(29)",
    "phone_number": "+494047110060",
    "source_url": "https://www.google.com/maps/place/Dr%C3%A4gert+Geb%C3%A4udetechnik+GmbH/data=!4m7!3m6!1s0x47b22765d5f78c6f:0x9810e7eef67d89ad!8m2!3d53.6678773!4d10.0699406!16s%2Fg%2F1th09hky!19sChIJb4z31WUnskcRrYl99u7nEJg?authuser=0&hl=tr&rclk=1",
    "website_url": "",
    "rating_text": "4,7",
    "stars": null,
    "number_of_reviews": null,
    "price_level": "",
    "open_hours": "",
    "extraction_timestamp": "2025-06-07T15:20:09.457Z",
    "source_name": "google",
    "source_query": "Irrigation Equipment",
    "source_country": "DE",
    "country": "Germany",
    "state": "Hamburg",
    "city": "Poppenbüttel"
  },
  {
    "source_id": "ChIJB9rF9f6JsUcRaLyN_RsgwoI",
    "name": "MediaMarkt Hamburg Poppenbüttel",
    "category": "MediaMarkt Hamburg Poppenbüttel",
    "formatted_address": "4,0(2.040)",
    "phone_number": "+4922122243333",
    "source_url": "https://www.google.com/maps/place/MediaMarkt+Hamburg+Poppenb%C3%BCttel/data=!4m7!3m6!1s0x47b189fef5c5da07:0x82c2201bfd8dbc68!8m2!3d53.6558786!4d10.0945584!16s%2Fg%2F1td5q9zp!19sChIJB9rF9f6JsUcRaLyN_RsgwoI?authuser=0&hl=tr&rclk=1",
    "website_url": "",
    "rating_text": "4,0",
    "stars": null,
    "number_of_reviews": null,
    "price_level": "",
    "open_hours": "",
    "extraction_timestamp": "2025-06-07T15:20:09.459Z",
    "source_name": "google",
    "source_query": "Irrigation Equipment",
    "source_country": "DE",
    "country": "Germany",
    "state": "Hamburg",
    "city": "Poppenbüttel"
  },
  {
    "source_id": "ChIJixz8c2zzsUcRvWDIvRaRRaY",
    "name": "ABS Bewässerungssysteme",
    "category": "ABS Bewässerungssysteme",
    "formatted_address": "5,0(10)",
    "phone_number": "+494020963222",
    "source_url": "https://www.google.com/maps/place/ABS+Bew%C3%A4sserungssysteme/data=!4m7!3m6!1s0x47b1f36c73fc1c8b:0xa6459116bdc860bd!8m2!3d53.4851575!4d10.1899135!16s%2Fg%2F11pwpgyn7x!19sChIJixz8c2zzsUcRvWDIvRaRRaY?authuser=0&hl=tr&rclk=1",
    "website_url": "",
    "rating_text": "5,0",
    "stars": null,
    "number_of_reviews": null,
    "price_level": "",
    "open_hours": "",
    "extraction_timestamp": "2025-06-07T15:20:09.460Z",
    "source_name": "google",
    "source_query": "Irrigation Equipment",
    "source_country": "DE",
    "country": "Germany",
    "state": "Hamburg",
    "city": "Poppenbüttel"
  },
  {
    "source_id": "ChIJJ8q7TgGKsUcRleQtvuzmp6k",
    "name": "HAPPI MED Atlantis",
    "category": "HAPPI MED Atlantis",
    "formatted_address": "5,0(42)",
    "phone_number": "+49406017738",
    "source_url": "https://www.google.com/maps/place/HAPPI+MED+Atlantis/data=!4m7!3m6!1s0x47b18a014ebbca27:0xa9a7e6ecbe2de495!8m2!3d53.6536443!4d10.1054971!16s%2Fg%2F1tg5t31s!19sChIJJ8q7TgGKsUcRleQtvuzmp6k?authuser=0&hl=tr&rclk=1",
    "website_url": "",
    "rating_text": "5,0",
    "stars": null,
    "number_of_reviews": null,
    "price_level": "",
    "open_hours": "",
    "extraction_timestamp": "2025-06-07T15:20:09.461Z",
    "source_name": "google",
    "source_query": "Irrigation Equipment",
    "source_country": "DE",
    "country": "Germany",
    "state": "Hamburg",
    "city": "Poppenbüttel"
  },
  {
    "source_id": "ChIJhYOS__uJsUcRttMpZnqnypg",
    "name": "Hartfelder Marken- und Qualitätsspielzeug",
    "category": "Hartfelder Marken- und Qualitätsspielzeug",
    "formatted_address": "4,3(176)",
    "phone_number": "+494061168555",
    "source_url": "https://www.google.com/maps/place/Hartfelder+Marken-+und+Qualit%C3%A4tsspielzeug/data=!4m7!3m6!1s0x47b189fbff928385:0x98caa77a6629d3b6!8m2!3d53.6547628!4d10.0906718!16s%2Fg%2F1ttyvt17!19sChIJhYOS__uJsUcRttMpZnqnypg?authuser=0&hl=tr&rclk=1",
    "website_url": "",
    "rating_text": "4,3",
    "stars": null,
    "number_of_reviews": null,
    "price_level": "",
    "open_hours": "",
    "extraction_timestamp": "2025-06-07T15:20:09.462Z",
    "source_name": "google",
    "source_query": "Irrigation Equipment",
    "source_country": "DE",
    "country": "Germany",
    "state": "Hamburg",
    "city": "Poppenbüttel"
  },
  {
    "source_id": "ChIJxQGUUPmJsUcRsxUMcPw7Oiw",
    "name": "Stolle",
    "category": "Stolle",
    "formatted_address": "3,2(18)",
    "phone_number": "+49406021514",
    "source_url": "https://www.google.com/maps/place/Stolle/data=!4m7!3m6!1s0x47b189f9509401c5:0x2c3a3bfc700c15b3!8m2!3d53.6532897!4d10.0914211!16s%2Fg%2F1w8w91x9!19sChIJxQGUUPmJsUcRsxUMcPw7Oiw?authuser=0&hl=tr&rclk=1",
    "website_url": "",
    "rating_text": "3,2",
    "stars": null,
    "number_of_reviews": null,
    "price_level": "",
    "open_hours": "",
    "extraction_timestamp": "2025-06-07T15:20:09.463Z",
    "source_name": "google",
    "source_query": "Irrigation Equipment",
    "source_country": "DE",
    "country": "Germany",
    "state": "Hamburg",
    "city": "Poppenbüttel"
  },
  {
    "source_id": "ChIJlXSKPfmJsUcRgnui3r9tcyc",
    "name": "Nelsons GmbH",
    "category": "Nelsons GmbH",
    "formatted_address": "5,0(2)",
    "phone_number": "+49406118330",
    "source_url": "https://www.google.com/maps/place/Nelsons+GmbH/data=!4m7!3m6!1s0x47b189f93d8a7495:0x27736dbfdea27b82!8m2!3d53.652712!4d10.0933521!16s%2Fg%2F1tlqp0yk!19sChIJlXSKPfmJsUcRgnui3r9tcyc?authuser=0&hl=tr&rclk=1",
    "website_url": "",
    "rating_text": "5,0",
    "stars": null,
    "number_of_reviews": null,
    "price_level": "",
    "open_hours": "",
    "extraction_timestamp": "2025-06-07T15:20:09.464Z",
    "source_name": "google",
    "source_query": "Irrigation Equipment",
    "source_country": "DE",
    "country": "Germany",
    "state": "Hamburg",
    "city": "Poppenbüttel"
  },
  {
    "source_id": "ChIJX7EbzumwY0ERuH88UB7lups",
    "name": "Schallfresser GmbH",
    "category": "Schallfresser GmbH",
    "formatted_address": "3,0(2)",
    "phone_number": "+494066955915",
    "source_url": "https://www.google.com/maps/place/Schallfresser+GmbH/data=!4m7!3m6!1s0x4163b0e9ce1bb15f:0x9bbae51e503c7fb8!8m2!3d53.6705156!4d10.0687014!16s%2Fg%2F11b6t3ls5r!19sChIJX7EbzumwY0ERuH88UB7lups?authuser=0&hl=tr&rclk=1",
    "website_url": "",
    "rating_text": "3,0",
    "stars": null,
    "number_of_reviews": null,
    "price_level": "",
    "open_hours": "",
    "extraction_timestamp": "2025-06-07T15:20:09.465Z",
    "source_name": "google",
    "source_query": "Irrigation Equipment",
    "source_country": "DE",
    "country": "Germany",
    "state": "Hamburg",
    "city": "Poppenbüttel"
  },
  {
    "source_id": "ChIJmwiS7vuJsUcR9ryhYmOkxUc",
    "name": "Galeria Kaufhof Hamburg Alstertal shopping center",
    "category": "Galeria Kaufhof Hamburg Alstertal shopping center",
    "formatted_address": "4,1(2.097)",
    "phone_number": "+4940606760",
    "source_url": "https://www.google.com/maps/place/Galeria+Kaufhof+Hamburg+Alstertal+shopping+center/data=!4m7!3m6!1s0x47b189fbee92089b:0x47c5a46362a1bcf6!8m2!3d53.6532277!4d10.0897733!16s%2Fg%2F1tfjk5gl!19sChIJmwiS7vuJsUcR9ryhYmOkxUc?authuser=0&hl=tr&rclk=1",
    "website_url": "",
    "rating_text": "4,1",
    "stars": null,
    "number_of_reviews": null,
    "price_level": "",
    "open_hours": "",
    "extraction_timestamp": "2025-06-07T15:20:09.466Z",
    "source_name": "google",
    "source_query": "Irrigation Equipment",
    "source_country": "DE",
    "country": "Germany",
    "state": "Hamburg",
    "city": "Poppenbüttel"
  },
  {
    "source_id": "ChIJnwVSiCKPsUcR5Ll2gxU37T8",
    "name": "HANDMADE",
    "category": "HANDMADE",
    "formatted_address": "4,6(57)",
    "phone_number": "+494061185800",
    "source_url": "https://www.google.com/maps/place/HANDMADE/data=!4m7!3m6!1s0x47b18f228852059f:0x3fed37158376b9e4!8m2!3d53.6532163!4d10.1047334!16s%2Fg%2F12hyf_bhj!19sChIJnwVSiCKPsUcR5Ll2gxU37T8?authuser=0&hl=tr&rclk=1",
    "website_url": "",
    "rating_text": "4,6",
    "stars": null,
    "number_of_reviews": null,
    "price_level": "",
    "open_hours": "",
    "extraction_timestamp": "2025-06-07T15:20:09.467Z",
    "source_name": "google",
    "source_query": "Irrigation Equipment",
    "source_country": "DE",
    "country": "Germany",
    "state": "Hamburg",
    "city": "Poppenbüttel"
  },
  {
    "source_id": "ChIJTXXOFziJsUcRrO0BIDKi7Sc",
    "name": "Manufactum Warenhaus",
    "category": "Manufactum Warenhaus",
    "formatted_address": "4,7(78)",
    "phone_number": "+4940558299009",
    "source_url": "https://www.google.com/maps/place/Manufactum+Warenhaus/data=!4m7!3m6!1s0x47b1893817ce754d:0x27eda2322001edac!8m2!3d53.6543125!4d10.0907069!16s%2Fg%2F11rd5w4qkp!19sChIJTXXOFziJsUcRrO0BIDKi7Sc?authuser=0&hl=tr&rclk=1",
    "website_url": "",
    "rating_text": "4,7",
    "stars": null,
    "number_of_reviews": null,
    "price_level": "",
    "open_hours": "",
    "extraction_timestamp": "2025-06-07T15:20:09.468Z",
    "source_name": "google",
    "source_query": "Irrigation Equipment",
    "source_country": "DE",
    "country": "Germany",
    "state": "Hamburg",
    "city": "Poppenbüttel"
  },
  {
    "source_id": "ChIJl94mEyshskcRKafsx59mW_4",
    "name": "Spangenberg und Schneider Heizungstechnik",
    "category": "Spangenberg und Schneider Heizungstechnik",
    "formatted_address": "4,9(80)",
    "phone_number": "+49406083036",
    "source_url": "https://www.google.com/maps/place/Spangenberg+und+Schneider+Heizungstechnik/data=!4m7!3m6!1s0x47b2212b1326de97:0xfe5b669fc7eca729!8m2!3d53.6748987!4d10.1398209!16s%2Fg%2F1v29b1zx!19sChIJl94mEyshskcRKafsx59mW_4?authuser=0&hl=tr&rclk=1",
    "website_url": "",
    "rating_text": "4,9",
    "stars": null,
    "number_of_reviews": null,
    "price_level": "",
    "open_hours": "",
    "extraction_timestamp": "2025-06-07T15:20:09.469Z",
    "source_name": "google",
    "source_query": "Irrigation Equipment",
    "source_country": "DE",
    "country": "Germany",
    "state": "Hamburg",
    "city": "Poppenbüttel"
  },
  {
    "source_id": "ChIJc0WsxyyJsUcRsYLQXA3lsA0",
    "name": "Wilhelm Scheelke GmbH",
    "category": "Wilhelm Scheelke GmbH",
    "formatted_address": "3,9(11)",
    "phone_number": "+49402290317",
    "source_url": "https://www.google.com/maps/place/Wilhelm+Scheelke+GmbH/data=!4m7!3m6!1s0x47b1892cc7ac4573:0xdb0e50d5cd082b1!8m2!3d53.6710675!4d10.0707176!16s%2Fg%2F1w1117km!19sChIJc0WsxyyJsUcRsYLQXA3lsA0?authuser=0&hl=tr&rclk=1",
    "website_url": "",
    "rating_text": "3,9",
    "stars": null,
    "number_of_reviews": null,
    "price_level": "",
    "open_hours": "",
    "extraction_timestamp": "2025-06-07T15:20:09.470Z",
    "source_name": "google",
    "source_query": "Irrigation Equipment",
    "source_country": "DE",
    "country": "Germany",
    "state": "Hamburg",
    "city": "Poppenbüttel"
  },
  {
    "source_id": "ChIJASnWkcaJsUcRBXFbsf_0gRo",
    "name": "Lieblingsklempner GmbH",
    "category": "Lieblingsklempner GmbH",
    "formatted_address": "3,8(31)",
    "phone_number": "+494064891900",
    "source_url": "https://www.google.com/maps/place/Lieblingsklempner+GmbH/data=!4m7!3m6!1s0x47b189c691d62901:0x1a81f4ffb15b7105!8m2!3d53.6390209!4d10.0135194!16s%2Fg%2F11f7mc2zc4!19sChIJASnWkcaJsUcRBXFbsf_0gRo?authuser=0&hl=tr&rclk=1",
    "website_url": "",
    "rating_text": "3,8",
    "stars": null,
    "number_of_reviews": null,
    "price_level": "",
    "open_hours": "",
    "extraction_timestamp": "2025-06-07T15:20:09.471Z",
    "source_name": "google",
    "source_query": "Irrigation Equipment",
    "source_country": "DE",
    "country": "Germany",
    "state": "Hamburg",
    "city": "Poppenbüttel"
  },
  {
    "source_id": "ChIJs8T9XuK6Y0EROu0xZg50keg",
    "name": "Jürgen Tiedtke Heizungs- und Lüftungstechnik GmbH",
    "category": "Jürgen Tiedtke Heizungs- und Lüftungstechnik GmbH",
    "formatted_address": "4,6(41)",
    "phone_number": "+494064221138",
    "source_url": "https://www.google.com/maps/place/J%C3%BCrgen+Tiedtke+Heizungs-+und+L%C3%BCftungstechnik+GmbH/data=!4m7!3m6!1s0x4163bae25efdc4b3:0xe891740e6631ed3a!8m2!3d53.5976271!4d10.0736547!16s%2Fg%2F1vrq8pzh!19sChIJs8T9XuK6Y0EROu0xZg50keg?authuser=0&hl=tr&rclk=1",
    "website_url": "",
    "rating_text": "4,6",
    "stars": null,
    "number_of_reviews": null,
    "price_level": "",
    "open_hours": "",
    "extraction_timestamp": "2025-06-07T15:20:09.472Z",
    "source_name": "google",
    "source_query": "Irrigation Equipment",
    "source_country": "DE",
    "country": "Germany",
    "state": "Hamburg",
    "city": "Poppenbüttel"
  },
  {
    "source_id": "ChIJVzy1kayOsUcRQdtv_ORuRBo",
    "name": "Haustechnik.Hamburg - Sager & Deus + Paul Opländer",
    "category": "Haustechnik.Hamburg - Sager & Deus + Paul Opländer",
    "formatted_address": "3,8(52)",
    "phone_number": "+49406828030",
    "source_url": "https://www.google.com/maps/place/Haustechnik.Hamburg+-+Sager+%26+Deus+%2B+Paul+Opl%C3%A4nder/data=!4m7!3m6!1s0x47b18eac91b53c57:0x1a446ee4fc6fdb41!8m2!3d53.643179!4d9.975012!16s%2Fg%2F1vbnng5l!19sChIJVzy1kayOsUcRQdtv_ORuRBo?authuser=0&hl=tr&rclk=1",
    "website_url": "",
    "rating_text": "3,8",
    "stars": null,
    "number_of_reviews": null,
    "price_level": "",
    "open_hours": "",
    "extraction_timestamp": "2025-06-07T15:20:09.473Z",
    "source_name": "google",
    "source_query": "Irrigation Equipment",
    "source_country": "DE",
    "country": "Germany",
    "state": "Hamburg",
    "city": "Poppenbüttel"
  },
  {
    "source_id": "ChIJu-g2n-WIsUcRBeIBVUNa9Es",
    "name": "F.W.M. Schorbach KG (GmbH & Co.)",
    "category": "F.W.M. Schorbach KG (GmbH & Co.)",
    "formatted_address": "4,5(16)",
    "phone_number": "+4940511290",
    "source_url": "https://www.google.com/maps/place/F.W.M.+Schorbach+KG+%28GmbH+%26+Co.%29/data=!4m7!3m6!1s0x47b188e59f36e8bb:0x4bf45a435501e205!8m2!3d53.6086909!4d10.0079014!16s%2Fg%2F1thlm3tw!19sChIJu-g2n-WIsUcRBeIBVUNa9Es?authuser=0&hl=tr&rclk=1",
    "website_url": "",
    "rating_text": "4,5",
    "stars": null,
    "number_of_reviews": null,
    "price_level": "",
    "open_hours": "",
    "extraction_timestamp": "2025-06-07T15:20:09.474Z",
    "source_name": "google",
    "source_query": "Irrigation Equipment",
    "source_country": "DE",
    "country": "Germany",
    "state": "Hamburg",
    "city": "Poppenbüttel"
  },
  {
    "source_id": "ChIJxUk_aYYkskcRFbCbv-K4LI0",
    "name": "Heinrich Hüttmann Nahe-Mühle Landhandel",
    "category": "Heinrich Hüttmann Nahe-Mühle Landhandel",
    "formatted_address": "4,6(124)",
    "phone_number": "+4945356266",
    "source_url": "https://www.google.com/maps/place/Heinrich+H%C3%BCttmann+Nahe-M%C3%BChle+Landhandel/data=!4m7!3m6!1s0x47b22486693f49c5:0x8d2cb8e2bf9bb015!8m2!3d53.7913522!4d10.1373137!16s%2Fg%2F1th09hks!19sChIJxUk_aYYkskcRFbCbv-K4LI0?authuser=0&hl=tr&rclk=1",
    "website_url": "",
    "rating_text": "4,6",
    "stars": null,
    "number_of_reviews": null,
    "price_level": "",
    "open_hours": "",
    "extraction_timestamp": "2025-06-07T15:20:09.475Z",
    "source_name": "google",
    "source_query": "Irrigation Equipment",
    "source_country": "DE",
    "country": "Germany",
    "state": "Hamburg",
    "city": "Poppenbüttel"
  },
  {
    "source_id": "ChIJo2L3gfqKsUcRcFspYRTmN78",
    "name": "Halbroeder Heizung & Sanitär GmbH",
    "category": "Halbroeder Heizung & Sanitär GmbH",
    "formatted_address": "4,6(20)",
    "phone_number": "+491737394608",
    "source_url": "https://www.google.com/maps/place/Halbroeder+Heizung+%26+Sanit%C3%A4r+GmbH/data=!4m7!3m6!1s0x47b18afa81f762a3:0xbf37e61461295b70!8m2!3d53.6562388!4d10.1490556!16s%2Fg%2F11dxfqdfl4!19sChIJo2L3gfqKsUcRcFspYRTmN78?authuser=0&hl=tr&rclk=1",
    "website_url": "",
    "rating_text": "4,6",
    "stars": null,
    "number_of_reviews": null,
    "price_level": "",
    "open_hours": "",
    "extraction_timestamp": "2025-06-07T15:20:09.475Z",
    "source_name": "google",
    "source_query": "Irrigation Equipment",
    "source_country": "DE",
    "country": "Germany",
    "state": "Hamburg",
    "city": "Poppenbüttel"
  },
  {
    "source_id": "ChIJJxLxgh-KsUcRk1b07t-OZuM",
    "name": "Wedekin Sanitär- und Heizungstechnik GmbH",
    "category": "Wedekin Sanitär- und Heizungstechnik GmbH",
    "formatted_address": "4,6(11)",
    "phone_number": "+49406402469",
    "source_url": "https://www.google.com/maps/place/Wedekin+Sanit%C3%A4r-+und+Heizungstechnik+GmbH/data=!4m7!3m6!1s0x47b18a1f82f11227:0xe3668edfeef45693!8m2!3d53.6376383!4d10.0962826!16s%2Fg%2F1tdgzbpm!19sChIJJxLxgh-KsUcRk1b07t-OZuM?authuser=0&hl=tr&rclk=1",
    "website_url": "",
    "rating_text": "4,6",
    "stars": null,
    "number_of_reviews": null,
    "price_level": "",
    "open_hours": "",
    "extraction_timestamp": "2025-06-07T15:20:09.476Z",
    "source_name": "google",
    "source_query": "Irrigation Equipment",
    "source_country": "DE",
    "country": "Germany",
    "state": "Hamburg",
    "city": "Poppenbüttel"
  }
]
