[
  {
    "source_id": "ChIJixz8c2zzsUcRvWDIvRaRRaY",
    "name": "ABS Bewässerungssysteme",
    "category": "ABS Bewässerungssysteme",
    "formatted_address": "5,0(10)",
    "phone_number": "+494020963222",
    "source_url": "https://www.google.com/maps/place/ABS+Bew%C3%A4sserungssysteme/data=!4m7!3m6!1s0x47b1f36c73fc1c8b:0xa6459116bdc860bd!8m2!3d53.4851575!4d10.1899135!16s%2Fg%2F11pwpgyn7x!19sChIJixz8c2zzsUcRvWDIvRaRRaY?authuser=0&hl=tr&rclk=1",
    "website_url": "http://www.abs-bewaesserung.de/",
    "rating_text": "5,0",
    "stars": null,
    "number_of_reviews": null,
    "price_level": "",
    "open_hours": "",
    "extraction_timestamp": "2025-06-07T15:22:31.601Z",
    "source_name": "google",
    "source_query": "Irrigation Equipment",
    "source_country": "DE",
    "country": "Germany",
    "state": "Hamburg",
    "city": "Rothenburgsort"
  },
  {
    "source_id": "ChIJeaeox7SOsUcRxxWoRM3hB2k",
    "name": "HYDROPHIL - wasserneutral GmbH",
    "category": "HYDROPHIL - wasserneutral GmbH",
    "formatted_address": "4,4(22)",
    "phone_number": "+491094",
    "source_url": "https://www.google.com/maps/place/HYDROPHIL+-+wasserneutral+GmbH/data=!4m7!3m6!1s0x47b18eb4c7a8a779:0x6907e1cd44a815c7!8m2!3d53.5495148!4d10.0471959!16s%2Fg%2F11b_025lyb!19sChIJeaeox7SOsUcRxxWoRM3hB2k?authuser=0&hl=tr&rclk=1",
    "website_url": "https://www.hydrophil.com/",
    "rating_text": "4,4",
    "stars": null,
    "number_of_reviews": null,
    "price_level": "",
    "open_hours": "",
    "extraction_timestamp": "2025-06-07T15:22:31.602Z",
    "source_name": "google",
    "source_query": "Irrigation Equipment",
    "source_country": "DE",
    "country": "Germany",
    "state": "Hamburg",
    "city": "Rothenburgsort"
  },
  {
    "source_id": "ChIJbd24LfuOsUcRlBAqovk81tA",
    "name": "Hamburg Wasser Service und Technik GmbH (ServTEC)",
    "category": "Hamburg Wasser Service und Technik GmbH (ServTEC)",
    "formatted_address": "4,4(29)",
    "phone_number": "+4940788880088",
    "source_url": "https://www.google.com/maps/place/Hamburg+Wasser+Service+und+Technik+GmbH+%28ServTEC%29/data=!4m7!3m6!1s0x47b18efb2db8dd6d:0xd0d63cf9a22a1094!8m2!3d53.5318989!4d10.0574404!16s%2Fg%2F1thlm3wx!19sChIJbd24LfuOsUcRlBAqovk81tA?authuser=0&hl=tr&rclk=1",
    "website_url": "http://www.servtec.de/",
    "rating_text": "4,4",
    "stars": null,
    "number_of_reviews": null,
    "price_level": "",
    "open_hours": "",
    "extraction_timestamp": "2025-06-07T15:22:31.603Z",
    "source_name": "google",
    "source_query": "Irrigation Equipment",
    "source_country": "DE",
    "country": "Germany",
    "state": "Hamburg",
    "city": "Rothenburgsort"
  },
  {
    "source_id": "ChIJ4R34GoKPsUcR_Di8Y72u1Q4",
    "name": "AN-Beregnungstechnik",
    "category": "AN-Beregnungstechnik",
    "formatted_address": "",
    "phone_number": "+4917673517226",
    "source_url": "https://www.google.com/maps/place/AN-Beregnungstechnik/data=!4m7!3m6!1s0x47b18f821af81de1:0xed5aebd63bc38fc!8m2!3d53.5576744!4d10.0112776!16s%2Fg%2F11x33m21xg!19sChIJ4R34GoKPsUcR_Di8Y72u1Q4?authuser=0&hl=tr&rclk=1",
    "website_url": "",
    "rating_text": "",
    "stars": null,
    "number_of_reviews": null,
    "price_level": "",
    "open_hours": "",
    "extraction_timestamp": "2025-06-07T15:22:31.604Z",
    "source_name": "google",
    "source_query": "Irrigation Equipment",
    "source_country": "DE",
    "country": "Germany",
    "state": "Hamburg",
    "city": "Rothenburgsort"
  },
  {
    "source_id": "ChIJuUzlE_QfskcRDvcvjiauJ_U",
    "name": "Handelskönig GmbH",
    "category": "Handelskönig GmbH",
    "formatted_address": "4,3(124)",
    "phone_number": "+494022636590",
    "source_url": "https://www.google.com/maps/place/Handelsk%C3%B6nig+GmbH/data=!4m7!3m6!1s0x47b21ff413e54cb9:0xf527ae268e2ff70e!8m2!3d53.5284453!4d10.0763093!16s%2Fg%2F1hc1wwm62!19sChIJuUzlE_QfskcRDvcvjiauJ_U?authuser=0&hl=tr&rclk=1",
    "website_url": "http://www.handelskoenig.com/",
    "rating_text": "4,3",
    "stars": null,
    "number_of_reviews": null,
    "price_level": "",
    "open_hours": "",
    "extraction_timestamp": "2025-06-07T15:22:31.605Z",
    "source_name": "google",
    "source_query": "Irrigation Equipment",
    "source_country": "DE",
    "country": "Germany",
    "state": "Hamburg",
    "city": "Rothenburgsort"
  },
  {
    "source_id": "ChIJ0WddXSOPsUcREqtX3s01yOg",
    "name": "Niotec GmbH",
    "category": "Niotec GmbH",
    "formatted_address": "5,0(1)",
    "phone_number": "+491714703499",
    "source_url": "https://www.google.com/maps/place/Niotec+GmbH/data=!4m7!3m6!1s0x47b18f235d5d67d1:0xe8c835cdde57ab12!8m2!3d53.5375331!4d10.0518048!16s%2Fg%2F11jgh58mcd!19sChIJ0WddXSOPsUcREqtX3s01yOg?authuser=0&hl=tr&rclk=1",
    "website_url": "http://www.niotec.gmbh/",
    "rating_text": "5,0",
    "stars": null,
    "number_of_reviews": null,
    "price_level": "",
    "open_hours": "",
    "extraction_timestamp": "2025-06-07T15:22:31.606Z",
    "source_name": "google",
    "source_query": "Irrigation Equipment",
    "source_country": "DE",
    "country": "Germany",
    "state": "Hamburg",
    "city": "Rothenburgsort"
  },
  {
    "source_id": "ChIJN5DzftiiY0ERPiPdMO0W-l4",
    "name": "HAMBURG WASSER | Unternehmenszentrale",
    "category": "HAMBURG WASSER | Unternehmenszentrale",
    "formatted_address": "3,9(32)",
    "phone_number": "+494078880",
    "source_url": "https://www.google.com/maps/place/HAMBURG+WASSER+%7C+Unternehmenszentrale/data=!4m7!3m6!1s0x4163a2d87ef39037:0x5efa16ed30dd233e!8m2!3d53.5334362!4d10.0415307!16s%2Fg%2F11b6p4l4zn!19sChIJN5DzftiiY0ERPiPdMO0W-l4?authuser=0&hl=tr&rclk=1",
    "website_url": "http://www.hamburgwasser.de/",
    "rating_text": "3,9",
    "stars": null,
    "number_of_reviews": null,
    "price_level": "",
    "open_hours": "",
    "extraction_timestamp": "2025-06-07T15:22:31.607Z",
    "source_name": "google",
    "source_query": "Irrigation Equipment",
    "source_country": "DE",
    "country": "Germany",
    "state": "Hamburg",
    "city": "Rothenburgsort"
  },
  {
    "source_id": "ChIJm-wrvWaOsUcRraZ8n2qCrhY",
    "name": "POESCHCO Niederlassung",
    "category": "POESCHCO Niederlassung",
    "formatted_address": "5,0(1)",
    "phone_number": "+49407892966",
    "source_url": "https://www.google.com/maps/place/POESCHCO+Niederlassung/data=!4m7!3m6!1s0x47b18e66bd2bec9b:0x16ae826a9f7ca6ad!8m2!3d53.5269254!4d10.0279326!16s%2Fg%2F1wc3094x!19sChIJm-wrvWaOsUcRraZ8n2qCrhY?authuser=0&hl=tr&rclk=1",
    "website_url": "https://poeschco.de/",
    "rating_text": "5,0",
    "stars": null,
    "number_of_reviews": null,
    "price_level": "",
    "open_hours": "",
    "extraction_timestamp": "2025-06-07T15:22:31.608Z",
    "source_name": "google",
    "source_query": "Irrigation Equipment",
    "source_country": "DE",
    "country": "Germany",
    "state": "Hamburg",
    "city": "Rothenburgsort"
  },
  {
    "source_id": "ChIJVVVl1B-PsUcRe0sT8uYkNPU",
    "name": "TurfPro GmbH",
    "category": "TurfPro GmbH",
    "formatted_address": "4,3(16)",
    "phone_number": "+494084895219",
    "source_url": "https://www.google.com/maps/place/TurfPro+GmbH/data=!4m7!3m6!1s0x47b18f1fd4655555:0xf53424e6f2134b7b!8m2!3d53.5551215!4d10.00104!16s%2Fg%2F11g1f90l5g!19sChIJVVVl1B-PsUcRe0sT8uYkNPU?authuser=0&hl=tr&rclk=1",
    "website_url": "https://www.turfpro.de/kontakt/",
    "rating_text": "4,3",
    "stars": null,
    "number_of_reviews": null,
    "price_level": "",
    "open_hours": "",
    "extraction_timestamp": "2025-06-07T15:22:31.609Z",
    "source_name": "google",
    "source_query": "Irrigation Equipment",
    "source_country": "DE",
    "country": "Germany",
    "state": "Hamburg",
    "city": "Rothenburgsort"
  },
  {
    "source_id": "ChIJz3T5VOKQsUcR7Nhmt2MMpjw",
    "name": "R.T.S. Rochem Technical Services GmbH",
    "category": "R.T.S. Rochem Technical Services GmbH",
    "formatted_address": "4,4(13)",
    "phone_number": "+494057307910",
    "source_url": "https://www.google.com/maps/place/R.T.S.+Rochem+Technical+Services+GmbH/data=!4m7!3m6!1s0x47b190e254f974cf:0x3ca60c63b766d8ec!8m2!3d53.5219798!4d10.0358174!16s%2Fg%2F1hc1jfq3c!19sChIJz3T5VOKQsUcR7Nhmt2MMpjw?authuser=0&hl=tr&rclk=1",
    "website_url": "https://rochem.com/",
    "rating_text": "4,4",
    "stars": null,
    "number_of_reviews": null,
    "price_level": "",
    "open_hours": "",
    "extraction_timestamp": "2025-06-07T15:22:31.611Z",
    "source_name": "google",
    "source_query": "Irrigation Equipment",
    "source_country": "DE",
    "country": "Germany",
    "state": "Hamburg",
    "city": "Rothenburgsort"
  },
  {
    "source_id": "ChIJC9xPEuiPsUcRv44XJVhK8AQ",
    "name": "Einstürzende Hallenbauten",
    "category": "Einstürzende Hallenbauten",
    "formatted_address": "4,9(16)",
    "phone_number": "+49232234",
    "source_url": "https://www.google.com/maps/place/Einst%C3%BCrzende+Hallenbauten/data=!4m7!3m6!1s0x47b18fe8124fdc0b:0x4f04a5825178ebf!8m2!3d53.547344!4d10.0463949!16s%2Fg%2F11j6yb3t_l!19sChIJC9xPEuiPsUcRv44XJVhK8AQ?authuser=0&hl=tr&rclk=1",
    "website_url": "",
    "rating_text": "4,9",
    "stars": null,
    "number_of_reviews": null,
    "price_level": "",
    "open_hours": "",
    "extraction_timestamp": "2025-06-07T15:22:31.611Z",
    "source_name": "google",
    "source_query": "Irrigation Equipment",
    "source_country": "DE",
    "country": "Germany",
    "state": "Hamburg",
    "city": "Rothenburgsort"
  },
  {
    "source_id": "ChIJN74lPACPsUcRiruWULN41LM",
    "name": "Heiuki Stand-Up-Paddle Verleih Hamburg Bille",
    "category": "Heiuki Stand-Up-Paddle Verleih Hamburg Bille",
    "formatted_address": "4,7(21)",
    "phone_number": "",
    "source_url": "https://www.google.com/maps/place/Heiuki+Stand-Up-Paddle+Verleih+Hamburg+Bille/data=!4m7!3m6!1s0x47b18f003c25be37:0xb3d478b35096bb8a!8m2!3d53.5447381!4d10.0524635!16s%2Fg%2F11vz4z0vr8!19sChIJN74lPACPsUcRiruWULN41LM?authuser=0&hl=tr&rclk=1",
    "website_url": "https://heiuki.com/standorte/deutschland/hamburg/bille/",
    "rating_text": "4,7",
    "stars": null,
    "number_of_reviews": null,
    "price_level": "",
    "open_hours": "",
    "extraction_timestamp": "2025-06-07T15:22:31.612Z",
    "source_name": "google",
    "source_query": "Irrigation Equipment",
    "source_country": "DE",
    "country": "Germany",
    "state": "Hamburg",
    "city": "Rothenburgsort"
  },
  {
    "source_id": "ChIJ58gYT7WPsUcRfAAxvc6G5PA",
    "name": "Gartenzauberwerk Hamburg - Comgatus GmbH",
    "category": "Gartenzauberwerk Hamburg - Comgatus GmbH",
    "formatted_address": "4,6(54)",
    "phone_number": "+494060944403",
    "source_url": "https://www.google.com/maps/place/Gartenzauberwerk+Hamburg+-+Comgatus+GmbH/data=!4m7!3m6!1s0x47b18fb54f18c8e7:0xf0e486cebd31007c!8m2!3d53.5274534!4d10.0284149!16s%2Fg%2F11b5ytm81z!19sChIJ58gYT7WPsUcRfAAxvc6G5PA?authuser=0&hl=tr&rclk=1",
    "website_url": "https://gartenzauberwerk.de/geschaeftsstellen/hh5/",
    "rating_text": "4,6",
    "stars": null,
    "number_of_reviews": null,
    "price_level": "",
    "open_hours": "",
    "extraction_timestamp": "2025-06-07T15:22:31.612Z",
    "source_name": "google",
    "source_query": "Irrigation Equipment",
    "source_country": "DE",
    "country": "Germany",
    "state": "Hamburg",
    "city": "Rothenburgsort"
  },
  {
    "source_id": "ChIJ2Q5A2ZGOsUcRobnAbJzyyLs",
    "name": "Tyforop Chemie GmbH",
    "category": "Tyforop Chemie GmbH",
    "formatted_address": "5,0(2)",
    "phone_number": "+49402094970",
    "source_url": "https://www.google.com/maps/place/Tyforop+Chemie+GmbH/data=!4m7!3m6!1s0x47b18e91d9400ed9:0xbbc8f29c6cc0b9a1!8m2!3d53.5421645!4d10.0498013!16s%2Fg%2F1tkrkvw7!19sChIJ2Q5A2ZGOsUcRobnAbJzyyLs?authuser=0&hl=tr&rclk=1",
    "website_url": "https://tyfo.de/",
    "rating_text": "5,0",
    "stars": null,
    "number_of_reviews": null,
    "price_level": "",
    "open_hours": "",
    "extraction_timestamp": "2025-06-07T15:22:31.613Z",
    "source_name": "google",
    "source_query": "Irrigation Equipment",
    "source_country": "DE",
    "country": "Germany",
    "state": "Hamburg",
    "city": "Rothenburgsort"
  },
  {
    "source_id": "ChIJuShkOpmOsUcR01kTdaZ3-qs",
    "name": "HEILING & HEILING oHG",
    "category": "HEILING & HEILING oHG",
    "formatted_address": "4,8(50)",
    "phone_number": "+494052476580",
    "source_url": "https://www.google.com/maps/place/HEILING+%26+HEILING+oHG/data=!4m7!3m6!1s0x47b18e993a6428b9:0xabfa77a6751359d3!8m2!3d53.54978!4d10.0512769!16s%2Fg%2F1thnmv49!19sChIJuShkOpmOsUcR01kTdaZ3-qs?authuser=0&hl=tr&rclk=1",
    "website_url": "http://www.heiling-heiling.de/",
    "rating_text": "4,8",
    "stars": null,
    "number_of_reviews": null,
    "price_level": "",
    "open_hours": "",
    "extraction_timestamp": "2025-06-07T15:22:31.614Z",
    "source_name": "google",
    "source_query": "Irrigation Equipment",
    "source_country": "DE",
    "country": "Germany",
    "state": "Hamburg",
    "city": "Rothenburgsort"
  },
  {
    "source_id": "ChIJF9FeYIaNsUcRpP_8PxfTevg",
    "name": "Klempner hamburg - Hamwihausservice",
    "category": "Klempner hamburg - Hamwihausservice",
    "formatted_address": "5,0(24)",
    "phone_number": "+4915781049986",
    "source_url": "https://www.google.com/maps/place/Klempner+hamburg+-+Hamwihausservice/data=!4m7!3m6!1s0x47b18d86605ed117:0xf87ad3173ffcffa4!8m2!3d53.5501235!4d10.0644252!16s%2Fg%2F11y27jl8d4!19sChIJF9FeYIaNsUcRpP_8PxfTevg?authuser=0&hl=tr&rclk=1",
    "website_url": "https://hamwihausservice.com/",
    "rating_text": "5,0",
    "stars": null,
    "number_of_reviews": null,
    "price_level": "",
    "open_hours": "",
    "extraction_timestamp": "2025-06-07T15:22:31.614Z",
    "source_name": "google",
    "source_query": "Irrigation Equipment",
    "source_country": "DE",
    "country": "Germany",
    "state": "Hamburg",
    "city": "Rothenburgsort"
  },
  {
    "source_id": "ChIJQ7eorpKOsUcRj4EwD6ZTjnM",
    "name": "Techem Energy Services GmbH",
    "category": "Techem Energy Services GmbH",
    "formatted_address": "1,8(177)",
    "phone_number": "+49402361230",
    "source_url": "https://www.google.com/maps/place/Techem+Energy+Services+GmbH/data=!4m7!3m6!1s0x47b18e92aea8b743:0x738e53a60f30818f!8m2!3d53.5433545!4d10.0278184!16s%2Fg%2F1tcy7yz4!19sChIJQ7eorpKOsUcRj4EwD6ZTjnM?authuser=0&hl=tr&rclk=1",
    "website_url": "http://www.techem.de/",
    "rating_text": "1,8",
    "stars": null,
    "number_of_reviews": null,
    "price_level": "",
    "open_hours": "",
    "extraction_timestamp": "2025-06-07T15:22:31.615Z",
    "source_name": "google",
    "source_query": "Irrigation Equipment",
    "source_country": "DE",
    "country": "Germany",
    "state": "Hamburg",
    "city": "Rothenburgsort"
  },
  {
    "source_id": "ChIJL0Fwoe2PsUcRqCK-GWyYl28",
    "name": "24h Rohr & Kanal Hilfe GmbH Abfluss & Rohrreinigung Kanalreinigung Kanaluntersuchung Kanalsanierung WC & Küchen Entstopfung",
    "category": "24h Rohr & Kanal Hilfe GmbH Abfluss & Rohrreinigung Kanalreinigung Kanaluntersuchung Kanalsanierung WC & Küchen Entstopfung",
    "formatted_address": "24h Rohr & Kanal Hilfe GmbH Abfluss & Rohrreinigung Kanalreinigung Kanaluntersuchung Kanalsanierung WC & Küchen Entstopfung",
    "phone_number": "+4930924",
    "source_url": "https://www.google.com/maps/place/24h+Rohr+%26+Kanal+Hilfe+GmbH+Abfluss+%26+Rohrreinigung+Kanalreinigung+Kanaluntersuchung+Kanalsanierung+WC+%26+K%C3%BCchen+Entstopfung/data=!4m7!3m6!1s0x47b18feda170412f:0x6f97986c19be22a8!8m2!3d53.5511691!4d10.0424434!16s%2Fg%2F11s5sfx52v!19sChIJL0Fwoe2PsUcRqCK-GWyYl28?authuser=0&hl=tr&rclk=1",
    "website_url": "https://kanal24h-hamburg.de/",
    "rating_text": "4,9",
    "stars": null,
    "number_of_reviews": null,
    "price_level": "",
    "open_hours": "",
    "extraction_timestamp": "2025-06-07T15:22:31.616Z",
    "source_name": "google",
    "source_query": "Irrigation Equipment",
    "source_country": "DE",
    "country": "Germany",
    "state": "Hamburg",
    "city": "Rothenburgsort"
  },
  {
    "source_id": "ChIJfzbByyyMsUcRHU7QxEIwRAo",
    "name": "Wolf Sergej",
    "category": "Wolf Sergej",
    "formatted_address": "5,0(3)",
    "phone_number": "+494018078891",
    "source_url": "https://www.google.com/maps/place/Wolf+Sergej/data=!4m7!3m6!1s0x47b18c2ccbc1367f:0xa443042c4d04e1d!8m2!3d53.5309593!4d10.0624476!16s%2Fg%2F1tfxx23m!19sChIJfzbByyyMsUcRHU7QxEIwRAo?authuser=0&hl=tr&rclk=1",
    "website_url": "",
    "rating_text": "5,0",
    "stars": null,
    "number_of_reviews": null,
    "price_level": "",
    "open_hours": "",
    "extraction_timestamp": "2025-06-07T15:22:31.617Z",
    "source_name": "google",
    "source_query": "Irrigation Equipment",
    "source_country": "DE",
    "country": "Germany",
    "state": "Hamburg",
    "city": "Rothenburgsort"
  },
  {
    "source_id": "ChIJsTeAdZ2OsUcRtyKYE_CG5I0",
    "name": "Biller Wassersport Schwalbe Hamburg von 1928 e.V.",
    "category": "Biller Wassersport Schwalbe Hamburg von 1928 e.V.",
    "formatted_address": "4,5(24)",
    "phone_number": "+49407890301",
    "source_url": "https://www.google.com/maps/place/Biller+Wassersport+Schwalbe+Hamburg+von+1928+e.V./data=!4m7!3m6!1s0x47b18e9d758037b1:0x8de486f0139822b7!8m2!3d53.5447653!4d10.0563477!16s%2Fg%2F1vrq8p_g!19sChIJsTeAdZ2OsUcRtyKYE_CG5I0?authuser=0&hl=tr&rclk=1",
    "website_url": "https://www.bws-schwalbe.de/",
    "rating_text": "4,5",
    "stars": null,
    "number_of_reviews": null,
    "price_level": "",
    "open_hours": "",
    "extraction_timestamp": "2025-06-07T15:22:31.618Z",
    "source_name": "google",
    "source_query": "Irrigation Equipment",
    "source_country": "DE",
    "country": "Germany",
    "state": "Hamburg",
    "city": "Rothenburgsort"
  },
  {
    "source_id": "ChIJq5g0ZQWPsUcReN_8zOnsI4o",
    "name": "Søstrene Grene",
    "category": "Søstrene Grene",
    "formatted_address": "4,6(132)",
    "phone_number": "",
    "source_url": "https://www.google.com/maps/place/S%C3%B8strene+Grene/data=!4m7!3m6!1s0x47b18f05653498ab:0x8a23ece9ccfcdf78!8m2!3d53.5515844!4d10.0006031!16s%2Fg%2F11p777f9kw!19sChIJq5g0ZQWPsUcReN_8zOnsI4o?authuser=0&hl=tr&rclk=1",
    "website_url": "https://sostrenegrene.com/de/laeden/spitalerstra-e-hamburg-s-7055?utm_source=googlebusiness&utm_medium=google",
    "rating_text": "4,6",
    "stars": null,
    "number_of_reviews": null,
    "price_level": "",
    "open_hours": "",
    "extraction_timestamp": "2025-06-07T15:22:31.619Z",
    "source_name": "google",
    "source_query": "Irrigation Equipment",
    "source_country": "DE",
    "country": "Germany",
    "state": "Hamburg",
    "city": "Rothenburgsort"
  },
  {
    "source_id": "ChIJFwjJFASPsUcRilVCB5GaAa8",
    "name": "Speicherstadt Coffee Roastery",
    "category": "Speicherstadt Coffee Roastery",
    "formatted_address": "4,5(8.880) · €10–20",
    "phone_number": "+4988804",
    "source_url": "https://www.google.com/maps/place/Speicherstadt+Coffee+Roastery/data=!4m7!3m6!1s0x47b18f0414c90817:0xaf019a910742558a!8m2!3d53.5438273!4d9.9880427!16s%2Fg%2F1tfz97cv!19sChIJFwjJFASPsUcRilVCB5GaAa8?authuser=0&hl=tr&rclk=1",
    "website_url": "https://www.speicherstadt-kaffee.de/",
    "rating_text": "4,5",
    "stars": null,
    "number_of_reviews": null,
    "price_level": "",
    "open_hours": "",
    "extraction_timestamp": "2025-06-07T15:22:31.621Z",
    "source_name": "google",
    "source_query": "Irrigation Equipment",
    "source_country": "DE",
    "country": "Germany",
    "state": "Hamburg",
    "city": "Rothenburgsort"
  },
  {
    "source_id": "ChIJ283m04SNsUcR6xM6VqYFawg",
    "name": "DIE MACHER.Wasser Wärme Klimatechnik.GmbH",
    "category": "DIE MACHER.Wasser Wärme Klimatechnik.GmbH",
    "formatted_address": "4,5(8)",
    "phone_number": "+494022947736",
    "source_url": "https://www.google.com/maps/place/DIE+MACHER.Wasser+W%C3%A4rme+Klimatechnik.GmbH/data=!4m7!3m6!1s0x47b18d84d3e6cddb:0x86b05a6563a13eb!8m2!3d53.554877!4d10.0654196!16s%2Fg%2F11vfbkt3z5!19sChIJ283m04SNsUcR6xM6VqYFawg?authuser=0&hl=tr&rclk=1",
    "website_url": "https://diemacher-shk.de/",
    "rating_text": "4,5",
    "stars": null,
    "number_of_reviews": null,
    "price_level": "",
    "open_hours": "",
    "extraction_timestamp": "2025-06-07T15:22:31.622Z",
    "source_name": "google",
    "source_query": "Irrigation Equipment",
    "source_country": "DE",
    "country": "Germany",
    "state": "Hamburg",
    "city": "Rothenburgsort"
  },
  {
    "source_id": "ChIJh5ZD9s2OsUcRZX-JZep71LA",
    "name": "Hände und Werke Sanitärtechnik",
    "category": "Hände und Werke Sanitärtechnik",
    "formatted_address": "4,9(29)",
    "phone_number": "+494042917661",
    "source_url": "https://www.google.com/maps/place/H%C3%A4nde+und+Werke+Sanit%C3%A4rtechnik/data=!4m7!3m6!1s0x47b18ecdf6439687:0xb0d47bea65897f65!8m2!3d53.5313554!4d10.1264087!16s%2Fg%2F11c543qwl1!19sChIJh5ZD9s2OsUcRZX-JZep71LA?authuser=0&hl=tr&rclk=1",
    "website_url": "https://www.wunschbad.hamburg/",
    "rating_text": "4,9",
    "stars": null,
    "number_of_reviews": null,
    "price_level": "",
    "open_hours": "",
    "extraction_timestamp": "2025-06-07T15:22:31.623Z",
    "source_name": "google",
    "source_query": "Irrigation Equipment",
    "source_country": "DE",
    "country": "Germany",
    "state": "Hamburg",
    "city": "Rothenburgsort"
  },
  {
    "source_id": "ChIJNWGE00qOsUcR5zKyaBh99NU",
    "name": "CUCCO",
    "category": "CUCCO",
    "formatted_address": "4,7(93)",
    "phone_number": "+491578057016024",
    "source_url": "https://www.google.com/maps/place/CUCCO/data=!4m7!3m6!1s0x47b18e4ad3846135:0xd5f47d1868b232e7!8m2!3d53.5174769!4d9.9878462!16s%2Fg%2F11c37q9q09!19sChIJNWGE00qOsUcR5zKyaBh99NU?authuser=0&hl=tr&rclk=1",
    "website_url": "",
    "rating_text": "4,7",
    "stars": null,
    "number_of_reviews": null,
    "price_level": "",
    "open_hours": "",
    "extraction_timestamp": "2025-06-07T15:22:31.624Z",
    "source_name": "google",
    "source_query": "Irrigation Equipment",
    "source_country": "DE",
    "country": "Germany",
    "state": "Hamburg",
    "city": "Rothenburgsort"
  },
  {
    "source_id": "ChIJ1TzQ20-NsUcR8u6AP9ShXy8",
    "name": "Reliable Fire Sprinkler GmbH",
    "category": "Reliable Fire Sprinkler GmbH",
    "formatted_address": "",
    "phone_number": "+4940558981871",
    "source_url": "https://www.google.com/maps/place/Reliable+Fire+Sprinkler+GmbH/data=!4m7!3m6!1s0x47b18d4fdbd03cd5:0x2f5fa1d43f80eef2!8m2!3d53.4917599!4d10.106631!16s%2Fg%2F11gxx7f8yz!19sChIJ1TzQ20-NsUcR8u6AP9ShXy8?authuser=0&hl=tr&rclk=1",
    "website_url": "http://www.reliablesprinkler.com/",
    "rating_text": "",
    "stars": null,
    "number_of_reviews": null,
    "price_level": "",
    "open_hours": "",
    "extraction_timestamp": "2025-06-07T15:22:31.625Z",
    "source_name": "google",
    "source_query": "Irrigation Equipment",
    "source_country": "DE",
    "country": "Germany",
    "state": "Hamburg",
    "city": "Rothenburgsort"
  },
  {
    "source_id": "ChIJ7em9Wp-IsUcR-PnzCLUWox4",
    "name": "Quellklar by Hydro-Shop",
    "category": "Quellklar by Hydro-Shop",
    "formatted_address": "3,5(8)",
    "phone_number": "+49405001720",
    "source_url": "https://www.google.com/maps/place/Quellklar+by+Hydro-Shop/data=!4m7!3m6!1s0x47b1889f5abde9ed:0x1ea316b508f3f9f8!8m2!3d53.610056!4d9.974098!16s%2Fg%2F1hc3w12m3!19sChIJ7em9Wp-IsUcR-PnzCLUWox4?authuser=0&hl=tr&rclk=1",
    "website_url": "https://quellklar.de/",
    "rating_text": "3,5",
    "stars": null,
    "number_of_reviews": null,
    "price_level": "",
    "open_hours": "",
    "extraction_timestamp": "2025-06-07T15:22:31.625Z",
    "source_name": "google",
    "source_query": "Irrigation Equipment",
    "source_country": "DE",
    "country": "Germany",
    "state": "Hamburg",
    "city": "Rothenburgsort"
  },
  {
    "source_id": "ChIJe2-tJZmOsUcRr16zN9GDSNI",
    "name": "Sanitärtechnik Renè Tietz in Hamburg Spezialisiert auf Gasheizung aller Fabrikate",
    "category": "Sanitärtechnik Renè Tietz in Hamburg Spezialisiert auf Gasheizung aller Fabrikate",
    "formatted_address": "4,9(7)",
    "phone_number": "+494073679120",
    "source_url": "https://www.google.com/maps/place/Sanit%C3%A4rtechnik+Ren%C3%A8+Tietz+in+Hamburg+Spezialisiert+auf+Gasheizung+aller+Fabrikate/data=!4m7!3m6!1s0x47b18e9925ad6f7b:0xd24883d137b35eaf!8m2!3d53.5504887!4d10.0509836!16s%2Fg%2F1tm09wgq!19sChIJe2-tJZmOsUcRr16zN9GDSNI?authuser=0&hl=tr&rclk=1",
    "website_url": "http://www.renetietz.de/",
    "rating_text": "4,9",
    "stars": null,
    "number_of_reviews": null,
    "price_level": "",
    "open_hours": "",
    "extraction_timestamp": "2025-06-07T15:22:31.627Z",
    "source_name": "google",
    "source_query": "Irrigation Equipment",
    "source_country": "DE",
    "country": "Germany",
    "state": "Hamburg",
    "city": "Rothenburgsort"
  },
  {
    "source_id": "ChIJY24_2eOOsUcRlgh309VEt8M",
    "name": "MediaMarkt Tech Village Hamburg",
    "category": "MediaMarkt Tech Village Hamburg",
    "formatted_address": "4,2(23.660)",
    "phone_number": "+49236604",
    "source_url": "https://www.google.com/maps/place/MediaMarkt+Tech+Village+Hamburg/data=!4m7!3m6!1s0x47b18ee3d93f6e63:0xc3b744d5d3770896!8m2!3d53.5511444!4d10.0056203!16s%2Fg%2F1tdrdf7v!19sChIJY24_2eOOsUcRlgh309VEt8M?authuser=0&hl=tr&rclk=1",
    "website_url": "https://www.mediamarkt.de/de/store/tech-village-hamburg-40?utm_source=google%20places&utm_medium=seo-places%20link&utm_term=MediaMarkt%20Hamburg%20Tech%20Village%2040",
    "rating_text": "4,2",
    "stars": null,
    "number_of_reviews": null,
    "price_level": "",
    "open_hours": "",
    "extraction_timestamp": "2025-06-07T15:22:31.628Z",
    "source_name": "google",
    "source_query": "Irrigation Equipment",
    "source_country": "DE",
    "country": "Germany",
    "state": "Hamburg",
    "city": "Rothenburgsort"
  },
  {
    "source_id": "ChIJG5T3QIaNsUcRSATgC-vxcyQ",
    "name": "TMN Haustechnik GmbH",
    "category": "TMN Haustechnik GmbH",
    "formatted_address": "5,0(11)",
    "phone_number": "+494044195755",
    "source_url": "https://www.google.com/maps/place/TMN+Haustechnik+GmbH/data=!4m7!3m6!1s0x47b18d8640f7941b:0x2473f1eb0be00448!8m2!3d53.5306991!4d10.1221172!16s%2Fg%2F11y5njqdt7!19sChIJG5T3QIaNsUcRSATgC-vxcyQ?authuser=0&hl=tr&rclk=1",
    "website_url": "https://www.tmn-haustechnik.de/",
    "rating_text": "5,0",
    "stars": null,
    "number_of_reviews": null,
    "price_level": "",
    "open_hours": "",
    "extraction_timestamp": "2025-06-07T15:22:31.629Z",
    "source_name": "google",
    "source_query": "Irrigation Equipment",
    "source_country": "DE",
    "country": "Germany",
    "state": "Hamburg",
    "city": "Rothenburgsort"
  },
  {
    "source_id": "ChIJP4cpoyeNsUcRVJnshpukYHY",
    "name": "Knecht GmbH",
    "category": "Knecht GmbH",
    "formatted_address": "4,8(30)",
    "phone_number": "+49407156990",
    "source_url": "https://www.google.com/maps/place/Knecht+GmbH/data=!4m7!3m6!1s0x47b18d27a329873f:0x7660a49b86ec9954!8m2!3d53.5213619!4d10.1522649!16s%2Fg%2F1ttdxhkv!19sChIJP4cpoyeNsUcRVJnshpukYHY?authuser=0&hl=tr&rclk=1",
    "website_url": "http://www.knechtgmbh.de/",
    "rating_text": "4,8",
    "stars": null,
    "number_of_reviews": null,
    "price_level": "",
    "open_hours": "",
    "extraction_timestamp": "2025-06-07T15:22:31.630Z",
    "source_name": "google",
    "source_query": "Irrigation Equipment",
    "source_country": "DE",
    "country": "Germany",
    "state": "Hamburg",
    "city": "Rothenburgsort"
  },
  {
    "source_id": "ChIJucDyHceOsUcRT8jZggS4B4E",
    "name": "Heinke u. Co. GmbH",
    "category": "Heinke u. Co. GmbH",
    "formatted_address": "4,3(23)",
    "phone_number": "+4940258181",
    "source_url": "https://www.google.com/maps/place/Heinke+u.+Co.+GmbH/data=!4m7!3m6!1s0x47b18ec71df2c0b9:0x8107b80482d9c84f!8m2!3d53.5624305!4d10.030632!16s%2Fg%2F1tff22c7!19sChIJucDyHceOsUcRT8jZggS4B4E?authuser=0&hl=tr&rclk=1",
    "website_url": "",
    "rating_text": "4,3",
    "stars": null,
    "number_of_reviews": null,
    "price_level": "",
    "open_hours": "",
    "extraction_timestamp": "2025-06-07T15:22:31.630Z",
    "source_name": "google",
    "source_query": "Irrigation Equipment",
    "source_country": "DE",
    "country": "Germany",
    "state": "Hamburg",
    "city": "Rothenburgsort"
  },
  {
    "source_id": "ChIJA3QXrz-JsUcRYVrC3ZD3_04",
    "name": "Barfital",
    "category": "Barfital",
    "formatted_address": "4,8(418)",
    "phone_number": "+494036916238",
    "source_url": "https://www.google.com/maps/place/Barfital/data=!4m7!3m6!1s0x47b1893faf177403:0x4efff790ddc25a61!8m2!3d53.590653!4d10.0445378!16s%2Fg%2F11cks58mn2!19sChIJA3QXrz-JsUcRYVrC3ZD3_04?authuser=0&hl=tr&rclk=1",
    "website_url": "https://www.barfital.de/",
    "rating_text": "4,8",
    "stars": null,
    "number_of_reviews": null,
    "price_level": "",
    "open_hours": "",
    "extraction_timestamp": "2025-06-07T15:22:31.632Z",
    "source_name": "google",
    "source_query": "Irrigation Equipment",
    "source_country": "DE",
    "country": "Germany",
    "state": "Hamburg",
    "city": "Rothenburgsort"
  },
  {
    "source_id": "ChIJBWVWSpGNsUcRdf5fZnTvq2c",
    "name": "Midl Shop",
    "category": "Midl Shop",
    "formatted_address": "4,8(31)",
    "phone_number": "+494086621748",
    "source_url": "https://www.google.com/maps/place/Midl+Shop/data=!4m7!3m6!1s0x47b18d914a566505:0x67abef74665ffe75!8m2!3d53.4971179!4d10.1313793!16s%2Fg%2F11x33kfkl0!19sChIJBWVWSpGNsUcRdf5fZnTvq2c?authuser=0&hl=tr&rclk=1",
    "website_url": "",
    "rating_text": "4,8",
    "stars": null,
    "number_of_reviews": null,
    "price_level": "",
    "open_hours": "",
    "extraction_timestamp": "2025-06-07T15:22:31.632Z",
    "source_name": "google",
    "source_query": "Irrigation Equipment",
    "source_country": "DE",
    "country": "Germany",
    "state": "Hamburg",
    "city": "Rothenburgsort"
  }
]
