[
  {
    "source_id": "ChIJeyaw0HePsUcRQzOcSBEjl-k",
    "name": "Hanse Bau & Bewässerungstechnik GmbH",
    "category": "Hanse Bau & Bewässerungstechnik GmbH",
    "formatted_address": "5,0(14)",
    "phone_number": "+4917630563436",
    "source_url": "https://www.google.com/maps/place/Hanse+Bau+%26+Bew%C3%A4sserungstechnik+GmbH/data=!4m7!3m6!1s0x47b18f77d0b0267b:0xe9972311489c3343!8m2!3d53.6553614!4d10.113272!16s%2Fg%2F11kb_rmhm6!19sChIJeyaw0HePsUcRQzOcSBEjl-k?authuser=0&hl=tr&rclk=1",
    "website_url": "",
    "rating_text": "5,0",
    "stars": null,
    "number_of_reviews": null,
    "price_level": "",
    "open_hours": "",
    "extraction_timestamp": "2025-06-07T15:18:26.118Z",
    "source_name": "google",
    "source_query": "Irrigation Equipment",
    "source_country": "DE",
    "country": "Germany",
    "state": "Hamburg",
    "city": "Sasel"
  },
  {
    "source_id": "ChIJgaY2YHWKsUcRGvLaP0kP1a4",
    "name": "Hanjo Fecht Sanitärtechnik & Heizungsbau",
    "category": "Hanjo Fecht Sanitärtechnik & Heizungsbau",
    "formatted_address": "4,9(27)",
    "phone_number": "+494041114852",
    "source_url": "https://www.google.com/maps/place/Hanjo+Fecht+Sanit%C3%A4rtechnik+%26+Heizungsbau/data=!4m7!3m6!1s0x47b18a756036a681:0xaed50f493fdaf21a!8m2!3d53.65588!4d10.13178!16s%2Fg%2F1tjcnhp7!19sChIJgaY2YHWKsUcRGvLaP0kP1a4?authuser=0&hl=tr&rclk=1",
    "website_url": "",
    "rating_text": "4,9",
    "stars": null,
    "number_of_reviews": null,
    "price_level": "",
    "open_hours": "",
    "extraction_timestamp": "2025-06-07T15:18:26.119Z",
    "source_name": "google",
    "source_query": "Irrigation Equipment",
    "source_country": "DE",
    "country": "Germany",
    "state": "Hamburg",
    "city": "Sasel"
  },
  {
    "source_id": "ChIJZZBjh7iLsUcRXf4UqQc7LOI",
    "name": "Haustechnikmarkt24",
    "category": "Haustechnikmarkt24",
    "formatted_address": "4,8(84)",
    "phone_number": "+49406781955",
    "source_url": "https://www.google.com/maps/place/Haustechnikmarkt24/data=!4m7!3m6!1s0x47b18bb887639065:0xe22c3b07a914fe5d!8m2!3d53.6337527!4d10.0963162!16s%2Fg%2F11q_lcd1sy!19sChIJZZBjh7iLsUcRXf4UqQc7LOI?authuser=0&hl=tr&rclk=1",
    "website_url": "",
    "rating_text": "4,8",
    "stars": null,
    "number_of_reviews": null,
    "price_level": "",
    "open_hours": "",
    "extraction_timestamp": "2025-06-07T15:18:26.121Z",
    "source_name": "google",
    "source_query": "Irrigation Equipment",
    "source_country": "DE",
    "country": "Germany",
    "state": "Hamburg",
    "city": "Sasel"
  },
  {
    "source_id": "ChIJBQqFxhKKsUcRlkgdImgW41Y",
    "name": "Paul Kahl GmbH",
    "category": "Paul Kahl GmbH",
    "formatted_address": "3,5(34)",
    "phone_number": "+494088165360",
    "source_url": "https://www.google.com/maps/place/Paul+Kahl+GmbH/data=!4m7!3m6!1s0x47b18a12c6850a05:0x56e31668221d4896!8m2!3d53.6439692!4d10.1249017!16s%2Fg%2F1tdwjkhm!19sChIJBQqFxhKKsUcRlkgdImgW41Y?authuser=0&hl=tr&rclk=1",
    "website_url": "",
    "rating_text": "3,5",
    "stars": null,
    "number_of_reviews": null,
    "price_level": "",
    "open_hours": "",
    "extraction_timestamp": "2025-06-07T15:18:26.121Z",
    "source_name": "google",
    "source_query": "Irrigation Equipment",
    "source_country": "DE",
    "country": "Germany",
    "state": "Hamburg",
    "city": "Sasel"
  },
  {
    "source_id": "ChIJixz8c2zzsUcRvWDIvRaRRaY",
    "name": "ABS Bewässerungssysteme",
    "category": "ABS Bewässerungssysteme",
    "formatted_address": "5,0(10)",
    "phone_number": "+494020963222",
    "source_url": "https://www.google.com/maps/place/ABS+Bew%C3%A4sserungssysteme/data=!4m7!3m6!1s0x47b1f36c73fc1c8b:0xa6459116bdc860bd!8m2!3d53.4851575!4d10.1899135!16s%2Fg%2F11pwpgyn7x!19sChIJixz8c2zzsUcRvWDIvRaRRaY?authuser=0&hl=tr&rclk=1",
    "website_url": "",
    "rating_text": "5,0",
    "stars": null,
    "number_of_reviews": null,
    "price_level": "",
    "open_hours": "",
    "extraction_timestamp": "2025-06-07T15:18:26.122Z",
    "source_name": "google",
    "source_query": "Irrigation Equipment",
    "source_country": "DE",
    "country": "Germany",
    "state": "Hamburg",
    "city": "Sasel"
  },
  {
    "source_id": "ChIJvU8PzYiLsUcRN63-pVHr894",
    "name": "LG Gartenbau",
    "category": "LG Gartenbau",
    "formatted_address": "4,9(33)",
    "phone_number": "+4917684502055",
    "source_url": "https://www.google.com/maps/place/LG+Gartenbau/data=!4m7!3m6!1s0x47b18b88cd0f4fbd:0xdef3eb51a5fead37!8m2!3d53.6460001!4d10.1319523!16s%2Fg%2F11vysj54vk!19sChIJvU8PzYiLsUcRN63-pVHr894?authuser=0&hl=tr&rclk=1",
    "website_url": "",
    "rating_text": "4,9",
    "stars": null,
    "number_of_reviews": null,
    "price_level": "",
    "open_hours": "",
    "extraction_timestamp": "2025-06-07T15:18:26.123Z",
    "source_name": "google",
    "source_query": "Irrigation Equipment",
    "source_country": "DE",
    "country": "Germany",
    "state": "Hamburg",
    "city": "Sasel"
  },
  {
    "source_id": "ChIJweECHhqKsUcRBgIEQAntEX0",
    "name": "Gärtnerei Eggert Finder",
    "category": "Gärtnerei Eggert Finder",
    "formatted_address": "4,7(309)",
    "phone_number": "+49406016903",
    "source_url": "https://www.google.com/maps/place/G%C3%A4rtnerei+Eggert+Finder/data=!4m7!3m6!1s0x47b18a1a1e02e1c1:0x7d11ed0940040206!8m2!3d53.6418417!4d10.1074701!16s%2Fg%2F1trcfgxk!19sChIJweECHhqKsUcRBgIEQAntEX0?authuser=0&hl=tr&rclk=1",
    "website_url": "",
    "rating_text": "4,7",
    "stars": null,
    "number_of_reviews": null,
    "price_level": "",
    "open_hours": "",
    "extraction_timestamp": "2025-06-07T15:18:26.124Z",
    "source_name": "google",
    "source_query": "Irrigation Equipment",
    "source_country": "DE",
    "country": "Germany",
    "state": "Hamburg",
    "city": "Sasel"
  },
  {
    "source_id": "ChIJJ8q7TgGKsUcRleQtvuzmp6k",
    "name": "HAPPI MED Atlantis",
    "category": "HAPPI MED Atlantis",
    "formatted_address": "5,0(42)",
    "phone_number": "+49406017738",
    "source_url": "https://www.google.com/maps/place/HAPPI+MED+Atlantis/data=!4m7!3m6!1s0x47b18a014ebbca27:0xa9a7e6ecbe2de495!8m2!3d53.6536443!4d10.1054971!16s%2Fg%2F1tg5t31s!19sChIJJ8q7TgGKsUcRleQtvuzmp6k?authuser=0&hl=tr&rclk=1",
    "website_url": "",
    "rating_text": "5,0",
    "stars": null,
    "number_of_reviews": null,
    "price_level": "",
    "open_hours": "",
    "extraction_timestamp": "2025-06-07T15:18:26.125Z",
    "source_name": "google",
    "source_query": "Irrigation Equipment",
    "source_country": "DE",
    "country": "Germany",
    "state": "Hamburg",
    "city": "Sasel"
  },
  {
    "source_id": "ChIJLwbv3zyKsUcRw-hsUG1LZlQ",
    "name": "Karl-Ernst Rüters Klempnerei GmbH",
    "category": "Karl-Ernst Rüters Klempnerei GmbH",
    "formatted_address": "4,8(14)",
    "phone_number": "+49406401968",
    "source_url": "https://www.google.com/maps/place/Karl-Ernst+R%C3%BCters+Klempnerei+GmbH/data=!4m7!3m6!1s0x47b18a3cdfef062f:0x54664b6d506ce8c3!8m2!3d53.6352615!4d10.1246322!16s%2Fg%2F1th7xdg0!19sChIJLwbv3zyKsUcRw-hsUG1LZlQ?authuser=0&hl=tr&rclk=1",
    "website_url": "",
    "rating_text": "4,8",
    "stars": null,
    "number_of_reviews": null,
    "price_level": "",
    "open_hours": "",
    "extraction_timestamp": "2025-06-07T15:18:26.126Z",
    "source_name": "google",
    "source_query": "Irrigation Equipment",
    "source_country": "DE",
    "country": "Germany",
    "state": "Hamburg",
    "city": "Sasel"
  },
  {
    "source_id": "ChIJozZ0-PuJsUcR_RCrmrbjGtU",
    "name": "Søstrene Grene",
    "category": "Søstrene Grene",
    "formatted_address": "4,5(315)",
    "phone_number": "",
    "source_url": "https://www.google.com/maps/place/S%C3%B8strene+Grene/data=!4m7!3m6!1s0x47b189fbf87436a3:0xd51ae3b69aab10fd!8m2!3d53.6539964!4d10.0902617!16s%2Fg%2F11dx8_q1hj!19sChIJozZ0-PuJsUcR_RCrmrbjGtU?authuser=0&hl=tr&rclk=1",
    "website_url": "",
    "rating_text": "4,5",
    "stars": null,
    "number_of_reviews": null,
    "price_level": "",
    "open_hours": "",
    "extraction_timestamp": "2025-06-07T15:18:26.127Z",
    "source_name": "google",
    "source_query": "Irrigation Equipment",
    "source_country": "DE",
    "country": "Germany",
    "state": "Hamburg",
    "city": "Sasel"
  },
  {
    "source_id": "ChIJhYOS__uJsUcRexErNJ3ZXIE",
    "name": "INTERSPORT Knudsen",
    "category": "INTERSPORT Knudsen",
    "formatted_address": "4,2(248)",
    "phone_number": "+494063855840",
    "source_url": "https://www.google.com/maps/place/INTERSPORT+Knudsen/data=!4m7!3m6!1s0x47b189fbff928385:0x815cd99d342b117b!8m2!3d53.6542482!4d10.0910493!16s%2Fg%2F1tfbgsrr!19sChIJhYOS__uJsUcRexErNJ3ZXIE?authuser=0&hl=tr&rclk=1",
    "website_url": "",
    "rating_text": "4,2",
    "stars": null,
    "number_of_reviews": null,
    "price_level": "",
    "open_hours": "",
    "extraction_timestamp": "2025-06-07T15:18:26.128Z",
    "source_name": "google",
    "source_query": "Irrigation Equipment",
    "source_country": "DE",
    "country": "Germany",
    "state": "Hamburg",
    "city": "Sasel"
  },
  {
    "source_id": "ChIJVbw3xcKLsUcRtA22mO9bJgU",
    "name": "Michael Holzapfel GmbH & Co. KG",
    "category": "Michael Holzapfel GmbH & Co. KG",
    "formatted_address": "4,1(48)",
    "phone_number": "+49406408100",
    "source_url": "https://www.google.com/maps/place/Michael+Holzapfel+GmbH+%26+Co.+KG/data=!4m7!3m6!1s0x47b18bc2c537bc55:0x5265bef98b60db4!8m2!3d53.6435874!4d10.1287767!16s%2Fg%2F1tlw83sn!19sChIJVbw3xcKLsUcRtA22mO9bJgU?authuser=0&hl=tr&rclk=1",
    "website_url": "",
    "rating_text": "4,1",
    "stars": null,
    "number_of_reviews": null,
    "price_level": "",
    "open_hours": "",
    "extraction_timestamp": "2025-06-07T15:18:26.129Z",
    "source_name": "google",
    "source_query": "Irrigation Equipment",
    "source_country": "DE",
    "country": "Germany",
    "state": "Hamburg",
    "city": "Sasel"
  },
  {
    "source_id": "ChIJI7A5k3uLsUcRK-_gDiX2Pzs",
    "name": "Sasel Asia Markt",
    "category": "Sasel Asia Markt",
    "formatted_address": "4,8(175)",
    "phone_number": "+494076485715",
    "source_url": "https://www.google.com/maps/place/Sasel+Asia+Markt/data=!4m7!3m6!1s0x47b18b7b9339b023:0x3b3ff6250ee0ef2b!8m2!3d53.6536044!4d10.1142186!16s%2Fg%2F11fklwtdbr!19sChIJI7A5k3uLsUcRK-_gDiX2Pzs?authuser=0&hl=tr&rclk=1",
    "website_url": "",
    "rating_text": "4,8",
    "stars": null,
    "number_of_reviews": null,
    "price_level": "",
    "open_hours": "",
    "extraction_timestamp": "2025-06-07T15:18:26.130Z",
    "source_name": "google",
    "source_query": "Irrigation Equipment",
    "source_country": "DE",
    "country": "Germany",
    "state": "Hamburg",
    "city": "Sasel"
  },
  {
    "source_id": "ChIJhYOS__uJsUcRNwDYm5jCkOY",
    "name": "HOBBY + TECHNIK by HARTFELDER Spielzeug GmbH",
    "category": "HOBBY + TECHNIK by HARTFELDER Spielzeug GmbH",
    "formatted_address": "4,2(105)",
    "phone_number": "+494061169528",
    "source_url": "https://www.google.com/maps/place/HOBBY+%2B+TECHNIK+by+HARTFELDER+Spielzeug+GmbH/data=!4m7!3m6!1s0x47b189fbff928385:0xe690c2989bd80037!8m2!3d53.6546788!4d10.0912476!16s%2Fg%2F11c5rrcq_r!19sChIJhYOS__uJsUcRNwDYm5jCkOY?authuser=0&hl=tr&rclk=1",
    "website_url": "",
    "rating_text": "4,2",
    "stars": null,
    "number_of_reviews": null,
    "price_level": "",
    "open_hours": "",
    "extraction_timestamp": "2025-06-07T15:18:26.131Z",
    "source_name": "google",
    "source_query": "Irrigation Equipment",
    "source_country": "DE",
    "country": "Germany",
    "state": "Hamburg",
    "city": "Sasel"
  },
  {
    "source_id": "ChIJDZzYshyKsUcR1FcTIzxMWdU",
    "name": "BabyOne Hamburg-Sasel - Die großen Babyfachmärkte",
    "category": "BabyOne Hamburg-Sasel - Die großen Babyfachmärkte",
    "formatted_address": "3,9(247)",
    "phone_number": "+49406001980",
    "source_url": "https://www.google.com/maps/place/BabyOne+Hamburg-Sasel+-+Die+gro%C3%9Fen+Babyfachm%C3%A4rkte/data=!4m7!3m6!1s0x47b18a1cb2d89c0d:0xd5594c3c231357d4!8m2!3d53.647452!4d10.10265!16s%2Fg%2F1thgg25f!19sChIJDZzYshyKsUcR1FcTIzxMWdU?authuser=0&hl=tr&rclk=1",
    "website_url": "",
    "rating_text": "3,9",
    "stars": null,
    "number_of_reviews": null,
    "price_level": "",
    "open_hours": "",
    "extraction_timestamp": "2025-06-07T15:18:26.132Z",
    "source_name": "google",
    "source_query": "Irrigation Equipment",
    "source_country": "DE",
    "country": "Germany",
    "state": "Hamburg",
    "city": "Sasel"
  },
  {
    "source_id": "ChIJc_gdTwGKsUcRZ82tnUkJPD8",
    "name": "STOLLE Sanitätshaus Sasel",
    "category": "STOLLE Sanitätshaus Sasel",
    "formatted_address": "4,0(12)",
    "phone_number": "+494078898123",
    "source_url": "https://www.google.com/maps/place/STOLLE+Sanit%C3%A4tshaus+Sasel/data=!4m7!3m6!1s0x47b18a014f1df873:0x3f3c09499dadcd67!8m2!3d53.6541096!4d10.1113619!16s%2Fg%2F1tfgng77!19sChIJc_gdTwGKsUcRZ82tnUkJPD8?authuser=0&hl=tr&rclk=1",
    "website_url": "",
    "rating_text": "4,0",
    "stars": null,
    "number_of_reviews": null,
    "price_level": "",
    "open_hours": "",
    "extraction_timestamp": "2025-06-07T15:18:26.133Z",
    "source_name": "google",
    "source_query": "Irrigation Equipment",
    "source_country": "DE",
    "country": "Germany",
    "state": "Hamburg",
    "city": "Sasel"
  },
  {
    "source_id": "ChIJ_wmBUeWKsUcRZBx5Ia1U6NE",
    "name": "A-Z heko Pumpen GmbH",
    "category": "A-Z heko Pumpen GmbH",
    "formatted_address": "4,6(14)",
    "phone_number": "+49406786606",
    "source_url": "https://www.google.com/maps/place/A-Z+heko+Pumpen+GmbH/data=!4m7!3m6!1s0x47b18ae5518109ff:0xd1e854ad21791c64!8m2!3d53.6200497!4d10.1622254!16s%2Fg%2F1vzg197d!19sChIJ_wmBUeWKsUcRZBx5Ia1U6NE?authuser=0&hl=tr&rclk=1",
    "website_url": "",
    "rating_text": "4,6",
    "stars": null,
    "number_of_reviews": null,
    "price_level": "",
    "open_hours": "",
    "extraction_timestamp": "2025-06-07T15:18:26.134Z",
    "source_name": "google",
    "source_query": "Irrigation Equipment",
    "source_country": "DE",
    "country": "Germany",
    "state": "Hamburg",
    "city": "Sasel"
  },
  {
    "source_id": "ChIJo2L3gfqKsUcRcFspYRTmN78",
    "name": "Halbroeder Heizung & Sanitär GmbH",
    "category": "Halbroeder Heizung & Sanitär GmbH",
    "formatted_address": "4,6(20)",
    "phone_number": "+491737394608",
    "source_url": "https://www.google.com/maps/place/Halbroeder+Heizung+%26+Sanit%C3%A4r+GmbH/data=!4m7!3m6!1s0x47b18afa81f762a3:0xbf37e61461295b70!8m2!3d53.6562388!4d10.1490556!16s%2Fg%2F11dxfqdfl4!19sChIJo2L3gfqKsUcRcFspYRTmN78?authuser=0&hl=tr&rclk=1",
    "website_url": "",
    "rating_text": "4,6",
    "stars": null,
    "number_of_reviews": null,
    "price_level": "",
    "open_hours": "",
    "extraction_timestamp": "2025-06-07T15:18:26.136Z",
    "source_name": "google",
    "source_query": "Irrigation Equipment",
    "source_country": "DE",
    "country": "Germany",
    "state": "Hamburg",
    "city": "Sasel"
  },
  {
    "source_id": "ChIJl94mEyshskcRKafsx59mW_4",
    "name": "Spangenberg und Schneider Heizungstechnik",
    "category": "Spangenberg und Schneider Heizungstechnik",
    "formatted_address": "4,9(80)",
    "phone_number": "+49406083036",
    "source_url": "https://www.google.com/maps/place/Spangenberg+und+Schneider+Heizungstechnik/data=!4m7!3m6!1s0x47b2212b1326de97:0xfe5b669fc7eca729!8m2!3d53.6748987!4d10.1398209!16s%2Fg%2F1v29b1zx!19sChIJl94mEyshskcRKafsx59mW_4?authuser=0&hl=tr&rclk=1",
    "website_url": "",
    "rating_text": "4,9",
    "stars": null,
    "number_of_reviews": null,
    "price_level": "",
    "open_hours": "",
    "extraction_timestamp": "2025-06-07T15:18:26.137Z",
    "source_name": "google",
    "source_query": "Irrigation Equipment",
    "source_country": "DE",
    "country": "Germany",
    "state": "Hamburg",
    "city": "Sasel"
  },
  {
    "source_id": "ChIJA-Jf17sgskcR3kXFQZ96cwk",
    "name": "Gärtner Albrecht Landschaftsgestalter | Hamburg",
    "category": "Gärtner Albrecht Landschaftsgestalter | Hamburg",
    "formatted_address": "4,1(14)",
    "phone_number": "+491607847011",
    "source_url": "https://www.google.com/maps/place/G%C3%A4rtner+Albrecht+Landschaftsgestalter+%7C+Hamburg/data=!4m7!3m6!1s0x47b220bbd75fe203:0x9737a9f41c545de!8m2!3d53.6743436!4d10.1277063!16s%2Fg%2F1wk4c3cm!19sChIJA-Jf17sgskcR3kXFQZ96cwk?authuser=0&hl=tr&rclk=1",
    "website_url": "",
    "rating_text": "4,1",
    "stars": null,
    "number_of_reviews": null,
    "price_level": "",
    "open_hours": "",
    "extraction_timestamp": "2025-06-07T15:18:26.138Z",
    "source_name": "google",
    "source_query": "Irrigation Equipment",
    "source_country": "DE",
    "country": "Germany",
    "state": "Hamburg",
    "city": "Sasel"
  },
  {
    "source_id": "ChIJSUZgjJ7zsUcRGNl_VpImWy8",
    "name": "planty47.de - Top Grow & Dünger Spezial-Shop",
    "category": "planty47.de - Top Grow & Dünger Spezial-Shop",
    "formatted_address": "4,5(8)",
    "phone_number": "+49405247964624",
    "source_url": "https://www.google.com/maps/place/planty47.de+-+Top+Grow+%26+D%C3%BCnger+Spezial-Shop/data=!4m7!3m6!1s0x47b1f39e8c604649:0x2f5b2692567fd918!8m2!3d53.4821588!4d10.1976035!16s%2Fg%2F11wc20qlfc!19sChIJSUZgjJ7zsUcRGNl_VpImWy8?authuser=0&hl=tr&rclk=1",
    "website_url": "",
    "rating_text": "4,5",
    "stars": null,
    "number_of_reviews": null,
    "price_level": "",
    "open_hours": "",
    "extraction_timestamp": "2025-06-07T15:18:26.139Z",
    "source_name": "google",
    "source_query": "Irrigation Equipment",
    "source_country": "DE",
    "country": "Germany",
    "state": "Hamburg",
    "city": "Sasel"
  },
  {
    "source_id": "ChIJYRRrsNiLsUcRY3ZjM7KXb6A",
    "name": "Köster Pumpen Joachim Köster GmbH",
    "category": "Köster Pumpen Joachim Köster GmbH",
    "formatted_address": "4,4(7)",
    "phone_number": "+491716005534",
    "source_url": "https://www.google.com/maps/place/K%C3%B6ster+Pumpen+Joachim+K%C3%B6ster+GmbH/data=!4m7!3m6!1s0x47b18bd8b06b1461:0xa06f97b233637663!8m2!3d53.5893283!4d10.0502693!16s%2Fg%2F1tcwq5s3!19sChIJYRRrsNiLsUcRY3ZjM7KXb6A?authuser=0&hl=tr&rclk=1",
    "website_url": "",
    "rating_text": "4,4",
    "stars": null,
    "number_of_reviews": null,
    "price_level": "",
    "open_hours": "",
    "extraction_timestamp": "2025-06-07T15:18:26.140Z",
    "source_name": "google",
    "source_query": "Irrigation Equipment",
    "source_country": "DE",
    "country": "Germany",
    "state": "Hamburg",
    "city": "Sasel"
  },
  {
    "source_id": "ChIJR46IprL0sUcRjsyWnSQDxvM",
    "name": "Quasdorf & Kagemann GmbH",
    "category": "Quasdorf & Kagemann GmbH",
    "formatted_address": "5,0(27)",
    "phone_number": "+49406706121",
    "source_url": "https://www.google.com/maps/place/Quasdorf+%26+Kagemann+GmbH/data=!4m7!3m6!1s0x47b1f4b2a6888e47:0xf3c603249d96cc8e!8m2!3d53.57455!4d10.19131!16s%2Fg%2F1tfvg8hb!19sChIJR46IprL0sUcRjsyWnSQDxvM?authuser=0&hl=tr&rclk=1",
    "website_url": "",
    "rating_text": "5,0",
    "stars": null,
    "number_of_reviews": null,
    "price_level": "",
    "open_hours": "",
    "extraction_timestamp": "2025-06-07T15:18:26.141Z",
    "source_name": "google",
    "source_query": "Irrigation Equipment",
    "source_country": "DE",
    "country": "Germany",
    "state": "Hamburg",
    "city": "Sasel"
  },
  {
    "source_id": "ChIJfdrPjSgnskcR0F4IgNR-0o4",
    "name": "Pflanzen Körner",
    "category": "Pflanzen Körner",
    "formatted_address": "4,3(587)",
    "phone_number": "+49406076910",
    "source_url": "https://www.google.com/maps/place/Pflanzen+K%C3%B6rner/data=!4m7!3m6!1s0x47b227288dcfda7d:0x8ed27ed480085ed0!8m2!3d53.6990373!4d10.1011835!16s%2Fg%2F1tdxv230!19sChIJfdrPjSgnskcR0F4IgNR-0o4?authuser=0&hl=tr&rclk=1",
    "website_url": "",
    "rating_text": "4,3",
    "stars": null,
    "number_of_reviews": null,
    "price_level": "",
    "open_hours": "",
    "extraction_timestamp": "2025-06-07T15:18:26.142Z",
    "source_name": "google",
    "source_query": "Irrigation Equipment",
    "source_country": "DE",
    "country": "Germany",
    "state": "Hamburg",
    "city": "Sasel"
  },
  {
    "source_id": "ChIJb4z31WUnskcRrYl99u7nEJg",
    "name": "Drägert Gebäudetechnik GmbH",
    "category": "Drägert Gebäudetechnik GmbH",
    "formatted_address": "4,7(29)",
    "phone_number": "+494047110060",
    "source_url": "https://www.google.com/maps/place/Dr%C3%A4gert+Geb%C3%A4udetechnik+GmbH/data=!4m7!3m6!1s0x47b22765d5f78c6f:0x9810e7eef67d89ad!8m2!3d53.6678773!4d10.0699406!16s%2Fg%2F1th09hky!19sChIJb4z31WUnskcRrYl99u7nEJg?authuser=0&hl=tr&rclk=1",
    "website_url": "",
    "rating_text": "4,7",
    "stars": null,
    "number_of_reviews": null,
    "price_level": "",
    "open_hours": "",
    "extraction_timestamp": "2025-06-07T15:18:26.143Z",
    "source_name": "google",
    "source_query": "Irrigation Equipment",
    "source_country": "DE",
    "country": "Germany",
    "state": "Hamburg",
    "city": "Sasel"
  },
  {
    "source_id": "ChIJywsKSWYnskcRU2DIIjxZ5eY",
    "name": "Mackens + Sohn GmbH",
    "category": "Mackens + Sohn GmbH",
    "formatted_address": "4,8(30)",
    "phone_number": "+49406087250",
    "source_url": "https://www.google.com/maps/place/Mackens+%2B+Sohn+GmbH/data=!4m7!3m6!1s0x47b22766490a0bcb:0xe6e5593c22c86053!8m2!3d53.6705946!4d10.0706213!16s%2Fg%2F1tj1r3yt!19sChIJywsKSWYnskcRU2DIIjxZ5eY?authuser=0&hl=tr&rclk=1",
    "website_url": "",
    "rating_text": "4,8",
    "stars": null,
    "number_of_reviews": null,
    "price_level": "",
    "open_hours": "",
    "extraction_timestamp": "2025-06-07T15:18:26.144Z",
    "source_name": "google",
    "source_query": "Irrigation Equipment",
    "source_country": "DE",
    "country": "Germany",
    "state": "Hamburg",
    "city": "Sasel"
  },
  {
    "source_id": "ChIJBRV_lJCLsUcR2SA8gjrjqYc",
    "name": "AQUARIUM TONNDORF",
    "category": "AQUARIUM TONNDORF",
    "formatted_address": "4,5(911)",
    "phone_number": "+4940662646",
    "source_url": "https://www.google.com/maps/place/AQUARIUM+TONNDORF/data=!4m7!3m6!1s0x47b18b90947f1505:0x87a9e33a823c20d9!8m2!3d53.584423!4d10.116477!16s%2Fg%2F1tfzwk6w!19sChIJBRV_lJCLsUcR2SA8gjrjqYc?authuser=0&hl=tr&rclk=1",
    "website_url": "",
    "rating_text": "4,5",
    "stars": null,
    "number_of_reviews": null,
    "price_level": "",
    "open_hours": "",
    "extraction_timestamp": "2025-06-07T15:18:26.145Z",
    "source_name": "google",
    "source_query": "Irrigation Equipment",
    "source_country": "DE",
    "country": "Germany",
    "state": "Hamburg",
    "city": "Sasel"
  },
  {
    "source_id": "ChIJL0Fwoe2PsUcRqCK-GWyYl28",
    "name": "24h Rohr & Kanal Hilfe GmbH Abfluss & Rohrreinigung Kanalreinigung Kanaluntersuchung Kanalsanierung WC & Küchen Entstopfung",
    "category": "24h Rohr & Kanal Hilfe GmbH Abfluss & Rohrreinigung Kanalreinigung Kanaluntersuchung Kanalsanierung WC & Küchen Entstopfung",
    "formatted_address": "24h Rohr & Kanal Hilfe GmbH Abfluss & Rohrreinigung Kanalreinigung Kanaluntersuchung Kanalsanierung WC & Küchen Entstopfung",
    "phone_number": "+4930924",
    "source_url": "https://www.google.com/maps/place/24h+Rohr+%26+Kanal+Hilfe+GmbH+Abfluss+%26+Rohrreinigung+Kanalreinigung+Kanaluntersuchung+Kanalsanierung+WC+%26+K%C3%BCchen+Entstopfung/data=!4m7!3m6!1s0x47b18feda170412f:0x6f97986c19be22a8!8m2!3d53.5511691!4d10.0424434!16s%2Fg%2F11s5sfx52v!19sChIJL0Fwoe2PsUcRqCK-GWyYl28?authuser=0&hl=tr&rclk=1",
    "website_url": "",
    "rating_text": "4,9",
    "stars": null,
    "number_of_reviews": null,
    "price_level": "",
    "open_hours": "",
    "extraction_timestamp": "2025-06-07T15:18:26.145Z",
    "source_name": "google",
    "source_query": "Irrigation Equipment",
    "source_country": "DE",
    "country": "Germany",
    "state": "Hamburg",
    "city": "Sasel"
  },
  {
    "source_id": "ChIJB9rF9f6JsUcRaLyN_RsgwoI",
    "name": "MediaMarkt Hamburg Poppenbüttel",
    "category": "MediaMarkt Hamburg Poppenbüttel",
    "formatted_address": "4,0(2.040)",
    "phone_number": "+4922122243333",
    "source_url": "https://www.google.com/maps/place/MediaMarkt+Hamburg+Poppenb%C3%BCttel/data=!4m7!3m6!1s0x47b189fef5c5da07:0x82c2201bfd8dbc68!8m2!3d53.6558786!4d10.0945584!16s%2Fg%2F1td5q9zp!19sChIJB9rF9f6JsUcRaLyN_RsgwoI?authuser=0&hl=tr&rclk=1",
    "website_url": "",
    "rating_text": "4,0",
    "stars": null,
    "number_of_reviews": null,
    "price_level": "",
    "open_hours": "",
    "extraction_timestamp": "2025-06-07T15:18:26.147Z",
    "source_name": "google",
    "source_query": "Irrigation Equipment",
    "source_country": "DE",
    "country": "Germany",
    "state": "Hamburg",
    "city": "Sasel"
  },
  {
    "source_id": "ChIJs8T9XuK6Y0EROu0xZg50keg",
    "name": "Jürgen Tiedtke Heizungs- und Lüftungstechnik GmbH",
    "category": "Jürgen Tiedtke Heizungs- und Lüftungstechnik GmbH",
    "formatted_address": "4,6(41)",
    "phone_number": "+494064221138",
    "source_url": "https://www.google.com/maps/place/J%C3%BCrgen+Tiedtke+Heizungs-+und+L%C3%BCftungstechnik+GmbH/data=!4m7!3m6!1s0x4163bae25efdc4b3:0xe891740e6631ed3a!8m2!3d53.5976271!4d10.0736547!16s%2Fg%2F1vrq8pzh!19sChIJs8T9XuK6Y0EROu0xZg50keg?authuser=0&hl=tr&rclk=1",
    "website_url": "",
    "rating_text": "4,6",
    "stars": null,
    "number_of_reviews": null,
    "price_level": "",
    "open_hours": "",
    "extraction_timestamp": "2025-06-07T15:18:26.148Z",
    "source_name": "google",
    "source_query": "Irrigation Equipment",
    "source_country": "DE",
    "country": "Germany",
    "state": "Hamburg",
    "city": "Sasel"
  }
]
