[
  {
    "source_id": "ChIJgT8pVmmPsUcRrDBrbpCz3oA",
    "name": "Ferd. Schüllenbach e. K.",
    "category": "Ferd. Schüllenbach e. K.",
    "formatted_address": "4,9(290)",
    "phone_number": "+49404393014",
    "source_url": "https://www.google.com/maps/place/Ferd.+Sch%C3%BCllenbach+e.+K./data=!4m7!3m6!1s0x47b18f6956293f81:0x80deb3906e6b30ac!8m2!3d53.5557454!4d9.9640275!16s%2Fg%2F1v8gb24_!19sChIJgT8pVmmPsUcRrDBrbpCz3oA?authuser=0&hl=tr&rclk=1",
    "website_url": "",
    "rating_text": "4,9",
    "stars": null,
    "number_of_reviews": null,
    "price_level": "",
    "open_hours": "",
    "extraction_timestamp": "2025-06-07T15:17:54.385Z",
    "source_name": "google",
    "source_query": "Irrigation Equipment",
    "source_country": "DE",
    "country": "Germany",
    "state": "Hamburg",
    "city": "St. Pauli"
  },
  {
    "source_id": "ChIJyR2oh2mPsUcRBUimjPaxPJ4",
    "name": "Pflanzburg GmbH Growshop",
    "category": "Pflanzburg GmbH Growshop",
    "formatted_address": "4,2(116)",
    "phone_number": "+49404305399",
    "source_url": "https://www.google.com/maps/place/Pflanzburg+GmbH+Growshop/data=!4m7!3m6!1s0x47b18f6987a81dc9:0x9e3cb1f68ca64805!8m2!3d53.5584828!4d9.9645599!16s%2Fg%2F1tf6wdmc!19sChIJyR2oh2mPsUcRBUimjPaxPJ4?authuser=0&hl=tr&rclk=1",
    "website_url": "https://pflanzburg.de/",
    "rating_text": "4,2",
    "stars": null,
    "number_of_reviews": null,
    "price_level": "",
    "open_hours": "",
    "extraction_timestamp": "2025-06-07T15:17:54.387Z",
    "source_name": "google",
    "source_query": "Irrigation Equipment",
    "source_country": "DE",
    "country": "Germany",
    "state": "Hamburg",
    "city": "St. Pauli"
  },
  {
    "source_id": "ChIJVVVl1B-PsUcRe0sT8uYkNPU",
    "name": "TurfPro GmbH",
    "category": "TurfPro GmbH",
    "formatted_address": "4,3(16)",
    "phone_number": "+494084895219",
    "source_url": "https://www.google.com/maps/place/TurfPro+GmbH/data=!4m7!3m6!1s0x47b18f1fd4655555:0xf53424e6f2134b7b!8m2!3d53.5551215!4d10.00104!16s%2Fg%2F11g1f90l5g!19sChIJVVVl1B-PsUcRe0sT8uYkNPU?authuser=0&hl=tr&rclk=1",
    "website_url": "https://www.turfpro.de/kontakt/",
    "rating_text": "4,3",
    "stars": null,
    "number_of_reviews": null,
    "price_level": "",
    "open_hours": "",
    "extraction_timestamp": "2025-06-07T15:17:54.388Z",
    "source_name": "google",
    "source_query": "Irrigation Equipment",
    "source_country": "DE",
    "country": "Germany",
    "state": "Hamburg",
    "city": "St. Pauli"
  },
  {
    "source_id": "ChIJQbTavmyPsUcRayJzVXVtVKM",
    "name": "FC St. Pauli fan shop 2",
    "category": "FC St. Pauli fan shop 2",
    "formatted_address": "4,6(1.482)",
    "phone_number": "+4914824",
    "source_url": "https://www.google.com/maps/place/FC+St.+Pauli+fan+shop+2/data=!4m7!3m6!1s0x47b18f6cbedab441:0xa3546d755573226b!8m2!3d53.5497761!4d9.9632207!16s%2Fg%2F1tdf0dm4!19sChIJQbTavmyPsUcRayJzVXVtVKM?authuser=0&hl=tr&rclk=1",
    "website_url": "http://fcsp-shop.com/",
    "rating_text": "4,6",
    "stars": null,
    "number_of_reviews": null,
    "price_level": "",
    "open_hours": "",
    "extraction_timestamp": "2025-06-07T15:17:54.390Z",
    "source_name": "google",
    "source_query": "Irrigation Equipment",
    "source_country": "DE",
    "country": "Germany",
    "state": "Hamburg",
    "city": "St. Pauli"
  },
  {
    "source_id": "ChIJ21rP6muPsUcRyS9nTqd1z1w",
    "name": "Rindermarkthalle",
    "category": "Rindermarkthalle",
    "formatted_address": "4,4(8.034)",
    "phone_number": "+4980344",
    "source_url": "https://www.google.com/maps/place/Rindermarkthalle/data=!4m7!3m6!1s0x47b18f6beacf5adb:0x5ccf75a74e672fc9!8m2!3d53.5565834!4d9.9663322!16s%2Fg%2F1q67j9t4b!19sChIJ21rP6muPsUcRyS9nTqd1z1w?authuser=0&hl=tr&rclk=1",
    "website_url": "http://www.rindermarkthalle-stpauli.de/",
    "rating_text": "4,4",
    "stars": null,
    "number_of_reviews": null,
    "price_level": "",
    "open_hours": "",
    "extraction_timestamp": "2025-06-07T15:17:54.391Z",
    "source_name": "google",
    "source_query": "Irrigation Equipment",
    "source_country": "DE",
    "country": "Germany",
    "state": "Hamburg",
    "city": "St. Pauli"
  },
  {
    "source_id": "ChIJixz8c2zzsUcRvWDIvRaRRaY",
    "name": "ABS Bewässerungssysteme",
    "category": "ABS Bewässerungssysteme",
    "formatted_address": "5,0(10)",
    "phone_number": "+494020963222",
    "source_url": "https://www.google.com/maps/place/ABS+Bew%C3%A4sserungssysteme/data=!4m7!3m6!1s0x47b1f36c73fc1c8b:0xa6459116bdc860bd!8m2!3d53.4851575!4d10.1899135!16s%2Fg%2F11pwpgyn7x!19sChIJixz8c2zzsUcRvWDIvRaRRaY?authuser=0&hl=tr&rclk=1",
    "website_url": "http://www.abs-bewaesserung.de/",
    "rating_text": "5,0",
    "stars": null,
    "number_of_reviews": null,
    "price_level": "",
    "open_hours": "",
    "extraction_timestamp": "2025-06-07T15:17:54.412Z",
    "source_name": "google",
    "source_query": "Irrigation Equipment",
    "source_country": "DE",
    "country": "Germany",
    "state": "Hamburg",
    "city": "St. Pauli"
  },
  {
    "source_id": "ChIJ3eT_em2PsUcRrWuakTzrSo4",
    "name": "a&o Hamburg Reeperbahn",
    "category": "a&o Hamburg Reeperbahn",
    "formatted_address": "2,9(5.736)",
    "phone_number": "+494031769994600",
    "source_url": "https://www.google.com/maps/place/a%26o+Hamburg+Reeperbahn/data=!4m10!3m9!1s0x47b18f6d7affe4dd:0x8e4aeb3c919a6bad!5m2!4m1!1i2!8m2!3d53.5497416!4d9.958747!16s%2Fg%2F1tk9pv00!19sChIJ3eT_em2PsUcRrWuakTzrSo4?authuser=0&hl=tr&rclk=1",
    "website_url": "https://www.aohostels.com/house/hamburg-reeperbahn/",
    "rating_text": "2,9",
    "stars": null,
    "number_of_reviews": null,
    "price_level": "",
    "open_hours": "",
    "extraction_timestamp": "2025-06-07T15:17:54.414Z",
    "source_name": "google",
    "source_query": "Irrigation Equipment",
    "source_country": "DE",
    "country": "Germany",
    "state": "Hamburg",
    "city": "St. Pauli"
  },
  {
    "source_id": "ChIJh9i68XGPsUcRnfgX_k4JjWk",
    "name": "Alkotheke St. Pauli",
    "category": "Alkotheke St. Pauli",
    "formatted_address": "4,4(179) · €10–20",
    "phone_number": "",
    "source_url": "https://www.google.com/maps/place/Alkotheke+St.+Pauli/data=!4m7!3m6!1s0x47b18f71f1bad887:0x698d094efe17f89d!8m2!3d53.549189!4d9.96079!16s%2Fg%2F11gf5tdynp!19sChIJh9i68XGPsUcRnfgX_k4JjWk?authuser=0&hl=tr&rclk=1",
    "website_url": "http://alkotheke.com/",
    "rating_text": "4,4",
    "stars": null,
    "number_of_reviews": null,
    "price_level": "",
    "open_hours": "",
    "extraction_timestamp": "2025-06-07T15:17:54.416Z",
    "source_name": "google",
    "source_query": "Irrigation Equipment",
    "source_country": "DE",
    "country": "Germany",
    "state": "Hamburg",
    "city": "St. Pauli"
  },
  {
    "source_id": "ChIJW6MvaXKPsUcRWkxe5R3jn4w",
    "name": "Spirituosen Fachgeschäft Sigvald Hansen",
    "category": "Spirituosen Fachgeschäft Sigvald Hansen",
    "formatted_address": "4,7(35)",
    "phone_number": "+4940314174",
    "source_url": "https://www.google.com/maps/place/Spirituosen+Fachgesch%C3%A4ft+Sigvald+Hansen/data=!4m7!3m6!1s0x47b18f72692fa35b:0x8c9fe31de55e4c5a!8m2!3d53.5487646!4d9.9639367!16s%2Fg%2F1vkxl9tz!19sChIJW6MvaXKPsUcRWkxe5R3jn4w?authuser=0&hl=tr&rclk=1",
    "website_url": "https://sigvald-hansen.de/",
    "rating_text": "4,7",
    "stars": null,
    "number_of_reviews": null,
    "price_level": "",
    "open_hours": "",
    "extraction_timestamp": "2025-06-07T15:17:54.417Z",
    "source_name": "google",
    "source_query": "Irrigation Equipment",
    "source_country": "DE",
    "country": "Germany",
    "state": "Hamburg",
    "city": "St. Pauli"
  },
  {
    "source_id": "ChIJibAuNjmPsUcRSL3s_Z610j4",
    "name": "Weinladen | St. Pauli",
    "category": "Weinladen | St. Pauli",
    "formatted_address": "4,6(380)",
    "phone_number": "",
    "source_url": "https://www.google.com/maps/place/Weinladen+%7C+St.+Pauli/data=!4m7!3m6!1s0x47b18f39362eb089:0x3ed2b59efdecbd48!8m2!3d53.5531408!4d9.957803!16s%2Fg%2F11b6hydrrw!19sChIJibAuNjmPsUcRSL3s_Z610j4?authuser=0&hl=tr&rclk=1",
    "website_url": "https://www.weinladen.de/",
    "rating_text": "4,6",
    "stars": null,
    "number_of_reviews": null,
    "price_level": "",
    "open_hours": "",
    "extraction_timestamp": "2025-06-07T15:17:54.418Z",
    "source_name": "google",
    "source_query": "Irrigation Equipment",
    "source_country": "DE",
    "country": "Germany",
    "state": "Hamburg",
    "city": "St. Pauli"
  },
  {
    "source_id": "ChIJFXxKmBiPsUcRpc0Eo6YfaV4",
    "name": "Kiez Shop St.Pauli",
    "category": "Kiez Shop St.Pauli",
    "formatted_address": "4,7(13)",
    "phone_number": "",
    "source_url": "https://www.google.com/maps/place/Kiez+Shop+St.Pauli/data=!4m7!3m6!1s0x47b18f18984a7c15:0x5e691fa6a304cda5!8m2!3d53.5550763!4d9.9643121!16s%2Fg%2F11g0kct4bf!19sChIJFXxKmBiPsUcRpc0Eo6YfaV4?authuser=0&hl=tr&rclk=1",
    "website_url": "http://kiezshopstpauli.eatbu.com/",
    "rating_text": "4,7",
    "stars": null,
    "number_of_reviews": null,
    "price_level": "",
    "open_hours": "",
    "extraction_timestamp": "2025-06-07T15:17:54.418Z",
    "source_name": "google",
    "source_query": "Irrigation Equipment",
    "source_country": "DE",
    "country": "Germany",
    "state": "Hamburg",
    "city": "St. Pauli"
  },
  {
    "source_id": "ChIJnQn-7D2PsUcRXC53QWChQkM",
    "name": "Planten un Blomen",
    "category": "Planten un Blomen",
    "formatted_address": "4,8(24.077)",
    "phone_number": "+49240774",
    "source_url": "https://www.google.com/maps/place/Planten+un+Blomen/data=!4m7!3m6!1s0x47b18f3decfe099d:0x4342a16041772e5c!8m2!3d53.5620171!4d9.9820652!16s%2Fm%2F03y8_nx!19sChIJnQn-7D2PsUcRXC53QWChQkM?authuser=0&hl=tr&rclk=1",
    "website_url": "https://plantenunblomen.hamburg.de/",
    "rating_text": "4,8",
    "stars": null,
    "number_of_reviews": null,
    "price_level": "",
    "open_hours": "",
    "extraction_timestamp": "2025-06-07T15:17:54.420Z",
    "source_name": "google",
    "source_query": "Irrigation Equipment",
    "source_country": "DE",
    "country": "Germany",
    "state": "Hamburg",
    "city": "St. Pauli"
  },
  {
    "source_id": "ChIJ4R34GoKPsUcR_Di8Y72u1Q4",
    "name": "AN-Beregnungstechnik",
    "category": "AN-Beregnungstechnik",
    "formatted_address": "",
    "phone_number": "+4917673517226",
    "source_url": "https://www.google.com/maps/place/AN-Beregnungstechnik/data=!4m7!3m6!1s0x47b18f821af81de1:0xed5aebd63bc38fc!8m2!3d53.5576744!4d10.0112776!16s%2Fg%2F11x33m21xg!19sChIJ4R34GoKPsUcR_Di8Y72u1Q4?authuser=0&hl=tr&rclk=1",
    "website_url": "",
    "rating_text": "",
    "stars": null,
    "number_of_reviews": null,
    "price_level": "",
    "open_hours": "",
    "extraction_timestamp": "2025-06-07T15:17:54.421Z",
    "source_name": "google",
    "source_query": "Irrigation Equipment",
    "source_country": "DE",
    "country": "Germany",
    "state": "Hamburg",
    "city": "St. Pauli"
  },
  {
    "source_id": "ChIJpbWaX3KPsUcRsuM3AO3YIyk",
    "name": "The Chug Club",
    "category": "The Chug Club",
    "formatted_address": "4,8(1.168) · €10–20",
    "phone_number": "+491168",
    "source_url": "https://www.google.com/maps/place/The+Chug+Club/data=!4m7!3m6!1s0x47b18f725f9ab5a5:0x2923d8ed0037e3b2!8m2!3d53.5482287!4d9.9649625!16s%2Fg%2F11bwl3kfb9!19sChIJpbWaX3KPsUcRsuM3AO3YIyk?authuser=0&hl=tr&rclk=1",
    "website_url": "http://www.thechugclub.bar/",
    "rating_text": "4,8",
    "stars": null,
    "number_of_reviews": null,
    "price_level": "",
    "open_hours": "",
    "extraction_timestamp": "2025-06-07T15:17:54.422Z",
    "source_name": "google",
    "source_query": "Irrigation Equipment",
    "source_country": "DE",
    "country": "Germany",
    "state": "Hamburg",
    "city": "St. Pauli"
  },
  {
    "source_id": "ChIJec6MMCKPsUcRr2yBggG3P-s",
    "name": "Astra St. Pauli Brauerei",
    "category": "Astra St. Pauli Brauerei",
    "formatted_address": "4,3(1.586) · €20–30",
    "phone_number": "+491586",
    "source_url": "https://www.google.com/maps/place/Astra+St.+Pauli+Brauerei/data=!4m7!3m6!1s0x47b18f22308cce79:0xeb3fb70182816caf!8m2!3d53.550198!4d9.9562749!16s%2Fg%2F11gyb0cbd0!19sChIJec6MMCKPsUcRr2yBggG3P-s?authuser=0&hl=tr&rclk=1",
    "website_url": "http://www.astra-brauerei.de/",
    "rating_text": "4,3",
    "stars": null,
    "number_of_reviews": null,
    "price_level": "",
    "open_hours": "",
    "extraction_timestamp": "2025-06-07T15:17:54.424Z",
    "source_name": "google",
    "source_query": "Irrigation Equipment",
    "source_country": "DE",
    "country": "Germany",
    "state": "Hamburg",
    "city": "St. Pauli"
  },
  {
    "source_id": "ChIJ53HHcXKPsUcRtWFhGwX_Bns",
    "name": "Alte Liebe - beste Livemusik der Reeperbahn!",
    "category": "Alte Liebe - beste Livemusik der Reeperbahn!",
    "formatted_address": "4,5(801) · €10–20",
    "phone_number": "+491722311283",
    "source_url": "https://www.google.com/maps/place/Alte+Liebe+-+beste+Livemusik+der+Reeperbahn!/data=!4m7!3m6!1s0x47b18f7271c771e7:0x7b06ff051b6161b5!8m2!3d53.5492246!4d9.9640756!16s%2Fg%2F11clzhg8t3!19sChIJ53HHcXKPsUcRtWFhGwX_Bns?authuser=0&hl=tr&rclk=1",
    "website_url": "https://www.alteliebe-hamburg.de/",
    "rating_text": "4,5",
    "stars": null,
    "number_of_reviews": null,
    "price_level": "",
    "open_hours": "",
    "extraction_timestamp": "2025-06-07T15:17:54.426Z",
    "source_name": "google",
    "source_query": "Irrigation Equipment",
    "source_country": "DE",
    "country": "Germany",
    "state": "Hamburg",
    "city": "St. Pauli"
  },
  {
    "source_id": "ChIJdbaHiwyPsUcRiLQ0Ek5wOHM",
    "name": "Astra-Biergarten",
    "category": "Astra-Biergarten",
    "formatted_address": "4,3(1.334) · ₺₺",
    "phone_number": "+491334",
    "source_url": "https://www.google.com/maps/place/Astra-Biergarten/data=!4m7!3m6!1s0x47b18f0c8b87b675:0x7338704e1234b488!8m2!3d53.5449893!4d9.970883!16s%2Fg%2F1pyqmn2l6!19sChIJdbaHiwyPsUcRiLQ0Ek5wOHM?authuser=0&hl=tr&rclk=1",
    "website_url": "http://www.astra-biergarten.com/",
    "rating_text": "4,3",
    "stars": null,
    "number_of_reviews": null,
    "price_level": "",
    "open_hours": "",
    "extraction_timestamp": "2025-06-07T15:17:54.427Z",
    "source_name": "google",
    "source_query": "Irrigation Equipment",
    "source_country": "DE",
    "country": "Germany",
    "state": "Hamburg",
    "city": "St. Pauli"
  },
  {
    "source_id": "ChIJJ59Vyn6PsUcRXxvY2LTeRWI",
    "name": "Weinland Waterfront",
    "category": "Weinland Waterfront",
    "formatted_address": "4,7(226)",
    "phone_number": "+49402794079",
    "source_url": "https://www.google.com/maps/place/Weinland+Waterfront/data=!4m7!3m6!1s0x47b18f7eca559f27:0x6245deb4d8d81b5f!8m2!3d53.5445619!4d9.9442953!16s%2Fg%2F1tgy_n8g!19sChIJJ59Vyn6PsUcRXxvY2LTeRWI?authuser=0&hl=tr&rclk=1",
    "website_url": "https://www.weinlandhamburg.de/",
    "rating_text": "4,7",
    "stars": null,
    "number_of_reviews": null,
    "price_level": "",
    "open_hours": "",
    "extraction_timestamp": "2025-06-07T15:17:54.428Z",
    "source_name": "google",
    "source_query": "Irrigation Equipment",
    "source_country": "DE",
    "country": "Germany",
    "state": "Hamburg",
    "city": "St. Pauli"
  },
  {
    "source_id": "ChIJURE9Zm2PsUcRh61NPduU3Uw",
    "name": "St. Pauli Shop Reloaded",
    "category": "St. Pauli Shop Reloaded",
    "formatted_address": "3,8(56)",
    "phone_number": "",
    "source_url": "https://www.google.com/maps/place/St.+Pauli+Shop+Reloaded/data=!4m7!3m6!1s0x47b18f6d663d1151:0x4cdd94db3d4dad87!8m2!3d53.550166!4d9.9669414!16s%2Fg%2F11d_25ypvx!19sChIJURE9Zm2PsUcRh61NPduU3Uw?authuser=0&hl=tr&rclk=1",
    "website_url": "https://www.stpaulishopreloaded-hamburg.de/",
    "rating_text": "3,8",
    "stars": null,
    "number_of_reviews": null,
    "price_level": "",
    "open_hours": "",
    "extraction_timestamp": "2025-06-07T15:17:54.429Z",
    "source_name": "google",
    "source_query": "Irrigation Equipment",
    "source_country": "DE",
    "country": "Germany",
    "state": "Hamburg",
    "city": "St. Pauli"
  },
  {
    "source_id": "ChIJGY8c72-PsUcRy79IOiJWCpA",
    "name": "BrewDog St. Pauli",
    "category": "BrewDog St. Pauli",
    "formatted_address": "3,9(1.758) · €20–30",
    "phone_number": "+491758",
    "source_url": "https://www.google.com/maps/place/BrewDog+St.+Pauli/data=!4m7!3m6!1s0x47b18f6fef1c8f19:0x900a56223a48bfcb!8m2!3d53.5497149!4d9.9683633!16s%2Fg%2F11h6sljtxl!19sChIJGY8c72-PsUcRy79IOiJWCpA?authuser=0&hl=tr&rclk=1",
    "website_url": "https://www.brewdog.com/eu_de/stpauli",
    "rating_text": "3,9",
    "stars": null,
    "number_of_reviews": null,
    "price_level": "",
    "open_hours": "",
    "extraction_timestamp": "2025-06-07T15:17:54.430Z",
    "source_name": "google",
    "source_query": "Irrigation Equipment",
    "source_country": "DE",
    "country": "Germany",
    "state": "Hamburg",
    "city": "St. Pauli"
  },
  {
    "source_id": "ChIJDV68_XGPsUcRGkfrNXgzKCw",
    "name": "Elbschlosskeller",
    "category": "Elbschlosskeller",
    "formatted_address": "4,4(2.618) · €1–10",
    "phone_number": "+494031480924",
    "source_url": "https://www.google.com/maps/place/Elbschlosskeller/data=!4m7!3m6!1s0x47b18f71fdbc5e0d:0x2c28337835eb471a!8m2!3d53.5499129!4d9.9614956!16s%2Fg%2F11ghrc394l!19sChIJDV68_XGPsUcRGkfrNXgzKCw?authuser=0&hl=tr&rclk=1",
    "website_url": "https://elbschlosskeller.de/",
    "rating_text": "4,4",
    "stars": null,
    "number_of_reviews": null,
    "price_level": "",
    "open_hours": "",
    "extraction_timestamp": "2025-06-07T15:17:54.433Z",
    "source_name": "google",
    "source_query": "Irrigation Equipment",
    "source_country": "DE",
    "country": "Germany",
    "state": "Hamburg",
    "city": "St. Pauli"
  },
  {
    "source_id": "ChIJA-A261-PsUcR7yae82HA_DY",
    "name": "Bar Wohlzimmer",
    "category": "Bar Wohlzimmer",
    "formatted_address": "4,7(142) · €10–20",
    "phone_number": "+494053262639",
    "source_url": "https://www.google.com/maps/place/Bar+Wohlzimmer/data=!4m7!3m6!1s0x47b18f5feb36e003:0x36fcc061f39e26ef!8m2!3d53.5527602!4d9.961054!16s%2Fg%2F11jmcr9cgf!19sChIJA-A261-PsUcR7yae82HA_DY?authuser=0&hl=tr&rclk=1",
    "website_url": "https://bar-wohlzimmer.de/",
    "rating_text": "4,7",
    "stars": null,
    "number_of_reviews": null,
    "price_level": "",
    "open_hours": "",
    "extraction_timestamp": "2025-06-07T15:17:54.434Z",
    "source_name": "google",
    "source_query": "Irrigation Equipment",
    "source_country": "DE",
    "country": "Germany",
    "state": "Hamburg",
    "city": "St. Pauli"
  },
  {
    "source_id": "ChIJHTSLZcuPsUcRU15ynvyYO3g",
    "name": "Otto Meyer & Co.",
    "category": "Otto Meyer & Co.",
    "formatted_address": "4,7(161)",
    "phone_number": "+49407560670",
    "source_url": "https://www.google.com/maps/place/Otto+Meyer+%26+Co./data=!4m7!3m6!1s0x47b18fcb658b341d:0x783b98fc9e725e53!8m2!3d53.5103965!4d9.9831364!16s%2Fg%2F1tdmcyx4!19sChIJHTSLZcuPsUcRU15ynvyYO3g?authuser=0&hl=tr&rclk=1",
    "website_url": "https://www.otto-meyer.de/",
    "rating_text": "4,7",
    "stars": null,
    "number_of_reviews": null,
    "price_level": "",
    "open_hours": "",
    "extraction_timestamp": "2025-06-07T15:17:54.435Z",
    "source_name": "google",
    "source_query": "Irrigation Equipment",
    "source_country": "DE",
    "country": "Germany",
    "state": "Hamburg",
    "city": "St. Pauli"
  },
  {
    "source_id": "ChIJqelAcHKPsUcRrm6ran5hg5I",
    "name": "HÄKKEN",
    "category": "HÄKKEN",
    "formatted_address": "4,4(80) · €10–20",
    "phone_number": "+494063861880",
    "source_url": "https://www.google.com/maps/place/H%C3%84KKEN/data=!4m7!3m6!1s0x47b18f727040e9a9:0x9283617e6aab6eae!8m2!3d53.5492145!4d9.9642575!16s%2Fg%2F11clybf5z9!19sChIJqelAcHKPsUcRrm6ran5hg5I?authuser=0&hl=tr&rclk=1",
    "website_url": "http://www.haekken.de/",
    "rating_text": "4,4",
    "stars": null,
    "number_of_reviews": null,
    "price_level": "",
    "open_hours": "",
    "extraction_timestamp": "2025-06-07T15:17:54.437Z",
    "source_name": "google",
    "source_query": "Irrigation Equipment",
    "source_country": "DE",
    "country": "Germany",
    "state": "Hamburg",
    "city": "St. Pauli"
  },
  {
    "source_id": "ChIJrVOfblCPsUcR1t3_OrL5TSk",
    "name": "Vineyard Hamburg GmbH",
    "category": "Vineyard Hamburg GmbH",
    "formatted_address": "4,3(560)",
    "phone_number": "+494043213230",
    "source_url": "https://www.google.com/maps/place/Vineyard+Hamburg+GmbH/data=!4m7!3m6!1s0x47b18f506e9f53ad:0x294df9b23affddd6!8m2!3d53.5761553!4d9.9536123!16s%2Fg%2F1tfkk734!19sChIJrVOfblCPsUcR1t3_OrL5TSk?authuser=0&hl=tr&rclk=1",
    "website_url": "http://vineyard-weinhandel.de/",
    "rating_text": "4,3",
    "stars": null,
    "number_of_reviews": null,
    "price_level": "",
    "open_hours": "",
    "extraction_timestamp": "2025-06-07T15:17:54.438Z",
    "source_name": "google",
    "source_query": "Irrigation Equipment",
    "source_country": "DE",
    "country": "Germany",
    "state": "Hamburg",
    "city": "St. Pauli"
  },
  {
    "source_id": "ChIJScJNud2OsUcRE5jwqco98eM",
    "name": "Grüneberg",
    "category": "Grüneberg",
    "formatted_address": "4,3(376) · €10–20",
    "phone_number": "+494028055707",
    "source_url": "https://www.google.com/maps/place/Gr%C3%BCneberg/data=!4m7!3m6!1s0x47b18eddb94dc249:0xe3f13dcaa9f09813!8m2!3d53.5582603!4d10.0126343!16s%2Fg%2F1tz750qb!19sChIJScJNud2OsUcRE5jwqco98eM?authuser=0&hl=tr&rclk=1",
    "website_url": "",
    "rating_text": "4,3",
    "stars": null,
    "number_of_reviews": null,
    "price_level": "",
    "open_hours": "",
    "extraction_timestamp": "2025-06-07T15:17:54.440Z",
    "source_name": "google",
    "source_query": "Irrigation Equipment",
    "source_country": "DE",
    "country": "Germany",
    "state": "Hamburg",
    "city": "St. Pauli"
  },
  {
    "source_id": "ChIJy5aRlWiPsUcRq3ORV84lVbc",
    "name": "Backpackers St. Pauli",
    "category": "Backpackers St. Pauli",
    "formatted_address": "4,2(467)",
    "phone_number": "+494023517043",
    "source_url": "https://www.google.com/maps/place/Backpackers+St.+Pauli/data=!4m10!3m9!1s0x47b18f68959196cb:0xb75525ce579173ab!5m2!4m1!1i2!8m2!3d53.5571971!4d9.9585818!16s%2Fg%2F1th7xdjg!19sChIJy5aRlWiPsUcRq3ORV84lVbc?authuser=0&hl=tr&rclk=1",
    "website_url": "https://backpacker-stpauli.jimdofree.com/",
    "rating_text": "4,2",
    "stars": null,
    "number_of_reviews": null,
    "price_level": "",
    "open_hours": "",
    "extraction_timestamp": "2025-06-07T15:17:54.441Z",
    "source_name": "google",
    "source_query": "Irrigation Equipment",
    "source_country": "DE",
    "country": "Germany",
    "state": "Hamburg",
    "city": "St. Pauli"
  },
  {
    "source_id": "ChIJv3EnkRGPsUcR2063k2uniws",
    "name": "Mezedes",
    "category": "Mezedes",
    "formatted_address": "4,8(1.808) · €30–40",
    "phone_number": "+491808",
    "source_url": "https://www.google.com/maps/place/Mezedes/data=!4m7!3m6!1s0x47b18f11912771bf:0xb8ba76b93b74edb!8m2!3d53.5502179!4d9.980935!16s%2Fg%2F11ngss3254!19sChIJv3EnkRGPsUcR2063k2uniws?authuser=0&hl=tr&rclk=1",
    "website_url": "https://www.mezedes.de/",
    "rating_text": "4,8",
    "stars": null,
    "number_of_reviews": null,
    "price_level": "",
    "open_hours": "",
    "extraction_timestamp": "2025-06-07T15:17:54.443Z",
    "source_name": "google",
    "source_query": "Irrigation Equipment",
    "source_country": "DE",
    "country": "Germany",
    "state": "Hamburg",
    "city": "St. Pauli"
  },
  {
    "source_id": "ChIJx3gbH26PsUcR-76IWjT8xoo",
    "name": "WunderBar - Hamburgs schrillste Gaybar",
    "category": "WunderBar - Hamburgs schrillste Gaybar",
    "formatted_address": "4,0(446) · ₺₺",
    "phone_number": "",
    "source_url": "https://www.google.com/maps/place/WunderBar+-+Hamburgs+schrillste+Gaybar/data=!4m7!3m6!1s0x47b18f6e1f1b78c7:0x8ac6fc345a88befb!8m2!3d53.5503082!4d9.9602826!16s%2Fg%2F1tdyvdyz!19sChIJx3gbH26PsUcR-76IWjT8xoo?authuser=0&hl=tr&rclk=1",
    "website_url": "http://www.wunderbar-hamburg.de/",
    "rating_text": "4,0",
    "stars": null,
    "number_of_reviews": null,
    "price_level": "",
    "open_hours": "",
    "extraction_timestamp": "2025-06-07T15:17:54.444Z",
    "source_name": "google",
    "source_query": "Irrigation Equipment",
    "source_country": "DE",
    "country": "Germany",
    "state": "Hamburg",
    "city": "St. Pauli"
  },
  {
    "source_id": "ChIundefined",
    "name": "WunderBar - Hamburgs schrillste Gaybar",
    "category": "WunderBar - Hamburgs schrillste Gaybar",
    "formatted_address": "4,0(446) · ₺₺",
    "phone_number": "",
    "source_url": "https://www.google.com/maps/reserve/v/dine/c/r-2iNYurC7Q?source=pa&opi=79508299&hl=tr-TR&gei=HVhEaNSdL92Nxc8PzbmIsQE&sourceurl=https://www.google.com/search?tbm%3Dmap%26authuser%3D0%26hl%3Dtr%26gl%3Dtr%26pb%3D!4m12!1m3!1d75901.25555670165!2d10.0671044!3d53.523587299999996!2m3!1f0!2f0!3f0!3m2!1i1366!2i768!4f13.1!7i20!8i20!10b1!12m37!1m5!18b1!30b1!31m1!1b1!34e1!2m3!5m1!6e2!20e3!6m12!49b1!63m0!66b1!74i150000!85b1!91b1!114b1!149b1!193b1!206b1!212b1!213b1!10b1!12b1!13b1!14b1!16b1!17m1!3e1!20m3!5e2!6b1!14b1!46m1!1b0!96b1!19m4!2m3!1i360!2i120!4i8!20m65!2m2!1i203!2i100!3m2!2i4!5b1!6m6!1m2!1i86!2i86!1m2!1i408!2i240!7m33!1m3!1e1!2b0!3e3!1m3!1e2!2b1!3e2!1m3!1e2!2b0!3e3!1m3!1e8!2b0!3e3!1m3!1e10!2b0!3e3!1m3!1e10!2b1!3e2!1m3!1e10!2b0!3e4!1m3!1e9!2b1!3e2!2b1!9b0!15m16!1m7!1m2!1m1!1e2!2m2!1i195!2i195!3i20!1m7!1m2!1m1!1e2!2m2!1i195!2i195!3i20!22m5!1sGlhEaKjiHOmTxc8P-cmjsQ0:16!2s1i:0,t:246204,p:GlhEaKjiHOmTxc8P-cmjsQ0:16!7e81!12e22!17sGlhEaKjiHOmTxc8P-cmjsQ0:17!24m107!1m29!13m9!2b1!3b1!4b1!6i1!8b1!9b1!14b1!20b1!25b1!18m18!3b1!4b1!5b1!6b1!13b1!14b1!17b1!21b1!22b1!25b1!27m1!1b0!28b0!32b1!33m1!1b1!34b1!36e2!10m1!8e3!11m1!3e1!14m1!3b0!17b1!20m2!1e3!1e6!24b1!25b1!26b1!27b1!29b1!30m1!2b1!36b1!37b1!39m3!2m2!2i1!3i1!43b1!52b1!55b1!56m1!1b1!61m2!1m1!1e1!65m5!3m4!1m3!1m2!1i224!2i298!72m22!1m8!2b1!5b1!7b1!12m4!1b1!2b1!4m1!1e1!4b1!8m10!1m6!4m1!1e1!4m1!1e3!4m1!1e4!3sother_user_google_review_posts__and__hotel_and_vr_partner_review_posts!6m1!1e1!9b1!89b1!98m3!1b1!2b1!3b1!103b1!113b1!114m3!1b1!2m1!1b1!117b1!122m1!1b1!125b0!126b1!127b1!26m4!2m3!1i80!2i92!4i8!30m28!1m6!1m2!1i0!2i0!2m2!1i530!2i768!1m6!1m2!1i1316!2i0!2m2!1i1366!2i768!1m6!1m2!1i0!2i0!2m2!1i1366!2i20!1m6!1m2!1i0!2i748!2m2!1i1366!2i768!34m19!2b1!3b1!4b1!6b1!8m6!1b1!3b1!4b1!5b1!6b1!7b1!9b1!12b1!14b1!20b1!23b1!25b1!26b1!31b1!37m1!1e81!42b1!46m1!1e2!47m0!49m10!3b1!6m2!1b1!2b1!7m2!1e3!2b1!8b1!9b1!10e2!50m25!1m21!2m7!1u3!4zxZ51IGFuZGEgYcOnxLFrIG9sYW5sYXI!5e1!9s0ahUKEwjpqerKzd-NAxXpSfEDHfnkKNYQ_KkBCAcoAg!10m2!3m1!1e1!2m7!1u2!4sEn%2B%25C3%25A7ok%2Boy%2Balanlar!5e1!9s0ahUKEwjpqerKzd-NAxXpSfEDHfnkKNYQ_KkBCAgoAw!10m2!2m1!1e1!3m1!1u2!3m1!1u3!4BIAE!2e2!3m1!3b1!59BQ2dBd0Fn!61b1!67m5!7b1!10b1!14b1!15m1!1b0!69i736%26q%3DIrrigation%2BEquipment%2Bnear%2BSt.%2BPauli%2BHamburg%2BGermany%26ech%3D1%26psi%3DGlhEaKjiHOmTxc8P-cmjsQ0.1749309466550.1",
    "website_url": "http://www.wunderbar-hamburg.de/",
    "rating_text": "4,0",
    "stars": null,
    "number_of_reviews": null,
    "price_level": "",
    "open_hours": "",
    "extraction_timestamp": "2025-06-07T15:17:54.445Z",
    "source_name": "google",
    "source_query": "Irrigation Equipment",
    "source_country": "DE",
    "country": "Germany",
    "state": "Hamburg",
    "city": "St. Pauli"
  },
  {
    "source_id": "ChIJHZq_x9-OsUcRnZNntxQFkYE",
    "name": "barca - on the Alster",
    "category": "barca - on the Alster",
    "formatted_address": "4,6(1.281)",
    "phone_number": "+4912814",
    "source_url": "https://www.google.com/maps/place/barca+-+on+the+Alster/data=!4m7!3m6!1s0x47b18edfc7bf9a1d:0x81910514b767939d!8m2!3d53.5585426!4d10.0054522!16s%2Fg%2F1tgr__cz!19sChIJHZq_x9-OsUcRnZNntxQFkYE?authuser=0&hl=tr&rclk=1",
    "website_url": "https://www.barca-hamburg.de/",
    "rating_text": "4,6",
    "stars": null,
    "number_of_reviews": null,
    "price_level": "",
    "open_hours": "",
    "extraction_timestamp": "2025-06-07T15:17:54.446Z",
    "source_name": "google",
    "source_query": "Irrigation Equipment",
    "source_country": "DE",
    "country": "Germany",
    "state": "Hamburg",
    "city": "St. Pauli"
  },
  {
    "source_id": "ChIJgwid9qSOsUcROsCa9zA5dmo",
    "name": "Unser Hamburg",
    "category": "Unser Hamburg",
    "formatted_address": "4,9(455)",
    "phone_number": "+494066875518",
    "source_url": "https://www.google.com/maps/place/Unser+Hamburg/data=!4m7!3m6!1s0x47b18ea4f69d0883:0x6a763930f79ac03a!8m2!3d53.54921!4d9.96192!16s%2Fg%2F1hc0r_jvf!19sChIJgwid9qSOsUcROsCa9zA5dmo?authuser=0&hl=tr&rclk=1",
    "website_url": "http://unser-hh.de/",
    "rating_text": "4,9",
    "stars": null,
    "number_of_reviews": null,
    "price_level": "",
    "open_hours": "",
    "extraction_timestamp": "2025-06-07T15:17:54.448Z",
    "source_name": "google",
    "source_query": "Irrigation Equipment",
    "source_country": "DE",
    "country": "Germany",
    "state": "Hamburg",
    "city": "St. Pauli"
  },
  {
    "source_id": "ChIJeVqs442FsUcR6syIB75ydFE",
    "name": "CALUMET Hamburg",
    "category": "CALUMET Hamburg",
    "formatted_address": "4,5(1.033)",
    "phone_number": "+4910334",
    "source_url": "https://www.google.com/maps/place/CALUMET+Hamburg/data=!4m7!3m6!1s0x47b1858de3ac5a79:0x517472be0788ccea!8m2!3d53.5475187!4d9.9859347!16s%2Fg%2F1td16x43!19sChIJeVqs442FsUcR6syIB75ydFE?authuser=0&hl=tr&rclk=1",
    "website_url": "https://www.calumetphoto.de/store/hamburg?utm_source=google-my-business&utm_medium=organic&utm_campaign=company-profile_website-link_stores_hh2_cal",
    "rating_text": "4,5",
    "stars": null,
    "number_of_reviews": null,
    "price_level": "",
    "open_hours": "",
    "extraction_timestamp": "2025-06-07T15:17:54.449Z",
    "source_name": "google",
    "source_query": "Irrigation Equipment",
    "source_country": "DE",
    "country": "Germany",
    "state": "Hamburg",
    "city": "St. Pauli"
  },
  {
    "source_id": "ChIJZeatAQCPsUcRM5J4ETr8uQU",
    "name": "Kowalski‘s",
    "category": "Kowalski‘s",
    "formatted_address": "5,0(89) · €1–10",
    "phone_number": "",
    "source_url": "https://www.google.com/maps/place/Kowalski%E2%80%98s/data=!4m7!3m6!1s0x47b18f0001ade665:0x5b9fc3a11789233!8m2!3d53.5574467!4d9.9706428!16s%2Fg%2F11vy5vxc1q!19sChIJZeatAQCPsUcRM5J4ETr8uQU?authuser=0&hl=tr&rclk=1",
    "website_url": "http://www.instagram.com/kowalskis.stpauli",
    "rating_text": "5,0",
    "stars": null,
    "number_of_reviews": null,
    "price_level": "",
    "open_hours": "",
    "extraction_timestamp": "2025-06-07T15:17:54.450Z",
    "source_name": "google",
    "source_query": "Irrigation Equipment",
    "source_country": "DE",
    "country": "Germany",
    "state": "Hamburg",
    "city": "St. Pauli"
  },
  {
    "source_id": "ChIJaf8nc3mPsUcR2GDvNFTkIjY",
    "name": "Hafenklang",
    "category": "Hafenklang",
    "formatted_address": "4,6(519) · €10–20",
    "phone_number": "+4940388744",
    "source_url": "https://www.google.com/maps/place/Hafenklang/data=!4m7!3m6!1s0x47b18f797327ff69:0x3622e45434ef60d8!8m2!3d53.5445084!4d9.9480099!16s%2Fg%2F11b7gpt1tp!19sChIJaf8nc3mPsUcR2GDvNFTkIjY?authuser=0&hl=tr&rclk=1",
    "website_url": "http://www.hafenklang.com/",
    "rating_text": "4,6",
    "stars": null,
    "number_of_reviews": null,
    "price_level": "",
    "open_hours": "",
    "extraction_timestamp": "2025-06-07T15:17:54.451Z",
    "source_name": "google",
    "source_query": "Irrigation Equipment",
    "source_country": "DE",
    "country": "Germany",
    "state": "Hamburg",
    "city": "St. Pauli"
  },
  {
    "source_id": "ChIJN3Q2_P-JsUcRC7PcF423nAo",
    "name": "Ratsherrn Bar Mühlenkamp",
    "category": "Ratsherrn Bar Mühlenkamp",
    "formatted_address": "4,4(582) · €10–20",
    "phone_number": "+494027806686",
    "source_url": "https://www.google.com/maps/place/Ratsherrn+Bar+M%C3%BChlenkamp/data=!4m7!3m6!1s0x47b189fffc367437:0xa9cb78d17dcb30b!8m2!3d53.5799082!4d10.0132317!16s%2Fg%2F11h5_vyd5d!19sChIJN3Q2_P-JsUcRC7PcF423nAo?authuser=0&hl=tr&rclk=1",
    "website_url": "https://ratsherrn.de/ratsherrn-gastro/#ratsherrnbar",
    "rating_text": "4,4",
    "stars": null,
    "number_of_reviews": null,
    "price_level": "",
    "open_hours": "",
    "extraction_timestamp": "2025-06-07T15:17:54.453Z",
    "source_name": "google",
    "source_query": "Irrigation Equipment",
    "source_country": "DE",
    "country": "Germany",
    "state": "Hamburg",
    "city": "St. Pauli"
  },
  {
    "source_id": "ChIJuf_YoxqPsUcRsQ__iwIBbPk",
    "name": "Erste Liebe Bar",
    "category": "Erste Liebe Bar",
    "formatted_address": "4,4(775) · €10–20",
    "phone_number": "",
    "source_url": "https://www.google.com/maps/place/Erste+Liebe+Bar/data=!4m7!3m6!1s0x47b18f1aa3d8ffb9:0xf96c01028bff0fb1!8m2!3d53.5492237!4d9.9848163!16s%2Fg%2F1tc_q1rr!19sChIJuf_YoxqPsUcRsQ__iwIBbPk?authuser=0&hl=tr&rclk=1",
    "website_url": "http://ersteliebebar.com/",
    "rating_text": "4,4",
    "stars": null,
    "number_of_reviews": null,
    "price_level": "",
    "open_hours": "",
    "extraction_timestamp": "2025-06-07T15:17:54.455Z",
    "source_name": "google",
    "source_query": "Irrigation Equipment",
    "source_country": "DE",
    "country": "Germany",
    "state": "Hamburg",
    "city": "St. Pauli"
  }
]
