[
  {
    "source_id": "ChIJYRRrsNiLsUcRY3ZjM7KXb6A",
    "name": "Köster Pumpen Joachim Köster GmbH",
    "category": "Köster Pumpen Joachim Köster GmbH",
    "formatted_address": "4,4(7)",
    "phone_number": "+491716005534",
    "source_url": "https://www.google.com/maps/place/K%C3%B6ster+Pumpen+Joachim+K%C3%B6ster+GmbH/data=!4m7!3m6!1s0x47b18bd8b06b1461:0xa06f97b233637663!8m2!3d53.5893283!4d10.0502693!16s%2Fg%2F1tcwq5s3!19sChIJYRRrsNiLsUcRY3ZjM7KXb6A?authuser=0&hl=tr&rclk=1",
    "website_url": "",
    "rating_text": "4,4",
    "stars": null,
    "number_of_reviews": null,
    "price_level": "",
    "open_hours": "",
    "extraction_timestamp": "2025-06-07T15:23:29.934Z",
    "source_name": "google",
    "source_query": "Irrigation Equipment",
    "source_country": "DE",
    "country": "Germany",
    "state": "Hamburg",
    "city": "Steilshoop"
  },
  {
    "source_id": "ChIJXy9-DRaJsUcRLL-gWDwhpEY",
    "name": "C&P Aquaplants",
    "category": "C&P Aquaplants",
    "formatted_address": "4,4(5)",
    "phone_number": "+494084306403",
    "source_url": "https://www.google.com/maps/place/C%26P+Aquaplants/data=!4m7!3m6!1s0x47b189160d7e2f5f:0x46a4213c58a0bf2c!8m2!3d53.6004973!4d10.038029!16s%2Fg%2F11vxxr_60x!19sChIJXy9-DRaJsUcRLL-gWDwhpEY?authuser=0&hl=tr&rclk=1",
    "website_url": "",
    "rating_text": "4,4",
    "stars": null,
    "number_of_reviews": null,
    "price_level": "",
    "open_hours": "",
    "extraction_timestamp": "2025-06-07T15:23:29.935Z",
    "source_name": "google",
    "source_query": "Irrigation Equipment",
    "source_country": "DE",
    "country": "Germany",
    "state": "Hamburg",
    "city": "Steilshoop"
  },
  {
    "source_id": "ChIJixz8c2zzsUcRvWDIvRaRRaY",
    "name": "ABS Bewässerungssysteme",
    "category": "ABS Bewässerungssysteme",
    "formatted_address": "5,0(10)",
    "phone_number": "+494020963222",
    "source_url": "https://www.google.com/maps/place/ABS+Bew%C3%A4sserungssysteme/data=!4m7!3m6!1s0x47b1f36c73fc1c8b:0xa6459116bdc860bd!8m2!3d53.4851575!4d10.1899135!16s%2Fg%2F11pwpgyn7x!19sChIJixz8c2zzsUcRvWDIvRaRRaY?authuser=0&hl=tr&rclk=1",
    "website_url": "",
    "rating_text": "5,0",
    "stars": null,
    "number_of_reviews": null,
    "price_level": "",
    "open_hours": "",
    "extraction_timestamp": "2025-06-07T15:23:29.935Z",
    "source_name": "google",
    "source_query": "Irrigation Equipment",
    "source_country": "DE",
    "country": "Germany",
    "state": "Hamburg",
    "city": "Steilshoop"
  },
  {
    "source_id": "ChIJh2SSLnKJsUcR04tu8UWY4ic",
    "name": "Erden Market Steilshoop",
    "category": "Erden Market Steilshoop",
    "formatted_address": "4,2(335)",
    "phone_number": "+494064862048",
    "source_url": "https://www.google.com/maps/place/Erden+Market+Steilshoop/data=!4m7!3m6!1s0x47b189722e926487:0x27e29845f16e8bd3!8m2!3d53.6096067!4d10.05859!16s%2Fg%2F1v6p7xrm!19sChIJh2SSLnKJsUcR04tu8UWY4ic?authuser=0&hl=tr&rclk=1",
    "website_url": "",
    "rating_text": "4,2",
    "stars": null,
    "number_of_reviews": null,
    "price_level": "",
    "open_hours": "",
    "extraction_timestamp": "2025-06-07T15:23:29.935Z",
    "source_name": "google",
    "source_query": "Irrigation Equipment",
    "source_country": "DE",
    "country": "Germany",
    "state": "Hamburg",
    "city": "Steilshoop"
  },
  {
    "source_id": "ChIJG4YLPimJsUcRz_dIjeI-u8c",
    "name": "Kiosk Terrasse Steilo",
    "category": "Kiosk Terrasse Steilo",
    "formatted_address": "4,8(82)",
    "phone_number": "",
    "source_url": "https://www.google.com/maps/place/Kiosk+Terrasse+Steilo/data=!4m7!3m6!1s0x47b189293e0b861b:0xc7bb3ee28d48f7cf!8m2!3d53.6068773!4d10.0558823!16s%2Fg%2F11sv57mhn6!19sChIJG4YLPimJsUcRz_dIjeI-u8c?authuser=0&hl=tr&rclk=1",
    "website_url": "",
    "rating_text": "4,8",
    "stars": null,
    "number_of_reviews": null,
    "price_level": "",
    "open_hours": "",
    "extraction_timestamp": "2025-06-07T15:23:29.936Z",
    "source_name": "google",
    "source_query": "Irrigation Equipment",
    "source_country": "DE",
    "country": "Germany",
    "state": "Hamburg",
    "city": "Steilshoop"
  },
  {
    "source_id": "ChIJiSbOEH-JsUcR7EUkwNA8rWE",
    "name": "Waldow Sanitärtechnik",
    "category": "Waldow Sanitärtechnik",
    "formatted_address": "4,3(11)",
    "phone_number": "+494069640140",
    "source_url": "https://www.google.com/maps/place/Waldow+Sanit%C3%A4rtechnik/data=!4m7!3m6!1s0x47b1897f10ce2689:0x61ad3cd0c02445ec!8m2!3d53.6079382!4d10.0503294!16s%2Fg%2F1td7b6cd!19sChIJiSbOEH-JsUcR7EUkwNA8rWE?authuser=0&hl=tr&rclk=1",
    "website_url": "",
    "rating_text": "4,3",
    "stars": null,
    "number_of_reviews": null,
    "price_level": "",
    "open_hours": "",
    "extraction_timestamp": "2025-06-07T15:23:29.936Z",
    "source_name": "google",
    "source_query": "Irrigation Equipment",
    "source_country": "DE",
    "country": "Germany",
    "state": "Hamburg",
    "city": "Steilshoop"
  },
  {
    "source_id": "ChIJk2W7AbWOsUcR6mQ_WMhpOJw",
    "name": "GWS Wärmesysteme GmbH",
    "category": "GWS Wärmesysteme GmbH",
    "formatted_address": "5,0(15)",
    "phone_number": "+49405407091",
    "source_url": "https://www.google.com/maps/place/GWS+W%C3%A4rmesysteme+GmbH/data=!4m7!3m6!1s0x47b18eb501bb6593:0x9c3869c8583f64ea!8m2!3d53.5863242!4d10.0527944!16s%2Fg%2F1tmk7k9k!19sChIJk2W7AbWOsUcR6mQ_WMhpOJw?authuser=0&hl=tr&rclk=1",
    "website_url": "",
    "rating_text": "5,0",
    "stars": null,
    "number_of_reviews": null,
    "price_level": "",
    "open_hours": "",
    "extraction_timestamp": "2025-06-07T15:23:29.936Z",
    "source_name": "google",
    "source_query": "Irrigation Equipment",
    "source_country": "DE",
    "country": "Germany",
    "state": "Hamburg",
    "city": "Steilshoop"
  },
  {
    "source_id": "ChIJJ3irk22JsUcRgOs1DELuO6I",
    "name": "Dreßler Sanitärtechnik",
    "category": "Dreßler Sanitärtechnik",
    "formatted_address": "4,2(17)",
    "phone_number": "+49406414023",
    "source_url": "https://www.google.com/maps/place/Dre%C3%9Fler+Sanit%C3%A4rtechnik/data=!4m7!3m6!1s0x47b1896d93ab7827:0xa23bee420c35eb80!8m2!3d53.6070912!4d10.0560143!16s%2Fg%2F1trxjb5j!19sChIJJ3irk22JsUcRgOs1DELuO6I?authuser=0&hl=tr&rclk=1",
    "website_url": "",
    "rating_text": "4,2",
    "stars": null,
    "number_of_reviews": null,
    "price_level": "",
    "open_hours": "",
    "extraction_timestamp": "2025-06-07T15:23:29.936Z",
    "source_name": "google",
    "source_query": "Irrigation Equipment",
    "source_country": "DE",
    "country": "Germany",
    "state": "Hamburg",
    "city": "Steilshoop"
  },
  {
    "source_id": "ChIJs8T9XuK6Y0EROu0xZg50keg",
    "name": "Jürgen Tiedtke Heizungs- und Lüftungstechnik GmbH",
    "category": "Jürgen Tiedtke Heizungs- und Lüftungstechnik GmbH",
    "formatted_address": "4,6(41)",
    "phone_number": "+494064221138",
    "source_url": "https://www.google.com/maps/place/J%C3%BCrgen+Tiedtke+Heizungs-+und+L%C3%BCftungstechnik+GmbH/data=!4m7!3m6!1s0x4163bae25efdc4b3:0xe891740e6631ed3a!8m2!3d53.5976271!4d10.0736547!16s%2Fg%2F1vrq8pzh!19sChIJs8T9XuK6Y0EROu0xZg50keg?authuser=0&hl=tr&rclk=1",
    "website_url": "",
    "rating_text": "4,6",
    "stars": null,
    "number_of_reviews": null,
    "price_level": "",
    "open_hours": "",
    "extraction_timestamp": "2025-06-07T15:23:29.937Z",
    "source_name": "google",
    "source_query": "Irrigation Equipment",
    "source_country": "DE",
    "country": "Germany",
    "state": "Hamburg",
    "city": "Steilshoop"
  },
  {
    "source_id": "ChIJX18DXW2JsUcRncOOsq_Iz9w",
    "name": "Bagunk GmbH",
    "category": "Bagunk GmbH",
    "formatted_address": "2,6(20)",
    "phone_number": "+49406370076",
    "source_url": "https://www.google.com/maps/place/Bagunk+GmbH/data=!4m7!3m6!1s0x47b1896d5d035f5f:0xdccfc8afb28ec39d!8m2!3d53.6083308!4d10.0660252!16s%2Fg%2F1tgnqqc9!19sChIJX18DXW2JsUcRncOOsq_Iz9w?authuser=0&hl=tr&rclk=1",
    "website_url": "",
    "rating_text": "2,6",
    "stars": null,
    "number_of_reviews": null,
    "price_level": "",
    "open_hours": "",
    "extraction_timestamp": "2025-06-07T15:23:29.937Z",
    "source_name": "google",
    "source_query": "Irrigation Equipment",
    "source_country": "DE",
    "country": "Germany",
    "state": "Hamburg",
    "city": "Steilshoop"
  },
  {
    "source_id": "ChIJN39CVW2JsUcR1ZGcRu2hVnY",
    "name": "Camping Salon - Wunderlich GmbH",
    "category": "Camping Salon - Wunderlich GmbH",
    "formatted_address": "4,3(561)",
    "phone_number": "+49406323161",
    "source_url": "https://www.google.com/maps/place/Camping+Salon+-+Wunderlich+GmbH/data=!4m7!3m6!1s0x47b1896d55427f37:0x7656a1ed469c91d5!8m2!3d53.6080806!4d10.0513955!16s%2Fg%2F1v5fqzf3!19sChIJN39CVW2JsUcR1ZGcRu2hVnY?authuser=0&hl=tr&rclk=1",
    "website_url": "",
    "rating_text": "4,3",
    "stars": null,
    "number_of_reviews": null,
    "price_level": "",
    "open_hours": "",
    "extraction_timestamp": "2025-06-07T15:23:29.937Z",
    "source_name": "google",
    "source_query": "Irrigation Equipment",
    "source_country": "DE",
    "country": "Germany",
    "state": "Hamburg",
    "city": "Steilshoop"
  },
  {
    "source_id": "ChIJ8bCmgWSJsUcRDO7psM7zKfA",
    "name": "BAUHAUS Hamburg-Bramfeld",
    "category": "BAUHAUS Hamburg-Bramfeld",
    "formatted_address": "4,2(4.646)",
    "phone_number": "+4946464",
    "source_url": "https://www.google.com/maps/place/BAUHAUS+Hamburg-Bramfeld/data=!4m7!3m6!1s0x47b1896481a6b0f1:0xf029f3ceb0e9ee0c!8m2!3d53.6037031!4d10.0725721!16s%2Fg%2F1q5gkrhyk!19sChIJ8bCmgWSJsUcRDO7psM7zKfA?authuser=0&hl=tr&rclk=1",
    "website_url": "",
    "rating_text": "4,2",
    "stars": null,
    "number_of_reviews": null,
    "price_level": "",
    "open_hours": "",
    "extraction_timestamp": "2025-06-07T15:23:29.938Z",
    "source_name": "google",
    "source_query": "Irrigation Equipment",
    "source_country": "DE",
    "country": "Germany",
    "state": "Hamburg",
    "city": "Steilshoop"
  },
  {
    "source_id": "ChIJ4R34GoKPsUcR_Di8Y72u1Q4",
    "name": "AN-Beregnungstechnik",
    "category": "AN-Beregnungstechnik",
    "formatted_address": "",
    "phone_number": "+4917673517226",
    "source_url": "https://www.google.com/maps/place/AN-Beregnungstechnik/data=!4m7!3m6!1s0x47b18f821af81de1:0xed5aebd63bc38fc!8m2!3d53.5576744!4d10.0112776!16s%2Fg%2F11x33m21xg!19sChIJ4R34GoKPsUcR_Di8Y72u1Q4?authuser=0&hl=tr&rclk=1",
    "website_url": "",
    "rating_text": "",
    "stars": null,
    "number_of_reviews": null,
    "price_level": "",
    "open_hours": "",
    "extraction_timestamp": "2025-06-07T15:23:29.938Z",
    "source_name": "google",
    "source_query": "Irrigation Equipment",
    "source_country": "DE",
    "country": "Germany",
    "state": "Hamburg",
    "city": "Steilshoop"
  },
  {
    "source_id": "ChIJQUdSVWyJsUcROefJ9107VHo",
    "name": "budni - Steilshooper Straße",
    "category": "budni - Steilshooper Straße",
    "formatted_address": "4,3(149)",
    "phone_number": "+494080603030",
    "source_url": "https://www.google.com/maps/place/budni+-+Steilshooper+Stra%C3%9Fe/data=!4m7!3m6!1s0x47b1896c55524741:0x7a543b5df7c9e739!8m2!3d53.6050527!4d10.0529891!16s%2Fg%2F12lv0ck6c!19sChIJQUdSVWyJsUcROefJ9107VHo?authuser=0&hl=tr&rclk=1",
    "website_url": "",
    "rating_text": "4,3",
    "stars": null,
    "number_of_reviews": null,
    "price_level": "",
    "open_hours": "",
    "extraction_timestamp": "2025-06-07T15:23:29.938Z",
    "source_name": "google",
    "source_query": "Irrigation Equipment",
    "source_country": "DE",
    "country": "Germany",
    "state": "Hamburg",
    "city": "Steilshoop"
  },
  {
    "source_id": "ChIJ7em9Wp-IsUcR-PnzCLUWox4",
    "name": "Quellklar by Hydro-Shop",
    "category": "Quellklar by Hydro-Shop",
    "formatted_address": "3,5(8)",
    "phone_number": "+49405001720",
    "source_url": "https://www.google.com/maps/place/Quellklar+by+Hydro-Shop/data=!4m7!3m6!1s0x47b1889f5abde9ed:0x1ea316b508f3f9f8!8m2!3d53.610056!4d9.974098!16s%2Fg%2F1hc3w12m3!19sChIJ7em9Wp-IsUcR-PnzCLUWox4?authuser=0&hl=tr&rclk=1",
    "website_url": "",
    "rating_text": "3,5",
    "stars": null,
    "number_of_reviews": null,
    "price_level": "",
    "open_hours": "",
    "extraction_timestamp": "2025-06-07T15:23:29.938Z",
    "source_name": "google",
    "source_query": "Irrigation Equipment",
    "source_country": "DE",
    "country": "Germany",
    "state": "Hamburg",
    "city": "Steilshoop"
  },
  {
    "source_id": "ChIJ11e1Cw6JsUcRNoLwkDBsMQs",
    "name": "famila",
    "category": "famila",
    "formatted_address": "4,0(2.287)",
    "phone_number": "+49406391920",
    "source_url": "https://www.google.com/maps/place/famila/data=!4m7!3m6!1s0x47b1890e0bb557d7:0xb316c3090f08236!8m2!3d53.6089853!4d10.0430823!16s%2Fg%2F1vkxl9qt!19sChIJ11e1Cw6JsUcRNoLwkDBsMQs?authuser=0&hl=tr&rclk=1",
    "website_url": "",
    "rating_text": "4,0",
    "stars": null,
    "number_of_reviews": null,
    "price_level": "",
    "open_hours": "",
    "extraction_timestamp": "2025-06-07T15:23:29.939Z",
    "source_name": "google",
    "source_query": "Irrigation Equipment",
    "source_country": "DE",
    "country": "Germany",
    "state": "Hamburg",
    "city": "Steilshoop"
  },
  {
    "source_id": "ChIJF-kZlEKJsUcRxm2UQfPCFf4",
    "name": "Tramm Technik GmbH-Rohrleitungsbau (Tiefbau) -Haustechnik",
    "category": "Tramm Technik GmbH-Rohrleitungsbau (Tiefbau) -Haustechnik",
    "formatted_address": "4,1(8)",
    "phone_number": "+494064413770",
    "source_url": "https://www.google.com/maps/place/Tramm+Technik+GmbH-Rohrleitungsbau+%28Tiefbau%29+-Haustechnik/data=!4m7!3m6!1s0x47b189429419e917:0xfe15c2f341946dc6!8m2!3d53.5953458!4d10.0593908!16s%2Fg%2F1w454p5b!19sChIJF-kZlEKJsUcRxm2UQfPCFf4?authuser=0&hl=tr&rclk=1",
    "website_url": "",
    "rating_text": "4,1",
    "stars": null,
    "number_of_reviews": null,
    "price_level": "",
    "open_hours": "",
    "extraction_timestamp": "2025-06-07T15:23:29.939Z",
    "source_name": "google",
    "source_query": "Irrigation Equipment",
    "source_country": "DE",
    "country": "Germany",
    "state": "Hamburg",
    "city": "Steilshoop"
  },
  {
    "source_id": "ChIJW-tQe3SJsUcRF4sb5KLxfYg",
    "name": "Sporthalle Steilshoop Hamburg",
    "category": "Sporthalle Steilshoop Hamburg",
    "formatted_address": "3,8(127)",
    "phone_number": "+4940428963941",
    "source_url": "https://www.google.com/maps/place/Sporthalle+Steilshoop+Hamburg/data=!4m7!3m6!1s0x47b189747b50eb5b:0x887df1a2e41b8b17!8m2!3d53.6147129!4d10.0582875!16s%2Fg%2F1tgcx34s!19sChIJW-tQe3SJsUcRF4sb5KLxfYg?authuser=0&hl=tr&rclk=1",
    "website_url": "",
    "rating_text": "3,8",
    "stars": null,
    "number_of_reviews": null,
    "price_level": "",
    "open_hours": "",
    "extraction_timestamp": "2025-06-07T15:23:29.961Z",
    "source_name": "google",
    "source_query": "Irrigation Equipment",
    "source_country": "DE",
    "country": "Germany",
    "state": "Hamburg",
    "city": "Steilshoop"
  },
  {
    "source_id": "ChIJcZuAuHOJsUcRLUkwu5nXqLQ",
    "name": "Kiosk Steilo",
    "category": "Kiosk Steilo",
    "formatted_address": "4,0(27)",
    "phone_number": "+494064223353",
    "source_url": "https://www.google.com/maps/place/Kiosk+Steilo/data=!4m7!3m6!1s0x47b18973b8809b71:0xb4a8d799bb30492d!8m2!3d53.6106902!4d10.0587619!16s%2Fg%2F1vgqc42p!19sChIJcZuAuHOJsUcRLUkwu5nXqLQ?authuser=0&hl=tr&rclk=1",
    "website_url": "",
    "rating_text": "4,0",
    "stars": null,
    "number_of_reviews": null,
    "price_level": "",
    "open_hours": "",
    "extraction_timestamp": "2025-06-07T15:23:29.962Z",
    "source_name": "google",
    "source_query": "Irrigation Equipment",
    "source_country": "DE",
    "country": "Germany",
    "state": "Hamburg",
    "city": "Steilshoop"
  },
  {
    "source_id": "ChIJEZZew1SJsUcRy4r45pZQNWU",
    "name": "1A Shisha Kiosk",
    "category": "1A Shisha Kiosk",
    "formatted_address": "4,1(65)",
    "phone_number": "+494068841351",
    "source_url": "https://www.google.com/maps/place/1A+Shisha+Kiosk/data=!4m7!3m6!1s0x47b18954c35e9611:0x65355096e6f88acb!8m2!3d53.6056826!4d10.0400767!16s%2Fg%2F11n5vy9j9x!19sChIJEZZew1SJsUcRy4r45pZQNWU?authuser=0&hl=tr&rclk=1",
    "website_url": "",
    "rating_text": "4,1",
    "stars": null,
    "number_of_reviews": null,
    "price_level": "",
    "open_hours": "",
    "extraction_timestamp": "2025-06-07T15:23:29.963Z",
    "source_name": "google",
    "source_query": "Irrigation Equipment",
    "source_country": "DE",
    "country": "Germany",
    "state": "Hamburg",
    "city": "Steilshoop"
  },
  {
    "source_id": "ChIJMeshCuKLsUcRwAXADVCfmrQ",
    "name": "Beach Hamburg",
    "category": "Beach Hamburg",
    "formatted_address": "4,4(1.276)",
    "phone_number": "+4912764",
    "source_url": "https://www.google.com/maps/place/Beach+Hamburg/data=!4m7!3m6!1s0x47b18be20a21eb31:0xb49a9f500dc005c0!8m2!3d53.5883942!4d10.0744683!16s%2Fg%2F1tdbvtd1!19sChIJMeshCuKLsUcRwAXADVCfmrQ?authuser=0&hl=tr&rclk=1",
    "website_url": "",
    "rating_text": "4,4",
    "stars": null,
    "number_of_reviews": null,
    "price_level": "",
    "open_hours": "",
    "extraction_timestamp": "2025-06-07T15:23:29.964Z",
    "source_name": "google",
    "source_query": "Irrigation Equipment",
    "source_country": "DE",
    "country": "Germany",
    "state": "Hamburg",
    "city": "Steilshoop"
  },
  {
    "source_id": "ChIJqSoJ1uqLsUcRWN6BTlEDn08",
    "name": "TP Sanitärtechnik & Bäder Design",
    "category": "TP Sanitärtechnik & Bäder Design",
    "formatted_address": "5,0(2)",
    "phone_number": "+494060430138",
    "source_url": "https://www.google.com/maps/place/TP+Sanit%C3%A4rtechnik+%26+B%C3%A4der+Design/data=!4m7!3m6!1s0x47b18bead6092aa9:0x4f9f03514e81de58!8m2!3d53.5481628!4d10.1165963!16s%2Fg%2F11j7vq_7pc!19sChIJqSoJ1uqLsUcRWN6BTlEDn08?authuser=0&hl=tr&rclk=1",
    "website_url": "",
    "rating_text": "5,0",
    "stars": null,
    "number_of_reviews": null,
    "price_level": "",
    "open_hours": "",
    "extraction_timestamp": "2025-06-07T15:23:29.965Z",
    "source_name": "google",
    "source_query": "Irrigation Equipment",
    "source_country": "DE",
    "country": "Germany",
    "state": "Hamburg",
    "city": "Steilshoop"
  },
  {
    "source_id": "ChIJG5T3QIaNsUcRSATgC-vxcyQ",
    "name": "TMN Haustechnik GmbH",
    "category": "TMN Haustechnik GmbH",
    "formatted_address": "5,0(11)",
    "phone_number": "+494044195755",
    "source_url": "https://www.google.com/maps/place/TMN+Haustechnik+GmbH/data=!4m7!3m6!1s0x47b18d8640f7941b:0x2473f1eb0be00448!8m2!3d53.5306991!4d10.1221172!16s%2Fg%2F11y5njqdt7!19sChIJG5T3QIaNsUcRSATgC-vxcyQ?authuser=0&hl=tr&rclk=1",
    "website_url": "",
    "rating_text": "5,0",
    "stars": null,
    "number_of_reviews": null,
    "price_level": "",
    "open_hours": "",
    "extraction_timestamp": "2025-06-07T15:23:29.966Z",
    "source_name": "google",
    "source_query": "Irrigation Equipment",
    "source_country": "DE",
    "country": "Germany",
    "state": "Hamburg",
    "city": "Steilshoop"
  },
  {
    "source_id": "ChIJvwZQlbGNsUcR_myaBWJAQgM",
    "name": "Penning Sanitärhandel GmbH & Co. KG",
    "category": "Penning Sanitärhandel GmbH & Co. KG",
    "formatted_address": "3,5(107)",
    "phone_number": "+49407360600",
    "source_url": "https://www.google.com/maps/place/Penning+Sanit%C3%A4rhandel+GmbH+%26+Co.+KG/data=!4m7!3m6!1s0x47b18db1955006bf:0x3424062059a6cfe!8m2!3d53.5209608!4d10.0928481!16s%2Fg%2F1td16x6w!19sChIJvwZQlbGNsUcR_myaBWJAQgM?authuser=0&hl=tr&rclk=1",
    "website_url": "",
    "rating_text": "3,5",
    "stars": null,
    "number_of_reviews": null,
    "price_level": "",
    "open_hours": "",
    "extraction_timestamp": "2025-06-07T15:23:29.967Z",
    "source_name": "google",
    "source_query": "Irrigation Equipment",
    "source_country": "DE",
    "country": "Germany",
    "state": "Hamburg",
    "city": "Steilshoop"
  },
  {
    "source_id": "ChIJu-g2n-WIsUcRBeIBVUNa9Es",
    "name": "F.W.M. Schorbach KG (GmbH & Co.)",
    "category": "F.W.M. Schorbach KG (GmbH & Co.)",
    "formatted_address": "4,5(16)",
    "phone_number": "+4940511290",
    "source_url": "https://www.google.com/maps/place/F.W.M.+Schorbach+KG+%28GmbH+%26+Co.%29/data=!4m7!3m6!1s0x47b188e59f36e8bb:0x4bf45a435501e205!8m2!3d53.6086909!4d10.0079014!16s%2Fg%2F1thlm3tw!19sChIJu-g2n-WIsUcRBeIBVUNa9Es?authuser=0&hl=tr&rclk=1",
    "website_url": "",
    "rating_text": "4,5",
    "stars": null,
    "number_of_reviews": null,
    "price_level": "",
    "open_hours": "",
    "extraction_timestamp": "2025-06-07T15:23:29.968Z",
    "source_name": "google",
    "source_query": "Irrigation Equipment",
    "source_country": "DE",
    "country": "Germany",
    "state": "Hamburg",
    "city": "Steilshoop"
  },
  {
    "source_id": "ChIJ3we_NEKPsUcRaJWtkYXM1hI",
    "name": "Udopea Hamburg",
    "category": "Udopea Hamburg",
    "formatted_address": "4,6(374)",
    "phone_number": "+494041912883",
    "source_url": "https://www.google.com/maps/place/Udopea+Hamburg/data=!4m7!3m6!1s0x47b18f4234bf07df:0x12d6cc8591ad9568!8m2!3d53.5633062!4d9.9652483!16s%2Fg%2F1tk1m10f!19sChIJ3we_NEKPsUcRaJWtkYXM1hI?authuser=0&hl=tr&rclk=1",
    "website_url": "",
    "rating_text": "4,6",
    "stars": null,
    "number_of_reviews": null,
    "price_level": "",
    "open_hours": "",
    "extraction_timestamp": "2025-06-07T15:23:29.968Z",
    "source_name": "google",
    "source_query": "Irrigation Equipment",
    "source_country": "DE",
    "country": "Germany",
    "state": "Hamburg",
    "city": "Steilshoop"
  },
  {
    "source_id": "ChIJkT2vkRqMsUcRQwSvaHxKkYQ",
    "name": "The BIOFILMKILLER",
    "category": "The BIOFILMKILLER",
    "formatted_address": "",
    "phone_number": "+4915167638771",
    "source_url": "https://www.google.com/maps/place/The+BIOFILMKILLER/data=!4m7!3m6!1s0x47b18c1a91af3d91:0x84914a7c68af0443!8m2!3d53.5598497!4d10.0784309!16s%2Fg%2F11cs32py4x!19sChIJkT2vkRqMsUcRQwSvaHxKkYQ?authuser=0&hl=tr&rclk=1",
    "website_url": "",
    "rating_text": "",
    "stars": null,
    "number_of_reviews": null,
    "price_level": "",
    "open_hours": "",
    "extraction_timestamp": "2025-06-07T15:23:29.969Z",
    "source_name": "google",
    "source_query": "Irrigation Equipment",
    "source_country": "DE",
    "country": "Germany",
    "state": "Hamburg",
    "city": "Steilshoop"
  },
  {
    "source_id": "ChIJT8IYlWuJsUcRoQ5zrzufmtk",
    "name": "Prinzessin Eisbär Winterhude - Hamburg",
    "category": "Prinzessin Eisbär Winterhude - Hamburg",
    "formatted_address": "4,9(101)",
    "phone_number": "+4917664317805",
    "source_url": "https://www.google.com/maps/place/Prinzessin+Eisb%C3%A4r+Winterhude+-+Hamburg/data=!4m7!3m6!1s0x47b1896b9518c24f:0xd99a9f3baf730ea1!8m2!3d53.5813697!4d10.0097333!16s%2Fg%2F11rgrt3lkw!19sChIJT8IYlWuJsUcRoQ5zrzufmtk?authuser=0&hl=tr&rclk=1",
    "website_url": "",
    "rating_text": "4,9",
    "stars": null,
    "number_of_reviews": null,
    "price_level": "",
    "open_hours": "",
    "extraction_timestamp": "2025-06-07T15:23:29.970Z",
    "source_name": "google",
    "source_query": "Irrigation Equipment",
    "source_country": "DE",
    "country": "Germany",
    "state": "Hamburg",
    "city": "Steilshoop"
  },
  {
    "source_id": "ChIJh5ZD9s2OsUcRZX-JZep71LA",
    "name": "Hände und Werke Sanitärtechnik",
    "category": "Hände und Werke Sanitärtechnik",
    "formatted_address": "4,9(29)",
    "phone_number": "+494042917661",
    "source_url": "https://www.google.com/maps/place/H%C3%A4nde+und+Werke+Sanit%C3%A4rtechnik/data=!4m7!3m6!1s0x47b18ecdf6439687:0xb0d47bea65897f65!8m2!3d53.5313554!4d10.1264087!16s%2Fg%2F11c543qwl1!19sChIJh5ZD9s2OsUcRZX-JZep71LA?authuser=0&hl=tr&rclk=1",
    "website_url": "",
    "rating_text": "4,9",
    "stars": null,
    "number_of_reviews": null,
    "price_level": "",
    "open_hours": "",
    "extraction_timestamp": "2025-06-07T15:23:29.971Z",
    "source_name": "google",
    "source_query": "Irrigation Equipment",
    "source_country": "DE",
    "country": "Germany",
    "state": "Hamburg",
    "city": "Steilshoop"
  },
  {
    "source_id": "ChIJh7QU7v-PsUcRcEQjCJRoNvg",
    "name": "Klempner Schiller Rohrreinigung Hamburg",
    "category": "Klempner Schiller Rohrreinigung Hamburg",
    "formatted_address": "5,0(8)",
    "phone_number": "+49403567614124",
    "source_url": "https://www.google.com/maps/place/Klempner+Schiller+Rohrreinigung+Hamburg/data=!4m7!3m6!1s0x47b18fffee14b487:0xf836689408234470!8m2!3d53.5634274!4d10.0233007!16s%2Fg%2F11st_jk60n!19sChIJh7QU7v-PsUcRcEQjCJRoNvg?authuser=0&hl=tr&rclk=1",
    "website_url": "",
    "rating_text": "5,0",
    "stars": null,
    "number_of_reviews": null,
    "price_level": "",
    "open_hours": "",
    "extraction_timestamp": "2025-06-07T15:23:29.972Z",
    "source_name": "google",
    "source_query": "Irrigation Equipment",
    "source_country": "DE",
    "country": "Germany",
    "state": "Hamburg",
    "city": "Steilshoop"
  }
]
