[
  {
    "source_id": "ChIJoTTkHW6GsUcRuYcF9jn7GgE",
    "name": "Emil Lüdemann GmbH & Co. KG",
    "category": "Emil Lüdemann GmbH & Co. KG",
    "formatted_address": "4,6(344)",
    "phone_number": "+49405472190",
    "source_url": "https://www.google.com/maps/place/Emil+L%C3%BCdemann+GmbH+%26+Co.+KG/data=!4m7!3m6!1s0x47b1866e1de434a1:0x11afb39f60587b9!8m2!3d53.5974091!4d9.9174937!16s%2Fg%2F1tqck8cj!19sChIJoTTkHW6GsUcRuYcF9jn7GgE?authuser=0&hl=tr&rclk=1",
    "website_url": "",
    "rating_text": "4,6",
    "stars": null,
    "number_of_reviews": null,
    "price_level": "",
    "open_hours": "",
    "extraction_timestamp": "2025-06-07T15:23:02.058Z",
    "source_name": "google",
    "source_query": "Irrigation Equipment",
    "source_country": "DE",
    "country": "Germany",
    "state": "Hamburg",
    "city": "Stellingen"
  },
  {
    "source_id": "ChIJfz6Rim2GsUcRPFzt8Q1jJkM",
    "name": "BAUHAUS Hamburg-Stellingen",
    "category": "BAUHAUS Hamburg-Stellingen",
    "formatted_address": "4,3(3.189)",
    "phone_number": "+4931894",
    "source_url": "https://www.google.com/maps/place/BAUHAUS+Hamburg-Stellingen/data=!4m7!3m6!1s0x47b1866d8a913e7f:0x4326630df1ed5c3c!8m2!3d53.5959387!4d9.9206854!16s%2Fg%2F11bbt39_9_!19sChIJfz6Rim2GsUcRPFzt8Q1jJkM?authuser=0&hl=tr&rclk=1",
    "website_url": "",
    "rating_text": "4,3",
    "stars": null,
    "number_of_reviews": null,
    "price_level": "",
    "open_hours": "",
    "extraction_timestamp": "2025-06-07T15:23:02.060Z",
    "source_name": "google",
    "source_query": "Irrigation Equipment",
    "source_country": "DE",
    "country": "Germany",
    "state": "Hamburg",
    "city": "Stellingen"
  },
  {
    "source_id": "ChIJT5kNVm6GsUcRGdpMJN5HjvE",
    "name": "Wonsak carbonic Service GmbH",
    "category": "Wonsak carbonic Service GmbH",
    "formatted_address": "4,8(108)",
    "phone_number": "+49404910444",
    "source_url": "https://www.google.com/maps/place/Wonsak+carbonic+Service+GmbH/data=!4m7!3m6!1s0x47b1866e560d994f:0xf18e47de244cda19!8m2!3d53.6008453!4d9.9176142!16s%2Fg%2F1v9l9v55!19sChIJT5kNVm6GsUcRGdpMJN5HjvE?authuser=0&hl=tr&rclk=1",
    "website_url": "",
    "rating_text": "4,8",
    "stars": null,
    "number_of_reviews": null,
    "price_level": "",
    "open_hours": "",
    "extraction_timestamp": "2025-06-07T15:23:02.062Z",
    "source_name": "google",
    "source_query": "Irrigation Equipment",
    "source_country": "DE",
    "country": "Germany",
    "state": "Hamburg",
    "city": "Stellingen"
  },
  {
    "source_id": "ChIJCxFSMgiGsUcRtlj7xi1g3Ow",
    "name": "Deckma Hamburg GmbH",
    "category": "Deckma Hamburg GmbH",
    "formatted_address": "4,0(10)",
    "phone_number": "+49405488760",
    "source_url": "https://www.google.com/maps/place/Deckma+Hamburg+GmbH/data=!4m7!3m6!1s0x47b186083252110b:0xecdc602dc6fb58b6!8m2!3d53.5860241!4d9.9339293!16s%2Fg%2F1tgqhgrr!19sChIJCxFSMgiGsUcRtlj7xi1g3Ow?authuser=0&hl=tr&rclk=1",
    "website_url": "",
    "rating_text": "4,0",
    "stars": null,
    "number_of_reviews": null,
    "price_level": "",
    "open_hours": "",
    "extraction_timestamp": "2025-06-07T15:23:02.063Z",
    "source_name": "google",
    "source_query": "Irrigation Equipment",
    "source_country": "DE",
    "country": "Germany",
    "state": "Hamburg",
    "city": "Stellingen"
  },
  {
    "source_id": "ChIJQ6rCUrSHsUcRfMynU6Ryuyc",
    "name": "BAUHAUS Stadtgarten Hamburg-Stellingen",
    "category": "BAUHAUS Stadtgarten Hamburg-Stellingen",
    "formatted_address": "4,4(37)",
    "phone_number": "+494052108980",
    "source_url": "https://www.google.com/maps/place/BAUHAUS+Stadtgarten+Hamburg-Stellingen/data=!4m7!3m6!1s0x47b187b452c2aa43:0x27bb72a453a7cc7c!8m2!3d53.5963074!4d9.9216836!16s%2Fg%2F11l2gkc0k8!19sChIJQ6rCUrSHsUcRfMynU6Ryuyc?authuser=0&hl=tr&rclk=1",
    "website_url": "",
    "rating_text": "4,4",
    "stars": null,
    "number_of_reviews": null,
    "price_level": "",
    "open_hours": "",
    "extraction_timestamp": "2025-06-07T15:23:02.065Z",
    "source_name": "google",
    "source_query": "Irrigation Equipment",
    "source_country": "DE",
    "country": "Germany",
    "state": "Hamburg",
    "city": "Stellingen"
  },
  {
    "source_id": "ChIJ7em9Wp-IsUcR-PnzCLUWox4",
    "name": "Quellklar by Hydro-Shop",
    "category": "Quellklar by Hydro-Shop",
    "formatted_address": "3,5(8)",
    "phone_number": "+49405001720",
    "source_url": "https://www.google.com/maps/place/Quellklar+by+Hydro-Shop/data=!4m7!3m6!1s0x47b1889f5abde9ed:0x1ea316b508f3f9f8!8m2!3d53.610056!4d9.974098!16s%2Fg%2F1hc3w12m3!19sChIJ7em9Wp-IsUcR-PnzCLUWox4?authuser=0&hl=tr&rclk=1",
    "website_url": "",
    "rating_text": "3,5",
    "stars": null,
    "number_of_reviews": null,
    "price_level": "",
    "open_hours": "",
    "extraction_timestamp": "2025-06-07T15:23:02.066Z",
    "source_name": "google",
    "source_query": "Irrigation Equipment",
    "source_country": "DE",
    "country": "Germany",
    "state": "Hamburg",
    "city": "Stellingen"
  },
  {
    "source_id": "ChIJc7vJ3-KFsUcRcJl_z8aDylk",
    "name": "Fitness Shop Hamburg",
    "category": "Fitness Shop Hamburg",
    "formatted_address": "4,9(862)",
    "phone_number": "+49405401379",
    "source_url": "https://www.google.com/maps/place/Fitness+Shop+Hamburg/data=!4m7!3m6!1s0x47b185e2dfc9bb73:0x59ca83c6cf7f9970!8m2!3d53.5825151!4d9.9344048!16s%2Fg%2F11b764q4qt!19sChIJc7vJ3-KFsUcRcJl_z8aDylk?authuser=0&hl=tr&rclk=1",
    "website_url": "",
    "rating_text": "4,9",
    "stars": null,
    "number_of_reviews": null,
    "price_level": "",
    "open_hours": "",
    "extraction_timestamp": "2025-06-07T15:23:02.067Z",
    "source_name": "google",
    "source_query": "Irrigation Equipment",
    "source_country": "DE",
    "country": "Germany",
    "state": "Hamburg",
    "city": "Stellingen"
  },
  {
    "source_id": "ChIJbZWvBVSPsUcRztmvggSyx7w",
    "name": "HEG Engineering GmbH",
    "category": "HEG Engineering GmbH",
    "formatted_address": "5,0(1)",
    "phone_number": "+49404231110",
    "source_url": "https://www.google.com/maps/place/HEG+Engineering+GmbH/data=!4m7!3m6!1s0x47b18f5405af956d:0xbcc7b20482afd9ce!8m2!3d53.5783202!4d9.9565436!16s%2Fg%2F1v0ljv54!19sChIJbZWvBVSPsUcRztmvggSyx7w?authuser=0&hl=tr&rclk=1",
    "website_url": "",
    "rating_text": "5,0",
    "stars": null,
    "number_of_reviews": null,
    "price_level": "",
    "open_hours": "",
    "extraction_timestamp": "2025-06-07T15:23:02.068Z",
    "source_name": "google",
    "source_query": "Irrigation Equipment",
    "source_country": "DE",
    "country": "Germany",
    "state": "Hamburg",
    "city": "Stellingen"
  },
  {
    "source_id": "ChIJ_XLpkqiIsUcRj-IjIF9c18g",
    "name": "CANEL HANDELS GMBH",
    "category": "CANEL HANDELS GMBH",
    "formatted_address": "5,0(2)",
    "phone_number": "+49405604221",
    "source_url": "https://www.google.com/maps/place/CANEL+HANDELS+GMBH/data=!4m7!3m6!1s0x47b188a892e972fd:0xc8d75c5f2023e28f!8m2!3d53.5927815!4d9.9603842!16s%2Fg%2F1tdjw1_f!19sChIJ_XLpkqiIsUcRj-IjIF9c18g?authuser=0&hl=tr&rclk=1",
    "website_url": "",
    "rating_text": "5,0",
    "stars": null,
    "number_of_reviews": null,
    "price_level": "",
    "open_hours": "",
    "extraction_timestamp": "2025-06-07T15:23:02.070Z",
    "source_name": "google",
    "source_query": "Irrigation Equipment",
    "source_country": "DE",
    "country": "Germany",
    "state": "Hamburg",
    "city": "Stellingen"
  },
  {
    "source_id": "ChIJ4R34GoKPsUcR_Di8Y72u1Q4",
    "name": "AN-Beregnungstechnik",
    "category": "AN-Beregnungstechnik",
    "formatted_address": "",
    "phone_number": "+4917673517226",
    "source_url": "https://www.google.com/maps/place/AN-Beregnungstechnik/data=!4m7!3m6!1s0x47b18f821af81de1:0xed5aebd63bc38fc!8m2!3d53.5576744!4d10.0112776!16s%2Fg%2F11x33m21xg!19sChIJ4R34GoKPsUcR_Di8Y72u1Q4?authuser=0&hl=tr&rclk=1",
    "website_url": "",
    "rating_text": "",
    "stars": null,
    "number_of_reviews": null,
    "price_level": "",
    "open_hours": "",
    "extraction_timestamp": "2025-06-07T15:23:02.070Z",
    "source_name": "google",
    "source_query": "Irrigation Equipment",
    "source_country": "DE",
    "country": "Germany",
    "state": "Hamburg",
    "city": "Stellingen"
  },
  {
    "source_id": "ChIJJVPkPf6FsUcRXb6zUvaELo4",
    "name": "Möck & Sommer GmbH & Co. KG",
    "category": "Möck & Sommer GmbH & Co. KG",
    "formatted_address": "4,6(27)",
    "phone_number": "+4940409925",
    "source_url": "https://www.google.com/maps/place/M%C3%B6ck+%26+Sommer+GmbH+%26+Co.+KG/data=!4m7!3m6!1s0x47b185fe3de45325:0x8e2e84f652b3be5d!8m2!3d53.58118!4d9.92566!16s%2Fg%2F1tjffx3p!19sChIJJVPkPf6FsUcRXb6zUvaELo4?authuser=0&hl=tr&rclk=1",
    "website_url": "",
    "rating_text": "4,6",
    "stars": null,
    "number_of_reviews": null,
    "price_level": "",
    "open_hours": "",
    "extraction_timestamp": "2025-06-07T15:23:02.072Z",
    "source_name": "google",
    "source_query": "Irrigation Equipment",
    "source_country": "DE",
    "country": "Germany",
    "state": "Hamburg",
    "city": "Stellingen"
  },
  {
    "source_id": "ChIJcebXx_2FsUcRWdwSJSOMb-8",
    "name": "Heiner Scholz Sanitärtechnik GmbH",
    "category": "Heiner Scholz Sanitärtechnik GmbH",
    "formatted_address": "3,8(25)",
    "phone_number": "+49404916062",
    "source_url": "https://www.google.com/maps/place/Heiner+Scholz+Sanit%C3%A4rtechnik+GmbH/data=!4m7!3m6!1s0x47b185fdc7d7e671:0xef6f8c232512dc59!8m2!3d53.5826317!4d9.9417573!16s%2Fg%2F1vf9bdtj!19sChIJcebXx_2FsUcRWdwSJSOMb-8?authuser=0&hl=tr&rclk=1",
    "website_url": "",
    "rating_text": "3,8",
    "stars": null,
    "number_of_reviews": null,
    "price_level": "",
    "open_hours": "",
    "extraction_timestamp": "2025-06-07T15:23:02.072Z",
    "source_name": "google",
    "source_query": "Irrigation Equipment",
    "source_country": "DE",
    "country": "Germany",
    "state": "Hamburg",
    "city": "Stellingen"
  },
  {
    "source_id": "ChIJK0vw8PmFsUcRb7VjJz6eUUs",
    "name": "Speidel System Drying GmbH",
    "category": "Speidel System Drying GmbH",
    "formatted_address": "4,2(19)",
    "phone_number": "+4940853280024",
    "source_url": "https://www.google.com/maps/place/Speidel+System+Drying+GmbH/data=!4m7!3m6!1s0x47b185f9f0f04b2b:0x4b519e3e2763b56f!8m2!3d53.573945!4d9.9270676!16s%2Fg%2F1th80_fv!19sChIJK0vw8PmFsUcRb7VjJz6eUUs?authuser=0&hl=tr&rclk=1",
    "website_url": "",
    "rating_text": "4,2",
    "stars": null,
    "number_of_reviews": null,
    "price_level": "",
    "open_hours": "",
    "extraction_timestamp": "2025-06-07T15:23:02.073Z",
    "source_name": "google",
    "source_query": "Irrigation Equipment",
    "source_country": "DE",
    "country": "Germany",
    "state": "Hamburg",
    "city": "Stellingen"
  },
  {
    "source_id": "ChIJfQRYrOyFsUcR7THt9-0_dys",
    "name": "Distelmaier GmbH Sanitär - Heizung - Dach",
    "category": "Distelmaier GmbH Sanitär - Heizung - Dach",
    "formatted_address": "4,9(16)",
    "phone_number": "+49408800707",
    "source_url": "https://www.google.com/maps/place/Distelmaier+GmbH+Sanit%C3%A4r+-+Heizung+-+Dach/data=!4m7!3m6!1s0x47b185ecac58047d:0x2b773fedf7ed31ed!8m2!3d53.5739738!4d9.9288069!16s%2Fg%2F1tg2ck9x!19sChIJfQRYrOyFsUcR7THt9-0_dys?authuser=0&hl=tr&rclk=1",
    "website_url": "",
    "rating_text": "4,9",
    "stars": null,
    "number_of_reviews": null,
    "price_level": "",
    "open_hours": "",
    "extraction_timestamp": "2025-06-07T15:23:02.074Z",
    "source_name": "google",
    "source_query": "Irrigation Equipment",
    "source_country": "DE",
    "country": "Germany",
    "state": "Hamburg",
    "city": "Stellingen"
  },
  {
    "source_id": "ChIJt_gbWU2IsUcRyqluBbTZIHg",
    "name": "Sander & Pielström Haus- und Dachtechnik GmbH",
    "category": "Sander & Pielström Haus- und Dachtechnik GmbH",
    "formatted_address": "4,6(28)",
    "phone_number": "",
    "source_url": "https://www.google.com/maps/place/Sander+%26+Pielstr%C3%B6m+Haus-+und+Dachtechnik+GmbH/data=!4m7!3m6!1s0x47b1884d591bf8b7:0x7820d9b4056ea9ca!8m2!3d53.5747587!4d9.9181544!16s%2Fg%2F1tkv8trw!19sChIJt_gbWU2IsUcRyqluBbTZIHg?authuser=0&hl=tr&rclk=1",
    "website_url": "",
    "rating_text": "4,6",
    "stars": null,
    "number_of_reviews": null,
    "price_level": "",
    "open_hours": "",
    "extraction_timestamp": "2025-06-07T15:23:02.075Z",
    "source_name": "google",
    "source_query": "Irrigation Equipment",
    "source_country": "DE",
    "country": "Germany",
    "state": "Hamburg",
    "city": "Stellingen"
  },
  {
    "source_id": "ChIJhRfTwEuFsUcR2SQJs_qVtu4",
    "name": "D.F. Liedelt Heizungs- und Sanitär-Großhandels-GmbH Abhol-Center",
    "category": "D.F. Liedelt Heizungs- und Sanitär-Großhandels-GmbH Abhol-Center",
    "formatted_address": "4,0(34)",
    "phone_number": "+494088302517",
    "source_url": "https://www.google.com/maps/place/D.F.+Liedelt+Heizungs-+und+Sanit%C3%A4r-Gro%C3%9Fhandels-GmbH+Abhol-Center/data=!4m7!3m6!1s0x47b1854bc0d31785:0xeeb695fab30924d9!8m2!3d53.5791778!4d9.917365!16s%2Fg%2F11h2718kns!19sChIJhRfTwEuFsUcR2SQJs_qVtu4?authuser=0&hl=tr&rclk=1",
    "website_url": "",
    "rating_text": "4,0",
    "stars": null,
    "number_of_reviews": null,
    "price_level": "",
    "open_hours": "",
    "extraction_timestamp": "2025-06-07T15:23:02.076Z",
    "source_name": "google",
    "source_query": "Irrigation Equipment",
    "source_country": "DE",
    "country": "Germany",
    "state": "Hamburg",
    "city": "Stellingen"
  },
  {
    "source_id": "ChIJQ-C3as-FsUcRO3i8_9WUBW4",
    "name": "Federau Heizungsbau- und Sanitärtechnik",
    "category": "Federau Heizungsbau- und Sanitärtechnik",
    "formatted_address": "5,0(1)",
    "phone_number": "+494054001499",
    "source_url": "https://www.google.com/maps/place/Federau+Heizungsbau-+und+Sanit%C3%A4rtechnik/data=!4m7!3m6!1s0x47b185cf6ab7e043:0x6e0594d5ffbc783b!8m2!3d53.57995!4d9.92655!16s%2Fg%2F11ll45h2pw!19sChIJQ-C3as-FsUcRO3i8_9WUBW4?authuser=0&hl=tr&rclk=1",
    "website_url": "",
    "rating_text": "5,0",
    "stars": null,
    "number_of_reviews": null,
    "price_level": "",
    "open_hours": "",
    "extraction_timestamp": "2025-06-07T15:23:02.077Z",
    "source_name": "google",
    "source_query": "Irrigation Equipment",
    "source_country": "DE",
    "country": "Germany",
    "state": "Hamburg",
    "city": "Stellingen"
  },
  {
    "source_id": "ChIJ0-rdiXSGsUcRNY3WD1apjvo",
    "name": "ServiceStore DB",
    "category": "ServiceStore DB",
    "formatted_address": "3,9(219)",
    "phone_number": "+494042934155",
    "source_url": "https://www.google.com/maps/place/ServiceStore+DB/data=!4m7!3m6!1s0x47b1867489ddead3:0xfa8ea9560fd68d35!8m2!3d53.589941!4d9.9186607!16s%2Fg%2F11cn9kn8z0!19sChIJ0-rdiXSGsUcRNY3WD1apjvo?authuser=0&hl=tr&rclk=1",
    "website_url": "",
    "rating_text": "3,9",
    "stars": null,
    "number_of_reviews": null,
    "price_level": "",
    "open_hours": "",
    "extraction_timestamp": "2025-06-07T15:23:02.079Z",
    "source_name": "google",
    "source_query": "Irrigation Equipment",
    "source_country": "DE",
    "country": "Germany",
    "state": "Hamburg",
    "city": "Stellingen"
  },
  {
    "source_id": "ChIJA_hvoPiFsUcRzn_m3jOjZag",
    "name": "Jens Henners Sanitärtechnik GmbH",
    "category": "Jens Henners Sanitärtechnik GmbH",
    "formatted_address": "5,0(1)",
    "phone_number": "+4940495908",
    "source_url": "https://www.google.com/maps/place/Jens+Henners+Sanit%C3%A4rtechnik+GmbH/data=!4m7!3m6!1s0x47b185f8a06ff803:0xa865a333dee67fce!8m2!3d53.5771486!4d9.9491956!16s%2Fg%2F1trvkh4y!19sChIJA_hvoPiFsUcRzn_m3jOjZag?authuser=0&hl=tr&rclk=1",
    "website_url": "",
    "rating_text": "5,0",
    "stars": null,
    "number_of_reviews": null,
    "price_level": "",
    "open_hours": "",
    "extraction_timestamp": "2025-06-07T15:23:02.079Z",
    "source_name": "google",
    "source_query": "Irrigation Equipment",
    "source_country": "DE",
    "country": "Germany",
    "state": "Hamburg",
    "city": "Stellingen"
  },
  {
    "source_id": "ChIJIwS1vfyFsUcRR7tvlOOH7Vc",
    "name": "Karl Krüger & Sohn GmbH (Heizung, Sanitär, Dach)",
    "category": "Karl Krüger & Sohn GmbH (Heizung, Sanitär, Dach)",
    "formatted_address": "Karl Krüger & Sohn GmbH (Heizung, Sanitär, Dach)",
    "phone_number": "+49408501003",
    "source_url": "https://www.google.com/maps/place/Karl+Kr%C3%BCger+%26+Sohn+GmbH+%28Heizung,+Sanit%C3%A4r,+Dach%29/data=!4m7!3m6!1s0x47b185fcbdb50423:0x57ed87e3946fbb47!8m2!3d53.5803271!4d9.9370863!16s%2Fg%2F1tjxdqb7!19sChIJIwS1vfyFsUcRR7tvlOOH7Vc?authuser=0&hl=tr&rclk=1",
    "website_url": "",
    "rating_text": "4,1",
    "stars": null,
    "number_of_reviews": null,
    "price_level": "",
    "open_hours": "",
    "extraction_timestamp": "2025-06-07T15:23:02.080Z",
    "source_name": "google",
    "source_query": "Irrigation Equipment",
    "source_country": "DE",
    "country": "Germany",
    "state": "Hamburg",
    "city": "Stellingen"
  },
  {
    "source_id": "ChIJK9e1W3IgskcRujMeeHH8K98",
    "name": "Friedrich Lange GmbH - Bathroom Showroom Hamburg-Bahrenfeld",
    "category": "Friedrich Lange GmbH - Bathroom Showroom Hamburg-Bahrenfeld",
    "formatted_address": "3,7(55)",
    "phone_number": "+49408996630",
    "source_url": "https://www.google.com/maps/place/Friedrich+Lange+GmbH+-+Bathroom+Showroom+Hamburg-Bahrenfeld/data=!4m7!3m6!1s0x47b220725bb5d72b:0xdf2bfc71781e33ba!8m2!3d53.5666559!4d9.9186693!16s%2Fg%2F1tfgc8s5!19sChIJK9e1W3IgskcRujMeeHH8K98?authuser=0&hl=tr&rclk=1",
    "website_url": "",
    "rating_text": "3,7",
    "stars": null,
    "number_of_reviews": null,
    "price_level": "",
    "open_hours": "",
    "extraction_timestamp": "2025-06-07T15:23:02.081Z",
    "source_name": "google",
    "source_query": "Irrigation Equipment",
    "source_country": "DE",
    "country": "Germany",
    "state": "Hamburg",
    "city": "Stellingen"
  },
  {
    "source_id": "ChIJ3bFqLziPsUcRCkAWr3zpqBk",
    "name": "Flumm Richard GmbH Plumbing Heating and Electric",
    "category": "Flumm Richard GmbH Plumbing Heating and Electric",
    "formatted_address": "3,9(32)",
    "phone_number": "+4940446502",
    "source_url": "https://www.google.com/maps/place/Flumm+Richard+GmbH+Plumbing+Heating+and+Electric/data=!4m7!3m6!1s0x47b18f382f6ab1dd:0x19a8e97caf16400a!8m2!3d53.5698534!4d9.9794699!16s%2Fg%2F1tfrwk84!19sChIJ3bFqLziPsUcRCkAWr3zpqBk?authuser=0&hl=tr&rclk=1",
    "website_url": "",
    "rating_text": "3,9",
    "stars": null,
    "number_of_reviews": null,
    "price_level": "",
    "open_hours": "",
    "extraction_timestamp": "2025-06-07T15:23:02.082Z",
    "source_name": "google",
    "source_query": "Irrigation Equipment",
    "source_country": "DE",
    "country": "Germany",
    "state": "Hamburg",
    "city": "Stellingen"
  },
  {
    "source_id": "ChIJg_6l9UePsUcRjXr1yhhEL6c",
    "name": "Industriekletterer Hamburg - R&F Solutions",
    "category": "Industriekletterer Hamburg - R&F Solutions",
    "formatted_address": "5,0(22)",
    "phone_number": "+49417160533624",
    "source_url": "https://www.google.com/maps/place/Industriekletterer+Hamburg+-+R%26F+Solutions/data=!4m7!3m6!1s0x47b18f47f5a5fe83:0xa72f4418caf57a8d!8m2!3d53.5693177!4d9.9764471!16s%2Fg%2F11cjh_sg8x!19sChIJg_6l9UePsUcRjXr1yhhEL6c?authuser=0&hl=tr&rclk=1",
    "website_url": "",
    "rating_text": "5,0",
    "stars": null,
    "number_of_reviews": null,
    "price_level": "",
    "open_hours": "",
    "extraction_timestamp": "2025-06-07T15:23:02.083Z",
    "source_name": "google",
    "source_query": "Irrigation Equipment",
    "source_country": "DE",
    "country": "Germany",
    "state": "Hamburg",
    "city": "Stellingen"
  },
  {
    "source_id": "ChIJEZ_HX66oc0ERFDyQbJ9vKYs",
    "name": "Thomas Schönfelder Sanitärtechnik",
    "category": "Thomas Schönfelder Sanitärtechnik",
    "formatted_address": "4,7(6)",
    "phone_number": "+4940400055",
    "source_url": "https://www.google.com/maps/place/Thomas+Sch%C3%B6nfelder+Sanit%C3%A4rtechnik/data=!4m7!3m6!1s0x4173a8ae5fc79f11:0x8b296f9f6c903c14!8m2!3d53.57861!4d9.9623901!16s%2Fg%2F1tsbl5k9!19sChIJEZ_HX66oc0ERFDyQbJ9vKYs?authuser=0&hl=tr&rclk=1",
    "website_url": "",
    "rating_text": "4,7",
    "stars": null,
    "number_of_reviews": null,
    "price_level": "",
    "open_hours": "",
    "extraction_timestamp": "2025-06-07T15:23:02.084Z",
    "source_name": "google",
    "source_query": "Irrigation Equipment",
    "source_country": "DE",
    "country": "Germany",
    "state": "Hamburg",
    "city": "Stellingen"
  },
  {
    "source_id": "ChIJY24_2eOOsUcRlgh309VEt8M",
    "name": "MediaMarkt Tech Village Hamburg",
    "category": "MediaMarkt Tech Village Hamburg",
    "formatted_address": "4,2(23.660)",
    "phone_number": "+49236604",
    "source_url": "https://www.google.com/maps/place/MediaMarkt+Tech+Village+Hamburg/data=!4m7!3m6!1s0x47b18ee3d93f6e63:0xc3b744d5d3770896!8m2!3d53.5511444!4d10.0056203!16s%2Fg%2F1tdrdf7v!19sChIJY24_2eOOsUcRlgh309VEt8M?authuser=0&hl=tr&rclk=1",
    "website_url": "",
    "rating_text": "4,2",
    "stars": null,
    "number_of_reviews": null,
    "price_level": "",
    "open_hours": "",
    "extraction_timestamp": "2025-06-07T15:23:02.085Z",
    "source_name": "google",
    "source_query": "Irrigation Equipment",
    "source_country": "DE",
    "country": "Germany",
    "state": "Hamburg",
    "city": "Stellingen"
  },
  {
    "source_id": "ChIJq5g0ZQWPsUcReN_8zOnsI4o",
    "name": "Søstrene Grene",
    "category": "Søstrene Grene",
    "formatted_address": "4,6(132)",
    "phone_number": "",
    "source_url": "https://www.google.com/maps/place/S%C3%B8strene+Grene/data=!4m7!3m6!1s0x47b18f05653498ab:0x8a23ece9ccfcdf78!8m2!3d53.5515844!4d10.0006031!16s%2Fg%2F11p777f9kw!19sChIJq5g0ZQWPsUcReN_8zOnsI4o?authuser=0&hl=tr&rclk=1",
    "website_url": "",
    "rating_text": "4,6",
    "stars": null,
    "number_of_reviews": null,
    "price_level": "",
    "open_hours": "",
    "extraction_timestamp": "2025-06-07T15:23:02.086Z",
    "source_name": "google",
    "source_query": "Irrigation Equipment",
    "source_country": "DE",
    "country": "Germany",
    "state": "Hamburg",
    "city": "Stellingen"
  },
  {
    "source_id": "ChIJARMfdRqGsUcRJg2EVddwWHY",
    "name": "Locatec Hamburg - R.D. Ortungstechnik",
    "category": "Locatec Hamburg - R.D. Ortungstechnik",
    "formatted_address": "5,0(28)",
    "phone_number": "+494018050128",
    "source_url": "https://www.google.com/maps/place/Locatec+Hamburg+-+R.D.+Ortungstechnik/data=!4m7!3m6!1s0x47b1861a751f1301:0x765870d755840d26!8m2!3d53.5980761!4d9.9146824!16s%2Fg%2F12htvmygz!19sChIJARMfdRqGsUcRJg2EVddwWHY?authuser=0&hl=tr&rclk=1",
    "website_url": "",
    "rating_text": "5,0",
    "stars": null,
    "number_of_reviews": null,
    "price_level": "",
    "open_hours": "",
    "extraction_timestamp": "2025-06-07T15:23:02.087Z",
    "source_name": "google",
    "source_query": "Irrigation Equipment",
    "source_country": "DE",
    "country": "Germany",
    "state": "Hamburg",
    "city": "Stellingen"
  },
  {
    "source_id": "ChIJWYJ2dziEsUcRX45hl7OxExQ",
    "name": "Lympha Wasserspender",
    "category": "Lympha Wasserspender",
    "formatted_address": "3,5(4)",
    "phone_number": "+494087503787",
    "source_url": "https://www.google.com/maps/place/Lympha+Wasserspender/data=!4m7!3m6!1s0x47b1843877768259:0x1413b1b397618e5f!8m2!3d53.5757163!4d9.888673!16s%2Fg%2F1td7b69x!19sChIJWYJ2dziEsUcRX45hl7OxExQ?authuser=0&hl=tr&rclk=1",
    "website_url": "",
    "rating_text": "3,5",
    "stars": null,
    "number_of_reviews": null,
    "price_level": "",
    "open_hours": "",
    "extraction_timestamp": "2025-06-07T15:23:02.088Z",
    "source_name": "google",
    "source_query": "Irrigation Equipment",
    "source_country": "DE",
    "country": "Germany",
    "state": "Hamburg",
    "city": "Stellingen"
  }
]
