[
  {
    "source_id": "ChIJV0qxe-yLsUcRUAusxcT2Iy0",
    "name": "toom Baumarkt Hamburg-Wandsbek",
    "category": "toom Baumarkt Hamburg-Wandsbek",
    "formatted_address": "4,1(2.439)",
    "phone_number": "+49406969710",
    "source_url": "https://www.google.com/maps/place/toom+Baumarkt+Hamburg-Wandsbek/data=!4m7!3m6!1s0x47b18bec7bb14a57:0x2d23f6c4c5ac0b50!8m2!3d53.5873574!4d10.0985942!16s%2Fg%2F1vpfhlth!19sChIJV0qxe-yLsUcRUAusxcT2Iy0?authuser=0&hl=tr&rclk=1",
    "website_url": "",
    "rating_text": "4,1",
    "stars": null,
    "number_of_reviews": null,
    "price_level": "",
    "open_hours": "",
    "extraction_timestamp": "2025-06-07T15:23:11.340Z",
    "source_name": "google",
    "source_query": "Irrigation Equipment",
    "source_country": "DE",
    "country": "Germany",
    "state": "Hamburg",
    "city": "Wandsbek"
  },
  {
    "source_id": "ChIJ-4gDF_iLsUcRZEv5tsODY9I",
    "name": "Mutto Handels-, Betriebs- und Verwaltungs- GmbH",
    "category": "Mutto Handels-, Betriebs- und Verwaltungs- GmbH",
    "formatted_address": "Mutto Handels-, Betriebs- und Verwaltungs- GmbH",
    "phone_number": "+494075118471",
    "source_url": "https://www.google.com/maps/place/Mutto+Handels-,+Betriebs-+und+Verwaltungs-+GmbH/data=!4m7!3m6!1s0x47b18bf8170388fb:0xd26383c3b6f94b64!8m2!3d53.5776616!4d10.066052!16s%2Fg%2F11b6dpksq6!19sChIJ-4gDF_iLsUcRZEv5tsODY9I?authuser=0&hl=tr&rclk=1",
    "website_url": "",
    "rating_text": "5,0",
    "stars": null,
    "number_of_reviews": null,
    "price_level": "",
    "open_hours": "",
    "extraction_timestamp": "2025-06-07T15:23:11.340Z",
    "source_name": "google",
    "source_query": "Irrigation Equipment",
    "source_country": "DE",
    "country": "Germany",
    "state": "Hamburg",
    "city": "Wandsbek"
  },
  {
    "source_id": "ChIJixz8c2zzsUcRvWDIvRaRRaY",
    "name": "ABS Bewässerungssysteme",
    "category": "ABS Bewässerungssysteme",
    "formatted_address": "5,0(10)",
    "phone_number": "+494020963222",
    "source_url": "https://www.google.com/maps/place/ABS+Bew%C3%A4sserungssysteme/data=!4m7!3m6!1s0x47b1f36c73fc1c8b:0xa6459116bdc860bd!8m2!3d53.4851575!4d10.1899135!16s%2Fg%2F11pwpgyn7x!19sChIJixz8c2zzsUcRvWDIvRaRRaY?authuser=0&hl=tr&rclk=1",
    "website_url": "",
    "rating_text": "5,0",
    "stars": null,
    "number_of_reviews": null,
    "price_level": "",
    "open_hours": "",
    "extraction_timestamp": "2025-06-07T15:23:11.341Z",
    "source_name": "google",
    "source_query": "Irrigation Equipment",
    "source_country": "DE",
    "country": "Germany",
    "state": "Hamburg",
    "city": "Wandsbek"
  },
  {
    "source_id": "ChIJvwxO6v-LsUcRjPnKqdkjRNg",
    "name": "Lüchau Materials Gmbh - HH Wandsbek",
    "category": "Lüchau Materials Gmbh - HH Wandsbek",
    "formatted_address": "4,5(152)",
    "phone_number": "+494048509830",
    "source_url": "https://www.google.com/maps/place/L%C3%BCchau+Materials+Gmbh+-+HH+Wandsbek/data=!4m7!3m6!1s0x47b18bffea4e0cbf:0xd84423d9a9caf98c!8m2!3d53.5749324!4d10.0710672!16s%2Fg%2F1tfcmd7z!19sChIJvwxO6v-LsUcRjPnKqdkjRNg?authuser=0&hl=tr&rclk=1",
    "website_url": "",
    "rating_text": "4,5",
    "stars": null,
    "number_of_reviews": null,
    "price_level": "",
    "open_hours": "",
    "extraction_timestamp": "2025-06-07T15:23:11.341Z",
    "source_name": "google",
    "source_query": "Irrigation Equipment",
    "source_country": "DE",
    "country": "Germany",
    "state": "Hamburg",
    "city": "Wandsbek"
  },
  {
    "source_id": "ChIJpWb-Nu-LsUcRdPHFjPRpmKM",
    "name": "B.O.C. - BIKE & OUTDOOR COMPANY GmbH & Co. KG",
    "category": "B.O.C. - BIKE & OUTDOOR COMPANY GmbH & Co. KG",
    "formatted_address": "3,5(781)",
    "phone_number": "+494063604680",
    "source_url": "https://www.google.com/maps/place/B.O.C.+-+BIKE+%26+OUTDOOR+COMPANY+GmbH+%26+Co.+KG/data=!4m7!3m6!1s0x47b18bef36fe66a5:0xa39869f48cc5f174!8m2!3d53.5877255!4d10.0919271!16s%2Fg%2F1tk8b56j!19sChIJpWb-Nu-LsUcRdPHFjPRpmKM?authuser=0&hl=tr&rclk=1",
    "website_url": "",
    "rating_text": "3,5",
    "stars": null,
    "number_of_reviews": null,
    "price_level": "",
    "open_hours": "",
    "extraction_timestamp": "2025-06-07T15:23:11.341Z",
    "source_name": "google",
    "source_query": "Irrigation Equipment",
    "source_country": "DE",
    "country": "Germany",
    "state": "Hamburg",
    "city": "Wandsbek"
  },
  {
    "source_id": "ChIJZ2WiEviLsUcR7VxIqWdi3Rc",
    "name": "Callidus Baumarkt",
    "category": "Callidus Baumarkt",
    "formatted_address": "4,5(49)",
    "phone_number": "+494064839188",
    "source_url": "https://www.google.com/maps/place/Callidus+Baumarkt/data=!4m7!3m6!1s0x47b18bf812a26567:0x17dd6267a9485ced!8m2!3d53.5733424!4d10.0819159!16s%2Fg%2F11c45ynqck!19sChIJZ2WiEviLsUcR7VxIqWdi3Rc?authuser=0&hl=tr&rclk=1",
    "website_url": "",
    "rating_text": "4,5",
    "stars": null,
    "number_of_reviews": null,
    "price_level": "",
    "open_hours": "",
    "extraction_timestamp": "2025-06-07T15:23:11.342Z",
    "source_name": "google",
    "source_query": "Irrigation Equipment",
    "source_country": "DE",
    "country": "Germany",
    "state": "Hamburg",
    "city": "Wandsbek"
  },
  {
    "source_id": "ChIJVVVl1B-PsUcRe0sT8uYkNPU",
    "name": "TurfPro GmbH",
    "category": "TurfPro GmbH",
    "formatted_address": "4,3(16)",
    "phone_number": "+494084895219",
    "source_url": "https://www.google.com/maps/place/TurfPro+GmbH/data=!4m7!3m6!1s0x47b18f1fd4655555:0xf53424e6f2134b7b!8m2!3d53.5551215!4d10.00104!16s%2Fg%2F11g1f90l5g!19sChIJVVVl1B-PsUcRe0sT8uYkNPU?authuser=0&hl=tr&rclk=1",
    "website_url": "",
    "rating_text": "4,3",
    "stars": null,
    "number_of_reviews": null,
    "price_level": "",
    "open_hours": "",
    "extraction_timestamp": "2025-06-07T15:23:11.342Z",
    "source_name": "google",
    "source_query": "Irrigation Equipment",
    "source_country": "DE",
    "country": "Germany",
    "state": "Hamburg",
    "city": "Wandsbek"
  },
  {
    "source_id": "ChIJYRRrsNiLsUcRY3ZjM7KXb6A",
    "name": "Köster Pumpen Joachim Köster GmbH",
    "category": "Köster Pumpen Joachim Köster GmbH",
    "formatted_address": "4,4(7)",
    "phone_number": "+491716005534",
    "source_url": "https://www.google.com/maps/place/K%C3%B6ster+Pumpen+Joachim+K%C3%B6ster+GmbH/data=!4m7!3m6!1s0x47b18bd8b06b1461:0xa06f97b233637663!8m2!3d53.5893283!4d10.0502693!16s%2Fg%2F1tcwq5s3!19sChIJYRRrsNiLsUcRY3ZjM7KXb6A?authuser=0&hl=tr&rclk=1",
    "website_url": "",
    "rating_text": "4,4",
    "stars": null,
    "number_of_reviews": null,
    "price_level": "",
    "open_hours": "",
    "extraction_timestamp": "2025-06-07T15:23:11.343Z",
    "source_name": "google",
    "source_query": "Irrigation Equipment",
    "source_country": "DE",
    "country": "Germany",
    "state": "Hamburg",
    "city": "Wandsbek"
  },
  {
    "source_id": "ChIJ4R34GoKPsUcR_Di8Y72u1Q4",
    "name": "AN-Beregnungstechnik",
    "category": "AN-Beregnungstechnik",
    "formatted_address": "",
    "phone_number": "+4917673517226",
    "source_url": "https://www.google.com/maps/place/AN-Beregnungstechnik/data=!4m7!3m6!1s0x47b18f821af81de1:0xed5aebd63bc38fc!8m2!3d53.5576744!4d10.0112776!16s%2Fg%2F11x33m21xg!19sChIJ4R34GoKPsUcR_Di8Y72u1Q4?authuser=0&hl=tr&rclk=1",
    "website_url": "",
    "rating_text": "",
    "stars": null,
    "number_of_reviews": null,
    "price_level": "",
    "open_hours": "",
    "extraction_timestamp": "2025-06-07T15:23:11.343Z",
    "source_name": "google",
    "source_query": "Irrigation Equipment",
    "source_country": "DE",
    "country": "Germany",
    "state": "Hamburg",
    "city": "Wandsbek"
  }
]
