[
  {
    "source_id": "ChIJZZBjh7iLsUcRXf4UqQc7LOI",
    "name": "Haustechnikmarkt24",
    "category": "Haustechnikmarkt24",
    "formatted_address": "4,8(84)",
    "phone_number": "+49406781955",
    "source_url": "https://www.google.com/maps/place/Haustechnikmarkt24/data=!4m7!3m6!1s0x47b18bb887639065:0xe22c3b07a914fe5d!8m2!3d53.6337527!4d10.0963162!16s%2Fg%2F11q_lcd1sy!19sChIJZZBjh7iLsUcRXf4UqQc7LOI?authuser=0&hl=tr&rclk=1",
    "website_url": "",
    "rating_text": "4,8",
    "stars": null,
    "number_of_reviews": null,
    "price_level": "",
    "open_hours": "",
    "extraction_timestamp": "2025-06-07T15:23:19.706Z",
    "source_name": "google",
    "source_query": "Irrigation Equipment",
    "source_country": "DE",
    "country": "Germany",
    "state": "Hamburg",
    "city": "Wellingsbüttel"
  },
  {
    "source_id": "ChIJXVf_CImJsUcRSO2mqNaQQYQ",
    "name": "Culligan | Wasserspender in Hamburg mieten",
    "category": "Culligan | Wasserspender in Hamburg mieten",
    "formatted_address": "4,7(27)",
    "phone_number": "+4921315123456",
    "source_url": "https://www.google.com/maps/place/Culligan+%7C+Wasserspender+in+Hamburg+mieten/data=!4m7!3m6!1s0x47b1898908ff575d:0x844190d6a8a6ed48!8m2!3d51.175807!4d10.4541194!16s%2Fg%2F11bxfzfynx!19sChIJXVf_CImJsUcRSO2mqNaQQYQ?authuser=0&hl=tr&rclk=1",
    "website_url": "",
    "rating_text": "4,7",
    "stars": null,
    "number_of_reviews": null,
    "price_level": "",
    "open_hours": "",
    "extraction_timestamp": "2025-06-07T15:23:19.707Z",
    "source_name": "google",
    "source_query": "Irrigation Equipment",
    "source_country": "DE",
    "country": "Germany",
    "state": "Hamburg",
    "city": "Wellingsbüttel"
  },
  {
    "source_id": "ChIJeyaw0HePsUcRQzOcSBEjl-k",
    "name": "Hanse Bau & Bewässerungstechnik GmbH",
    "category": "Hanse Bau & Bewässerungstechnik GmbH",
    "formatted_address": "5,0(14)",
    "phone_number": "+4917630563436",
    "source_url": "https://www.google.com/maps/place/Hanse+Bau+%26+Bew%C3%A4sserungstechnik+GmbH/data=!4m7!3m6!1s0x47b18f77d0b0267b:0xe9972311489c3343!8m2!3d53.6553614!4d10.113272!16s%2Fg%2F11kb_rmhm6!19sChIJeyaw0HePsUcRQzOcSBEjl-k?authuser=0&hl=tr&rclk=1",
    "website_url": "",
    "rating_text": "5,0",
    "stars": null,
    "number_of_reviews": null,
    "price_level": "",
    "open_hours": "",
    "extraction_timestamp": "2025-06-07T15:23:19.707Z",
    "source_name": "google",
    "source_query": "Irrigation Equipment",
    "source_country": "DE",
    "country": "Germany",
    "state": "Hamburg",
    "city": "Wellingsbüttel"
  },
  {
    "source_id": "ChIJixz8c2zzsUcRvWDIvRaRRaY",
    "name": "ABS Bewässerungssysteme",
    "category": "ABS Bewässerungssysteme",
    "formatted_address": "5,0(10)",
    "phone_number": "+494020963222",
    "source_url": "https://www.google.com/maps/place/ABS+Bew%C3%A4sserungssysteme/data=!4m7!3m6!1s0x47b1f36c73fc1c8b:0xa6459116bdc860bd!8m2!3d53.4851575!4d10.1899135!16s%2Fg%2F11pwpgyn7x!19sChIJixz8c2zzsUcRvWDIvRaRRaY?authuser=0&hl=tr&rclk=1",
    "website_url": "",
    "rating_text": "5,0",
    "stars": null,
    "number_of_reviews": null,
    "price_level": "",
    "open_hours": "",
    "extraction_timestamp": "2025-06-07T15:23:19.707Z",
    "source_name": "google",
    "source_query": "Irrigation Equipment",
    "source_country": "DE",
    "country": "Germany",
    "state": "Hamburg",
    "city": "Wellingsbüttel"
  },
  {
    "source_id": "ChIJ32leYfKJsUcR6ap280Xssmw",
    "name": "Flöß Drogerien",
    "category": "Flöß Drogerien",
    "formatted_address": "3,0(24)",
    "phone_number": "+49405361417",
    "source_url": "https://www.google.com/maps/place/Fl%C3%B6%C3%9F+Drogerien/data=!4m7!3m6!1s0x47b189f2615e69df:0x6cb2ec45f376aae9!8m2!3d53.6414863!4d10.0804234!16s%2Fg%2F1tfrld16!19sChIJ32leYfKJsUcR6ap280Xssmw?authuser=0&hl=tr&rclk=1",
    "website_url": "",
    "rating_text": "3,0",
    "stars": null,
    "number_of_reviews": null,
    "price_level": "",
    "open_hours": "",
    "extraction_timestamp": "2025-06-07T15:23:19.707Z",
    "source_name": "google",
    "source_query": "Irrigation Equipment",
    "source_country": "DE",
    "country": "Germany",
    "state": "Hamburg",
    "city": "Wellingsbüttel"
  },
  {
    "source_id": "ChIJv-_3RfKJsUcRklqLxVwhBew",
    "name": "Getränkemarkt Wellingsbüttel UG",
    "category": "Getränkemarkt Wellingsbüttel UG",
    "formatted_address": "3,6(55)",
    "phone_number": "+494030330795",
    "source_url": "https://www.google.com/maps/place/Getr%C3%A4nkemarkt+Wellingsb%C3%BCttel+UG/data=!4m7!3m6!1s0x47b189f245f7efbf:0xec05215cc58b5a92!8m2!3d53.6419754!4d10.0818007!16s%2Fg%2F1tf9rwpl!19sChIJv-_3RfKJsUcRklqLxVwhBew?authuser=0&hl=tr&rclk=1",
    "website_url": "",
    "rating_text": "3,6",
    "stars": null,
    "number_of_reviews": null,
    "price_level": "",
    "open_hours": "",
    "extraction_timestamp": "2025-06-07T15:23:19.708Z",
    "source_name": "google",
    "source_query": "Irrigation Equipment",
    "source_country": "DE",
    "country": "Germany",
    "state": "Hamburg",
    "city": "Wellingsbüttel"
  },
  {
    "source_id": "ChIJJxLxgh-KsUcRk1b07t-OZuM",
    "name": "Wedekin Sanitär- und Heizungstechnik GmbH",
    "category": "Wedekin Sanitär- und Heizungstechnik GmbH",
    "formatted_address": "4,6(11)",
    "phone_number": "+49406402469",
    "source_url": "https://www.google.com/maps/place/Wedekin+Sanit%C3%A4r-+und+Heizungstechnik+GmbH/data=!4m7!3m6!1s0x47b18a1f82f11227:0xe3668edfeef45693!8m2!3d53.6376383!4d10.0962826!16s%2Fg%2F1tdgzbpm!19sChIJJxLxgh-KsUcRk1b07t-OZuM?authuser=0&hl=tr&rclk=1",
    "website_url": "",
    "rating_text": "4,6",
    "stars": null,
    "number_of_reviews": null,
    "price_level": "",
    "open_hours": "",
    "extraction_timestamp": "2025-06-07T15:23:19.708Z",
    "source_name": "google",
    "source_query": "Irrigation Equipment",
    "source_country": "DE",
    "country": "Germany",
    "state": "Hamburg",
    "city": "Wellingsbüttel"
  },
  {
    "source_id": "ChIJRRSLVvKJsUcRX25PklKJT4o",
    "name": "HBB Store Kiosk S-Bhf. Frühstücksangebot zum Mitnehmen",
    "category": "HBB Store Kiosk S-Bhf. Frühstücksangebot zum Mitnehmen",
    "formatted_address": "4,3(54)",
    "phone_number": "+49405366780",
    "source_url": "https://www.google.com/maps/place/HBB+Store+Kiosk+S-Bhf.+Fr%C3%BChst%C3%BCcksangebot+zum+Mitnehmen/data=!4m7!3m6!1s0x47b189f2568b1445:0x8a4f8952924f6e5f!8m2!3d53.6410093!4d10.0823281!16s%2Fg%2F1tnsq_0p!19sChIJRRSLVvKJsUcRX25PklKJT4o?authuser=0&hl=tr&rclk=1",
    "website_url": "",
    "rating_text": "4,3",
    "stars": null,
    "number_of_reviews": null,
    "price_level": "",
    "open_hours": "",
    "extraction_timestamp": "2025-06-07T15:23:19.709Z",
    "source_name": "google",
    "source_query": "Irrigation Equipment",
    "source_country": "DE",
    "country": "Germany",
    "state": "Hamburg",
    "city": "Wellingsbüttel"
  },
  {
    "source_id": "ChIJhYOS__uJsUcRexErNJ3ZXIE",
    "name": "INTERSPORT Knudsen",
    "category": "INTERSPORT Knudsen",
    "formatted_address": "4,2(248)",
    "phone_number": "+494063855840",
    "source_url": "https://www.google.com/maps/place/INTERSPORT+Knudsen/data=!4m7!3m6!1s0x47b189fbff928385:0x815cd99d342b117b!8m2!3d53.6542482!4d10.0910493!16s%2Fg%2F1tfbgsrr!19sChIJhYOS__uJsUcRexErNJ3ZXIE?authuser=0&hl=tr&rclk=1",
    "website_url": "",
    "rating_text": "4,2",
    "stars": null,
    "number_of_reviews": null,
    "price_level": "",
    "open_hours": "",
    "extraction_timestamp": "2025-06-07T15:23:19.709Z",
    "source_name": "google",
    "source_query": "Irrigation Equipment",
    "source_country": "DE",
    "country": "Germany",
    "state": "Hamburg",
    "city": "Wellingsbüttel"
  },
  {
    "source_id": "ChIJfVfNQ_KJsUcR2illQe4JQPY",
    "name": "budni - Wellingsbüttler Weg",
    "category": "budni - Wellingsbüttler Weg",
    "formatted_address": "3,6(21)",
    "phone_number": "+494080603030",
    "source_url": "https://www.google.com/maps/place/budni+-+Wellingsb%C3%BCttler+Weg/data=!4m7!3m6!1s0x47b189f243cd577d:0xf64009ee416529da!8m2!3d53.6422581!4d10.0815877!16s%2Fg%2F1ptvsmk3f!19sChIJfVfNQ_KJsUcR2illQe4JQPY?authuser=0&hl=tr&rclk=1",
    "website_url": "",
    "rating_text": "3,6",
    "stars": null,
    "number_of_reviews": null,
    "price_level": "",
    "open_hours": "",
    "extraction_timestamp": "2025-06-07T15:23:19.709Z",
    "source_name": "google",
    "source_query": "Irrigation Equipment",
    "source_country": "DE",
    "country": "Germany",
    "state": "Hamburg",
    "city": "Wellingsbüttel"
  },
  {
    "source_id": "ChIJ7em9Wp-IsUcR-PnzCLUWox4",
    "name": "Quellklar by Hydro-Shop",
    "category": "Quellklar by Hydro-Shop",
    "formatted_address": "3,5(8)",
    "phone_number": "+49405001720",
    "source_url": "https://www.google.com/maps/place/Quellklar+by+Hydro-Shop/data=!4m7!3m6!1s0x47b1889f5abde9ed:0x1ea316b508f3f9f8!8m2!3d53.610056!4d9.974098!16s%2Fg%2F1hc3w12m3!19sChIJ7em9Wp-IsUcR-PnzCLUWox4?authuser=0&hl=tr&rclk=1",
    "website_url": "",
    "rating_text": "3,5",
    "stars": null,
    "number_of_reviews": null,
    "price_level": "",
    "open_hours": "",
    "extraction_timestamp": "2025-06-07T15:23:19.709Z",
    "source_name": "google",
    "source_query": "Irrigation Equipment",
    "source_country": "DE",
    "country": "Germany",
    "state": "Hamburg",
    "city": "Wellingsbüttel"
  },
  {
    "source_id": "ChIJhYOS__uJsUcRNwDYm5jCkOY",
    "name": "HOBBY + TECHNIK by HARTFELDER Spielzeug GmbH",
    "category": "HOBBY + TECHNIK by HARTFELDER Spielzeug GmbH",
    "formatted_address": "4,2(105)",
    "phone_number": "+494061169528",
    "source_url": "https://www.google.com/maps/place/HOBBY+%2B+TECHNIK+by+HARTFELDER+Spielzeug+GmbH/data=!4m7!3m6!1s0x47b189fbff928385:0xe690c2989bd80037!8m2!3d53.6546788!4d10.0912476!16s%2Fg%2F11c5rrcq_r!19sChIJhYOS__uJsUcRNwDYm5jCkOY?authuser=0&hl=tr&rclk=1",
    "website_url": "",
    "rating_text": "4,2",
    "stars": null,
    "number_of_reviews": null,
    "price_level": "",
    "open_hours": "",
    "extraction_timestamp": "2025-06-07T15:23:19.733Z",
    "source_name": "google",
    "source_query": "Irrigation Equipment",
    "source_country": "DE",
    "country": "Germany",
    "state": "Hamburg",
    "city": "Wellingsbüttel"
  },
  {
    "source_id": "ChIJ4R34GoKPsUcR_Di8Y72u1Q4",
    "name": "AN-Beregnungstechnik",
    "category": "AN-Beregnungstechnik",
    "formatted_address": "",
    "phone_number": "+4917673517226",
    "source_url": "https://www.google.com/maps/place/AN-Beregnungstechnik/data=!4m7!3m6!1s0x47b18f821af81de1:0xed5aebd63bc38fc!8m2!3d53.5576744!4d10.0112776!16s%2Fg%2F11x33m21xg!19sChIJ4R34GoKPsUcR_Di8Y72u1Q4?authuser=0&hl=tr&rclk=1",
    "website_url": "",
    "rating_text": "",
    "stars": null,
    "number_of_reviews": null,
    "price_level": "",
    "open_hours": "",
    "extraction_timestamp": "2025-06-07T15:23:19.734Z",
    "source_name": "google",
    "source_query": "Irrigation Equipment",
    "source_country": "DE",
    "country": "Germany",
    "state": "Hamburg",
    "city": "Wellingsbüttel"
  },
  {
    "source_id": "ChIJJ8q7TgGKsUcRleQtvuzmp6k",
    "name": "HAPPI MED Atlantis",
    "category": "HAPPI MED Atlantis",
    "formatted_address": "5,0(42)",
    "phone_number": "+49406017738",
    "source_url": "https://www.google.com/maps/place/HAPPI+MED+Atlantis/data=!4m7!3m6!1s0x47b18a014ebbca27:0xa9a7e6ecbe2de495!8m2!3d53.6536443!4d10.1054971!16s%2Fg%2F1tg5t31s!19sChIJJ8q7TgGKsUcRleQtvuzmp6k?authuser=0&hl=tr&rclk=1",
    "website_url": "",
    "rating_text": "5,0",
    "stars": null,
    "number_of_reviews": null,
    "price_level": "",
    "open_hours": "",
    "extraction_timestamp": "2025-06-07T15:23:19.735Z",
    "source_name": "google",
    "source_query": "Irrigation Equipment",
    "source_country": "DE",
    "country": "Germany",
    "state": "Hamburg",
    "city": "Wellingsbüttel"
  },
  {
    "source_id": "ChIJDZzYshyKsUcR1FcTIzxMWdU",
    "name": "BabyOne Hamburg-Sasel - Die großen Babyfachmärkte",
    "category": "BabyOne Hamburg-Sasel - Die großen Babyfachmärkte",
    "formatted_address": "3,9(247)",
    "phone_number": "+49406001980",
    "source_url": "https://www.google.com/maps/place/BabyOne+Hamburg-Sasel+-+Die+gro%C3%9Fen+Babyfachm%C3%A4rkte/data=!4m7!3m6!1s0x47b18a1cb2d89c0d:0xd5594c3c231357d4!8m2!3d53.647452!4d10.10265!16s%2Fg%2F1thgg25f!19sChIJDZzYshyKsUcR1FcTIzxMWdU?authuser=0&hl=tr&rclk=1",
    "website_url": "",
    "rating_text": "3,9",
    "stars": null,
    "number_of_reviews": null,
    "price_level": "",
    "open_hours": "",
    "extraction_timestamp": "2025-06-07T15:23:19.736Z",
    "source_name": "google",
    "source_query": "Irrigation Equipment",
    "source_country": "DE",
    "country": "Germany",
    "state": "Hamburg",
    "city": "Wellingsbüttel"
  },
  {
    "source_id": "ChIJ96Wo9fKJsUcRQwxdSnXHHdc",
    "name": "REWE",
    "category": "REWE",
    "formatted_address": "4,2(491)",
    "phone_number": "+494053908640",
    "source_url": "https://www.google.com/maps/place/REWE/data=!4m7!3m6!1s0x47b189f2f5a8a5f7:0xd71dc7754a5d0c43!8m2!3d53.6411914!4d10.0808362!16s%2Fg%2F1td6r8vf!19sChIJ96Wo9fKJsUcRQwxdSnXHHdc?authuser=0&hl=tr&rclk=1",
    "website_url": "",
    "rating_text": "4,2",
    "stars": null,
    "number_of_reviews": null,
    "price_level": "",
    "open_hours": "",
    "extraction_timestamp": "2025-06-07T15:23:19.737Z",
    "source_name": "google",
    "source_query": "Irrigation Equipment",
    "source_country": "DE",
    "country": "Germany",
    "state": "Hamburg",
    "city": "Wellingsbüttel"
  }
]
