[
  {
    "source_id": "ChIJbYakw7AhskcRCFHBpSwqL6k",
    "name": "Ellis Kiosk Ohlstedt",
    "category": "Ellis Kiosk Ohlstedt",
    "formatted_address": "5,0(12)",
    "phone_number": "+4915779354841",
    "source_url": "https://www.google.com/maps/place/Ellis+Kiosk+Ohlstedt/data=!4m7!3m6!1s0x47b221b0c3a4866d:0xa92f2a2ca5c15108!8m2!3d53.6951707!4d10.1372993!16s%2Fg%2F11xg076cw5!19sChIJbYakw7AhskcRCFHBpSwqL6k?authuser=0&hl=tr&rclk=1",
    "website_url": "",
    "rating_text": "5,0",
    "stars": null,
    "number_of_reviews": null,
    "price_level": "",
    "open_hours": "",
    "extraction_timestamp": "2025-06-07T15:22:40.463Z",
    "source_name": "google",
    "source_query": "Irrigation Equipment",
    "source_country": "DE",
    "country": "Germany",
    "state": "Hamburg",
    "city": "Wohldorf-Ohlstedt"
  },
  {
    "source_id": "ChIJA-Jf17sgskcR3kXFQZ96cwk",
    "name": "Gärtner Albrecht Landschaftsgestalter | Hamburg",
    "category": "Gärtner Albrecht Landschaftsgestalter | Hamburg",
    "formatted_address": "4,1(14)",
    "phone_number": "+491607847011",
    "source_url": "https://www.google.com/maps/place/G%C3%A4rtner+Albrecht+Landschaftsgestalter+%7C+Hamburg/data=!4m7!3m6!1s0x47b220bbd75fe203:0x9737a9f41c545de!8m2!3d53.6743436!4d10.1277063!16s%2Fg%2F1wk4c3cm!19sChIJA-Jf17sgskcR3kXFQZ96cwk?authuser=0&hl=tr&rclk=1",
    "website_url": "http://www.albrecht-gartenwelt.de/",
    "rating_text": "4,1",
    "stars": null,
    "number_of_reviews": null,
    "price_level": "",
    "open_hours": "",
    "extraction_timestamp": "2025-06-07T15:22:40.464Z",
    "source_name": "google",
    "source_query": "Irrigation Equipment",
    "source_country": "DE",
    "country": "Germany",
    "state": "Hamburg",
    "city": "Wohldorf-Ohlstedt"
  },
  {
    "source_id": "ChIJMyyUqjkhskcRX2Fr9HIkSow",
    "name": "Helge Surmund Heizung Sanitär u.v.m. Bad-und Heizungsstudio",
    "category": "Helge Surmund Heizung Sanitär u.v.m. Bad-und Heizungsstudio",
    "formatted_address": "4,3(20)",
    "phone_number": "+49406054727",
    "source_url": "https://www.google.com/maps/place/Helge+Surmund+Heizung+Sanit%C3%A4r+u.v.m.+Bad-und+Heizungsstudio/data=!4m7!3m6!1s0x47b22139aa942c33:0x8c4a2472f46b615f!8m2!3d53.6844645!4d10.155883!16s%2Fg%2F11qfyv8jhg!19sChIJMyyUqjkhskcRX2Fr9HIkSow?authuser=0&hl=tr&rclk=1",
    "website_url": "http://surmund.com/wp/",
    "rating_text": "4,3",
    "stars": null,
    "number_of_reviews": null,
    "price_level": "",
    "open_hours": "",
    "extraction_timestamp": "2025-06-07T15:22:40.465Z",
    "source_name": "google",
    "source_query": "Irrigation Equipment",
    "source_country": "DE",
    "country": "Germany",
    "state": "Hamburg",
    "city": "Wohldorf-Ohlstedt"
  },
  {
    "source_id": "ChIJK4mctt4gskcRJvYHZTiEoi4",
    "name": "Eisbär Ohlstedt",
    "category": "Eisbär Ohlstedt",
    "formatted_address": "4,6(393) · ₺",
    "phone_number": "+494060550819",
    "source_url": "https://www.google.com/maps/place/Eisb%C3%A4r+Ohlstedt/data=!4m7!3m6!1s0x47b220deb69c892b:0x2ea284386507f626!8m2!3d53.6948665!4d10.1374431!16s%2Fg%2F1vfn5qb_!19sChIJK4mctt4gskcRJvYHZTiEoi4?authuser=0&hl=tr&rclk=1",
    "website_url": "http://www.eisbaer-ohlstedt.de/",
    "rating_text": "4,6",
    "stars": null,
    "number_of_reviews": null,
    "price_level": "",
    "open_hours": "",
    "extraction_timestamp": "2025-06-07T15:22:40.467Z",
    "source_name": "google",
    "source_query": "Irrigation Equipment",
    "source_country": "DE",
    "country": "Germany",
    "state": "Hamburg",
    "city": "Wohldorf-Ohlstedt"
  },
  {
    "source_id": "ChIJL66RrfsgskcR3uaInQ_n1Vs",
    "name": "Sönke Heine",
    "category": "Sönke Heine",
    "formatted_address": "4,6(9)",
    "phone_number": "+494066903836",
    "source_url": "https://www.google.com/maps/place/S%C3%B6nke+Heine/data=!4m7!3m6!1s0x47b220fbad91ae2f:0x5bd5e70f9d88e6de!8m2!3d53.6891745!4d10.1620001!16s%2Fg%2F1tfk3hcb!19sChIJL66RrfsgskcR3uaInQ_n1Vs?authuser=0&hl=tr&rclk=1",
    "website_url": "http://www.heine-sanitaertechnik.de/",
    "rating_text": "4,6",
    "stars": null,
    "number_of_reviews": null,
    "price_level": "",
    "open_hours": "",
    "extraction_timestamp": "2025-06-07T15:22:40.468Z",
    "source_name": "google",
    "source_query": "Irrigation Equipment",
    "source_country": "DE",
    "country": "Germany",
    "state": "Hamburg",
    "city": "Wohldorf-Ohlstedt"
  },
  {
    "source_id": "ChIJBdRboysnskcR0WHaPoLqPEI",
    "name": "Arno Vogel Bad & Wärme",
    "category": "Arno Vogel Bad & Wärme",
    "formatted_address": "4,3(12)",
    "phone_number": "+49406070060",
    "source_url": "https://www.google.com/maps/place/Arno+Vogel+Bad+%26+W%C3%A4rme/data=!4m7!3m6!1s0x47b2272ba35bd405:0x423cea823eda61d1!8m2!3d54.2090768!4d9.588941!16s%2Fg%2F11b6dg845z!19sChIJBdRboysnskcR0WHaPoLqPEI?authuser=0&hl=tr&rclk=1",
    "website_url": "",
    "rating_text": "4,3",
    "stars": null,
    "number_of_reviews": null,
    "price_level": "",
    "open_hours": "",
    "extraction_timestamp": "2025-06-07T15:22:40.469Z",
    "source_name": "google",
    "source_query": "Irrigation Equipment",
    "source_country": "DE",
    "country": "Germany",
    "state": "Hamburg",
    "city": "Wohldorf-Ohlstedt"
  },
  {
    "source_id": "ChIJfdrPjSgnskcR0F4IgNR-0o4",
    "name": "Pflanzen Körner",
    "category": "Pflanzen Körner",
    "formatted_address": "4,3(587)",
    "phone_number": "+49406076910",
    "source_url": "https://www.google.com/maps/place/Pflanzen+K%C3%B6rner/data=!4m7!3m6!1s0x47b227288dcfda7d:0x8ed27ed480085ed0!8m2!3d53.6990373!4d10.1011835!16s%2Fg%2F1tdxv230!19sChIJfdrPjSgnskcR0F4IgNR-0o4?authuser=0&hl=tr&rclk=1",
    "website_url": "https://www.pflanzen-koerner.de/",
    "rating_text": "4,3",
    "stars": null,
    "number_of_reviews": null,
    "price_level": "",
    "open_hours": "",
    "extraction_timestamp": "2025-06-07T15:22:40.470Z",
    "source_name": "google",
    "source_query": "Irrigation Equipment",
    "source_country": "DE",
    "country": "Germany",
    "state": "Hamburg",
    "city": "Wohldorf-Ohlstedt"
  },
  {
    "source_id": "ChIJVeVAL9AmskcRi4DHQRKAWHc",
    "name": "Michael Krohn GmbH",
    "category": "Michael Krohn GmbH",
    "formatted_address": "4,6(13)",
    "phone_number": "+49406071459",
    "source_url": "https://www.google.com/maps/place/Michael+Krohn+GmbH/data=!4m7!3m6!1s0x47b226d02f40e555:0x7758801241c7808b!8m2!3d53.7118406!4d10.1082835!16s%2Fg%2F1tj5pt24!19sChIJVeVAL9AmskcRi4DHQRKAWHc?authuser=0&hl=tr&rclk=1",
    "website_url": "https://www.michael-krohn.de/",
    "rating_text": "4,6",
    "stars": null,
    "number_of_reviews": null,
    "price_level": "",
    "open_hours": "",
    "extraction_timestamp": "2025-06-07T15:22:40.471Z",
    "source_name": "google",
    "source_query": "Irrigation Equipment",
    "source_country": "DE",
    "country": "Germany",
    "state": "Hamburg",
    "city": "Wohldorf-Ohlstedt"
  },
  {
    "source_id": "ChIJW7cs4ZQgskcRrNP-6F_ZrlA",
    "name": "Kraaz beverage center Bergstedt GmbH",
    "category": "Kraaz beverage center Bergstedt GmbH",
    "formatted_address": "4,4(295)",
    "phone_number": "+49406049251",
    "source_url": "https://www.google.com/maps/place/Kraaz+beverage+center+Bergstedt+GmbH/data=!4m7!3m6!1s0x47b22094e12cb75b:0x50aed95fe8fed3ac!8m2!3d53.6754526!4d10.1413152!16s%2Fg%2F1tk6pd4x!19sChIJW7cs4ZQgskcRrNP-6F_ZrlA?authuser=0&hl=tr&rclk=1",
    "website_url": "http://www.kraaz-getraenke.de/",
    "rating_text": "4,4",
    "stars": null,
    "number_of_reviews": null,
    "price_level": "",
    "open_hours": "",
    "extraction_timestamp": "2025-06-07T15:22:40.472Z",
    "source_name": "google",
    "source_query": "Irrigation Equipment",
    "source_country": "DE",
    "country": "Germany",
    "state": "Hamburg",
    "city": "Wohldorf-Ohlstedt"
  },
  {
    "source_id": "ChIJl94mEyshskcRKafsx59mW_4",
    "name": "Spangenberg und Schneider Heizungstechnik",
    "category": "Spangenberg und Schneider Heizungstechnik",
    "formatted_address": "4,9(80)",
    "phone_number": "+49406083036",
    "source_url": "https://www.google.com/maps/place/Spangenberg+und+Schneider+Heizungstechnik/data=!4m7!3m6!1s0x47b2212b1326de97:0xfe5b669fc7eca729!8m2!3d53.6748987!4d10.1398209!16s%2Fg%2F1v29b1zx!19sChIJl94mEyshskcRKafsx59mW_4?authuser=0&hl=tr&rclk=1",
    "website_url": "http://www.spangenberg-schneider.de/",
    "rating_text": "4,9",
    "stars": null,
    "number_of_reviews": null,
    "price_level": "",
    "open_hours": "",
    "extraction_timestamp": "2025-06-07T15:22:40.473Z",
    "source_name": "google",
    "source_query": "Irrigation Equipment",
    "source_country": "DE",
    "country": "Germany",
    "state": "Hamburg",
    "city": "Wohldorf-Ohlstedt"
  },
  {
    "source_id": "ChIJlThJrt4gskcR1KiyZp4xYFo",
    "name": "Ohlstedt",
    "category": "Ohlstedt",
    "formatted_address": "4,1(44)",
    "phone_number": "",
    "source_url": "https://www.google.com/maps/place/Ohlstedt/data=!4m7!3m6!1s0x47b220deae493895:0x5a60319e66b2a8d4!8m2!3d53.69486!4d10.13736!16s%2Fm%2F0125kyvn!19sChIJlThJrt4gskcR1KiyZp4xYFo?authuser=0&hl=tr&rclk=1",
    "website_url": "",
    "rating_text": "4,1",
    "stars": null,
    "number_of_reviews": null,
    "price_level": "",
    "open_hours": "",
    "extraction_timestamp": "2025-06-07T15:22:40.474Z",
    "source_name": "google",
    "source_query": "Irrigation Equipment",
    "source_country": "DE",
    "country": "Germany",
    "state": "Hamburg",
    "city": "Wohldorf-Ohlstedt"
  },
  {
    "source_id": "ChIJUaYMKO0gskcRNsZcLFHtMW8",
    "name": "PRUNS & HARMS",
    "category": "PRUNS & HARMS",
    "formatted_address": "4,2(55)",
    "phone_number": "+494060550206",
    "source_url": "https://www.google.com/maps/place/PRUNS+%26+HARMS/data=!4m7!3m6!1s0x47b220ed280ca651:0x6f31ed512c5cc636!8m2!3d53.6769767!4d10.1492325!16s%2Fg%2F11c1_vyfrx!19sChIJUaYMKO0gskcRNsZcLFHtMW8?authuser=0&hl=tr&rclk=1",
    "website_url": "http://www.pruns-harms.de/",
    "rating_text": "4,2",
    "stars": null,
    "number_of_reviews": null,
    "price_level": "",
    "open_hours": "",
    "extraction_timestamp": "2025-06-07T15:22:40.475Z",
    "source_name": "google",
    "source_query": "Irrigation Equipment",
    "source_country": "DE",
    "country": "Germany",
    "state": "Hamburg",
    "city": "Wohldorf-Ohlstedt"
  },
  {
    "source_id": "ChIJFZYiLf6HsUcRp7nBv4kCBiI",
    "name": "Promaxx GmbH",
    "category": "Promaxx GmbH",
    "formatted_address": "4,3(51)",
    "phone_number": "+4940605338633",
    "source_url": "https://www.google.com/maps/place/Promaxx+GmbH/data=!4m7!3m6!1s0x47b187fe2d229615:0x22060289bfc1b9a7!8m2!3d53.6845074!4d10.0500032!16s%2Fg%2F11fxvxw2bk!19sChIJFZYiLf6HsUcRp7nBv4kCBiI?authuser=0&hl=tr&rclk=1",
    "website_url": "http://www.elbe-welt.de/",
    "rating_text": "4,3",
    "stars": null,
    "number_of_reviews": null,
    "price_level": "",
    "open_hours": "",
    "extraction_timestamp": "2025-06-07T15:22:40.476Z",
    "source_name": "google",
    "source_query": "Irrigation Equipment",
    "source_country": "DE",
    "country": "Germany",
    "state": "Hamburg",
    "city": "Wohldorf-Ohlstedt"
  },
  {
    "source_id": "ChIJLZnEK8kmskcRehPWa-8Mxmo",
    "name": "Gut Wulksfelde GmbH",
    "category": "Gut Wulksfelde GmbH",
    "formatted_address": "4,5(2.202)",
    "phone_number": "+49406442510",
    "source_url": "https://www.google.com/maps/place/Gut+Wulksfelde+GmbH/data=!4m7!3m6!1s0x47b226c92bc4992d:0x6ac60cef6bd6137a!8m2!3d53.7178466!4d10.1118911!16s%2Fg%2F11csb27ydn!19sChIJLZnEK8kmskcRehPWa-8Mxmo?authuser=0&hl=tr&rclk=1",
    "website_url": "http://www.gut-wulksfelde.de/",
    "rating_text": "4,5",
    "stars": null,
    "number_of_reviews": null,
    "price_level": "",
    "open_hours": "",
    "extraction_timestamp": "2025-06-07T15:22:40.478Z",
    "source_name": "google",
    "source_query": "Irrigation Equipment",
    "source_country": "DE",
    "country": "Germany",
    "state": "Hamburg",
    "city": "Wohldorf-Ohlstedt"
  },
  {
    "source_id": "ChIJnfp0w9AmskcRAqOUhQ3_6Ag",
    "name": "Lerche im Alstertal",
    "category": "Lerche im Alstertal",
    "formatted_address": "4,7(99)",
    "phone_number": "+494060761080",
    "source_url": "https://www.google.com/maps/place/Lerche+im+Alstertal/data=!4m7!3m6!1s0x47b226d0c374fa9d:0x8e8ff0d8594a302!8m2!3d53.7084847!4d10.1064198!16s%2Fg%2F1tdm2sq0!19sChIJnfp0w9AmskcRAqOUhQ3_6Ag?authuser=0&hl=tr&rclk=1",
    "website_url": "http://www.lerche-im-alstertal.de/",
    "rating_text": "4,7",
    "stars": null,
    "number_of_reviews": null,
    "price_level": "",
    "open_hours": "",
    "extraction_timestamp": "2025-06-07T15:22:40.479Z",
    "source_name": "google",
    "source_query": "Irrigation Equipment",
    "source_country": "DE",
    "country": "Germany",
    "state": "Hamburg",
    "city": "Wohldorf-Ohlstedt"
  },
  {
    "source_id": "ChIJowpSpmeJsUcRn1r_wkg_pPw",
    "name": "Werner Weidenbecher e.K.",
    "category": "Werner Weidenbecher e.K.",
    "formatted_address": "4,2(5)",
    "phone_number": "+4940613083",
    "source_url": "https://www.google.com/maps/place/Werner+Weidenbecher+e.K./data=!4m7!3m6!1s0x47b18967a6520aa3:0xfca43f48c2ff5a9f!8m2!3d53.6750487!4d10.1385693!16s%2Fg%2F1thmk19b!19sChIJowpSpmeJsUcRn1r_wkg_pPw?authuser=0&hl=tr&rclk=1",
    "website_url": "http://weidenbecher.net/",
    "rating_text": "4,2",
    "stars": null,
    "number_of_reviews": null,
    "price_level": "",
    "open_hours": "",
    "extraction_timestamp": "2025-06-07T15:22:40.479Z",
    "source_name": "google",
    "source_query": "Irrigation Equipment",
    "source_country": "DE",
    "country": "Germany",
    "state": "Hamburg",
    "city": "Wohldorf-Ohlstedt"
  },
  {
    "source_id": "ChIJkUcTqccnskcRxZcRDDf4mEY",
    "name": "TJADEN`s Bio Frischemarkt - Duvenstedt",
    "category": "TJADEN`s Bio Frischemarkt - Duvenstedt",
    "formatted_address": "4,4(20)",
    "phone_number": "+494089727112",
    "source_url": "https://www.google.com/maps/place/TJADEN%60s+Bio+Frischemarkt+-+Duvenstedt/data=!4m7!3m6!1s0x47b227c7a9134791:0x4698f8370c1197c5!8m2!3d53.7076333!4d10.1080594!16s%2Fg%2F11jpld53jg!19sChIJkUcTqccnskcRxZcRDDf4mEY?authuser=0&hl=tr&rclk=1",
    "website_url": "https://www.tjadens-biomarkt.de/unsere-m%C3%A4rkte/duvenstedt/",
    "rating_text": "4,4",
    "stars": null,
    "number_of_reviews": null,
    "price_level": "",
    "open_hours": "",
    "extraction_timestamp": "2025-06-07T15:22:40.480Z",
    "source_name": "google",
    "source_query": "Irrigation Equipment",
    "source_country": "DE",
    "country": "Germany",
    "state": "Hamburg",
    "city": "Wohldorf-Ohlstedt"
  },
  {
    "source_id": "ChIJ373w3-IuAw4RcpPQlfci_1g",
    "name": "ML Marcel Loth Sanitär- und Heizungstechnik",
    "category": "ML Marcel Loth Sanitär- und Heizungstechnik",
    "formatted_address": "5,0(19)",
    "phone_number": "+494087090668",
    "source_url": "https://www.google.com/maps/place/ML+Marcel+Loth+Sanit%C3%A4r-+und+Heizungstechnik/data=!4m7!3m6!1s0xe032ee2dff0bddf:0x58ff22f795d09372!8m2!3d53.6809493!4d10.129251!16s%2Fg%2F11v6nc26t7!19sChIJ373w3-IuAw4RcpPQlfci_1g?authuser=0&hl=tr&rclk=1",
    "website_url": "http://www.loth-shk.de/",
    "rating_text": "5,0",
    "stars": null,
    "number_of_reviews": null,
    "price_level": "",
    "open_hours": "",
    "extraction_timestamp": "2025-06-07T15:22:40.481Z",
    "source_name": "google",
    "source_query": "Irrigation Equipment",
    "source_country": "DE",
    "country": "Germany",
    "state": "Hamburg",
    "city": "Wohldorf-Ohlstedt"
  },
  {
    "source_id": "ChIJ4R34GoKPsUcR_Di8Y72u1Q4",
    "name": "AN-Beregnungstechnik",
    "category": "AN-Beregnungstechnik",
    "formatted_address": "",
    "phone_number": "+4917673517226",
    "source_url": "https://www.google.com/maps/place/AN-Beregnungstechnik/data=!4m7!3m6!1s0x47b18f821af81de1:0xed5aebd63bc38fc!8m2!3d53.5576744!4d10.0112776!16s%2Fg%2F11x33m21xg!19sChIJ4R34GoKPsUcR_Di8Y72u1Q4?authuser=0&hl=tr&rclk=1",
    "website_url": "",
    "rating_text": "",
    "stars": null,
    "number_of_reviews": null,
    "price_level": "",
    "open_hours": "",
    "extraction_timestamp": "2025-06-07T15:22:40.482Z",
    "source_name": "google",
    "source_query": "Irrigation Equipment",
    "source_country": "DE",
    "country": "Germany",
    "state": "Hamburg",
    "city": "Wohldorf-Ohlstedt"
  }
]
