[
  {
    "source_id": "ChIJ738sMPdHkD8RIjKgw5AOnGQ",
    "name": "فروشگاه مهندس بیدل",
    "category": "فروشگاه مهندس بیدل",
    "formatted_address": "5,0(1)",
    "phone_number": "",
    "source_url": "https://www.google.com/maps/place/%D9%81%D8%B1%D9%88%D8%B4%DA%AF%D8%A7%D9%87+%D9%85%D9%87%D9%86%D8%AF%D8%B3+%D8%A8%DB%8C%D8%AF%D9%84%E2%80%AD/data=!4m7!3m6!1s0x3f9047f7302c7fef:0x649c0e90c3a03222!8m2!3d35.6423438!4d52.2392442!16s%2Fg%2F11lt426fkq!19sChIJ738sMPdHkD8RIjKgw5AOnGQ?authuser=0&hl=tr&rclk=1",
    "website_url": "",
    "rating_text": "5,0",
    "stars": null,
    "number_of_reviews": null,
    "price_level": "",
    "open_hours": "",
    "extraction_timestamp": "2025-06-07T14:03:35.654Z",
    "source_name": "google",
    "source_query": "Irrigation Equipment",
    "source_country": "IR",
    "country": "Iran",
    "state": "Tehran",
    "city": "Absard"
  },
  {
    "source_id": "ChIJS7-osl0Bjj8R84DcdIl7k_8",
    "name": "Irrigation and Farming Company Aria Tib",
    "category": "Irrigation and Farming Company Aria Tib",
    "formatted_address": "4,7(7)",
    "phone_number": "+982188845454",
    "source_url": "https://www.google.com/maps/place/Irrigation+and+Farming+Company+Aria+Tib/data=!4m7!3m6!1s0x3f8e015db2a8bf4b:0xff937b8974dc80f3!8m2!3d35.7232298!4d51.4237588!16s%2Fg%2F11f0kvhyt6!19sChIJS7-osl0Bjj8R84DcdIl7k_8?authuser=0&hl=tr&rclk=1",
    "website_url": "",
    "rating_text": "4,7",
    "stars": null,
    "number_of_reviews": null,
    "price_level": "",
    "open_hours": "",
    "extraction_timestamp": "2025-06-07T14:03:35.655Z",
    "source_name": "google",
    "source_query": "Irrigation Equipment",
    "source_country": "IR",
    "country": "Iran",
    "state": "Tehran",
    "city": "Absard"
  },
  {
    "source_id": "ChIJ_fLPRAABjj8RSeosiGuijm8",
    "name": "هانترسل",
    "category": "هانترسل",
    "formatted_address": "5,0(2)",
    "phone_number": "+982155808909",
    "source_url": "https://www.google.com/maps/place/%D9%87%D8%A7%D9%86%D8%AA%D8%B1%D8%B3%D9%84%E2%80%AD/data=!4m7!3m6!1s0x3f8e010044cff2fd:0x6f8ea26b882cea49!8m2!3d35.6811685!4d51.4107418!16s%2Fg%2F11vwx4_tj0!19sChIJ_fLPRAABjj8RSeosiGuijm8?authuser=0&hl=tr&rclk=1",
    "website_url": "",
    "rating_text": "5,0",
    "stars": null,
    "number_of_reviews": null,
    "price_level": "",
    "open_hours": "",
    "extraction_timestamp": "2025-06-07T14:03:35.656Z",
    "source_name": "google",
    "source_query": "Irrigation Equipment",
    "source_country": "IR",
    "country": "Iran",
    "state": "Tehran",
    "city": "Absard"
  },
  {
    "source_id": "ChIJq8macsWikT8RpC1SNZKM8CI",
    "name": "Irrigation Accessories and Hardware Arestani",
    "category": "Irrigation Accessories and Hardware Arestani",
    "formatted_address": "4,0(2)",
    "phone_number": "+982136724944",
    "source_url": "https://www.google.com/maps/place/Irrigation+Accessories+and+Hardware+Arestani/data=!4m7!3m6!1s0x3f91a2c5729ac9ab:0x22f08c9235522da4!8m2!3d35.3140051!4d51.7130788!16s%2Fg%2F11c5wl0fc4!19sChIJq8macsWikT8RpC1SNZKM8CI?authuser=0&hl=tr&rclk=1",
    "website_url": "",
    "rating_text": "4,0",
    "stars": null,
    "number_of_reviews": null,
    "price_level": "",
    "open_hours": "",
    "extraction_timestamp": "2025-06-07T14:03:35.657Z",
    "source_name": "google",
    "source_query": "Irrigation Equipment",
    "source_country": "IR",
    "country": "Iran",
    "state": "Tehran",
    "city": "Absard"
  },
  {
    "source_id": "ChIJoTsSQQsBjj8Re4yPgbYBMnk",
    "name": "Movahedin",
    "category": "Movahedin",
    "formatted_address": "Sulama Ekipmanları Tedarikçisi · Shahriar, PC25+5GXKapalı ⋅ Açılış zamanı: Paz 08:00 · +98 21 6670 5096",
    "phone_number": "+982166705096",
    "source_url": "https://www.google.com/maps/place/Movahedin/data=!4m7!3m6!1s0x3f8e010b41123ba1:0x793201b6818f8c7b!8m2!3d35.7004879!4d51.4088729!16s%2Fg%2F1tjrng36!19sChIJoTsSQQsBjj8Re4yPgbYBMnk?authuser=0&hl=tr&rclk=1",
    "website_url": "http://www.movahedin.com/",
    "rating_text": "",
    "stars": null,
    "number_of_reviews": null,
    "price_level": "",
    "open_hours": "",
    "extraction_timestamp": "2025-06-07T14:03:35.657Z",
    "source_name": "google",
    "source_query": "Irrigation Equipment",
    "source_country": "IR",
    "country": "Iran",
    "state": "Tehran",
    "city": "Absard"
  },
  {
    "source_id": "ChIJp04i0dQFjj8RF34oyzUaL0c",
    "name": "دفتر مرکزی نهرآب گستر اشتهارد",
    "category": "دفتر مرکزی نهرآب گستر اشتهارد",
    "formatted_address": "5,0(3)",
    "phone_number": "+982127640",
    "source_url": "https://www.google.com/maps/place/%D8%AF%D9%81%D8%AA%D8%B1+%D9%85%D8%B1%DA%A9%D8%B2%DB%8C+%D9%86%D9%87%D8%B1%D8%A2%D8%A8+%DA%AF%D8%B3%D8%AA%D8%B1+%D8%A7%D8%B4%D8%AA%D9%87%D8%A7%D8%B1%D8%AF%E2%80%AD/data=!4m7!3m6!1s0x3f8e05d4d1224ea7:0x472f1a35cb287e17!8m2!3d35.7663814!4d51.4563031!16s%2Fg%2F11h_2g3fmd!19sChIJp04i0dQFjj8RF34oyzUaL0c?authuser=0&hl=tr&rclk=1",
    "website_url": "http://www.nahrab.net/",
    "rating_text": "5,0",
    "stars": null,
    "number_of_reviews": null,
    "price_level": "",
    "open_hours": "",
    "extraction_timestamp": "2025-06-07T14:03:35.657Z",
    "source_name": "google",
    "source_query": "Irrigation Equipment",
    "source_country": "IR",
    "country": "Iran",
    "state": "Tehran",
    "city": "Absard"
  },
  {
    "source_id": "ChIJVSeQOQADjj8RggR1pHvp7DA",
    "name": "Besaco",
    "category": "Besaco",
    "formatted_address": "Sulama Ekipmanları Tedarikçisi · W Golbarg St, PFJM+HJX",
    "phone_number": "",
    "source_url": "https://www.google.com/maps/place/Besaco/data=!4m7!3m6!1s0x3f8e030039902755:0x30ece97ba4750482!8m2!3d35.7314756!4d51.4840781!16s%2Fg%2F11wj6xg0py!19sChIJVSeQOQADjj8RggR1pHvp7DA?authuser=0&hl=tr&rclk=1",
    "website_url": "",
    "rating_text": "",
    "stars": null,
    "number_of_reviews": null,
    "price_level": "",
    "open_hours": "",
    "extraction_timestamp": "2025-06-07T14:03:35.658Z",
    "source_name": "google",
    "source_query": "Irrigation Equipment",
    "source_country": "IR",
    "country": "Iran",
    "state": "Tehran",
    "city": "Absard"
  },
  {
    "source_id": "ChIJE2iUujsHjj8RgT_OoB2YxEg",
    "name": "Arasbaran Smart Irrigation",
    "category": "Arasbaran Smart Irrigation",
    "formatted_address": "5,0(11)",
    "phone_number": "",
    "source_url": "https://www.google.com/maps/place/Arasbaran+Smart+Irrigation/data=!4m7!3m6!1s0x3f8e073bba946813:0x48c4981da0ce3f81!8m2!3d35.7572676!4d51.4051376!16s%2Fg%2F11qgyvcyf_!19sChIJE2iUujsHjj8RgT_OoB2YxEg?authuser=0&hl=tr&rclk=1",
    "website_url": "https://www.arasbaranco.com/",
    "rating_text": "5,0",
    "stars": null,
    "number_of_reviews": null,
    "price_level": "",
    "open_hours": "",
    "extraction_timestamp": "2025-06-07T14:03:35.658Z",
    "source_name": "google",
    "source_query": "Irrigation Equipment",
    "source_country": "IR",
    "country": "Iran",
    "state": "Tehran",
    "city": "Absard"
  }
]
