[
  {
    "source_id": "ChIJS7-osl0Bjj8R84DcdIl7k_8",
    "name": "Irrigation and Farming Company Aria Tib",
    "category": "Irrigation and Farming Company Aria Tib",
    "formatted_address": "4,7(7)",
    "phone_number": "+982188845454",
    "source_url": "https://www.google.com/maps/place/Irrigation+and+Farming+Company+Aria+Tib/data=!4m7!3m6!1s0x3f8e015db2a8bf4b:0xff937b8974dc80f3!8m2!3d35.7232298!4d51.4237588!16s%2Fg%2F11f0kvhyt6!19sChIJS7-osl0Bjj8R84DcdIl7k_8?authuser=0&hl=tr&rclk=1",
    "website_url": "",
    "rating_text": "4,7",
    "stars": null,
    "number_of_reviews": null,
    "price_level": "",
    "open_hours": "",
    "extraction_timestamp": "2025-06-07T14:03:17.547Z",
    "source_name": "google",
    "source_query": "Irrigation Equipment",
    "source_country": "IR",
    "country": "Iran",
    "state": "Tehran",
    "city": "Ahmadabad-E Mostowfi"
  },
  {
    "source_id": "ChIJCQvG_aL5jT8RAedAaeluYqw",
    "name": "Saeed Tool Store",
    "category": "Saeed Tool Store",
    "formatted_address": "4,0(7)",
    "phone_number": "+982156713534",
    "source_url": "https://www.google.com/maps/place/Saeed+Tool+Store/data=!4m7!3m6!1s0x3f8df9a2fdc60b09:0xac626ee96940e701!8m2!3d35.6388482!4d51.2130663!16s%2Fg%2F11c0xjq0qj!19sChIJCQvG_aL5jT8RAedAaeluYqw?authuser=0&hl=tr&rclk=1",
    "website_url": "https://www.instagram.com/abzar.saeed/",
    "rating_text": "4,0",
    "stars": null,
    "number_of_reviews": null,
    "price_level": "",
    "open_hours": "",
    "extraction_timestamp": "2025-06-07T14:03:17.548Z",
    "source_name": "google",
    "source_query": "Irrigation Equipment",
    "source_country": "IR",
    "country": "Iran",
    "state": "Tehran",
    "city": "Ahmadabad-E Mostowfi"
  },
  {
    "source_id": "ChIJM14qyZQGjj8REzFOag3oADM",
    "name": "kamco",
    "category": "kamco",
    "formatted_address": "5,0(1)",
    "phone_number": "+982188225302",
    "source_url": "https://www.google.com/maps/place/kamco/data=!4m7!3m6!1s0x3f8e0694c92a5e33:0x3300e80d6a4e3113!8m2!3d35.7235012!4d51.4019769!16s%2Fg%2F11b6d0knrt!19sChIJM14qyZQGjj8REzFOag3oADM?authuser=0&hl=tr&rclk=1",
    "website_url": "",
    "rating_text": "5,0",
    "stars": null,
    "number_of_reviews": null,
    "price_level": "",
    "open_hours": "",
    "extraction_timestamp": "2025-06-07T14:03:17.557Z",
    "source_name": "google",
    "source_query": "Irrigation Equipment",
    "source_country": "IR",
    "country": "Iran",
    "state": "Tehran",
    "city": "Ahmadabad-E Mostowfi"
  },
  {
    "source_id": "ChIJq8macsWikT8RpC1SNZKM8CI",
    "name": "Irrigation Accessories and Hardware Arestani",
    "category": "Irrigation Accessories and Hardware Arestani",
    "formatted_address": "4,0(2)",
    "phone_number": "+982136724944",
    "source_url": "https://www.google.com/maps/place/Irrigation+Accessories+and+Hardware+Arestani/data=!4m7!3m6!1s0x3f91a2c5729ac9ab:0x22f08c9235522da4!8m2!3d35.3140051!4d51.7130788!16s%2Fg%2F11c5wl0fc4!19sChIJq8macsWikT8RpC1SNZKM8CI?authuser=0&hl=tr&rclk=1",
    "website_url": "",
    "rating_text": "4,0",
    "stars": null,
    "number_of_reviews": null,
    "price_level": "",
    "open_hours": "",
    "extraction_timestamp": "2025-06-07T14:03:17.557Z",
    "source_name": "google",
    "source_query": "Irrigation Equipment",
    "source_country": "IR",
    "country": "Iran",
    "state": "Tehran",
    "city": "Ahmadabad-E Mostowfi"
  },
  {
    "source_id": "ChIJ_fLPRAABjj8RSeosiGuijm8",
    "name": "هانترسل",
    "category": "هانترسل",
    "formatted_address": "5,0(2)",
    "phone_number": "+982155808909",
    "source_url": "https://www.google.com/maps/place/%D9%87%D8%A7%D9%86%D8%AA%D8%B1%D8%B3%D9%84%E2%80%AD/data=!4m7!3m6!1s0x3f8e010044cff2fd:0x6f8ea26b882cea49!8m2!3d35.6811685!4d51.4107418!16s%2Fg%2F11vwx4_tj0!19sChIJ_fLPRAABjj8RSeosiGuijm8?authuser=0&hl=tr&rclk=1",
    "website_url": "",
    "rating_text": "5,0",
    "stars": null,
    "number_of_reviews": null,
    "price_level": "",
    "open_hours": "",
    "extraction_timestamp": "2025-06-07T14:03:17.557Z",
    "source_name": "google",
    "source_query": "Irrigation Equipment",
    "source_country": "IR",
    "country": "Iran",
    "state": "Tehran",
    "city": "Ahmadabad-E Mostowfi"
  },
  {
    "source_id": "ChIJ_wWsbwz5jT8RQtdi94VqpBs",
    "name": "Ostadkar Store",
    "category": "Ostadkar Store",
    "formatted_address": "5,0(4)",
    "phone_number": "+982156715554",
    "source_url": "https://www.google.com/maps/place/Ostadkar+Store/data=!4m7!3m6!1s0x3f8df90c6fac05ff:0x1ba46a85f762d742!8m2!3d35.6392182!4d51.2139222!16s%2Fg%2F11nh580b6y!19sChIJ_wWsbwz5jT8RQtdi94VqpBs?authuser=0&hl=tr&rclk=1",
    "website_url": "http://ostadkargroup.com/",
    "rating_text": "5,0",
    "stars": null,
    "number_of_reviews": null,
    "price_level": "",
    "open_hours": "",
    "extraction_timestamp": "2025-06-07T14:03:17.558Z",
    "source_name": "google",
    "source_query": "Irrigation Equipment",
    "source_country": "IR",
    "country": "Iran",
    "state": "Tehran",
    "city": "Ahmadabad-E Mostowfi"
  },
  {
    "source_id": "ChIJv6jv6vAZkj8RQqunRNeLkPQ",
    "name": "شرکت تکنوژاله",
    "category": "شرکت تکنوژاله",
    "formatted_address": "4,5(2)",
    "phone_number": "+989125801150",
    "source_url": "https://www.google.com/maps/place/%D8%B4%D8%B1%DA%A9%D8%AA+%D8%AA%DA%A9%D9%86%D9%88%DA%98%D8%A7%D9%84%D9%87%E2%80%AD/data=!4m7!3m6!1s0x3f9219f0eaefa8bf:0xf4908bd744a7ab42!8m2!3d35.3734371!4d51.2511171!16s%2Fg%2F11jgsfs1g6!19sChIJv6jv6vAZkj8RQqunRNeLkPQ?authuser=0&hl=tr&rclk=1",
    "website_url": "http://technojaleh.com/",
    "rating_text": "4,5",
    "stars": null,
    "number_of_reviews": null,
    "price_level": "",
    "open_hours": "",
    "extraction_timestamp": "2025-06-07T14:03:17.558Z",
    "source_name": "google",
    "source_query": "Irrigation Equipment",
    "source_country": "IR",
    "country": "Iran",
    "state": "Tehran",
    "city": "Ahmadabad-E Mostowfi"
  },
  {
    "source_id": "ChIJoTsSQQsBjj8Re4yPgbYBMnk",
    "name": "Movahedin",
    "category": "Movahedin",
    "formatted_address": "Sulama Ekipmanları Tedarikçisi · Shahriar, PC25+5GXKapalı ⋅ Açılış zamanı: Paz 08:00 · +98 21 6670 5096",
    "phone_number": "+982166705096",
    "source_url": "https://www.google.com/maps/place/Movahedin/data=!4m7!3m6!1s0x3f8e010b41123ba1:0x793201b6818f8c7b!8m2!3d35.7004879!4d51.4088729!16s%2Fg%2F1tjrng36!19sChIJoTsSQQsBjj8Re4yPgbYBMnk?authuser=0&hl=tr&rclk=1",
    "website_url": "http://www.movahedin.com/",
    "rating_text": "",
    "stars": null,
    "number_of_reviews": null,
    "price_level": "",
    "open_hours": "",
    "extraction_timestamp": "2025-06-07T14:03:17.559Z",
    "source_name": "google",
    "source_query": "Irrigation Equipment",
    "source_country": "IR",
    "country": "Iran",
    "state": "Tehran",
    "city": "Ahmadabad-E Mostowfi"
  },
  {
    "source_id": "ChIJDTpCwbQBjj8RIvOG7Jg3aIo",
    "name": "Iran tools",
    "category": "Iran tools",
    "formatted_address": "4,8(12)",
    "phone_number": "+989124022012",
    "source_url": "https://www.google.com/maps/place/Iran+tools/data=!4m7!3m6!1s0x3f8e01b4c1423a0d:0x8a683798ec86f322!8m2!3d35.6755984!4d51.3950089!16s%2Fg%2F11b75mnsg9!19sChIJDTpCwbQBjj8RIvOG7Jg3aIo?authuser=0&hl=tr&rclk=1",
    "website_url": "http://ttbolt.com/",
    "rating_text": "4,8",
    "stars": null,
    "number_of_reviews": null,
    "price_level": "",
    "open_hours": "",
    "extraction_timestamp": "2025-06-07T14:03:17.559Z",
    "source_name": "google",
    "source_query": "Irrigation Equipment",
    "source_country": "IR",
    "country": "Iran",
    "state": "Tehran",
    "city": "Ahmadabad-E Mostowfi"
  }
]
