[
  {
    "source_id": "ChIJ7TDQPwDxjT8R3JEoY36p0sM",
    "name": "فروشگاه تصفیه آب گوارنوش",
    "category": "فروشگاه تصفیه آب گوارنوش",
    "formatted_address": "5,0(4)",
    "phone_number": "+989129597179",
    "source_url": "https://www.google.com/maps/place/%D9%81%D8%B1%D9%88%D8%B4%DA%AF%D8%A7%D9%87+%D8%AA%D8%B5%D9%81%DB%8C%D9%87+%D8%A2%D8%A8+%DA%AF%D9%88%D8%A7%D8%B1%D9%86%D9%88%D8%B4%E2%80%AD/data=!4m7!3m6!1s0x3f8df1003fd030ed:0xc3d2a97e632891dc!8m2!3d35.6411908!4d51.1317843!16s%2Fg%2F11vxh9pnd0!19sChIJ7TDQPwDxjT8R3JEoY36p0sM?authuser=0&hl=tr&rclk=1",
    "website_url": "",
    "rating_text": "5,0",
    "stars": null,
    "number_of_reviews": null,
    "price_level": "",
    "open_hours": "",
    "extraction_timestamp": "2025-06-07T14:06:27.014Z",
    "source_name": "google",
    "source_query": "Irrigation Equipment",
    "source_country": "IR",
    "country": "Iran",
    "state": "Tehran",
    "city": "Baghestan"
  },
  {
    "source_id": "ChIJ_fLPRAABjj8RSeosiGuijm8",
    "name": "هانترسل",
    "category": "هانترسل",
    "formatted_address": "5,0(2)",
    "phone_number": "+982155808909",
    "source_url": "https://www.google.com/maps/place/%D9%87%D8%A7%D9%86%D8%AA%D8%B1%D8%B3%D9%84%E2%80%AD/data=!4m7!3m6!1s0x3f8e010044cff2fd:0x6f8ea26b882cea49!8m2!3d35.6811685!4d51.4107418!16s%2Fg%2F11vwx4_tj0!19sChIJ_fLPRAABjj8RSeosiGuijm8?authuser=0&hl=tr&rclk=1",
    "website_url": "",
    "rating_text": "5,0",
    "stars": null,
    "number_of_reviews": null,
    "price_level": "",
    "open_hours": "",
    "extraction_timestamp": "2025-06-07T14:06:27.015Z",
    "source_name": "google",
    "source_query": "Irrigation Equipment",
    "source_country": "IR",
    "country": "Iran",
    "state": "Tehran",
    "city": "Baghestan"
  },
  {
    "source_id": "ChIJS7-osl0Bjj8R84DcdIl7k_8",
    "name": "Irrigation and Farming Company Aria Tib",
    "category": "Irrigation and Farming Company Aria Tib",
    "formatted_address": "4,7(7)",
    "phone_number": "+982188845454",
    "source_url": "https://www.google.com/maps/place/Irrigation+and+Farming+Company+Aria+Tib/data=!4m7!3m6!1s0x3f8e015db2a8bf4b:0xff937b8974dc80f3!8m2!3d35.7232298!4d51.4237588!16s%2Fg%2F11f0kvhyt6!19sChIJS7-osl0Bjj8R84DcdIl7k_8?authuser=0&hl=tr&rclk=1",
    "website_url": "",
    "rating_text": "4,7",
    "stars": null,
    "number_of_reviews": null,
    "price_level": "",
    "open_hours": "",
    "extraction_timestamp": "2025-06-07T14:06:27.016Z",
    "source_name": "google",
    "source_query": "Irrigation Equipment",
    "source_country": "IR",
    "country": "Iran",
    "state": "Tehran",
    "city": "Baghestan"
  },
  {
    "source_id": "ChIJM14qyZQGjj8REzFOag3oADM",
    "name": "kamco",
    "category": "kamco",
    "formatted_address": "5,0(1)",
    "phone_number": "+982188225302",
    "source_url": "https://www.google.com/maps/place/kamco/data=!4m7!3m6!1s0x3f8e0694c92a5e33:0x3300e80d6a4e3113!8m2!3d35.7235012!4d51.4019769!16s%2Fg%2F11b6d0knrt!19sChIJM14qyZQGjj8REzFOag3oADM?authuser=0&hl=tr&rclk=1",
    "website_url": "",
    "rating_text": "5,0",
    "stars": null,
    "number_of_reviews": null,
    "price_level": "",
    "open_hours": "",
    "extraction_timestamp": "2025-06-07T14:06:27.016Z",
    "source_name": "google",
    "source_query": "Irrigation Equipment",
    "source_country": "IR",
    "country": "Iran",
    "state": "Tehran",
    "city": "Baghestan"
  },
  {
    "source_id": "ChIJoTsSQQsBjj8Re4yPgbYBMnk",
    "name": "Movahedin",
    "category": "Movahedin",
    "formatted_address": "Sulama Ekipmanları Tedarikçisi · Shahriar, PC25+5GXKapalı ⋅ Açılış zamanı: Paz 08:00 · +98 21 6670 5096",
    "phone_number": "+982166705096",
    "source_url": "https://www.google.com/maps/place/Movahedin/data=!4m7!3m6!1s0x3f8e010b41123ba1:0x793201b6818f8c7b!8m2!3d35.7004879!4d51.4088729!16s%2Fg%2F1tjrng36!19sChIJoTsSQQsBjj8Re4yPgbYBMnk?authuser=0&hl=tr&rclk=1",
    "website_url": "",
    "rating_text": "",
    "stars": null,
    "number_of_reviews": null,
    "price_level": "",
    "open_hours": "",
    "extraction_timestamp": "2025-06-07T14:06:27.022Z",
    "source_name": "google",
    "source_query": "Irrigation Equipment",
    "source_country": "IR",
    "country": "Iran",
    "state": "Tehran",
    "city": "Baghestan"
  },
  {
    "source_id": "ChIJv6jv6vAZkj8RQqunRNeLkPQ",
    "name": "شرکت تکنوژاله",
    "category": "شرکت تکنوژاله",
    "formatted_address": "4,5(2)",
    "phone_number": "+989125801150",
    "source_url": "https://www.google.com/maps/place/%D8%B4%D8%B1%DA%A9%D8%AA+%D8%AA%DA%A9%D9%86%D9%88%DA%98%D8%A7%D9%84%D9%87%E2%80%AD/data=!4m7!3m6!1s0x3f9219f0eaefa8bf:0xf4908bd744a7ab42!8m2!3d35.3734371!4d51.2511171!16s%2Fg%2F11jgsfs1g6!19sChIJv6jv6vAZkj8RQqunRNeLkPQ?authuser=0&hl=tr&rclk=1",
    "website_url": "",
    "rating_text": "4,5",
    "stars": null,
    "number_of_reviews": null,
    "price_level": "",
    "open_hours": "",
    "extraction_timestamp": "2025-06-07T14:06:27.023Z",
    "source_name": "google",
    "source_query": "Irrigation Equipment",
    "source_country": "IR",
    "country": "Iran",
    "state": "Tehran",
    "city": "Baghestan"
  },
  {
    "source_id": "ChIJo1uNLwnxjT8Rl6PRH5l4pYw",
    "name": "گروه تولیدی و صنعتی تیک پمپ",
    "category": "گروه تولیدی و صنعتی تیک پمپ",
    "formatted_address": "1,0(1)",
    "phone_number": "+982165734527",
    "source_url": "https://www.google.com/maps/place/%DA%AF%D8%B1%D9%88%D9%87+%D8%AA%D9%88%D9%84%DB%8C%D8%AF%DB%8C+%D9%88+%D8%B5%D9%86%D8%B9%D8%AA%DB%8C+%D8%AA%DB%8C%DA%A9+%D9%BE%D9%85%D9%BE%E2%80%AD/data=!4m7!3m6!1s0x3f8df1092f8d5ba3:0x8ca578991fd1a397!8m2!3d35.6640954!4d51.1156126!16s%2Fg%2F11h0bwc23l!19sChIJo1uNLwnxjT8Rl6PRH5l4pYw?authuser=0&hl=tr&rclk=1",
    "website_url": "",
    "rating_text": "1,0",
    "stars": null,
    "number_of_reviews": null,
    "price_level": "",
    "open_hours": "",
    "extraction_timestamp": "2025-06-07T14:06:27.024Z",
    "source_name": "google",
    "source_query": "Irrigation Equipment",
    "source_country": "IR",
    "country": "Iran",
    "state": "Tehran",
    "city": "Baghestan"
  },
  {
    "source_id": "ChIJ9dikMKbxjT8R9TeEYF-Z8a4",
    "name": "jafarpoor dry offset printing consumable materials",
    "category": "jafarpoor dry offset printing consumable materials",
    "formatted_address": "4,3(3)",
    "phone_number": "+989121765631",
    "source_url": "https://www.google.com/maps/place/jafarpoor+dry+offset+printing+consumable+materials/data=!4m7!3m6!1s0x3f8df1a630a4d8f5:0xaef1995f608437f5!8m2!3d35.6666272!4d51.1261957!16s%2Fg%2F11c0wdy311!19sChIJ9dikMKbxjT8R9TeEYF-Z8a4?authuser=0&hl=tr&rclk=1",
    "website_url": "",
    "rating_text": "4,3",
    "stars": null,
    "number_of_reviews": null,
    "price_level": "",
    "open_hours": "",
    "extraction_timestamp": "2025-06-07T14:06:27.024Z",
    "source_name": "google",
    "source_query": "Irrigation Equipment",
    "source_country": "IR",
    "country": "Iran",
    "state": "Tehran",
    "city": "Baghestan"
  },
  {
    "source_id": "ChIJSZELbivxjT8Ra4UBGiztxqU",
    "name": "دکه مطبوعاتی محمد پور",
    "category": "دکه مطبوعاتی محمد پور",
    "formatted_address": "5,0(1)",
    "phone_number": "+989124068831",
    "source_url": "https://www.google.com/maps/place/%D8%AF%DA%A9%D9%87+%D9%85%D8%B7%D8%A8%D9%88%D8%B9%D8%A7%D8%AA%DB%8C+%D9%85%D8%AD%D9%85%D8%AF+%D9%BE%D9%88%D8%B1%E2%80%AD/data=!4m7!3m6!1s0x3f8df12b6e0b9149:0xa5c6ed2c1a01856b!8m2!3d35.6452245!4d51.1425067!16s%2Fg%2F11pxbnzjs2!19sChIJSZELbivxjT8Ra4UBGiztxqU?authuser=0&hl=tr&rclk=1",
    "website_url": "",
    "rating_text": "5,0",
    "stars": null,
    "number_of_reviews": null,
    "price_level": "",
    "open_hours": "",
    "extraction_timestamp": "2025-06-07T14:06:27.024Z",
    "source_name": "google",
    "source_query": "Irrigation Equipment",
    "source_country": "IR",
    "country": "Iran",
    "state": "Tehran",
    "city": "Baghestan"
  },
  {
    "source_id": "ChIJq8macsWikT8RpC1SNZKM8CI",
    "name": "Irrigation Accessories and Hardware Arestani",
    "category": "Irrigation Accessories and Hardware Arestani",
    "formatted_address": "4,0(2)",
    "phone_number": "+982136724944",
    "source_url": "https://www.google.com/maps/place/Irrigation+Accessories+and+Hardware+Arestani/data=!4m7!3m6!1s0x3f91a2c5729ac9ab:0x22f08c9235522da4!8m2!3d35.3140051!4d51.7130788!16s%2Fg%2F11c5wl0fc4!19sChIJq8macsWikT8RpC1SNZKM8CI?authuser=0&hl=tr&rclk=1",
    "website_url": "",
    "rating_text": "4,0",
    "stars": null,
    "number_of_reviews": null,
    "price_level": "",
    "open_hours": "",
    "extraction_timestamp": "2025-06-07T14:06:27.025Z",
    "source_name": "google",
    "source_query": "Irrigation Equipment",
    "source_country": "IR",
    "country": "Iran",
    "state": "Tehran",
    "city": "Baghestan"
  },
  {
    "source_id": "ChIJS6c9YADxjT8RiSKddaqgQfY",
    "name": "Heneza Company",
    "category": "Heneza Company",
    "formatted_address": "5,0(23)",
    "phone_number": "+989124937234",
    "source_url": "https://www.google.com/maps/place/Heneza+Company/data=!4m7!3m6!1s0x3f8df100603da74b:0xf641a0aa759d2289!8m2!3d35.6881977!4d51.1248541!16s%2Fg%2F11wq0nv07g!19sChIJS6c9YADxjT8RiSKddaqgQfY?authuser=0&hl=tr&rclk=1",
    "website_url": "",
    "rating_text": "5,0",
    "stars": null,
    "number_of_reviews": null,
    "price_level": "",
    "open_hours": "",
    "extraction_timestamp": "2025-06-07T14:06:27.025Z",
    "source_name": "google",
    "source_query": "Irrigation Equipment",
    "source_country": "IR",
    "country": "Iran",
    "state": "Tehran",
    "city": "Baghestan"
  },
  {
    "source_id": "ChIJ4VFu2SvxjT8RTiPjcWkBsEw",
    "name": "هایپرمارکت اتام",
    "category": "هایپرمارکت اتام",
    "formatted_address": "5,0(1)",
    "phone_number": "+989372714099",
    "source_url": "https://www.google.com/maps/place/%D9%87%D8%A7%DB%8C%D9%BE%D8%B1%D9%85%D8%A7%D8%B1%DA%A9%D8%AA+%D8%A7%D8%AA%D8%A7%D9%85%E2%80%AD/data=!4m7!3m6!1s0x3f8df12bd96e51e1:0x4cb0016971e3234e!8m2!3d35.636498!4d51.1400485!16s%2Fg%2F11kb593ptr!19sChIJ4VFu2SvxjT8RTiPjcWkBsEw?authuser=0&hl=tr&rclk=1",
    "website_url": "",
    "rating_text": "5,0",
    "stars": null,
    "number_of_reviews": null,
    "price_level": "",
    "open_hours": "",
    "extraction_timestamp": "2025-06-07T14:06:27.026Z",
    "source_name": "google",
    "source_query": "Irrigation Equipment",
    "source_country": "IR",
    "country": "Iran",
    "state": "Tehran",
    "city": "Baghestan"
  },
  {
    "source_id": "ChIJaYfD9cf2jT8RUImCZF_Hwoo",
    "name": "سوپر مارکت پرسپولیس",
    "category": "سوپر مارکت پرسپولیس",
    "formatted_address": "5,0(1)",
    "phone_number": "+982165960848",
    "source_url": "https://www.google.com/maps/place/%D8%B3%D9%88%D9%BE%D8%B1+%D9%85%D8%A7%D8%B1%DA%A9%D8%AA+%D9%BE%D8%B1%D8%B3%D9%BE%D9%88%D9%84%DB%8C%D8%B3%E2%80%AD/data=!4m7!3m6!1s0x3f8df6c7f5c38769:0x8ac2c75f64828950!8m2!3d35.6128722!4d51.1168108!16s%2Fg%2F11gbfbq0d5!19sChIJaYfD9cf2jT8RUImCZF_Hwoo?authuser=0&hl=tr&rclk=1",
    "website_url": "",
    "rating_text": "5,0",
    "stars": null,
    "number_of_reviews": null,
    "price_level": "",
    "open_hours": "",
    "extraction_timestamp": "2025-06-07T14:06:27.026Z",
    "source_name": "google",
    "source_query": "Irrigation Equipment",
    "source_country": "IR",
    "country": "Iran",
    "state": "Tehran",
    "city": "Baghestan"
  },
  {
    "source_id": "ChIJObsB6CfxjT8RAzUPam8fjIQ",
    "name": "super market baghestan",
    "category": "super market baghestan",
    "formatted_address": "4,2(6)",
    "phone_number": "+982165286703",
    "source_url": "https://www.google.com/maps/place/super+market+baghestan/data=!4m7!3m6!1s0x3f8df127e801bb39:0x848c1f6f6a0f3503!8m2!3d35.6403095!4d51.1363427!16s%2Fg%2F11cs8m1mmd!19sChIJObsB6CfxjT8RAzUPam8fjIQ?authuser=0&hl=tr&rclk=1",
    "website_url": "",
    "rating_text": "4,2",
    "stars": null,
    "number_of_reviews": null,
    "price_level": "",
    "open_hours": "",
    "extraction_timestamp": "2025-06-07T14:06:27.026Z",
    "source_name": "google",
    "source_query": "Irrigation Equipment",
    "source_country": "IR",
    "country": "Iran",
    "state": "Tehran",
    "city": "Baghestan"
  },
  {
    "source_id": "ChIJLUUk_VPxjT8RQwMu80BbakY",
    "name": "هایپرمارکت مانی",
    "category": "هایپرمارکت مانی",
    "formatted_address": "5,0(1)",
    "phone_number": "+989332250601",
    "source_url": "https://www.google.com/maps/place/%D9%87%D8%A7%DB%8C%D9%BE%D8%B1%D9%85%D8%A7%D8%B1%DA%A9%D8%AA+%D9%85%D8%A7%D9%86%DB%8C%E2%80%AD/data=!4m7!3m6!1s0x3f8df153fd24452d:0x466a5b40f32e0343!8m2!3d35.6328942!4d51.1390718!16s%2Fg%2F11ny12cxvh!19sChIJLUUk_VPxjT8RQwMu80BbakY?authuser=0&hl=tr&rclk=1",
    "website_url": "",
    "rating_text": "5,0",
    "stars": null,
    "number_of_reviews": null,
    "price_level": "",
    "open_hours": "",
    "extraction_timestamp": "2025-06-07T14:06:27.027Z",
    "source_name": "google",
    "source_query": "Irrigation Equipment",
    "source_country": "IR",
    "country": "Iran",
    "state": "Tehran",
    "city": "Baghestan"
  },
  {
    "source_id": "ChIJeedYHwDxjT8Rd778Hk1tECs",
    "name": "پروتئین مزه فربد",
    "category": "پروتئین مزه فربد",
    "formatted_address": "5,0(1)",
    "phone_number": "",
    "source_url": "https://www.google.com/maps/place/%D9%BE%D8%B1%D9%88%D8%AA%D8%A6%DB%8C%D9%86+%D9%85%D8%B2%D9%87+%D9%81%D8%B1%D8%A8%D8%AF%E2%80%AD/data=!4m7!3m6!1s0x3f8df1001f58e779:0x2b106d4d1efcbe77!8m2!3d35.6463341!4d51.1381696!16s%2Fg%2F11x0zr2s_n!19sChIJeedYHwDxjT8Rd778Hk1tECs?authuser=0&hl=tr&rclk=1",
    "website_url": "",
    "rating_text": "5,0",
    "stars": null,
    "number_of_reviews": null,
    "price_level": "",
    "open_hours": "",
    "extraction_timestamp": "2025-06-07T14:06:27.027Z",
    "source_name": "google",
    "source_query": "Irrigation Equipment",
    "source_country": "IR",
    "country": "Iran",
    "state": "Tehran",
    "city": "Baghestan"
  },
  {
    "source_id": "ChIJVxL6aBfxjT8RDW3rgRXvvMU",
    "name": "گوارنوش",
    "category": "گوارنوش",
    "formatted_address": "5,0(2)",
    "phone_number": "+989128158113",
    "source_url": "https://www.google.com/maps/place/%DA%AF%D9%88%D8%A7%D8%B1%D9%86%D9%88%D8%B4%E2%80%AD/data=!4m7!3m6!1s0x3f8df11768fa1257:0xc5bcef1581eb6d0d!8m2!3d35.6332188!4d51.13398!16s%2Fg%2F11n60d6nwj!19sChIJVxL6aBfxjT8RDW3rgRXvvMU?authuser=0&hl=tr&rclk=1",
    "website_url": "",
    "rating_text": "5,0",
    "stars": null,
    "number_of_reviews": null,
    "price_level": "",
    "open_hours": "",
    "extraction_timestamp": "2025-06-07T14:06:27.027Z",
    "source_name": "google",
    "source_query": "Irrigation Equipment",
    "source_country": "IR",
    "country": "Iran",
    "state": "Tehran",
    "city": "Baghestan"
  }
]
