[
  {
    "source_id": "ChIJ_fLPRAABjj8RSeosiGuijm8",
    "name": "هانترسل",
    "category": "هانترسل",
    "formatted_address": "5,0(2)",
    "phone_number": "+982155808909",
    "source_url": "https://www.google.com/maps/place/%D9%87%D8%A7%D9%86%D8%AA%D8%B1%D8%B3%D9%84%E2%80%AD/data=!4m7!3m6!1s0x3f8e010044cff2fd:0x6f8ea26b882cea49!8m2!3d35.6811685!4d51.4107418!16s%2Fg%2F11vwx4_tj0!19sChIJ_fLPRAABjj8RSeosiGuijm8?authuser=0&hl=tr&rclk=1",
    "website_url": "",
    "rating_text": "5,0",
    "stars": null,
    "number_of_reviews": null,
    "price_level": "",
    "open_hours": "",
    "extraction_timestamp": "2025-06-07T14:06:10.262Z",
    "source_name": "google",
    "source_query": "Irrigation Equipment",
    "source_country": "IR",
    "country": "Iran",
    "state": "Tehran",
    "city": "Baharestan"
  },
  {
    "source_id": "ChIJ91Bn-AUBjj8RqArrJb0iFfg",
    "name": "Water and electricity industry equipment",
    "category": "Water and electricity industry equipment",
    "formatted_address": "İnşaat Şirketi · کوچه خوانساری پلاک ۱۸ واحد چهار, سعدی جنوبی",
    "phone_number": "",
    "source_url": "https://www.google.com/maps/place/Water+and+electricity+industry+equipment/data=!4m7!3m6!1s0x3f8e0105f86750f7:0xf81522bd25eb0aa8!8m2!3d35.6898316!4d51.424824!16s%2Fg%2F11kqxdvzzr!19sChIJ91Bn-AUBjj8RqArrJb0iFfg?authuser=0&hl=tr&rclk=1",
    "website_url": "",
    "rating_text": "",
    "stars": null,
    "number_of_reviews": null,
    "price_level": "",
    "open_hours": "",
    "extraction_timestamp": "2025-06-07T14:06:10.262Z",
    "source_name": "google",
    "source_query": "Irrigation Equipment",
    "source_country": "IR",
    "country": "Iran",
    "state": "Tehran",
    "city": "Baharestan"
  },
  {
    "source_id": "ChIJS7-osl0Bjj8R84DcdIl7k_8",
    "name": "Irrigation and Farming Company Aria Tib",
    "category": "Irrigation and Farming Company Aria Tib",
    "formatted_address": "4,7(7)",
    "phone_number": "+982188845454",
    "source_url": "https://www.google.com/maps/place/Irrigation+and+Farming+Company+Aria+Tib/data=!4m7!3m6!1s0x3f8e015db2a8bf4b:0xff937b8974dc80f3!8m2!3d35.7232298!4d51.4237588!16s%2Fg%2F11f0kvhyt6!19sChIJS7-osl0Bjj8R84DcdIl7k_8?authuser=0&hl=tr&rclk=1",
    "website_url": "",
    "rating_text": "4,7",
    "stars": null,
    "number_of_reviews": null,
    "price_level": "",
    "open_hours": "",
    "extraction_timestamp": "2025-06-07T14:06:10.263Z",
    "source_name": "google",
    "source_query": "Irrigation Equipment",
    "source_country": "IR",
    "country": "Iran",
    "state": "Tehran",
    "city": "Baharestan"
  },
  {
    "source_id": "ChIJd0pV544Bjj8RKKy-SVImYdc",
    "name": "پاساژ آبیاری نوین",
    "category": "پاساژ آبیاری نوین",
    "formatted_address": "2,0(1)",
    "phone_number": "+982133926062",
    "source_url": "https://www.google.com/maps/place/%D9%BE%D8%A7%D8%B3%D8%A7%DA%98+%D8%A2%D8%A8%DB%8C%D8%A7%D8%B1%DB%8C+%D9%86%D9%88%DB%8C%D9%86%E2%80%AD/data=!4m7!3m6!1s0x3f8e018ee7554a77:0xd761265249beac28!8m2!3d35.6939012!4d51.4256561!16s%2Fg%2F11gbfnwf1t!19sChIJd0pV544Bjj8RKKy-SVImYdc?authuser=0&hl=tr&rclk=1",
    "website_url": "",
    "rating_text": "2,0",
    "stars": null,
    "number_of_reviews": null,
    "price_level": "",
    "open_hours": "",
    "extraction_timestamp": "2025-06-07T14:06:10.263Z",
    "source_name": "google",
    "source_query": "Irrigation Equipment",
    "source_country": "IR",
    "country": "Iran",
    "state": "Tehran",
    "city": "Baharestan"
  },
  {
    "source_id": "ChIJk_ivm8sBjj8RVl3U81uTfpU",
    "name": "پاساژ سعدی قدیم",
    "category": "پاساژ سعدی قدیم",
    "formatted_address": "4,4(22)",
    "phone_number": "+982133953449",
    "source_url": "https://www.google.com/maps/place/%D9%BE%D8%A7%D8%B3%D8%A7%DA%98+%D8%B3%D8%B9%D8%AF%DB%8C+%D9%82%D8%AF%DB%8C%D9%85%E2%80%AD/data=!4m7!3m6!1s0x3f8e01cb9baff893:0x957e935bf3d45d56!8m2!3d35.6890838!4d51.4243533!16s%2Fg%2F11v15dzrqj!19sChIJk_ivm8sBjj8RVl3U81uTfpU?authuser=0&hl=tr&rclk=1",
    "website_url": "",
    "rating_text": "4,4",
    "stars": null,
    "number_of_reviews": null,
    "price_level": "",
    "open_hours": "",
    "extraction_timestamp": "2025-06-07T14:06:10.264Z",
    "source_name": "google",
    "source_query": "Irrigation Equipment",
    "source_country": "IR",
    "country": "Iran",
    "state": "Tehran",
    "city": "Baharestan"
  },
  {
    "source_id": "ChIJSxyRJwEBjj8RuFacRD7EufU",
    "name": "فروشگاه الکترو موتور بابایی",
    "category": "فروشگاه الکترو موتور بابایی",
    "formatted_address": "4,0(1)",
    "phone_number": "+989125101554",
    "source_url": "https://www.google.com/maps/place/%D9%81%D8%B1%D9%88%D8%B4%DA%AF%D8%A7%D9%87+%D8%A7%D9%84%DA%A9%D8%AA%D8%B1%D9%88+%D9%85%D9%88%D8%AA%D9%88%D8%B1+%D8%A8%D8%A7%D8%A8%D8%A7%DB%8C%DB%8C%E2%80%AD/data=!4m7!3m6!1s0x3f8e010127911c4b:0xf5b9c43e449c56b8!8m2!3d35.6890225!4d51.4250658!16s%2Fg%2F11svwsc2ds!19sChIJSxyRJwEBjj8RuFacRD7EufU?authuser=0&hl=tr&rclk=1",
    "website_url": "",
    "rating_text": "4,0",
    "stars": null,
    "number_of_reviews": null,
    "price_level": "",
    "open_hours": "",
    "extraction_timestamp": "2025-06-07T14:06:10.264Z",
    "source_name": "google",
    "source_query": "Irrigation Equipment",
    "source_country": "IR",
    "country": "Iran",
    "state": "Tehran",
    "city": "Baharestan"
  },
  {
    "source_id": "ChIJc9hB2A8Bjj8RSFpKLhTTnuE",
    "name": "جیحون صنعت صحرا",
    "category": "جیحون صنعت صحرا",
    "formatted_address": "5,0(3)",
    "phone_number": "+982136615913",
    "source_url": "https://www.google.com/maps/place/%D8%AC%DB%8C%D8%AD%D9%88%D9%86+%D8%B5%D9%86%D8%B9%D8%AA+%D8%B5%D8%AD%D8%B1%D8%A7%E2%80%AD/data=!4m7!3m6!1s0x3f8e010fd841d873:0xe19ed3142e4a5a48!8m2!3d35.6920182!4d51.4255057!16s%2Fg%2F11j0hb9yhf!19sChIJc9hB2A8Bjj8RSFpKLhTTnuE?authuser=0&hl=tr&rclk=1",
    "website_url": "http://www.jsspump.com/",
    "rating_text": "5,0",
    "stars": null,
    "number_of_reviews": null,
    "price_level": "",
    "open_hours": "",
    "extraction_timestamp": "2025-06-07T14:06:10.265Z",
    "source_name": "google",
    "source_query": "Irrigation Equipment",
    "source_country": "IR",
    "country": "Iran",
    "state": "Tehran",
    "city": "Baharestan"
  },
  {
    "source_id": "ChIJedQl6Y4Bjj8ResILOhNlSjg",
    "name": "توان پمپ",
    "category": "توان پمپ",
    "formatted_address": "5,0(4)",
    "phone_number": "+982133961051",
    "source_url": "https://www.google.com/maps/place/%D8%AA%D9%88%D8%A7%D9%86+%D9%BE%D9%85%D9%BE%E2%80%AD/data=!4m7!3m6!1s0x3f8e018ee925d479:0x384a65133a0bc27a!8m2!3d35.6900786!4d51.4239774!16s%2Fg%2F11gbxc6j82!19sChIJedQl6Y4Bjj8ResILOhNlSjg?authuser=0&hl=tr&rclk=1",
    "website_url": "http://www.pumptavan.com/",
    "rating_text": "5,0",
    "stars": null,
    "number_of_reviews": null,
    "price_level": "",
    "open_hours": "",
    "extraction_timestamp": "2025-06-07T14:06:10.265Z",
    "source_name": "google",
    "source_query": "Irrigation Equipment",
    "source_country": "IR",
    "country": "Iran",
    "state": "Tehran",
    "city": "Baharestan"
  },
  {
    "source_id": "ChIJM14qyZQGjj8REzFOag3oADM",
    "name": "kamco",
    "category": "kamco",
    "formatted_address": "5,0(1)",
    "phone_number": "+982188225302",
    "source_url": "https://www.google.com/maps/place/kamco/data=!4m7!3m6!1s0x3f8e0694c92a5e33:0x3300e80d6a4e3113!8m2!3d35.7235012!4d51.4019769!16s%2Fg%2F11b6d0knrt!19sChIJM14qyZQGjj8REzFOag3oADM?authuser=0&hl=tr&rclk=1",
    "website_url": "",
    "rating_text": "5,0",
    "stars": null,
    "number_of_reviews": null,
    "price_level": "",
    "open_hours": "",
    "extraction_timestamp": "2025-06-07T14:06:10.265Z",
    "source_name": "google",
    "source_query": "Irrigation Equipment",
    "source_country": "IR",
    "country": "Iran",
    "state": "Tehran",
    "city": "Baharestan"
  },
  {
    "source_id": "ChIJoTsSQQsBjj8Re4yPgbYBMnk",
    "name": "Movahedin",
    "category": "Movahedin",
    "formatted_address": "Sulama Ekipmanları Tedarikçisi · Shahriar, PC25+5GXKapalı ⋅ Açılış zamanı: Paz 08:00 · +98 21 6670 5096",
    "phone_number": "+982166705096",
    "source_url": "https://www.google.com/maps/place/Movahedin/data=!4m7!3m6!1s0x3f8e010b41123ba1:0x793201b6818f8c7b!8m2!3d35.7004879!4d51.4088729!16s%2Fg%2F1tjrng36!19sChIJoTsSQQsBjj8Re4yPgbYBMnk?authuser=0&hl=tr&rclk=1",
    "website_url": "http://www.movahedin.com/",
    "rating_text": "",
    "stars": null,
    "number_of_reviews": null,
    "price_level": "",
    "open_hours": "",
    "extraction_timestamp": "2025-06-07T14:06:10.266Z",
    "source_name": "google",
    "source_query": "Irrigation Equipment",
    "source_country": "IR",
    "country": "Iran",
    "state": "Tehran",
    "city": "Baharestan"
  },
  {
    "source_id": "ChIJeUl4VeIBjj8RD2-rYqBVtfI",
    "name": "Abankala",
    "category": "Abankala",
    "formatted_address": "",
    "phone_number": "+982133906522",
    "source_url": "https://www.google.com/maps/place/Abankala/data=!4m7!3m6!1s0x3f8e01e255784979:0xf2b555a062ab6f0f!8m2!3d35.6836298!4d51.420451!16s%2Fg%2F11rypqyrfk!19sChIJeUl4VeIBjj8RD2-rYqBVtfI?authuser=0&hl=tr&rclk=1",
    "website_url": "",
    "rating_text": "",
    "stars": null,
    "number_of_reviews": null,
    "price_level": "",
    "open_hours": "",
    "extraction_timestamp": "2025-06-07T14:06:10.266Z",
    "source_name": "google",
    "source_query": "Irrigation Equipment",
    "source_country": "IR",
    "country": "Iran",
    "state": "Tehran",
    "city": "Baharestan"
  },
  {
    "source_id": "ChIJu0ysfDIBjj8RIotPEXXg_WM",
    "name": "نوین پمپ",
    "category": "نوین پمپ",
    "formatted_address": "5,0(1)",
    "phone_number": "+982133948025",
    "source_url": "https://www.google.com/maps/place/%D9%86%D9%88%DB%8C%D9%86+%D9%BE%D9%85%D9%BE%E2%80%AD/data=!4m7!3m6!1s0x3f8e01327cac4cbb:0x63fde075114f8b22!8m2!3d35.6963136!4d51.4243129!16s%2Fg%2F11hf4q30dn!19sChIJu0ysfDIBjj8RIotPEXXg_WM?authuser=0&hl=tr&rclk=1",
    "website_url": "http://novinpump.ir/",
    "rating_text": "5,0",
    "stars": null,
    "number_of_reviews": null,
    "price_level": "",
    "open_hours": "",
    "extraction_timestamp": "2025-06-07T14:06:10.266Z",
    "source_name": "google",
    "source_query": "Irrigation Equipment",
    "source_country": "IR",
    "country": "Iran",
    "state": "Tehran",
    "city": "Baharestan"
  },
  {
    "source_id": "ChIJvXcX8TcBjj8R3tam-l5qXTY",
    "name": "Azarbani Shop",
    "category": "Azarbani Shop",
    "formatted_address": "Su Yumuşatma Ekipmanları Tedarikçisi · Tehran, Tehran, Tehran, آدرس:خیابان سعدی شمالی بالاتر از خیابان منوچهری،روبروی بانک ملت،, Saadi St24 saat açık · +98 21 3394 4040",
    "phone_number": "+982133944040",
    "source_url": "https://www.google.com/maps/place/Azarbani+Shop/data=!4m7!3m6!1s0x3f8e0137f11777bd:0x365d6a5efaa6d6de!8m2!3d35.6942221!4d51.424903!16s%2Fg%2F11p15m81_m!19sChIJvXcX8TcBjj8R3tam-l5qXTY?authuser=0&hl=tr&rclk=1",
    "website_url": "",
    "rating_text": "",
    "stars": null,
    "number_of_reviews": null,
    "price_level": "",
    "open_hours": "",
    "extraction_timestamp": "2025-06-07T14:06:10.267Z",
    "source_name": "google",
    "source_query": "Irrigation Equipment",
    "source_country": "IR",
    "country": "Iran",
    "state": "Tehran",
    "city": "Baharestan"
  },
  {
    "source_id": "ChIJcS9IczQBjj8RjsBt-kHmqAE",
    "name": "Hanna Supply & Equipment Trading Co.",
    "category": "Hanna Supply & Equipment Trading Co.",
    "formatted_address": "5,0(17)",
    "phone_number": "+982136055362",
    "source_url": "https://www.google.com/maps/place/Hanna+Supply+%26+Equipment+Trading+Co./data=!4m7!3m6!1s0x3f8e013473482f71:0x1a8e641fa6dc08e!8m2!3d35.6882825!4d51.4227767!16s%2Fg%2F11j5jpqq8w!19sChIJcS9IczQBjj8RjsBt-kHmqAE?authuser=0&hl=tr&rclk=1",
    "website_url": "https://hannaset.com/",
    "rating_text": "5,0",
    "stars": null,
    "number_of_reviews": null,
    "price_level": "",
    "open_hours": "",
    "extraction_timestamp": "2025-06-07T14:06:10.267Z",
    "source_name": "google",
    "source_query": "Irrigation Equipment",
    "source_country": "IR",
    "country": "Iran",
    "state": "Tehran",
    "city": "Baharestan"
  },
  {
    "source_id": "ChIJ8b_EbT0Bjj8R_QFwgr2l578",
    "name": "TS Coتهران استخر",
    "category": "TS Coتهران استخر",
    "formatted_address": "5,0(2)",
    "phone_number": "+982133916775",
    "source_url": "https://www.google.com/maps/place/TS+Co%D8%AA%D9%87%D8%B1%D8%A7%D9%86+%D8%A7%D8%B3%D8%AA%D8%AE%D8%B1%E2%80%AD/data=!4m7!3m6!1s0x3f8e013d6dc4bff1:0xbfe7a5bd827001fd!8m2!3d35.6974332!4d51.4252901!16s%2Fg%2F11gy7hjy47!19sChIJ8b_EbT0Bjj8R_QFwgr2l578?authuser=0&hl=tr&rclk=1",
    "website_url": "http://www.tscoir.com/",
    "rating_text": "5,0",
    "stars": null,
    "number_of_reviews": null,
    "price_level": "",
    "open_hours": "",
    "extraction_timestamp": "2025-06-07T14:06:10.268Z",
    "source_name": "google",
    "source_query": "Irrigation Equipment",
    "source_country": "IR",
    "country": "Iran",
    "state": "Tehran",
    "city": "Baharestan"
  },
  {
    "source_id": "ChIJxYKWs34Bjj8Rsh1MAzfCHRw",
    "name": "Paya Gostaresh Khorshid Taban",
    "category": "Paya Gostaresh Khorshid Taban",
    "formatted_address": "4,6(7)",
    "phone_number": "+982188830031",
    "source_url": "https://www.google.com/maps/place/Paya+Gostaresh+Khorshid+Taban/data=!4m7!3m6!1s0x3f8e017eb39682c5:0x1c1dc237034c1db2!8m2!3d35.7072007!4d51.4265134!16s%2Fg%2F11hd21xr5w!19sChIJxYKWs34Bjj8Rsh1MAzfCHRw?authuser=0&hl=tr&rclk=1",
    "website_url": "https://payagostaresh.ir/",
    "rating_text": "4,6",
    "stars": null,
    "number_of_reviews": null,
    "price_level": "",
    "open_hours": "",
    "extraction_timestamp": "2025-06-07T14:06:10.268Z",
    "source_name": "google",
    "source_query": "Irrigation Equipment",
    "source_country": "IR",
    "country": "Iran",
    "state": "Tehran",
    "city": "Baharestan"
  },
  {
    "source_id": "ChIJbUEfbAABjj8Ru7kcCIn5qYM",
    "name": "دفتر تهران کالا صنعتی",
    "category": "دفتر تهران کالا صنعتی",
    "formatted_address": "5,0(3)",
    "phone_number": "+982191304300",
    "source_url": "https://www.google.com/maps/place/%D8%AF%D9%81%D8%AA%D8%B1+%D8%AA%D9%87%D8%B1%D8%A7%D9%86+%DA%A9%D8%A7%D9%84%D8%A7+%D8%B5%D9%86%D8%B9%D8%AA%DB%8C%E2%80%AD/data=!4m7!3m6!1s0x3f8e01006c1f416d:0x83a9f989081cb9bb!8m2!3d35.6980285!4d51.4274404!16s%2Fg%2F11wnybytmr!19sChIJbUEfbAABjj8Ru7kcCIn5qYM?authuser=0&hl=tr&rclk=1",
    "website_url": "http://www.kalasanati.com/",
    "rating_text": "5,0",
    "stars": null,
    "number_of_reviews": null,
    "price_level": "",
    "open_hours": "",
    "extraction_timestamp": "2025-06-07T14:06:10.268Z",
    "source_name": "google",
    "source_query": "Irrigation Equipment",
    "source_country": "IR",
    "country": "Iran",
    "state": "Tehran",
    "city": "Baharestan"
  },
  {
    "source_id": "ChIJJTs_-l8Bjj8Rh25w9oDCSsY",
    "name": "فروشگاه الکترو صنعت هاشمی",
    "category": "فروشگاه الکترو صنعت هاشمی",
    "formatted_address": "5,0(1)",
    "phone_number": "+982133959878",
    "source_url": "https://www.google.com/maps/place/%D9%81%D8%B1%D9%88%D8%B4%DA%AF%D8%A7%D9%87+%D8%A7%D9%84%DA%A9%D8%AA%D8%B1%D9%88+%D8%B5%D9%86%D8%B9%D8%AA+%D9%87%D8%A7%D8%B4%D9%85%DB%8C%E2%80%AD/data=!4m7!3m6!1s0x3f8e015ffa3f3b25:0xc64ac280f6706e87!8m2!3d35.6898256!4d51.4244689!16s%2Fg%2F11fhz_btjk!19sChIJJTs_-l8Bjj8Rh25w9oDCSsY?authuser=0&hl=tr&rclk=1",
    "website_url": "http://www.electrosanathashemi.com/",
    "rating_text": "5,0",
    "stars": null,
    "number_of_reviews": null,
    "price_level": "",
    "open_hours": "",
    "extraction_timestamp": "2025-06-07T14:06:10.269Z",
    "source_name": "google",
    "source_query": "Irrigation Equipment",
    "source_country": "IR",
    "country": "Iran",
    "state": "Tehran",
    "city": "Baharestan"
  },
  {
    "source_id": "ChIJhRVirzcBjj8RaO2SAzWAFmk",
    "name": "فروشگاه حسینیان Hoseinian Store",
    "category": "فروشگاه حسینیان Hoseinian Store",
    "formatted_address": "Su Pompası Tedarikçisi · Gudarzi, MCQF+J74Kapanmak üzere ⋅ 18:00 ⋅ Açılış zamanı: Paz 09:00 · +98 21 3661 2118",
    "phone_number": "+982136612118",
    "source_url": "https://www.google.com/maps/place/%D9%81%D8%B1%D9%88%D8%B4%DA%AF%D8%A7%D9%87+%D8%AD%D8%B3%DB%8C%D9%86%DB%8C%D8%A7%D9%86+Hoseinian+Store%E2%80%AD/data=!4m7!3m6!1s0x3f8e0137af621585:0x691680350392ed68!8m2!3d35.6890008!4d51.4232015!16s%2Fg%2F11krtrf2vh!19sChIJhRVirzcBjj8RaO2SAzWAFmk?authuser=0&hl=tr&rclk=1",
    "website_url": "",
    "rating_text": "",
    "stars": null,
    "number_of_reviews": null,
    "price_level": "",
    "open_hours": "",
    "extraction_timestamp": "2025-06-07T14:06:10.269Z",
    "source_name": "google",
    "source_query": "Irrigation Equipment",
    "source_country": "IR",
    "country": "Iran",
    "state": "Tehran",
    "city": "Baharestan"
  },
  {
    "source_id": "ChIJ3yB1Y44Bjj8R663W3fH2Hqg",
    "name": "SOLAR ARIO",
    "category": "SOLAR ARIO",
    "formatted_address": "4,2(5)",
    "phone_number": "+982133992655",
    "source_url": "https://www.google.com/maps/place/SOLAR+ARIO/data=!4m7!3m6!1s0x3f8e018e637520df:0xa81ef6f1ddd6adeb!8m2!3d35.6888206!4d51.4241492!16s%2Fg%2F11c6s7_n9f!19sChIJ3yB1Y44Bjj8R663W3fH2Hqg?authuser=0&hl=tr&rclk=1",
    "website_url": "http://www.novinario.com/",
    "rating_text": "4,2",
    "stars": null,
    "number_of_reviews": null,
    "price_level": "",
    "open_hours": "",
    "extraction_timestamp": "2025-06-07T14:06:10.270Z",
    "source_name": "google",
    "source_query": "Irrigation Equipment",
    "source_country": "IR",
    "country": "Iran",
    "state": "Tehran",
    "city": "Baharestan"
  },
  {
    "source_id": "ChIJ5Vj_4gQBjj8Rke8DDhmyqHo",
    "name": "شرکت کار و اندیشه نوآور",
    "category": "شرکت کار و اندیشه نوآور",
    "formatted_address": "5,0(3)",
    "phone_number": "+982188300031",
    "source_url": "https://www.google.com/maps/place/%D8%B4%D8%B1%DA%A9%D8%AA+%DA%A9%D8%A7%D8%B1+%D9%88+%D8%A7%D9%86%D8%AF%DB%8C%D8%B4%D9%87+%D9%86%D9%88%D8%A2%D9%88%D8%B1%E2%80%AD/data=!4m7!3m6!1s0x3f8e0104e2ff58e5:0x7aa8b2190e03ef91!8m2!3d35.7083669!4d51.4160209!16s%2Fg%2F11j8rk2vrt!19sChIJ5Vj_4gQBjj8Rke8DDhmyqHo?authuser=0&hl=tr&rclk=1",
    "website_url": "http://www.kanco.ir/",
    "rating_text": "5,0",
    "stars": null,
    "number_of_reviews": null,
    "price_level": "",
    "open_hours": "",
    "extraction_timestamp": "2025-06-07T14:06:10.270Z",
    "source_name": "google",
    "source_query": "Irrigation Equipment",
    "source_country": "IR",
    "country": "Iran",
    "state": "Tehran",
    "city": "Baharestan"
  },
  {
    "source_id": "ChIJDxNWiYkBjj8RlWOXQV9sDu4",
    "name": "شرکت تعاونی مصرف کارکنان بانک ملی ایران",
    "category": "شرکت تعاونی مصرف کارکنان بانک ملی ایران",
    "formatted_address": "3,8(26)",
    "phone_number": "+982133115336",
    "source_url": "https://www.google.com/maps/place/%D8%B4%D8%B1%DA%A9%D8%AA+%D8%AA%D8%B9%D8%A7%D9%88%D9%86%DB%8C+%D9%85%D8%B5%D8%B1%D9%81+%DA%A9%D8%A7%D8%B1%DA%A9%D9%86%D8%A7%D9%86+%D8%A8%D8%A7%D9%86%DA%A9+%D9%85%D9%84%DB%8C+%D8%A7%DB%8C%D8%B1%D8%A7%D9%86%E2%80%AD/data=!4m7!3m6!1s0x3f8e01898956130f:0xee0e6c5f41976395!8m2!3d35.6907416!4d51.429313!16s%2Fg%2F11g88d5rfj!19sChIJDxNWiYkBjj8RlWOXQV9sDu4?authuser=0&hl=tr&rclk=1",
    "website_url": "http://tmbmi.ir/",
    "rating_text": "3,8",
    "stars": null,
    "number_of_reviews": null,
    "price_level": "",
    "open_hours": "",
    "extraction_timestamp": "2025-06-07T14:06:10.271Z",
    "source_name": "google",
    "source_query": "Irrigation Equipment",
    "source_country": "IR",
    "country": "Iran",
    "state": "Tehran",
    "city": "Baharestan"
  },
  {
    "source_id": "ChIJUTjEnUABjj8RwU4etySi16k",
    "name": "Chegalab",
    "category": "Chegalab",
    "formatted_address": "Sulama Ekipmanları Tedarikçisi · Parastoo Alley, PC96+G2X+98 21 6641 1396",
    "phone_number": "+982166411396",
    "source_url": "https://www.google.com/maps/place/Chegalab/data=!4m7!3m6!1s0x3f8e01409dc43851:0xa9d7a224b71e4ec1!8m2!3d35.7188671!4d51.4101023!16s%2Fg%2F11j48hjv82!19sChIJUTjEnUABjj8RwU4etySi16k?authuser=0&hl=tr&rclk=1",
    "website_url": "",
    "rating_text": "",
    "stars": null,
    "number_of_reviews": null,
    "price_level": "",
    "open_hours": "",
    "extraction_timestamp": "2025-06-07T14:06:10.271Z",
    "source_name": "google",
    "source_query": "Irrigation Equipment",
    "source_country": "IR",
    "country": "Iran",
    "state": "Tehran",
    "city": "Baharestan"
  },
  {
    "source_id": "ChIJb_6jJcUBjj8RK-O9zK02yr8",
    "name": "فروشگاه لوازم کشاورزی و باغبانی یارمحمدی",
    "category": "فروشگاه لوازم کشاورزی و باغبانی یارمحمدی",
    "formatted_address": "5,0(5)",
    "phone_number": "+982136616288",
    "source_url": "https://www.google.com/maps/place/%D9%81%D8%B1%D9%88%D8%B4%DA%AF%D8%A7%D9%87+%D9%84%D9%88%D8%A7%D8%B2%D9%85+%DA%A9%D8%B4%D8%A7%D9%88%D8%B1%D8%B2%DB%8C+%D9%88+%D8%A8%D8%A7%D8%BA%D8%A8%D8%A7%D9%86%DB%8C+%DB%8C%D8%A7%D8%B1%D9%85%D8%AD%D9%85%D8%AF%DB%8C%E2%80%AD/data=!4m7!3m6!1s0x3f8e01c525a3fe6f:0xbfca36adccbde32b!8m2!3d35.6903923!4d51.4243514!16s%2Fg%2F11rp7tt93c!19sChIJb_6jJcUBjj8RK-O9zK02yr8?authuser=0&hl=tr&rclk=1",
    "website_url": "http://www.yarmohamadishop.com/",
    "rating_text": "5,0",
    "stars": null,
    "number_of_reviews": null,
    "price_level": "",
    "open_hours": "",
    "extraction_timestamp": "2025-06-07T14:06:10.271Z",
    "source_name": "google",
    "source_query": "Irrigation Equipment",
    "source_country": "IR",
    "country": "Iran",
    "state": "Tehran",
    "city": "Baharestan"
  },
  {
    "source_id": "ChIJ4Q9pGD4Bjj8RFCeRDzxF-UM",
    "name": "Ebrahim Company",
    "category": "Ebrahim Company",
    "formatted_address": "4,4(37)",
    "phone_number": "+982187184",
    "source_url": "https://www.google.com/maps/place/Ebrahim+Company/data=!4m7!3m6!1s0x3f8e013e18690fe1:0x43f9453c0f912714!8m2!3d35.7146101!4d51.4061387!16s%2Fg%2F1hf2lrm3b!19sChIJ4Q9pGD4Bjj8RFCeRDzxF-UM?authuser=0&hl=tr&rclk=1",
    "website_url": "https://www.ebrahimco.com/",
    "rating_text": "4,4",
    "stars": null,
    "number_of_reviews": null,
    "price_level": "",
    "open_hours": "",
    "extraction_timestamp": "2025-06-07T14:06:10.272Z",
    "source_name": "google",
    "source_query": "Irrigation Equipment",
    "source_country": "IR",
    "country": "Iran",
    "state": "Tehran",
    "city": "Baharestan"
  },
  {
    "source_id": "ChIJTaVQNwABjj8RC1PlmSIhBCM",
    "name": "سازه های آبی",
    "category": "سازه های آبی",
    "formatted_address": "5,0(1)",
    "phone_number": "",
    "source_url": "https://www.google.com/maps/place/%D8%B3%D8%A7%D8%B2%D9%87+%D9%87%D8%A7%DB%8C+%D8%A2%D8%A8%DB%8C%E2%80%AD/data=!4m7!3m6!1s0x3f8e01003750a54d:0x2304212299e5530b!8m2!3d35.6943098!4d51.4245401!16s%2Fg%2F11wxv5wwsj!19sChIJTaVQNwABjj8RC1PlmSIhBCM?authuser=0&hl=tr&rclk=1",
    "website_url": "http://sazehayeabi.ir/",
    "rating_text": "5,0",
    "stars": null,
    "number_of_reviews": null,
    "price_level": "",
    "open_hours": "",
    "extraction_timestamp": "2025-06-07T14:06:10.272Z",
    "source_name": "google",
    "source_query": "Irrigation Equipment",
    "source_country": "IR",
    "country": "Iran",
    "state": "Tehran",
    "city": "Baharestan"
  },
  {
    "source_id": "ChIJ_5y7ApABjj8RgNVXJx8e9wM",
    "name": "فروشگاه مرکزی گرانفارس",
    "category": "فروشگاه مرکزی گرانفارس",
    "formatted_address": "5,0(3)",
    "phone_number": "+982177529481",
    "source_url": "https://www.google.com/maps/place/%D9%81%D8%B1%D9%88%D8%B4%DA%AF%D8%A7%D9%87+%D9%85%D8%B1%DA%A9%D8%B2%DB%8C+%DA%AF%D8%B1%D8%A7%D9%86%D9%81%D8%A7%D8%B1%D8%B3%E2%80%AD/data=!4m7!3m6!1s0x3f8e019002bb9cff:0x3f71e1f2757d580!8m2!3d35.7075673!4d51.4300112!16s%2Fg%2F11rg37ntyv!19sChIJ_5y7ApABjj8RgNVXJx8e9wM?authuser=0&hl=tr&rclk=1",
    "website_url": "https://grunfars.com/",
    "rating_text": "5,0",
    "stars": null,
    "number_of_reviews": null,
    "price_level": "",
    "open_hours": "",
    "extraction_timestamp": "2025-06-07T14:06:10.272Z",
    "source_name": "google",
    "source_query": "Irrigation Equipment",
    "source_country": "IR",
    "country": "Iran",
    "state": "Tehran",
    "city": "Baharestan"
  },
  {
    "source_id": "ChIJfxfOqPkBjj8RAskzyrvUrdk",
    "name": "پمپ پنتاكس",
    "category": "پمپ پنتاكس",
    "formatted_address": "4,7(6)",
    "phone_number": "+989171",
    "source_url": "https://www.google.com/maps/place/%D9%BE%D9%85%D9%BE+%D9%BE%D9%86%D8%AA%D8%A7%D9%83%D8%B3%E2%80%AD/data=!4m7!3m6!1s0x3f8e01f9a8ce177f:0xd9add4bbca33c902!8m2!3d35.6914123!4d51.4242912!16s%2Fg%2F11h2fn4x9r!19sChIJfxfOqPkBjj8RAskzyrvUrdk?authuser=0&hl=tr&rclk=1",
    "website_url": "",
    "rating_text": "4,7",
    "stars": null,
    "number_of_reviews": null,
    "price_level": "",
    "open_hours": "",
    "extraction_timestamp": "2025-06-07T14:06:10.272Z",
    "source_name": "google",
    "source_query": "Irrigation Equipment",
    "source_country": "IR",
    "country": "Iran",
    "state": "Tehran",
    "city": "Baharestan"
  },
  {
    "source_id": "ChIJ93-rbTABjj8R-QejUACjJzw",
    "name": "تجهیزات کافی شاپ - شرکت گام نو - تجهیزات کافه گام نو",
    "category": "تجهیزات کافی شاپ - شرکت گام نو - تجهیزات کافه گام نو",
    "formatted_address": "4,7(43)",
    "phone_number": "+982166988146",
    "source_url": "https://www.google.com/maps/place/%D8%AA%D8%AC%D9%87%DB%8C%D8%B2%D8%A7%D8%AA+%DA%A9%D8%A7%D9%81%DB%8C+%D8%B4%D8%A7%D9%BE+-+%D8%B4%D8%B1%DA%A9%D8%AA+%DA%AF%D8%A7%D9%85+%D9%86%D9%88+-+%D8%AA%D8%AC%D9%87%DB%8C%D8%B2%D8%A7%D8%AA+%DA%A9%D8%A7%D9%81%D9%87+%DA%AF%D8%A7%D9%85+%D9%86%D9%88%E2%80%AD/data=!4m7!3m6!1s0x3f8e01306dab7ff7:0x3c27a30050a307f9!8m2!3d35.7224385!4d51.400909!16s%2Fg%2F11hbg7zs6d!19sChIJ93-rbTABjj8R-QejUACjJzw?authuser=0&hl=tr&rclk=1",
    "website_url": "http://www.gaameno.com/",
    "rating_text": "4,7",
    "stars": null,
    "number_of_reviews": null,
    "price_level": "",
    "open_hours": "",
    "extraction_timestamp": "2025-06-07T14:06:10.273Z",
    "source_name": "google",
    "source_query": "Irrigation Equipment",
    "source_country": "IR",
    "country": "Iran",
    "state": "Tehran",
    "city": "Baharestan"
  },
  {
    "source_id": "ChIJGy6mGjABjj8R6jQvYJXk8lI",
    "name": "فروشگاه بازار اتیلن",
    "category": "فروشگاه بازار اتیلن",
    "formatted_address": "5,0(9)",
    "phone_number": "+989125970684",
    "source_url": "https://www.google.com/maps/place/%D9%81%D8%B1%D9%88%D8%B4%DA%AF%D8%A7%D9%87+%D8%A8%D8%A7%D8%B2%D8%A7%D8%B1+%D8%A7%D8%AA%DB%8C%D9%84%D9%86%E2%80%AD/data=!4m7!3m6!1s0x3f8e01301aa62e1b:0x52f2e495602f34ea!8m2!3d35.6789428!4d51.4170958!16s%2Fg%2F11rk32tqw9!19sChIJGy6mGjABjj8R6jQvYJXk8lI?authuser=0&hl=tr&rclk=1",
    "website_url": "http://bazaretilen.com/",
    "rating_text": "5,0",
    "stars": null,
    "number_of_reviews": null,
    "price_level": "",
    "open_hours": "",
    "extraction_timestamp": "2025-06-07T14:06:10.274Z",
    "source_name": "google",
    "source_query": "Irrigation Equipment",
    "source_country": "IR",
    "country": "Iran",
    "state": "Tehran",
    "city": "Baharestan"
  },
  {
    "source_id": "ChIJ3YIZnzwBjj8RO0q_awuYOPs",
    "name": "تاسیسات قاسمی",
    "category": "تاسیسات قاسمی",
    "formatted_address": "5,0(3)",
    "phone_number": "+982166872214",
    "source_url": "https://www.google.com/maps/place/%D8%AA%D8%A7%D8%B3%DB%8C%D8%B3%D8%A7%D8%AA+%D9%82%D8%A7%D8%B3%D9%85%DB%8C%E2%80%AD/data=!4m7!3m6!1s0x3f8e013c9f1982dd:0xfb38980b6bbf4a3b!8m2!3d35.6927975!4d51.3611028!16s%2Fg%2F11r2q_wjhg!19sChIJ3YIZnzwBjj8RO0q_awuYOPs?authuser=0&hl=tr&rclk=1",
    "website_url": "",
    "rating_text": "5,0",
    "stars": null,
    "number_of_reviews": null,
    "price_level": "",
    "open_hours": "",
    "extraction_timestamp": "2025-06-07T14:06:10.274Z",
    "source_name": "google",
    "source_query": "Irrigation Equipment",
    "source_country": "IR",
    "country": "Iran",
    "state": "Tehran",
    "city": "Baharestan"
  },
  {
    "source_id": "ChIJBb3QBgAFjj8RsUO02DeokOU",
    "name": "آبیاری هوشمند تهران",
    "category": "آبیاری هوشمند تهران",
    "formatted_address": "Sulama Ekipmanları Tedarikçisi · طبقه ۲، پلاک ۲۰۵, Heravi Square, مجتمع تجاری گلستانAçık ⋅ Kapanış saati: 21:00 · +98 21 3382 6812",
    "phone_number": "+982133826812",
    "source_url": "https://www.google.com/maps/place/%D8%A2%D8%A8%DB%8C%D8%A7%D8%B1%DB%8C+%D9%87%D9%88%D8%B4%D9%85%D9%86%D8%AF+%D8%AA%D9%87%D8%B1%D8%A7%D9%86%E2%80%AD/data=!4m7!3m6!1s0x3f8e050006d0bd05:0xe590a837d8b443b1!8m2!3d35.7670684!4d51.4780966!16s%2Fg%2F11mdkhfkqg!19sChIJBb3QBgAFjj8RsUO02DeokOU?authuser=0&hl=tr&rclk=1",
    "website_url": "https://www.smartirrigation.ir/",
    "rating_text": "",
    "stars": null,
    "number_of_reviews": null,
    "price_level": "",
    "open_hours": "",
    "extraction_timestamp": "2025-06-07T14:06:10.274Z",
    "source_name": "google",
    "source_query": "Irrigation Equipment",
    "source_country": "IR",
    "country": "Iran",
    "state": "Tehran",
    "city": "Baharestan"
  },
  {
    "source_id": "ChIJp-9EJloBjj8Ra65iXq72iSU",
    "name": "Pumpart Store",
    "category": "Pumpart Store",
    "formatted_address": "4,7(9)",
    "phone_number": "+982133911010",
    "source_url": "https://www.google.com/maps/place/Pumpart+Store/data=!4m7!3m6!1s0x3f8e015a2644efa7:0x2589f6ae5e62ae6b!8m2!3d35.6923999!4d51.4253664!16s%2Fg%2F11h0016mz0!19sChIJp-9EJloBjj8Ra65iXq72iSU?authuser=0&hl=tr&rclk=1",
    "website_url": "",
    "rating_text": "4,7",
    "stars": null,
    "number_of_reviews": null,
    "price_level": "",
    "open_hours": "",
    "extraction_timestamp": "2025-06-07T14:06:10.275Z",
    "source_name": "google",
    "source_query": "Irrigation Equipment",
    "source_country": "IR",
    "country": "Iran",
    "state": "Tehran",
    "city": "Baharestan"
  }
]
