[
  {
    "source_id": "ChIJ_fLPRAABjj8RSeosiGuijm8",
    "name": "هانترسل",
    "category": "هانترسل",
    "formatted_address": "5,0(2)",
    "phone_number": "+982155808909",
    "source_url": "https://www.google.com/maps/place/%D9%87%D8%A7%D9%86%D8%AA%D8%B1%D8%B3%D9%84%E2%80%AD/data=!4m7!3m6!1s0x3f8e010044cff2fd:0x6f8ea26b882cea49!8m2!3d35.6811685!4d51.4107418!16s%2Fg%2F11vwx4_tj0!19sChIJ_fLPRAABjj8RSeosiGuijm8?authuser=0&hl=tr&rclk=1",
    "website_url": "",
    "rating_text": "5,0",
    "stars": null,
    "number_of_reviews": null,
    "price_level": "",
    "open_hours": "",
    "extraction_timestamp": "2025-06-07T14:08:09.214Z",
    "source_name": "google",
    "source_query": "Irrigation Equipment",
    "source_country": "IR",
    "country": "Iran",
    "state": "Tehran",
    "city": "Chahar Dangeh"
  },
  {
    "source_id": "ChIJS7-osl0Bjj8R84DcdIl7k_8",
    "name": "Irrigation and Farming Company Aria Tib",
    "category": "Irrigation and Farming Company Aria Tib",
    "formatted_address": "4,7(7)",
    "phone_number": "+982188845454",
    "source_url": "https://www.google.com/maps/place/Irrigation+and+Farming+Company+Aria+Tib/data=!4m7!3m6!1s0x3f8e015db2a8bf4b:0xff937b8974dc80f3!8m2!3d35.7232298!4d51.4237588!16s%2Fg%2F11f0kvhyt6!19sChIJS7-osl0Bjj8R84DcdIl7k_8?authuser=0&hl=tr&rclk=1",
    "website_url": "",
    "rating_text": "4,7",
    "stars": null,
    "number_of_reviews": null,
    "price_level": "",
    "open_hours": "",
    "extraction_timestamp": "2025-06-07T14:08:09.215Z",
    "source_name": "google",
    "source_query": "Irrigation Equipment",
    "source_country": "IR",
    "country": "Iran",
    "state": "Tehran",
    "city": "Chahar Dangeh"
  },
  {
    "source_id": "ChIJ587HewABkj8RfyUis9h6O0k",
    "name": "تجارت مقدم تهران",
    "category": "تجارت مقدم تهران",
    "formatted_address": "5,0(1)",
    "phone_number": "",
    "source_url": "https://www.google.com/maps/place/%D8%AA%D8%AC%D8%A7%D8%B1%D8%AA+%D9%85%D9%82%D8%AF%D9%85+%D8%AA%D9%87%D8%B1%D8%A7%D9%86%E2%80%AD/data=!4m7!3m6!1s0x3f9201007bc7cee7:0x493b7ad8b322257f!8m2!3d35.6038325!4d51.3074716!16s%2Fg%2F11mds98vyt!19sChIJ587HewABkj8RfyUis9h6O0k?authuser=0&hl=tr&rclk=1",
    "website_url": "",
    "rating_text": "5,0",
    "stars": null,
    "number_of_reviews": null,
    "price_level": "",
    "open_hours": "",
    "extraction_timestamp": "2025-06-07T14:08:09.215Z",
    "source_name": "google",
    "source_query": "Irrigation Equipment",
    "source_country": "IR",
    "country": "Iran",
    "state": "Tehran",
    "city": "Chahar Dangeh"
  },
  {
    "source_id": "ChIJhW8kFlUAkj8RV6XoOjB9-FA",
    "name": "گروه صنعتی آریاب",
    "category": "گروه صنعتی آریاب",
    "formatted_address": "5,0(2)",
    "phone_number": "+982155271642",
    "source_url": "https://www.google.com/maps/place/%DA%AF%D8%B1%D9%88%D9%87+%D8%B5%D9%86%D8%B9%D8%AA%DB%8C+%D8%A2%D8%B1%DB%8C%D8%A7%D8%A8%E2%80%AD/data=!4m7!3m6!1s0x3f92005516246f85:0x50f87d303ae8a557!8m2!3d35.5846284!4d51.3068034!16s%2Fg%2F11fyxcbhtg!19sChIJhW8kFlUAkj8RV6XoOjB9-FA?authuser=0&hl=tr&rclk=1",
    "website_url": "http://www.aryab.ir/",
    "rating_text": "5,0",
    "stars": null,
    "number_of_reviews": null,
    "price_level": "",
    "open_hours": "",
    "extraction_timestamp": "2025-06-07T14:08:09.216Z",
    "source_name": "google",
    "source_query": "Irrigation Equipment",
    "source_country": "IR",
    "country": "Iran",
    "state": "Tehran",
    "city": "Chahar Dangeh"
  },
  {
    "source_id": "ChIJP2QxkqsBkj8RKqkqwKBnF7I",
    "name": "شرکت تجهیز تونل جوان",
    "category": "شرکت تجهیز تونل جوان",
    "formatted_address": "5,0(4)",
    "phone_number": "+98215130",
    "source_url": "https://www.google.com/maps/place/%D8%B4%D8%B1%DA%A9%D8%AA+%D8%AA%D8%AC%D9%87%DB%8C%D8%B2+%D8%AA%D9%88%D9%86%D9%84+%D8%AC%D9%88%D8%A7%D9%86%E2%80%AD/data=!4m7!3m6!1s0x3f9201ab9231643f:0xb21767a0c02aa92a!8m2!3d35.5813707!4d51.309495!16s%2Fg%2F11c5_ndq_j!19sChIJP2QxkqsBkj8RKqkqwKBnF7I?authuser=0&hl=tr&rclk=1",
    "website_url": "http://tajhiztunnel.com/",
    "rating_text": "5,0",
    "stars": null,
    "number_of_reviews": null,
    "price_level": "",
    "open_hours": "",
    "extraction_timestamp": "2025-06-07T14:08:09.216Z",
    "source_name": "google",
    "source_query": "Irrigation Equipment",
    "source_country": "IR",
    "country": "Iran",
    "state": "Tehran",
    "city": "Chahar Dangeh"
  },
  {
    "source_id": "ChIJsYE5nbH_jT8Rw5YYeOLBO8g",
    "name": "پارسینا تجهیز",
    "category": "پارسینا تجهیز",
    "formatted_address": "5,0(1)",
    "phone_number": "+982166207898",
    "source_url": "https://www.google.com/maps/place/%D9%BE%D8%A7%D8%B1%D8%B3%DB%8C%D9%86%D8%A7+%D8%AA%D8%AC%D9%87%DB%8C%D8%B2%E2%80%AD/data=!4m7!3m6!1s0x3f8dffb19d3981b1:0xc83bc1e2781896c3!8m2!3d35.6609239!4d51.3178597!16s%2Fg%2F11hjdx6f05!19sChIJsYE5nbH_jT8Rw5YYeOLBO8g?authuser=0&hl=tr&rclk=1",
    "website_url": "https://parsinatajhiz.ir/",
    "rating_text": "5,0",
    "stars": null,
    "number_of_reviews": null,
    "price_level": "",
    "open_hours": "",
    "extraction_timestamp": "2025-06-07T14:08:09.216Z",
    "source_name": "google",
    "source_query": "Irrigation Equipment",
    "source_country": "IR",
    "country": "Iran",
    "state": "Tehran",
    "city": "Chahar Dangeh"
  },
  {
    "source_id": "ChIJv6jv6vAZkj8RQqunRNeLkPQ",
    "name": "شرکت تکنوژاله",
    "category": "شرکت تکنوژاله",
    "formatted_address": "4,5(2)",
    "phone_number": "+989125801150",
    "source_url": "https://www.google.com/maps/place/%D8%B4%D8%B1%DA%A9%D8%AA+%D8%AA%DA%A9%D9%86%D9%88%DA%98%D8%A7%D9%84%D9%87%E2%80%AD/data=!4m7!3m6!1s0x3f9219f0eaefa8bf:0xf4908bd744a7ab42!8m2!3d35.3734371!4d51.2511171!16s%2Fg%2F11jgsfs1g6!19sChIJv6jv6vAZkj8RQqunRNeLkPQ?authuser=0&hl=tr&rclk=1",
    "website_url": "http://technojaleh.com/",
    "rating_text": "4,5",
    "stars": null,
    "number_of_reviews": null,
    "price_level": "",
    "open_hours": "",
    "extraction_timestamp": "2025-06-07T14:08:09.217Z",
    "source_name": "google",
    "source_query": "Irrigation Equipment",
    "source_country": "IR",
    "country": "Iran",
    "state": "Tehran",
    "city": "Chahar Dangeh"
  },
  {
    "source_id": "ChIJ4xQKpFsBkj8RzJqjqvdXYR8",
    "name": "تهران شریمپ",
    "category": "تهران شریمپ",
    "formatted_address": "4,4(27)",
    "phone_number": "+989126549301",
    "source_url": "https://www.google.com/maps/place/%D8%AA%D9%87%D8%B1%D8%A7%D9%86+%D8%B4%D8%B1%DB%8C%D9%85%D9%BE%E2%80%AD/data=!4m7!3m6!1s0x3f92015ba40a14e3:0x1f6157f7aaa39acc!8m2!3d35.617819!4d51.340692!16s%2Fg%2F11gvz8mnry!19sChIJ4xQKpFsBkj8RzJqjqvdXYR8?authuser=0&hl=tr&rclk=1",
    "website_url": "http://www.tehranshrimp.ir/",
    "rating_text": "4,4",
    "stars": null,
    "number_of_reviews": null,
    "price_level": "",
    "open_hours": "",
    "extraction_timestamp": "2025-06-07T14:08:09.217Z",
    "source_name": "google",
    "source_query": "Irrigation Equipment",
    "source_country": "IR",
    "country": "Iran",
    "state": "Tehran",
    "city": "Chahar Dangeh"
  },
  {
    "source_id": "ChIJTXhZp_MBkj8R-wdshAsVjW4",
    "name": "شرکت فنی و مهندسی هیدرویار",
    "category": "شرکت فنی و مهندسی هیدرویار",
    "formatted_address": "",
    "phone_number": "+982155263438",
    "source_url": "https://www.google.com/maps/place/%D8%B4%D8%B1%DA%A9%D8%AA+%D9%81%D9%86%DB%8C+%D9%88+%D9%85%D9%87%D9%86%D8%AF%D8%B3%DB%8C+%D9%87%DB%8C%D8%AF%D8%B1%D9%88%DB%8C%D8%A7%D8%B1%E2%80%AD/data=!4m7!3m6!1s0x3f9201f3a759784d:0x6e8d150b846c07fb!8m2!3d35.6156962!4d51.3243585!16s%2Fg%2F11l6v9zlg6!19sChIJTXhZp_MBkj8R-wdshAsVjW4?authuser=0&hl=tr&rclk=1",
    "website_url": "http://www.hydroyar.com/",
    "rating_text": "",
    "stars": null,
    "number_of_reviews": null,
    "price_level": "",
    "open_hours": "",
    "extraction_timestamp": "2025-06-07T14:08:09.218Z",
    "source_name": "google",
    "source_query": "Irrigation Equipment",
    "source_country": "IR",
    "country": "Iran",
    "state": "Tehran",
    "city": "Chahar Dangeh"
  },
  {
    "source_id": "ChIJoTsSQQsBjj8Re4yPgbYBMnk",
    "name": "Movahedin",
    "category": "Movahedin",
    "formatted_address": "Sulama Ekipmanları Tedarikçisi · Shahriar, PC25+5GXKapalı ⋅ Açılış zamanı: Paz 08:00 · +98 21 6670 5096",
    "phone_number": "+982166705096",
    "source_url": "https://www.google.com/maps/place/Movahedin/data=!4m7!3m6!1s0x3f8e010b41123ba1:0x793201b6818f8c7b!8m2!3d35.7004879!4d51.4088729!16s%2Fg%2F1tjrng36!19sChIJoTsSQQsBjj8Re4yPgbYBMnk?authuser=0&hl=tr&rclk=1",
    "website_url": "http://www.movahedin.com/",
    "rating_text": "",
    "stars": null,
    "number_of_reviews": null,
    "price_level": "",
    "open_hours": "",
    "extraction_timestamp": "2025-06-07T14:08:09.218Z",
    "source_name": "google",
    "source_query": "Irrigation Equipment",
    "source_country": "IR",
    "country": "Iran",
    "state": "Tehran",
    "city": "Chahar Dangeh"
  },
  {
    "source_id": "ChIJ7_iCRwABkj8R53OTtFcnIt4",
    "name": "پخش پارس ایران",
    "category": "پخش پارس ایران",
    "formatted_address": "",
    "phone_number": "+982191304342",
    "source_url": "https://www.google.com/maps/place/%D9%BE%D8%AE%D8%B4+%D9%BE%D8%A7%D8%B1%D8%B3+%D8%A7%DB%8C%D8%B1%D8%A7%D9%86%E2%80%AD/data=!4m7!3m6!1s0x3f9201004782f8ef:0xde222757b49373e7!8m2!3d35.6176078!4d51.3190254!16s%2Fg%2F11y2fq_29v!19sChIJ7_iCRwABkj8R53OTtFcnIt4?authuser=0&hl=tr&rclk=1",
    "website_url": "https://pakhsheparsiran.com/",
    "rating_text": "",
    "stars": null,
    "number_of_reviews": null,
    "price_level": "",
    "open_hours": "",
    "extraction_timestamp": "2025-06-07T14:08:09.219Z",
    "source_name": "google",
    "source_query": "Irrigation Equipment",
    "source_country": "IR",
    "country": "Iran",
    "state": "Tehran",
    "city": "Chahar Dangeh"
  },
  {
    "source_id": "ChIJw-n1ynIBkj8R3IjCBhKkOL8",
    "name": "اداره آب و فاضلاب چهاردانگه",
    "category": "اداره آب و فاضلاب چهاردانگه",
    "formatted_address": "",
    "phone_number": "+982155252440",
    "source_url": "https://www.google.com/maps/place/%D8%A7%D8%AF%D8%A7%D8%B1%D9%87+%D8%A2%D8%A8+%D9%88+%D9%81%D8%A7%D8%B6%D9%84%D8%A7%D8%A8+%DA%86%D9%87%D8%A7%D8%B1%D8%AF%D8%A7%D9%86%DA%AF%D9%87%E2%80%AD/data=!4m7!3m6!1s0x3f920172caf5e9c3:0xbf38a41206c288dc!8m2!3d35.6008089!4d51.3045584!16s%2Fg%2F11y1q_3l19!19sChIJw-n1ynIBkj8R3IjCBhKkOL8?authuser=0&hl=tr&rclk=1",
    "website_url": "",
    "rating_text": "",
    "stars": null,
    "number_of_reviews": null,
    "price_level": "",
    "open_hours": "",
    "extraction_timestamp": "2025-06-07T14:08:09.219Z",
    "source_name": "google",
    "source_query": "Irrigation Equipment",
    "source_country": "IR",
    "country": "Iran",
    "state": "Tehran",
    "city": "Chahar Dangeh"
  }
]
