[
  {
    "source_id": "ChIJS7-osl0Bjj8R84DcdIl7k_8",
    "name": "Irrigation and Farming Company Aria Tib",
    "category": "Irrigation and Farming Company Aria Tib",
    "formatted_address": "4,7(7)",
    "phone_number": "+982188845454",
    "source_url": "https://www.google.com/maps/place/Irrigation+and+Farming+Company+Aria+Tib/data=!4m7!3m6!1s0x3f8e015db2a8bf4b:0xff937b8974dc80f3!8m2!3d35.7232298!4d51.4237588!16s%2Fg%2F11f0kvhyt6!19sChIJS7-osl0Bjj8R84DcdIl7k_8?authuser=0&hl=tr&rclk=1",
    "website_url": "",
    "rating_text": "4,7",
    "stars": null,
    "number_of_reviews": null,
    "price_level": "",
    "open_hours": "",
    "extraction_timestamp": "2025-06-07T14:07:04.501Z",
    "source_name": "google",
    "source_query": "Irrigation Equipment",
    "source_country": "IR",
    "country": "Iran",
    "state": "Tehran",
    "city": "Damavand"
  },
  {
    "source_id": "ChIJoTsSQQsBjj8Re4yPgbYBMnk",
    "name": "Movahedin",
    "category": "Movahedin",
    "formatted_address": "Sulama Ekipmanları Tedarikçisi · Shahriar, PC25+5GXKapalı ⋅ Açılış zamanı: Paz 08:00 · +98 21 6670 5096",
    "phone_number": "+982166705096",
    "source_url": "https://www.google.com/maps/place/Movahedin/data=!4m7!3m6!1s0x3f8e010b41123ba1:0x793201b6818f8c7b!8m2!3d35.7004879!4d51.4088729!16s%2Fg%2F1tjrng36!19sChIJoTsSQQsBjj8Re4yPgbYBMnk?authuser=0&hl=tr&rclk=1",
    "website_url": "http://www.movahedin.com/",
    "rating_text": "",
    "stars": null,
    "number_of_reviews": null,
    "price_level": "",
    "open_hours": "",
    "extraction_timestamp": "2025-06-07T14:07:04.502Z",
    "source_name": "google",
    "source_query": "Irrigation Equipment",
    "source_country": "IR",
    "country": "Iran",
    "state": "Tehran",
    "city": "Damavand"
  },
  {
    "source_id": "ChIJ738sMPdHkD8RIjKgw5AOnGQ",
    "name": "فروشگاه مهندس بیدل",
    "category": "فروشگاه مهندس بیدل",
    "formatted_address": "5,0(1)",
    "phone_number": "",
    "source_url": "https://www.google.com/maps/place/%D9%81%D8%B1%D9%88%D8%B4%DA%AF%D8%A7%D9%87+%D9%85%D9%87%D9%86%D8%AF%D8%B3+%D8%A8%DB%8C%D8%AF%D9%84%E2%80%AD/data=!4m7!3m6!1s0x3f9047f7302c7fef:0x649c0e90c3a03222!8m2!3d35.6423438!4d52.2392442!16s%2Fg%2F11lt426fkq!19sChIJ738sMPdHkD8RIjKgw5AOnGQ?authuser=0&hl=tr&rclk=1",
    "website_url": "",
    "rating_text": "5,0",
    "stars": null,
    "number_of_reviews": null,
    "price_level": "",
    "open_hours": "",
    "extraction_timestamp": "2025-06-07T14:07:04.502Z",
    "source_name": "google",
    "source_query": "Irrigation Equipment",
    "source_country": "IR",
    "country": "Iran",
    "state": "Tehran",
    "city": "Damavand"
  },
  {
    "source_id": "ChIJbxt2_0oBjj8RHvog7SyVwRE",
    "name": "Damavand Waters Co.",
    "category": "Damavand Waters Co.",
    "formatted_address": "3,8(4)",
    "phone_number": "+982142976",
    "source_url": "https://www.google.com/maps/place/Damavand+Waters+Co./data=!4m7!3m6!1s0x3f8e014aff761b6f:0x11c1952ced20fa1e!8m2!3d35.7331162!4d51.4124007!16s%2Fg%2F11csswzwt5!19sChIJbxt2_0oBjj8RHvog7SyVwRE?authuser=0&hl=tr&rclk=1",
    "website_url": "",
    "rating_text": "3,8",
    "stars": null,
    "number_of_reviews": null,
    "price_level": "",
    "open_hours": "",
    "extraction_timestamp": "2025-06-07T14:07:04.503Z",
    "source_name": "google",
    "source_query": "Irrigation Equipment",
    "source_country": "IR",
    "country": "Iran",
    "state": "Tehran",
    "city": "Damavand"
  },
  {
    "source_id": "ChIJj1l8ZkMzkD8RJpxIqWEPh8A",
    "name": "Gilavandan store's pumps",
    "category": "Gilavandan store's pumps",
    "formatted_address": "4,0(1)",
    "phone_number": "+982176314292",
    "source_url": "https://www.google.com/maps/place/Gilavandan+store%27s+pumps/data=!4m7!3m6!1s0x3f903343667c598f:0xc0870f61a9489c26!8m2!3d35.6810477!4d52.0378491!16s%2Fg%2F11c5hhyxqw!19sChIJj1l8ZkMzkD8RJpxIqWEPh8A?authuser=0&hl=tr&rclk=1",
    "website_url": "",
    "rating_text": "4,0",
    "stars": null,
    "number_of_reviews": null,
    "price_level": "",
    "open_hours": "",
    "extraction_timestamp": "2025-06-07T14:07:04.503Z",
    "source_name": "google",
    "source_query": "Irrigation Equipment",
    "source_country": "IR",
    "country": "Iran",
    "state": "Tehran",
    "city": "Damavand"
  },
  {
    "source_id": "ChIJGWNfPgAdjj8RfMeF2c2Ysxw",
    "name": "دفترمرکزی فدک پمپ",
    "category": "دفترمرکزی فدک پمپ",
    "formatted_address": "5,0(1)",
    "phone_number": "+982177125637",
    "source_url": "https://www.google.com/maps/place/%D8%AF%D9%81%D8%AA%D8%B1%D9%85%D8%B1%DA%A9%D8%B2%DB%8C+%D9%81%D8%AF%DA%A9+%D9%BE%D9%85%D9%BE%E2%80%AD/data=!4m7!3m6!1s0x3f8e1d003e5f6319:0x1cb398cdd985c77c!8m2!3d35.729074!4d51.5724678!16s%2Fg%2F11wftp_w34!19sChIJGWNfPgAdjj8RfMeF2c2Ysxw?authuser=0&hl=tr&rclk=1",
    "website_url": "http://fadakpump.com/",
    "rating_text": "5,0",
    "stars": null,
    "number_of_reviews": null,
    "price_level": "",
    "open_hours": "",
    "extraction_timestamp": "2025-06-07T14:07:04.504Z",
    "source_name": "google",
    "source_query": "Irrigation Equipment",
    "source_country": "IR",
    "country": "Iran",
    "state": "Tehran",
    "city": "Damavand"
  }
]
