[
  {
    "source_id": "ChIJBb3QBgAFjj8RsUO02DeokOU",
    "name": "آبیاری هوشمند تهران",
    "category": "آبیاری هوشمند تهران",
    "formatted_address": "Sulama Ekipmanları Tedarikçisi · طبقه ۲، پلاک ۲۰۵, Heravi Square, مجتمع تجاری گلستانAçık ⋅ Kapanış saati: 21:00 · +98 21 3382 6812",
    "phone_number": "+982133826812",
    "source_url": "https://www.google.com/maps/place/%D8%A2%D8%A8%DB%8C%D8%A7%D8%B1%DB%8C+%D9%87%D9%88%D8%B4%D9%85%D9%86%D8%AF+%D8%AA%D9%87%D8%B1%D8%A7%D9%86%E2%80%AD/data=!4m7!3m6!1s0x3f8e050006d0bd05:0xe590a837d8b443b1!8m2!3d35.7670684!4d51.4780966!16s%2Fg%2F11mdkhfkqg!19sChIJBb3QBgAFjj8RsUO02DeokOU?authuser=0&hl=tr&rclk=1",
    "website_url": "https://www.smartirrigation.ir/",
    "rating_text": "",
    "stars": null,
    "number_of_reviews": null,
    "price_level": "",
    "open_hours": "",
    "extraction_timestamp": "2025-06-07T14:08:00.691Z",
    "source_name": "google",
    "source_query": "Irrigation Equipment",
    "source_country": "IR",
    "country": "Iran",
    "state": "Tehran",
    "city": "Golestan"
  },
  {
    "source_id": "ChIJp04i0dQFjj8RF34oyzUaL0c",
    "name": "دفتر مرکزی نهرآب گستر اشتهارد",
    "category": "دفتر مرکزی نهرآب گستر اشتهارد",
    "formatted_address": "5,0(3)",
    "phone_number": "+982127640",
    "source_url": "https://www.google.com/maps/place/%D8%AF%D9%81%D8%AA%D8%B1+%D9%85%D8%B1%DA%A9%D8%B2%DB%8C+%D9%86%D9%87%D8%B1%D8%A2%D8%A8+%DA%AF%D8%B3%D8%AA%D8%B1+%D8%A7%D8%B4%D8%AA%D9%87%D8%A7%D8%B1%D8%AF%E2%80%AD/data=!4m7!3m6!1s0x3f8e05d4d1224ea7:0x472f1a35cb287e17!8m2!3d35.7663814!4d51.4563031!16s%2Fg%2F11h_2g3fmd!19sChIJp04i0dQFjj8RF34oyzUaL0c?authuser=0&hl=tr&rclk=1",
    "website_url": "http://www.nahrab.net/",
    "rating_text": "5,0",
    "stars": null,
    "number_of_reviews": null,
    "price_level": "",
    "open_hours": "",
    "extraction_timestamp": "2025-06-07T14:08:00.692Z",
    "source_name": "google",
    "source_query": "Irrigation Equipment",
    "source_country": "IR",
    "country": "Iran",
    "state": "Tehran",
    "city": "Golestan"
  },
  {
    "source_id": "ChIJS7-osl0Bjj8R84DcdIl7k_8",
    "name": "Irrigation and Farming Company Aria Tib",
    "category": "Irrigation and Farming Company Aria Tib",
    "formatted_address": "4,7(7)",
    "phone_number": "+982188845454",
    "source_url": "https://www.google.com/maps/place/Irrigation+and+Farming+Company+Aria+Tib/data=!4m7!3m6!1s0x3f8e015db2a8bf4b:0xff937b8974dc80f3!8m2!3d35.7232298!4d51.4237588!16s%2Fg%2F11f0kvhyt6!19sChIJS7-osl0Bjj8R84DcdIl7k_8?authuser=0&hl=tr&rclk=1",
    "website_url": "",
    "rating_text": "4,7",
    "stars": null,
    "number_of_reviews": null,
    "price_level": "",
    "open_hours": "",
    "extraction_timestamp": "2025-06-07T14:08:00.693Z",
    "source_name": "google",
    "source_query": "Irrigation Equipment",
    "source_country": "IR",
    "country": "Iran",
    "state": "Tehran",
    "city": "Golestan"
  },
  {
    "source_id": "ChIJ_fLPRAABjj8RSeosiGuijm8",
    "name": "هانترسل",
    "category": "هانترسل",
    "formatted_address": "5,0(2)",
    "phone_number": "+982155808909",
    "source_url": "https://www.google.com/maps/place/%D9%87%D8%A7%D9%86%D8%AA%D8%B1%D8%B3%D9%84%E2%80%AD/data=!4m7!3m6!1s0x3f8e010044cff2fd:0x6f8ea26b882cea49!8m2!3d35.6811685!4d51.4107418!16s%2Fg%2F11vwx4_tj0!19sChIJ_fLPRAABjj8RSeosiGuijm8?authuser=0&hl=tr&rclk=1",
    "website_url": "",
    "rating_text": "5,0",
    "stars": null,
    "number_of_reviews": null,
    "price_level": "",
    "open_hours": "",
    "extraction_timestamp": "2025-06-07T14:08:00.694Z",
    "source_name": "google",
    "source_query": "Irrigation Equipment",
    "source_country": "IR",
    "country": "Iran",
    "state": "Tehran",
    "city": "Golestan"
  },
  {
    "source_id": "ChIJM14qyZQGjj8REzFOag3oADM",
    "name": "kamco",
    "category": "kamco",
    "formatted_address": "5,0(1)",
    "phone_number": "+982188225302",
    "source_url": "https://www.google.com/maps/place/kamco/data=!4m7!3m6!1s0x3f8e0694c92a5e33:0x3300e80d6a4e3113!8m2!3d35.7235012!4d51.4019769!16s%2Fg%2F11b6d0knrt!19sChIJM14qyZQGjj8REzFOag3oADM?authuser=0&hl=tr&rclk=1",
    "website_url": "",
    "rating_text": "5,0",
    "stars": null,
    "number_of_reviews": null,
    "price_level": "",
    "open_hours": "",
    "extraction_timestamp": "2025-06-07T14:08:00.695Z",
    "source_name": "google",
    "source_query": "Irrigation Equipment",
    "source_country": "IR",
    "country": "Iran",
    "state": "Tehran",
    "city": "Golestan"
  },
  {
    "source_id": "ChIJBa2KFeFHkD8R9MvKt5NOvDo",
    "name": "PolyLand Building, a Poll & Irrigation Equipment",
    "category": "PolyLand Building, a Poll & Irrigation Equipment",
    "formatted_address": "PolyLand Building, a Poll & Irrigation Equipment",
    "phone_number": "+989100021140",
    "source_url": "https://www.google.com/maps/place/PolyLand+Building,+a+Poll+%26+Irrigation+Equipment/data=!4m7!3m6!1s0x3f9047e1158aad05:0x3abc4e93b7cacbf4!8m2!3d35.641247!4d52.2408498!16s%2Fg%2F11s5vjl8v2!19sChIJBa2KFeFHkD8R9MvKt5NOvDo?authuser=0&hl=tr&rclk=1",
    "website_url": "",
    "rating_text": "4,7",
    "stars": null,
    "number_of_reviews": null,
    "price_level": "",
    "open_hours": "",
    "extraction_timestamp": "2025-06-07T14:08:00.695Z",
    "source_name": "google",
    "source_query": "Irrigation Equipment",
    "source_country": "IR",
    "country": "Iran",
    "state": "Tehran",
    "city": "Golestan"
  },
  {
    "source_id": "ChIJH8pM2srkjT8R2avpaN_lzso",
    "name": "تصفیه آب غرب تهران",
    "category": "تصفیه آب غرب تهران",
    "formatted_address": "4,3(4)",
    "phone_number": "+982144704559",
    "source_url": "https://www.google.com/maps/place/%D8%AA%D8%B5%D9%81%DB%8C%D9%87+%D8%A2%D8%A8+%D8%BA%D8%B1%D8%A8+%D8%AA%D9%87%D8%B1%D8%A7%D9%86%E2%80%AD/data=!4m7!3m6!1s0x3f8de4cada4cca1f:0xcacee5df68e9abd9!8m2!3d35.7451104!4d51.2400384!16s%2Fg%2F11f126nnl1!19sChIJH8pM2srkjT8R2avpaN_lzso?authuser=0&hl=tr&rclk=1",
    "website_url": "http://www.abineco.ir/",
    "rating_text": "4,3",
    "stars": null,
    "number_of_reviews": null,
    "price_level": "",
    "open_hours": "",
    "extraction_timestamp": "2025-06-07T14:08:00.696Z",
    "source_name": "google",
    "source_query": "Irrigation Equipment",
    "source_country": "IR",
    "country": "Iran",
    "state": "Tehran",
    "city": "Golestan"
  },
  {
    "source_id": "ChIJczzAZiH_jT8RenifTR1Z4oE",
    "name": "Allver Center",
    "category": "Allver Center",
    "formatted_address": "5,0(2)",
    "phone_number": "+989339765265",
    "source_url": "https://www.google.com/maps/place/Allver+Center/data=!4m7!3m6!1s0x3f8dff2166c03c73:0x81e2591d4d9f787a!8m2!3d35.6651712!4d51.3161385!16s%2Fg%2F11h4b7n8g6!19sChIJczzAZiH_jT8RenifTR1Z4oE?authuser=0&hl=tr&rclk=1",
    "website_url": "https://allver.center/",
    "rating_text": "5,0",
    "stars": null,
    "number_of_reviews": null,
    "price_level": "",
    "open_hours": "",
    "extraction_timestamp": "2025-06-07T14:08:00.697Z",
    "source_name": "google",
    "source_query": "Irrigation Equipment",
    "source_country": "IR",
    "country": "Iran",
    "state": "Tehran",
    "city": "Golestan"
  },
  {
    "source_id": "ChIJsSEGOdMFjj8Rk2fuuOEui1Q",
    "name": "تاسیسات پاسداران",
    "category": "تاسیسات پاسداران",
    "formatted_address": "4,9(45)",
    "phone_number": "+989129404771",
    "source_url": "https://www.google.com/maps/place/%D8%AA%D8%A7%D8%B3%DB%8C%D8%B3%D8%A7%D8%AA+%D9%BE%D8%A7%D8%B3%D8%AF%D8%A7%D8%B1%D8%A7%D9%86%E2%80%AD/data=!4m7!3m6!1s0x3f8e05d3390621b1:0x548b2ee1b8ee6793!8m2!3d35.7678573!4d51.4766444!16s%2Fg%2F11v3jv0cl7!19sChIJsSEGOdMFjj8Rk2fuuOEui1Q?authuser=0&hl=tr&rclk=1",
    "website_url": "http://tehranpiper.ir/",
    "rating_text": "4,9",
    "stars": null,
    "number_of_reviews": null,
    "price_level": "",
    "open_hours": "",
    "extraction_timestamp": "2025-06-07T14:08:00.697Z",
    "source_name": "google",
    "source_query": "Irrigation Equipment",
    "source_country": "IR",
    "country": "Iran",
    "state": "Tehran",
    "city": "Golestan"
  },
  {
    "source_id": "ChIJoTsSQQsBjj8Re4yPgbYBMnk",
    "name": "Movahedin",
    "category": "Movahedin",
    "formatted_address": "Sulama Ekipmanları Tedarikçisi · Shahriar, PC25+5GXKapalı ⋅ Açılış zamanı: Paz 08:00 · +98 21 6670 5096",
    "phone_number": "+982166705096",
    "source_url": "https://www.google.com/maps/place/Movahedin/data=!4m7!3m6!1s0x3f8e010b41123ba1:0x793201b6818f8c7b!8m2!3d35.7004879!4d51.4088729!16s%2Fg%2F1tjrng36!19sChIJoTsSQQsBjj8Re4yPgbYBMnk?authuser=0&hl=tr&rclk=1",
    "website_url": "http://www.movahedin.com/",
    "rating_text": "",
    "stars": null,
    "number_of_reviews": null,
    "price_level": "",
    "open_hours": "",
    "extraction_timestamp": "2025-06-07T14:08:00.697Z",
    "source_name": "google",
    "source_query": "Irrigation Equipment",
    "source_country": "IR",
    "country": "Iran",
    "state": "Tehran",
    "city": "Golestan"
  }
]
