[
  {
    "source_id": "ChIJBa2KFeFHkD8R9MvKt5NOvDo",
    "name": "PolyLand Building, a Poll & Irrigation Equipment",
    "category": "PolyLand Building, a Poll & Irrigation Equipment",
    "formatted_address": "PolyLand Building, a Poll & Irrigation Equipment",
    "phone_number": "+989100021140",
    "source_url": "https://www.google.com/maps/place/PolyLand+Building,+a+Poll+%26+Irrigation+Equipment/data=!4m7!3m6!1s0x3f9047e1158aad05:0x3abc4e93b7cacbf4!8m2!3d35.641247!4d52.2408498!16s%2Fg%2F11s5vjl8v2!19sChIJBa2KFeFHkD8R9MvKt5NOvDo?authuser=0&hl=tr&rclk=1",
    "website_url": "",
    "rating_text": "4,7",
    "stars": null,
    "number_of_reviews": null,
    "price_level": "",
    "open_hours": "",
    "extraction_timestamp": "2025-06-07T14:03:26.559Z",
    "source_name": "google",
    "source_query": "Irrigation Equipment",
    "source_country": "IR",
    "country": "Iran",
    "state": "Tehran",
    "city": "Kilan"
  },
  {
    "source_id": "ChIJ738sMPdHkD8RIjKgw5AOnGQ",
    "name": "فروشگاه مهندس بیدل",
    "category": "فروشگاه مهندس بیدل",
    "formatted_address": "5,0(1)",
    "phone_number": "",
    "source_url": "https://www.google.com/maps/place/%D9%81%D8%B1%D9%88%D8%B4%DA%AF%D8%A7%D9%87+%D9%85%D9%87%D9%86%D8%AF%D8%B3+%D8%A8%DB%8C%D8%AF%D9%84%E2%80%AD/data=!4m7!3m6!1s0x3f9047f7302c7fef:0x649c0e90c3a03222!8m2!3d35.6423438!4d52.2392442!16s%2Fg%2F11lt426fkq!19sChIJ738sMPdHkD8RIjKgw5AOnGQ?authuser=0&hl=tr&rclk=1",
    "website_url": "",
    "rating_text": "5,0",
    "stars": null,
    "number_of_reviews": null,
    "price_level": "",
    "open_hours": "",
    "extraction_timestamp": "2025-06-07T14:03:26.560Z",
    "source_name": "google",
    "source_query": "Irrigation Equipment",
    "source_country": "IR",
    "country": "Iran",
    "state": "Tehran",
    "city": "Kilan"
  },
  {
    "source_id": "ChIJS7-osl0Bjj8R84DcdIl7k_8",
    "name": "Irrigation and Farming Company Aria Tib",
    "category": "Irrigation and Farming Company Aria Tib",
    "formatted_address": "4,7(7)",
    "phone_number": "+982188845454",
    "source_url": "https://www.google.com/maps/place/Irrigation+and+Farming+Company+Aria+Tib/data=!4m7!3m6!1s0x3f8e015db2a8bf4b:0xff937b8974dc80f3!8m2!3d35.7232298!4d51.4237588!16s%2Fg%2F11f0kvhyt6!19sChIJS7-osl0Bjj8R84DcdIl7k_8?authuser=0&hl=tr&rclk=1",
    "website_url": "",
    "rating_text": "4,7",
    "stars": null,
    "number_of_reviews": null,
    "price_level": "",
    "open_hours": "",
    "extraction_timestamp": "2025-06-07T14:03:26.560Z",
    "source_name": "google",
    "source_query": "Irrigation Equipment",
    "source_country": "IR",
    "country": "Iran",
    "state": "Tehran",
    "city": "Kilan"
  },
  {
    "source_id": "ChIJ_fLPRAABjj8RSeosiGuijm8",
    "name": "هانترسل",
    "category": "هانترسل",
    "formatted_address": "5,0(2)",
    "phone_number": "+982155808909",
    "source_url": "https://www.google.com/maps/place/%D9%87%D8%A7%D9%86%D8%AA%D8%B1%D8%B3%D9%84%E2%80%AD/data=!4m7!3m6!1s0x3f8e010044cff2fd:0x6f8ea26b882cea49!8m2!3d35.6811685!4d51.4107418!16s%2Fg%2F11vwx4_tj0!19sChIJ_fLPRAABjj8RSeosiGuijm8?authuser=0&hl=tr&rclk=1",
    "website_url": "",
    "rating_text": "5,0",
    "stars": null,
    "number_of_reviews": null,
    "price_level": "",
    "open_hours": "",
    "extraction_timestamp": "2025-06-07T14:03:26.560Z",
    "source_name": "google",
    "source_query": "Irrigation Equipment",
    "source_country": "IR",
    "country": "Iran",
    "state": "Tehran",
    "city": "Kilan"
  },
  {
    "source_id": "ChIJM14qyZQGjj8REzFOag3oADM",
    "name": "kamco",
    "category": "kamco",
    "formatted_address": "5,0(1)",
    "phone_number": "+982188225302",
    "source_url": "https://www.google.com/maps/place/kamco/data=!4m7!3m6!1s0x3f8e0694c92a5e33:0x3300e80d6a4e3113!8m2!3d35.7235012!4d51.4019769!16s%2Fg%2F11b6d0knrt!19sChIJM14qyZQGjj8REzFOag3oADM?authuser=0&hl=tr&rclk=1",
    "website_url": "",
    "rating_text": "5,0",
    "stars": null,
    "number_of_reviews": null,
    "price_level": "",
    "open_hours": "",
    "extraction_timestamp": "2025-06-07T14:03:26.561Z",
    "source_name": "google",
    "source_query": "Irrigation Equipment",
    "source_country": "IR",
    "country": "Iran",
    "state": "Tehran",
    "city": "Kilan"
  }
]
