[
  {
    "source_id": "ChIJS7-osl0Bjj8R84DcdIl7k_8",
    "name": "Irrigation and Farming Company Aria Tib",
    "category": "Irrigation and Farming Company Aria Tib",
    "formatted_address": "4,7(7)",
    "phone_number": "+982188845454",
    "source_url": "https://www.google.com/maps/place/Irrigation+and+Farming+Company+Aria+Tib/data=!4m7!3m6!1s0x3f8e015db2a8bf4b:0xff937b8974dc80f3!8m2!3d35.7232298!4d51.4237588!16s%2Fg%2F11f0kvhyt6!19sChIJS7-osl0Bjj8R84DcdIl7k_8?authuser=0&hl=tr&rclk=1",
    "website_url": "",
    "rating_text": "4,7",
    "stars": null,
    "number_of_reviews": null,
    "price_level": "",
    "open_hours": "",
    "extraction_timestamp": "2025-06-07T14:04:48.007Z",
    "source_name": "google",
    "source_query": "Irrigation Equipment",
    "source_country": "IR",
    "country": "Iran",
    "state": "Tehran",
    "city": "Nasirshahr"
  },
  {
    "source_id": "ChIJ_fLPRAABjj8RSeosiGuijm8",
    "name": "هانترسل",
    "category": "هانترسل",
    "formatted_address": "5,0(2)",
    "phone_number": "+982155808909",
    "source_url": "https://www.google.com/maps/place/%D9%87%D8%A7%D9%86%D8%AA%D8%B1%D8%B3%D9%84%E2%80%AD/data=!4m7!3m6!1s0x3f8e010044cff2fd:0x6f8ea26b882cea49!8m2!3d35.6811685!4d51.4107418!16s%2Fg%2F11vwx4_tj0!19sChIJ_fLPRAABjj8RSeosiGuijm8?authuser=0&hl=tr&rclk=1",
    "website_url": "",
    "rating_text": "5,0",
    "stars": null,
    "number_of_reviews": null,
    "price_level": "",
    "open_hours": "",
    "extraction_timestamp": "2025-06-07T14:04:48.008Z",
    "source_name": "google",
    "source_query": "Irrigation Equipment",
    "source_country": "IR",
    "country": "Iran",
    "state": "Tehran",
    "city": "Nasirshahr"
  },
  {
    "source_id": "ChIJczzAZiH_jT8RenifTR1Z4oE",
    "name": "Allver Center",
    "category": "Allver Center",
    "formatted_address": "5,0(2)",
    "phone_number": "+989339765265",
    "source_url": "https://www.google.com/maps/place/Allver+Center/data=!4m7!3m6!1s0x3f8dff2166c03c73:0x81e2591d4d9f787a!8m2!3d35.6651712!4d51.3161385!16s%2Fg%2F11h4b7n8g6!19sChIJczzAZiH_jT8RenifTR1Z4oE?authuser=0&hl=tr&rclk=1",
    "website_url": "https://allver.center/",
    "rating_text": "5,0",
    "stars": null,
    "number_of_reviews": null,
    "price_level": "",
    "open_hours": "",
    "extraction_timestamp": "2025-06-07T14:04:48.009Z",
    "source_name": "google",
    "source_query": "Irrigation Equipment",
    "source_country": "IR",
    "country": "Iran",
    "state": "Tehran",
    "city": "Nasirshahr"
  },
  {
    "source_id": "ChIJq8macsWikT8RpC1SNZKM8CI",
    "name": "Irrigation Accessories and Hardware Arestani",
    "category": "Irrigation Accessories and Hardware Arestani",
    "formatted_address": "4,0(2)",
    "phone_number": "+982136724944",
    "source_url": "https://www.google.com/maps/place/Irrigation+Accessories+and+Hardware+Arestani/data=!4m7!3m6!1s0x3f91a2c5729ac9ab:0x22f08c9235522da4!8m2!3d35.3140051!4d51.7130788!16s%2Fg%2F11c5wl0fc4!19sChIJq8macsWikT8RpC1SNZKM8CI?authuser=0&hl=tr&rclk=1",
    "website_url": "",
    "rating_text": "4,0",
    "stars": null,
    "number_of_reviews": null,
    "price_level": "",
    "open_hours": "",
    "extraction_timestamp": "2025-06-07T14:04:48.009Z",
    "source_name": "google",
    "source_query": "Irrigation Equipment",
    "source_country": "IR",
    "country": "Iran",
    "state": "Tehran",
    "city": "Nasirshahr"
  },
  {
    "source_id": "ChIJx1BEGwD9kT8R_UErR0FCZjY",
    "name": "فروشگاه نوین قطره (آبچی)",
    "category": "فروشگاه نوین قطره (آبچی)",
    "formatted_address": "5,0(1)",
    "phone_number": "+982133685702",
    "source_url": "https://www.google.com/maps/place/%D9%81%D8%B1%D9%88%D8%B4%DA%AF%D8%A7%D9%87+%D9%86%D9%88%DB%8C%D9%86+%D9%82%D8%B7%D8%B1%D9%87+%28%D8%A2%D8%A8%DA%86%DB%8C%29%E2%80%AD/data=!4m7!3m6!1s0x3f91fd001b4450c7:0x36664241472b41fd!8m2!3d35.6612971!4d51.4762699!16s%2Fg%2F11vrd0dx72!19sChIJx1BEGwD9kT8R_UErR0FCZjY?authuser=0&hl=tr&rclk=1",
    "website_url": "http://www.abchee.ir/",
    "rating_text": "5,0",
    "stars": null,
    "number_of_reviews": null,
    "price_level": "",
    "open_hours": "",
    "extraction_timestamp": "2025-06-07T14:04:48.010Z",
    "source_name": "google",
    "source_query": "Irrigation Equipment",
    "source_country": "IR",
    "country": "Iran",
    "state": "Tehran",
    "city": "Nasirshahr"
  },
  {
    "source_id": "ChIJoTsSQQsBjj8Re4yPgbYBMnk",
    "name": "Movahedin",
    "category": "Movahedin",
    "formatted_address": "Sulama Ekipmanları Tedarikçisi · Shahriar, PC25+5GXKapalı ⋅ Açılış zamanı: Paz 08:00 · +98 21 6670 5096",
    "phone_number": "+982166705096",
    "source_url": "https://www.google.com/maps/place/Movahedin/data=!4m7!3m6!1s0x3f8e010b41123ba1:0x793201b6818f8c7b!8m2!3d35.7004879!4d51.4088729!16s%2Fg%2F1tjrng36!19sChIJoTsSQQsBjj8Re4yPgbYBMnk?authuser=0&hl=tr&rclk=1",
    "website_url": "http://www.movahedin.com/",
    "rating_text": "",
    "stars": null,
    "number_of_reviews": null,
    "price_level": "",
    "open_hours": "",
    "extraction_timestamp": "2025-06-07T14:04:48.010Z",
    "source_name": "google",
    "source_query": "Irrigation Equipment",
    "source_country": "IR",
    "country": "Iran",
    "state": "Tehran",
    "city": "Nasirshahr"
  }
]
