[
  {
    "source_id": "ChIJS7-osl0Bjj8R84DcdIl7k_8",
    "name": "Irrigation and Farming Company Aria Tib",
    "category": "Irrigation and Farming Company Aria Tib",
    "formatted_address": "4,7(7)",
    "phone_number": "+982188845454",
    "source_url": "https://www.google.com/maps/place/Irrigation+and+Farming+Company+Aria+Tib/data=!4m7!3m6!1s0x3f8e015db2a8bf4b:0xff937b8974dc80f3!8m2!3d35.7232298!4d51.4237588!16s%2Fg%2F11f0kvhyt6!19sChIJS7-osl0Bjj8R84DcdIl7k_8?authuser=0&hl=tr&rclk=1",
    "website_url": "",
    "rating_text": "4,7",
    "stars": null,
    "number_of_reviews": null,
    "price_level": "",
    "open_hours": "",
    "extraction_timestamp": "2025-06-07T14:07:43.337Z",
    "source_name": "google",
    "source_query": "Irrigation Equipment",
    "source_country": "IR",
    "country": "Iran",
    "state": "Tehran",
    "city": "Parand"
  },
  {
    "source_id": "ChIJ_fLPRAABjj8RSeosiGuijm8",
    "name": "هانترسل",
    "category": "هانترسل",
    "formatted_address": "5,0(2)",
    "phone_number": "+982155808909",
    "source_url": "https://www.google.com/maps/place/%D9%87%D8%A7%D9%86%D8%AA%D8%B1%D8%B3%D9%84%E2%80%AD/data=!4m7!3m6!1s0x3f8e010044cff2fd:0x6f8ea26b882cea49!8m2!3d35.6811685!4d51.4107418!16s%2Fg%2F11vwx4_tj0!19sChIJ_fLPRAABjj8RSeosiGuijm8?authuser=0&hl=tr&rclk=1",
    "website_url": "",
    "rating_text": "5,0",
    "stars": null,
    "number_of_reviews": null,
    "price_level": "",
    "open_hours": "",
    "extraction_timestamp": "2025-06-07T14:07:43.338Z",
    "source_name": "google",
    "source_query": "Irrigation Equipment",
    "source_country": "IR",
    "country": "Iran",
    "state": "Tehran",
    "city": "Parand"
  },
  {
    "source_id": "ChIJr2pRFQD_jT8RFgWhLKl6zWw",
    "name": "مپتاب شاپ (لوله پلی اتیلن و اتصالات آبیاری)",
    "category": "مپتاب شاپ (لوله پلی اتیلن و اتصالات آبیاری)",
    "formatted_address": "5,0(1)",
    "phone_number": "+982166642248",
    "source_url": "https://www.google.com/maps/place/%D9%85%D9%BE%D8%AA%D8%A7%D8%A8+%D8%B4%D8%A7%D9%BE+%28%D9%84%D9%88%D9%84%D9%87+%D9%BE%D9%84%DB%8C+%D8%A7%D8%AA%DB%8C%D9%84%D9%86+%D9%88+%D8%A7%D8%AA%D8%B5%D8%A7%D9%84%D8%A7%D8%AA+%D8%A2%D8%A8%DB%8C%D8%A7%D8%B1%DB%8C%29%E2%80%AD/data=!4m7!3m6!1s0x3f8dff0015516aaf:0x6ccd7aa92ca10516!8m2!3d35.6649312!4d51.314886!16s%2Fg%2F11vt8t_vpw!19sChIJr2pRFQD_jT8RFgWhLKl6zWw?authuser=0&hl=tr&rclk=1",
    "website_url": "http://www.maptabco.com/",
    "rating_text": "5,0",
    "stars": null,
    "number_of_reviews": null,
    "price_level": "",
    "open_hours": "",
    "extraction_timestamp": "2025-06-07T14:07:43.339Z",
    "source_name": "google",
    "source_query": "Irrigation Equipment",
    "source_country": "IR",
    "country": "Iran",
    "state": "Tehran",
    "city": "Parand"
  },
  {
    "source_id": "ChIJM14qyZQGjj8REzFOag3oADM",
    "name": "kamco",
    "category": "kamco",
    "formatted_address": "5,0(1)",
    "phone_number": "+982188225302",
    "source_url": "https://www.google.com/maps/place/kamco/data=!4m7!3m6!1s0x3f8e0694c92a5e33:0x3300e80d6a4e3113!8m2!3d35.7235012!4d51.4019769!16s%2Fg%2F11b6d0knrt!19sChIJM14qyZQGjj8REzFOag3oADM?authuser=0&hl=tr&rclk=1",
    "website_url": "",
    "rating_text": "5,0",
    "stars": null,
    "number_of_reviews": null,
    "price_level": "",
    "open_hours": "",
    "extraction_timestamp": "2025-06-07T14:07:43.347Z",
    "source_name": "google",
    "source_query": "Irrigation Equipment",
    "source_country": "IR",
    "country": "Iran",
    "state": "Tehran",
    "city": "Parand"
  },
  {
    "source_id": "ChIJ3we4TwABjj8Ri4Wncc55SHU",
    "name": "ایران قطره (مرکز فروش لوازم آبیاری قطره ای)",
    "category": "ایران قطره (مرکز فروش لوازم آبیاری قطره ای)",
    "formatted_address": "5,0(13)",
    "phone_number": "+982188725404",
    "source_url": "https://www.google.com/maps/place/%D8%A7%DB%8C%D8%B1%D8%A7%D9%86+%D9%82%D8%B7%D8%B1%D9%87+%28%D9%85%D8%B1%DA%A9%D8%B2+%D9%81%D8%B1%D9%88%D8%B4+%D9%84%D9%88%D8%A7%D8%B2%D9%85+%D8%A2%D8%A8%DB%8C%D8%A7%D8%B1%DB%8C+%D9%82%D8%B7%D8%B1%D9%87+%D8%A7%DB%8C%29%E2%80%AD/data=!4m7!3m6!1s0x3f8e01004fb807df:0x754879ce71a7858b!8m2!3d35.7247228!4d51.4079436!16s%2Fg%2F11y46_nc4y!19sChIJ3we4TwABjj8Ri4Wncc55SHU?authuser=0&hl=tr&rclk=1",
    "website_url": "",
    "rating_text": "5,0",
    "stars": null,
    "number_of_reviews": null,
    "price_level": "",
    "open_hours": "",
    "extraction_timestamp": "2025-06-07T14:07:43.348Z",
    "source_name": "google",
    "source_query": "Irrigation Equipment",
    "source_country": "IR",
    "country": "Iran",
    "state": "Tehran",
    "city": "Parand"
  },
  {
    "source_id": "ChIJK6ThE9P_jT8R5fyTwviNcEE",
    "name": "بارمان تجهیز | مرجع تخصصی آبیاری",
    "category": "بارمان تجهیز | مرجع تخصصی آبیاری",
    "formatted_address": "5,0(2)",
    "phone_number": "+982144535028",
    "source_url": "https://www.google.com/maps/place/%D8%A8%D8%A7%D8%B1%D9%85%D8%A7%D9%86+%D8%AA%D8%AC%D9%87%DB%8C%D8%B2+%7C+%D9%85%D8%B1%D8%AC%D8%B9+%D8%AA%D8%AE%D8%B5%D8%B5%DB%8C+%D8%A2%D8%A8%DB%8C%D8%A7%D8%B1%DB%8C%E2%80%AD/data=!4m7!3m6!1s0x3f8dffd313e1a42b:0x41708df8c293fce5!8m2!3d35.668366!4d51.3164668!16s%2Fg%2F11t3z6x53b!19sChIJK6ThE9P_jT8R5fyTwviNcEE?authuser=0&hl=tr&rclk=1",
    "website_url": "https://barmant.com/",
    "rating_text": "5,0",
    "stars": null,
    "number_of_reviews": null,
    "price_level": "",
    "open_hours": "",
    "extraction_timestamp": "2025-06-07T14:07:43.349Z",
    "source_name": "google",
    "source_query": "Irrigation Equipment",
    "source_country": "IR",
    "country": "Iran",
    "state": "Tehran",
    "city": "Parand"
  },
  {
    "source_id": "ChIJv6jv6vAZkj8RQqunRNeLkPQ",
    "name": "شرکت تکنوژاله",
    "category": "شرکت تکنوژاله",
    "formatted_address": "4,5(2)",
    "phone_number": "+989125801150",
    "source_url": "https://www.google.com/maps/place/%D8%B4%D8%B1%DA%A9%D8%AA+%D8%AA%DA%A9%D9%86%D9%88%DA%98%D8%A7%D9%84%D9%87%E2%80%AD/data=!4m7!3m6!1s0x3f9219f0eaefa8bf:0xf4908bd744a7ab42!8m2!3d35.3734371!4d51.2511171!16s%2Fg%2F11jgsfs1g6!19sChIJv6jv6vAZkj8RQqunRNeLkPQ?authuser=0&hl=tr&rclk=1",
    "website_url": "http://technojaleh.com/",
    "rating_text": "4,5",
    "stars": null,
    "number_of_reviews": null,
    "price_level": "",
    "open_hours": "",
    "extraction_timestamp": "2025-06-07T14:07:43.349Z",
    "source_name": "google",
    "source_query": "Irrigation Equipment",
    "source_country": "IR",
    "country": "Iran",
    "state": "Tehran",
    "city": "Parand"
  },
  {
    "source_id": "ChIJ10h4TAD_jT8Rq1J2dp5UuAw",
    "name": "فروشگاه آریا دریپ",
    "category": "فروشگاه آریا دریپ",
    "formatted_address": "5,0(2)",
    "phone_number": "",
    "source_url": "https://www.google.com/maps/place/%D9%81%D8%B1%D9%88%D8%B4%DA%AF%D8%A7%D9%87+%D8%A2%D8%B1%DB%8C%D8%A7+%D8%AF%D8%B1%DB%8C%D9%BE%E2%80%AD/data=!4m7!3m6!1s0x3f8dff004c7848d7:0xcb8549e767652ab!8m2!3d35.6626366!4d51.3126373!16s%2Fg%2F11y38yblb6!19sChIJ10h4TAD_jT8Rq1J2dp5UuAw?authuser=0&hl=tr&rclk=1",
    "website_url": "",
    "rating_text": "5,0",
    "stars": null,
    "number_of_reviews": null,
    "price_level": "",
    "open_hours": "",
    "extraction_timestamp": "2025-06-07T14:07:43.349Z",
    "source_name": "google",
    "source_query": "Irrigation Equipment",
    "source_country": "IR",
    "country": "Iran",
    "state": "Tehran",
    "city": "Parand"
  },
  {
    "source_id": "ChIJBc17rsl0kj8RWs30dD_b_LY",
    "name": "SUNCAP by Parand Machine Co.",
    "category": "SUNCAP by Parand Machine Co.",
    "formatted_address": "4,0(1)",
    "phone_number": "+982156418800",
    "source_url": "https://www.google.com/maps/place/SUNCAP+by+Parand+Machine+Co./data=!4m7!3m6!1s0x3f9274c9ae7bcd05:0xb6fcdb3f74f4cd5a!8m2!3d35.4517668!4d51.0048518!16s%2Fg%2F11cm9dt1_p!19sChIJBc17rsl0kj8RWs30dD_b_LY?authuser=0&hl=tr&rclk=1",
    "website_url": "https://www.parandmachine.com/",
    "rating_text": "4,0",
    "stars": null,
    "number_of_reviews": null,
    "price_level": "",
    "open_hours": "",
    "extraction_timestamp": "2025-06-07T14:07:43.350Z",
    "source_name": "google",
    "source_query": "Irrigation Equipment",
    "source_country": "IR",
    "country": "Iran",
    "state": "Tehran",
    "city": "Parand"
  },
  {
    "source_id": "ChIJTX7yQHn9jT8Rx-n9pDJ-Qxc",
    "name": "Baghkala",
    "category": "Baghkala",
    "formatted_address": "5,0(8)",
    "phone_number": "+982144095961",
    "source_url": "https://www.google.com/maps/place/Baghkala/data=!4m7!3m6!1s0x3f8dfd7940f27e4d:0x17437e32a4fde9c7!8m2!3d35.7420016!4d51.3029226!16s%2Fg%2F11py6t11g6!19sChIJTX7yQHn9jT8Rx-n9pDJ-Qxc?authuser=0&hl=tr&rclk=1",
    "website_url": "http://www.baghkala.ir/",
    "rating_text": "5,0",
    "stars": null,
    "number_of_reviews": null,
    "price_level": "",
    "open_hours": "",
    "extraction_timestamp": "2025-06-07T14:07:43.350Z",
    "source_name": "google",
    "source_query": "Irrigation Equipment",
    "source_country": "IR",
    "country": "Iran",
    "state": "Tehran",
    "city": "Parand"
  },
  {
    "source_id": "ChIJx1BEGwD9kT8R_UErR0FCZjY",
    "name": "فروشگاه نوین قطره (آبچی)",
    "category": "فروشگاه نوین قطره (آبچی)",
    "formatted_address": "5,0(1)",
    "phone_number": "+982133685702",
    "source_url": "https://www.google.com/maps/place/%D9%81%D8%B1%D9%88%D8%B4%DA%AF%D8%A7%D9%87+%D9%86%D9%88%DB%8C%D9%86+%D9%82%D8%B7%D8%B1%D9%87+%28%D8%A2%D8%A8%DA%86%DB%8C%29%E2%80%AD/data=!4m7!3m6!1s0x3f91fd001b4450c7:0x36664241472b41fd!8m2!3d35.6612971!4d51.4762699!16s%2Fg%2F11vrd0dx72!19sChIJx1BEGwD9kT8R_UErR0FCZjY?authuser=0&hl=tr&rclk=1",
    "website_url": "http://www.abchee.ir/",
    "rating_text": "5,0",
    "stars": null,
    "number_of_reviews": null,
    "price_level": "",
    "open_hours": "",
    "extraction_timestamp": "2025-06-07T14:07:43.351Z",
    "source_name": "google",
    "source_query": "Irrigation Equipment",
    "source_country": "IR",
    "country": "Iran",
    "state": "Tehran",
    "city": "Parand"
  },
  {
    "source_id": "ChIJoTsSQQsBjj8Re4yPgbYBMnk",
    "name": "Movahedin",
    "category": "Movahedin",
    "formatted_address": "Sulama Ekipmanları Tedarikçisi · Shahriar, PC25+5GXKapalı ⋅ Açılış zamanı: Paz 08:00 · +98 21 6670 5096",
    "phone_number": "+982166705096",
    "source_url": "https://www.google.com/maps/place/Movahedin/data=!4m7!3m6!1s0x3f8e010b41123ba1:0x793201b6818f8c7b!8m2!3d35.7004879!4d51.4088729!16s%2Fg%2F1tjrng36!19sChIJoTsSQQsBjj8Re4yPgbYBMnk?authuser=0&hl=tr&rclk=1",
    "website_url": "http://www.movahedin.com/",
    "rating_text": "",
    "stars": null,
    "number_of_reviews": null,
    "price_level": "",
    "open_hours": "",
    "extraction_timestamp": "2025-06-07T14:07:43.351Z",
    "source_name": "google",
    "source_query": "Irrigation Equipment",
    "source_country": "IR",
    "country": "Iran",
    "state": "Tehran",
    "city": "Parand"
  },
  {
    "source_id": "ChIJczzAZiH_jT8RenifTR1Z4oE",
    "name": "Allver Center",
    "category": "Allver Center",
    "formatted_address": "5,0(2)",
    "phone_number": "+989339765265",
    "source_url": "https://www.google.com/maps/place/Allver+Center/data=!4m7!3m6!1s0x3f8dff2166c03c73:0x81e2591d4d9f787a!8m2!3d35.6651712!4d51.3161385!16s%2Fg%2F11h4b7n8g6!19sChIJczzAZiH_jT8RenifTR1Z4oE?authuser=0&hl=tr&rclk=1",
    "website_url": "https://allver.center/",
    "rating_text": "5,0",
    "stars": null,
    "number_of_reviews": null,
    "price_level": "",
    "open_hours": "",
    "extraction_timestamp": "2025-06-07T14:07:43.351Z",
    "source_name": "google",
    "source_query": "Irrigation Equipment",
    "source_country": "IR",
    "country": "Iran",
    "state": "Tehran",
    "city": "Parand"
  },
  {
    "source_id": "ChIJBb3QBgAFjj8RsUO02DeokOU",
    "name": "آبیاری هوشمند تهران",
    "category": "آبیاری هوشمند تهران",
    "formatted_address": "Sulama Ekipmanları Tedarikçisi · طبقه ۲، پلاک ۲۰۵, Heravi Square, مجتمع تجاری گلستانAçık ⋅ Kapanış saati: 21:00 · +98 21 3382 6812",
    "phone_number": "+982133826812",
    "source_url": "https://www.google.com/maps/place/%D8%A2%D8%A8%DB%8C%D8%A7%D8%B1%DB%8C+%D9%87%D9%88%D8%B4%D9%85%D9%86%D8%AF+%D8%AA%D9%87%D8%B1%D8%A7%D9%86%E2%80%AD/data=!4m7!3m6!1s0x3f8e050006d0bd05:0xe590a837d8b443b1!8m2!3d35.7670684!4d51.4780966!16s%2Fg%2F11mdkhfkqg!19sChIJBb3QBgAFjj8RsUO02DeokOU?authuser=0&hl=tr&rclk=1",
    "website_url": "https://www.smartirrigation.ir/",
    "rating_text": "",
    "stars": null,
    "number_of_reviews": null,
    "price_level": "",
    "open_hours": "",
    "extraction_timestamp": "2025-06-07T14:07:43.352Z",
    "source_name": "google",
    "source_query": "Irrigation Equipment",
    "source_country": "IR",
    "country": "Iran",
    "state": "Tehran",
    "city": "Parand"
  },
  {
    "source_id": "ChIJwbqWteF1kj8RgauqrsoUWnE",
    "name": "لبنیات سنتی تک شیران محسن صدیقی",
    "category": "لبنیات سنتی تک شیران محسن صدیقی",
    "formatted_address": "4,0(1)",
    "phone_number": "+989132519842",
    "source_url": "https://www.google.com/maps/place/%D9%84%D8%A8%D9%86%DB%8C%D8%A7%D8%AA+%D8%B3%D9%86%D8%AA%DB%8C+%D8%AA%DA%A9+%D8%B4%DB%8C%D8%B1%D8%A7%D9%86+%D9%85%D8%AD%D8%B3%D9%86+%D8%B5%D8%AF%DB%8C%D9%82%DB%8C%E2%80%AD/data=!4m7!3m6!1s0x3f9275e1b596bac1:0x715a14caaeaaab81!8m2!3d35.4747937!4d50.9642574!16s%2Fg%2F11h6t5r7pn!19sChIJwbqWteF1kj8RgauqrsoUWnE?authuser=0&hl=tr&rclk=1",
    "website_url": "",
    "rating_text": "4,0",
    "stars": null,
    "number_of_reviews": null,
    "price_level": "",
    "open_hours": "",
    "extraction_timestamp": "2025-06-07T14:07:43.352Z",
    "source_name": "google",
    "source_query": "Irrigation Equipment",
    "source_country": "IR",
    "country": "Iran",
    "state": "Tehran",
    "city": "Parand"
  },
  {
    "source_id": "ChIJq8macsWikT8RpC1SNZKM8CI",
    "name": "Irrigation Accessories and Hardware Arestani",
    "category": "Irrigation Accessories and Hardware Arestani",
    "formatted_address": "4,0(2)",
    "phone_number": "+982136724944",
    "source_url": "https://www.google.com/maps/place/Irrigation+Accessories+and+Hardware+Arestani/data=!4m7!3m6!1s0x3f91a2c5729ac9ab:0x22f08c9235522da4!8m2!3d35.3140051!4d51.7130788!16s%2Fg%2F11c5wl0fc4!19sChIJq8macsWikT8RpC1SNZKM8CI?authuser=0&hl=tr&rclk=1",
    "website_url": "",
    "rating_text": "4,0",
    "stars": null,
    "number_of_reviews": null,
    "price_level": "",
    "open_hours": "",
    "extraction_timestamp": "2025-06-07T14:07:43.353Z",
    "source_name": "google",
    "source_query": "Irrigation Equipment",
    "source_country": "IR",
    "country": "Iran",
    "state": "Tehran",
    "city": "Parand"
  },
  {
    "source_id": "ChIJiVJPWgsBjj8RBAloUVkiU68",
    "name": "موسسه بین المللی قائم شمس",
    "category": "موسسه بین المللی قائم شمس",
    "formatted_address": "",
    "phone_number": "+989193780108",
    "source_url": "https://www.google.com/maps/place/%D9%85%D9%88%D8%B3%D8%B3%D9%87+%D8%A8%DB%8C%D9%86+%D8%A7%D9%84%D9%85%D9%84%D9%84%DB%8C+%D9%82%D8%A7%D8%A6%D9%85+%D8%B4%D9%85%D8%B3%E2%80%AD/data=!4m7!3m6!1s0x3f8e010b5a4f5289:0xaf53225951680904!8m2!3d35.7010644!4d51.4089525!16s%2Fg%2F11csrvcm4w!19sChIJiVJPWgsBjj8RBAloUVkiU68?authuser=0&hl=tr&rclk=1",
    "website_url": "",
    "rating_text": "",
    "stars": null,
    "number_of_reviews": null,
    "price_level": "",
    "open_hours": "",
    "extraction_timestamp": "2025-06-07T14:07:43.353Z",
    "source_name": "google",
    "source_query": "Irrigation Equipment",
    "source_country": "IR",
    "country": "Iran",
    "state": "Tehran",
    "city": "Parand"
  },
  {
    "source_id": "ChIJ738sMPdHkD8RIjKgw5AOnGQ",
    "name": "فروشگاه مهندس بیدل",
    "category": "فروشگاه مهندس بیدل",
    "formatted_address": "5,0(1)",
    "phone_number": "",
    "source_url": "https://www.google.com/maps/place/%D9%81%D8%B1%D9%88%D8%B4%DA%AF%D8%A7%D9%87+%D9%85%D9%87%D9%86%D8%AF%D8%B3+%D8%A8%DB%8C%D8%AF%D9%84%E2%80%AD/data=!4m7!3m6!1s0x3f9047f7302c7fef:0x649c0e90c3a03222!8m2!3d35.6423438!4d52.2392442!16s%2Fg%2F11lt426fkq!19sChIJ738sMPdHkD8RIjKgw5AOnGQ?authuser=0&hl=tr&rclk=1",
    "website_url": "",
    "rating_text": "5,0",
    "stars": null,
    "number_of_reviews": null,
    "price_level": "",
    "open_hours": "",
    "extraction_timestamp": "2025-06-07T14:07:43.353Z",
    "source_name": "google",
    "source_query": "Irrigation Equipment",
    "source_country": "IR",
    "country": "Iran",
    "state": "Tehran",
    "city": "Parand"
  },
  {
    "source_id": "ChIJeUl4VeIBjj8RD2-rYqBVtfI",
    "name": "Abankala",
    "category": "Abankala",
    "formatted_address": "",
    "phone_number": "+982133906522",
    "source_url": "https://www.google.com/maps/place/Abankala/data=!4m7!3m6!1s0x3f8e01e255784979:0xf2b555a062ab6f0f!8m2!3d35.6836298!4d51.420451!16s%2Fg%2F11rypqyrfk!19sChIJeUl4VeIBjj8RD2-rYqBVtfI?authuser=0&hl=tr&rclk=1",
    "website_url": "",
    "rating_text": "",
    "stars": null,
    "number_of_reviews": null,
    "price_level": "",
    "open_hours": "",
    "extraction_timestamp": "2025-06-07T14:07:43.353Z",
    "source_name": "google",
    "source_query": "Irrigation Equipment",
    "source_country": "IR",
    "country": "Iran",
    "state": "Tehran",
    "city": "Parand"
  },
  {
    "source_id": "ChIJd0pV544Bjj8RKKy-SVImYdc",
    "name": "پاساژ آبیاری نوین",
    "category": "پاساژ آبیاری نوین",
    "formatted_address": "2,0(1)",
    "phone_number": "+982133926062",
    "source_url": "https://www.google.com/maps/place/%D9%BE%D8%A7%D8%B3%D8%A7%DA%98+%D8%A2%D8%A8%DB%8C%D8%A7%D8%B1%DB%8C+%D9%86%D9%88%DB%8C%D9%86%E2%80%AD/data=!4m7!3m6!1s0x3f8e018ee7554a77:0xd761265249beac28!8m2!3d35.6939012!4d51.4256561!16s%2Fg%2F11gbfnwf1t!19sChIJd0pV544Bjj8RKKy-SVImYdc?authuser=0&hl=tr&rclk=1",
    "website_url": "",
    "rating_text": "2,0",
    "stars": null,
    "number_of_reviews": null,
    "price_level": "",
    "open_hours": "",
    "extraction_timestamp": "2025-06-07T14:07:43.354Z",
    "source_name": "google",
    "source_query": "Irrigation Equipment",
    "source_country": "IR",
    "country": "Iran",
    "state": "Tehran",
    "city": "Parand"
  },
  {
    "source_id": "ChIJSxyRJwEBjj8RuFacRD7EufU",
    "name": "فروشگاه الکترو موتور بابایی",
    "category": "فروشگاه الکترو موتور بابایی",
    "formatted_address": "4,0(1)",
    "phone_number": "+989125101554",
    "source_url": "https://www.google.com/maps/place/%D9%81%D8%B1%D9%88%D8%B4%DA%AF%D8%A7%D9%87+%D8%A7%D9%84%DA%A9%D8%AA%D8%B1%D9%88+%D9%85%D9%88%D8%AA%D9%88%D8%B1+%D8%A8%D8%A7%D8%A8%D8%A7%DB%8C%DB%8C%E2%80%AD/data=!4m7!3m6!1s0x3f8e010127911c4b:0xf5b9c43e449c56b8!8m2!3d35.6890225!4d51.4250658!16s%2Fg%2F11svwsc2ds!19sChIJSxyRJwEBjj8RuFacRD7EufU?authuser=0&hl=tr&rclk=1",
    "website_url": "",
    "rating_text": "4,0",
    "stars": null,
    "number_of_reviews": null,
    "price_level": "",
    "open_hours": "",
    "extraction_timestamp": "2025-06-07T14:07:43.354Z",
    "source_name": "google",
    "source_query": "Irrigation Equipment",
    "source_country": "IR",
    "country": "Iran",
    "state": "Tehran",
    "city": "Parand"
  },
  {
    "source_id": "ChIJW2OiBAD9jT8REvaEN7lEk-8",
    "name": "Delcosanat",
    "category": "Delcosanat",
    "formatted_address": "5,0(12)",
    "phone_number": "+982128425858",
    "source_url": "https://www.google.com/maps/place/Delcosanat/data=!4m7!3m6!1s0x3f8dfd0004a2635b:0xef9344b93784f612!8m2!3d35.726278!4d51.3238592!16s%2Fg%2F11vqzq0ylc!19sChIJW2OiBAD9jT8REvaEN7lEk-8?authuser=0&hl=tr&rclk=1",
    "website_url": "https://www.delcosanat.com/",
    "rating_text": "5,0",
    "stars": null,
    "number_of_reviews": null,
    "price_level": "",
    "open_hours": "",
    "extraction_timestamp": "2025-06-07T14:07:43.354Z",
    "source_name": "google",
    "source_query": "Irrigation Equipment",
    "source_country": "IR",
    "country": "Iran",
    "state": "Tehran",
    "city": "Parand"
  },
  {
    "source_id": "ChIJj9RDG_SZjT8RDjffnfnE7O4",
    "name": "شرکت آرسیس قطران",
    "category": "شرکت آرسیس قطران",
    "formatted_address": "5,0(8)",
    "phone_number": "+989120953243",
    "source_url": "https://www.google.com/maps/place/%D8%B4%D8%B1%DA%A9%D8%AA+%D8%A2%D8%B1%D8%B3%DB%8C%D8%B3+%D9%82%D8%B7%D8%B1%D8%A7%D9%86%E2%80%AD/data=!4m7!3m6!1s0x3f8d99f41b43d48f:0xeeecc4f99ddf370e!8m2!3d35.6874063!4d50.8287973!16s%2Fg%2F11spqwtkx2!19sChIJj9RDG_SZjT8RDjffnfnE7O4?authuser=0&hl=tr&rclk=1",
    "website_url": "",
    "rating_text": "5,0",
    "stars": null,
    "number_of_reviews": null,
    "price_level": "",
    "open_hours": "",
    "extraction_timestamp": "2025-06-07T14:07:43.355Z",
    "source_name": "google",
    "source_query": "Irrigation Equipment",
    "source_country": "IR",
    "country": "Iran",
    "state": "Tehran",
    "city": "Parand"
  },
  {
    "source_id": "ChIJG_N-WqL_jT8RR7nTt-C7ErA",
    "name": "تاسیسات آبسان",
    "category": "تاسیسات آبسان",
    "formatted_address": "5,0(1)",
    "phone_number": "+982166652302",
    "source_url": "https://www.google.com/maps/place/%D8%AA%D8%A7%D8%B3%DB%8C%D8%B3%D8%A7%D8%AA+%D8%A2%D8%A8%D8%B3%D8%A7%D9%86%E2%80%AD/data=!4m7!3m6!1s0x3f8dffa25a7ef31b:0xb012bbe0b7d3b947!8m2!3d35.6653233!4d51.3162526!16s%2Fg%2F11jh_5cvs3!19sChIJG_N-WqL_jT8RR7nTt-C7ErA?authuser=0&hl=tr&rclk=1",
    "website_url": "",
    "rating_text": "5,0",
    "stars": null,
    "number_of_reviews": null,
    "price_level": "",
    "open_hours": "",
    "extraction_timestamp": "2025-06-07T14:07:43.355Z",
    "source_name": "google",
    "source_query": "Irrigation Equipment",
    "source_country": "IR",
    "country": "Iran",
    "state": "Tehran",
    "city": "Parand"
  },
  {
    "source_id": "ChIJVSeQOQADjj8RggR1pHvp7DA",
    "name": "Besaco",
    "category": "Besaco",
    "formatted_address": "Sulama Ekipmanları Tedarikçisi · W Golbarg St, PFJM+HJX",
    "phone_number": "",
    "source_url": "https://www.google.com/maps/place/Besaco/data=!4m7!3m6!1s0x3f8e030039902755:0x30ece97ba4750482!8m2!3d35.7314756!4d51.4840781!16s%2Fg%2F11wj6xg0py!19sChIJVSeQOQADjj8RggR1pHvp7DA?authuser=0&hl=tr&rclk=1",
    "website_url": "",
    "rating_text": "",
    "stars": null,
    "number_of_reviews": null,
    "price_level": "",
    "open_hours": "",
    "extraction_timestamp": "2025-06-07T14:07:43.356Z",
    "source_name": "google",
    "source_query": "Irrigation Equipment",
    "source_country": "IR",
    "country": "Iran",
    "state": "Tehran",
    "city": "Parand"
  },
  {
    "source_id": "ChIJk_ivm8sBjj8RVl3U81uTfpU",
    "name": "پاساژ سعدی قدیم",
    "category": "پاساژ سعدی قدیم",
    "formatted_address": "4,4(22)",
    "phone_number": "+982133953449",
    "source_url": "https://www.google.com/maps/place/%D9%BE%D8%A7%D8%B3%D8%A7%DA%98+%D8%B3%D8%B9%D8%AF%DB%8C+%D9%82%D8%AF%DB%8C%D9%85%E2%80%AD/data=!4m7!3m6!1s0x3f8e01cb9baff893:0x957e935bf3d45d56!8m2!3d35.6890838!4d51.4243533!16s%2Fg%2F11v15dzrqj!19sChIJk_ivm8sBjj8RVl3U81uTfpU?authuser=0&hl=tr&rclk=1",
    "website_url": "",
    "rating_text": "4,4",
    "stars": null,
    "number_of_reviews": null,
    "price_level": "",
    "open_hours": "",
    "extraction_timestamp": "2025-06-07T14:07:43.356Z",
    "source_name": "google",
    "source_query": "Irrigation Equipment",
    "source_country": "IR",
    "country": "Iran",
    "state": "Tehran",
    "city": "Parand"
  },
  {
    "source_id": "ChIJUTjEnUABjj8RwU4etySi16k",
    "name": "Chegalab",
    "category": "Chegalab",
    "formatted_address": "Sulama Ekipmanları Tedarikçisi · Parastoo Alley, PC96+G2X+98 21 6641 1396",
    "phone_number": "+982166411396",
    "source_url": "https://www.google.com/maps/place/Chegalab/data=!4m7!3m6!1s0x3f8e01409dc43851:0xa9d7a224b71e4ec1!8m2!3d35.7188671!4d51.4101023!16s%2Fg%2F11j48hjv82!19sChIJUTjEnUABjj8RwU4etySi16k?authuser=0&hl=tr&rclk=1",
    "website_url": "",
    "rating_text": "",
    "stars": null,
    "number_of_reviews": null,
    "price_level": "",
    "open_hours": "",
    "extraction_timestamp": "2025-06-07T14:07:43.356Z",
    "source_name": "google",
    "source_query": "Irrigation Equipment",
    "source_country": "IR",
    "country": "Iran",
    "state": "Tehran",
    "city": "Parand"
  },
  {
    "source_id": "ChIJWZ4AfzkHjj8RbUXUU79bGuw",
    "name": "فروشگاه نصر لوله و اتصالات یزدان",
    "category": "فروشگاه نصر لوله و اتصالات یزدان",
    "formatted_address": "5,0(4)",
    "phone_number": "+989353229758",
    "source_url": "https://www.google.com/maps/place/%D9%81%D8%B1%D9%88%D8%B4%DA%AF%D8%A7%D9%87+%D9%86%D8%B5%D8%B1+%D9%84%D9%88%D9%84%D9%87+%D9%88+%D8%A7%D8%AA%D8%B5%D8%A7%D9%84%D8%A7%D8%AA+%DB%8C%D8%B2%D8%AF%D8%A7%D9%86%E2%80%AD/data=!4m7!3m6!1s0x3f8e07397f009e59:0xec1a5bbf53d4456d!8m2!3d35.7323058!4d51.3731317!16s%2Fg%2F11dxb2164l!19sChIJWZ4AfzkHjj8RbUXUU79bGuw?authuser=0&hl=tr&rclk=1",
    "website_url": "",
    "rating_text": "5,0",
    "stars": null,
    "number_of_reviews": null,
    "price_level": "",
    "open_hours": "",
    "extraction_timestamp": "2025-06-07T14:07:43.357Z",
    "source_name": "google",
    "source_query": "Irrigation Equipment",
    "source_country": "IR",
    "country": "Iran",
    "state": "Tehran",
    "city": "Parand"
  },
  {
    "source_id": "ChIJ93-rbTABjj8R-QejUACjJzw",
    "name": "تجهیزات کافی شاپ - شرکت گام نو - تجهیزات کافه گام نو",
    "category": "تجهیزات کافی شاپ - شرکت گام نو - تجهیزات کافه گام نو",
    "formatted_address": "4,7(43)",
    "phone_number": "+982166988146",
    "source_url": "https://www.google.com/maps/place/%D8%AA%D8%AC%D9%87%DB%8C%D8%B2%D8%A7%D8%AA+%DA%A9%D8%A7%D9%81%DB%8C+%D8%B4%D8%A7%D9%BE+-+%D8%B4%D8%B1%DA%A9%D8%AA+%DA%AF%D8%A7%D9%85+%D9%86%D9%88+-+%D8%AA%D8%AC%D9%87%DB%8C%D8%B2%D8%A7%D8%AA+%DA%A9%D8%A7%D9%81%D9%87+%DA%AF%D8%A7%D9%85+%D9%86%D9%88%E2%80%AD/data=!4m7!3m6!1s0x3f8e01306dab7ff7:0x3c27a30050a307f9!8m2!3d35.7224385!4d51.400909!16s%2Fg%2F11hbg7zs6d!19sChIJ93-rbTABjj8R-QejUACjJzw?authuser=0&hl=tr&rclk=1",
    "website_url": "http://www.gaameno.com/",
    "rating_text": "4,7",
    "stars": null,
    "number_of_reviews": null,
    "price_level": "",
    "open_hours": "",
    "extraction_timestamp": "2025-06-07T14:07:43.357Z",
    "source_name": "google",
    "source_query": "Irrigation Equipment",
    "source_country": "IR",
    "country": "Iran",
    "state": "Tehran",
    "city": "Parand"
  },
  {
    "source_id": "ChIJ4Q9pGD4Bjj8RFCeRDzxF-UM",
    "name": "Ebrahim Company",
    "category": "Ebrahim Company",
    "formatted_address": "4,4(37)",
    "phone_number": "+982187184",
    "source_url": "https://www.google.com/maps/place/Ebrahim+Company/data=!4m7!3m6!1s0x3f8e013e18690fe1:0x43f9453c0f912714!8m2!3d35.7146101!4d51.4061387!16s%2Fg%2F1hf2lrm3b!19sChIJ4Q9pGD4Bjj8RFCeRDzxF-UM?authuser=0&hl=tr&rclk=1",
    "website_url": "https://www.ebrahimco.com/",
    "rating_text": "4,4",
    "stars": null,
    "number_of_reviews": null,
    "price_level": "",
    "open_hours": "",
    "extraction_timestamp": "2025-06-07T14:07:43.358Z",
    "source_name": "google",
    "source_query": "Irrigation Equipment",
    "source_country": "IR",
    "country": "Iran",
    "state": "Tehran",
    "city": "Parand"
  },
  {
    "source_id": "ChIJ3YIZnzwBjj8RO0q_awuYOPs",
    "name": "تاسیسات قاسمی",
    "category": "تاسیسات قاسمی",
    "formatted_address": "5,0(3)",
    "phone_number": "+982166872214",
    "source_url": "https://www.google.com/maps/place/%D8%AA%D8%A7%D8%B3%DB%8C%D8%B3%D8%A7%D8%AA+%D9%82%D8%A7%D8%B3%D9%85%DB%8C%E2%80%AD/data=!4m7!3m6!1s0x3f8e013c9f1982dd:0xfb38980b6bbf4a3b!8m2!3d35.6927975!4d51.3611028!16s%2Fg%2F11r2q_wjhg!19sChIJ3YIZnzwBjj8RO0q_awuYOPs?authuser=0&hl=tr&rclk=1",
    "website_url": "",
    "rating_text": "5,0",
    "stars": null,
    "number_of_reviews": null,
    "price_level": "",
    "open_hours": "",
    "extraction_timestamp": "2025-06-07T14:07:43.358Z",
    "source_name": "google",
    "source_query": "Irrigation Equipment",
    "source_country": "IR",
    "country": "Iran",
    "state": "Tehran",
    "city": "Parand"
  }
]
