[
  {
    "source_id": "ChIJS7-osl0Bjj8R84DcdIl7k_8",
    "name": "Irrigation and Farming Company Aria Tib",
    "category": "Irrigation and Farming Company Aria Tib",
    "formatted_address": "4,7(7)",
    "phone_number": "+982188845454",
    "source_url": "https://www.google.com/maps/place/Irrigation+and+Farming+Company+Aria+Tib/data=!4m7!3m6!1s0x3f8e015db2a8bf4b:0xff937b8974dc80f3!8m2!3d35.7232298!4d51.4237588!16s%2Fg%2F11f0kvhyt6!19sChIJS7-osl0Bjj8R84DcdIl7k_8?authuser=0&hl=tr&rclk=1",
    "website_url": "",
    "rating_text": "4,7",
    "stars": null,
    "number_of_reviews": null,
    "price_level": "",
    "open_hours": "",
    "extraction_timestamp": "2025-06-07T14:05:41.695Z",
    "source_name": "google",
    "source_query": "Irrigation Equipment",
    "source_country": "IR",
    "country": "Iran",
    "state": "Tehran",
    "city": "Pardis"
  },
  {
    "source_id": "ChIJ_fLPRAABjj8RSeosiGuijm8",
    "name": "هانترسل",
    "category": "هانترسل",
    "formatted_address": "5,0(2)",
    "phone_number": "+982155808909",
    "source_url": "https://www.google.com/maps/place/%D9%87%D8%A7%D9%86%D8%AA%D8%B1%D8%B3%D9%84%E2%80%AD/data=!4m7!3m6!1s0x3f8e010044cff2fd:0x6f8ea26b882cea49!8m2!3d35.6811685!4d51.4107418!16s%2Fg%2F11vwx4_tj0!19sChIJ_fLPRAABjj8RSeosiGuijm8?authuser=0&hl=tr&rclk=1",
    "website_url": "",
    "rating_text": "5,0",
    "stars": null,
    "number_of_reviews": null,
    "price_level": "",
    "open_hours": "",
    "extraction_timestamp": "2025-06-07T14:05:41.696Z",
    "source_name": "google",
    "source_query": "Irrigation Equipment",
    "source_country": "IR",
    "country": "Iran",
    "state": "Tehran",
    "city": "Pardis"
  },
  {
    "source_id": "ChIJoTsSQQsBjj8Re4yPgbYBMnk",
    "name": "Movahedin",
    "category": "Movahedin",
    "formatted_address": "Sulama Ekipmanları Tedarikçisi · Shahriar, PC25+5GXKapalı ⋅ Açılış zamanı: Paz 08:00 · +98 21 6670 5096",
    "phone_number": "+982166705096",
    "source_url": "https://www.google.com/maps/place/Movahedin/data=!4m7!3m6!1s0x3f8e010b41123ba1:0x793201b6818f8c7b!8m2!3d35.7004879!4d51.4088729!16s%2Fg%2F1tjrng36!19sChIJoTsSQQsBjj8Re4yPgbYBMnk?authuser=0&hl=tr&rclk=1",
    "website_url": "http://www.movahedin.com/",
    "rating_text": "",
    "stars": null,
    "number_of_reviews": null,
    "price_level": "",
    "open_hours": "",
    "extraction_timestamp": "2025-06-07T14:05:41.696Z",
    "source_name": "google",
    "source_query": "Irrigation Equipment",
    "source_country": "IR",
    "country": "Iran",
    "state": "Tehran",
    "city": "Pardis"
  },
  {
    "source_id": "ChIJA2uZL239jT8Rh9rQE3cGkMg",
    "name": "Pardis Instrument",
    "category": "Pardis Instrument",
    "formatted_address": "",
    "phone_number": "+989331600832",
    "source_url": "https://www.google.com/maps/place/Pardis+Instrument/data=!4m7!3m6!1s0x3f8dfd6d2f996b03:0xc890067713d0da87!8m2!3d35.7471082!4d51.3050288!16s%2Fg%2F11jdty_pqj!19sChIJA2uZL239jT8Rh9rQE3cGkMg?authuser=0&hl=tr&rclk=1",
    "website_url": "http://pardisinstrument.com/",
    "rating_text": "",
    "stars": null,
    "number_of_reviews": null,
    "price_level": "",
    "open_hours": "",
    "extraction_timestamp": "2025-06-07T14:05:41.697Z",
    "source_name": "google",
    "source_query": "Irrigation Equipment",
    "source_country": "IR",
    "country": "Iran",
    "state": "Tehran",
    "city": "Pardis"
  },
  {
    "source_id": "ChIJ____bPfZkT8Rku91mGDswJ0",
    "name": "تصفیه اب پردیس",
    "category": "تصفیه اب پردیس",
    "formatted_address": "5,0(1)",
    "phone_number": "",
    "source_url": "https://www.google.com/maps/place/%D8%AA%D8%B5%D9%81%DB%8C%D9%87+%D8%A7%D8%A8+%D9%BE%D8%B1%D8%AF%DB%8C%D8%B3%E2%80%AD/data=!4m7!3m6!1s0x3f91d9f76cffffff:0x9dc0ec609875ef92!8m2!3d35.7498232!4d51.8405522!16s%2Fg%2F11sskrfc95!19sChIJ____bPfZkT8Rku91mGDswJ0?authuser=0&hl=tr&rclk=1",
    "website_url": "",
    "rating_text": "5,0",
    "stars": null,
    "number_of_reviews": null,
    "price_level": "",
    "open_hours": "",
    "extraction_timestamp": "2025-06-07T14:05:41.697Z",
    "source_name": "google",
    "source_query": "Irrigation Equipment",
    "source_country": "IR",
    "country": "Iran",
    "state": "Tehran",
    "city": "Pardis"
  },
  {
    "source_id": "ChIJ738sMPdHkD8RIjKgw5AOnGQ",
    "name": "فروشگاه مهندس بیدل",
    "category": "فروشگاه مهندس بیدل",
    "formatted_address": "5,0(1)",
    "phone_number": "",
    "source_url": "https://www.google.com/maps/place/%D9%81%D8%B1%D9%88%D8%B4%DA%AF%D8%A7%D9%87+%D9%85%D9%87%D9%86%D8%AF%D8%B3+%D8%A8%DB%8C%D8%AF%D9%84%E2%80%AD/data=!4m7!3m6!1s0x3f9047f7302c7fef:0x649c0e90c3a03222!8m2!3d35.6423438!4d52.2392442!16s%2Fg%2F11lt426fkq!19sChIJ738sMPdHkD8RIjKgw5AOnGQ?authuser=0&hl=tr&rclk=1",
    "website_url": "",
    "rating_text": "5,0",
    "stars": null,
    "number_of_reviews": null,
    "price_level": "",
    "open_hours": "",
    "extraction_timestamp": "2025-06-07T14:05:41.698Z",
    "source_name": "google",
    "source_query": "Irrigation Equipment",
    "source_country": "IR",
    "country": "Iran",
    "state": "Tehran",
    "city": "Pardis"
  },
  {
    "source_id": "ChIJq8macsWikT8RpC1SNZKM8CI",
    "name": "Irrigation Accessories and Hardware Arestani",
    "category": "Irrigation Accessories and Hardware Arestani",
    "formatted_address": "4,0(2)",
    "phone_number": "+982136724944",
    "source_url": "https://www.google.com/maps/place/Irrigation+Accessories+and+Hardware+Arestani/data=!4m7!3m6!1s0x3f91a2c5729ac9ab:0x22f08c9235522da4!8m2!3d35.3140051!4d51.7130788!16s%2Fg%2F11c5wl0fc4!19sChIJq8macsWikT8RpC1SNZKM8CI?authuser=0&hl=tr&rclk=1",
    "website_url": "",
    "rating_text": "4,0",
    "stars": null,
    "number_of_reviews": null,
    "price_level": "",
    "open_hours": "",
    "extraction_timestamp": "2025-06-07T14:05:41.698Z",
    "source_name": "google",
    "source_query": "Irrigation Equipment",
    "source_country": "IR",
    "country": "Iran",
    "state": "Tehran",
    "city": "Pardis"
  },
  {
    "source_id": "ChIJr5ZD9zTZkT8Rtczkt-72Sao",
    "name": "Shemshal Ghate Sazan",
    "category": "Shemshal Ghate Sazan",
    "formatted_address": "5,0(1)",
    "phone_number": "+982176215706",
    "source_url": "https://www.google.com/maps/place/Shemshal+Ghate+Sazan/data=!4m7!3m6!1s0x3f91d934f74396af:0xaa49f6eeb7e4ccb5!8m2!3d35.7421632!4d51.7701715!16s%2Fg%2F11c2kx1897!19sChIJr5ZD9zTZkT8Rtczkt-72Sao?authuser=0&hl=tr&rclk=1",
    "website_url": "http://shemshalghate.com/",
    "rating_text": "5,0",
    "stars": null,
    "number_of_reviews": null,
    "price_level": "",
    "open_hours": "",
    "extraction_timestamp": "2025-06-07T14:05:41.699Z",
    "source_name": "google",
    "source_query": "Irrigation Equipment",
    "source_country": "IR",
    "country": "Iran",
    "state": "Tehran",
    "city": "Pardis"
  },
  {
    "source_id": "ChIJLZyoZBvZkT8RRHOtWavHz-c",
    "name": "تزئینات و دکوراسیون داخلی خیری(ستاره شرقی)",
    "category": "تزئینات و دکوراسیون داخلی خیری(ستاره شرقی)",
    "formatted_address": "5,0(1)",
    "phone_number": "+989121089234",
    "source_url": "https://www.google.com/maps/place/%D8%AA%D8%B2%D8%A6%DB%8C%D9%86%D8%A7%D8%AA+%D9%88+%D8%AF%DA%A9%D9%88%D8%B1%D8%A7%D8%B3%DB%8C%D9%88%D9%86+%D8%AF%D8%A7%D8%AE%D9%84%DB%8C+%D8%AE%DB%8C%D8%B1%DB%8C%28%D8%B3%D8%AA%D8%A7%D8%B1%D9%87+%D8%B4%D8%B1%D9%82%DB%8C%29%E2%80%AD/data=!4m7!3m6!1s0x3f91d91b64a89c2d:0xe7cfc7ab59ad7344!8m2!3d35.7410596!4d51.8163918!16s%2Fg%2F11r_pwh353!19sChIJLZyoZBvZkT8RRHOtWavHz-c?authuser=0&hl=tr&rclk=1",
    "website_url": "",
    "rating_text": "5,0",
    "stars": null,
    "number_of_reviews": null,
    "price_level": "",
    "open_hours": "",
    "extraction_timestamp": "2025-06-07T14:05:41.699Z",
    "source_name": "google",
    "source_query": "Irrigation Equipment",
    "source_country": "IR",
    "country": "Iran",
    "state": "Tehran",
    "city": "Pardis"
  },
  {
    "source_id": "ChIJOQfT70gFjj8R_msXi5XRGNU",
    "name": "پایدار صنعت نوین موج",
    "category": "پایدار صنعت نوین موج",
    "formatted_address": "Yüzme Havuzu Malzemeleri Satıcısı · Mirdamad Blvd, QC5M+WXQ24 saat açık · +98 912 646 7289",
    "phone_number": "+989126467289",
    "source_url": "https://www.google.com/maps/place/%D9%BE%D8%A7%DB%8C%D8%AF%D8%A7%D8%B1+%D8%B5%D9%86%D8%B9%D8%AA+%D9%86%D9%88%DB%8C%D9%86+%D9%85%D9%88%D8%AC%E2%80%AD/data=!4m7!3m6!1s0x3f8e0548efd30739:0xd518d1958b176bfe!8m2!3d35.7598393!4d51.4349726!16s%2Fg%2F11m0sf1q78!19sChIJOQfT70gFjj8R_msXi5XRGNU?authuser=0&hl=tr&rclk=1",
    "website_url": "https://paydarsanatnovin.com/",
    "rating_text": "",
    "stars": null,
    "number_of_reviews": null,
    "price_level": "",
    "open_hours": "",
    "extraction_timestamp": "2025-06-07T14:05:41.700Z",
    "source_name": "google",
    "source_query": "Irrigation Equipment",
    "source_country": "IR",
    "country": "Iran",
    "state": "Tehran",
    "city": "Pardis"
  }
]
