[
  {
    "source_id": "ChIJS7-osl0Bjj8R84DcdIl7k_8",
    "name": "Irrigation and Farming Company Aria Tib",
    "category": "Irrigation and Farming Company Aria Tib",
    "formatted_address": "4,7(7)",
    "phone_number": "+982188845454",
    "source_url": "https://www.google.com/maps/place/Irrigation+and+Farming+Company+Aria+Tib/data=!4m7!3m6!1s0x3f8e015db2a8bf4b:0xff937b8974dc80f3!8m2!3d35.7232298!4d51.4237588!16s%2Fg%2F11f0kvhyt6!19sChIJS7-osl0Bjj8R84DcdIl7k_8?authuser=0&hl=tr&rclk=1",
    "website_url": "",
    "rating_text": "4,7",
    "stars": null,
    "number_of_reviews": null,
    "price_level": "",
    "open_hours": "",
    "extraction_timestamp": "2025-06-07T14:02:26.148Z",
    "source_name": "google",
    "source_query": "Irrigation Equipment",
    "source_country": "IR",
    "country": "Iran",
    "state": "Tehran",
    "city": "Robat Karim"
  },
  {
    "source_id": "ChIJoTsSQQsBjj8Re4yPgbYBMnk",
    "name": "Movahedin",
    "category": "Movahedin",
    "formatted_address": "Sulama Ekipmanları Tedarikçisi · Shahriar, PC25+5GXKapalı ⋅ Açılış zamanı: Paz 08:00 · +98 21 6670 5096",
    "phone_number": "+982166705096",
    "source_url": "https://www.google.com/maps/place/Movahedin/data=!4m7!3m6!1s0x3f8e010b41123ba1:0x793201b6818f8c7b!8m2!3d35.7004879!4d51.4088729!16s%2Fg%2F1tjrng36!19sChIJoTsSQQsBjj8Re4yPgbYBMnk?authuser=0&hl=tr&rclk=1",
    "website_url": "http://www.movahedin.com/",
    "rating_text": "",
    "stars": null,
    "number_of_reviews": null,
    "price_level": "",
    "open_hours": "",
    "extraction_timestamp": "2025-06-07T14:02:26.149Z",
    "source_name": "google",
    "source_query": "Irrigation Equipment",
    "source_country": "IR",
    "country": "Iran",
    "state": "Tehran",
    "city": "Robat Karim"
  },
  {
    "source_id": "ChIJM14qyZQGjj8REzFOag3oADM",
    "name": "kamco",
    "category": "kamco",
    "formatted_address": "5,0(1)",
    "phone_number": "+982188225302",
    "source_url": "https://www.google.com/maps/place/kamco/data=!4m7!3m6!1s0x3f8e0694c92a5e33:0x3300e80d6a4e3113!8m2!3d35.7235012!4d51.4019769!16s%2Fg%2F11b6d0knrt!19sChIJM14qyZQGjj8REzFOag3oADM?authuser=0&hl=tr&rclk=1",
    "website_url": "",
    "rating_text": "5,0",
    "stars": null,
    "number_of_reviews": null,
    "price_level": "",
    "open_hours": "",
    "extraction_timestamp": "2025-06-07T14:02:26.149Z",
    "source_name": "google",
    "source_query": "Irrigation Equipment",
    "source_country": "IR",
    "country": "Iran",
    "state": "Tehran",
    "city": "Robat Karim"
  },
  {
    "source_id": "ChIJ_fLPRAABjj8RSeosiGuijm8",
    "name": "هانترسل",
    "category": "هانترسل",
    "formatted_address": "5,0(2)",
    "phone_number": "+982155808909",
    "source_url": "https://www.google.com/maps/place/%D9%87%D8%A7%D9%86%D8%AA%D8%B1%D8%B3%D9%84%E2%80%AD/data=!4m7!3m6!1s0x3f8e010044cff2fd:0x6f8ea26b882cea49!8m2!3d35.6811685!4d51.4107418!16s%2Fg%2F11vwx4_tj0!19sChIJ_fLPRAABjj8RSeosiGuijm8?authuser=0&hl=tr&rclk=1",
    "website_url": "",
    "rating_text": "5,0",
    "stars": null,
    "number_of_reviews": null,
    "price_level": "",
    "open_hours": "",
    "extraction_timestamp": "2025-06-07T14:02:26.150Z",
    "source_name": "google",
    "source_query": "Irrigation Equipment",
    "source_country": "IR",
    "country": "Iran",
    "state": "Tehran",
    "city": "Robat Karim"
  },
  {
    "source_id": "ChIJMdMfslELkj8R0q291q5pGZA",
    "name": "فروشگاه تصفیه آب آبشار",
    "category": "فروشگاه تصفیه آب آبشار",
    "formatted_address": "5,0(1)",
    "phone_number": "+982156881664",
    "source_url": "https://www.google.com/maps/place/%D9%81%D8%B1%D9%88%D8%B4%DA%AF%D8%A7%D9%87+%D8%AA%D8%B5%D9%81%DB%8C%D9%87+%D8%A2%D8%A8+%D8%A2%D8%A8%D8%B4%D8%A7%D8%B1%E2%80%AD/data=!4m7!3m6!1s0x3f920b51b21fd331:0x901969aed6bdadd2!8m2!3d35.4905934!4d51.0800512!16s%2Fg%2F11rv5c44gw!19sChIJMdMfslELkj8R0q291q5pGZA?authuser=0&hl=tr&rclk=1",
    "website_url": "https://tehranab.com/",
    "rating_text": "5,0",
    "stars": null,
    "number_of_reviews": null,
    "price_level": "",
    "open_hours": "",
    "extraction_timestamp": "2025-06-07T14:02:26.150Z",
    "source_name": "google",
    "source_query": "Irrigation Equipment",
    "source_country": "IR",
    "country": "Iran",
    "state": "Tehran",
    "city": "Robat Karim"
  },
  {
    "source_id": "ChIJTX7yQHn9jT8Rx-n9pDJ-Qxc",
    "name": "Baghkala",
    "category": "Baghkala",
    "formatted_address": "5,0(8)",
    "phone_number": "+982144095961",
    "source_url": "https://www.google.com/maps/place/Baghkala/data=!4m7!3m6!1s0x3f8dfd7940f27e4d:0x17437e32a4fde9c7!8m2!3d35.7420016!4d51.3029226!16s%2Fg%2F11py6t11g6!19sChIJTX7yQHn9jT8Rx-n9pDJ-Qxc?authuser=0&hl=tr&rclk=1",
    "website_url": "http://www.baghkala.ir/",
    "rating_text": "5,0",
    "stars": null,
    "number_of_reviews": null,
    "price_level": "",
    "open_hours": "",
    "extraction_timestamp": "2025-06-07T14:02:26.151Z",
    "source_name": "google",
    "source_query": "Irrigation Equipment",
    "source_country": "IR",
    "country": "Iran",
    "state": "Tehran",
    "city": "Robat Karim"
  },
  {
    "source_id": "ChIJr2pRFQD_jT8RFgWhLKl6zWw",
    "name": "مپتاب شاپ (لوله پلی اتیلن و اتصالات آبیاری)",
    "category": "مپتاب شاپ (لوله پلی اتیلن و اتصالات آبیاری)",
    "formatted_address": "5,0(1)",
    "phone_number": "+982166642248",
    "source_url": "https://www.google.com/maps/place/%D9%85%D9%BE%D8%AA%D8%A7%D8%A8+%D8%B4%D8%A7%D9%BE+%28%D9%84%D9%88%D9%84%D9%87+%D9%BE%D9%84%DB%8C+%D8%A7%D8%AA%DB%8C%D9%84%D9%86+%D9%88+%D8%A7%D8%AA%D8%B5%D8%A7%D9%84%D8%A7%D8%AA+%D8%A2%D8%A8%DB%8C%D8%A7%D8%B1%DB%8C%29%E2%80%AD/data=!4m7!3m6!1s0x3f8dff0015516aaf:0x6ccd7aa92ca10516!8m2!3d35.6649312!4d51.314886!16s%2Fg%2F11vt8t_vpw!19sChIJr2pRFQD_jT8RFgWhLKl6zWw?authuser=0&hl=tr&rclk=1",
    "website_url": "http://www.maptabco.com/",
    "rating_text": "5,0",
    "stars": null,
    "number_of_reviews": null,
    "price_level": "",
    "open_hours": "",
    "extraction_timestamp": "2025-06-07T14:02:26.151Z",
    "source_name": "google",
    "source_query": "Irrigation Equipment",
    "source_country": "IR",
    "country": "Iran",
    "state": "Tehran",
    "city": "Robat Karim"
  },
  {
    "source_id": "ChIJx1BEGwD9kT8R_UErR0FCZjY",
    "name": "فروشگاه نوین قطره (آبچی)",
    "category": "فروشگاه نوین قطره (آبچی)",
    "formatted_address": "5,0(1)",
    "phone_number": "+982133685702",
    "source_url": "https://www.google.com/maps/place/%D9%81%D8%B1%D9%88%D8%B4%DA%AF%D8%A7%D9%87+%D9%86%D9%88%DB%8C%D9%86+%D9%82%D8%B7%D8%B1%D9%87+%28%D8%A2%D8%A8%DA%86%DB%8C%29%E2%80%AD/data=!4m7!3m6!1s0x3f91fd001b4450c7:0x36664241472b41fd!8m2!3d35.6612971!4d51.4762699!16s%2Fg%2F11vrd0dx72!19sChIJx1BEGwD9kT8R_UErR0FCZjY?authuser=0&hl=tr&rclk=1",
    "website_url": "http://www.abchee.ir/",
    "rating_text": "5,0",
    "stars": null,
    "number_of_reviews": null,
    "price_level": "",
    "open_hours": "",
    "extraction_timestamp": "2025-06-07T14:02:26.152Z",
    "source_name": "google",
    "source_query": "Irrigation Equipment",
    "source_country": "IR",
    "country": "Iran",
    "state": "Tehran",
    "city": "Robat Karim"
  },
  {
    "source_id": "ChIJ10h4TAD_jT8Rq1J2dp5UuAw",
    "name": "فروشگاه آریا دریپ",
    "category": "فروشگاه آریا دریپ",
    "formatted_address": "5,0(2)",
    "phone_number": "",
    "source_url": "https://www.google.com/maps/place/%D9%81%D8%B1%D9%88%D8%B4%DA%AF%D8%A7%D9%87+%D8%A2%D8%B1%DB%8C%D8%A7+%D8%AF%D8%B1%DB%8C%D9%BE%E2%80%AD/data=!4m7!3m6!1s0x3f8dff004c7848d7:0xcb8549e767652ab!8m2!3d35.6626366!4d51.3126373!16s%2Fg%2F11y38yblb6!19sChIJ10h4TAD_jT8Rq1J2dp5UuAw?authuser=0&hl=tr&rclk=1",
    "website_url": "",
    "rating_text": "5,0",
    "stars": null,
    "number_of_reviews": null,
    "price_level": "",
    "open_hours": "",
    "extraction_timestamp": "2025-06-07T14:02:26.152Z",
    "source_name": "google",
    "source_query": "Irrigation Equipment",
    "source_country": "IR",
    "country": "Iran",
    "state": "Tehran",
    "city": "Robat Karim"
  },
  {
    "source_id": "ChIJ3we4TwABjj8Ri4Wncc55SHU",
    "name": "ایران قطره (مرکز فروش لوازم آبیاری قطره ای)",
    "category": "ایران قطره (مرکز فروش لوازم آبیاری قطره ای)",
    "formatted_address": "5,0(13)",
    "phone_number": "+982188725404",
    "source_url": "https://www.google.com/maps/place/%D8%A7%DB%8C%D8%B1%D8%A7%D9%86+%D9%82%D8%B7%D8%B1%D9%87+%28%D9%85%D8%B1%DA%A9%D8%B2+%D9%81%D8%B1%D9%88%D8%B4+%D9%84%D9%88%D8%A7%D8%B2%D9%85+%D8%A2%D8%A8%DB%8C%D8%A7%D8%B1%DB%8C+%D9%82%D8%B7%D8%B1%D9%87+%D8%A7%DB%8C%29%E2%80%AD/data=!4m7!3m6!1s0x3f8e01004fb807df:0x754879ce71a7858b!8m2!3d35.7247228!4d51.4079436!16s%2Fg%2F11y46_nc4y!19sChIJ3we4TwABjj8Ri4Wncc55SHU?authuser=0&hl=tr&rclk=1",
    "website_url": "",
    "rating_text": "5,0",
    "stars": null,
    "number_of_reviews": null,
    "price_level": "",
    "open_hours": "",
    "extraction_timestamp": "2025-06-07T14:02:26.152Z",
    "source_name": "google",
    "source_query": "Irrigation Equipment",
    "source_country": "IR",
    "country": "Iran",
    "state": "Tehran",
    "city": "Robat Karim"
  },
  {
    "source_id": "ChIJK6ThE9P_jT8R5fyTwviNcEE",
    "name": "بارمان تجهیز | مرجع تخصصی آبیاری",
    "category": "بارمان تجهیز | مرجع تخصصی آبیاری",
    "formatted_address": "5,0(2)",
    "phone_number": "+982144535028",
    "source_url": "https://www.google.com/maps/place/%D8%A8%D8%A7%D8%B1%D9%85%D8%A7%D9%86+%D8%AA%D8%AC%D9%87%DB%8C%D8%B2+%7C+%D9%85%D8%B1%D8%AC%D8%B9+%D8%AA%D8%AE%D8%B5%D8%B5%DB%8C+%D8%A2%D8%A8%DB%8C%D8%A7%D8%B1%DB%8C%E2%80%AD/data=!4m7!3m6!1s0x3f8dffd313e1a42b:0x41708df8c293fce5!8m2!3d35.668366!4d51.3164668!16s%2Fg%2F11t3z6x53b!19sChIJK6ThE9P_jT8R5fyTwviNcEE?authuser=0&hl=tr&rclk=1",
    "website_url": "https://barmant.com/",
    "rating_text": "5,0",
    "stars": null,
    "number_of_reviews": null,
    "price_level": "",
    "open_hours": "",
    "extraction_timestamp": "2025-06-07T14:02:26.153Z",
    "source_name": "google",
    "source_query": "Irrigation Equipment",
    "source_country": "IR",
    "country": "Iran",
    "state": "Tehran",
    "city": "Robat Karim"
  },
  {
    "source_id": "ChIJBb3QBgAFjj8RsUO02DeokOU",
    "name": "آبیاری هوشمند تهران",
    "category": "آبیاری هوشمند تهران",
    "formatted_address": "Sulama Ekipmanları Tedarikçisi · طبقه ۲، پلاک ۲۰۵, Heravi Square, مجتمع تجاری گلستانAçık ⋅ Kapanış saati: 21:00 · +98 21 3382 6812",
    "phone_number": "+982133826812",
    "source_url": "https://www.google.com/maps/place/%D8%A2%D8%A8%DB%8C%D8%A7%D8%B1%DB%8C+%D9%87%D9%88%D8%B4%D9%85%D9%86%D8%AF+%D8%AA%D9%87%D8%B1%D8%A7%D9%86%E2%80%AD/data=!4m7!3m6!1s0x3f8e050006d0bd05:0xe590a837d8b443b1!8m2!3d35.7670684!4d51.4780966!16s%2Fg%2F11mdkhfkqg!19sChIJBb3QBgAFjj8RsUO02DeokOU?authuser=0&hl=tr&rclk=1",
    "website_url": "https://www.smartirrigation.ir/",
    "rating_text": "",
    "stars": null,
    "number_of_reviews": null,
    "price_level": "",
    "open_hours": "",
    "extraction_timestamp": "2025-06-07T14:02:26.153Z",
    "source_name": "google",
    "source_query": "Irrigation Equipment",
    "source_country": "IR",
    "country": "Iran",
    "state": "Tehran",
    "city": "Robat Karim"
  },
  {
    "source_id": "ChIJczzAZiH_jT8RenifTR1Z4oE",
    "name": "Allver Center",
    "category": "Allver Center",
    "formatted_address": "5,0(2)",
    "phone_number": "+989339765265",
    "source_url": "https://www.google.com/maps/place/Allver+Center/data=!4m7!3m6!1s0x3f8dff2166c03c73:0x81e2591d4d9f787a!8m2!3d35.6651712!4d51.3161385!16s%2Fg%2F11h4b7n8g6!19sChIJczzAZiH_jT8RenifTR1Z4oE?authuser=0&hl=tr&rclk=1",
    "website_url": "https://allver.center/",
    "rating_text": "5,0",
    "stars": null,
    "number_of_reviews": null,
    "price_level": "",
    "open_hours": "",
    "extraction_timestamp": "2025-06-07T14:02:26.154Z",
    "source_name": "google",
    "source_query": "Irrigation Equipment",
    "source_country": "IR",
    "country": "Iran",
    "state": "Tehran",
    "city": "Robat Karim"
  },
  {
    "source_id": "ChIJA_fPlzULkj8RBOpED6-zPiY",
    "name": "Single water water purifier",
    "category": "Single water water purifier",
    "formatted_address": "4,8(5)",
    "phone_number": "+989122476199",
    "source_url": "https://www.google.com/maps/place/Single+water+water+purifier/data=!4m7!3m6!1s0x3f920b3597cff703:0x263eb3af0f44ea04!8m2!3d35.4774763!4d51.0734146!16s%2Fg%2F11ph73cdsj!19sChIJA_fPlzULkj8RBOpED6-zPiY?authuser=0&hl=tr&rclk=1",
    "website_url": "",
    "rating_text": "4,8",
    "stars": null,
    "number_of_reviews": null,
    "price_level": "",
    "open_hours": "",
    "extraction_timestamp": "2025-06-07T14:02:26.154Z",
    "source_name": "google",
    "source_query": "Irrigation Equipment",
    "source_country": "IR",
    "country": "Iran",
    "state": "Tehran",
    "city": "Robat Karim"
  },
  {
    "source_id": "ChIJVSeQOQADjj8RggR1pHvp7DA",
    "name": "Besaco",
    "category": "Besaco",
    "formatted_address": "Sulama Ekipmanları Tedarikçisi · W Golbarg St, PFJM+HJX",
    "phone_number": "",
    "source_url": "https://www.google.com/maps/place/Besaco/data=!4m7!3m6!1s0x3f8e030039902755:0x30ece97ba4750482!8m2!3d35.7314756!4d51.4840781!16s%2Fg%2F11wj6xg0py!19sChIJVSeQOQADjj8RggR1pHvp7DA?authuser=0&hl=tr&rclk=1",
    "website_url": "",
    "rating_text": "",
    "stars": null,
    "number_of_reviews": null,
    "price_level": "",
    "open_hours": "",
    "extraction_timestamp": "2025-06-07T14:02:26.154Z",
    "source_name": "google",
    "source_query": "Irrigation Equipment",
    "source_country": "IR",
    "country": "Iran",
    "state": "Tehran",
    "city": "Robat Karim"
  },
  {
    "source_id": "ChIJUTjEnUABjj8RwU4etySi16k",
    "name": "Chegalab",
    "category": "Chegalab",
    "formatted_address": "Sulama Ekipmanları Tedarikçisi · Parastoo Alley, PC96+G2X+98 21 6641 1396",
    "phone_number": "+982166411396",
    "source_url": "https://www.google.com/maps/place/Chegalab/data=!4m7!3m6!1s0x3f8e01409dc43851:0xa9d7a224b71e4ec1!8m2!3d35.7188671!4d51.4101023!16s%2Fg%2F11j48hjv82!19sChIJUTjEnUABjj8RwU4etySi16k?authuser=0&hl=tr&rclk=1",
    "website_url": "",
    "rating_text": "",
    "stars": null,
    "number_of_reviews": null,
    "price_level": "",
    "open_hours": "",
    "extraction_timestamp": "2025-06-07T14:02:26.155Z",
    "source_name": "google",
    "source_query": "Irrigation Equipment",
    "source_country": "IR",
    "country": "Iran",
    "state": "Tehran",
    "city": "Robat Karim"
  },
  {
    "source_id": "ChIJsYE5nbH_jT8Rw5YYeOLBO8g",
    "name": "پارسینا تجهیز",
    "category": "پارسینا تجهیز",
    "formatted_address": "5,0(1)",
    "phone_number": "+982166207898",
    "source_url": "https://www.google.com/maps/place/%D9%BE%D8%A7%D8%B1%D8%B3%DB%8C%D9%86%D8%A7+%D8%AA%D8%AC%D9%87%DB%8C%D8%B2%E2%80%AD/data=!4m7!3m6!1s0x3f8dffb19d3981b1:0xc83bc1e2781896c3!8m2!3d35.6609239!4d51.3178597!16s%2Fg%2F11hjdx6f05!19sChIJsYE5nbH_jT8Rw5YYeOLBO8g?authuser=0&hl=tr&rclk=1",
    "website_url": "https://parsinatajhiz.ir/",
    "rating_text": "5,0",
    "stars": null,
    "number_of_reviews": null,
    "price_level": "",
    "open_hours": "",
    "extraction_timestamp": "2025-06-07T14:02:26.155Z",
    "source_name": "google",
    "source_query": "Irrigation Equipment",
    "source_country": "IR",
    "country": "Iran",
    "state": "Tehran",
    "city": "Robat Karim"
  },
  {
    "source_id": "ChIJBX6P-O8Ajj8Rb92LNcDwgUs",
    "name": "Wateractive",
    "category": "Wateractive",
    "formatted_address": "5,0(1)",
    "phone_number": "+982166381156",
    "source_url": "https://www.google.com/maps/place/Wateractive/data=!4m7!3m6!1s0x3f8e00eff88f7e05:0x4b81f0c0358bdd6f!8m2!3d35.6947087!4d51.3784408!16s%2Fg%2F11b7f0v__6!19sChIJBX6P-O8Ajj8Rb92LNcDwgUs?authuser=0&hl=tr&rclk=1",
    "website_url": "http://abfaal.com/",
    "rating_text": "5,0",
    "stars": null,
    "number_of_reviews": null,
    "price_level": "",
    "open_hours": "",
    "extraction_timestamp": "2025-06-07T14:02:26.156Z",
    "source_name": "google",
    "source_query": "Irrigation Equipment",
    "source_country": "IR",
    "country": "Iran",
    "state": "Tehran",
    "city": "Robat Karim"
  },
  {
    "source_id": "ChIJeUl4VeIBjj8RD2-rYqBVtfI",
    "name": "Abankala",
    "category": "Abankala",
    "formatted_address": "",
    "phone_number": "+982133906522",
    "source_url": "https://www.google.com/maps/place/Abankala/data=!4m7!3m6!1s0x3f8e01e255784979:0xf2b555a062ab6f0f!8m2!3d35.6836298!4d51.420451!16s%2Fg%2F11rypqyrfk!19sChIJeUl4VeIBjj8RD2-rYqBVtfI?authuser=0&hl=tr&rclk=1",
    "website_url": "",
    "rating_text": "",
    "stars": null,
    "number_of_reviews": null,
    "price_level": "",
    "open_hours": "",
    "extraction_timestamp": "2025-06-07T14:02:26.156Z",
    "source_name": "google",
    "source_query": "Irrigation Equipment",
    "source_country": "IR",
    "country": "Iran",
    "state": "Tehran",
    "city": "Robat Karim"
  },
  {
    "source_id": "ChIJk_ivm8sBjj8RVl3U81uTfpU",
    "name": "پاساژ سعدی قدیم",
    "category": "پاساژ سعدی قدیم",
    "formatted_address": "4,4(22)",
    "phone_number": "+982133953449",
    "source_url": "https://www.google.com/maps/place/%D9%BE%D8%A7%D8%B3%D8%A7%DA%98+%D8%B3%D8%B9%D8%AF%DB%8C+%D9%82%D8%AF%DB%8C%D9%85%E2%80%AD/data=!4m7!3m6!1s0x3f8e01cb9baff893:0x957e935bf3d45d56!8m2!3d35.6890838!4d51.4243533!16s%2Fg%2F11v15dzrqj!19sChIJk_ivm8sBjj8RVl3U81uTfpU?authuser=0&hl=tr&rclk=1",
    "website_url": "",
    "rating_text": "4,4",
    "stars": null,
    "number_of_reviews": null,
    "price_level": "",
    "open_hours": "",
    "extraction_timestamp": "2025-06-07T14:02:26.156Z",
    "source_name": "google",
    "source_query": "Irrigation Equipment",
    "source_country": "IR",
    "country": "Iran",
    "state": "Tehran",
    "city": "Robat Karim"
  },
  {
    "source_id": "ChIJ93-rbTABjj8R-QejUACjJzw",
    "name": "تجهیزات کافی شاپ - شرکت گام نو - تجهیزات کافه گام نو",
    "category": "تجهیزات کافی شاپ - شرکت گام نو - تجهیزات کافه گام نو",
    "formatted_address": "4,7(43)",
    "phone_number": "+982166988146",
    "source_url": "https://www.google.com/maps/place/%D8%AA%D8%AC%D9%87%DB%8C%D8%B2%D8%A7%D8%AA+%DA%A9%D8%A7%D9%81%DB%8C+%D8%B4%D8%A7%D9%BE+-+%D8%B4%D8%B1%DA%A9%D8%AA+%DA%AF%D8%A7%D9%85+%D9%86%D9%88+-+%D8%AA%D8%AC%D9%87%DB%8C%D8%B2%D8%A7%D8%AA+%DA%A9%D8%A7%D9%81%D9%87+%DA%AF%D8%A7%D9%85+%D9%86%D9%88%E2%80%AD/data=!4m7!3m6!1s0x3f8e01306dab7ff7:0x3c27a30050a307f9!8m2!3d35.7224385!4d51.400909!16s%2Fg%2F11hbg7zs6d!19sChIJ93-rbTABjj8R-QejUACjJzw?authuser=0&hl=tr&rclk=1",
    "website_url": "http://www.gaameno.com/",
    "rating_text": "4,7",
    "stars": null,
    "number_of_reviews": null,
    "price_level": "",
    "open_hours": "",
    "extraction_timestamp": "2025-06-07T14:02:26.157Z",
    "source_name": "google",
    "source_query": "Irrigation Equipment",
    "source_country": "IR",
    "country": "Iran",
    "state": "Tehran",
    "city": "Robat Karim"
  },
  {
    "source_id": "ChIJdbRKgzwHjj8R1ZP4__umUDE",
    "name": "petiland petshop",
    "category": "petiland petshop",
    "formatted_address": "4,3(8)",
    "phone_number": "",
    "source_url": "https://www.google.com/maps/place/petiland+petshop/data=!4m7!3m6!1s0x3f8e073c834ab475:0x3150a6fbfff893d5!8m2!3d35.778588!4d51.360444!16s%2Fg%2F11ffv6rpbk!19sChIJdbRKgzwHjj8R1ZP4__umUDE?authuser=0&hl=tr&rclk=1",
    "website_url": "",
    "rating_text": "4,3",
    "stars": null,
    "number_of_reviews": null,
    "price_level": "",
    "open_hours": "",
    "extraction_timestamp": "2025-06-07T14:02:26.157Z",
    "source_name": "google",
    "source_query": "Irrigation Equipment",
    "source_country": "IR",
    "country": "Iran",
    "state": "Tehran",
    "city": "Robat Karim"
  },
  {
    "source_id": "ChIJWTGNa6oOkj8RFRXBHR0g3gA",
    "name": "Robat PVC Granule Co.",
    "category": "Robat PVC Granule Co.",
    "formatted_address": "5,0(1)",
    "phone_number": "+982156887798",
    "source_url": "https://www.google.com/maps/place/Robat+PVC+Granule+Co./data=!4m7!3m6!1s0x3f920eaa6b8d3159:0xde201d1dc11515!8m2!3d35.4631227!4d51.0970213!16s%2Fg%2F11c2r4_2v5!19sChIJWTGNa6oOkj8RFRXBHR0g3gA?authuser=0&hl=tr&rclk=1",
    "website_url": "",
    "rating_text": "5,0",
    "stars": null,
    "number_of_reviews": null,
    "price_level": "",
    "open_hours": "",
    "extraction_timestamp": "2025-06-07T14:02:26.158Z",
    "source_name": "google",
    "source_query": "Irrigation Equipment",
    "source_country": "IR",
    "country": "Iran",
    "state": "Tehran",
    "city": "Robat Karim"
  },
  {
    "source_id": "ChIJQ0GeMgD9jT8RVPtGD9Bslls",
    "name": "کافه برد گیم کهکشان",
    "category": "کافه برد گیم کهکشان",
    "formatted_address": "5,0(2)",
    "phone_number": "+982144084040",
    "source_url": "https://www.google.com/maps/place/%DA%A9%D8%A7%D9%81%D9%87+%D8%A8%D8%B1%D8%AF+%DA%AF%DB%8C%D9%85+%DA%A9%D9%87%DA%A9%D8%B4%D8%A7%D9%86%E2%80%AD/data=!4m7!3m6!1s0x3f8dfd00329e4143:0x5b966cd00f46fb54!8m2!3d35.72215!4d51.3336916!16s%2Fg%2F11x6ks9fld!19sChIJQ0GeMgD9jT8RVPtGD9Bslls?authuser=0&hl=tr&rclk=1",
    "website_url": "https://kahkeshancafe.ir/",
    "rating_text": "5,0",
    "stars": null,
    "number_of_reviews": null,
    "price_level": "",
    "open_hours": "",
    "extraction_timestamp": "2025-06-07T14:02:26.158Z",
    "source_name": "google",
    "source_query": "Irrigation Equipment",
    "source_country": "IR",
    "country": "Iran",
    "state": "Tehran",
    "city": "Robat Karim"
  },
  {
    "source_id": "ChIJx6uKMnn9jT8REzwumq8fsps",
    "name": "قهوه سنت",
    "category": "قهوه سنت",
    "formatted_address": "5,0(2)",
    "phone_number": "+989108617663",
    "source_url": "https://www.google.com/maps/place/%D9%82%D9%87%D9%88%D9%87+%D8%B3%D9%86%D8%AA%E2%80%AD/data=!4m7!3m6!1s0x3f8dfd79328aabc7:0x9bb21faf9a2e3c13!8m2!3d35.7173655!4d51.3314161!16s%2Fg%2F11ss57lr1r!19sChIJx6uKMnn9jT8REzwumq8fsps?authuser=0&hl=tr&rclk=1",
    "website_url": "https://scentcoffee.com/",
    "rating_text": "5,0",
    "stars": null,
    "number_of_reviews": null,
    "price_level": "",
    "open_hours": "",
    "extraction_timestamp": "2025-06-07T14:02:26.158Z",
    "source_name": "google",
    "source_query": "Irrigation Equipment",
    "source_country": "IR",
    "country": "Iran",
    "state": "Tehran",
    "city": "Robat Karim"
  },
  {
    "source_id": "ChIJf00L4PH9jT8RgsHZzEmE3P0",
    "name": "سوپر پروتئین بیستون",
    "category": "سوپر پروتئین بیستون",
    "formatted_address": "5,0(3)",
    "phone_number": "+982144960184",
    "source_url": "https://www.google.com/maps/place/%D8%B3%D9%88%D9%BE%D8%B1+%D9%BE%D8%B1%D9%88%D8%AA%D8%A6%DB%8C%D9%86+%D8%A8%DB%8C%D8%B3%D8%AA%D9%88%D9%86%E2%80%AD/data=!4m7!3m6!1s0x3f8dfdf1e00b4d7f:0xfddc8449ccd9c182!8m2!3d35.7240716!4d51.332122!16s%2Fg%2F11fhv43jqn!19sChIJf00L4PH9jT8RgsHZzEmE3P0?authuser=0&hl=tr&rclk=1",
    "website_url": "",
    "rating_text": "5,0",
    "stars": null,
    "number_of_reviews": null,
    "price_level": "",
    "open_hours": "",
    "extraction_timestamp": "2025-06-07T14:02:26.159Z",
    "source_name": "google",
    "source_query": "Irrigation Equipment",
    "source_country": "IR",
    "country": "Iran",
    "state": "Tehran",
    "city": "Robat Karim"
  },
  {
    "source_id": "ChIJE6MZZPsLkj8RsQNrP2MvkC4",
    "name": "نیما",
    "category": "نیما",
    "formatted_address": "5,0(3)",
    "phone_number": "+989102776246",
    "source_url": "https://www.google.com/maps/place/%D9%86%DB%8C%D9%85%D8%A7%E2%80%AD/data=!4m7!3m6!1s0x3f920bfb6419a313:0x2e902f633f6b03b1!8m2!3d35.4714125!4d51.0853487!16s%2Fg%2F11v5x82__g!19sChIJE6MZZPsLkj8RsQNrP2MvkC4?authuser=0&hl=tr&rclk=1",
    "website_url": "",
    "rating_text": "5,0",
    "stars": null,
    "number_of_reviews": null,
    "price_level": "",
    "open_hours": "",
    "extraction_timestamp": "2025-06-07T14:02:26.159Z",
    "source_name": "google",
    "source_query": "Irrigation Equipment",
    "source_country": "IR",
    "country": "Iran",
    "state": "Tehran",
    "city": "Robat Karim"
  },
  {
    "source_id": "ChIJSxyRJwEBjj8RuFacRD7EufU",
    "name": "فروشگاه الکترو موتور بابایی",
    "category": "فروشگاه الکترو موتور بابایی",
    "formatted_address": "4,0(1)",
    "phone_number": "+989125101554",
    "source_url": "https://www.google.com/maps/place/%D9%81%D8%B1%D9%88%D8%B4%DA%AF%D8%A7%D9%87+%D8%A7%D9%84%DA%A9%D8%AA%D8%B1%D9%88+%D9%85%D9%88%D8%AA%D9%88%D8%B1+%D8%A8%D8%A7%D8%A8%D8%A7%DB%8C%DB%8C%E2%80%AD/data=!4m7!3m6!1s0x3f8e010127911c4b:0xf5b9c43e449c56b8!8m2!3d35.6890225!4d51.4250658!16s%2Fg%2F11svwsc2ds!19sChIJSxyRJwEBjj8RuFacRD7EufU?authuser=0&hl=tr&rclk=1",
    "website_url": "",
    "rating_text": "4,0",
    "stars": null,
    "number_of_reviews": null,
    "price_level": "",
    "open_hours": "",
    "extraction_timestamp": "2025-06-07T14:02:26.159Z",
    "source_name": "google",
    "source_query": "Irrigation Equipment",
    "source_country": "IR",
    "country": "Iran",
    "state": "Tehran",
    "city": "Robat Karim"
  },
  {
    "source_id": "ChIJG_N-WqL_jT8RR7nTt-C7ErA",
    "name": "تاسیسات آبسان",
    "category": "تاسیسات آبسان",
    "formatted_address": "5,0(1)",
    "phone_number": "+982166652302",
    "source_url": "https://www.google.com/maps/place/%D8%AA%D8%A7%D8%B3%DB%8C%D8%B3%D8%A7%D8%AA+%D8%A2%D8%A8%D8%B3%D8%A7%D9%86%E2%80%AD/data=!4m7!3m6!1s0x3f8dffa25a7ef31b:0xb012bbe0b7d3b947!8m2!3d35.6653233!4d51.3162526!16s%2Fg%2F11jh_5cvs3!19sChIJG_N-WqL_jT8RR7nTt-C7ErA?authuser=0&hl=tr&rclk=1",
    "website_url": "",
    "rating_text": "5,0",
    "stars": null,
    "number_of_reviews": null,
    "price_level": "",
    "open_hours": "",
    "extraction_timestamp": "2025-06-07T14:02:26.160Z",
    "source_name": "google",
    "source_query": "Irrigation Equipment",
    "source_country": "IR",
    "country": "Iran",
    "state": "Tehran",
    "city": "Robat Karim"
  },
  {
    "source_id": "ChIJmRU7ZKsLkj8RkZ0jCjX6YXA",
    "name": "فروش دستگاه تصفیه آب نیل واتر",
    "category": "فروش دستگاه تصفیه آب نیل واتر",
    "formatted_address": "5,0(1)",
    "phone_number": "+982156931603",
    "source_url": "https://www.google.com/maps/place/%D9%81%D8%B1%D9%88%D8%B4+%D8%AF%D8%B3%D8%AA%DA%AF%D8%A7%D9%87+%D8%AA%D8%B5%D9%81%DB%8C%D9%87+%D8%A2%D8%A8+%D9%86%DB%8C%D9%84+%D9%88%D8%A7%D8%AA%D8%B1%E2%80%AD/data=!4m7!3m6!1s0x3f920bab643b1599:0x7061fa350a239d91!8m2!3d35.4815812!4d51.0809097!16s%2Fg%2F11s0s45_w0!19sChIJmRU7ZKsLkj8RkZ0jCjX6YXA?authuser=0&hl=tr&rclk=1",
    "website_url": "",
    "rating_text": "5,0",
    "stars": null,
    "number_of_reviews": null,
    "price_level": "",
    "open_hours": "",
    "extraction_timestamp": "2025-06-07T14:02:26.160Z",
    "source_name": "google",
    "source_query": "Irrigation Equipment",
    "source_country": "IR",
    "country": "Iran",
    "state": "Tehran",
    "city": "Robat Karim"
  },
  {
    "source_id": "ChIJY8Q1k88Bjj8Rrqpjnhd3B1A",
    "name": "Iranzamin pet shop",
    "category": "Iranzamin pet shop",
    "formatted_address": "4,7(26)",
    "phone_number": "+982166593204",
    "source_url": "https://www.google.com/maps/place/Iranzamin+pet+shop/data=!4m7!3m6!1s0x3f8e01cf9335c463:0x500777179e63aaae!8m2!3d35.7042523!4d51.3791062!16s%2Fg%2F11hzmpj9ff!19sChIJY8Q1k88Bjj8Rrqpjnhd3B1A?authuser=0&hl=tr&rclk=1",
    "website_url": "https://iranzaminpetshop.com/",
    "rating_text": "4,7",
    "stars": null,
    "number_of_reviews": null,
    "price_level": "",
    "open_hours": "",
    "extraction_timestamp": "2025-06-07T14:02:26.160Z",
    "source_name": "google",
    "source_query": "Irrigation Equipment",
    "source_country": "IR",
    "country": "Iran",
    "state": "Tehran",
    "city": "Robat Karim"
  },
  {
    "source_id": "ChIJm_kYCFv9jT8RyZD1yjPmNJg",
    "name": "سوپر مارکت تام آی",
    "category": "سوپر مارکت تام آی",
    "formatted_address": "4,0(3)",
    "phone_number": "+982144226884",
    "source_url": "https://www.google.com/maps/place/%D8%B3%D9%88%D9%BE%D8%B1+%D9%85%D8%A7%D8%B1%DA%A9%D8%AA+%D8%AA%D8%A7%D9%85+%D8%A2%DB%8C%E2%80%AD/data=!4m7!3m6!1s0x3f8dfd5b0818f99b:0x9834e633caf590c9!8m2!3d35.7265721!4d51.33692!16s%2Fg%2F11fszhkwcc!19sChIJm_kYCFv9jT8RyZD1yjPmNJg?authuser=0&hl=tr&rclk=1",
    "website_url": "",
    "rating_text": "4,0",
    "stars": null,
    "number_of_reviews": null,
    "price_level": "",
    "open_hours": "",
    "extraction_timestamp": "2025-06-07T14:02:26.161Z",
    "source_name": "google",
    "source_query": "Irrigation Equipment",
    "source_country": "IR",
    "country": "Iran",
    "state": "Tehran",
    "city": "Robat Karim"
  },
  {
    "source_id": "ChIJtVTWSuz9jT8RF5MVC0usqsk",
    "name": "Narina Cafe",
    "category": "Narina Cafe",
    "formatted_address": "3,5(77) · 1–1,5 Mn IRR",
    "phone_number": "+982144030906",
    "source_url": "https://www.google.com/maps/place/Narina+Cafe/data=!4m7!3m6!1s0x3f8dfdec4ad654b5:0xc9aaac4b0b159317!8m2!3d35.7207185!4d51.3337868!16s%2Fg%2F11b7lmp187!19sChIJtVTWSuz9jT8RF5MVC0usqsk?authuser=0&hl=tr&rclk=1",
    "website_url": "https://instagram.com/narinacafe?igshid=tirqdszvat55",
    "rating_text": "3,5",
    "stars": null,
    "number_of_reviews": null,
    "price_level": "",
    "open_hours": "",
    "extraction_timestamp": "2025-06-07T14:02:26.161Z",
    "source_name": "google",
    "source_query": "Irrigation Equipment",
    "source_country": "IR",
    "country": "Iran",
    "state": "Tehran",
    "city": "Robat Karim"
  }
]
