[
  {
    "source_id": "ChIJS7-osl0Bjj8R84DcdIl7k_8",
    "name": "Irrigation and Farming Company Aria Tib",
    "category": "Irrigation and Farming Company Aria Tib",
    "formatted_address": "4,7(7)",
    "phone_number": "+982188845454",
    "source_url": "https://www.google.com/maps/place/Irrigation+and+Farming+Company+Aria+Tib/data=!4m7!3m6!1s0x3f8e015db2a8bf4b:0xff937b8974dc80f3!8m2!3d35.7232298!4d51.4237588!16s%2Fg%2F11f0kvhyt6!19sChIJS7-osl0Bjj8R84DcdIl7k_8?authuser=0&hl=tr&rclk=1",
    "website_url": "",
    "rating_text": "4,7",
    "stars": null,
    "number_of_reviews": null,
    "price_level": "",
    "open_hours": "",
    "extraction_timestamp": "2025-06-07T14:06:46.048Z",
    "source_name": "google",
    "source_query": "Irrigation Equipment",
    "source_country": "IR",
    "country": "Iran",
    "state": "Tehran",
    "city": "Shahrak-e Emam Hasan"
  },
  {
    "source_id": "ChIJ3we4TwABjj8Ri4Wncc55SHU",
    "name": "ایران قطره (مرکز فروش لوازم آبیاری قطره ای)",
    "category": "ایران قطره (مرکز فروش لوازم آبیاری قطره ای)",
    "formatted_address": "5,0(13)",
    "phone_number": "+982188725404",
    "source_url": "https://www.google.com/maps/place/%D8%A7%DB%8C%D8%B1%D8%A7%D9%86+%D9%82%D8%B7%D8%B1%D9%87+%28%D9%85%D8%B1%DA%A9%D8%B2+%D9%81%D8%B1%D9%88%D8%B4+%D9%84%D9%88%D8%A7%D8%B2%D9%85+%D8%A2%D8%A8%DB%8C%D8%A7%D8%B1%DB%8C+%D9%82%D8%B7%D8%B1%D9%87+%D8%A7%DB%8C%29%E2%80%AD/data=!4m7!3m6!1s0x3f8e01004fb807df:0x754879ce71a7858b!8m2!3d35.7247228!4d51.4079436!16s%2Fg%2F11y46_nc4y!19sChIJ3we4TwABjj8Ri4Wncc55SHU?authuser=0&hl=tr&rclk=1",
    "website_url": "",
    "rating_text": "5,0",
    "stars": null,
    "number_of_reviews": null,
    "price_level": "",
    "open_hours": "",
    "extraction_timestamp": "2025-06-07T14:06:46.048Z",
    "source_name": "google",
    "source_query": "Irrigation Equipment",
    "source_country": "IR",
    "country": "Iran",
    "state": "Tehran",
    "city": "Shahrak-e Emam Hasan"
  },
  {
    "source_id": "ChIJM14qyZQGjj8REzFOag3oADM",
    "name": "kamco",
    "category": "kamco",
    "formatted_address": "5,0(1)",
    "phone_number": "+982188225302",
    "source_url": "https://www.google.com/maps/place/kamco/data=!4m7!3m6!1s0x3f8e0694c92a5e33:0x3300e80d6a4e3113!8m2!3d35.7235012!4d51.4019769!16s%2Fg%2F11b6d0knrt!19sChIJM14qyZQGjj8REzFOag3oADM?authuser=0&hl=tr&rclk=1",
    "website_url": "",
    "rating_text": "5,0",
    "stars": null,
    "number_of_reviews": null,
    "price_level": "",
    "open_hours": "",
    "extraction_timestamp": "2025-06-07T14:06:46.049Z",
    "source_name": "google",
    "source_query": "Irrigation Equipment",
    "source_country": "IR",
    "country": "Iran",
    "state": "Tehran",
    "city": "Shahrak-e Emam Hasan"
  },
  {
    "source_id": "ChIJ_fLPRAABjj8RSeosiGuijm8",
    "name": "هانترسل",
    "category": "هانترسل",
    "formatted_address": "5,0(2)",
    "phone_number": "+982155808909",
    "source_url": "https://www.google.com/maps/place/%D9%87%D8%A7%D9%86%D8%AA%D8%B1%D8%B3%D9%84%E2%80%AD/data=!4m7!3m6!1s0x3f8e010044cff2fd:0x6f8ea26b882cea49!8m2!3d35.6811685!4d51.4107418!16s%2Fg%2F11vwx4_tj0!19sChIJ_fLPRAABjj8RSeosiGuijm8?authuser=0&hl=tr&rclk=1",
    "website_url": "",
    "rating_text": "5,0",
    "stars": null,
    "number_of_reviews": null,
    "price_level": "",
    "open_hours": "",
    "extraction_timestamp": "2025-06-07T14:06:46.049Z",
    "source_name": "google",
    "source_query": "Irrigation Equipment",
    "source_country": "IR",
    "country": "Iran",
    "state": "Tehran",
    "city": "Shahrak-e Emam Hasan"
  },
  {
    "source_id": "ChIJ10h4TAD_jT8Rq1J2dp5UuAw",
    "name": "فروشگاه آریا دریپ",
    "category": "فروشگاه آریا دریپ",
    "formatted_address": "5,0(2)",
    "phone_number": "",
    "source_url": "https://www.google.com/maps/place/%D9%81%D8%B1%D9%88%D8%B4%DA%AF%D8%A7%D9%87+%D8%A2%D8%B1%DB%8C%D8%A7+%D8%AF%D8%B1%DB%8C%D9%BE%E2%80%AD/data=!4m7!3m6!1s0x3f8dff004c7848d7:0xcb8549e767652ab!8m2!3d35.6626366!4d51.3126373!16s%2Fg%2F11y38yblb6!19sChIJ10h4TAD_jT8Rq1J2dp5UuAw?authuser=0&hl=tr&rclk=1",
    "website_url": "",
    "rating_text": "5,0",
    "stars": null,
    "number_of_reviews": null,
    "price_level": "",
    "open_hours": "",
    "extraction_timestamp": "2025-06-07T14:06:46.050Z",
    "source_name": "google",
    "source_query": "Irrigation Equipment",
    "source_country": "IR",
    "country": "Iran",
    "state": "Tehran",
    "city": "Shahrak-e Emam Hasan"
  },
  {
    "source_id": "ChIJK6ThE9P_jT8R5fyTwviNcEE",
    "name": "بارمان تجهیز | مرجع تخصصی آبیاری",
    "category": "بارمان تجهیز | مرجع تخصصی آبیاری",
    "formatted_address": "5,0(2)",
    "phone_number": "+982144535028",
    "source_url": "https://www.google.com/maps/place/%D8%A8%D8%A7%D8%B1%D9%85%D8%A7%D9%86+%D8%AA%D8%AC%D9%87%DB%8C%D8%B2+%7C+%D9%85%D8%B1%D8%AC%D8%B9+%D8%AA%D8%AE%D8%B5%D8%B5%DB%8C+%D8%A2%D8%A8%DB%8C%D8%A7%D8%B1%DB%8C%E2%80%AD/data=!4m7!3m6!1s0x3f8dffd313e1a42b:0x41708df8c293fce5!8m2!3d35.668366!4d51.3164668!16s%2Fg%2F11t3z6x53b!19sChIJK6ThE9P_jT8R5fyTwviNcEE?authuser=0&hl=tr&rclk=1",
    "website_url": "https://barmant.com/",
    "rating_text": "5,0",
    "stars": null,
    "number_of_reviews": null,
    "price_level": "",
    "open_hours": "",
    "extraction_timestamp": "2025-06-07T14:06:46.050Z",
    "source_name": "google",
    "source_query": "Irrigation Equipment",
    "source_country": "IR",
    "country": "Iran",
    "state": "Tehran",
    "city": "Shahrak-e Emam Hasan"
  },
  {
    "source_id": "ChIJr2pRFQD_jT8RFgWhLKl6zWw",
    "name": "مپتاب شاپ (لوله پلی اتیلن و اتصالات آبیاری)",
    "category": "مپتاب شاپ (لوله پلی اتیلن و اتصالات آبیاری)",
    "formatted_address": "5,0(1)",
    "phone_number": "+982166642248",
    "source_url": "https://www.google.com/maps/place/%D9%85%D9%BE%D8%AA%D8%A7%D8%A8+%D8%B4%D8%A7%D9%BE+%28%D9%84%D9%88%D9%84%D9%87+%D9%BE%D9%84%DB%8C+%D8%A7%D8%AA%DB%8C%D9%84%D9%86+%D9%88+%D8%A7%D8%AA%D8%B5%D8%A7%D9%84%D8%A7%D8%AA+%D8%A2%D8%A8%DB%8C%D8%A7%D8%B1%DB%8C%29%E2%80%AD/data=!4m7!3m6!1s0x3f8dff0015516aaf:0x6ccd7aa92ca10516!8m2!3d35.6649312!4d51.314886!16s%2Fg%2F11vt8t_vpw!19sChIJr2pRFQD_jT8RFgWhLKl6zWw?authuser=0&hl=tr&rclk=1",
    "website_url": "http://www.maptabco.com/",
    "rating_text": "5,0",
    "stars": null,
    "number_of_reviews": null,
    "price_level": "",
    "open_hours": "",
    "extraction_timestamp": "2025-06-07T14:06:46.051Z",
    "source_name": "google",
    "source_query": "Irrigation Equipment",
    "source_country": "IR",
    "country": "Iran",
    "state": "Tehran",
    "city": "Shahrak-e Emam Hasan"
  },
  {
    "source_id": "ChIJoTsSQQsBjj8Re4yPgbYBMnk",
    "name": "Movahedin",
    "category": "Movahedin",
    "formatted_address": "Sulama Ekipmanları Tedarikçisi · Shahriar, PC25+5GXKapalı ⋅ Açılış zamanı: Paz 08:00 · +98 21 6670 5096",
    "phone_number": "+982166705096",
    "source_url": "https://www.google.com/maps/place/Movahedin/data=!4m7!3m6!1s0x3f8e010b41123ba1:0x793201b6818f8c7b!8m2!3d35.7004879!4d51.4088729!16s%2Fg%2F1tjrng36!19sChIJoTsSQQsBjj8Re4yPgbYBMnk?authuser=0&hl=tr&rclk=1",
    "website_url": "http://www.movahedin.com/",
    "rating_text": "",
    "stars": null,
    "number_of_reviews": null,
    "price_level": "",
    "open_hours": "",
    "extraction_timestamp": "2025-06-07T14:06:46.051Z",
    "source_name": "google",
    "source_query": "Irrigation Equipment",
    "source_country": "IR",
    "country": "Iran",
    "state": "Tehran",
    "city": "Shahrak-e Emam Hasan"
  },
  {
    "source_id": "ChIJTX7yQHn9jT8Rx-n9pDJ-Qxc",
    "name": "Baghkala",
    "category": "Baghkala",
    "formatted_address": "5,0(8)",
    "phone_number": "+982144095961",
    "source_url": "https://www.google.com/maps/place/Baghkala/data=!4m7!3m6!1s0x3f8dfd7940f27e4d:0x17437e32a4fde9c7!8m2!3d35.7420016!4d51.3029226!16s%2Fg%2F11py6t11g6!19sChIJTX7yQHn9jT8Rx-n9pDJ-Qxc?authuser=0&hl=tr&rclk=1",
    "website_url": "http://www.baghkala.ir/",
    "rating_text": "5,0",
    "stars": null,
    "number_of_reviews": null,
    "price_level": "",
    "open_hours": "",
    "extraction_timestamp": "2025-06-07T14:06:46.052Z",
    "source_name": "google",
    "source_query": "Irrigation Equipment",
    "source_country": "IR",
    "country": "Iran",
    "state": "Tehran",
    "city": "Shahrak-e Emam Hasan"
  },
  {
    "source_id": "ChIJp8EO_mgBjj8RhviV4OHHzU0",
    "name": "دفتر مرکزی صنایع پمپ سازی آبروان",
    "category": "دفتر مرکزی صنایع پمپ سازی آبروان",
    "formatted_address": "5,0(17)",
    "phone_number": "+982166573504",
    "source_url": "https://www.google.com/maps/place/%D8%AF%D9%81%D8%AA%D8%B1+%D9%85%D8%B1%DA%A9%D8%B2%DB%8C+%D8%B5%D9%86%D8%A7%DB%8C%D8%B9+%D9%BE%D9%85%D9%BE+%D8%B3%D8%A7%D8%B2%DB%8C+%D8%A2%D8%A8%D8%B1%D9%88%D8%A7%D9%86%E2%80%AD/data=!4m7!3m6!1s0x3f8e0168fe0ec1a7:0x4dcdc7e1e095f886!8m2!3d35.7007171!4d51.3711704!16s%2Fg%2F11mv5bj0hj!19sChIJp8EO_mgBjj8RhviV4OHHzU0?authuser=0&hl=tr&rclk=1",
    "website_url": "https://www.abravanpump.com/",
    "rating_text": "5,0",
    "stars": null,
    "number_of_reviews": null,
    "price_level": "",
    "open_hours": "",
    "extraction_timestamp": "2025-06-07T14:06:46.052Z",
    "source_name": "google",
    "source_query": "Irrigation Equipment",
    "source_country": "IR",
    "country": "Iran",
    "state": "Tehran",
    "city": "Shahrak-e Emam Hasan"
  },
  {
    "source_id": "ChIJBb3QBgAFjj8RsUO02DeokOU",
    "name": "آبیاری هوشمند تهران",
    "category": "آبیاری هوشمند تهران",
    "formatted_address": "Sulama Ekipmanları Tedarikçisi · طبقه ۲، پلاک ۲۰۵, Heravi Square, مجتمع تجاری گلستانAçık ⋅ Kapanış saati: 21:00 · +98 21 3382 6812",
    "phone_number": "+982133826812",
    "source_url": "https://www.google.com/maps/place/%D8%A2%D8%A8%DB%8C%D8%A7%D8%B1%DB%8C+%D9%87%D9%88%D8%B4%D9%85%D9%86%D8%AF+%D8%AA%D9%87%D8%B1%D8%A7%D9%86%E2%80%AD/data=!4m7!3m6!1s0x3f8e050006d0bd05:0xe590a837d8b443b1!8m2!3d35.7670684!4d51.4780966!16s%2Fg%2F11mdkhfkqg!19sChIJBb3QBgAFjj8RsUO02DeokOU?authuser=0&hl=tr&rclk=1",
    "website_url": "https://www.smartirrigation.ir/",
    "rating_text": "",
    "stars": null,
    "number_of_reviews": null,
    "price_level": "",
    "open_hours": "",
    "extraction_timestamp": "2025-06-07T14:06:46.052Z",
    "source_name": "google",
    "source_query": "Irrigation Equipment",
    "source_country": "IR",
    "country": "Iran",
    "state": "Tehran",
    "city": "Shahrak-e Emam Hasan"
  },
  {
    "source_id": "ChIJx1BEGwD9kT8R_UErR0FCZjY",
    "name": "فروشگاه نوین قطره (آبچی)",
    "category": "فروشگاه نوین قطره (آبچی)",
    "formatted_address": "5,0(1)",
    "phone_number": "+982133685702",
    "source_url": "https://www.google.com/maps/place/%D9%81%D8%B1%D9%88%D8%B4%DA%AF%D8%A7%D9%87+%D9%86%D9%88%DB%8C%D9%86+%D9%82%D8%B7%D8%B1%D9%87+%28%D8%A2%D8%A8%DA%86%DB%8C%29%E2%80%AD/data=!4m7!3m6!1s0x3f91fd001b4450c7:0x36664241472b41fd!8m2!3d35.6612971!4d51.4762699!16s%2Fg%2F11vrd0dx72!19sChIJx1BEGwD9kT8R_UErR0FCZjY?authuser=0&hl=tr&rclk=1",
    "website_url": "http://www.abchee.ir/",
    "rating_text": "5,0",
    "stars": null,
    "number_of_reviews": null,
    "price_level": "",
    "open_hours": "",
    "extraction_timestamp": "2025-06-07T14:06:46.053Z",
    "source_name": "google",
    "source_query": "Irrigation Equipment",
    "source_country": "IR",
    "country": "Iran",
    "state": "Tehran",
    "city": "Shahrak-e Emam Hasan"
  },
  {
    "source_id": "ChIJczzAZiH_jT8RenifTR1Z4oE",
    "name": "Allver Center",
    "category": "Allver Center",
    "formatted_address": "5,0(2)",
    "phone_number": "+989339765265",
    "source_url": "https://www.google.com/maps/place/Allver+Center/data=!4m7!3m6!1s0x3f8dff2166c03c73:0x81e2591d4d9f787a!8m2!3d35.6651712!4d51.3161385!16s%2Fg%2F11h4b7n8g6!19sChIJczzAZiH_jT8RenifTR1Z4oE?authuser=0&hl=tr&rclk=1",
    "website_url": "https://allver.center/",
    "rating_text": "5,0",
    "stars": null,
    "number_of_reviews": null,
    "price_level": "",
    "open_hours": "",
    "extraction_timestamp": "2025-06-07T14:06:46.053Z",
    "source_name": "google",
    "source_query": "Irrigation Equipment",
    "source_country": "IR",
    "country": "Iran",
    "state": "Tehran",
    "city": "Shahrak-e Emam Hasan"
  },
  {
    "source_id": "ChIJBX6P-O8Ajj8Rb92LNcDwgUs",
    "name": "Wateractive",
    "category": "Wateractive",
    "formatted_address": "5,0(1)",
    "phone_number": "+982166381156",
    "source_url": "https://www.google.com/maps/place/Wateractive/data=!4m7!3m6!1s0x3f8e00eff88f7e05:0x4b81f0c0358bdd6f!8m2!3d35.6947087!4d51.3784408!16s%2Fg%2F11b7f0v__6!19sChIJBX6P-O8Ajj8Rb92LNcDwgUs?authuser=0&hl=tr&rclk=1",
    "website_url": "http://abfaal.com/",
    "rating_text": "5,0",
    "stars": null,
    "number_of_reviews": null,
    "price_level": "",
    "open_hours": "",
    "extraction_timestamp": "2025-06-07T14:06:46.054Z",
    "source_name": "google",
    "source_query": "Irrigation Equipment",
    "source_country": "IR",
    "country": "Iran",
    "state": "Tehran",
    "city": "Shahrak-e Emam Hasan"
  },
  {
    "source_id": "ChIJxYKWs34Bjj8Rsh1MAzfCHRw",
    "name": "Paya Gostaresh Khorshid Taban",
    "category": "Paya Gostaresh Khorshid Taban",
    "formatted_address": "4,6(7)",
    "phone_number": "+982188830031",
    "source_url": "https://www.google.com/maps/place/Paya+Gostaresh+Khorshid+Taban/data=!4m7!3m6!1s0x3f8e017eb39682c5:0x1c1dc237034c1db2!8m2!3d35.7072007!4d51.4265134!16s%2Fg%2F11hd21xr5w!19sChIJxYKWs34Bjj8Rsh1MAzfCHRw?authuser=0&hl=tr&rclk=1",
    "website_url": "https://payagostaresh.ir/",
    "rating_text": "4,6",
    "stars": null,
    "number_of_reviews": null,
    "price_level": "",
    "open_hours": "",
    "extraction_timestamp": "2025-06-07T14:06:46.054Z",
    "source_name": "google",
    "source_query": "Irrigation Equipment",
    "source_country": "IR",
    "country": "Iran",
    "state": "Tehran",
    "city": "Shahrak-e Emam Hasan"
  },
  {
    "source_id": "ChIJaygMfhP7jT8R6iHQmRM69k8",
    "name": "Opark Water Park",
    "category": "Opark Water Park",
    "formatted_address": "4,2(2.969)",
    "phone_number": "+989694",
    "source_url": "https://www.google.com/maps/place/Opark+Water+Park/data=!4m7!3m6!1s0x3f8dfb137e0c286b:0x4ff63a1399d021ea!8m2!3d35.721027!4d51.239921!16s%2Fg%2F11b75qrr9j!19sChIJaygMfhP7jT8R6iHQmRM69k8?authuser=0&hl=tr&rclk=1",
    "website_url": "http://opark.ir/",
    "rating_text": "4,2",
    "stars": null,
    "number_of_reviews": null,
    "price_level": "",
    "open_hours": "",
    "extraction_timestamp": "2025-06-07T14:06:46.055Z",
    "source_name": "google",
    "source_query": "Irrigation Equipment",
    "source_country": "IR",
    "country": "Iran",
    "state": "Tehran",
    "city": "Shahrak-e Emam Hasan"
  },
  {
    "source_id": "ChIJW2OiBAD9jT8REvaEN7lEk-8",
    "name": "Delcosanat",
    "category": "Delcosanat",
    "formatted_address": "5,0(12)",
    "phone_number": "+982128425858",
    "source_url": "https://www.google.com/maps/place/Delcosanat/data=!4m7!3m6!1s0x3f8dfd0004a2635b:0xef9344b93784f612!8m2!3d35.726278!4d51.3238592!16s%2Fg%2F11vqzq0ylc!19sChIJW2OiBAD9jT8REvaEN7lEk-8?authuser=0&hl=tr&rclk=1",
    "website_url": "https://www.delcosanat.com/",
    "rating_text": "5,0",
    "stars": null,
    "number_of_reviews": null,
    "price_level": "",
    "open_hours": "",
    "extraction_timestamp": "2025-06-07T14:06:46.055Z",
    "source_name": "google",
    "source_query": "Irrigation Equipment",
    "source_country": "IR",
    "country": "Iran",
    "state": "Tehran",
    "city": "Shahrak-e Emam Hasan"
  },
  {
    "source_id": "ChIJu0ysfDIBjj8RIotPEXXg_WM",
    "name": "نوین پمپ",
    "category": "نوین پمپ",
    "formatted_address": "5,0(1)",
    "phone_number": "+982133948025",
    "source_url": "https://www.google.com/maps/place/%D9%86%D9%88%DB%8C%D9%86+%D9%BE%D9%85%D9%BE%E2%80%AD/data=!4m7!3m6!1s0x3f8e01327cac4cbb:0x63fde075114f8b22!8m2!3d35.6963136!4d51.4243129!16s%2Fg%2F11hf4q30dn!19sChIJu0ysfDIBjj8RIotPEXXg_WM?authuser=0&hl=tr&rclk=1",
    "website_url": "http://novinpump.ir/",
    "rating_text": "5,0",
    "stars": null,
    "number_of_reviews": null,
    "price_level": "",
    "open_hours": "",
    "extraction_timestamp": "2025-06-07T14:06:46.055Z",
    "source_name": "google",
    "source_query": "Irrigation Equipment",
    "source_country": "IR",
    "country": "Iran",
    "state": "Tehran",
    "city": "Shahrak-e Emam Hasan"
  },
  {
    "source_id": "ChIJ3SoI6Zz9jT8REcu37svtjXw",
    "name": "نوین پویا",
    "category": "نوین پویا",
    "formatted_address": "4,8(9)",
    "phone_number": "+982144247030",
    "source_url": "https://www.google.com/maps/place/%D9%86%D9%88%DB%8C%D9%86+%D9%BE%D9%88%DB%8C%D8%A7%E2%80%AD/data=!4m7!3m6!1s0x3f8dfd9ce9082add:0x7c8dedcbeeb7cb11!8m2!3d35.7401424!4d51.3351159!16s%2Fg%2F11c2q3frrh!19sChIJ3SoI6Zz9jT8REcu37svtjXw?authuser=0&hl=tr&rclk=1",
    "website_url": "http://enp.ir/",
    "rating_text": "4,8",
    "stars": null,
    "number_of_reviews": null,
    "price_level": "",
    "open_hours": "",
    "extraction_timestamp": "2025-06-07T14:06:46.056Z",
    "source_name": "google",
    "source_query": "Irrigation Equipment",
    "source_country": "IR",
    "country": "Iran",
    "state": "Tehran",
    "city": "Shahrak-e Emam Hasan"
  },
  {
    "source_id": "ChIJB6CaW-sBjj8RLGYAif_7mcA",
    "name": "بام(بورس اتیلن مجتبی)",
    "category": "بام(بورس اتیلن مجتبی)",
    "formatted_address": "5,0(1)",
    "phone_number": "+982155895296",
    "source_url": "https://www.google.com/maps/place/%D8%A8%D8%A7%D9%85%28%D8%A8%D9%88%D8%B1%D8%B3+%D8%A7%D8%AA%DB%8C%D9%84%D9%86+%D9%85%D8%AC%D8%AA%D8%A8%DB%8C%29%E2%80%AD/data=!4m7!3m6!1s0x3f8e01eb5b9aa007:0xc099fbff8900662c!8m2!3d35.6795595!4d51.4146889!16s%2Fg%2F11dzd8cqv2!19sChIJB6CaW-sBjj8RLGYAif_7mcA?authuser=0&hl=tr&rclk=1",
    "website_url": "",
    "rating_text": "5,0",
    "stars": null,
    "number_of_reviews": null,
    "price_level": "",
    "open_hours": "",
    "extraction_timestamp": "2025-06-07T14:06:46.057Z",
    "source_name": "google",
    "source_query": "Irrigation Equipment",
    "source_country": "IR",
    "country": "Iran",
    "state": "Tehran",
    "city": "Shahrak-e Emam Hasan"
  },
  {
    "source_id": "ChIJ93-rbTABjj8R-QejUACjJzw",
    "name": "تجهیزات کافی شاپ - شرکت گام نو - تجهیزات کافه گام نو",
    "category": "تجهیزات کافی شاپ - شرکت گام نو - تجهیزات کافه گام نو",
    "formatted_address": "4,7(43)",
    "phone_number": "+982166988146",
    "source_url": "https://www.google.com/maps/place/%D8%AA%D8%AC%D9%87%DB%8C%D8%B2%D8%A7%D8%AA+%DA%A9%D8%A7%D9%81%DB%8C+%D8%B4%D8%A7%D9%BE+-+%D8%B4%D8%B1%DA%A9%D8%AA+%DA%AF%D8%A7%D9%85+%D9%86%D9%88+-+%D8%AA%D8%AC%D9%87%DB%8C%D8%B2%D8%A7%D8%AA+%DA%A9%D8%A7%D9%81%D9%87+%DA%AF%D8%A7%D9%85+%D9%86%D9%88%E2%80%AD/data=!4m7!3m6!1s0x3f8e01306dab7ff7:0x3c27a30050a307f9!8m2!3d35.7224385!4d51.400909!16s%2Fg%2F11hbg7zs6d!19sChIJ93-rbTABjj8R-QejUACjJzw?authuser=0&hl=tr&rclk=1",
    "website_url": "http://www.gaameno.com/",
    "rating_text": "4,7",
    "stars": null,
    "number_of_reviews": null,
    "price_level": "",
    "open_hours": "",
    "extraction_timestamp": "2025-06-07T14:06:46.058Z",
    "source_name": "google",
    "source_query": "Irrigation Equipment",
    "source_country": "IR",
    "country": "Iran",
    "state": "Tehran",
    "city": "Shahrak-e Emam Hasan"
  },
  {
    "source_id": "ChIJWZ4AfzkHjj8RbUXUU79bGuw",
    "name": "فروشگاه نصر لوله و اتصالات یزدان",
    "category": "فروشگاه نصر لوله و اتصالات یزدان",
    "formatted_address": "5,0(4)",
    "phone_number": "+989353229758",
    "source_url": "https://www.google.com/maps/place/%D9%81%D8%B1%D9%88%D8%B4%DA%AF%D8%A7%D9%87+%D9%86%D8%B5%D8%B1+%D9%84%D9%88%D9%84%D9%87+%D9%88+%D8%A7%D8%AA%D8%B5%D8%A7%D9%84%D8%A7%D8%AA+%DB%8C%D8%B2%D8%AF%D8%A7%D9%86%E2%80%AD/data=!4m7!3m6!1s0x3f8e07397f009e59:0xec1a5bbf53d4456d!8m2!3d35.7323058!4d51.3731317!16s%2Fg%2F11dxb2164l!19sChIJWZ4AfzkHjj8RbUXUU79bGuw?authuser=0&hl=tr&rclk=1",
    "website_url": "",
    "rating_text": "5,0",
    "stars": null,
    "number_of_reviews": null,
    "price_level": "",
    "open_hours": "",
    "extraction_timestamp": "2025-06-07T14:06:46.058Z",
    "source_name": "google",
    "source_query": "Irrigation Equipment",
    "source_country": "IR",
    "country": "Iran",
    "state": "Tehran",
    "city": "Shahrak-e Emam Hasan"
  },
  {
    "source_id": "ChIJ3YIZnzwBjj8RO0q_awuYOPs",
    "name": "تاسیسات قاسمی",
    "category": "تاسیسات قاسمی",
    "formatted_address": "5,0(3)",
    "phone_number": "+982166872214",
    "source_url": "https://www.google.com/maps/place/%D8%AA%D8%A7%D8%B3%DB%8C%D8%B3%D8%A7%D8%AA+%D9%82%D8%A7%D8%B3%D9%85%DB%8C%E2%80%AD/data=!4m7!3m6!1s0x3f8e013c9f1982dd:0xfb38980b6bbf4a3b!8m2!3d35.6927975!4d51.3611028!16s%2Fg%2F11r2q_wjhg!19sChIJ3YIZnzwBjj8RO0q_awuYOPs?authuser=0&hl=tr&rclk=1",
    "website_url": "",
    "rating_text": "5,0",
    "stars": null,
    "number_of_reviews": null,
    "price_level": "",
    "open_hours": "",
    "extraction_timestamp": "2025-06-07T14:06:46.058Z",
    "source_name": "google",
    "source_query": "Irrigation Equipment",
    "source_country": "IR",
    "country": "Iran",
    "state": "Tehran",
    "city": "Shahrak-e Emam Hasan"
  },
  {
    "source_id": "ChIJd0pV544Bjj8RKKy-SVImYdc",
    "name": "پاساژ آبیاری نوین",
    "category": "پاساژ آبیاری نوین",
    "formatted_address": "2,0(1)",
    "phone_number": "+982133926062",
    "source_url": "https://www.google.com/maps/place/%D9%BE%D8%A7%D8%B3%D8%A7%DA%98+%D8%A2%D8%A8%DB%8C%D8%A7%D8%B1%DB%8C+%D9%86%D9%88%DB%8C%D9%86%E2%80%AD/data=!4m7!3m6!1s0x3f8e018ee7554a77:0xd761265249beac28!8m2!3d35.6939012!4d51.4256561!16s%2Fg%2F11gbfnwf1t!19sChIJd0pV544Bjj8RKKy-SVImYdc?authuser=0&hl=tr&rclk=1",
    "website_url": "",
    "rating_text": "2,0",
    "stars": null,
    "number_of_reviews": null,
    "price_level": "",
    "open_hours": "",
    "extraction_timestamp": "2025-06-07T14:06:46.059Z",
    "source_name": "google",
    "source_query": "Irrigation Equipment",
    "source_country": "IR",
    "country": "Iran",
    "state": "Tehran",
    "city": "Shahrak-e Emam Hasan"
  },
  {
    "source_id": "ChIJ_7v27zT9jT8RGaQAC77wnGA",
    "name": "Niri organic sadeqiyeh",
    "category": "Niri organic sadeqiyeh",
    "formatted_address": "4,5(15)",
    "phone_number": "+982144277626",
    "source_url": "https://www.google.com/maps/place/Niri+organic+sadeqiyeh/data=!4m7!3m6!1s0x3f8dfd34eff6bbff:0x609cf0be0b00a419!8m2!3d35.7227957!4d51.3355386!16s%2Fg%2F11h3m9kbn0!19sChIJ_7v27zT9jT8RGaQAC77wnGA?authuser=0&hl=tr&rclk=1",
    "website_url": "http://www.niriorganic.com/",
    "rating_text": "4,5",
    "stars": null,
    "number_of_reviews": null,
    "price_level": "",
    "open_hours": "",
    "extraction_timestamp": "2025-06-07T14:06:46.059Z",
    "source_name": "google",
    "source_query": "Irrigation Equipment",
    "source_country": "IR",
    "country": "Iran",
    "state": "Tehran",
    "city": "Shahrak-e Emam Hasan"
  },
  {
    "source_id": "ChIJF0QNvw8Gjj8RgenrMG1E32A",
    "name": "Ferdows Garden",
    "category": "Ferdows Garden",
    "formatted_address": "4,6(2.068)",
    "phone_number": "+982122705005",
    "source_url": "https://www.google.com/maps/place/Ferdows+Garden/data=!4m7!3m6!1s0x3f8e060fbf0d4417:0x60df446d30ebe981!8m2!3d35.8027646!4d51.4220935!16s%2Fg%2F121dvghz!19sChIJF0QNvw8Gjj8RgenrMG1E32A?authuser=0&hl=tr&rclk=1",
    "website_url": "",
    "rating_text": "4,6",
    "stars": null,
    "number_of_reviews": null,
    "price_level": "",
    "open_hours": "",
    "extraction_timestamp": "2025-06-07T14:06:46.060Z",
    "source_name": "google",
    "source_query": "Irrigation Equipment",
    "source_country": "IR",
    "country": "Iran",
    "state": "Tehran",
    "city": "Shahrak-e Emam Hasan"
  },
  {
    "source_id": "ChIJSxyRJwEBjj8RuFacRD7EufU",
    "name": "فروشگاه الکترو موتور بابایی",
    "category": "فروشگاه الکترو موتور بابایی",
    "formatted_address": "4,0(1)",
    "phone_number": "+989125101554",
    "source_url": "https://www.google.com/maps/place/%D9%81%D8%B1%D9%88%D8%B4%DA%AF%D8%A7%D9%87+%D8%A7%D9%84%DA%A9%D8%AA%D8%B1%D9%88+%D9%85%D9%88%D8%AA%D9%88%D8%B1+%D8%A8%D8%A7%D8%A8%D8%A7%DB%8C%DB%8C%E2%80%AD/data=!4m7!3m6!1s0x3f8e010127911c4b:0xf5b9c43e449c56b8!8m2!3d35.6890225!4d51.4250658!16s%2Fg%2F11svwsc2ds!19sChIJSxyRJwEBjj8RuFacRD7EufU?authuser=0&hl=tr&rclk=1",
    "website_url": "",
    "rating_text": "4,0",
    "stars": null,
    "number_of_reviews": null,
    "price_level": "",
    "open_hours": "",
    "extraction_timestamp": "2025-06-07T14:06:46.060Z",
    "source_name": "google",
    "source_query": "Irrigation Equipment",
    "source_country": "IR",
    "country": "Iran",
    "state": "Tehran",
    "city": "Shahrak-e Emam Hasan"
  },
  {
    "source_id": "ChIJ88yCUVr8jT8RN-fsdWrH9iw",
    "name": "Eram Park",
    "category": "Eram Park",
    "formatted_address": "4,1(5.415)",
    "phone_number": "+982144113083",
    "source_url": "https://www.google.com/maps/place/Eram+Park/data=!4m7!3m6!1s0x3f8dfc5a5182ccf3:0x2cf6c76a75ece737!8m2!3d35.7205539!4d51.2914562!16s%2Fm%2F0ngt03h!19sChIJ88yCUVr8jT8RN-fsdWrH9iw?authuser=0&hl=tr&rclk=1",
    "website_url": "https://erampark.ir/",
    "rating_text": "4,1",
    "stars": null,
    "number_of_reviews": null,
    "price_level": "",
    "open_hours": "",
    "extraction_timestamp": "2025-06-07T14:06:46.061Z",
    "source_name": "google",
    "source_query": "Irrigation Equipment",
    "source_country": "IR",
    "country": "Iran",
    "state": "Tehran",
    "city": "Shahrak-e Emam Hasan"
  },
  {
    "source_id": "ChIJR5p8I-QAjj8RblpYOtKoXFQ",
    "name": "Avesta Park",
    "category": "Avesta Park",
    "formatted_address": "4,0(161)",
    "phone_number": "+982166433872",
    "source_url": "https://www.google.com/maps/place/Avesta+Park/data=!4m7!3m6!1s0x3f8e00e4237c9a47:0x545ca8d23a585a6e!8m2!3d35.7001462!4d51.3820445!16s%2Fg%2F1ts1qqby!19sChIJR5p8I-QAjj8RblpYOtKoXFQ?authuser=0&hl=tr&rclk=1",
    "website_url": "",
    "rating_text": "4,0",
    "stars": null,
    "number_of_reviews": null,
    "price_level": "",
    "open_hours": "",
    "extraction_timestamp": "2025-06-07T14:06:46.061Z",
    "source_name": "google",
    "source_query": "Irrigation Equipment",
    "source_country": "IR",
    "country": "Iran",
    "state": "Tehran",
    "city": "Shahrak-e Emam Hasan"
  },
  {
    "source_id": "ChIJ49YLQkIHjj8RYAVHDHaGdGk",
    "name": "LamizCoffee",
    "category": "LamizCoffee",
    "formatted_address": "4,0(136)",
    "phone_number": "+982188585094",
    "source_url": "https://www.google.com/maps/place/LamizCoffee/data=!4m7!3m6!1s0x3f8e0742420bd6e3:0x697486760c470560!8m2!3d35.7544821!4d51.3746164!16s%2Fg%2F11p5sj16ml!19sChIJ49YLQkIHjj8RYAVHDHaGdGk?authuser=0&hl=tr&rclk=1",
    "website_url": "https://lamizcoffee.com/",
    "rating_text": "4,0",
    "stars": null,
    "number_of_reviews": null,
    "price_level": "",
    "open_hours": "",
    "extraction_timestamp": "2025-06-07T14:06:46.061Z",
    "source_name": "google",
    "source_query": "Irrigation Equipment",
    "source_country": "IR",
    "country": "Iran",
    "state": "Tehran",
    "city": "Shahrak-e Emam Hasan"
  }
]
