[
  {
    "source_id": "ChIJq8macsWikT8RpC1SNZKM8CI",
    "name": "Irrigation Accessories and Hardware Arestani",
    "category": "Irrigation Accessories and Hardware Arestani",
    "formatted_address": "4,0(2)",
    "phone_number": "+982136724944",
    "source_url": "https://www.google.com/maps/place/Irrigation+Accessories+and+Hardware+Arestani/data=!4m7!3m6!1s0x3f91a2c5729ac9ab:0x22f08c9235522da4!8m2!3d35.3140051!4d51.7130788!16s%2Fg%2F11c5wl0fc4!19sChIJq8macsWikT8RpC1SNZKM8CI?authuser=0&hl=tr&rclk=1",
    "website_url": "",
    "rating_text": "4,0",
    "stars": null,
    "number_of_reviews": null,
    "price_level": "",
    "open_hours": "",
    "extraction_timestamp": "2025-06-07T14:08:26.319Z",
    "source_name": "google",
    "source_query": "Irrigation Equipment",
    "source_country": "IR",
    "country": "Iran",
    "state": "Tehran",
    "city": "Sharifabad"
  },
  {
    "source_id": "ChIJS7-osl0Bjj8R84DcdIl7k_8",
    "name": "Irrigation and Farming Company Aria Tib",
    "category": "Irrigation and Farming Company Aria Tib",
    "formatted_address": "4,7(7)",
    "phone_number": "+982188845454",
    "source_url": "https://www.google.com/maps/place/Irrigation+and+Farming+Company+Aria+Tib/data=!4m7!3m6!1s0x3f8e015db2a8bf4b:0xff937b8974dc80f3!8m2!3d35.7232298!4d51.4237588!16s%2Fg%2F11f0kvhyt6!19sChIJS7-osl0Bjj8R84DcdIl7k_8?authuser=0&hl=tr&rclk=1",
    "website_url": "",
    "rating_text": "4,7",
    "stars": null,
    "number_of_reviews": null,
    "price_level": "",
    "open_hours": "",
    "extraction_timestamp": "2025-06-07T14:08:26.319Z",
    "source_name": "google",
    "source_query": "Irrigation Equipment",
    "source_country": "IR",
    "country": "Iran",
    "state": "Tehran",
    "city": "Sharifabad"
  },
  {
    "source_id": "ChIJM14qyZQGjj8REzFOag3oADM",
    "name": "kamco",
    "category": "kamco",
    "formatted_address": "5,0(1)",
    "phone_number": "+982188225302",
    "source_url": "https://www.google.com/maps/place/kamco/data=!4m7!3m6!1s0x3f8e0694c92a5e33:0x3300e80d6a4e3113!8m2!3d35.7235012!4d51.4019769!16s%2Fg%2F11b6d0knrt!19sChIJM14qyZQGjj8REzFOag3oADM?authuser=0&hl=tr&rclk=1",
    "website_url": "",
    "rating_text": "5,0",
    "stars": null,
    "number_of_reviews": null,
    "price_level": "",
    "open_hours": "",
    "extraction_timestamp": "2025-06-07T14:08:26.320Z",
    "source_name": "google",
    "source_query": "Irrigation Equipment",
    "source_country": "IR",
    "country": "Iran",
    "state": "Tehran",
    "city": "Sharifabad"
  },
  {
    "source_id": "ChIJ_fLPRAABjj8RSeosiGuijm8",
    "name": "هانترسل",
    "category": "هانترسل",
    "formatted_address": "5,0(2)",
    "phone_number": "+982155808909",
    "source_url": "https://www.google.com/maps/place/%D9%87%D8%A7%D9%86%D8%AA%D8%B1%D8%B3%D9%84%E2%80%AD/data=!4m7!3m6!1s0x3f8e010044cff2fd:0x6f8ea26b882cea49!8m2!3d35.6811685!4d51.4107418!16s%2Fg%2F11vwx4_tj0!19sChIJ_fLPRAABjj8RSeosiGuijm8?authuser=0&hl=tr&rclk=1",
    "website_url": "",
    "rating_text": "5,0",
    "stars": null,
    "number_of_reviews": null,
    "price_level": "",
    "open_hours": "",
    "extraction_timestamp": "2025-06-07T14:08:26.321Z",
    "source_name": "google",
    "source_query": "Irrigation Equipment",
    "source_country": "IR",
    "country": "Iran",
    "state": "Tehran",
    "city": "Sharifabad"
  },
  {
    "source_id": "ChIJ738sMPdHkD8RIjKgw5AOnGQ",
    "name": "فروشگاه مهندس بیدل",
    "category": "فروشگاه مهندس بیدل",
    "formatted_address": "5,0(1)",
    "phone_number": "",
    "source_url": "https://www.google.com/maps/place/%D9%81%D8%B1%D9%88%D8%B4%DA%AF%D8%A7%D9%87+%D9%85%D9%87%D9%86%D8%AF%D8%B3+%D8%A8%DB%8C%D8%AF%D9%84%E2%80%AD/data=!4m7!3m6!1s0x3f9047f7302c7fef:0x649c0e90c3a03222!8m2!3d35.6423438!4d52.2392442!16s%2Fg%2F11lt426fkq!19sChIJ738sMPdHkD8RIjKgw5AOnGQ?authuser=0&hl=tr&rclk=1",
    "website_url": "",
    "rating_text": "5,0",
    "stars": null,
    "number_of_reviews": null,
    "price_level": "",
    "open_hours": "",
    "extraction_timestamp": "2025-06-07T14:08:26.321Z",
    "source_name": "google",
    "source_query": "Irrigation Equipment",
    "source_country": "IR",
    "country": "Iran",
    "state": "Tehran",
    "city": "Sharifabad"
  },
  {
    "source_id": "ChIJv6jv6vAZkj8RQqunRNeLkPQ",
    "name": "شرکت تکنوژاله",
    "category": "شرکت تکنوژاله",
    "formatted_address": "4,5(2)",
    "phone_number": "+989125801150",
    "source_url": "https://www.google.com/maps/place/%D8%B4%D8%B1%DA%A9%D8%AA+%D8%AA%DA%A9%D9%86%D9%88%DA%98%D8%A7%D9%84%D9%87%E2%80%AD/data=!4m7!3m6!1s0x3f9219f0eaefa8bf:0xf4908bd744a7ab42!8m2!3d35.3734371!4d51.2511171!16s%2Fg%2F11jgsfs1g6!19sChIJv6jv6vAZkj8RQqunRNeLkPQ?authuser=0&hl=tr&rclk=1",
    "website_url": "http://technojaleh.com/",
    "rating_text": "4,5",
    "stars": null,
    "number_of_reviews": null,
    "price_level": "",
    "open_hours": "",
    "extraction_timestamp": "2025-06-07T14:08:26.322Z",
    "source_name": "google",
    "source_query": "Irrigation Equipment",
    "source_country": "IR",
    "country": "Iran",
    "state": "Tehran",
    "city": "Sharifabad"
  },
  {
    "source_id": "ChIJoTsSQQsBjj8Re4yPgbYBMnk",
    "name": "Movahedin",
    "category": "Movahedin",
    "formatted_address": "Sulama Ekipmanları Tedarikçisi · Shahriar, PC25+5GXKapalı ⋅ Açılış zamanı: Paz 08:00 · +98 21 6670 5096",
    "phone_number": "+982166705096",
    "source_url": "https://www.google.com/maps/place/Movahedin/data=!4m7!3m6!1s0x3f8e010b41123ba1:0x793201b6818f8c7b!8m2!3d35.7004879!4d51.4088729!16s%2Fg%2F1tjrng36!19sChIJoTsSQQsBjj8Re4yPgbYBMnk?authuser=0&hl=tr&rclk=1",
    "website_url": "http://www.movahedin.com/",
    "rating_text": "",
    "stars": null,
    "number_of_reviews": null,
    "price_level": "",
    "open_hours": "",
    "extraction_timestamp": "2025-06-07T14:08:26.323Z",
    "source_name": "google",
    "source_query": "Irrigation Equipment",
    "source_country": "IR",
    "country": "Iran",
    "state": "Tehran",
    "city": "Sharifabad"
  },
  {
    "source_id": "ChIJX7WeKDkBjj8RFFkr5tnEJDQ",
    "name": "Hydro Sanat Sharif",
    "category": "Hydro Sanat Sharif",
    "formatted_address": "Talaşlı İmalat Yapan İşletme · پلاک 16،, واحد 9, Asad Abadi St, No, خیابان دوم،Kapanmak üzere ⋅ 18:00 ⋅ Açılış zamanı: Paz 08:30 · +98 21 8899 3817",
    "phone_number": "+982188993817",
    "source_url": "https://www.google.com/maps/place/Hydro+Sanat+Sharif/data=!4m7!3m6!1s0x3f8e0139289eb55f:0x3424c4d9e62b5914!8m2!3d35.7218468!4d51.4081669!16s%2Fg%2F11bw21vlpg!19sChIJX7WeKDkBjj8RFFkr5tnEJDQ?authuser=0&hl=tr&rclk=1",
    "website_url": "https://hydrosanatsharif.com/",
    "rating_text": "",
    "stars": null,
    "number_of_reviews": null,
    "price_level": "",
    "open_hours": "",
    "extraction_timestamp": "2025-06-07T14:08:26.324Z",
    "source_name": "google",
    "source_query": "Irrigation Equipment",
    "source_country": "IR",
    "country": "Iran",
    "state": "Tehran",
    "city": "Sharifabad"
  },
  {
    "source_id": "ChIJY32SRsu7kT8R4IYFpxRcuNY",
    "name": "فروشگاه آبیار تکنیک ( پمپ،لوله و اتصالات)",
    "category": "فروشگاه آبیار تکنیک ( پمپ،لوله و اتصالات)",
    "formatted_address": "",
    "phone_number": "+989151311181",
    "source_url": "https://www.google.com/maps/place/%D9%81%D8%B1%D9%88%D8%B4%DA%AF%D8%A7%D9%87+%D8%A2%D8%A8%DB%8C%D8%A7%D8%B1+%D8%AA%DA%A9%D9%86%DB%8C%DA%A9+%28+%D9%BE%D9%85%D9%BE%D8%8C%D9%84%D9%88%D9%84%D9%87+%D9%88+%D8%A7%D8%AA%D8%B5%D8%A7%D9%84%D8%A7%D8%AA%29%E2%80%AD/data=!4m7!3m6!1s0x3f91bbcb46927d63:0xd6b85c14a70586e0!8m2!3d35.4248978!4d51.7823506!16s%2Fg%2F11q2kg1_2h!19sChIJY32SRsu7kT8R4IYFpxRcuNY?authuser=0&hl=tr&rclk=1",
    "website_url": "",
    "rating_text": "",
    "stars": null,
    "number_of_reviews": null,
    "price_level": "",
    "open_hours": "",
    "extraction_timestamp": "2025-06-07T14:08:26.324Z",
    "source_name": "google",
    "source_query": "Irrigation Equipment",
    "source_country": "IR",
    "country": "Iran",
    "state": "Tehran",
    "city": "Sharifabad"
  },
  {
    "source_id": "ChIJh9cksmG7kT8RIhTjme8jKX4",
    "name": "Charso store, Sharif Abad branch",
    "category": "Charso store, Sharif Abad branch",
    "formatted_address": "Charso store, Sharif Abad branch",
    "phone_number": "+982136473276",
    "source_url": "https://www.google.com/maps/place/Charso+store,+Sharif+Abad+branch/data=!4m7!3m6!1s0x3f91bb61b224d787:0x7e2923ef99e31422!8m2!3d35.4265635!4d51.7781718!16s%2Fg%2F11h_174pmv!19sChIJh9cksmG7kT8RIhTjme8jKX4?authuser=0&hl=tr&rclk=1",
    "website_url": "http://4soocenter.ir/",
    "rating_text": "4,7",
    "stars": null,
    "number_of_reviews": null,
    "price_level": "",
    "open_hours": "",
    "extraction_timestamp": "2025-06-07T14:08:26.325Z",
    "source_name": "google",
    "source_query": "Irrigation Equipment",
    "source_country": "IR",
    "country": "Iran",
    "state": "Tehran",
    "city": "Sharifabad"
  },
  {
    "source_id": "ChIJRfGIYAC7kT8Rox413bmbSeI",
    "name": "Hyper Hadi",
    "category": "Hyper Hadi",
    "formatted_address": "3,0(5)",
    "phone_number": "+982192000255",
    "source_url": "https://www.google.com/maps/place/Hyper+Hadi/data=!4m7!3m6!1s0x3f91bb006088f145:0xe2499bb9dd351ea3!8m2!3d35.4153649!4d51.7978593!16s%2Fg%2F11vz1xqrsm!19sChIJRfGIYAC7kT8Rox413bmbSeI?authuser=0&hl=tr&rclk=1",
    "website_url": "",
    "rating_text": "3,0",
    "stars": null,
    "number_of_reviews": null,
    "price_level": "",
    "open_hours": "",
    "extraction_timestamp": "2025-06-07T14:08:26.325Z",
    "source_name": "google",
    "source_query": "Irrigation Equipment",
    "source_country": "IR",
    "country": "Iran",
    "state": "Tehran",
    "city": "Sharifabad"
  },
  {
    "source_id": "ChIJDyc_8Cy5kT8RnVOES_OPyFw",
    "name": "فروشگاه مهران پور",
    "category": "فروشگاه مهران پور",
    "formatted_address": "5,0(2)",
    "phone_number": "",
    "source_url": "https://www.google.com/maps/place/%D9%81%D8%B1%D9%88%D8%B4%DA%AF%D8%A7%D9%87+%D9%85%D9%87%D8%B1%D8%A7%D9%86+%D9%BE%D9%88%D8%B1%E2%80%AD/data=!4m7!3m6!1s0x3f91b92cf03f270f:0x5cc88ff34b84539d!8m2!3d35.4314935!4d51.7861162!16s%2Fg%2F11hh8l5s81!19sChIJDyc_8Cy5kT8RnVOES_OPyFw?authuser=0&hl=tr&rclk=1",
    "website_url": "",
    "rating_text": "5,0",
    "stars": null,
    "number_of_reviews": null,
    "price_level": "",
    "open_hours": "",
    "extraction_timestamp": "2025-06-07T14:08:26.326Z",
    "source_name": "google",
    "source_query": "Irrigation Equipment",
    "source_country": "IR",
    "country": "Iran",
    "state": "Tehran",
    "city": "Sharifabad"
  },
  {
    "source_id": "ChIJh8WkNgC7kT8RekYVPC--idc",
    "name": "برق صنعتی نگین شرق",
    "category": "برق صنعتی نگین شرق",
    "formatted_address": "Endüstriyel Süpermarket · Imam Reza Hwy, CQFM+Q27",
    "phone_number": "",
    "source_url": "https://www.google.com/maps/place/%D8%A8%D8%B1%D9%82+%D8%B5%D9%86%D8%B9%D8%AA%DB%8C+%D9%86%DA%AF%DB%8C%D9%86+%D8%B4%D8%B1%D9%82%E2%80%AD/data=!4m7!3m6!1s0x3f91bb0036a4c587:0xd789be2f3c15467a!8m2!3d35.4243352!4d51.7824158!16s%2Fg%2F11wj99dmzt!19sChIJh8WkNgC7kT8RekYVPC--idc?authuser=0&hl=tr&rclk=1",
    "website_url": "",
    "rating_text": "",
    "stars": null,
    "number_of_reviews": null,
    "price_level": "",
    "open_hours": "",
    "extraction_timestamp": "2025-06-07T14:08:26.326Z",
    "source_name": "google",
    "source_query": "Irrigation Equipment",
    "source_country": "IR",
    "country": "Iran",
    "state": "Tehran",
    "city": "Sharifabad"
  },
  {
    "source_id": "ChIJQ2AD_cW7kT8RH4YiQZsARHQ",
    "name": "دکه آذربایجان",
    "category": "دکه آذربایجان",
    "formatted_address": "5,0(1)",
    "phone_number": "+989369442785",
    "source_url": "https://www.google.com/maps/place/%D8%AF%DA%A9%D9%87+%D8%A2%D8%B0%D8%B1%D8%A8%D8%A7%DB%8C%D8%AC%D8%A7%D9%86%E2%80%AD/data=!4m7!3m6!1s0x3f91bbc5fd036043:0x7444009b4122861f!8m2!3d35.4151435!4d51.7980308!16s%2Fg%2F11nntp9dx2!19sChIJQ2AD_cW7kT8RH4YiQZsARHQ?authuser=0&hl=tr&rclk=1",
    "website_url": "",
    "rating_text": "5,0",
    "stars": null,
    "number_of_reviews": null,
    "price_level": "",
    "open_hours": "",
    "extraction_timestamp": "2025-06-07T14:08:26.326Z",
    "source_name": "google",
    "source_query": "Irrigation Equipment",
    "source_country": "IR",
    "country": "Iran",
    "state": "Tehran",
    "city": "Sharifabad"
  },
  {
    "source_id": "ChIJTXhZp_MBkj8R-wdshAsVjW4",
    "name": "شرکت فنی و مهندسی هیدرویار",
    "category": "شرکت فنی و مهندسی هیدرویار",
    "formatted_address": "",
    "phone_number": "+982155263438",
    "source_url": "https://www.google.com/maps/place/%D8%B4%D8%B1%DA%A9%D8%AA+%D9%81%D9%86%DB%8C+%D9%88+%D9%85%D9%87%D9%86%D8%AF%D8%B3%DB%8C+%D9%87%DB%8C%D8%AF%D8%B1%D9%88%DB%8C%D8%A7%D8%B1%E2%80%AD/data=!4m7!3m6!1s0x3f9201f3a759784d:0x6e8d150b846c07fb!8m2!3d35.6156962!4d51.3243585!16s%2Fg%2F11l6v9zlg6!19sChIJTXhZp_MBkj8R-wdshAsVjW4?authuser=0&hl=tr&rclk=1",
    "website_url": "http://www.hydroyar.com/",
    "rating_text": "",
    "stars": null,
    "number_of_reviews": null,
    "price_level": "",
    "open_hours": "",
    "extraction_timestamp": "2025-06-07T14:08:26.327Z",
    "source_name": "google",
    "source_query": "Irrigation Equipment",
    "source_country": "IR",
    "country": "Iran",
    "state": "Tehran",
    "city": "Sharifabad"
  },
  {
    "source_id": "ChIJsRoQmVa5kT8RKAFwd91zdBs",
    "name": "بستنی نعمت سابق",
    "category": "بستنی نعمت سابق",
    "formatted_address": "5,0(3)",
    "phone_number": "",
    "source_url": "https://www.google.com/maps/place/%D8%A8%D8%B3%D8%AA%D9%86%DB%8C+%D9%86%D8%B9%D9%85%D8%AA+%D8%B3%D8%A7%D8%A8%D9%82%E2%80%AD/data=!4m7!3m6!1s0x3f91b95699101ab1:0x1b7473dd77700128!8m2!3d35.4267441!4d51.7785711!16s%2Fg%2F11nf_fmr3n!19sChIJsRoQmVa5kT8RKAFwd91zdBs?authuser=0&hl=tr&rclk=1",
    "website_url": "",
    "rating_text": "5,0",
    "stars": null,
    "number_of_reviews": null,
    "price_level": "",
    "open_hours": "",
    "extraction_timestamp": "2025-06-07T14:08:26.327Z",
    "source_name": "google",
    "source_query": "Irrigation Equipment",
    "source_country": "IR",
    "country": "Iran",
    "state": "Tehran",
    "city": "Sharifabad"
  }
]
