[
  {
    "source_id": "ChIJ_fLPRAABjj8RSeosiGuijm8",
    "name": "هانترسل",
    "category": "هانترسل",
    "formatted_address": "5,0(2)",
    "phone_number": "+982155808909",
    "source_url": "https://www.google.com/maps/place/%D9%87%D8%A7%D9%86%D8%AA%D8%B1%D8%B3%D9%84%E2%80%AD/data=!4m7!3m6!1s0x3f8e010044cff2fd:0x6f8ea26b882cea49!8m2!3d35.6811685!4d51.4107418!16s%2Fg%2F11vwx4_tj0!19sChIJ_fLPRAABjj8RSeosiGuijm8?authuser=0&hl=tr&rclk=1",
    "website_url": "",
    "rating_text": "5,0",
    "stars": null,
    "number_of_reviews": null,
    "price_level": "",
    "open_hours": "",
    "extraction_timestamp": "2025-06-07T14:03:09.113Z",
    "source_name": "google",
    "source_query": "Irrigation Equipment",
    "source_country": "IR",
    "country": "Iran",
    "state": "Tehran",
    "city": "Soleh Bon"
  },
  {
    "source_id": "ChIJM14qyZQGjj8REzFOag3oADM",
    "name": "kamco",
    "category": "kamco",
    "formatted_address": "5,0(1)",
    "phone_number": "+982188225302",
    "source_url": "https://www.google.com/maps/place/kamco/data=!4m7!3m6!1s0x3f8e0694c92a5e33:0x3300e80d6a4e3113!8m2!3d35.7235012!4d51.4019769!16s%2Fg%2F11b6d0knrt!19sChIJM14qyZQGjj8REzFOag3oADM?authuser=0&hl=tr&rclk=1",
    "website_url": "",
    "rating_text": "5,0",
    "stars": null,
    "number_of_reviews": null,
    "price_level": "",
    "open_hours": "",
    "extraction_timestamp": "2025-06-07T14:03:09.114Z",
    "source_name": "google",
    "source_query": "Irrigation Equipment",
    "source_country": "IR",
    "country": "Iran",
    "state": "Tehran",
    "city": "Soleh Bon"
  },
  {
    "source_id": "ChIJS7-osl0Bjj8R84DcdIl7k_8",
    "name": "Irrigation and Farming Company Aria Tib",
    "category": "Irrigation and Farming Company Aria Tib",
    "formatted_address": "4,7(7)",
    "phone_number": "+982188845454",
    "source_url": "https://www.google.com/maps/place/Irrigation+and+Farming+Company+Aria+Tib/data=!4m7!3m6!1s0x3f8e015db2a8bf4b:0xff937b8974dc80f3!8m2!3d35.7232298!4d51.4237588!16s%2Fg%2F11f0kvhyt6!19sChIJS7-osl0Bjj8R84DcdIl7k_8?authuser=0&hl=tr&rclk=1",
    "website_url": "",
    "rating_text": "4,7",
    "stars": null,
    "number_of_reviews": null,
    "price_level": "",
    "open_hours": "",
    "extraction_timestamp": "2025-06-07T14:03:09.114Z",
    "source_name": "google",
    "source_query": "Irrigation Equipment",
    "source_country": "IR",
    "country": "Iran",
    "state": "Tehran",
    "city": "Soleh Bon"
  },
  {
    "source_id": "ChIJp04i0dQFjj8RF34oyzUaL0c",
    "name": "دفتر مرکزی نهرآب گستر اشتهارد",
    "category": "دفتر مرکزی نهرآب گستر اشتهارد",
    "formatted_address": "5,0(3)",
    "phone_number": "+982127640",
    "source_url": "https://www.google.com/maps/place/%D8%AF%D9%81%D8%AA%D8%B1+%D9%85%D8%B1%DA%A9%D8%B2%DB%8C+%D9%86%D9%87%D8%B1%D8%A2%D8%A8+%DA%AF%D8%B3%D8%AA%D8%B1+%D8%A7%D8%B4%D8%AA%D9%87%D8%A7%D8%B1%D8%AF%E2%80%AD/data=!4m7!3m6!1s0x3f8e05d4d1224ea7:0x472f1a35cb287e17!8m2!3d35.7663814!4d51.4563031!16s%2Fg%2F11h_2g3fmd!19sChIJp04i0dQFjj8RF34oyzUaL0c?authuser=0&hl=tr&rclk=1",
    "website_url": "http://www.nahrab.net/",
    "rating_text": "5,0",
    "stars": null,
    "number_of_reviews": null,
    "price_level": "",
    "open_hours": "",
    "extraction_timestamp": "2025-06-07T14:03:09.115Z",
    "source_name": "google",
    "source_query": "Irrigation Equipment",
    "source_country": "IR",
    "country": "Iran",
    "state": "Tehran",
    "city": "Soleh Bon"
  },
  {
    "source_id": "ChIJczzAZiH_jT8RenifTR1Z4oE",
    "name": "Allver Center",
    "category": "Allver Center",
    "formatted_address": "5,0(2)",
    "phone_number": "+989339765265",
    "source_url": "https://www.google.com/maps/place/Allver+Center/data=!4m7!3m6!1s0x3f8dff2166c03c73:0x81e2591d4d9f787a!8m2!3d35.6651712!4d51.3161385!16s%2Fg%2F11h4b7n8g6!19sChIJczzAZiH_jT8RenifTR1Z4oE?authuser=0&hl=tr&rclk=1",
    "website_url": "https://allver.center/",
    "rating_text": "5,0",
    "stars": null,
    "number_of_reviews": null,
    "price_level": "",
    "open_hours": "",
    "extraction_timestamp": "2025-06-07T14:03:09.115Z",
    "source_name": "google",
    "source_query": "Irrigation Equipment",
    "source_country": "IR",
    "country": "Iran",
    "state": "Tehran",
    "city": "Soleh Bon"
  },
  {
    "source_id": "ChIJx1BEGwD9kT8R_UErR0FCZjY",
    "name": "فروشگاه نوین قطره (آبچی)",
    "category": "فروشگاه نوین قطره (آبچی)",
    "formatted_address": "5,0(1)",
    "phone_number": "+982133685702",
    "source_url": "https://www.google.com/maps/place/%D9%81%D8%B1%D9%88%D8%B4%DA%AF%D8%A7%D9%87+%D9%86%D9%88%DB%8C%D9%86+%D9%82%D8%B7%D8%B1%D9%87+%28%D8%A2%D8%A8%DA%86%DB%8C%29%E2%80%AD/data=!4m7!3m6!1s0x3f91fd001b4450c7:0x36664241472b41fd!8m2!3d35.6612971!4d51.4762699!16s%2Fg%2F11vrd0dx72!19sChIJx1BEGwD9kT8R_UErR0FCZjY?authuser=0&hl=tr&rclk=1",
    "website_url": "http://www.abchee.ir/",
    "rating_text": "5,0",
    "stars": null,
    "number_of_reviews": null,
    "price_level": "",
    "open_hours": "",
    "extraction_timestamp": "2025-06-07T14:03:09.116Z",
    "source_name": "google",
    "source_query": "Irrigation Equipment",
    "source_country": "IR",
    "country": "Iran",
    "state": "Tehran",
    "city": "Soleh Bon"
  },
  {
    "source_id": "ChIJiVJPWgsBjj8RBAloUVkiU68",
    "name": "موسسه بین المللی قائم شمس",
    "category": "موسسه بین المللی قائم شمس",
    "formatted_address": "",
    "phone_number": "+989193780108",
    "source_url": "https://www.google.com/maps/place/%D9%85%D9%88%D8%B3%D8%B3%D9%87+%D8%A8%DB%8C%D9%86+%D8%A7%D9%84%D9%85%D9%84%D9%84%DB%8C+%D9%82%D8%A7%D8%A6%D9%85+%D8%B4%D9%85%D8%B3%E2%80%AD/data=!4m7!3m6!1s0x3f8e010b5a4f5289:0xaf53225951680904!8m2!3d35.7010644!4d51.4089525!16s%2Fg%2F11csrvcm4w!19sChIJiVJPWgsBjj8RBAloUVkiU68?authuser=0&hl=tr&rclk=1",
    "website_url": "",
    "rating_text": "",
    "stars": null,
    "number_of_reviews": null,
    "price_level": "",
    "open_hours": "",
    "extraction_timestamp": "2025-06-07T14:03:09.117Z",
    "source_name": "google",
    "source_query": "Irrigation Equipment",
    "source_country": "IR",
    "country": "Iran",
    "state": "Tehran",
    "city": "Soleh Bon"
  },
  {
    "source_id": "ChIJoTsSQQsBjj8Re4yPgbYBMnk",
    "name": "Movahedin",
    "category": "Movahedin",
    "formatted_address": "Sulama Ekipmanları Tedarikçisi · Shahriar, PC25+5GXKapalı ⋅ Açılış zamanı: Paz 08:00 · +98 21 6670 5096",
    "phone_number": "+982166705096",
    "source_url": "https://www.google.com/maps/place/Movahedin/data=!4m7!3m6!1s0x3f8e010b41123ba1:0x793201b6818f8c7b!8m2!3d35.7004879!4d51.4088729!16s%2Fg%2F1tjrng36!19sChIJoTsSQQsBjj8Re4yPgbYBMnk?authuser=0&hl=tr&rclk=1",
    "website_url": "http://www.movahedin.com/",
    "rating_text": "",
    "stars": null,
    "number_of_reviews": null,
    "price_level": "",
    "open_hours": "",
    "extraction_timestamp": "2025-06-07T14:03:09.117Z",
    "source_name": "google",
    "source_query": "Irrigation Equipment",
    "source_country": "IR",
    "country": "Iran",
    "state": "Tehran",
    "city": "Soleh Bon"
  },
  {
    "source_id": "ChIJVSeQOQADjj8RggR1pHvp7DA",
    "name": "Besaco",
    "category": "Besaco",
    "formatted_address": "Sulama Ekipmanları Tedarikçisi · W Golbarg St, PFJM+HJX",
    "phone_number": "",
    "source_url": "https://www.google.com/maps/place/Besaco/data=!4m7!3m6!1s0x3f8e030039902755:0x30ece97ba4750482!8m2!3d35.7314756!4d51.4840781!16s%2Fg%2F11wj6xg0py!19sChIJVSeQOQADjj8RggR1pHvp7DA?authuser=0&hl=tr&rclk=1",
    "website_url": "",
    "rating_text": "",
    "stars": null,
    "number_of_reviews": null,
    "price_level": "",
    "open_hours": "",
    "extraction_timestamp": "2025-06-07T14:03:09.118Z",
    "source_name": "google",
    "source_query": "Irrigation Equipment",
    "source_country": "IR",
    "country": "Iran",
    "state": "Tehran",
    "city": "Soleh Bon"
  },
  {
    "source_id": "ChIJv6jv6vAZkj8RQqunRNeLkPQ",
    "name": "شرکت تکنوژاله",
    "category": "شرکت تکنوژاله",
    "formatted_address": "4,5(2)",
    "phone_number": "+989125801150",
    "source_url": "https://www.google.com/maps/place/%D8%B4%D8%B1%DA%A9%D8%AA+%D8%AA%DA%A9%D9%86%D9%88%DA%98%D8%A7%D9%84%D9%87%E2%80%AD/data=!4m7!3m6!1s0x3f9219f0eaefa8bf:0xf4908bd744a7ab42!8m2!3d35.3734371!4d51.2511171!16s%2Fg%2F11jgsfs1g6!19sChIJv6jv6vAZkj8RQqunRNeLkPQ?authuser=0&hl=tr&rclk=1",
    "website_url": "http://technojaleh.com/",
    "rating_text": "4,5",
    "stars": null,
    "number_of_reviews": null,
    "price_level": "",
    "open_hours": "",
    "extraction_timestamp": "2025-06-07T14:03:09.118Z",
    "source_name": "google",
    "source_query": "Irrigation Equipment",
    "source_country": "IR",
    "country": "Iran",
    "state": "Tehran",
    "city": "Soleh Bon"
  },
  {
    "source_id": "ChIJRxYd3SQEjj8Rrrk9q0riUjA",
    "name": "موسسه بنیان دانش پژوهان",
    "category": "موسسه بنیان دانش پژوهان",
    "formatted_address": "5,0(3)",
    "phone_number": "+982122640490",
    "source_url": "https://www.google.com/maps/place/%D9%85%D9%88%D8%B3%D8%B3%D9%87+%D8%A8%D9%86%DB%8C%D8%A7%D9%86+%D8%AF%D8%A7%D9%86%D8%B4+%D9%BE%DA%98%D9%88%D9%87%D8%A7%D9%86%E2%80%AD/data=!4m7!3m6!1s0x3f8e0424dd1d1647:0x3052e24aab3db9ae!8m2!3d35.77095!4d51.4403283!16s%2Fg%2F11ddxgq6s6!19sChIJRxYd3SQEjj8Rrrk9q0riUjA?authuser=0&hl=tr&rclk=1",
    "website_url": "http://bonian.org/",
    "rating_text": "5,0",
    "stars": null,
    "number_of_reviews": null,
    "price_level": "",
    "open_hours": "",
    "extraction_timestamp": "2025-06-07T14:03:09.119Z",
    "source_name": "google",
    "source_query": "Irrigation Equipment",
    "source_country": "IR",
    "country": "Iran",
    "state": "Tehran",
    "city": "Soleh Bon"
  },
  {
    "source_id": "ChIJR_85IgD_jT8RNnANBJ1OQ2U",
    "name": "تاسيسات قربانی",
    "category": "تاسيسات قربانی",
    "formatted_address": "Su Pompası Tedarikçisi · نوربخش, Azadi St, No. کوچهAçık ⋅ Kapanış saati: 20:30 · +98 935 919 8988",
    "phone_number": "+989359198988",
    "source_url": "https://www.google.com/maps/place/%D8%AA%D8%A7%D8%B3%D9%8A%D8%B3%D8%A7%D8%AA+%D9%82%D8%B1%D8%A8%D8%A7%D9%86%DB%8C%E2%80%AD/data=!4m7!3m6!1s0x3f8dff002239ff47:0x65434e9d040d7036!8m2!3d35.6994805!4d51.3433995!16s%2Fg%2F11ld9566k0!19sChIJR_85IgD_jT8RNnANBJ1OQ2U?authuser=0&hl=tr&rclk=1",
    "website_url": "",
    "rating_text": "",
    "stars": null,
    "number_of_reviews": null,
    "price_level": "",
    "open_hours": "",
    "extraction_timestamp": "2025-06-07T14:03:09.119Z",
    "source_name": "google",
    "source_query": "Irrigation Equipment",
    "source_country": "IR",
    "country": "Iran",
    "state": "Tehran",
    "city": "Soleh Bon"
  },
  {
    "source_id": "ChIJUTjEnUABjj8RwU4etySi16k",
    "name": "Chegalab",
    "category": "Chegalab",
    "formatted_address": "Sulama Ekipmanları Tedarikçisi · Parastoo Alley, PC96+G2X+98 21 6641 1396",
    "phone_number": "+982166411396",
    "source_url": "https://www.google.com/maps/place/Chegalab/data=!4m7!3m6!1s0x3f8e01409dc43851:0xa9d7a224b71e4ec1!8m2!3d35.7188671!4d51.4101023!16s%2Fg%2F11j48hjv82!19sChIJUTjEnUABjj8RwU4etySi16k?authuser=0&hl=tr&rclk=1",
    "website_url": "",
    "rating_text": "",
    "stars": null,
    "number_of_reviews": null,
    "price_level": "",
    "open_hours": "",
    "extraction_timestamp": "2025-06-07T14:03:09.119Z",
    "source_name": "google",
    "source_query": "Irrigation Equipment",
    "source_country": "IR",
    "country": "Iran",
    "state": "Tehran",
    "city": "Soleh Bon"
  }
]
