[
  {
    "source_id": "ChIJS7-osl0Bjj8R84DcdIl7k_8",
    "name": "Irrigation and Farming Company Aria Tib",
    "category": "Irrigation and Farming Company Aria Tib",
    "formatted_address": "4,7(7)",
    "phone_number": "+982188845454",
    "source_url": "https://www.google.com/maps/place/Irrigation+and+Farming+Company+Aria+Tib/data=!4m7!3m6!1s0x3f8e015db2a8bf4b:0xff937b8974dc80f3!8m2!3d35.7232298!4d51.4237588!16s%2Fg%2F11f0kvhyt6!19sChIJS7-osl0Bjj8R84DcdIl7k_8?authuser=0&hl=tr&rclk=1",
    "website_url": "",
    "rating_text": "4,7",
    "stars": null,
    "number_of_reviews": null,
    "price_level": "",
    "open_hours": "",
    "extraction_timestamp": "2025-06-07T14:08:17.710Z",
    "source_name": "google",
    "source_query": "Irrigation Equipment",
    "source_country": "IR",
    "country": "Iran",
    "state": "Tehran",
    "city": "Tajrish"
  },
  {
    "source_id": "ChIJkwuETgAFjj8ROd0LGEBvxXk",
    "name": "(خدمات فنی مهندسی آزادی (نخجوان",
    "category": "(خدمات فنی مهندسی آزادی (نخجوان",
    "formatted_address": "5,0(1)",
    "phone_number": "+989137294860",
    "source_url": "https://www.google.com/maps/place/%28%D8%AE%D8%AF%D9%85%D8%A7%D8%AA+%D9%81%D9%86%DB%8C+%D9%85%D9%87%D9%86%D8%AF%D8%B3%DB%8C+%D8%A2%D8%B2%D8%A7%D8%AF%DB%8C+%28%D9%86%D8%AE%D8%AC%D9%88%D8%A7%D9%86%E2%80%AD/data=!4m7!3m6!1s0x3f8e05004e840b93:0x79c56f40180bdd39!8m2!3d35.8097872!4d51.442024!16s%2Fg%2F11lzwxg8n3!19sChIJkwuETgAFjj8ROd0LGEBvxXk?authuser=0&hl=tr&rclk=1",
    "website_url": "https://www.instagram.com/azadi_hvac_servic/",
    "rating_text": "5,0",
    "stars": null,
    "number_of_reviews": null,
    "price_level": "",
    "open_hours": "",
    "extraction_timestamp": "2025-06-07T14:08:17.711Z",
    "source_name": "google",
    "source_query": "Irrigation Equipment",
    "source_country": "IR",
    "country": "Iran",
    "state": "Tehran",
    "city": "Tajrish"
  },
  {
    "source_id": "ChIJs8USZOIFjj8RXhk1QeJJ8E8",
    "name": "Niri organic",
    "category": "Niri organic",
    "formatted_address": "5,0(22)",
    "phone_number": "+982122717402",
    "source_url": "https://www.google.com/maps/place/Niri+organic/data=!4m7!3m6!1s0x3f8e05e26412c5b3:0x4ff049e24135195e!8m2!3d35.8052017!4d51.4318586!16s%2Fg%2F11f122y_3t!19sChIJs8USZOIFjj8RXhk1QeJJ8E8?authuser=0&hl=tr&rclk=1",
    "website_url": "http://niriorganic.ir/",
    "rating_text": "5,0",
    "stars": null,
    "number_of_reviews": null,
    "price_level": "",
    "open_hours": "",
    "extraction_timestamp": "2025-06-07T14:08:17.712Z",
    "source_name": "google",
    "source_query": "Irrigation Equipment",
    "source_country": "IR",
    "country": "Iran",
    "state": "Tehran",
    "city": "Tajrish"
  },
  {
    "source_id": "ChIJLfmTHOYFjj8RpRgZzKgVg9s",
    "name": "Omid Juice Shop",
    "category": "Omid Juice Shop",
    "formatted_address": "4,3(110) · 1–1,5 Mn IRR",
    "phone_number": "+982122738506",
    "source_url": "https://www.google.com/maps/place/Omid+Juice+Shop/data=!4m7!3m6!1s0x3f8e05e61c93f92d:0xdb8315a8cc1918a5!8m2!3d35.8063468!4d51.4414328!16s%2Fg%2F11bc710nt9!19sChIJLfmTHOYFjj8RpRgZzKgVg9s?authuser=0&hl=tr&rclk=1",
    "website_url": "",
    "rating_text": "4,3",
    "stars": null,
    "number_of_reviews": null,
    "price_level": "",
    "open_hours": "",
    "extraction_timestamp": "2025-06-07T14:08:17.713Z",
    "source_name": "google",
    "source_query": "Irrigation Equipment",
    "source_country": "IR",
    "country": "Iran",
    "state": "Tehran",
    "city": "Tajrish"
  }
]
