[
  {
    "source_id": "ChIJh0R3TcoZu10RJ2oPO7EtNcw",
    "name": "Khozyain",
    "category": "Khozyain",
    "formatted_address": "4,7(23)",
    "phone_number": "",
    "source_url": "https://www.google.com/maps/place/Khozyain/data=!4m7!3m6!1s0x5dbb19ca4d774487:0xcc352db13b0f6a27!8m2!3d50.5884333!4d107.59447!16s%2Fg%2F11g4bgt0z_!19sChIJh0R3TcoZu10RJ2oPO7EtNcw?authuser=0&hl=tr&rclk=1",
    "website_url": "",
    "rating_text": "4,7",
    "stars": null,
    "number_of_reviews": null,
    "price_level": "",
    "open_hours": "",
    "extraction_timestamp": "2025-06-08T02:53:20.545Z",
    "source_name": "google",
    "source_query": "Irrigation Equipment",
    "source_country": "RU",
    "country": "Russia",
    "state": "Republic of Buryatia",
    "city": "Bichura"
  },
  {
    "source_id": "ChIJv9alzCsfu10RKOfXZIw_R4U",
    "name": "Status",
    "category": "Status",
    "formatted_address": "4,8(19)",
    "phone_number": "",
    "source_url": "https://www.google.com/maps/place/Status/data=!4m7!3m6!1s0x5dbb1f2bcca5d6bf:0x85473f8c64d7e728!8m2!3d50.6145283!4d107.5981175!16s%2Fg%2F11f658bybm!19sChIJv9alzCsfu10RKOfXZIw_R4U?authuser=0&hl=tr&rclk=1",
    "website_url": "",
    "rating_text": "4,8",
    "stars": null,
    "number_of_reviews": null,
    "price_level": "",
    "open_hours": "",
    "extraction_timestamp": "2025-06-08T02:53:20.547Z",
    "source_name": "google",
    "source_query": "Irrigation Equipment",
    "source_country": "RU",
    "country": "Russia",
    "state": "Republic of Buryatia",
    "city": "Bichura"
  },
  {
    "source_id": "ChIJo9P0eicfu10RNURsR17XUo4",
    "name": "Kaskad",
    "category": "Kaskad",
    "formatted_address": "4,2(53)",
    "phone_number": "",
    "source_url": "https://www.google.com/maps/place/Kaskad/data=!4m7!3m6!1s0x5dbb1f277af4d3a3:0x8e52d75e476c4435!8m2!3d50.5998088!4d107.6095011!16s%2Fg%2F11gmb0xzxf!19sChIJo9P0eicfu10RNURsR17XUo4?authuser=0&hl=tr&rclk=1",
    "website_url": "",
    "rating_text": "4,2",
    "stars": null,
    "number_of_reviews": null,
    "price_level": "",
    "open_hours": "",
    "extraction_timestamp": "2025-06-08T02:53:20.548Z",
    "source_name": "google",
    "source_query": "Irrigation Equipment",
    "source_country": "RU",
    "country": "Russia",
    "state": "Republic of Buryatia",
    "city": "Bichura"
  },
  {
    "source_id": "ChIJpc89LccYu10RX4gruWnkQfc",
    "name": "Titan Market",
    "category": "Titan Market",
    "formatted_address": "4,1(100)",
    "phone_number": "",
    "source_url": "https://www.google.com/maps/place/Titan+Market/data=!4m7!3m6!1s0x5dbb18c72d3dcfa5:0xf741e469b92b885f!8m2!3d50.5837039!4d107.578049!16s%2Fg%2F11f11pkzlj!19sChIJpc89LccYu10RX4gruWnkQfc?authuser=0&hl=tr&rclk=1",
    "website_url": "",
    "rating_text": "4,1",
    "stars": null,
    "number_of_reviews": null,
    "price_level": "",
    "open_hours": "",
    "extraction_timestamp": "2025-06-08T02:53:20.548Z",
    "source_name": "google",
    "source_query": "Irrigation Equipment",
    "source_country": "RU",
    "country": "Russia",
    "state": "Republic of Buryatia",
    "city": "Bichura"
  },
  {
    "source_id": "ChIJjQPfGbsfu10RQFVF0p2WDaM",
    "name": "Kameliya",
    "category": "Kameliya",
    "formatted_address": "4,1(11)",
    "phone_number": "",
    "source_url": "https://www.google.com/maps/place/Kameliya/data=!4m7!3m6!1s0x5dbb1fbb19df038d:0xa30d969dd2455540!8m2!3d50.5968974!4d107.606953!16s%2Fg%2F11f9xw9_nc!19sChIJjQPfGbsfu10RQFVF0p2WDaM?authuser=0&hl=tr&rclk=1",
    "website_url": "",
    "rating_text": "4,1",
    "stars": null,
    "number_of_reviews": null,
    "price_level": "",
    "open_hours": "",
    "extraction_timestamp": "2025-06-08T02:53:20.549Z",
    "source_name": "google",
    "source_query": "Irrigation Equipment",
    "source_country": "RU",
    "country": "Russia",
    "state": "Republic of Buryatia",
    "city": "Bichura"
  },
  {
    "source_id": "ChIJq6qqqs4Yu10RzyxKh5RM4Qc",
    "name": "Sibirskiy Dvor",
    "category": "Sibirskiy Dvor",
    "formatted_address": "Doğal Gıda Satış Yeri · ул.Тельмана, д.7+7 914 839-84-19",
    "phone_number": "+79148398419",
    "source_url": "https://www.google.com/maps/place/Sibirskiy+Dvor/data=!4m7!3m6!1s0x5dbb18ceaaaaaaab:0x7e14c94874a2ccf!8m2!3d50.5927407!4d107.5886948!16s%2Fg%2F11fvdzpsch!19sChIJq6qqqs4Yu10RzyxKh5RM4Qc?authuser=0&hl=tr&rclk=1",
    "website_url": "",
    "rating_text": "",
    "stars": null,
    "number_of_reviews": null,
    "price_level": "",
    "open_hours": "",
    "extraction_timestamp": "2025-06-08T02:53:20.552Z",
    "source_name": "google",
    "source_query": "Irrigation Equipment",
    "source_country": "RU",
    "country": "Russia",
    "state": "Republic of Buryatia",
    "city": "Bichura"
  }
]
