[
  {
    "source_id": "ChIJB1gE9QD3pF0RexfJ6T70uSs",
    "name": "Tsentral'nyy",
    "category": "Tsentral'nyy",
    "formatted_address": "4,3(42)",
    "phone_number": "",
    "source_url": "https://www.google.com/maps/place/Tsentral%27nyy/data=!4m7!3m6!1s0x5da4f700f5045807:0x2bb9f43ee9c9177b!8m2!3d50.6829892!4d106.1765953!16s%2Fg%2F1ydkczkry!19sChIJB1gE9QD3pF0RexfJ6T70uSs?authuser=0&hl=tr&rclk=1",
    "website_url": "",
    "rating_text": "4,3",
    "stars": null,
    "number_of_reviews": null,
    "price_level": "",
    "open_hours": "",
    "extraction_timestamp": "2025-06-08T02:48:13.084Z",
    "source_name": "google",
    "source_query": "Irrigation Equipment",
    "source_country": "RU",
    "country": "Russia",
    "state": "Republic of Buryatia",
    "city": "Dzhida"
  },
  {
    "source_id": "ChIJiaWqRP_2pF0R4unY5YHFJUM",
    "name": "Lemon",
    "category": "Lemon",
    "formatted_address": "4,0(23)",
    "phone_number": "",
    "source_url": "https://www.google.com/maps/place/Lemon/data=!4m7!3m6!1s0x5da4f6ff44aaa589:0x4325c581e5d8e9e2!8m2!3d50.6766242!4d106.171379!16s%2Fg%2F11dd_t12_4!19sChIJiaWqRP_2pF0R4unY5YHFJUM?authuser=0&hl=tr&rclk=1",
    "website_url": "",
    "rating_text": "4,0",
    "stars": null,
    "number_of_reviews": null,
    "price_level": "",
    "open_hours": "",
    "extraction_timestamp": "2025-06-08T02:48:13.085Z",
    "source_name": "google",
    "source_query": "Irrigation Equipment",
    "source_country": "RU",
    "country": "Russia",
    "state": "Republic of Buryatia",
    "city": "Dzhida"
  },
  {
    "source_id": "ChIJoWvQbCv1rjgR_paZVymjbFY",
    "name": "Irrigation Solution LTD",
    "category": "Irrigation Solution LTD",
    "formatted_address": "5,0(7)",
    "phone_number": "+998994444200",
    "source_url": "https://www.google.com/maps/place/Irrigation+Solution+LTD/data=!4m7!3m6!1s0x38aef52b6cd06ba1:0x566ca329579996fe!8m2!3d41.3672428!4d69.3273201!16s%2Fg%2F11kl3xzpmv!19sChIJoWvQbCv1rjgR_paZVymjbFY?authuser=0&hl=tr&rclk=1",
    "website_url": "",
    "rating_text": "5,0",
    "stars": null,
    "number_of_reviews": null,
    "price_level": "",
    "open_hours": "",
    "extraction_timestamp": "2025-06-08T02:48:13.089Z",
    "source_name": "google",
    "source_query": "Irrigation Equipment",
    "source_country": "RU",
    "country": "Russia",
    "state": "Republic of Buryatia",
    "city": "Dzhida"
  },
  {
    "source_id": "ChIJvw9WaP_2pF0RFhedq9kSbw4",
    "name": "Kasandra",
    "category": "Kasandra",
    "formatted_address": "Bakkal Â· Ulitsa Voyennyy Gorodok, 7",
    "phone_number": "",
    "source_url": "https://www.google.com/maps/place/Kasandra/data=!4m7!3m6!1s0x5da4f6ff68560fbf:0xe6f12d9ab9d1716!8m2!3d50.675473!4d106.1720985!16s%2Fg%2F11fy_7cffc!19sChIJvw9WaP_2pF0RFhedq9kSbw4?authuser=0&hl=tr&rclk=1",
    "website_url": "",
    "rating_text": "",
    "stars": null,
    "number_of_reviews": null,
    "price_level": "",
    "open_hours": "",
    "extraction_timestamp": "2025-06-08T02:48:13.089Z",
    "source_name": "google",
    "source_query": "Irrigation Equipment",
    "source_country": "RU",
    "country": "Russia",
    "state": "Republic of Buryatia",
    "city": "Dzhida"
  }
]
