[
  {
    "source_id": "ChIJR-Jt7DmjpF0RjaTePAM8b4E",
    "name": "Titan",
    "category": "Titan",
    "formatted_address": "4,0(269)",
    "phone_number": "+79041168439",
    "source_url": "https://www.google.com/maps/place/Titan/data=!4m7!3m6!1s0x5da4a339ec6de247:0x816f3c033cdea48d!8m2!3d50.3275754!4d106.4779632!16s%2Fg%2F1ydkb24hs!19sChIJR-Jt7DmjpF0RjaTePAM8b4E?authuser=0&hl=tr&rclk=1",
    "website_url": "",
    "rating_text": "4,0",
    "stars": null,
    "number_of_reviews": null,
    "price_level": "",
    "open_hours": "",
    "extraction_timestamp": "2025-06-08T03:05:38.736Z",
    "source_name": "google",
    "source_query": "Irrigation Equipment",
    "source_country": "RU",
    "country": "Russia",
    "state": "Republic of Buryatia",
    "city": "Kyakhta"
  },
  {
    "source_id": "ChIJsw4RKAS9pF0RmX68eVIWBLI",
    "name": "DNS",
    "category": "DNS",
    "formatted_address": "4,3(48)",
    "phone_number": "+78007707999",
    "source_url": "https://www.google.com/maps/place/DNS/data=!4m7!3m6!1s0x5da4bd0428110eb3:0xb204165279bc7e99!8m2!3d50.351892!4d106.449827!16s%2Fg%2F11j5vpk3sw!19sChIJsw4RKAS9pF0RmX68eVIWBLI?authuser=0&hl=tr&rclk=1",
    "website_url": "",
    "rating_text": "4,3",
    "stars": null,
    "number_of_reviews": null,
    "price_level": "",
    "open_hours": "",
    "extraction_timestamp": "2025-06-08T03:05:38.737Z",
    "source_name": "google",
    "source_query": "Irrigation Equipment",
    "source_country": "RU",
    "country": "Russia",
    "state": "Republic of Buryatia",
    "city": "Kyakhta"
  },
  {
    "source_id": "ChIJdUAszaijpF0RzpDphAli7_c",
    "name": "Nigers Nigers",
    "category": "Nigers Nigers",
    "formatted_address": "4,2(26)",
    "phone_number": "",
    "source_url": "https://www.google.com/maps/place/Nigers+Nigers/data=!4m7!3m6!1s0x5da4a3a8cd2c4075:0xf7ef620984e990ce!8m2!3d50.341946!4d106.4491188!16s%2Fg%2F11rqj8l3vf!19sChIJdUAszaijpF0RzpDphAli7_c?authuser=0&hl=tr&rclk=1",
    "website_url": "",
    "rating_text": "4,2",
    "stars": null,
    "number_of_reviews": null,
    "price_level": "",
    "open_hours": "",
    "extraction_timestamp": "2025-06-08T03:05:38.737Z",
    "source_name": "google",
    "source_query": "Irrigation Equipment",
    "source_country": "RU",
    "country": "Russia",
    "state": "Republic of Buryatia",
    "city": "Kyakhta"
  },
  {
    "source_id": "ChIJj3begGK9pF0R2yrpC-ogxBk",
    "name": "Magazin Strelets",
    "category": "Magazin Strelets",
    "formatted_address": "3,9(142)",
    "phone_number": "",
    "source_url": "https://www.google.com/maps/place/Magazin+Strelets/data=!4m7!3m6!1s0x5da4bd6280de768f:0x19c420ea0be92adb!8m2!3d50.3766732!4d106.4222254!16s%2Fg%2F11c741ttz3!19sChIJj3begGK9pF0R2yrpC-ogxBk?authuser=0&hl=tr&rclk=1",
    "website_url": "",
    "rating_text": "3,9",
    "stars": null,
    "number_of_reviews": null,
    "price_level": "",
    "open_hours": "",
    "extraction_timestamp": "2025-06-08T03:05:38.738Z",
    "source_name": "google",
    "source_query": "Irrigation Equipment",
    "source_country": "RU",
    "country": "Russia",
    "state": "Republic of Buryatia",
    "city": "Kyakhta"
  },
  {
    "source_id": "ChIJ8-pgQTejpF0RExk8TYKNzvU",
    "name": "Absolyut",
    "category": "Absolyut",
    "formatted_address": "3,8(179)",
    "phone_number": "+73012297287",
    "source_url": "https://www.google.com/maps/place/Absolyut/data=!4m7!3m6!1s0x5da4a3374160eaf3:0xf5ce8d824d3c1913!8m2!3d50.3296241!4d106.4797135!16s%2Fg%2F11d_8__6yx!19sChIJ8-pgQTejpF0RExk8TYKNzvU?authuser=0&hl=tr&rclk=1",
    "website_url": "",
    "rating_text": "3,8",
    "stars": null,
    "number_of_reviews": null,
    "price_level": "",
    "open_hours": "",
    "extraction_timestamp": "2025-06-08T03:05:38.738Z",
    "source_name": "google",
    "source_query": "Irrigation Equipment",
    "source_country": "RU",
    "country": "Russia",
    "state": "Republic of Buryatia",
    "city": "Kyakhta"
  },
  {
    "source_id": "ChIJdeI0w3K9pF0RiGRUE6GOixE",
    "name": "Diana",
    "category": "Diana",
    "formatted_address": "3,8(20)",
    "phone_number": "+79146350482",
    "source_url": "https://www.google.com/maps/place/Diana/data=!4m7!3m6!1s0x5da4bd72c334e275:0x118b8ea113546488!8m2!3d50.3786834!4d106.4491476!16s%2Fg%2F11gfjtbf5j!19sChIJdeI0w3K9pF0RiGRUE6GOixE?authuser=0&hl=tr&rclk=1",
    "website_url": "",
    "rating_text": "3,8",
    "stars": null,
    "number_of_reviews": null,
    "price_level": "",
    "open_hours": "",
    "extraction_timestamp": "2025-06-08T03:05:38.738Z",
    "source_name": "google",
    "source_query": "Irrigation Equipment",
    "source_country": "RU",
    "country": "Russia",
    "state": "Republic of Buryatia",
    "city": "Kyakhta"
  },
  {
    "source_id": "ChIJgxvQ1AijpF0RtP2GaISX-B8",
    "name": "Magazin \"Uralochka\"",
    "category": "Magazin \"Uralochka\"",
    "formatted_address": "3,6(15)",
    "phone_number": "",
    "source_url": "https://www.google.com/maps/place/Magazin+%22Uralochka%22/data=!4m7!3m6!1s0x5da4a308d4d01b83:0x1ff897846886fdb4!8m2!3d50.3245394!4d106.4820963!16s%2Fg%2F11g1fskbd1!19sChIJgxvQ1AijpF0RtP2GaISX-B8?authuser=0&hl=tr&rclk=1",
    "website_url": "",
    "rating_text": "3,6",
    "stars": null,
    "number_of_reviews": null,
    "price_level": "",
    "open_hours": "",
    "extraction_timestamp": "2025-06-08T03:05:38.739Z",
    "source_name": "google",
    "source_query": "Irrigation Equipment",
    "source_country": "RU",
    "country": "Russia",
    "state": "Republic of Buryatia",
    "city": "Kyakhta"
  },
  {
    "source_id": "ChIJw7Ysuzu9pF0Ru5dVbhY2knk",
    "name": "Magazin \"Alenushka\"",
    "category": "Magazin \"Alenushka\"",
    "formatted_address": "4,3(18)",
    "phone_number": "+79243901879",
    "source_url": "https://www.google.com/maps/place/Magazin+%22Alenushka%22/data=!4m7!3m6!1s0x5da4bd3bbb2cb6c3:0x799236166e5597bb!8m2!3d50.3565724!4d106.4506891!16s%2Fg%2F11f3jt2lh3!19sChIJw7Ysuzu9pF0Ru5dVbhY2knk?authuser=0&hl=tr&rclk=1",
    "website_url": "",
    "rating_text": "4,3",
    "stars": null,
    "number_of_reviews": null,
    "price_level": "",
    "open_hours": "",
    "extraction_timestamp": "2025-06-08T03:05:38.739Z",
    "source_name": "google",
    "source_query": "Irrigation Equipment",
    "source_country": "RU",
    "country": "Russia",
    "state": "Republic of Buryatia",
    "city": "Kyakhta"
  },
  {
    "source_id": "ChIJTSdZmpmjpF0R7KCzKc8-NPg",
    "name": "STOP цен",
    "category": "STOP цен",
    "formatted_address": "4,1(7)",
    "phone_number": "",
    "source_url": "https://www.google.com/maps/place/STOP+%D1%86%D0%B5%D0%BD/data=!4m7!3m6!1s0x5da4a3999a59274d:0xf8343ecf29b3a0ec!8m2!3d50.3286103!4d106.4718392!16s%2Fg%2F11s1bdrklk!19sChIJTSdZmpmjpF0R7KCzKc8-NPg?authuser=0&hl=tr&rclk=1",
    "website_url": "",
    "rating_text": "4,1",
    "stars": null,
    "number_of_reviews": null,
    "price_level": "",
    "open_hours": "",
    "extraction_timestamp": "2025-06-08T03:05:38.740Z",
    "source_name": "google",
    "source_query": "Irrigation Equipment",
    "source_country": "RU",
    "country": "Russia",
    "state": "Republic of Buryatia",
    "city": "Kyakhta"
  },
  {
    "source_id": "ChIJGRdIjDC9pF0REV030k5A9ng",
    "name": "Tsentral'nyy Univermag",
    "category": "Tsentral'nyy Univermag",
    "formatted_address": "4,3(31)",
    "phone_number": "",
    "source_url": "https://www.google.com/maps/place/Tsentral%27nyy+Univermag/data=!4m7!3m6!1s0x5da4bd308c481719:0x78f6404ed2375d11!8m2!3d50.35299!4d106.4491!16s%2Fg%2F11gbxcp26n!19sChIJGRdIjDC9pF0REV030k5A9ng?authuser=0&hl=tr&rclk=1",
    "website_url": "",
    "rating_text": "4,3",
    "stars": null,
    "number_of_reviews": null,
    "price_level": "",
    "open_hours": "",
    "extraction_timestamp": "2025-06-08T03:05:38.740Z",
    "source_name": "google",
    "source_query": "Irrigation Equipment",
    "source_country": "RU",
    "country": "Russia",
    "state": "Republic of Buryatia",
    "city": "Kyakhta"
  },
  {
    "source_id": "ChIJw7Ysuzu9pF0R0iRjnS5JfpM",
    "name": "Apteka",
    "category": "Apteka",
    "formatted_address": "4,5(2)",
    "phone_number": "+73014292814",
    "source_url": "https://www.google.com/maps/place/Apteka/data=!4m7!3m6!1s0x5da4bd3bbb2cb6c3:0x937e492e9d6324d2!8m2!3d50.357264!4d106.4516152!16s%2Fg%2F11f__h3fzh!19sChIJw7Ysuzu9pF0R0iRjnS5JfpM?authuser=0&hl=tr&rclk=1",
    "website_url": "",
    "rating_text": "4,5",
    "stars": null,
    "number_of_reviews": null,
    "price_level": "",
    "open_hours": "",
    "extraction_timestamp": "2025-06-08T03:05:38.741Z",
    "source_name": "google",
    "source_query": "Irrigation Equipment",
    "source_country": "RU",
    "country": "Russia",
    "state": "Republic of Buryatia",
    "city": "Kyakhta"
  }
]
