[
  {
    "source_id": "ChIJdUaD0T6-ul0RunNpFMD1CPc",
    "name": "Stroymarket",
    "category": "Stroymarket",
    "formatted_address": "4,5(52)",
    "phone_number": "+79021675837",
    "source_url": "https://www.google.com/maps/place/Stroymarket/data=!4m7!3m6!1s0x5dbabe3ed1834675:0xf708f5c0146973ba!8m2!3d51.0505752!4d107.820137!16s%2Fg%2F11c6cbl4vt!19sChIJdUaD0T6-ul0RunNpFMD1CPc?authuser=0&hl=tr&rclk=1",
    "website_url": "",
    "rating_text": "4,5",
    "stars": null,
    "number_of_reviews": null,
    "price_level": "",
    "open_hours": "",
    "extraction_timestamp": "2025-06-08T02:57:53.967Z",
    "source_name": "google",
    "source_query": "Irrigation Equipment",
    "source_country": "RU",
    "country": "Russia",
    "state": "Republic of Buryatia",
    "city": "Mukhorshibirskiy Rayon"
  },
  {
    "source_id": "ChIJEwLAbzm-ul0R9fD_-xQYvfM",
    "name": "Titan",
    "category": "Titan",
    "formatted_address": "4,0(109)",
    "phone_number": "+73012372432",
    "source_url": "https://www.google.com/maps/place/Titan/data=!4m7!3m6!1s0x5dbabe396fc00213:0xf3bd1814fbfff0f5!8m2!3d51.0481931!4d107.8210607!16s%2Fg%2F11f0wmwmz0!19sChIJEwLAbzm-ul0R9fD_-xQYvfM?authuser=0&hl=tr&rclk=1",
    "website_url": "",
    "rating_text": "4,0",
    "stars": null,
    "number_of_reviews": null,
    "price_level": "",
    "open_hours": "",
    "extraction_timestamp": "2025-06-08T02:57:53.969Z",
    "source_name": "google",
    "source_query": "Irrigation Equipment",
    "source_country": "RU",
    "country": "Russia",
    "state": "Republic of Buryatia",
    "city": "Mukhorshibirskiy Rayon"
  },
  {
    "source_id": "ChIJ4emnSTq-ul0ROMBjbwzblXg",
    "name": "Kooperator",
    "category": "Kooperator",
    "formatted_address": "4,1(7)",
    "phone_number": "",
    "source_url": "https://www.google.com/maps/place/Kooperator/data=!4m7!3m6!1s0x5dbabe3a49a7e9e1:0x7895db0c6f63c038!8m2!3d51.0466374!4d107.8233483!16s%2Fg%2F11hcds67dm!19sChIJ4emnSTq-ul0ROMBjbwzblXg?authuser=0&hl=tr&rclk=1",
    "website_url": "",
    "rating_text": "4,1",
    "stars": null,
    "number_of_reviews": null,
    "price_level": "",
    "open_hours": "",
    "extraction_timestamp": "2025-06-08T02:57:53.971Z",
    "source_name": "google",
    "source_query": "Irrigation Equipment",
    "source_country": "RU",
    "country": "Russia",
    "state": "Republic of Buryatia",
    "city": "Mukhorshibirskiy Rayon"
  },
  {
    "source_id": "ChIJnQBFuyi-ul0RNdjetTad3gc",
    "name": "U Ksyushi",
    "category": "U Ksyushi",
    "formatted_address": "4,7(29)",
    "phone_number": "",
    "source_url": "https://www.google.com/maps/place/U+Ksyushi/data=!4m7!3m6!1s0x5dbabe28bb45009d:0x7de9d36b5ded835!8m2!3d51.0418027!4d107.8352329!16s%2Fg%2F11gg5n5s1v!19sChIJnQBFuyi-ul0RNdjetTad3gc?authuser=0&hl=tr&rclk=1",
    "website_url": "",
    "rating_text": "4,7",
    "stars": null,
    "number_of_reviews": null,
    "price_level": "",
    "open_hours": "",
    "extraction_timestamp": "2025-06-08T02:57:53.972Z",
    "source_name": "google",
    "source_query": "Irrigation Equipment",
    "source_country": "RU",
    "country": "Russia",
    "state": "Republic of Buryatia",
    "city": "Mukhorshibirskiy Rayon"
  },
  {
    "source_id": "ChIJfxYBswt8sF0R-Po5B8QU6xw",
    "name": "Magazin Titan",
    "category": "Magazin Titan",
    "formatted_address": "3,6(146)",
    "phone_number": "+73012371168",
    "source_url": "https://www.google.com/maps/place/Magazin+Titan/data=!4m7!3m6!1s0x5db07c0bb301167f:0x1ceb14c40739faf8!8m2!3d51.342966!4d108.435746!16s%2Fg%2F11fy_dhmj0!19sChIJfxYBswt8sF0R-Po5B8QU6xw?authuser=0&hl=tr&rclk=1",
    "website_url": "",
    "rating_text": "3,6",
    "stars": null,
    "number_of_reviews": null,
    "price_level": "",
    "open_hours": "",
    "extraction_timestamp": "2025-06-08T02:57:53.974Z",
    "source_name": "google",
    "source_query": "Irrigation Equipment",
    "source_country": "RU",
    "country": "Russia",
    "state": "Republic of Buryatia",
    "city": "Mukhorshibirskiy Rayon"
  },
  {
    "source_id": "ChIJUSvBVzq-ul0RVXMIJAoMX5s",
    "name": "Rus'",
    "category": "Rus'",
    "formatted_address": "4,5(10)",
    "phone_number": "+73014321966",
    "source_url": "https://www.google.com/maps/place/Rus%27/data=!4m7!3m6!1s0x5dbabe3a57c12b51:0x9b5f0c0a24087355!8m2!3d51.0463166!4d107.8247896!16s%2Fg%2F11hcd7t6qb!19sChIJUSvBVzq-ul0RVXMIJAoMX5s?authuser=0&hl=tr&rclk=1",
    "website_url": "",
    "rating_text": "4,5",
    "stars": null,
    "number_of_reviews": null,
    "price_level": "",
    "open_hours": "",
    "extraction_timestamp": "2025-06-08T02:57:53.976Z",
    "source_name": "google",
    "source_query": "Irrigation Equipment",
    "source_country": "RU",
    "country": "Russia",
    "state": "Republic of Buryatia",
    "city": "Mukhorshibirskiy Rayon"
  },
  {
    "source_id": "ChIJiyJL5EC-ul0RL3Hxo7FHakY",
    "name": "Produktovyy Magazin Perekrestok",
    "category": "Produktovyy Magazin Perekrestok",
    "formatted_address": "4,5(34)",
    "phone_number": "+79025331398",
    "source_url": "https://www.google.com/maps/place/Produktovyy+Magazin+Perekrestok/data=!4m7!3m6!1s0x5dbabe40e44b228b:0x466a47b1a3f1712f!8m2!3d51.0530598!4d107.8145016!16s%2Fg%2F11dxs3859r!19sChIJiyJL5EC-ul0RL3Hxo7FHakY?authuser=0&hl=tr&rclk=1",
    "website_url": "",
    "rating_text": "4,5",
    "stars": null,
    "number_of_reviews": null,
    "price_level": "",
    "open_hours": "",
    "extraction_timestamp": "2025-06-08T02:57:53.978Z",
    "source_name": "google",
    "source_query": "Irrigation Equipment",
    "source_country": "RU",
    "country": "Russia",
    "state": "Republic of Buryatia",
    "city": "Mukhorshibirskiy Rayon"
  },
  {
    "source_id": "ChIJ61xBYTq-ul0RdIRdakFcAdA",
    "name": "ТД Барис",
    "category": "ТД Барис",
    "formatted_address": "3,9(113)",
    "phone_number": "",
    "source_url": "https://www.google.com/maps/place/%D0%A2%D0%94+%D0%91%D0%B0%D1%80%D0%B8%D1%81/data=!4m7!3m6!1s0x5dbabe3a61415ceb:0xd0015c416a5d8474!8m2!3d51.0426105!4d107.8335527!16s%2Fg%2F11g72mvwxf!19sChIJ61xBYTq-ul0RdIRdakFcAdA?authuser=0&hl=tr&rclk=1",
    "website_url": "",
    "rating_text": "3,9",
    "stars": null,
    "number_of_reviews": null,
    "price_level": "",
    "open_hours": "",
    "extraction_timestamp": "2025-06-08T02:57:53.979Z",
    "source_name": "google",
    "source_query": "Irrigation Equipment",
    "source_country": "RU",
    "country": "Russia",
    "state": "Republic of Buryatia",
    "city": "Mukhorshibirskiy Rayon"
  },
  {
    "source_id": "ChIJ6YGYrRW-ul0Rt0VDupdXIJw",
    "name": "Slavyanka",
    "category": "Slavyanka",
    "formatted_address": "4,3(36)",
    "phone_number": "",
    "source_url": "https://www.google.com/maps/place/Slavyanka/data=!4m7!3m6!1s0x5dbabe15ad9881e9:0x9c205797ba4345b7!8m2!3d51.0566806!4d107.8226166!16s%2Fg%2F11c1vhq4cb!19sChIJ6YGYrRW-ul0Rt0VDupdXIJw?authuser=0&hl=tr&rclk=1",
    "website_url": "",
    "rating_text": "4,3",
    "stars": null,
    "number_of_reviews": null,
    "price_level": "",
    "open_hours": "",
    "extraction_timestamp": "2025-06-08T02:57:53.980Z",
    "source_name": "google",
    "source_query": "Irrigation Equipment",
    "source_country": "RU",
    "country": "Russia",
    "state": "Republic of Buryatia",
    "city": "Mukhorshibirskiy Rayon"
  },
  {
    "source_id": "ChIJVxicKTC-ul0R2VTuuphUnxk",
    "name": "Брусничный CAM dungeon master",
    "category": "Брусничный CAM dungeon master",
    "formatted_address": "3,9(22)",
    "phone_number": "",
    "source_url": "https://www.google.com/maps/place/%D0%91%D1%80%D1%83%D1%81%D0%BD%D0%B8%D1%87%D0%BD%D1%8B%D0%B9+CAM+dungeon+master/data=!4m7!3m6!1s0x5dbabe30299c1857:0x199f5498baee54d9!8m2!3d51.0417614!4d107.8256416!16s%2Fg%2F11hcd7w6x4!19sChIJVxicKTC-ul0R2VTuuphUnxk?authuser=0&hl=tr&rclk=1",
    "website_url": "",
    "rating_text": "3,9",
    "stars": null,
    "number_of_reviews": null,
    "price_level": "",
    "open_hours": "",
    "extraction_timestamp": "2025-06-08T02:57:53.982Z",
    "source_name": "google",
    "source_query": "Irrigation Equipment",
    "source_country": "RU",
    "country": "Russia",
    "state": "Republic of Buryatia",
    "city": "Mukhorshibirskiy Rayon"
  },
  {
    "source_id": "ChIJM0kbk459sF0Rmh5RTRNb71o",
    "name": "Magazin \"Selenga\"",
    "category": "Magazin \"Selenga\"",
    "formatted_address": "4,1(18)",
    "phone_number": "",
    "source_url": "https://www.google.com/maps/place/Magazin+%22Selenga%22/data=!4m7!3m6!1s0x5db07d8e931b4933:0x5aef5b134d511e9a!8m2!3d51.3453708!4d108.4391092!16s%2Fg%2F11fhln6lyy!19sChIJM0kbk459sF0Rmh5RTRNb71o?authuser=0&hl=tr&rclk=1",
    "website_url": "",
    "rating_text": "4,1",
    "stars": null,
    "number_of_reviews": null,
    "price_level": "",
    "open_hours": "",
    "extraction_timestamp": "2025-06-08T02:57:53.983Z",
    "source_name": "google",
    "source_query": "Irrigation Equipment",
    "source_country": "RU",
    "country": "Russia",
    "state": "Republic of Buryatia",
    "city": "Mukhorshibirskiy Rayon"
  },
  {
    "source_id": "ChIJDS9tuTu-ul0RJe-RuFzk7OA",
    "name": "Fortuna",
    "category": "Fortuna",
    "formatted_address": "4,1(14)",
    "phone_number": "+79024561596",
    "source_url": "https://www.google.com/maps/place/Fortuna/data=!4m7!3m6!1s0x5dbabe3bb96d2f0d:0xe0ece45cb891ef25!8m2!3d51.0478241!4d107.8241683!16s%2Fg%2F11f4l9mzx0!19sChIJDS9tuTu-ul0RJe-RuFzk7OA?authuser=0&hl=tr&rclk=1",
    "website_url": "",
    "rating_text": "4,1",
    "stars": null,
    "number_of_reviews": null,
    "price_level": "",
    "open_hours": "",
    "extraction_timestamp": "2025-06-08T02:57:53.985Z",
    "source_name": "google",
    "source_query": "Irrigation Equipment",
    "source_country": "RU",
    "country": "Russia",
    "state": "Republic of Buryatia",
    "city": "Mukhorshibirskiy Rayon"
  },
  {
    "source_id": "ChIJaSYsIix7sF0RDHhUELOrAeM",
    "name": "Magazin Produkty",
    "category": "Magazin Produkty",
    "formatted_address": "4,1(16)",
    "phone_number": "",
    "source_url": "https://www.google.com/maps/place/Magazin+Produkty/data=!4m7!3m6!1s0x5db07b2c222c2669:0xe301abb31054780c!8m2!3d51.3434725!4d108.420757!16s%2Fg%2F11gxlmwjns!19sChIJaSYsIix7sF0RDHhUELOrAeM?authuser=0&hl=tr&rclk=1",
    "website_url": "",
    "rating_text": "4,1",
    "stars": null,
    "number_of_reviews": null,
    "price_level": "",
    "open_hours": "",
    "extraction_timestamp": "2025-06-08T02:57:53.986Z",
    "source_name": "google",
    "source_query": "Irrigation Equipment",
    "source_country": "RU",
    "country": "Russia",
    "state": "Republic of Buryatia",
    "city": "Mukhorshibirskiy Rayon"
  },
  {
    "source_id": "ChIJ6dAq0qqBul0RegUjdgckgX4",
    "name": "Lastochka",
    "category": "Lastochka",
    "formatted_address": "3,3(29)",
    "phone_number": "",
    "source_url": "https://www.google.com/maps/place/Lastochka/data=!4m7!3m6!1s0x5dba81aad22ad0e9:0x7e8124077623057a!8m2!3d51.1787877!4d108.3301423!16s%2Fg%2F11f6dvq_hz!19sChIJ6dAq0qqBul0RegUjdgckgX4?authuser=0&hl=tr&rclk=1",
    "website_url": "",
    "rating_text": "3,3",
    "stars": null,
    "number_of_reviews": null,
    "price_level": "",
    "open_hours": "",
    "extraction_timestamp": "2025-06-08T02:57:53.987Z",
    "source_name": "google",
    "source_query": "Irrigation Equipment",
    "source_country": "RU",
    "country": "Russia",
    "state": "Republic of Buryatia",
    "city": "Mukhorshibirskiy Rayon"
  },
  {
    "source_id": "ChIJO-6vk3C_ul0RrYFAx8L0u2Q",
    "name": "Dauriya",
    "category": "Dauriya",
    "formatted_address": "2,0(5)",
    "phone_number": "",
    "source_url": "https://www.google.com/maps/place/Dauriya/data=!4m7!3m6!1s0x5dbabf7093afee3b:0x64bbf4c2c74081ad!8m2!3d51.0491384!4d107.8391667!16s%2Fg%2F11gh9m65_g!19sChIJO-6vk3C_ul0RrYFAx8L0u2Q?authuser=0&hl=tr&rclk=1",
    "website_url": "",
    "rating_text": "2,0",
    "stars": null,
    "number_of_reviews": null,
    "price_level": "",
    "open_hours": "",
    "extraction_timestamp": "2025-06-08T02:57:53.988Z",
    "source_name": "google",
    "source_query": "Irrigation Equipment",
    "source_country": "RU",
    "country": "Russia",
    "state": "Republic of Buryatia",
    "city": "Mukhorshibirskiy Rayon"
  },
  {
    "source_id": "ChIJ0ZJC4mqXul0R8u4NrSfUgWQ",
    "name": "Magazin Ulybka",
    "category": "Magazin Ulybka",
    "formatted_address": "3,5(8)",
    "phone_number": "",
    "source_url": "https://www.google.com/maps/place/Magazin+Ulybka/data=!4m7!3m6!1s0x5dba976ae24292d1:0x6481d427ad0deef2!8m2!3d51.0970698!4d107.99657!16s%2Fg%2F11g4jdbdpw!19sChIJ0ZJC4mqXul0R8u4NrSfUgWQ?authuser=0&hl=tr&rclk=1",
    "website_url": "",
    "rating_text": "3,5",
    "stars": null,
    "number_of_reviews": null,
    "price_level": "",
    "open_hours": "",
    "extraction_timestamp": "2025-06-08T02:57:53.989Z",
    "source_name": "google",
    "source_query": "Irrigation Equipment",
    "source_country": "RU",
    "country": "Russia",
    "state": "Republic of Buryatia",
    "city": "Mukhorshibirskiy Rayon"
  },
  {
    "source_id": "ChIJJbqU9zq-ul0RlgX7EoLt0fA",
    "name": "Gastronom",
    "category": "Gastronom",
    "formatted_address": "3,4(9)",
    "phone_number": "",
    "source_url": "https://www.google.com/maps/place/Gastronom/data=!4m7!3m6!1s0x5dbabe3af794ba25:0xf0d1ed8212fb0596!8m2!3d51.0461369!4d107.8248785!16s%2Fg%2F11gg5ngmc1!19sChIJJbqU9zq-ul0RlgX7EoLt0fA?authuser=0&hl=tr&rclk=1",
    "website_url": "",
    "rating_text": "3,4",
    "stars": null,
    "number_of_reviews": null,
    "price_level": "",
    "open_hours": "",
    "extraction_timestamp": "2025-06-08T02:57:53.990Z",
    "source_name": "google",
    "source_query": "Irrigation Equipment",
    "source_country": "RU",
    "country": "Russia",
    "state": "Republic of Buryatia",
    "city": "Mukhorshibirskiy Rayon"
  },
  {
    "source_id": "ChIJG3JTvGZ2pV0RuZB5uyJWzIU",
    "name": "Torgovyy Kompleks Kooperator",
    "category": "Torgovyy Kompleks Kooperator",
    "formatted_address": "3,9(114)",
    "phone_number": "",
    "source_url": "https://www.google.com/maps/place/Torgovyy+Kompleks+Kooperator/data=!4m7!3m6!1s0x5da57666bc53721b:0x85cc5622bb7990b9!8m2!3d51.2891677!4d106.5288338!16s%2Fg%2F11cp676jbm!19sChIJG3JTvGZ2pV0RuZB5uyJWzIU?authuser=0&hl=tr&rclk=1",
    "website_url": "",
    "rating_text": "3,9",
    "stars": null,
    "number_of_reviews": null,
    "price_level": "",
    "open_hours": "",
    "extraction_timestamp": "2025-06-08T02:57:53.992Z",
    "source_name": "google",
    "source_query": "Irrigation Equipment",
    "source_country": "RU",
    "country": "Russia",
    "state": "Republic of Buryatia",
    "city": "Mukhorshibirskiy Rayon"
  },
  {
    "source_id": "ChIJd0IxGjq-ul0RcgMPFM56iBI",
    "name": "Avtozapchasti Ot Avtomira",
    "category": "Avtozapchasti Ot Avtomira",
    "formatted_address": "3,8(10)",
    "phone_number": "",
    "source_url": "https://www.google.com/maps/place/Avtozapchasti+Ot+Avtomira/data=!4m7!3m6!1s0x5dbabe3a1a314277:0x12887ace140f0372!8m2!3d51.045967!4d107.8222217!16s%2Fg%2F11fxxytvgc!19sChIJd0IxGjq-ul0RcgMPFM56iBI?authuser=0&hl=tr&rclk=1",
    "website_url": "",
    "rating_text": "3,8",
    "stars": null,
    "number_of_reviews": null,
    "price_level": "",
    "open_hours": "",
    "extraction_timestamp": "2025-06-08T02:57:53.993Z",
    "source_name": "google",
    "source_query": "Irrigation Equipment",
    "source_country": "RU",
    "country": "Russia",
    "state": "Republic of Buryatia",
    "city": "Mukhorshibirskiy Rayon"
  },
  {
    "source_id": "ChIJp5QlHVQUsF0RuPzhL0Q-3js",
    "name": "S. Staraya Bryan'",
    "category": "S. Staraya Bryan'",
    "formatted_address": "4,5(26)",
    "phone_number": "+79244536688",
    "source_url": "https://www.google.com/maps/place/S.+Staraya+Bryan%27/data=!4m7!3m6!1s0x5db014541d2594a7:0x3bde3e442fe1fcb8!8m2!3d51.5856926!4d108.1322305!16s%2Fg%2F11b8zr0scc!19sChIJp5QlHVQUsF0RuPzhL0Q-3js?authuser=0&hl=tr&rclk=1",
    "website_url": "",
    "rating_text": "4,5",
    "stars": null,
    "number_of_reviews": null,
    "price_level": "",
    "open_hours": "",
    "extraction_timestamp": "2025-06-08T02:57:53.994Z",
    "source_name": "google",
    "source_query": "Irrigation Equipment",
    "source_country": "RU",
    "country": "Russia",
    "state": "Republic of Buryatia",
    "city": "Mukhorshibirskiy Rayon"
  },
  {
    "source_id": "ChIJG9WwaKjFr10R5mx6LVtfvLU",
    "name": "\"Abvas\" Stroitel'naya Montazhnaya Kompaniya",
    "category": "\"Abvas\" Stroitel'naya Montazhnaya Kompaniya",
    "formatted_address": "5,0(6)",
    "phone_number": "+73012515120",
    "source_url": "https://www.google.com/maps/place/%22Abvas%22+Stroitel%27naya+Montazhnaya+Kompaniya/data=!4m7!3m6!1s0x5dafc5a868b0d51b:0xb5bc5f5b2d7a6ce6!8m2!3d51.8230891!4d107.6350187!16s%2Fg%2F11hdjcl2mh!19sChIJG9WwaKjFr10R5mx6LVtfvLU?authuser=0&hl=tr&rclk=1",
    "website_url": "",
    "rating_text": "5,0",
    "stars": null,
    "number_of_reviews": null,
    "price_level": "",
    "open_hours": "",
    "extraction_timestamp": "2025-06-08T02:57:53.997Z",
    "source_name": "google",
    "source_query": "Irrigation Equipment",
    "source_country": "RU",
    "country": "Russia",
    "state": "Republic of Buryatia",
    "city": "Mukhorshibirskiy Rayon"
  },
  {
    "source_id": "ChIJUVyW7bvqr10RM3hFmvT5TrA",
    "name": "Титан Иволгинская ярмарка",
    "category": "Титан Иволгинская ярмарка",
    "formatted_address": "3,9(367)",
    "phone_number": "+73012297390",
    "source_url": "https://www.google.com/maps/place/%D0%A2%D0%B8%D1%82%D0%B0%D0%BD+%D0%98%D0%B2%D0%BE%D0%BB%D0%B3%D0%B8%D0%BD%D1%81%D0%BA%D0%B0%D1%8F+%D1%8F%D1%80%D0%BC%D0%B0%D1%80%D0%BA%D0%B0/data=!4m7!3m6!1s0x5dafeabbed965c51:0xb04ef9f49a457833!8m2!3d51.7493817!4d107.2952029!16s%2Fg%2F11c0rqd0m_!19sChIJUVyW7bvqr10RM3hFmvT5TrA?authuser=0&hl=tr&rclk=1",
    "website_url": "",
    "rating_text": "3,9",
    "stars": null,
    "number_of_reviews": null,
    "price_level": "",
    "open_hours": "",
    "extraction_timestamp": "2025-06-08T02:57:53.998Z",
    "source_name": "google",
    "source_query": "Irrigation Equipment",
    "source_country": "RU",
    "country": "Russia",
    "state": "Republic of Buryatia",
    "city": "Mukhorshibirskiy Rayon"
  },
  {
    "source_id": "ChIJS6tex7zqr10Rqy-fZSwO3d0",
    "name": "Magazin \"Produkty\", Ip Buyantuyeva",
    "category": "Magazin \"Produkty\", Ip Buyantuyeva",
    "formatted_address": "Magazin \"Produkty\", Ip Buyantuyeva",
    "phone_number": "+79516383134",
    "source_url": "https://www.google.com/maps/place/Magazin+%22Produkty%22,+Ip+Buyantuyeva/data=!4m7!3m6!1s0x5dafeabcc75eab4b:0xdddd0e2c659f2fab!8m2!3d51.7519966!4d107.3000531!16s%2Fg%2F11c72k16md!19sChIJS6tex7zqr10Rqy-fZSwO3d0?authuser=0&hl=tr&rclk=1",
    "website_url": "",
    "rating_text": "4,4",
    "stars": null,
    "number_of_reviews": null,
    "price_level": "",
    "open_hours": "",
    "extraction_timestamp": "2025-06-08T02:57:54.000Z",
    "source_name": "google",
    "source_query": "Irrigation Equipment",
    "source_country": "RU",
    "country": "Russia",
    "state": "Republic of Buryatia",
    "city": "Mukhorshibirskiy Rayon"
  },
  {
    "source_id": "ChIJpZJ7MJXpr10RyTzsOQrXc0M",
    "name": "Magazin \"Almaz\"",
    "category": "Magazin \"Almaz\"",
    "formatted_address": "3,8(18)",
    "phone_number": "",
    "source_url": "https://www.google.com/maps/place/Magazin+%22Almaz%22/data=!4m7!3m6!1s0x5dafe995307b92a5:0x4373d70a39ec3cc9!8m2!3d51.7201151!4d107.4740992!16s%2Fg%2F11gjw34zn1!19sChIJpZJ7MJXpr10RyTzsOQrXc0M?authuser=0&hl=tr&rclk=1",
    "website_url": "",
    "rating_text": "3,8",
    "stars": null,
    "number_of_reviews": null,
    "price_level": "",
    "open_hours": "",
    "extraction_timestamp": "2025-06-08T02:57:54.001Z",
    "source_name": "google",
    "source_query": "Irrigation Equipment",
    "source_country": "RU",
    "country": "Russia",
    "state": "Republic of Buryatia",
    "city": "Mukhorshibirskiy Rayon"
  },
  {
    "source_id": "ChIJbU5lJIzfr10RP46un1Pcp6M",
    "name": "Magazin \"Pervyy\"",
    "category": "Magazin \"Pervyy\"",
    "formatted_address": "4,9(10)",
    "phone_number": "",
    "source_url": "https://www.google.com/maps/place/Magazin+%22Pervyy%22/data=!4m7!3m6!1s0x5dafdf8c24654e6d:0xa3a7dc539fae8e3f!8m2!3d51.7422854!4d107.7798476!16s%2Fg%2F11gy41wqky!19sChIJbU5lJIzfr10RP46un1Pcp6M?authuser=0&hl=tr&rclk=1",
    "website_url": "",
    "rating_text": "4,9",
    "stars": null,
    "number_of_reviews": null,
    "price_level": "",
    "open_hours": "",
    "extraction_timestamp": "2025-06-08T02:57:54.002Z",
    "source_name": "google",
    "source_query": "Irrigation Equipment",
    "source_country": "RU",
    "country": "Russia",
    "state": "Republic of Buryatia",
    "city": "Mukhorshibirskiy Rayon"
  },
  {
    "source_id": "ChIJhXuf2gTar10RuTCvSbt8S_I",
    "name": "монтаж отопления частном доме в улан-удэ",
    "category": "монтаж отопления частном доме в улан-удэ",
    "formatted_address": "4,9(7)",
    "phone_number": "+79836379124",
    "source_url": "https://www.google.com/maps/place/%D0%BC%D0%BE%D0%BD%D1%82%D0%B0%D0%B6+%D0%BE%D1%82%D0%BE%D0%BF%D0%BB%D0%B5%D0%BD%D0%B8%D1%8F+%D1%87%D0%B0%D1%81%D1%82%D0%BD%D0%BE%D0%BC+%D0%B4%D0%BE%D0%BC%D0%B5+%D0%B2+%D1%83%D0%BB%D0%B0%D0%BD-%D1%83%D0%B4%D1%8D/data=!4m7!3m6!1s0x5dafda04da9f7b85:0xf24b7cbb49af30b9!8m2!3d51.862899!4d107.7245237!16s%2Fg%2F11fx2_5fh5!19sChIJhXuf2gTar10RuTCvSbt8S_I?authuser=0&hl=tr&rclk=1",
    "website_url": "",
    "rating_text": "4,9",
    "stars": null,
    "number_of_reviews": null,
    "price_level": "",
    "open_hours": "",
    "extraction_timestamp": "2025-06-08T02:57:54.004Z",
    "source_name": "google",
    "source_query": "Irrigation Equipment",
    "source_country": "RU",
    "country": "Russia",
    "state": "Republic of Buryatia",
    "city": "Mukhorshibirskiy Rayon"
  },
  {
    "source_id": "ChIJ33FN3VLdr10RQbtFWYO98uo",
    "name": "Magazin Titan",
    "category": "Magazin Titan",
    "formatted_address": "3,7(301)",
    "phone_number": "",
    "source_url": "https://www.google.com/maps/place/Magazin+Titan/data=!4m7!3m6!1s0x5dafdd52dd4d71df:0xeaf2bd835945bb41!8m2!3d51.738212!4d107.5259456!16s%2Fg%2F11gbk2xnc4!19sChIJ33FN3VLdr10RQbtFWYO98uo?authuser=0&hl=tr&rclk=1",
    "website_url": "",
    "rating_text": "3,7",
    "stars": null,
    "number_of_reviews": null,
    "price_level": "",
    "open_hours": "",
    "extraction_timestamp": "2025-06-08T02:57:54.005Z",
    "source_name": "google",
    "source_query": "Irrigation Equipment",
    "source_country": "RU",
    "country": "Russia",
    "state": "Republic of Buryatia",
    "city": "Mukhorshibirskiy Rayon"
  },
  {
    "source_id": "ChIJo6C9Durdr10RFSVdOW3lOSU",
    "name": "Absolyut",
    "category": "Absolyut",
    "formatted_address": "3,8(54)",
    "phone_number": "+73012717000",
    "source_url": "https://www.google.com/maps/place/Absolyut/data=!4m7!3m6!1s0x5dafddea0ebda0a3:0x2539e56d395d2515!8m2!3d51.7342065!4d107.5264914!16s%2Fg%2F11lh3wp9cf!19sChIJo6C9Durdr10RFSVdOW3lOSU?authuser=0&hl=tr&rclk=1",
    "website_url": "",
    "rating_text": "3,8",
    "stars": null,
    "number_of_reviews": null,
    "price_level": "",
    "open_hours": "",
    "extraction_timestamp": "2025-06-08T02:57:54.006Z",
    "source_name": "google",
    "source_query": "Irrigation Equipment",
    "source_country": "RU",
    "country": "Russia",
    "state": "Republic of Buryatia",
    "city": "Mukhorshibirskiy Rayon"
  }
]
