[
  {
    "source_id": "ChIJdUaD0T6-ul0RunNpFMD1CPc",
    "name": "Stroymarket",
    "category": "Stroymarket",
    "formatted_address": "4,5(52)",
    "phone_number": "+79021675837",
    "source_url": "https://www.google.com/maps/place/Stroymarket/data=!4m7!3m6!1s0x5dbabe3ed1834675:0xf708f5c0146973ba!8m2!3d51.0505752!4d107.820137!16s%2Fg%2F11c6cbl4vt!19sChIJdUaD0T6-ul0RunNpFMD1CPc?authuser=0&hl=tr&rclk=1",
    "website_url": "",
    "rating_text": "4,5",
    "stars": null,
    "number_of_reviews": null,
    "price_level": "",
    "open_hours": "",
    "extraction_timestamp": "2025-06-08T02:47:10.149Z",
    "source_name": "google",
    "source_query": "Irrigation Equipment",
    "source_country": "RU",
    "country": "Russia",
    "state": "Republic of Buryatia",
    "city": "Mukhorshibir’"
  },
  {
    "source_id": "ChIJEwLAbzm-ul0R9fD_-xQYvfM",
    "name": "Titan",
    "category": "Titan",
    "formatted_address": "4,0(109)",
    "phone_number": "+73012372432",
    "source_url": "https://www.google.com/maps/place/Titan/data=!4m7!3m6!1s0x5dbabe396fc00213:0xf3bd1814fbfff0f5!8m2!3d51.0481931!4d107.8210607!16s%2Fg%2F11f0wmwmz0!19sChIJEwLAbzm-ul0R9fD_-xQYvfM?authuser=0&hl=tr&rclk=1",
    "website_url": "",
    "rating_text": "4,0",
    "stars": null,
    "number_of_reviews": null,
    "price_level": "",
    "open_hours": "",
    "extraction_timestamp": "2025-06-08T02:47:10.149Z",
    "source_name": "google",
    "source_query": "Irrigation Equipment",
    "source_country": "RU",
    "country": "Russia",
    "state": "Republic of Buryatia",
    "city": "Mukhorshibir’"
  },
  {
    "source_id": "ChIJ4emnSTq-ul0ROMBjbwzblXg",
    "name": "Kooperator",
    "category": "Kooperator",
    "formatted_address": "4,1(7)",
    "phone_number": "",
    "source_url": "https://www.google.com/maps/place/Kooperator/data=!4m7!3m6!1s0x5dbabe3a49a7e9e1:0x7895db0c6f63c038!8m2!3d51.0466374!4d107.8233483!16s%2Fg%2F11hcds67dm!19sChIJ4emnSTq-ul0ROMBjbwzblXg?authuser=0&hl=tr&rclk=1",
    "website_url": "",
    "rating_text": "4,1",
    "stars": null,
    "number_of_reviews": null,
    "price_level": "",
    "open_hours": "",
    "extraction_timestamp": "2025-06-08T02:47:10.149Z",
    "source_name": "google",
    "source_query": "Irrigation Equipment",
    "source_country": "RU",
    "country": "Russia",
    "state": "Republic of Buryatia",
    "city": "Mukhorshibir’"
  },
  {
    "source_id": "ChIJnQBFuyi-ul0RNdjetTad3gc",
    "name": "U Ksyushi",
    "category": "U Ksyushi",
    "formatted_address": "4,7(29)",
    "phone_number": "",
    "source_url": "https://www.google.com/maps/place/U+Ksyushi/data=!4m7!3m6!1s0x5dbabe28bb45009d:0x7de9d36b5ded835!8m2!3d51.0418027!4d107.8352329!16s%2Fg%2F11gg5n5s1v!19sChIJnQBFuyi-ul0RNdjetTad3gc?authuser=0&hl=tr&rclk=1",
    "website_url": "",
    "rating_text": "4,7",
    "stars": null,
    "number_of_reviews": null,
    "price_level": "",
    "open_hours": "",
    "extraction_timestamp": "2025-06-08T02:47:10.149Z",
    "source_name": "google",
    "source_query": "Irrigation Equipment",
    "source_country": "RU",
    "country": "Russia",
    "state": "Republic of Buryatia",
    "city": "Mukhorshibir’"
  },
  {
    "source_id": "ChIJUSvBVzq-ul0RVXMIJAoMX5s",
    "name": "Rus'",
    "category": "Rus'",
    "formatted_address": "4,5(10)",
    "phone_number": "+73014321966",
    "source_url": "https://www.google.com/maps/place/Rus%27/data=!4m7!3m6!1s0x5dbabe3a57c12b51:0x9b5f0c0a24087355!8m2!3d51.0463166!4d107.8247896!16s%2Fg%2F11hcd7t6qb!19sChIJUSvBVzq-ul0RVXMIJAoMX5s?authuser=0&hl=tr&rclk=1",
    "website_url": "",
    "rating_text": "4,5",
    "stars": null,
    "number_of_reviews": null,
    "price_level": "",
    "open_hours": "",
    "extraction_timestamp": "2025-06-08T02:47:10.150Z",
    "source_name": "google",
    "source_query": "Irrigation Equipment",
    "source_country": "RU",
    "country": "Russia",
    "state": "Republic of Buryatia",
    "city": "Mukhorshibir’"
  },
  {
    "source_id": "ChIJ61xBYTq-ul0RdIRdakFcAdA",
    "name": "ТД Барис",
    "category": "ТД Барис",
    "formatted_address": "3,9(113)",
    "phone_number": "",
    "source_url": "https://www.google.com/maps/place/%D0%A2%D0%94+%D0%91%D0%B0%D1%80%D0%B8%D1%81/data=!4m7!3m6!1s0x5dbabe3a61415ceb:0xd0015c416a5d8474!8m2!3d51.0426105!4d107.8335527!16s%2Fg%2F11g72mvwxf!19sChIJ61xBYTq-ul0RdIRdakFcAdA?authuser=0&hl=tr&rclk=1",
    "website_url": "",
    "rating_text": "3,9",
    "stars": null,
    "number_of_reviews": null,
    "price_level": "",
    "open_hours": "",
    "extraction_timestamp": "2025-06-08T02:47:10.150Z",
    "source_name": "google",
    "source_query": "Irrigation Equipment",
    "source_country": "RU",
    "country": "Russia",
    "state": "Republic of Buryatia",
    "city": "Mukhorshibir’"
  },
  {
    "source_id": "ChIJiyJL5EC-ul0RL3Hxo7FHakY",
    "name": "Produktovyy Magazin Perekrestok",
    "category": "Produktovyy Magazin Perekrestok",
    "formatted_address": "4,5(34)",
    "phone_number": "+79025331398",
    "source_url": "https://www.google.com/maps/place/Produktovyy+Magazin+Perekrestok/data=!4m7!3m6!1s0x5dbabe40e44b228b:0x466a47b1a3f1712f!8m2!3d51.0530598!4d107.8145016!16s%2Fg%2F11dxs3859r!19sChIJiyJL5EC-ul0RL3Hxo7FHakY?authuser=0&hl=tr&rclk=1",
    "website_url": "",
    "rating_text": "4,5",
    "stars": null,
    "number_of_reviews": null,
    "price_level": "",
    "open_hours": "",
    "extraction_timestamp": "2025-06-08T02:47:10.150Z",
    "source_name": "google",
    "source_query": "Irrigation Equipment",
    "source_country": "RU",
    "country": "Russia",
    "state": "Republic of Buryatia",
    "city": "Mukhorshibir’"
  },
  {
    "source_id": "ChIJVxicKTC-ul0R2VTuuphUnxk",
    "name": "Брусничный CAM dungeon master",
    "category": "Брусничный CAM dungeon master",
    "formatted_address": "3,9(22)",
    "phone_number": "",
    "source_url": "https://www.google.com/maps/place/%D0%91%D1%80%D1%83%D1%81%D0%BD%D0%B8%D1%87%D0%BD%D1%8B%D0%B9+CAM+dungeon+master/data=!4m7!3m6!1s0x5dbabe30299c1857:0x199f5498baee54d9!8m2!3d51.0417614!4d107.8256416!16s%2Fg%2F11hcd7w6x4!19sChIJVxicKTC-ul0R2VTuuphUnxk?authuser=0&hl=tr&rclk=1",
    "website_url": "",
    "rating_text": "3,9",
    "stars": null,
    "number_of_reviews": null,
    "price_level": "",
    "open_hours": "",
    "extraction_timestamp": "2025-06-08T02:47:10.150Z",
    "source_name": "google",
    "source_query": "Irrigation Equipment",
    "source_country": "RU",
    "country": "Russia",
    "state": "Republic of Buryatia",
    "city": "Mukhorshibir’"
  },
  {
    "source_id": "ChIJ6YGYrRW-ul0Rt0VDupdXIJw",
    "name": "Slavyanka",
    "category": "Slavyanka",
    "formatted_address": "4,3(36)",
    "phone_number": "",
    "source_url": "https://www.google.com/maps/place/Slavyanka/data=!4m7!3m6!1s0x5dbabe15ad9881e9:0x9c205797ba4345b7!8m2!3d51.0566806!4d107.8226166!16s%2Fg%2F11c1vhq4cb!19sChIJ6YGYrRW-ul0Rt0VDupdXIJw?authuser=0&hl=tr&rclk=1",
    "website_url": "",
    "rating_text": "4,3",
    "stars": null,
    "number_of_reviews": null,
    "price_level": "",
    "open_hours": "",
    "extraction_timestamp": "2025-06-08T02:47:10.150Z",
    "source_name": "google",
    "source_query": "Irrigation Equipment",
    "source_country": "RU",
    "country": "Russia",
    "state": "Republic of Buryatia",
    "city": "Mukhorshibir’"
  },
  {
    "source_id": "ChIJDS9tuTu-ul0RJe-RuFzk7OA",
    "name": "Fortuna",
    "category": "Fortuna",
    "formatted_address": "4,1(14)",
    "phone_number": "+79024561596",
    "source_url": "https://www.google.com/maps/place/Fortuna/data=!4m7!3m6!1s0x5dbabe3bb96d2f0d:0xe0ece45cb891ef25!8m2!3d51.0478241!4d107.8241683!16s%2Fg%2F11f4l9mzx0!19sChIJDS9tuTu-ul0RJe-RuFzk7OA?authuser=0&hl=tr&rclk=1",
    "website_url": "",
    "rating_text": "4,1",
    "stars": null,
    "number_of_reviews": null,
    "price_level": "",
    "open_hours": "",
    "extraction_timestamp": "2025-06-08T02:47:10.151Z",
    "source_name": "google",
    "source_query": "Irrigation Equipment",
    "source_country": "RU",
    "country": "Russia",
    "state": "Republic of Buryatia",
    "city": "Mukhorshibir’"
  },
  {
    "source_id": "ChIJO-6vk3C_ul0RrYFAx8L0u2Q",
    "name": "Dauriya",
    "category": "Dauriya",
    "formatted_address": "2,0(5)",
    "phone_number": "",
    "source_url": "https://www.google.com/maps/place/Dauriya/data=!4m7!3m6!1s0x5dbabf7093afee3b:0x64bbf4c2c74081ad!8m2!3d51.0491384!4d107.8391667!16s%2Fg%2F11gh9m65_g!19sChIJO-6vk3C_ul0RrYFAx8L0u2Q?authuser=0&hl=tr&rclk=1",
    "website_url": "",
    "rating_text": "2,0",
    "stars": null,
    "number_of_reviews": null,
    "price_level": "",
    "open_hours": "",
    "extraction_timestamp": "2025-06-08T02:47:10.151Z",
    "source_name": "google",
    "source_query": "Irrigation Equipment",
    "source_country": "RU",
    "country": "Russia",
    "state": "Republic of Buryatia",
    "city": "Mukhorshibir’"
  },
  {
    "source_id": "ChIJJbqU9zq-ul0RlgX7EoLt0fA",
    "name": "Gastronom",
    "category": "Gastronom",
    "formatted_address": "3,4(9)",
    "phone_number": "",
    "source_url": "https://www.google.com/maps/place/Gastronom/data=!4m7!3m6!1s0x5dbabe3af794ba25:0xf0d1ed8212fb0596!8m2!3d51.0461369!4d107.8248785!16s%2Fg%2F11gg5ngmc1!19sChIJJbqU9zq-ul0RlgX7EoLt0fA?authuser=0&hl=tr&rclk=1",
    "website_url": "",
    "rating_text": "3,4",
    "stars": null,
    "number_of_reviews": null,
    "price_level": "",
    "open_hours": "",
    "extraction_timestamp": "2025-06-08T02:47:10.151Z",
    "source_name": "google",
    "source_query": "Irrigation Equipment",
    "source_country": "RU",
    "country": "Russia",
    "state": "Republic of Buryatia",
    "city": "Mukhorshibir’"
  },
  {
    "source_id": "ChIJd0IxGjq-ul0RcgMPFM56iBI",
    "name": "Avtozapchasti Ot Avtomira",
    "category": "Avtozapchasti Ot Avtomira",
    "formatted_address": "3,8(10)",
    "phone_number": "",
    "source_url": "https://www.google.com/maps/place/Avtozapchasti+Ot+Avtomira/data=!4m7!3m6!1s0x5dbabe3a1a314277:0x12887ace140f0372!8m2!3d51.045967!4d107.8222217!16s%2Fg%2F11fxxytvgc!19sChIJd0IxGjq-ul0RcgMPFM56iBI?authuser=0&hl=tr&rclk=1",
    "website_url": "",
    "rating_text": "3,8",
    "stars": null,
    "number_of_reviews": null,
    "price_level": "",
    "open_hours": "",
    "extraction_timestamp": "2025-06-08T02:47:10.151Z",
    "source_name": "google",
    "source_query": "Irrigation Equipment",
    "source_country": "RU",
    "country": "Russia",
    "state": "Republic of Buryatia",
    "city": "Mukhorshibir’"
  },
  {
    "source_id": "ChIJ9yDcwSi-ul0Rm2cIGvXPamY",
    "name": "Apteka",
    "category": "Apteka",
    "formatted_address": "3,5(4)",
    "phone_number": "",
    "source_url": "https://www.google.com/maps/place/Apteka/data=!4m7!3m6!1s0x5dbabe28c1dc20f7:0x666acff51a08679b!8m2!3d51.0412017!4d107.8347156!16s%2Fg%2F11f4l9mndn!19sChIJ9yDcwSi-ul0Rm2cIGvXPamY?authuser=0&hl=tr&rclk=1",
    "website_url": "",
    "rating_text": "3,5",
    "stars": null,
    "number_of_reviews": null,
    "price_level": "",
    "open_hours": "",
    "extraction_timestamp": "2025-06-08T02:47:10.151Z",
    "source_name": "google",
    "source_query": "Irrigation Equipment",
    "source_country": "RU",
    "country": "Russia",
    "state": "Republic of Buryatia",
    "city": "Mukhorshibir’"
  },
  {
    "source_id": "ChIJ19luOEK_ul0RnoPxlDaVLIU",
    "name": "Venera",
    "category": "Venera",
    "formatted_address": "1,0(2)",
    "phone_number": "",
    "source_url": "https://www.google.com/maps/place/Venera/data=!4m7!3m6!1s0x5dbabf42386ed9d7:0x852c953694f1839e!8m2!3d51.0556043!4d107.8322667!16s%2Fg%2F11gh9v53fp!19sChIJ19luOEK_ul0RnoPxlDaVLIU?authuser=0&hl=tr&rclk=1",
    "website_url": "",
    "rating_text": "1,0",
    "stars": null,
    "number_of_reviews": null,
    "price_level": "",
    "open_hours": "",
    "extraction_timestamp": "2025-06-08T02:47:10.151Z",
    "source_name": "google",
    "source_query": "Irrigation Equipment",
    "source_country": "RU",
    "country": "Russia",
    "state": "Republic of Buryatia",
    "city": "Mukhorshibir’"
  },
  {
    "source_id": "ChIJmwipJMS_ul0Rwc8QpGmnS_o",
    "name": "Lara",
    "category": "Lara",
    "formatted_address": "1,0(1)",
    "phone_number": "+79644106262",
    "source_url": "https://www.google.com/maps/place/Lara/data=!4m7!3m6!1s0x5dbabfc424a9089b:0xfa4ba769a410cfc1!8m2!3d51.0514832!4d107.8134405!16s%2Fg%2F11smf1n6kf!19sChIJmwipJMS_ul0Rwc8QpGmnS_o?authuser=0&hl=tr&rclk=1",
    "website_url": "",
    "rating_text": "1,0",
    "stars": null,
    "number_of_reviews": null,
    "price_level": "",
    "open_hours": "",
    "extraction_timestamp": "2025-06-08T02:47:10.178Z",
    "source_name": "google",
    "source_query": "Irrigation Equipment",
    "source_country": "RU",
    "country": "Russia",
    "state": "Republic of Buryatia",
    "city": "Mukhorshibir’"
  },
  {
    "source_id": "ChIJQ-lga6-_ul0RB9seNFSSQrc",
    "name": "Magazin Postoyannykh Rasprodazh",
    "category": "Magazin Postoyannykh Rasprodazh",
    "formatted_address": "Tuhafiye Dükkanı · Ulitsa Dorzhiyeva, 38БKapalı ⋅ Açılış zamanı: Pzt 09:00 · +7 301 259-96-65",
    "phone_number": "+73012599665",
    "source_url": "https://www.google.com/maps/place/Magazin+Postoyannykh+Rasprodazh/data=!4m7!3m6!1s0x5dbabfaf6b60e943:0xb7429254341edb07!8m2!3d51.0501837!4d107.819706!16s%2Fg%2F11y67529f6!19sChIJQ-lga6-_ul0RB9seNFSSQrc?authuser=0&hl=tr&rclk=1",
    "website_url": "",
    "rating_text": "",
    "stars": null,
    "number_of_reviews": null,
    "price_level": "",
    "open_hours": "",
    "extraction_timestamp": "2025-06-08T02:47:10.179Z",
    "source_name": "google",
    "source_query": "Irrigation Equipment",
    "source_country": "RU",
    "country": "Russia",
    "state": "Republic of Buryatia",
    "city": "Mukhorshibir’"
  }
]
