[
  {
    "source_id": "ChIJ33FN3VLdr10RQbtFWYO98uo",
    "name": "Magazin Titan",
    "category": "Magazin Titan",
    "formatted_address": "3,7(301)",
    "phone_number": "",
    "source_url": "https://www.google.com/maps/place/Magazin+Titan/data=!4m7!3m6!1s0x5dafdd52dd4d71df:0xeaf2bd835945bb41!8m2!3d51.738212!4d107.5259456!16s%2Fg%2F11gbk2xnc4!19sChIJ33FN3VLdr10RQbtFWYO98uo?authuser=0&hl=tr&rclk=1",
    "website_url": "",
    "rating_text": "3,7",
    "stars": null,
    "number_of_reviews": null,
    "price_level": "",
    "open_hours": "",
    "extraction_timestamp": "2025-06-08T02:49:31.778Z",
    "source_name": "google",
    "source_query": "Irrigation Equipment",
    "source_country": "RU",
    "country": "Russia",
    "state": "Republic of Buryatia",
    "city": "Nizhniy Sayantuy"
  },
  {
    "source_id": "ChIJo6C9Durdr10RFSVdOW3lOSU",
    "name": "Absolyut",
    "category": "Absolyut",
    "formatted_address": "3,8(54)",
    "phone_number": "+73012717000",
    "source_url": "https://www.google.com/maps/place/Absolyut/data=!4m7!3m6!1s0x5dafddea0ebda0a3:0x2539e56d395d2515!8m2!3d51.7342065!4d107.5264914!16s%2Fg%2F11lh3wp9cf!19sChIJo6C9Durdr10RFSVdOW3lOSU?authuser=0&hl=tr&rclk=1",
    "website_url": "",
    "rating_text": "3,8",
    "stars": null,
    "number_of_reviews": null,
    "price_level": "",
    "open_hours": "",
    "extraction_timestamp": "2025-06-08T02:49:31.783Z",
    "source_name": "google",
    "source_query": "Irrigation Equipment",
    "source_country": "RU",
    "country": "Russia",
    "state": "Republic of Buryatia",
    "city": "Nizhniy Sayantuy"
  },
  {
    "source_id": "ChIJ5eBGRKnCr10R3pK8Xt1eD10",
    "name": "Anastasiya, Prodovol'stvennyy Magazin",
    "category": "Anastasiya, Prodovol'stvennyy Magazin",
    "formatted_address": "Anastasiya, Prodovol'stvennyy Magazin",
    "phone_number": "+79021645608",
    "source_url": "https://www.google.com/maps/place/Anastasiya,+Prodovol%27stvennyy+Magazin/data=!4m7!3m6!1s0x5dafc2a94446e0e5:0x5d0f5edd5ebc92de!8m2!3d51.7338547!4d107.5067253!16s%2Fg%2F12qgx2g58!19sChIJ5eBGRKnCr10R3pK8Xt1eD10?authuser=0&hl=tr&rclk=1",
    "website_url": "",
    "rating_text": "3,9",
    "stars": null,
    "number_of_reviews": null,
    "price_level": "",
    "open_hours": "",
    "extraction_timestamp": "2025-06-08T02:49:31.785Z",
    "source_name": "google",
    "source_query": "Irrigation Equipment",
    "source_country": "RU",
    "country": "Russia",
    "state": "Republic of Buryatia",
    "city": "Nizhniy Sayantuy"
  },
  {
    "source_id": "ChIJP7GKxKzCr10RDFaMiT6S_Mc",
    "name": "Iris, Prodovol'stvennyy Magazin",
    "category": "Iris, Prodovol'stvennyy Magazin",
    "formatted_address": "Iris, Prodovol'stvennyy Magazin",
    "phone_number": "+79243903588",
    "source_url": "https://www.google.com/maps/place/Iris,+Prodovol%27stvennyy+Magazin/data=!4m7!3m6!1s0x5dafc2acc48ab13f:0xc7fc923e898c560c!8m2!3d51.7411208!4d107.5220292!16s%2Fg%2F12qfwrjtd!19sChIJP7GKxKzCr10RDFaMiT6S_Mc?authuser=0&hl=tr&rclk=1",
    "website_url": "",
    "rating_text": "3,8",
    "stars": null,
    "number_of_reviews": null,
    "price_level": "",
    "open_hours": "",
    "extraction_timestamp": "2025-06-08T02:49:31.787Z",
    "source_name": "google",
    "source_query": "Irrigation Equipment",
    "source_country": "RU",
    "country": "Russia",
    "state": "Republic of Buryatia",
    "city": "Nizhniy Sayantuy"
  }
]
