[
  {
    "source_id": "ChIJ8bPZ1VqYCF0R7WBBwCZKCAc",
    "name": "Aryuna",
    "category": "Aryuna",
    "formatted_address": "4,4(21)",
    "phone_number": "",
    "source_url": "https://www.google.com/maps/place/Aryuna/data=!4m7!3m6!1s0x5d08985ad5d9b3f1:0x7084a26c04160ed!8m2!3d51.9065216!4d102.4275918!16s%2Fg%2F1ydkb9h72!19sChIJ8bPZ1VqYCF0R7WBBwCZKCAc?authuser=0&hl=tr&rclk=1",
    "website_url": "",
    "rating_text": "4,4",
    "stars": null,
    "number_of_reviews": null,
    "price_level": "",
    "open_hours": "",
    "extraction_timestamp": "2025-06-08T02:49:15.183Z",
    "source_name": "google",
    "source_query": "Irrigation Equipment",
    "source_country": "RU",
    "country": "Russia",
    "state": "Republic of Buryatia",
    "city": "Okinskiy Rayon"
  },
  {
    "source_id": "ChIJpaUhsim9Gl0REgxpGTXgSmY",
    "name": "Magazin Absolyut",
    "category": "Magazin Absolyut",
    "formatted_address": "5,0(1)",
    "phone_number": "",
    "source_url": "https://www.google.com/maps/place/Magazin+Absolyut/data=!4m7!3m6!1s0x5d1abd29b221a5a5:0x664ae03519690c12!8m2!3d52.5088534!4d99.8262137!16s%2Fg%2F11p74bys14!19sChIJpaUhsim9Gl0REgxpGTXgSmY?authuser=0&hl=tr&rclk=1",
    "website_url": "",
    "rating_text": "5,0",
    "stars": null,
    "number_of_reviews": null,
    "price_level": "",
    "open_hours": "",
    "extraction_timestamp": "2025-06-08T02:49:15.184Z",
    "source_name": "google",
    "source_query": "Irrigation Equipment",
    "source_country": "RU",
    "country": "Russia",
    "state": "Republic of Buryatia",
    "city": "Okinskiy Rayon"
  },
  {
    "source_id": "ChIJpTEGDhyZCF0RTzYTzt9gXq8",
    "name": "Lakomka",
    "category": "Lakomka",
    "formatted_address": "4,8(16)",
    "phone_number": "+79526140005",
    "source_url": "https://www.google.com/maps/place/Lakomka/data=!4m7!3m6!1s0x5d08991c0e0631a5:0xaf5e60dfce13364f!8m2!3d51.9124999!4d102.4294675!16s%2Fg%2F11ffv4bhpl!19sChIJpTEGDhyZCF0RTzYTzt9gXq8?authuser=0&hl=tr&rclk=1",
    "website_url": "",
    "rating_text": "4,8",
    "stars": null,
    "number_of_reviews": null,
    "price_level": "",
    "open_hours": "",
    "extraction_timestamp": "2025-06-08T02:49:15.188Z",
    "source_name": "google",
    "source_query": "Irrigation Equipment",
    "source_country": "RU",
    "country": "Russia",
    "state": "Republic of Buryatia",
    "city": "Okinskiy Rayon"
  },
  {
    "source_id": "ChIJ82mlf1eYCF0R3OP1RX-bHhw",
    "name": "\"Univermag\"",
    "category": "\"Univermag\"",
    "formatted_address": "4,0(62)",
    "phone_number": "+79501128090",
    "source_url": "https://www.google.com/maps/place/%22Univermag%22/data=!4m7!3m6!1s0x5d0898577fa569f3:0x1c1e9b7f45f5e3dc!8m2!3d51.9135284!4d102.43441!16s%2Fg%2F11b7rnbdnx!19sChIJ82mlf1eYCF0R3OP1RX-bHhw?authuser=0&hl=tr&rclk=1",
    "website_url": "http://vk.com/emporium_in_arshan",
    "rating_text": "4,0",
    "stars": null,
    "number_of_reviews": null,
    "price_level": "",
    "open_hours": "",
    "extraction_timestamp": "2025-06-08T02:49:15.190Z",
    "source_name": "google",
    "source_query": "Irrigation Equipment",
    "source_country": "RU",
    "country": "Russia",
    "state": "Republic of Buryatia",
    "city": "Okinskiy Rayon"
  },
  {
    "source_id": "ChIJ-w62ZVeYCF0R9OKJdLAESHE",
    "name": "Laris",
    "category": "Laris",
    "formatted_address": "5,0(1)",
    "phone_number": "",
    "source_url": "https://www.google.com/maps/place/Laris/data=!4m7!3m6!1s0x5d08985765b60efb:0x714804b07489e2f4!8m2!3d51.9125777!4d102.434646!16s%2Fg%2F1yfjmz0ts!19sChIJ-w62ZVeYCF0R9OKJdLAESHE?authuser=0&hl=tr&rclk=1",
    "website_url": "",
    "rating_text": "5,0",
    "stars": null,
    "number_of_reviews": null,
    "price_level": "",
    "open_hours": "",
    "extraction_timestamp": "2025-06-08T02:49:15.191Z",
    "source_name": "google",
    "source_query": "Irrigation Equipment",
    "source_country": "RU",
    "country": "Russia",
    "state": "Republic of Buryatia",
    "city": "Okinskiy Rayon"
  },
  {
    "source_id": "ChIJaV_02ViYCF0RTdloCpeFgcw",
    "name": "Dolina, 24 Chasa",
    "category": "Dolina, 24 Chasa",
    "formatted_address": "Dolina, 24 Chasa",
    "phone_number": "",
    "source_url": "https://www.google.com/maps/place/Dolina,+24+Chasa/data=!4m7!3m6!1s0x5d089858d9f45f69:0xcc8185970a68d94d!8m2!3d51.914524!4d102.4285507!16s%2Fg%2F1yfjf1ch9!19sChIJaV_02ViYCF0RTdloCpeFgcw?authuser=0&hl=tr&rclk=1",
    "website_url": "",
    "rating_text": "4,5",
    "stars": null,
    "number_of_reviews": null,
    "price_level": "",
    "open_hours": "",
    "extraction_timestamp": "2025-06-08T02:49:15.192Z",
    "source_name": "google",
    "source_query": "Irrigation Equipment",
    "source_country": "RU",
    "country": "Russia",
    "state": "Republic of Buryatia",
    "city": "Okinskiy Rayon"
  },
  {
    "source_id": "ChIJYdCoP1eYCF0RA6x8CJw-uk8",
    "name": "Магаzинчик, 24 Часа",
    "category": "Магаzинчик, 24 Часа",
    "formatted_address": "Магаzинчик, 24 Часа",
    "phone_number": "",
    "source_url": "https://www.google.com/maps/place/%D0%9C%D0%B0%D0%B3%D0%B0z%D0%B8%D0%BD%D1%87%D0%B8%D0%BA,+24+%D0%A7%D0%B0%D1%81%D0%B0/data=!4m7!3m6!1s0x5d0898573fa8d061:0x4fba3e9c087cac03!8m2!3d51.911897!4d102.4356604!16s%2Fg%2F1yfjbqpzj!19sChIJYdCoP1eYCF0RA6x8CJw-uk8?authuser=0&hl=tr&rclk=1",
    "website_url": "",
    "rating_text": "4,2",
    "stars": null,
    "number_of_reviews": null,
    "price_level": "",
    "open_hours": "",
    "extraction_timestamp": "2025-06-08T02:49:15.193Z",
    "source_name": "google",
    "source_query": "Irrigation Equipment",
    "source_country": "RU",
    "country": "Russia",
    "state": "Republic of Buryatia",
    "city": "Okinskiy Rayon"
  },
  {
    "source_id": "ChIJt0Sj50ZDD10R08x_Q-RYkqE",
    "name": "Kurort Nilova Pustyn'",
    "category": "Kurort Nilova Pustyn'",
    "formatted_address": "4,3(124)",
    "phone_number": "+79148922638",
    "source_url": "https://www.google.com/maps/place/Kurort+Nilova+Pustyn%27/data=!4m7!3m6!1s0x5d0f4346e7a344b7:0xa19258e4437fccd3!8m2!3d51.6876296!4d101.6809539!16s%2Fg%2F1220l9v5!19sChIJt0Sj50ZDD10R08x_Q-RYkqE?authuser=0&hl=tr&rclk=1",
    "website_url": "https://pustin-nilova.ru/",
    "rating_text": "4,3",
    "stars": null,
    "number_of_reviews": null,
    "price_level": "",
    "open_hours": "",
    "extraction_timestamp": "2025-06-08T02:49:15.194Z",
    "source_name": "google",
    "source_query": "Irrigation Equipment",
    "source_country": "RU",
    "country": "Russia",
    "state": "Republic of Buryatia",
    "city": "Okinskiy Rayon"
  },
  {
    "source_id": "ChIJicYvX6uZCF0RFaO1UBZiL6E",
    "name": "Барис",
    "category": "Барис",
    "formatted_address": "3,9(8)",
    "phone_number": "",
    "source_url": "https://www.google.com/maps/place/%D0%91%D0%B0%D1%80%D0%B8%D1%81/data=!4m7!3m6!1s0x5d0899ab5f2fc689:0xa12f621650b5a315!8m2!3d51.9059955!4d102.4402156!16s%2Fg%2F11rf7rct7_!19sChIJicYvX6uZCF0RFaO1UBZiL6E?authuser=0&hl=tr&rclk=1",
    "website_url": "https://baris-online.ru/",
    "rating_text": "3,9",
    "stars": null,
    "number_of_reviews": null,
    "price_level": "",
    "open_hours": "",
    "extraction_timestamp": "2025-06-08T02:49:15.196Z",
    "source_name": "google",
    "source_query": "Irrigation Equipment",
    "source_country": "RU",
    "country": "Russia",
    "state": "Republic of Buryatia",
    "city": "Okinskiy Rayon"
  },
  {
    "source_id": "ChIJm5Tp3ZANB10RKQDpl3FZqh0",
    "name": "Tsentr Inzhenernoy Komplektatsii, Novator",
    "category": "Tsentr Inzhenernoy Komplektatsii, Novator",
    "formatted_address": "Tsentr Inzhenernoy Komplektatsii, Novator",
    "phone_number": "+78002503837",
    "source_url": "https://www.google.com/maps/place/Tsentr+Inzhenernoy+Komplektatsii,+Novator/data=!4m7!3m6!1s0x5d070d90dde9949b:0x1daa597197e90029!8m2!3d52.7276596!4d103.6694261!16s%2Fg%2F11fhh4_jhq!19sChIJm5Tp3ZANB10RKQDpl3FZqh0?authuser=0&hl=tr&rclk=1",
    "website_url": "https://novator-express.ru/",
    "rating_text": "4,7",
    "stars": null,
    "number_of_reviews": null,
    "price_level": "",
    "open_hours": "",
    "extraction_timestamp": "2025-06-08T02:49:15.198Z",
    "source_name": "google",
    "source_query": "Irrigation Equipment",
    "source_country": "RU",
    "country": "Russia",
    "state": "Republic of Buryatia",
    "city": "Okinskiy Rayon"
  },
  {
    "source_id": "ChIJ74AavZHsCF0RBZFvY-JYXKQ",
    "name": "Ip Sharakshanova Tv",
    "category": "Ip Sharakshanova Tv",
    "formatted_address": "4,7(9)",
    "phone_number": "+79503851699",
    "source_url": "https://www.google.com/maps/place/Ip+Sharakshanova+Tv/data=!4m7!3m6!1s0x5d08ec91bd1a80ef:0xa45c58e2636f9105!8m2!3d51.6730508!4d102.4201137!16s%2Fg%2F11b6tgrvs8!19sChIJ74AavZHsCF0RBZFvY-JYXKQ?authuser=0&hl=tr&rclk=1",
    "website_url": "",
    "rating_text": "4,7",
    "stars": null,
    "number_of_reviews": null,
    "price_level": "",
    "open_hours": "",
    "extraction_timestamp": "2025-06-08T02:49:15.199Z",
    "source_name": "google",
    "source_query": "Irrigation Equipment",
    "source_country": "RU",
    "country": "Russia",
    "state": "Republic of Buryatia",
    "city": "Okinskiy Rayon"
  },
  {
    "source_id": "ChIJyzhVgH7HCF0RspSwwVR-Pys",
    "name": "Titan Tunkinskaya Dolina",
    "category": "Titan Tunkinskaya Dolina",
    "formatted_address": "4,1(174)",
    "phone_number": "",
    "source_url": "https://www.google.com/maps/place/Titan+Tunkinskaya+Dolina/data=!4m7!3m6!1s0x5d08c77e805538cb:0x2b3f7e54c1b094b2!8m2!3d51.6820449!4d102.1332473!16s%2Fg%2F11h_fvbq_z!19sChIJyzhVgH7HCF0RspSwwVR-Pys?authuser=0&hl=tr&rclk=1",
    "website_url": "http://megatitan.ru/",
    "rating_text": "4,1",
    "stars": null,
    "number_of_reviews": null,
    "price_level": "",
    "open_hours": "",
    "extraction_timestamp": "2025-06-08T02:49:15.200Z",
    "source_name": "google",
    "source_query": "Irrigation Equipment",
    "source_country": "RU",
    "country": "Russia",
    "state": "Republic of Buryatia",
    "city": "Okinskiy Rayon"
  }
]
