[
  {
    "source_id": "ChIJ19EmbrHgrV0RrtgENHHWeHM",
    "name": "Titan Baykal",
    "category": "Titan Baykal",
    "formatted_address": "4,0(294)",
    "phone_number": "+73014458735",
    "source_url": "https://www.google.com/maps/place/Titan+Baykal/data=!4m7!3m6!1s0x5dade0b16e26d1d7:0x7378d6713404d8ae!8m2!3d52.793777!4d107.9798745!16s%2Fg%2F1yfjkz_gd!19sChIJ19EmbrHgrV0RrtgENHHWeHM?authuser=0&hl=tr&rclk=1",
    "website_url": "",
    "rating_text": "4,0",
    "stars": null,
    "number_of_reviews": null,
    "price_level": "",
    "open_hours": "",
    "extraction_timestamp": "2025-06-08T02:46:51.262Z",
    "source_name": "google",
    "source_query": "Irrigation Equipment",
    "source_country": "RU",
    "country": "Russia",
    "state": "Republic of Buryatia",
    "city": "Pribaykal’skiy Rayon"
  },
  {
    "source_id": "ChIJu7c0xzDbr10RB8d4zSlx0o4",
    "name": "Mashtorg",
    "category": "Mashtorg",
    "formatted_address": "4,6(25)",
    "phone_number": "+73012374374",
    "source_url": "https://www.google.com/maps/place/Mashtorg/data=!4m7!3m6!1s0x5dafdb30c734b7bb:0x8ed27129cd78c707!8m2!3d51.840256!4d107.6535713!16s%2Fg%2F11r9tv4b2!19sChIJu7c0xzDbr10RB8d4zSlx0o4?authuser=0&hl=tr&rclk=1",
    "website_url": "",
    "rating_text": "4,6",
    "stars": null,
    "number_of_reviews": null,
    "price_level": "",
    "open_hours": "",
    "extraction_timestamp": "2025-06-08T02:46:51.264Z",
    "source_name": "google",
    "source_query": "Irrigation Equipment",
    "source_country": "RU",
    "country": "Russia",
    "state": "Republic of Buryatia",
    "city": "Pribaykal’skiy Rayon"
  },
  {
    "source_id": "ChIJQ3peoC6tr10RgAHzp_7xFXg",
    "name": "Zvozdnyy",
    "category": "Zvozdnyy",
    "formatted_address": "4,6(24)",
    "phone_number": "",
    "source_url": "https://www.google.com/maps/place/Zvozdnyy/data=!4m7!3m6!1s0x5dafad2ea05e7a43:0x7815f1fea7f30180!8m2!3d52.1183853!4d107.2380752!16s%2Fg%2F11fhlbs0lz!19sChIJQ3peoC6tr10RgAHzp_7xFXg?authuser=0&hl=tr&rclk=1",
    "website_url": "",
    "rating_text": "4,6",
    "stars": null,
    "number_of_reviews": null,
    "price_level": "",
    "open_hours": "",
    "extraction_timestamp": "2025-06-08T02:46:51.266Z",
    "source_name": "google",
    "source_query": "Irrigation Equipment",
    "source_country": "RU",
    "country": "Russia",
    "state": "Republic of Buryatia",
    "city": "Pribaykal’skiy Rayon"
  },
  {
    "source_id": "ChIJwwUQaanbr10RvnJv480DS9c",
    "name": "Teplosila",
    "category": "Teplosila",
    "formatted_address": "4,6(32)",
    "phone_number": "+73012443722",
    "source_url": "https://www.google.com/maps/place/Teplosila/data=!4m7!3m6!1s0x5dafdba9691005c3:0xd74b03cde36f72be!8m2!3d51.8158155!4d107.6786254!16s%2Fg%2F12qg0k73q!19sChIJwwUQaanbr10RvnJv480DS9c?authuser=0&hl=tr&rclk=1",
    "website_url": "",
    "rating_text": "4,6",
    "stars": null,
    "number_of_reviews": null,
    "price_level": "",
    "open_hours": "",
    "extraction_timestamp": "2025-06-08T02:46:51.268Z",
    "source_name": "google",
    "source_query": "Irrigation Equipment",
    "source_country": "RU",
    "country": "Russia",
    "state": "Republic of Buryatia",
    "city": "Pribaykal’skiy Rayon"
  },
  {
    "source_id": "ChIJaTiX1BvsrV0Rfnihw5_OFeE",
    "name": "Kedr",
    "category": "Kedr",
    "formatted_address": "4,7(23)",
    "phone_number": "",
    "source_url": "https://www.google.com/maps/place/Kedr/data=!4m7!3m6!1s0x5dadec1bd4973869:0xe115ce9fc3a1787e!8m2!3d52.9477723!4d108.2220152!16s%2Fg%2F1yfj5zvdz!19sChIJaTiX1BvsrV0Rfnihw5_OFeE?authuser=0&hl=tr&rclk=1",
    "website_url": "",
    "rating_text": "4,7",
    "stars": null,
    "number_of_reviews": null,
    "price_level": "",
    "open_hours": "",
    "extraction_timestamp": "2025-06-08T02:46:51.268Z",
    "source_name": "google",
    "source_query": "Irrigation Equipment",
    "source_country": "RU",
    "country": "Russia",
    "state": "Republic of Buryatia",
    "city": "Pribaykal’skiy Rayon"
  },
  {
    "source_id": "ChIJJVsQU_3Dr10RmkQ2djy_0_4",
    "name": "Teplosila",
    "category": "Teplosila",
    "formatted_address": "5,0(1)",
    "phone_number": "+79025657378",
    "source_url": "https://www.google.com/maps/place/Teplosila/data=!4m7!3m6!1s0x5dafc3fd53105b25:0xfed3bf3c7636449a!8m2!3d51.8066578!4d107.4972767!16s%2Fg%2F11qqyhtq3t!19sChIJJVsQU_3Dr10RmkQ2djy_0_4?authuser=0&hl=tr&rclk=1",
    "website_url": "http://mashtorgrb.ru/",
    "rating_text": "5,0",
    "stars": null,
    "number_of_reviews": null,
    "price_level": "",
    "open_hours": "",
    "extraction_timestamp": "2025-06-08T02:46:51.270Z",
    "source_name": "google",
    "source_query": "Irrigation Equipment",
    "source_country": "RU",
    "country": "Russia",
    "state": "Republic of Buryatia",
    "city": "Pribaykal’skiy Rayon"
  },
  {
    "source_id": "ChIJywou6Pg2rl0R-r3O8T4gUUo",
    "name": "Ooo Laverna",
    "category": "Ooo Laverna",
    "formatted_address": "3,7(10)",
    "phone_number": "",
    "source_url": "https://www.google.com/maps/place/Ooo+Laverna/data=!4m7!3m6!1s0x5dae36f8e82e0acb:0x4a51203ef1cebdfa!8m2!3d52.1878017!4d107.62411!16s%2Fg%2F11g8yb1f6b!19sChIJywou6Pg2rl0R-r3O8T4gUUo?authuser=0&hl=tr&rclk=1",
    "website_url": "",
    "rating_text": "3,7",
    "stars": null,
    "number_of_reviews": null,
    "price_level": "",
    "open_hours": "",
    "extraction_timestamp": "2025-06-08T02:46:51.271Z",
    "source_name": "google",
    "source_query": "Irrigation Equipment",
    "source_country": "RU",
    "country": "Russia",
    "state": "Republic of Buryatia",
    "city": "Pribaykal’skiy Rayon"
  },
  {
    "source_id": "ChIJF01dk0XEr10RU3EhL7h4X8Q",
    "name": "Vegos-M",
    "category": "Vegos-M",
    "formatted_address": "4,2(666)",
    "phone_number": "+73012312493",
    "source_url": "https://www.google.com/maps/place/Vegos-M/data=!4m7!3m6!1s0x5dafc445935d4d17:0xc45f78b82f217153!8m2!3d51.850713!4d107.50979!16s%2Fg%2F11b86v52sr!19sChIJF01dk0XEr10RU3EhL7h4X8Q?authuser=0&hl=tr&rclk=1",
    "website_url": "http://vegosm.ru/",
    "rating_text": "4,2",
    "stars": null,
    "number_of_reviews": null,
    "price_level": "",
    "open_hours": "",
    "extraction_timestamp": "2025-06-08T02:46:51.272Z",
    "source_name": "google",
    "source_query": "Irrigation Equipment",
    "source_country": "RU",
    "country": "Russia",
    "state": "Republic of Buryatia",
    "city": "Pribaykal’skiy Rayon"
  },
  {
    "source_id": "ChIJ25vc0BPsrV0RHjo2XiO6Vp4",
    "name": "Sputnik 24",
    "category": "Sputnik 24",
    "formatted_address": "4,2(28)",
    "phone_number": "",
    "source_url": "https://www.google.com/maps/place/Sputnik+24/data=!4m7!3m6!1s0x5dadec13d0dc9bdb:0x9e56ba235e363a1e!8m2!3d52.9562033!4d108.2249207!16s%2Fg%2F1ydkb9hxp!19sChIJ25vc0BPsrV0RHjo2XiO6Vp4?authuser=0&hl=tr&rclk=1",
    "website_url": "",
    "rating_text": "4,2",
    "stars": null,
    "number_of_reviews": null,
    "price_level": "",
    "open_hours": "",
    "extraction_timestamp": "2025-06-08T02:46:51.273Z",
    "source_name": "google",
    "source_query": "Irrigation Equipment",
    "source_country": "RU",
    "country": "Russia",
    "state": "Republic of Buryatia",
    "city": "Pribaykal’skiy Rayon"
  },
  {
    "source_id": "ChIJGzC5B72sr10RozO4AtNB_fY",
    "name": "VIP Маркет",
    "category": "VIP Маркет",
    "formatted_address": "4,0(42)",
    "phone_number": "",
    "source_url": "https://www.google.com/maps/place/VIP+%D0%9C%D0%B0%D1%80%D0%BA%D0%B5%D1%82/data=!4m7!3m6!1s0x5dafacbd07b9301b:0xf6fd41d302b833a3!8m2!3d52.117445!4d107.1374973!16s%2Fg%2F1ydntnrg4!19sChIJGzC5B72sr10RozO4AtNB_fY?authuser=0&hl=tr&rclk=1",
    "website_url": "",
    "rating_text": "4,0",
    "stars": null,
    "number_of_reviews": null,
    "price_level": "",
    "open_hours": "",
    "extraction_timestamp": "2025-06-08T02:46:51.274Z",
    "source_name": "google",
    "source_query": "Irrigation Equipment",
    "source_country": "RU",
    "country": "Russia",
    "state": "Republic of Buryatia",
    "city": "Pribaykal’skiy Rayon"
  },
  {
    "source_id": "ChIJnURXa72sr10RP5UX8nn1prg",
    "name": "Magazin \"Natalenka\"",
    "category": "Magazin \"Natalenka\"",
    "formatted_address": "4,6(14)",
    "phone_number": "",
    "source_url": "https://www.google.com/maps/place/Magazin+%22Natalenka%22/data=!4m7!3m6!1s0x5dafacbd6b57449d:0xb8a6f579f217953f!8m2!3d52.1168848!4d107.1357502!16s%2Fg%2F11c48nz93n!19sChIJnURXa72sr10RP5UX8nn1prg?authuser=0&hl=tr&rclk=1",
    "website_url": "",
    "rating_text": "4,6",
    "stars": null,
    "number_of_reviews": null,
    "price_level": "",
    "open_hours": "",
    "extraction_timestamp": "2025-06-08T02:46:51.275Z",
    "source_name": "google",
    "source_query": "Irrigation Equipment",
    "source_country": "RU",
    "country": "Russia",
    "state": "Republic of Buryatia",
    "city": "Pribaykal’skiy Rayon"
  },
  {
    "source_id": "ChIJ42bQqB7srV0RZuk9GemHmhI",
    "name": "Raduga",
    "category": "Raduga",
    "formatted_address": "5,0(10)",
    "phone_number": "",
    "source_url": "https://www.google.com/maps/place/Raduga/data=!4m7!3m6!1s0x5dadec1ea8d066e3:0x129a87e9193de966!8m2!3d52.9447299!4d108.2208411!16s%2Fg%2F1yfjcjvfc!19sChIJ42bQqB7srV0RZuk9GemHmhI?authuser=0&hl=tr&rclk=1",
    "website_url": "",
    "rating_text": "5,0",
    "stars": null,
    "number_of_reviews": null,
    "price_level": "",
    "open_hours": "",
    "extraction_timestamp": "2025-06-08T02:46:51.275Z",
    "source_name": "google",
    "source_query": "Irrigation Equipment",
    "source_country": "RU",
    "country": "Russia",
    "state": "Republic of Buryatia",
    "city": "Pribaykal’skiy Rayon"
  },
  {
    "source_id": "ChIJudSJanTbr10RCSIOQVSkAWE",
    "name": "Устранение засоров, прочистка канализации. Отогрев водопровода, канализации Улан- Удэ.",
    "category": "Устранение засоров, прочистка канализации. Отогрев водопровода, канализации Улан- Удэ.",
    "formatted_address": "Устранение засоров, прочистка канализации. Отогрев водопровода, канализации Улан- Удэ.",
    "phone_number": "+79021681537",
    "source_url": "https://www.google.com/maps/place/%D0%A3%D1%81%D1%82%D1%80%D0%B0%D0%BD%D0%B5%D0%BD%D0%B8%D0%B5+%D0%B7%D0%B0%D1%81%D0%BE%D1%80%D0%BE%D0%B2,+%D0%BF%D1%80%D0%BE%D1%87%D0%B8%D1%81%D1%82%D0%BA%D0%B0+%D0%BA%D0%B0%D0%BD%D0%B0%D0%BB%D0%B8%D0%B7%D0%B0%D1%86%D0%B8%D0%B8.+%D0%9E%D1%82%D0%BE%D0%B3%D1%80%D0%B5%D0%B2+%D0%B2%D0%BE%D0%B4%D0%BE%D0%BF%D1%80%D0%BE%D0%B2%D0%BE%D0%B4%D0%B0,+%D0%BA%D0%B0%D0%BD%D0%B0%D0%BB%D0%B8%D0%B7%D0%B0%D1%86%D0%B8%D0%B8+%D0%A3%D0%BB%D0%B0%D0%BD-+%D0%A3%D0%B4%D1%8D./data=!4m7!3m6!1s0x5dafdb746a89d4b9:0x6101a454410e2209!8m2!3d51.8299075!4d107.616164!16s%2Fg%2F11hyv9spq9!19sChIJudSJanTbr10RCSIOQVSkAWE?authuser=0&hl=tr&rclk=1",
    "website_url": "",
    "rating_text": "5,0",
    "stars": null,
    "number_of_reviews": null,
    "price_level": "",
    "open_hours": "",
    "extraction_timestamp": "2025-06-08T02:46:51.276Z",
    "source_name": "google",
    "source_query": "Irrigation Equipment",
    "source_country": "RU",
    "country": "Russia",
    "state": "Republic of Buryatia",
    "city": "Pribaykal’skiy Rayon"
  },
  {
    "source_id": "ChIJu_GkXJPcr10RqnA1_xNMxh4",
    "name": "Mashtorg",
    "category": "Mashtorg",
    "formatted_address": "5,0(3)",
    "phone_number": "+73012373600",
    "source_url": "https://www.google.com/maps/place/Mashtorg/data=!4m7!3m6!1s0x5dafdc935ca4f1bb:0x1ec64c13ff3570aa!8m2!3d51.7850138!4d107.5958863!16s%2Fg%2F11gggbbb4_!19sChIJu_GkXJPcr10RqnA1_xNMxh4?authuser=0&hl=tr&rclk=1",
    "website_url": "",
    "rating_text": "5,0",
    "stars": null,
    "number_of_reviews": null,
    "price_level": "",
    "open_hours": "",
    "extraction_timestamp": "2025-06-08T02:46:51.277Z",
    "source_name": "google",
    "source_query": "Irrigation Equipment",
    "source_country": "RU",
    "country": "Russia",
    "state": "Republic of Buryatia",
    "city": "Pribaykal’skiy Rayon"
  },
  {
    "source_id": "ChIJdcbRAKVLrl0RfbuNshWMDcY",
    "name": "Магазин Елена",
    "category": "Магазин Елена",
    "formatted_address": "3,3(46)",
    "phone_number": "",
    "source_url": "https://www.google.com/maps/place/%D0%9C%D0%B0%D0%B3%D0%B0%D0%B7%D0%B8%D0%BD+%D0%95%D0%BB%D0%B5%D0%BD%D0%B0/data=!4m7!3m6!1s0x5dae4ba500d1c675:0xc60d8c15b28dbb7d!8m2!3d52.1434767!4d107.4408625!16s%2Fg%2F11g9q8kkf5!19sChIJdcbRAKVLrl0RfbuNshWMDcY?authuser=0&hl=tr&rclk=1",
    "website_url": "",
    "rating_text": "3,3",
    "stars": null,
    "number_of_reviews": null,
    "price_level": "",
    "open_hours": "",
    "extraction_timestamp": "2025-06-08T02:46:51.278Z",
    "source_name": "google",
    "source_query": "Irrigation Equipment",
    "source_country": "RU",
    "country": "Russia",
    "state": "Republic of Buryatia",
    "city": "Pribaykal’skiy Rayon"
  },
  {
    "source_id": "ChIJ_8bqhTUosF0ReBFlVWHklxs",
    "name": "Leto",
    "category": "Leto",
    "formatted_address": "4,1(41)",
    "phone_number": "",
    "source_url": "https://www.google.com/maps/place/Leto/data=!4m7!3m6!1s0x5db0283585eac6ff:0x1b97e46155651178!8m2!3d51.8839561!4d107.9128228!16s%2Fg%2F11bzsdhm2d!19sChIJ_8bqhTUosF0ReBFlVWHklxs?authuser=0&hl=tr&rclk=1",
    "website_url": "",
    "rating_text": "4,1",
    "stars": null,
    "number_of_reviews": null,
    "price_level": "",
    "open_hours": "",
    "extraction_timestamp": "2025-06-08T02:46:51.279Z",
    "source_name": "google",
    "source_query": "Irrigation Equipment",
    "source_country": "RU",
    "country": "Russia",
    "state": "Republic of Buryatia",
    "city": "Pribaykal’skiy Rayon"
  },
  {
    "source_id": "ChIJu7c0xzDbr10RutxB4GzcM0A",
    "name": "Akvatoriya Tepla, Spetsializirovannyy Magazin",
    "category": "Akvatoriya Tepla, Spetsializirovannyy Magazin",
    "formatted_address": "Akvatoriya Tepla, Spetsializirovannyy Magazin",
    "phone_number": "+73012333056",
    "source_url": "https://www.google.com/maps/place/Akvatoriya+Tepla,+Spetsializirovannyy+Magazin/data=!4m7!3m6!1s0x5dafdb30c734b7bb:0x4033dc6ce041dcba!8m2!3d51.84024!4d107.5766901!16s%2Fg%2F11r926k0c!19sChIJu7c0xzDbr10RutxB4GzcM0A?authuser=0&hl=tr&rclk=1",
    "website_url": "",
    "rating_text": "1,0",
    "stars": null,
    "number_of_reviews": null,
    "price_level": "",
    "open_hours": "",
    "extraction_timestamp": "2025-06-08T02:46:51.280Z",
    "source_name": "google",
    "source_query": "Irrigation Equipment",
    "source_country": "RU",
    "country": "Russia",
    "state": "Republic of Buryatia",
    "city": "Pribaykal’skiy Rayon"
  },
  {
    "source_id": "ChIJ1_BAlRDsrV0RLV-5PtmXKBg",
    "name": "Spartak",
    "category": "Spartak",
    "formatted_address": "3,6(19)",
    "phone_number": "",
    "source_url": "https://www.google.com/maps/place/Spartak/data=!4m7!3m6!1s0x5dadec109540f0d7:0x182897d93eb95f2d!8m2!3d52.9518229!4d108.2228733!16s%2Fg%2F1yfjtldf_!19sChIJ1_BAlRDsrV0RLV-5PtmXKBg?authuser=0&hl=tr&rclk=1",
    "website_url": "",
    "rating_text": "3,6",
    "stars": null,
    "number_of_reviews": null,
    "price_level": "",
    "open_hours": "",
    "extraction_timestamp": "2025-06-08T02:46:51.280Z",
    "source_name": "google",
    "source_query": "Irrigation Equipment",
    "source_country": "RU",
    "country": "Russia",
    "state": "Republic of Buryatia",
    "city": "Pribaykal’skiy Rayon"
  },
  {
    "source_id": "ChIJRWvA9f3ar10Rb5EkAFPkBvs",
    "name": "Gidravlika",
    "category": "Gidravlika",
    "formatted_address": "3,5(6)",
    "phone_number": "+73012673168",
    "source_url": "https://www.google.com/maps/place/Gidravlika/data=!4m7!3m6!1s0x5dafdafdf5c06b45:0xfb06e4530024916f!8m2!3d51.8415524!4d107.6466635!16s%2Fg%2F11b87gk8cn!19sChIJRWvA9f3ar10Rb5EkAFPkBvs?authuser=0&hl=tr&rclk=1",
    "website_url": "",
    "rating_text": "3,5",
    "stars": null,
    "number_of_reviews": null,
    "price_level": "",
    "open_hours": "",
    "extraction_timestamp": "2025-06-08T02:46:51.281Z",
    "source_name": "google",
    "source_query": "Irrigation Equipment",
    "source_country": "RU",
    "country": "Russia",
    "state": "Republic of Buryatia",
    "city": "Pribaykal’skiy Rayon"
  },
  {
    "source_id": "ChIJg35srh7srV0RDoh1fv5ioG8",
    "name": "Baris",
    "category": "Baris",
    "formatted_address": "4,0(117)",
    "phone_number": "",
    "source_url": "https://www.google.com/maps/place/Baris/data=!4m7!3m6!1s0x5dadec1eae6c7e83:0x6fa062fe7e75880e!8m2!3d52.9447426!4d108.2214639!16s%2Fg%2F11crxwg7j0!19sChIJg35srh7srV0RDoh1fv5ioG8?authuser=0&hl=tr&rclk=1",
    "website_url": "",
    "rating_text": "4,0",
    "stars": null,
    "number_of_reviews": null,
    "price_level": "",
    "open_hours": "",
    "extraction_timestamp": "2025-06-08T02:46:51.282Z",
    "source_name": "google",
    "source_query": "Irrigation Equipment",
    "source_country": "RU",
    "country": "Russia",
    "state": "Republic of Buryatia",
    "city": "Pribaykal’skiy Rayon"
  },
  {
    "source_id": "ChIJG9WwaKjFr10R5mx6LVtfvLU",
    "name": "\"Abvas\" Stroitel'naya Montazhnaya Kompaniya",
    "category": "\"Abvas\" Stroitel'naya Montazhnaya Kompaniya",
    "formatted_address": "5,0(6)",
    "phone_number": "+73012515120",
    "source_url": "https://www.google.com/maps/place/%22Abvas%22+Stroitel%27naya+Montazhnaya+Kompaniya/data=!4m7!3m6!1s0x5dafc5a868b0d51b:0xb5bc5f5b2d7a6ce6!8m2!3d51.8230891!4d107.6350187!16s%2Fg%2F11hdjcl2mh!19sChIJG9WwaKjFr10R5mx6LVtfvLU?authuser=0&hl=tr&rclk=1",
    "website_url": "https://vk.com/abvas",
    "rating_text": "5,0",
    "stars": null,
    "number_of_reviews": null,
    "price_level": "",
    "open_hours": "",
    "extraction_timestamp": "2025-06-08T02:46:51.283Z",
    "source_name": "google",
    "source_query": "Irrigation Equipment",
    "source_country": "RU",
    "country": "Russia",
    "state": "Republic of Buryatia",
    "city": "Pribaykal’skiy Rayon"
  },
  {
    "source_id": "ChIJkTeBAwHar10RE4EiqUGWVyo",
    "name": "Sadem",
    "category": "Sadem",
    "formatted_address": "3,9(50)",
    "phone_number": "+73012689132",
    "source_url": "https://www.google.com/maps/place/Sadem/data=!4m7!3m6!1s0x5dafda0103813791:0x2a579641a9228113!8m2!3d51.868407!4d107.734599!16s%2Fg%2F11bysjpscw!19sChIJkTeBAwHar10RE4EiqUGWVyo?authuser=0&hl=tr&rclk=1",
    "website_url": "http://sademrb.ru/",
    "rating_text": "3,9",
    "stars": null,
    "number_of_reviews": null,
    "price_level": "",
    "open_hours": "",
    "extraction_timestamp": "2025-06-08T02:46:51.284Z",
    "source_name": "google",
    "source_query": "Irrigation Equipment",
    "source_country": "RU",
    "country": "Russia",
    "state": "Republic of Buryatia",
    "city": "Pribaykal’skiy Rayon"
  },
  {
    "source_id": "ChIJu7c0xzDbr10R0v8gx8SfrNk",
    "name": "Santekhtsentr, Magazin Santekhniki",
    "category": "Santekhtsentr, Magazin Santekhniki",
    "formatted_address": "Santekhtsentr, Magazin Santekhniki",
    "phone_number": "+73012350590",
    "source_url": "https://www.google.com/maps/place/Santekhtsentr,+Magazin+Santekhniki/data=!4m7!3m6!1s0x5dafdb30c734b7bb:0xd9ac9fc4c720ffd2!8m2!3d51.825189!4d107.603256!16s%2Fg%2F11bvvzp3ts!19sChIJu7c0xzDbr10R0v8gx8SfrNk?authuser=0&hl=tr&rclk=1",
    "website_url": "",
    "rating_text": "4,7",
    "stars": null,
    "number_of_reviews": null,
    "price_level": "",
    "open_hours": "",
    "extraction_timestamp": "2025-06-08T02:46:51.285Z",
    "source_name": "google",
    "source_query": "Irrigation Equipment",
    "source_country": "RU",
    "country": "Russia",
    "state": "Republic of Buryatia",
    "city": "Pribaykal’skiy Rayon"
  },
  {
    "source_id": "ChIJu7c0xzDbr10R7zfy-HkKIEo",
    "name": "Sibarmaplast",
    "category": "Sibarmaplast",
    "formatted_address": "Su Tesisatı Malzemeleri Satıcısı · Ulitsa 3-Ya Transportnaya, 1АAçık ⋅ Kapanış saati: 17:00 · +7 301 246-88-76",
    "phone_number": "+73012468876",
    "source_url": "https://www.google.com/maps/place/Sibarmaplast/data=!4m7!3m6!1s0x5dafdb30c734b7bb:0x4a200a79f8f237ef!8m2!3d51.8267558!4d107.6102543!16s%2Fg%2F11rwk_m9c!19sChIJu7c0xzDbr10R7zfy-HkKIEo?authuser=0&hl=tr&rclk=1",
    "website_url": "http://www.sibarmaplast.ru/",
    "rating_text": "",
    "stars": null,
    "number_of_reviews": null,
    "price_level": "",
    "open_hours": "",
    "extraction_timestamp": "2025-06-08T02:46:51.287Z",
    "source_name": "google",
    "source_query": "Irrigation Equipment",
    "source_country": "RU",
    "country": "Russia",
    "state": "Republic of Buryatia",
    "city": "Pribaykal’skiy Rayon"
  },
  {
    "source_id": "ChIJv5jccQXbr10RpnSI53B7CRw",
    "name": "Sadem, Sadovyy Tsentr",
    "category": "Sadem, Sadovyy Tsentr",
    "formatted_address": "Sadem, Sadovyy Tsentr",
    "phone_number": "",
    "source_url": "https://www.google.com/maps/place/Sadem,+Sadovyy+Tsentr/data=!4m7!3m6!1s0x5dafdb0571dc98bf:0x1c097b70e78874a6!8m2!3d51.8518095!4d107.6043814!16s%2Fg%2F11qqyd5c6s!19sChIJv5jccQXbr10RpnSI53B7CRw?authuser=0&hl=tr&rclk=1",
    "website_url": "http://sademrb.ru/",
    "rating_text": "4,1",
    "stars": null,
    "number_of_reviews": null,
    "price_level": "",
    "open_hours": "",
    "extraction_timestamp": "2025-06-08T02:46:51.287Z",
    "source_name": "google",
    "source_query": "Irrigation Equipment",
    "source_country": "RU",
    "country": "Russia",
    "state": "Republic of Buryatia",
    "city": "Pribaykal’skiy Rayon"
  },
  {
    "source_id": "ChIJ58e9jx7br10RGD6H6SGKOpg",
    "name": "Tsentr Professional'noy Santekhniki",
    "category": "Tsentr Professional'noy Santekhniki",
    "formatted_address": "Su Tesisatı Malzemeleri Satıcısı · Ulitsa Botanicheskaya, 7дAçık ⋅ Kapanış saati: 17:00 · +7 301 244-67-17",
    "phone_number": "+73012446717",
    "source_url": "https://www.google.com/maps/place/Tsentr+Professional%27noy+Santekhniki/data=!4m7!3m6!1s0x5dafdb1e8fbdc7e7:0x983a8a21e9873e18!8m2!3d51.840696!4d107.630289!16s%2Fg%2F12qf98zgy!19sChIJ58e9jx7br10RGD6H6SGKOpg?authuser=0&hl=tr&rclk=1",
    "website_url": "",
    "rating_text": "",
    "stars": null,
    "number_of_reviews": null,
    "price_level": "",
    "open_hours": "",
    "extraction_timestamp": "2025-06-08T02:46:51.288Z",
    "source_name": "google",
    "source_query": "Irrigation Equipment",
    "source_country": "RU",
    "country": "Russia",
    "state": "Republic of Buryatia",
    "city": "Pribaykal’skiy Rayon"
  },
  {
    "source_id": "ChIJu7c0xzDbr10RAHGEPtZ0XnM",
    "name": "Milyy Dom, Magazin Tovarov Dlya Doma",
    "category": "Milyy Dom, Magazin Tovarov Dlya Doma",
    "formatted_address": "Milyy Dom, Magazin Tovarov Dlya Doma",
    "phone_number": "+79146375570",
    "source_url": "https://www.google.com/maps/place/Milyy+Dom,+Magazin+Tovarov+Dlya+Doma/data=!4m7!3m6!1s0x5dafdb30c734b7bb:0x735e74d63e847100!8m2!3d51.8421666!4d107.5921518!16s%2Fg%2F1hd_g_8yv!19sChIJu7c0xzDbr10RAHGEPtZ0XnM?authuser=0&hl=tr&rclk=1",
    "website_url": "",
    "rating_text": "5,0",
    "stars": null,
    "number_of_reviews": null,
    "price_level": "",
    "open_hours": "",
    "extraction_timestamp": "2025-06-08T02:46:51.289Z",
    "source_name": "google",
    "source_query": "Irrigation Equipment",
    "source_country": "RU",
    "country": "Russia",
    "state": "Republic of Buryatia",
    "city": "Pribaykal’skiy Rayon"
  },
  {
    "source_id": "ChIJhXuf2gTar10RuTCvSbt8S_I",
    "name": "монтаж отопления частном доме в улан-удэ",
    "category": "монтаж отопления частном доме в улан-удэ",
    "formatted_address": "4,9(7)",
    "phone_number": "+79836379124",
    "source_url": "https://www.google.com/maps/place/%D0%BC%D0%BE%D0%BD%D1%82%D0%B0%D0%B6+%D0%BE%D1%82%D0%BE%D0%BF%D0%BB%D0%B5%D0%BD%D0%B8%D1%8F+%D1%87%D0%B0%D1%81%D1%82%D0%BD%D0%BE%D0%BC+%D0%B4%D0%BE%D0%BC%D0%B5+%D0%B2+%D1%83%D0%BB%D0%B0%D0%BD-%D1%83%D0%B4%D1%8D/data=!4m7!3m6!1s0x5dafda04da9f7b85:0xf24b7cbb49af30b9!8m2!3d51.862899!4d107.7245237!16s%2Fg%2F11fx2_5fh5!19sChIJhXuf2gTar10RuTCvSbt8S_I?authuser=0&hl=tr&rclk=1",
    "website_url": "",
    "rating_text": "4,9",
    "stars": null,
    "number_of_reviews": null,
    "price_level": "",
    "open_hours": "",
    "extraction_timestamp": "2025-06-08T02:46:51.291Z",
    "source_name": "google",
    "source_query": "Irrigation Equipment",
    "source_country": "RU",
    "country": "Russia",
    "state": "Republic of Buryatia",
    "city": "Pribaykal’skiy Rayon"
  },
  {
    "source_id": "ChIJ7xZrFKnbr10RIVWzOlrDJWU",
    "name": "Teplosila",
    "category": "Teplosila",
    "formatted_address": "Su Tesisatı Malzemeleri Satıcısı · Prospekt Avtomobilistov, 4б/5Açık ⋅ Kapanış saati: 16:00 · +7 301 244-37-22",
    "phone_number": "+73012443722",
    "source_url": "https://www.google.com/maps/place/Teplosila/data=!4m7!3m6!1s0x5dafdba9146b16ef:0x6525c35a3ab35521!8m2!3d51.832879!4d107.656498!16s%2Fg%2F11hdb1q5h2!19sChIJ7xZrFKnbr10RIVWzOlrDJWU?authuser=0&hl=tr&rclk=1",
    "website_url": "http://mashtorgrb.ru/",
    "rating_text": "",
    "stars": null,
    "number_of_reviews": null,
    "price_level": "",
    "open_hours": "",
    "extraction_timestamp": "2025-06-08T02:46:51.292Z",
    "source_name": "google",
    "source_query": "Irrigation Equipment",
    "source_country": "RU",
    "country": "Russia",
    "state": "Republic of Buryatia",
    "city": "Pribaykal’skiy Rayon"
  },
  {
    "source_id": "ChIJlZ4A9MTcr10R8UcSAinYYcs",
    "name": "Magazin Vodoley",
    "category": "Magazin Vodoley",
    "formatted_address": "Su Tesisatı Malzemeleri Satıcısı · Zabaykal'skaya Ulitsa, 8Açık ⋅ Kapanış saati: 19:00 · +7 301 220-43-50",
    "phone_number": "+73012204350",
    "source_url": "https://www.google.com/maps/place/Magazin+Vodoley/data=!4m7!3m6!1s0x5dafdcc4f4009e95:0xcb61d829021247f1!8m2!3d51.779038!4d107.57239!16s%2Fg%2F12qg0gt2s!19sChIJlZ4A9MTcr10R8UcSAinYYcs?authuser=0&hl=tr&rclk=1",
    "website_url": "",
    "rating_text": "",
    "stars": null,
    "number_of_reviews": null,
    "price_level": "",
    "open_hours": "",
    "extraction_timestamp": "2025-06-08T02:46:51.292Z",
    "source_name": "google",
    "source_query": "Irrigation Equipment",
    "source_country": "RU",
    "country": "Russia",
    "state": "Republic of Buryatia",
    "city": "Pribaykal’skiy Rayon"
  },
  {
    "source_id": "ChIJZfDn5v3ar10RqUdhaf7EL6s",
    "name": "Kompaniya Po Prodazhe Zapchastey Dlya Bytovykh Priborov I Elektroinstrumenta",
    "category": "Kompaniya Po Prodazhe Zapchastey Dlya Bytovykh Priborov I Elektroinstrumenta",
    "formatted_address": "5,0(1)",
    "phone_number": "+79021692049",
    "source_url": "https://www.google.com/maps/place/Kompaniya+Po+Prodazhe+Zapchastey+Dlya+Bytovykh+Priborov+I+Elektroinstrumenta/data=!4m7!3m6!1s0x5dafdafde6e7f065:0xab2fc4fe696147a9!8m2!3d51.8423368!4d107.6501747!16s%2Fg%2F12qgkr5w9!19sChIJZfDn5v3ar10RqUdhaf7EL6s?authuser=0&hl=tr&rclk=1",
    "website_url": "",
    "rating_text": "5,0",
    "stars": null,
    "number_of_reviews": null,
    "price_level": "",
    "open_hours": "",
    "extraction_timestamp": "2025-06-08T02:46:51.293Z",
    "source_name": "google",
    "source_query": "Irrigation Equipment",
    "source_country": "RU",
    "country": "Russia",
    "state": "Republic of Buryatia",
    "city": "Pribaykal’skiy Rayon"
  },
  {
    "source_id": "ChIJvUvYRQDbr10RMdPYsg_F83A",
    "name": "Akva-Plyus",
    "category": "Akva-Plyus",
    "formatted_address": "5,0(2)",
    "phone_number": "+73012502323",
    "source_url": "https://www.google.com/maps/place/Akva-Plyus/data=!4m7!3m6!1s0x5dafdb0045d84bbd:0x70f3c50fb2d8d331!8m2!3d51.8327005!4d107.6538356!16s%2Fg%2F11c1s2sj66!19sChIJvUvYRQDbr10RMdPYsg_F83A?authuser=0&hl=tr&rclk=1",
    "website_url": "http://akwa-plus.ru/",
    "rating_text": "5,0",
    "stars": null,
    "number_of_reviews": null,
    "price_level": "",
    "open_hours": "",
    "extraction_timestamp": "2025-06-08T02:46:51.294Z",
    "source_name": "google",
    "source_query": "Irrigation Equipment",
    "source_country": "RU",
    "country": "Russia",
    "state": "Republic of Buryatia",
    "city": "Pribaykal’skiy Rayon"
  },
  {
    "source_id": "ChIJH_sO1qjbr10RDpVX2KpBMyc",
    "name": "Santekhnika03, Magazin Santekhniki I Oborudovaniya",
    "category": "Santekhnika03, Magazin Santekhniki I Oborudovaniya",
    "formatted_address": "Santekhnika03, Magazin Santekhniki I Oborudovaniya",
    "phone_number": "+73012611226",
    "source_url": "https://www.google.com/maps/place/Santekhnika03,+Magazin+Santekhniki+I+Oborudovaniya/data=!4m7!3m6!1s0x5dafdba8d60efb1f:0x273341aad857950e!8m2!3d51.8314746!4d107.6571299!16s%2Fg%2F12qgjrdz4!19sChIJH_sO1qjbr10RDpVX2KpBMyc?authuser=0&hl=tr&rclk=1",
    "website_url": "",
    "rating_text": "",
    "stars": null,
    "number_of_reviews": null,
    "price_level": "",
    "open_hours": "",
    "extraction_timestamp": "2025-06-08T02:46:51.295Z",
    "source_name": "google",
    "source_query": "Irrigation Equipment",
    "source_country": "RU",
    "country": "Russia",
    "state": "Republic of Buryatia",
    "city": "Pribaykal’skiy Rayon"
  }
]
