[
  {
    "source_id": "ChIJ1dssRIl2pV0ROn_9wymmDqA",
    "name": "Ochag",
    "category": "Ochag",
    "formatted_address": "4,3(113)",
    "phone_number": "",
    "source_url": "https://www.google.com/maps/place/Ochag/data=!4m7!3m6!1s0x5da57689442cdbd5:0xa00ea629c3fd7f3a!8m2!3d51.2853381!4d106.5425026!16s%2Fg%2F1ydkbdf6y!19sChIJ1dssRIl2pV0ROn_9wymmDqA?authuser=0&hl=tr&rclk=1",
    "website_url": "",
    "rating_text": "4,3",
    "stars": null,
    "number_of_reviews": null,
    "price_level": "",
    "open_hours": "",
    "extraction_timestamp": "2025-06-08T02:59:54.616Z",
    "source_name": "google",
    "source_query": "Irrigation Equipment",
    "source_country": "RU",
    "country": "Russia",
    "state": "Republic of Buryatia",
    "city": "Selenginskiy Rayon"
  },
  {
    "source_id": "ChIJG3JTvGZ2pV0RuZB5uyJWzIU",
    "name": "Torgovyy Kompleks Kooperator",
    "category": "Torgovyy Kompleks Kooperator",
    "formatted_address": "3,9(114)",
    "phone_number": "",
    "source_url": "https://www.google.com/maps/place/Torgovyy+Kompleks+Kooperator/data=!4m7!3m6!1s0x5da57666bc53721b:0x85cc5622bb7990b9!8m2!3d51.2891677!4d106.5288338!16s%2Fg%2F11cp676jbm!19sChIJG3JTvGZ2pV0RuZB5uyJWzIU?authuser=0&hl=tr&rclk=1",
    "website_url": "",
    "rating_text": "3,9",
    "stars": null,
    "number_of_reviews": null,
    "price_level": "",
    "open_hours": "",
    "extraction_timestamp": "2025-06-08T02:59:54.616Z",
    "source_name": "google",
    "source_query": "Irrigation Equipment",
    "source_country": "RU",
    "country": "Russia",
    "state": "Republic of Buryatia",
    "city": "Selenginskiy Rayon"
  },
  {
    "source_id": "ChIJ70EFaGB2pV0ROUAjc5JBtUs",
    "name": "Magazin Del'ta",
    "category": "Magazin Del'ta",
    "formatted_address": "4,0(184)",
    "phone_number": "",
    "source_url": "https://www.google.com/maps/place/Magazin+Del%27ta/data=!4m7!3m6!1s0x5da57660680541ef:0x4bb5419273234039!8m2!3d51.2909223!4d106.5362357!16s%2Fg%2F11bzq2ylt2!19sChIJ70EFaGB2pV0ROUAjc5JBtUs?authuser=0&hl=tr&rclk=1",
    "website_url": "",
    "rating_text": "4,0",
    "stars": null,
    "number_of_reviews": null,
    "price_level": "",
    "open_hours": "",
    "extraction_timestamp": "2025-06-08T02:59:54.617Z",
    "source_name": "google",
    "source_query": "Irrigation Equipment",
    "source_country": "RU",
    "country": "Russia",
    "state": "Republic of Buryatia",
    "city": "Selenginskiy Rayon"
  },
  {
    "source_id": "ChIJz_551OB1pV0RHQ11HLaqK0k",
    "name": "Alonka",
    "category": "Alonka",
    "formatted_address": "4,3(52)",
    "phone_number": "",
    "source_url": "https://www.google.com/maps/place/Alonka/data=!4m7!3m6!1s0x5da575e0d479fecf:0x492baab61c750d1d!8m2!3d51.2724761!4d106.4938583!16s%2Fg%2F11c70hb2qm!19sChIJz_551OB1pV0RHQ11HLaqK0k?authuser=0&hl=tr&rclk=1",
    "website_url": "",
    "rating_text": "4,3",
    "stars": null,
    "number_of_reviews": null,
    "price_level": "",
    "open_hours": "",
    "extraction_timestamp": "2025-06-08T02:59:54.617Z",
    "source_name": "google",
    "source_query": "Irrigation Equipment",
    "source_country": "RU",
    "country": "Russia",
    "state": "Republic of Buryatia",
    "city": "Selenginskiy Rayon"
  },
  {
    "source_id": "ChIJrXee1GZ2pV0Rz92AZ6aoOlw",
    "name": "Fruktovyy Sad",
    "category": "Fruktovyy Sad",
    "formatted_address": "4,5(33)",
    "phone_number": "+79085974300",
    "source_url": "https://www.google.com/maps/place/Fruktovyy+Sad/data=!4m7!3m6!1s0x5da57666d49e77ad:0x5c3aa8a66780ddcf!8m2!3d51.2906239!4d106.5311263!16s%2Fg%2F11c52c3jp2!19sChIJrXee1GZ2pV0Rz92AZ6aoOlw?authuser=0&hl=tr&rclk=1",
    "website_url": "",
    "rating_text": "4,5",
    "stars": null,
    "number_of_reviews": null,
    "price_level": "",
    "open_hours": "",
    "extraction_timestamp": "2025-06-08T02:59:54.619Z",
    "source_name": "google",
    "source_query": "Irrigation Equipment",
    "source_country": "RU",
    "country": "Russia",
    "state": "Republic of Buryatia",
    "city": "Selenginskiy Rayon"
  },
  {
    "source_id": "ChIJnzqY9Xx2pV0RN12RQ27J47M",
    "name": "Kalinka",
    "category": "Kalinka",
    "formatted_address": "4,4(47)",
    "phone_number": "",
    "source_url": "https://www.google.com/maps/place/Kalinka/data=!4m7!3m6!1s0x5da5767cf5983a9f:0xb3e3c96e43915d37!8m2!3d51.2800201!4d106.5287623!16s%2Fg%2F11gdkrcyyp!19sChIJnzqY9Xx2pV0RN12RQ27J47M?authuser=0&hl=tr&rclk=1",
    "website_url": "",
    "rating_text": "4,4",
    "stars": null,
    "number_of_reviews": null,
    "price_level": "",
    "open_hours": "",
    "extraction_timestamp": "2025-06-08T02:59:54.619Z",
    "source_name": "google",
    "source_query": "Irrigation Equipment",
    "source_country": "RU",
    "country": "Russia",
    "state": "Republic of Buryatia",
    "city": "Selenginskiy Rayon"
  },
  {
    "source_id": "ChIJm8mn0ot2pV0R1z5dh5GXwHA",
    "name": "Dobryy",
    "category": "Dobryy",
    "formatted_address": "3,4(25)",
    "phone_number": "+78005555550",
    "source_url": "https://www.google.com/maps/place/Dobryy/data=!4m7!3m6!1s0x5da5768bd2a7c99b:0x70c09791875d3ed7!8m2!3d51.287684!4d106.541119!16s%2Fg%2F1pzy8b20j!19sChIJm8mn0ot2pV0R1z5dh5GXwHA?authuser=0&hl=tr&rclk=1",
    "website_url": "",
    "rating_text": "3,4",
    "stars": null,
    "number_of_reviews": null,
    "price_level": "",
    "open_hours": "",
    "extraction_timestamp": "2025-06-08T02:59:54.620Z",
    "source_name": "google",
    "source_query": "Irrigation Equipment",
    "source_country": "RU",
    "country": "Russia",
    "state": "Republic of Buryatia",
    "city": "Selenginskiy Rayon"
  },
  {
    "source_id": "ChIJcwfW-BsSpV0RGbbMdYNHilc",
    "name": "Po \"Universal'nach Torgovaya Baza Burkoopsoyuza\"",
    "category": "Po \"Universal'nach Torgovaya Baza Burkoopsoyuza\"",
    "formatted_address": "4,2(17)",
    "phone_number": "+79247701327",
    "source_url": "https://www.google.com/maps/place/Po+%22Universal%27nach+Torgovaya+Baza+Burkoopsoyuza%22/data=!4m7!3m6!1s0x5da5121bf8d60773:0x578a478375ccb619!8m2!3d51.0910849!4d106.6291133!16s%2Fg%2F11f4036m1t!19sChIJcwfW-BsSpV0RGbbMdYNHilc?authuser=0&hl=tr&rclk=1",
    "website_url": "",
    "rating_text": "4,2",
    "stars": null,
    "number_of_reviews": null,
    "price_level": "",
    "open_hours": "",
    "extraction_timestamp": "2025-06-08T02:59:54.622Z",
    "source_name": "google",
    "source_query": "Irrigation Equipment",
    "source_country": "RU",
    "country": "Russia",
    "state": "Republic of Buryatia",
    "city": "Selenginskiy Rayon"
  },
  {
    "source_id": "ChIJ10NOKWJ2pV0RvqJYfgOMb08",
    "name": "Amrita",
    "category": "Amrita",
    "formatted_address": "4,3(22)",
    "phone_number": "",
    "source_url": "https://www.google.com/maps/place/Amrita/data=!4m7!3m6!1s0x5da57662294e43d7:0x4f6f8c037e58a2be!8m2!3d51.2872873!4d106.5336738!16s%2Fg%2F11ggqt5tmt!19sChIJ10NOKWJ2pV0RvqJYfgOMb08?authuser=0&hl=tr&rclk=1",
    "website_url": "",
    "rating_text": "4,3",
    "stars": null,
    "number_of_reviews": null,
    "price_level": "",
    "open_hours": "",
    "extraction_timestamp": "2025-06-08T02:59:54.622Z",
    "source_name": "google",
    "source_query": "Irrigation Equipment",
    "source_country": "RU",
    "country": "Russia",
    "state": "Republic of Buryatia",
    "city": "Selenginskiy Rayon"
  },
  {
    "source_id": "ChIJZbf0NIp2pV0Rtg6a8i_42jI",
    "name": "Set' Tekhniki",
    "category": "Set' Tekhniki",
    "formatted_address": "4,2(87)",
    "phone_number": "+78007752030",
    "source_url": "https://www.google.com/maps/place/Set%27+Tekhniki/data=!4m7!3m6!1s0x5da5768a34f4b765:0x32daf82ff29a0eb6!8m2!3d51.287654!4d106.5409918!16s%2Fg%2F11cr_n_7yz!19sChIJZbf0NIp2pV0Rtg6a8i_42jI?authuser=0&hl=tr&rclk=1",
    "website_url": "",
    "rating_text": "4,2",
    "stars": null,
    "number_of_reviews": null,
    "price_level": "",
    "open_hours": "",
    "extraction_timestamp": "2025-06-08T02:59:54.623Z",
    "source_name": "google",
    "source_query": "Irrigation Equipment",
    "source_country": "RU",
    "country": "Russia",
    "state": "Republic of Buryatia",
    "city": "Selenginskiy Rayon"
  },
  {
    "source_id": "ChIJiTUf8Gx2pV0RyfdPvQuHRtM",
    "name": "Cheremushka",
    "category": "Cheremushka",
    "formatted_address": "4,2(43)",
    "phone_number": "+79024555200",
    "source_url": "https://www.google.com/maps/place/Cheremushka/data=!4m7!3m6!1s0x5da5766cf01f3589:0xd346870bbd4ff7c9!8m2!3d51.2891349!4d106.5104855!16s%2Fg%2F11hd0h6dd3!19sChIJiTUf8Gx2pV0RyfdPvQuHRtM?authuser=0&hl=tr&rclk=1",
    "website_url": "",
    "rating_text": "4,2",
    "stars": null,
    "number_of_reviews": null,
    "price_level": "",
    "open_hours": "",
    "extraction_timestamp": "2025-06-08T02:59:54.624Z",
    "source_name": "google",
    "source_query": "Irrigation Equipment",
    "source_country": "RU",
    "country": "Russia",
    "state": "Republic of Buryatia",
    "city": "Selenginskiy Rayon"
  },
  {
    "source_id": "ChIJA1ijxpGqpV0RyoY5Ww8YRcU",
    "name": "Ip Matsneva",
    "category": "Ip Matsneva",
    "formatted_address": "4,2(25)",
    "phone_number": "",
    "source_url": "https://www.google.com/maps/place/Ip+Matsneva/data=!4m7!3m6!1s0x5da5aa91c6a35803:0xc545180f5b3986ca!8m2!3d50.9169175!4d106.2308113!16s%2Fg%2F11dfwykn06!19sChIJA1ijxpGqpV0RyoY5Ww8YRcU?authuser=0&hl=tr&rclk=1",
    "website_url": "",
    "rating_text": "4,2",
    "stars": null,
    "number_of_reviews": null,
    "price_level": "",
    "open_hours": "",
    "extraction_timestamp": "2025-06-08T02:59:54.625Z",
    "source_name": "google",
    "source_query": "Irrigation Equipment",
    "source_country": "RU",
    "country": "Russia",
    "state": "Republic of Buryatia",
    "city": "Selenginskiy Rayon"
  },
  {
    "source_id": "ChIJoXq2l3N3pV0RZbSquIEntQY",
    "name": "DNS",
    "category": "DNS",
    "formatted_address": "4,4(93)",
    "phone_number": "+78007707999",
    "source_url": "https://www.google.com/maps/place/DNS/data=!4m7!3m6!1s0x5da5777397b67aa1:0x6b52781b8aab465!8m2!3d51.2883605!4d106.5350876!16s%2Fg%2F11jft598qq!19sChIJoXq2l3N3pV0RZbSquIEntQY?authuser=0&hl=tr&rclk=1",
    "website_url": "",
    "rating_text": "4,4",
    "stars": null,
    "number_of_reviews": null,
    "price_level": "",
    "open_hours": "",
    "extraction_timestamp": "2025-06-08T02:59:54.626Z",
    "source_name": "google",
    "source_query": "Irrigation Equipment",
    "source_country": "RU",
    "country": "Russia",
    "state": "Republic of Buryatia",
    "city": "Selenginskiy Rayon"
  },
  {
    "source_id": "ChIJs1oNHlR3pV0RxtvbwOD2YVc",
    "name": "Khlebushek",
    "category": "Khlebushek",
    "formatted_address": "4,7(14)",
    "phone_number": "",
    "source_url": "https://www.google.com/maps/place/Khlebushek/data=!4m7!3m6!1s0x5da577541e0d5ab3:0x5761f6e0c0dbdbc6!8m2!3d51.2908353!4d106.533738!16s%2Fg%2F11gmgd28_s!19sChIJs1oNHlR3pV0RxtvbwOD2YVc?authuser=0&hl=tr&rclk=1",
    "website_url": "",
    "rating_text": "4,7",
    "stars": null,
    "number_of_reviews": null,
    "price_level": "",
    "open_hours": "",
    "extraction_timestamp": "2025-06-08T02:59:54.654Z",
    "source_name": "google",
    "source_query": "Irrigation Equipment",
    "source_country": "RU",
    "country": "Russia",
    "state": "Republic of Buryatia",
    "city": "Selenginskiy Rayon"
  },
  {
    "source_id": "ChIJv_xOyGB2pV0RW0AhyqMW4K0",
    "name": "Lyubimchik",
    "category": "Lyubimchik",
    "formatted_address": "4,5(94)",
    "phone_number": "",
    "source_url": "https://www.google.com/maps/place/Lyubimchik/data=!4m7!3m6!1s0x5da57660c84efcbf:0xade016a3ca21405b!8m2!3d51.2915263!4d106.5318912!16s%2Fg%2F11g8zxyvq1!19sChIJv_xOyGB2pV0RW0AhyqMW4K0?authuser=0&hl=tr&rclk=1",
    "website_url": "",
    "rating_text": "4,5",
    "stars": null,
    "number_of_reviews": null,
    "price_level": "",
    "open_hours": "",
    "extraction_timestamp": "2025-06-08T02:59:54.655Z",
    "source_name": "google",
    "source_query": "Irrigation Equipment",
    "source_country": "RU",
    "country": "Russia",
    "state": "Republic of Buryatia",
    "city": "Selenginskiy Rayon"
  },
  {
    "source_id": "ChIJrT_DtmF2pV0Rlx1mC_TShpQ",
    "name": "Titan",
    "category": "Titan",
    "formatted_address": "3,9(364)",
    "phone_number": "+79503825087",
    "source_url": "https://www.google.com/maps/place/Titan/data=!4m7!3m6!1s0x5da57661b6c33fad:0x9486d2f40b661d97!8m2!3d51.289246!4d106.5360939!16s%2Fg%2F1ydkbcynn!19sChIJrT_DtmF2pV0Rlx1mC_TShpQ?authuser=0&hl=tr&rclk=1",
    "website_url": "",
    "rating_text": "3,9",
    "stars": null,
    "number_of_reviews": null,
    "price_level": "",
    "open_hours": "",
    "extraction_timestamp": "2025-06-08T02:59:54.656Z",
    "source_name": "google",
    "source_query": "Irrigation Equipment",
    "source_country": "RU",
    "country": "Russia",
    "state": "Republic of Buryatia",
    "city": "Selenginskiy Rayon"
  },
  {
    "source_id": "ChIJlYjRyiJ3pV0RsqqEN1UIlSk",
    "name": "Magazin Teremok",
    "category": "Magazin Teremok",
    "formatted_address": "4,4(18)",
    "phone_number": "",
    "source_url": "https://www.google.com/maps/place/Magazin+Teremok/data=!4m7!3m6!1s0x5da57722cad18895:0x299508553784aab2!8m2!3d51.2838984!4d106.520138!16s%2Fg%2F11fd7gtzyw!19sChIJlYjRyiJ3pV0RsqqEN1UIlSk?authuser=0&hl=tr&rclk=1",
    "website_url": "",
    "rating_text": "4,4",
    "stars": null,
    "number_of_reviews": null,
    "price_level": "",
    "open_hours": "",
    "extraction_timestamp": "2025-06-08T02:59:54.657Z",
    "source_name": "google",
    "source_query": "Irrigation Equipment",
    "source_country": "RU",
    "country": "Russia",
    "state": "Republic of Buryatia",
    "city": "Selenginskiy Rayon"
  },
  {
    "source_id": "ChIJM4gsFqJ1pV0RRP25ySZPhFI",
    "name": "Gusi-Lebedi",
    "category": "Gusi-Lebedi",
    "formatted_address": "3,8(17)",
    "phone_number": "",
    "source_url": "https://www.google.com/maps/place/Gusi-Lebedi/data=!4m7!3m6!1s0x5da575a2162c8833:0x52844f26c9b9fd44!8m2!3d51.2681369!4d106.4926173!16s%2Fg%2F11gtz50y0d!19sChIJM4gsFqJ1pV0RRP25ySZPhFI?authuser=0&hl=tr&rclk=1",
    "website_url": "",
    "rating_text": "3,8",
    "stars": null,
    "number_of_reviews": null,
    "price_level": "",
    "open_hours": "",
    "extraction_timestamp": "2025-06-08T02:59:54.657Z",
    "source_name": "google",
    "source_query": "Irrigation Equipment",
    "source_country": "RU",
    "country": "Russia",
    "state": "Republic of Buryatia",
    "city": "Selenginskiy Rayon"
  },
  {
    "source_id": "ChIJ-wIjI2h3pV0Ro5Gj3WUwdkA",
    "name": "Magazin. Sibir'.",
    "category": "Magazin. Sibir'.",
    "formatted_address": "5,0(2)",
    "phone_number": "",
    "source_url": "https://www.google.com/maps/place/Magazin.+Sibir%27./data=!4m7!3m6!1s0x5da57768232302fb:0x40763065dda391a3!8m2!3d51.2887119!4d106.5289122!16s%2Fg%2F11gnsrd2y7!19sChIJ-wIjI2h3pV0Ro5Gj3WUwdkA?authuser=0&hl=tr&rclk=1",
    "website_url": "",
    "rating_text": "5,0",
    "stars": null,
    "number_of_reviews": null,
    "price_level": "",
    "open_hours": "",
    "extraction_timestamp": "2025-06-08T02:59:54.657Z",
    "source_name": "google",
    "source_query": "Irrigation Equipment",
    "source_country": "RU",
    "country": "Russia",
    "state": "Republic of Buryatia",
    "city": "Selenginskiy Rayon"
  },
  {
    "source_id": "ChIJiVN68PN0pV0RaQYgQXnq2Cc",
    "name": "Gusinoozersk Hill",
    "category": "Gusinoozersk Hill",
    "formatted_address": "4,1(15)",
    "phone_number": "",
    "source_url": "https://www.google.com/maps/place/Gusinoozersk+Hill/data=!4m7!3m6!1s0x5da574f3f07a5389:0x27d8ea7941200669!8m2!3d51.2240039!4d106.5232025!16s%2Fg%2F11g8njh5vf!19sChIJiVN68PN0pV0RaQYgQXnq2Cc?authuser=0&hl=tr&rclk=1",
    "website_url": "",
    "rating_text": "4,1",
    "stars": null,
    "number_of_reviews": null,
    "price_level": "",
    "open_hours": "",
    "extraction_timestamp": "2025-06-08T02:59:54.658Z",
    "source_name": "google",
    "source_query": "Irrigation Equipment",
    "source_country": "RU",
    "country": "Russia",
    "state": "Republic of Buryatia",
    "city": "Selenginskiy Rayon"
  },
  {
    "source_id": "ChIJxVJIc2B2pV0ROB0gLICdzc4",
    "name": "Magazin Proviant",
    "category": "Magazin Proviant",
    "formatted_address": "4,1(18)",
    "phone_number": "",
    "source_url": "https://www.google.com/maps/place/Magazin+Proviant/data=!4m7!3m6!1s0x5da57660734852c5:0xcecd9d802c201d38!8m2!3d51.2919544!4d106.5378946!16s%2Fg%2F11g8h774y5!19sChIJxVJIc2B2pV0ROB0gLICdzc4?authuser=0&hl=tr&rclk=1",
    "website_url": "",
    "rating_text": "4,1",
    "stars": null,
    "number_of_reviews": null,
    "price_level": "",
    "open_hours": "",
    "extraction_timestamp": "2025-06-08T02:59:54.658Z",
    "source_name": "google",
    "source_query": "Irrigation Equipment",
    "source_country": "RU",
    "country": "Russia",
    "state": "Republic of Buryatia",
    "city": "Selenginskiy Rayon"
  },
  {
    "source_id": "ChIJeY7L6wJ1pV0Rz3CYZU4N5Lw",
    "name": "Ip Suvorova I.v. Magazin \"Uspekh\"",
    "category": "Ip Suvorova I.v. Magazin \"Uspekh\"",
    "formatted_address": "3,9(15)",
    "phone_number": "+79516389792",
    "source_url": "https://www.google.com/maps/place/Ip+Suvorova+I.v.+Magazin+%22Uspekh%22/data=!4m7!3m6!1s0x5da57502ebcb8e79:0xbce40d4e659870cf!8m2!3d51.2753343!4d106.4985719!16s%2Fg%2F11gjt93_wv!19sChIJeY7L6wJ1pV0Rz3CYZU4N5Lw?authuser=0&hl=tr&rclk=1",
    "website_url": "",
    "rating_text": "3,9",
    "stars": null,
    "number_of_reviews": null,
    "price_level": "",
    "open_hours": "",
    "extraction_timestamp": "2025-06-08T02:59:54.659Z",
    "source_name": "google",
    "source_query": "Irrigation Equipment",
    "source_country": "RU",
    "country": "Russia",
    "state": "Republic of Buryatia",
    "city": "Selenginskiy Rayon"
  },
  {
    "source_id": "ChIJw6HsKYp2pV0RuVa5PPnYZzI",
    "name": "Aysberg",
    "category": "Aysberg",
    "formatted_address": "3,3(10)",
    "phone_number": "",
    "source_url": "https://www.google.com/maps/place/Aysberg/data=!4m7!3m6!1s0x5da5768a29eca1c3:0x3267d8f93cb956b9!8m2!3d51.2867574!4d106.5399672!16s%2Fg%2F11fylnpvpp!19sChIJw6HsKYp2pV0RuVa5PPnYZzI?authuser=0&hl=tr&rclk=1",
    "website_url": "",
    "rating_text": "3,3",
    "stars": null,
    "number_of_reviews": null,
    "price_level": "",
    "open_hours": "",
    "extraction_timestamp": "2025-06-08T02:59:54.659Z",
    "source_name": "google",
    "source_query": "Irrigation Equipment",
    "source_country": "RU",
    "country": "Russia",
    "state": "Republic of Buryatia",
    "city": "Selenginskiy Rayon"
  },
  {
    "source_id": "ChIJu7eWSnB2pV0RPwzJmKglH24",
    "name": "Magazin Zhanal",
    "category": "Magazin Zhanal",
    "formatted_address": "4,0(70)",
    "phone_number": "",
    "source_url": "https://www.google.com/maps/place/Magazin+Zhanal/data=!4m7!3m6!1s0x5da576704a96b7bb:0x6e1f25a898c90c3f!8m2!3d51.2834836!4d106.5152011!16s%2Fg%2F11c1nhx8w7!19sChIJu7eWSnB2pV0RPwzJmKglH24?authuser=0&hl=tr&rclk=1",
    "website_url": "",
    "rating_text": "4,0",
    "stars": null,
    "number_of_reviews": null,
    "price_level": "",
    "open_hours": "",
    "extraction_timestamp": "2025-06-08T02:59:54.660Z",
    "source_name": "google",
    "source_query": "Irrigation Equipment",
    "source_country": "RU",
    "country": "Russia",
    "state": "Republic of Buryatia",
    "city": "Selenginskiy Rayon"
  },
  {
    "source_id": "ChIJBRt83Z93pV0R0JLjRjESEEE",
    "name": "Siberia",
    "category": "Siberia",
    "formatted_address": "4,0(7)",
    "phone_number": "",
    "source_url": "https://www.google.com/maps/place/Siberia/data=!4m7!3m6!1s0x5da5779fdd7c1b05:0x4110123146e392d0!8m2!3d51.2805512!4d106.5273402!16s%2Fg%2F11fcvb4yb1!19sChIJBRt83Z93pV0R0JLjRjESEEE?authuser=0&hl=tr&rclk=1",
    "website_url": "",
    "rating_text": "4,0",
    "stars": null,
    "number_of_reviews": null,
    "price_level": "",
    "open_hours": "",
    "extraction_timestamp": "2025-06-08T02:59:54.660Z",
    "source_name": "google",
    "source_query": "Irrigation Equipment",
    "source_country": "RU",
    "country": "Russia",
    "state": "Republic of Buryatia",
    "city": "Selenginskiy Rayon"
  },
  {
    "source_id": "ChIJzed4C9R3pV0RE5ZxXa2oNcI",
    "name": "Magazin Narek",
    "category": "Magazin Narek",
    "formatted_address": "3,0(4)",
    "phone_number": "",
    "source_url": "https://www.google.com/maps/place/Magazin+Narek/data=!4m7!3m6!1s0x5da577d40b78e7cd:0xc235a8ad5d719613!8m2!3d51.2924394!4d106.538282!16s%2Fg%2F11g4l8jpg7!19sChIJzed4C9R3pV0RE5ZxXa2oNcI?authuser=0&hl=tr&rclk=1",
    "website_url": "",
    "rating_text": "3,0",
    "stars": null,
    "number_of_reviews": null,
    "price_level": "",
    "open_hours": "",
    "extraction_timestamp": "2025-06-08T02:59:54.661Z",
    "source_name": "google",
    "source_query": "Irrigation Equipment",
    "source_country": "RU",
    "country": "Russia",
    "state": "Republic of Buryatia",
    "city": "Selenginskiy Rayon"
  },
  {
    "source_id": "ChIJe5DCioV3pV0R7aFnlKrEB2o",
    "name": "Вояж",
    "category": "Вояж",
    "formatted_address": "4,5(4)",
    "phone_number": "",
    "source_url": "https://www.google.com/maps/place/%D0%92%D0%BE%D1%8F%D0%B6/data=!4m7!3m6!1s0x5da577858ac2907b:0x6a07c4aa9467a1ed!8m2!3d51.2850375!4d106.5319766!16s%2Fg%2F11f6499vwr!19sChIJe5DCioV3pV0R7aFnlKrEB2o?authuser=0&hl=tr&rclk=1",
    "website_url": "",
    "rating_text": "4,5",
    "stars": null,
    "number_of_reviews": null,
    "price_level": "",
    "open_hours": "",
    "extraction_timestamp": "2025-06-08T02:59:54.661Z",
    "source_name": "google",
    "source_query": "Irrigation Equipment",
    "source_country": "RU",
    "country": "Russia",
    "state": "Republic of Buryatia",
    "city": "Selenginskiy Rayon"
  },
  {
    "source_id": "ChIJrRRIcIWqpV0RU7ngytMqRVc",
    "name": "Ulybka",
    "category": "Ulybka",
    "formatted_address": "4,1(29)",
    "phone_number": "",
    "source_url": "https://www.google.com/maps/place/Ulybka/data=!4m7!3m6!1s0x5da5aa85704814ad:0x57452ad3cae0b953!8m2!3d50.918968!4d106.2384273!16s%2Fg%2F11f1jwmwy6!19sChIJrRRIcIWqpV0RU7ngytMqRVc?authuser=0&hl=tr&rclk=1",
    "website_url": "",
    "rating_text": "4,1",
    "stars": null,
    "number_of_reviews": null,
    "price_level": "",
    "open_hours": "",
    "extraction_timestamp": "2025-06-08T02:59:54.661Z",
    "source_name": "google",
    "source_query": "Irrigation Equipment",
    "source_country": "RU",
    "country": "Russia",
    "state": "Republic of Buryatia",
    "city": "Selenginskiy Rayon"
  },
  {
    "source_id": "ChIJgwfgOAp3pV0RNP0ZMC6XmKc",
    "name": "Solnechnyi",
    "category": "Solnechnyi",
    "formatted_address": "4,5(4)",
    "phone_number": "",
    "source_url": "https://www.google.com/maps/place/Solnechnyi/data=!4m7!3m6!1s0x5da5770a38e00783:0xa798972e3019fd34!8m2!3d51.2828087!4d106.5491901!16s%2Fg%2F11r_fct_bc!19sChIJgwfgOAp3pV0RNP0ZMC6XmKc?authuser=0&hl=tr&rclk=1",
    "website_url": "",
    "rating_text": "4,5",
    "stars": null,
    "number_of_reviews": null,
    "price_level": "",
    "open_hours": "",
    "extraction_timestamp": "2025-06-08T02:59:54.662Z",
    "source_name": "google",
    "source_query": "Irrigation Equipment",
    "source_country": "RU",
    "country": "Russia",
    "state": "Republic of Buryatia",
    "city": "Selenginskiy Rayon"
  },
  {
    "source_id": "ChIJ7a7GjVN3pV0RaHq1LeR_cBU",
    "name": "Magazin Lavina",
    "category": "Magazin Lavina",
    "formatted_address": "4,0(2)",
    "phone_number": "",
    "source_url": "https://www.google.com/maps/place/Magazin+Lavina/data=!4m7!3m6!1s0x5da577538dc6aeed:0x15707fe42db57a68!8m2!3d51.2891822!4d106.527559!16s%2Fg%2F11g0kffdb6!19sChIJ7a7GjVN3pV0RaHq1LeR_cBU?authuser=0&hl=tr&rclk=1",
    "website_url": "",
    "rating_text": "4,0",
    "stars": null,
    "number_of_reviews": null,
    "price_level": "",
    "open_hours": "",
    "extraction_timestamp": "2025-06-08T02:59:54.662Z",
    "source_name": "google",
    "source_query": "Irrigation Equipment",
    "source_country": "RU",
    "country": "Russia",
    "state": "Republic of Buryatia",
    "city": "Selenginskiy Rayon"
  },
  {
    "source_id": "ChIJn56kml92pV0RutTIBSAMOVo",
    "name": "Magazin Nizkikh Tsen Svetofor",
    "category": "Magazin Nizkikh Tsen Svetofor",
    "formatted_address": "4,2(366)",
    "phone_number": "+73014541088",
    "source_url": "https://www.google.com/maps/place/Magazin+Nizkikh+Tsen+Svetofor/data=!4m7!3m6!1s0x5da5765f9aa49e9f:0x5a390c2005c8d4ba!8m2!3d51.2943017!4d106.5403114!16s%2Fg%2F11f2rys2zp!19sChIJn56kml92pV0RutTIBSAMOVo?authuser=0&hl=tr&rclk=1",
    "website_url": "",
    "rating_text": "4,2",
    "stars": null,
    "number_of_reviews": null,
    "price_level": "",
    "open_hours": "",
    "extraction_timestamp": "2025-06-08T02:59:54.663Z",
    "source_name": "google",
    "source_query": "Irrigation Equipment",
    "source_country": "RU",
    "country": "Russia",
    "state": "Republic of Buryatia",
    "city": "Selenginskiy Rayon"
  }
]
