[
  {
    "source_id": "ChIJw7dB24p2UVwRhLWCnyXGHuo",
    "name": "Million Idey Dlya Doma",
    "category": "Million Idey Dlya Doma",
    "formatted_address": "3,8(4)",
    "phone_number": "+79247585188",
    "source_url": "https://www.google.com/maps/place/Million+Idey+Dlya+Doma/data=!4m7!3m6!1s0x5c51768adb41b7c3:0xea1ec6259f82b584!8m2!3d55.6366616!4d109.336609!16s%2Fg%2F11fxqrrdn_!19sChIJw7dB24p2UVwRhLWCnyXGHuo?authuser=0&hl=tr&rclk=1",
    "website_url": "",
    "rating_text": "3,8",
    "stars": null,
    "number_of_reviews": null,
    "price_level": "",
    "open_hours": "",
    "extraction_timestamp": "2025-06-08T02:46:40.972Z",
    "source_name": "google",
    "source_query": "Irrigation Equipment",
    "source_country": "RU",
    "country": "Russia",
    "state": "Republic of Buryatia",
    "city": "Severobaykal’sk"
  },
  {
    "source_id": "ChIJ3y52m_Z2UVwROAMkrGLdLF8",
    "name": "Erdem",
    "category": "Erdem",
    "formatted_address": "4,3(12)",
    "phone_number": "",
    "source_url": "https://www.google.com/maps/place/Erdem/data=!4m7!3m6!1s0x5c5176f69b762edf:0x5f2cdd62ac240338!8m2!3d55.6353767!4d109.3375317!16s%2Fg%2F1yfjff2y0!19sChIJ3y52m_Z2UVwROAMkrGLdLF8?authuser=0&hl=tr&rclk=1",
    "website_url": "",
    "rating_text": "4,3",
    "stars": null,
    "number_of_reviews": null,
    "price_level": "",
    "open_hours": "",
    "extraction_timestamp": "2025-06-08T02:46:40.972Z",
    "source_name": "google",
    "source_query": "Irrigation Equipment",
    "source_country": "RU",
    "country": "Russia",
    "state": "Republic of Buryatia",
    "city": "Severobaykal’sk"
  },
  {
    "source_id": "ChIJh5wYmut2UVwRJWjIFjMr02w",
    "name": "Planeta",
    "category": "Planeta",
    "formatted_address": "4,5(35)",
    "phone_number": "",
    "source_url": "https://www.google.com/maps/place/Planeta/data=!4m7!3m6!1s0x5c5176eb9a189c87:0x6cd32b3316c86825!8m2!3d55.6368718!4d109.3213351!16s%2Fg%2F11c5w43jtk!19sChIJh5wYmut2UVwRJWjIFjMr02w?authuser=0&hl=tr&rclk=1",
    "website_url": "",
    "rating_text": "4,5",
    "stars": null,
    "number_of_reviews": null,
    "price_level": "",
    "open_hours": "",
    "extraction_timestamp": "2025-06-08T02:46:40.972Z",
    "source_name": "google",
    "source_query": "Irrigation Equipment",
    "source_country": "RU",
    "country": "Russia",
    "state": "Republic of Buryatia",
    "city": "Severobaykal’sk"
  },
  {
    "source_id": "ChIJCbh0MOt2UVwRlALhvScH3nA",
    "name": "Narodnyy",
    "category": "Narodnyy",
    "formatted_address": "3,9(40)",
    "phone_number": "",
    "source_url": "https://www.google.com/maps/place/Narodnyy/data=!4m7!3m6!1s0x5c5176eb3074b809:0x70de0727bde10294!8m2!3d55.6393556!4d109.3108443!16s%2Fg%2F11d_wxrf0t!19sChIJCbh0MOt2UVwRlALhvScH3nA?authuser=0&hl=tr&rclk=1",
    "website_url": "",
    "rating_text": "3,9",
    "stars": null,
    "number_of_reviews": null,
    "price_level": "",
    "open_hours": "",
    "extraction_timestamp": "2025-06-08T02:46:40.973Z",
    "source_name": "google",
    "source_query": "Irrigation Equipment",
    "source_country": "RU",
    "country": "Russia",
    "state": "Republic of Buryatia",
    "city": "Severobaykal’sk"
  },
  {
    "source_id": "ChIJBwqrz_B2UVwRLXQ-p4ksL_E",
    "name": "Set' Tekhniki",
    "category": "Set' Tekhniki",
    "formatted_address": "3,6(43)",
    "phone_number": "+78007752030",
    "source_url": "https://www.google.com/maps/place/Set%27+Tekhniki/data=!4m7!3m6!1s0x5c5176f0cfab0a07:0xf12f2c89a73e742d!8m2!3d55.6374001!4d109.3375629!16s%2Fg%2F11cr_t0t0r!19sChIJBwqrz_B2UVwRLXQ-p4ksL_E?authuser=0&hl=tr&rclk=1",
    "website_url": "",
    "rating_text": "3,6",
    "stars": null,
    "number_of_reviews": null,
    "price_level": "",
    "open_hours": "",
    "extraction_timestamp": "2025-06-08T02:46:40.973Z",
    "source_name": "google",
    "source_query": "Irrigation Equipment",
    "source_country": "RU",
    "country": "Russia",
    "state": "Republic of Buryatia",
    "city": "Severobaykal’sk"
  },
  {
    "source_id": "ChIJO2hiZh93UVwR-tVho2hNILk",
    "name": "Yarki",
    "category": "Yarki",
    "formatted_address": "4,3(54)",
    "phone_number": "",
    "source_url": "https://www.google.com/maps/place/Yarki/data=!4m7!3m6!1s0x5c51771f6662683b:0xb9204d68a361d5fa!8m2!3d55.6165899!4d109.2886227!16s%2Fg%2F11c0r5hvkz!19sChIJO2hiZh93UVwR-tVho2hNILk?authuser=0&hl=tr&rclk=1",
    "website_url": "",
    "rating_text": "4,3",
    "stars": null,
    "number_of_reviews": null,
    "price_level": "",
    "open_hours": "",
    "extraction_timestamp": "2025-06-08T02:46:40.973Z",
    "source_name": "google",
    "source_query": "Irrigation Equipment",
    "source_country": "RU",
    "country": "Russia",
    "state": "Republic of Buryatia",
    "city": "Severobaykal’sk"
  },
  {
    "source_id": "ChIJ9-G8mOt2UVwRnqVsmv0J42E",
    "name": "Sputnik",
    "category": "Sputnik",
    "formatted_address": "4,5(39)",
    "phone_number": "",
    "source_url": "https://www.google.com/maps/place/Sputnik/data=!4m7!3m6!1s0x5c5176eb98bce1f7:0x61e309fd9a6ca59e!8m2!3d55.6368622!4d109.3100726!16s%2Fg%2F11c2p_x4j6!19sChIJ9-G8mOt2UVwRnqVsmv0J42E?authuser=0&hl=tr&rclk=1",
    "website_url": "",
    "rating_text": "4,5",
    "stars": null,
    "number_of_reviews": null,
    "price_level": "",
    "open_hours": "",
    "extraction_timestamp": "2025-06-08T02:46:40.973Z",
    "source_name": "google",
    "source_query": "Irrigation Equipment",
    "source_country": "RU",
    "country": "Russia",
    "state": "Republic of Buryatia",
    "city": "Severobaykal’sk"
  },
  {
    "source_id": "ChIJc7w74L53UVwRPqEhP7wSH1o",
    "name": "\"Master-Etalon\"",
    "category": "\"Master-Etalon\"",
    "formatted_address": "Nalbur · Leningradskiy Prospekt, 8Açık ⋅ Kapanış saati: 19:00",
    "phone_number": "",
    "source_url": "https://www.google.com/maps/place/%22Master-Etalon%22/data=!4m7!3m6!1s0x5c5177bee03bbc73:0x5a1f12bc3f21a13e!8m2!3d55.6366328!4d109.3367051!16s%2Fg%2F11r9tmn3bt!19sChIJc7w74L53UVwRPqEhP7wSH1o?authuser=0&hl=tr&rclk=1",
    "website_url": "",
    "rating_text": "",
    "stars": null,
    "number_of_reviews": null,
    "price_level": "",
    "open_hours": "",
    "extraction_timestamp": "2025-06-08T02:46:40.973Z",
    "source_name": "google",
    "source_query": "Irrigation Equipment",
    "source_country": "RU",
    "country": "Russia",
    "state": "Republic of Buryatia",
    "city": "Severobaykal’sk"
  },
  {
    "source_id": "ChIJteGL0ot2UVwRFmVMLqDwFH8",
    "name": "Mush",
    "category": "Mush",
    "formatted_address": "3,8(12)",
    "phone_number": "",
    "source_url": "https://www.google.com/maps/place/Mush/data=!4m7!3m6!1s0x5c51768bd28be1b5:0x7f14f0a02e4c6516!8m2!3d55.6405004!4d109.3393654!16s%2Fg%2F11c607rq1q!19sChIJteGL0ot2UVwRFmVMLqDwFH8?authuser=0&hl=tr&rclk=1",
    "website_url": "",
    "rating_text": "3,8",
    "stars": null,
    "number_of_reviews": null,
    "price_level": "",
    "open_hours": "",
    "extraction_timestamp": "2025-06-08T02:46:40.974Z",
    "source_name": "google",
    "source_query": "Irrigation Equipment",
    "source_country": "RU",
    "country": "Russia",
    "state": "Republic of Buryatia",
    "city": "Severobaykal’sk"
  },
  {
    "source_id": "ChIJrfvHww53UVwRmPl8zlJet6w",
    "name": "Grechka-Martini",
    "category": "Grechka-Martini",
    "formatted_address": "5,0(1)",
    "phone_number": "",
    "source_url": "https://www.google.com/maps/place/Grechka-Martini/data=!4m7!3m6!1s0x5c51770ec3c7fbad:0xacb75e52ce7cf998!8m2!3d55.6305387!4d109.3331685!16s%2Fg%2F11ptr6tnt8!19sChIJrfvHww53UVwRmPl8zlJet6w?authuser=0&hl=tr&rclk=1",
    "website_url": "",
    "rating_text": "5,0",
    "stars": null,
    "number_of_reviews": null,
    "price_level": "",
    "open_hours": "",
    "extraction_timestamp": "2025-06-08T02:46:40.974Z",
    "source_name": "google",
    "source_query": "Irrigation Equipment",
    "source_country": "RU",
    "country": "Russia",
    "state": "Republic of Buryatia",
    "city": "Severobaykal’sk"
  },
  {
    "source_id": "ChIJb6a-rvV2UVwRNOCPbJodz40",
    "name": "Sytyy Papa",
    "category": "Sytyy Papa",
    "formatted_address": "4,5(206)",
    "phone_number": "+79834501085",
    "source_url": "https://www.google.com/maps/place/Sytyy+Papa/data=!4m7!3m6!1s0x5c5176f5aebea66f:0x8dcf1d9a6c8fe034!8m2!3d55.6330344!4d109.3335503!16s%2Fg%2F11bbxn5g7d!19sChIJb6a-rvV2UVwRNOCPbJodz40?authuser=0&hl=tr&rclk=1",
    "website_url": "",
    "rating_text": "4,5",
    "stars": null,
    "number_of_reviews": null,
    "price_level": "",
    "open_hours": "",
    "extraction_timestamp": "2025-06-08T02:46:40.974Z",
    "source_name": "google",
    "source_query": "Irrigation Equipment",
    "source_country": "RU",
    "country": "Russia",
    "state": "Republic of Buryatia",
    "city": "Severobaykal’sk"
  },
  {
    "source_id": "ChIJlQxLty53UVwRofzh-oMWDl8",
    "name": "Ooo \"Kislorod\"",
    "category": "Ooo \"Kislorod\"",
    "formatted_address": "",
    "phone_number": "+79148326274",
    "source_url": "https://www.google.com/maps/place/Ooo+%22Kislorod%22/data=!4m7!3m6!1s0x5c51772eb74b0c95:0x5f0e1683fae1fca1!8m2!3d55.621428!4d109.3173878!16s%2Fg%2F11qnrjtn9b!19sChIJlQxLty53UVwRofzh-oMWDl8?authuser=0&hl=tr&rclk=1",
    "website_url": "",
    "rating_text": "",
    "stars": null,
    "number_of_reviews": null,
    "price_level": "",
    "open_hours": "",
    "extraction_timestamp": "2025-06-08T02:46:40.974Z",
    "source_name": "google",
    "source_query": "Irrigation Equipment",
    "source_country": "RU",
    "country": "Russia",
    "state": "Republic of Buryatia",
    "city": "Severobaykal’sk"
  },
  {
    "source_id": "ChIJQ90UHmJ2UVwR741hSTQuMj0",
    "name": "Poles'ye",
    "category": "Poles'ye",
    "formatted_address": "3,9(75)",
    "phone_number": "",
    "source_url": "https://www.google.com/maps/place/Poles%27ye/data=!4m7!3m6!1s0x5c5176621e14dd43:0x3d322e3449618def!8m2!3d55.6403661!4d109.3446726!16s%2Fg%2F1ydkdpqf5!19sChIJQ90UHmJ2UVwR741hSTQuMj0?authuser=0&hl=tr&rclk=1",
    "website_url": "",
    "rating_text": "3,9",
    "stars": null,
    "number_of_reviews": null,
    "price_level": "",
    "open_hours": "",
    "extraction_timestamp": "2025-06-08T02:46:40.974Z",
    "source_name": "google",
    "source_query": "Irrigation Equipment",
    "source_country": "RU",
    "country": "Russia",
    "state": "Republic of Buryatia",
    "city": "Severobaykal’sk"
  },
  {
    "source_id": "ChIJp_plf192UVwR3VNM69FU-m0",
    "name": "7 Dney",
    "category": "7 Dney",
    "formatted_address": "3,7(14)",
    "phone_number": "",
    "source_url": "https://www.google.com/maps/place/7+Dney/data=!4m7!3m6!1s0x5c51765f7f65faa7:0x6dfa54d1eb4c53dd!8m2!3d55.6327347!4d109.3378325!16s%2Fg%2F1yfjgmljv!19sChIJp_plf192UVwR3VNM69FU-m0?authuser=0&hl=tr&rclk=1",
    "website_url": "",
    "rating_text": "3,7",
    "stars": null,
    "number_of_reviews": null,
    "price_level": "",
    "open_hours": "",
    "extraction_timestamp": "2025-06-08T02:46:40.975Z",
    "source_name": "google",
    "source_query": "Irrigation Equipment",
    "source_country": "RU",
    "country": "Russia",
    "state": "Republic of Buryatia",
    "city": "Severobaykal’sk"
  },
  {
    "source_id": "ChIJpZGcvY12UVwRflE3wx5M33M",
    "name": "Margarita",
    "category": "Margarita",
    "formatted_address": "3,7(38)",
    "phone_number": "",
    "source_url": "https://www.google.com/maps/place/Margarita/data=!4m7!3m6!1s0x5c51768dbd9c91a5:0x73df4c1ec337517e!8m2!3d55.6411583!4d109.3263859!16s%2Fg%2F11bz0yrd6y!19sChIJpZGcvY12UVwRflE3wx5M33M?authuser=0&hl=tr&rclk=1",
    "website_url": "",
    "rating_text": "3,7",
    "stars": null,
    "number_of_reviews": null,
    "price_level": "",
    "open_hours": "",
    "extraction_timestamp": "2025-06-08T02:46:40.975Z",
    "source_name": "google",
    "source_query": "Irrigation Equipment",
    "source_country": "RU",
    "country": "Russia",
    "state": "Republic of Buryatia",
    "city": "Severobaykal’sk"
  },
  {
    "source_id": "ChIJ8aWplYp2UVwRySUNW7IwEJs",
    "name": "DNS",
    "category": "DNS",
    "formatted_address": "4,4(103)",
    "phone_number": "+78007707999",
    "source_url": "https://www.google.com/maps/place/DNS/data=!4m7!3m6!1s0x5c51768a95a9a5f1:0x9b1030b25b0d25c9!8m2!3d55.636681!4d109.336613!16s%2Fg%2F11bbyhltv4!19sChIJ8aWplYp2UVwRySUNW7IwEJs?authuser=0&hl=tr&rclk=1",
    "website_url": "",
    "rating_text": "4,4",
    "stars": null,
    "number_of_reviews": null,
    "price_level": "",
    "open_hours": "",
    "extraction_timestamp": "2025-06-08T02:46:40.975Z",
    "source_name": "google",
    "source_query": "Irrigation Equipment",
    "source_country": "RU",
    "country": "Russia",
    "state": "Republic of Buryatia",
    "city": "Severobaykal’sk"
  },
  {
    "source_id": "ChIJ407Ed5Z3UVwRKrPEFopgMGE",
    "name": "Plyus",
    "category": "Plyus",
    "formatted_address": "3,5(11)",
    "phone_number": "",
    "source_url": "https://www.google.com/maps/place/Plyus/data=!4m7!3m6!1s0x5c51779677c44ee3:0x6130608a16c4b32a!8m2!3d55.6323537!4d109.3362179!16s%2Fg%2F11gwn511gg!19sChIJ407Ed5Z3UVwRKrPEFopgMGE?authuser=0&hl=tr&rclk=1",
    "website_url": "",
    "rating_text": "3,5",
    "stars": null,
    "number_of_reviews": null,
    "price_level": "",
    "open_hours": "",
    "extraction_timestamp": "2025-06-08T02:46:40.975Z",
    "source_name": "google",
    "source_query": "Irrigation Equipment",
    "source_country": "RU",
    "country": "Russia",
    "state": "Republic of Buryatia",
    "city": "Severobaykal’sk"
  },
  {
    "source_id": "ChIJfQzEvIp2UVwRjmWxN3XSPws",
    "name": "Meridian",
    "category": "Meridian",
    "formatted_address": "Nalbur · Ulitsa Poligrafistov, 13Kapalı ⋅ Açılış zamanı: Pzt 10:00 · +7 301 302-34-52",
    "phone_number": "+73013023452",
    "source_url": "https://www.google.com/maps/place/Meridian/data=!4m7!3m6!1s0x5c51768abcc40c7d:0xb3fd27537b1658e!8m2!3d55.6366491!4d109.3389993!16s%2Fg%2F11bbycgyw0!19sChIJfQzEvIp2UVwRjmWxN3XSPws?authuser=0&hl=tr&rclk=1",
    "website_url": "",
    "rating_text": "",
    "stars": null,
    "number_of_reviews": null,
    "price_level": "",
    "open_hours": "",
    "extraction_timestamp": "2025-06-08T02:46:40.975Z",
    "source_name": "google",
    "source_query": "Irrigation Equipment",
    "source_country": "RU",
    "country": "Russia",
    "state": "Republic of Buryatia",
    "city": "Severobaykal’sk"
  },
  {
    "source_id": "ChIJFawb53x2UVwR0qrFFl-rZ0s",
    "name": "Dulan, Stroitel'no-Proizvodstvennaya Kompaniya",
    "category": "Dulan, Stroitel'no-Proizvodstvennaya Kompaniya",
    "formatted_address": "Dulan, Stroitel'no-Proizvodstvennaya Kompaniya",
    "phone_number": "+73012641718",
    "source_url": "https://www.google.com/maps/place/Dulan,+Stroitel%27no-Proizvodstvennaya+Kompaniya/data=!4m7!3m6!1s0x5c51767ce71bac15:0x4b67ab5f16c5aad2!8m2!3d55.6463182!4d109.3528898!16s%2Fg%2F12qgqg3my!19sChIJFawb53x2UVwR0qrFFl-rZ0s?authuser=0&hl=tr&rclk=1",
    "website_url": "",
    "rating_text": "3,0",
    "stars": null,
    "number_of_reviews": null,
    "price_level": "",
    "open_hours": "",
    "extraction_timestamp": "2025-06-08T02:46:40.976Z",
    "source_name": "google",
    "source_query": "Irrigation Equipment",
    "source_country": "RU",
    "country": "Russia",
    "state": "Republic of Buryatia",
    "city": "Severobaykal’sk"
  },
  {
    "source_id": "ChIJm26EZYp2UVwRXXQNFsaKeys",
    "name": "Vist",
    "category": "Vist",
    "formatted_address": "3,5(157)",
    "phone_number": "",
    "source_url": "https://www.google.com/maps/place/Vist/data=!4m7!3m6!1s0x5c51768a65846e9b:0x2b7b8ac6160d745d!8m2!3d55.6347068!4d109.3369507!16s%2Fg%2F1yfjr2wt4!19sChIJm26EZYp2UVwRXXQNFsaKeys?authuser=0&hl=tr&rclk=1",
    "website_url": "",
    "rating_text": "3,5",
    "stars": null,
    "number_of_reviews": null,
    "price_level": "",
    "open_hours": "",
    "extraction_timestamp": "2025-06-08T02:46:40.976Z",
    "source_name": "google",
    "source_query": "Irrigation Equipment",
    "source_country": "RU",
    "country": "Russia",
    "state": "Republic of Buryatia",
    "city": "Severobaykal’sk"
  },
  {
    "source_id": "ChIJ56ETafJ2UVwR7AvY9iDMWd8",
    "name": "Severyanochka",
    "category": "Severyanochka",
    "formatted_address": "3,8(44)",
    "phone_number": "",
    "source_url": "https://www.google.com/maps/place/Severyanochka/data=!4m7!3m6!1s0x5c5176f26913a1e7:0xdf59cc20f6d80bec!8m2!3d55.6344084!4d109.3217915!16s%2Fg%2F11b6n96y89!19sChIJ56ETafJ2UVwR7AvY9iDMWd8?authuser=0&hl=tr&rclk=1",
    "website_url": "",
    "rating_text": "3,8",
    "stars": null,
    "number_of_reviews": null,
    "price_level": "",
    "open_hours": "",
    "extraction_timestamp": "2025-06-08T02:46:40.976Z",
    "source_name": "google",
    "source_query": "Irrigation Equipment",
    "source_country": "RU",
    "country": "Russia",
    "state": "Republic of Buryatia",
    "city": "Severobaykal’sk"
  },
  {
    "source_id": "ChIJk9CsO_V2UVwRvaffuyVEoXU",
    "name": "Geografiya Kofe",
    "category": "Geografiya Kofe",
    "formatted_address": "4,9(200) · ₺₺",
    "phone_number": "+79516339786",
    "source_url": "https://www.google.com/maps/place/Geografiya+Kofe/data=!4m7!3m6!1s0x5c5176f53bacd093:0x75a14425bbdfa7bd!8m2!3d55.6353094!4d109.337605!16s%2Fg%2F11c1tygwzq!19sChIJk9CsO_V2UVwRvaffuyVEoXU?authuser=0&hl=tr&rclk=1",
    "website_url": "",
    "rating_text": "4,9",
    "stars": null,
    "number_of_reviews": null,
    "price_level": "",
    "open_hours": "",
    "extraction_timestamp": "2025-06-08T02:46:40.976Z",
    "source_name": "google",
    "source_query": "Irrigation Equipment",
    "source_country": "RU",
    "country": "Russia",
    "state": "Republic of Buryatia",
    "city": "Severobaykal’sk"
  },
  {
    "source_id": "ChIJDYXG3vB2UVwRQQm6HMj_6eY",
    "name": "Вист Cash And Carry",
    "category": "Вист Cash And Carry",
    "formatted_address": "3,4(37)",
    "phone_number": "",
    "source_url": "https://www.google.com/maps/place/%D0%92%D0%B8%D1%81%D1%82+Cash+And+Carry/data=!4m7!3m6!1s0x5c5176f0dec6850d:0xe6e9ffc81cba0941!8m2!3d55.629111!4d109.3233687!16s%2Fg%2F11g9ndfmg0!19sChIJDYXG3vB2UVwRQQm6HMj_6eY?authuser=0&hl=tr&rclk=1",
    "website_url": "",
    "rating_text": "3,4",
    "stars": null,
    "number_of_reviews": null,
    "price_level": "",
    "open_hours": "",
    "extraction_timestamp": "2025-06-08T02:46:40.977Z",
    "source_name": "google",
    "source_query": "Irrigation Equipment",
    "source_country": "RU",
    "country": "Russia",
    "state": "Republic of Buryatia",
    "city": "Severobaykal’sk"
  },
  {
    "source_id": "ChIJ-f___-92UVwR8e7QEsq1bTI",
    "name": "Magazin \"Ms-Market\"",
    "category": "Magazin \"Ms-Market\"",
    "formatted_address": "3,4(17)",
    "phone_number": "+73013027437",
    "source_url": "https://www.google.com/maps/place/Magazin+%22Ms-Market%22/data=!4m7!3m6!1s0x5c5176effffffff9:0x326db5ca12d0eef1!8m2!3d55.6338406!4d109.3169177!16s%2Fg%2F11f3w6z91d!19sChIJ-f___-92UVwR8e7QEsq1bTI?authuser=0&hl=tr&rclk=1",
    "website_url": "",
    "rating_text": "3,4",
    "stars": null,
    "number_of_reviews": null,
    "price_level": "",
    "open_hours": "",
    "extraction_timestamp": "2025-06-08T02:46:40.977Z",
    "source_name": "google",
    "source_query": "Irrigation Equipment",
    "source_country": "RU",
    "country": "Russia",
    "state": "Republic of Buryatia",
    "city": "Severobaykal’sk"
  },
  {
    "source_id": "ChIJUwPjQ_F2UVwRCmonN0zow5Q",
    "name": "Gorodskoy Market",
    "category": "Gorodskoy Market",
    "formatted_address": "4,4(38)",
    "phone_number": "",
    "source_url": "https://www.google.com/maps/place/Gorodskoy+Market/data=!4m7!3m6!1s0x5c5176f143e30353:0x94c3e84c37276a0a!8m2!3d55.6313512!4d109.325808!16s%2Fg%2F11c2p_wgy7!19sChIJUwPjQ_F2UVwRCmonN0zow5Q?authuser=0&hl=tr&rclk=1",
    "website_url": "",
    "rating_text": "4,4",
    "stars": null,
    "number_of_reviews": null,
    "price_level": "",
    "open_hours": "",
    "extraction_timestamp": "2025-06-08T02:46:40.977Z",
    "source_name": "google",
    "source_query": "Irrigation Equipment",
    "source_country": "RU",
    "country": "Russia",
    "state": "Republic of Buryatia",
    "city": "Severobaykal’sk"
  },
  {
    "source_id": "ChIJu--F4V92UVwRP7qosimXTOc",
    "name": "Yabloko",
    "category": "Yabloko",
    "formatted_address": "3,8(12)",
    "phone_number": "",
    "source_url": "https://www.google.com/maps/place/Yabloko/data=!4m7!3m6!1s0x5c51765fe185efbb:0xe74c9729b2a8ba3f!8m2!3d55.6351616!4d109.3404128!16s%2Fg%2F11gbgbc5hr!19sChIJu--F4V92UVwRP7qosimXTOc?authuser=0&hl=tr&rclk=1",
    "website_url": "",
    "rating_text": "3,8",
    "stars": null,
    "number_of_reviews": null,
    "price_level": "",
    "open_hours": "",
    "extraction_timestamp": "2025-06-08T02:46:40.977Z",
    "source_name": "google",
    "source_query": "Irrigation Equipment",
    "source_country": "RU",
    "country": "Russia",
    "state": "Republic of Buryatia",
    "city": "Severobaykal’sk"
  },
  {
    "source_id": "ChIJg-yJIop2UVwRIdlcTVJZpn0",
    "name": "Ya Doma",
    "category": "Ya Doma",
    "formatted_address": "4,1(22)",
    "phone_number": "+79247729547",
    "source_url": "https://www.google.com/maps/place/Ya+Doma/data=!4m7!3m6!1s0x5c51768a2289ec83:0x7da659524d5cd921!8m2!3d55.6404131!4d109.340649!16s%2Fg%2F11g6qsw3t2!19sChIJg-yJIop2UVwRIdlcTVJZpn0?authuser=0&hl=tr&rclk=1",
    "website_url": "",
    "rating_text": "4,1",
    "stars": null,
    "number_of_reviews": null,
    "price_level": "",
    "open_hours": "",
    "extraction_timestamp": "2025-06-08T02:46:40.978Z",
    "source_name": "google",
    "source_query": "Irrigation Equipment",
    "source_country": "RU",
    "country": "Russia",
    "state": "Republic of Buryatia",
    "city": "Severobaykal’sk"
  },
  {
    "source_id": "ChIJK6Of2op2UVwRvF4Ik5F-_vM",
    "name": "Vist-Tsentr",
    "category": "Vist-Tsentr",
    "formatted_address": "3,4(35)",
    "phone_number": "",
    "source_url": "https://www.google.com/maps/place/Vist-Tsentr/data=!4m7!3m6!1s0x5c51768ada9fa32b:0xf3fe7e9193085ebc!8m2!3d55.6365904!4d109.3365451!16s%2Fg%2F11hbsmxksn!19sChIJK6Of2op2UVwRvF4Ik5F-_vM?authuser=0&hl=tr&rclk=1",
    "website_url": "",
    "rating_text": "3,4",
    "stars": null,
    "number_of_reviews": null,
    "price_level": "",
    "open_hours": "",
    "extraction_timestamp": "2025-06-08T02:46:40.978Z",
    "source_name": "google",
    "source_query": "Irrigation Equipment",
    "source_country": "RU",
    "country": "Russia",
    "state": "Republic of Buryatia",
    "city": "Severobaykal’sk"
  },
  {
    "source_id": "ChIJxymLsfV2UVwRU3sWCpL6XVk",
    "name": "Ekonom Market",
    "category": "Ekonom Market",
    "formatted_address": "4,3(4)",
    "phone_number": "+79833384417",
    "source_url": "https://www.google.com/maps/place/Ekonom+Market/data=!4m7!3m6!1s0x5c5176f5b18b29c7:0x595dfa920a167b53!8m2!3d55.6333864!4d109.3330675!16s%2Fg%2F11c6046hj4!19sChIJxymLsfV2UVwRU3sWCpL6XVk?authuser=0&hl=tr&rclk=1",
    "website_url": "",
    "rating_text": "4,3",
    "stars": null,
    "number_of_reviews": null,
    "price_level": "",
    "open_hours": "",
    "extraction_timestamp": "2025-06-08T02:46:40.978Z",
    "source_name": "google",
    "source_query": "Irrigation Equipment",
    "source_country": "RU",
    "country": "Russia",
    "state": "Republic of Buryatia",
    "city": "Severobaykal’sk"
  },
  {
    "source_id": "ChIJLy2SZYp2UVwRJGXZCbamhbk",
    "name": "Vist Napitki",
    "category": "Vist Napitki",
    "formatted_address": "3,8(4)",
    "phone_number": "",
    "source_url": "https://www.google.com/maps/place/Vist+Napitki/data=!4m7!3m6!1s0x5c51768a65922d2f:0xb985a6b609d96524!8m2!3d55.6388118!4d109.340269!16s%2Fg%2F11bbygpzcw!19sChIJLy2SZYp2UVwRJGXZCbamhbk?authuser=0&hl=tr&rclk=1",
    "website_url": "",
    "rating_text": "3,8",
    "stars": null,
    "number_of_reviews": null,
    "price_level": "",
    "open_hours": "",
    "extraction_timestamp": "2025-06-08T02:46:40.978Z",
    "source_name": "google",
    "source_query": "Irrigation Equipment",
    "source_country": "RU",
    "country": "Russia",
    "state": "Republic of Buryatia",
    "city": "Severobaykal’sk"
  }
]
