[
  {
    "source_id": "ChIJu7c0xzDbr10RB8d4zSlx0o4",
    "name": "Mashtorg",
    "category": "Mashtorg",
    "formatted_address": "4,6(25)",
    "phone_number": "+73012374374",
    "source_url": "https://www.google.com/maps/place/Mashtorg/data=!4m7!3m6!1s0x5dafdb30c734b7bb:0x8ed27129cd78c707!8m2!3d51.840256!4d107.6535713!16s%2Fg%2F11r9tv4b2!19sChIJu7c0xzDbr10RB8d4zSlx0o4?authuser=0&hl=tr&rclk=1",
    "website_url": "",
    "rating_text": "4,6",
    "stars": null,
    "number_of_reviews": null,
    "price_level": "",
    "open_hours": "",
    "extraction_timestamp": "2025-06-08T02:47:01.609Z",
    "source_name": "google",
    "source_query": "Irrigation Equipment",
    "source_country": "RU",
    "country": "Russia",
    "state": "Republic of Buryatia",
    "city": "Ulan-Ude"
  },
  {
    "source_id": "ChIJwwUQaanbr10RvnJv480DS9c",
    "name": "Teplosila",
    "category": "Teplosila",
    "formatted_address": "4,6(32)",
    "phone_number": "+73012443722",
    "source_url": "https://www.google.com/maps/place/Teplosila/data=!4m7!3m6!1s0x5dafdba9691005c3:0xd74b03cde36f72be!8m2!3d51.8158155!4d107.6786254!16s%2Fg%2F12qg0k73q!19sChIJwwUQaanbr10RvnJv480DS9c?authuser=0&hl=tr&rclk=1",
    "website_url": "",
    "rating_text": "4,6",
    "stars": null,
    "number_of_reviews": null,
    "price_level": "",
    "open_hours": "",
    "extraction_timestamp": "2025-06-08T02:47:01.610Z",
    "source_name": "google",
    "source_query": "Irrigation Equipment",
    "source_country": "RU",
    "country": "Russia",
    "state": "Republic of Buryatia",
    "city": "Ulan-Ude"
  },
  {
    "source_id": "ChIJF01dk0XEr10RU3EhL7h4X8Q",
    "name": "Vegos-M",
    "category": "Vegos-M",
    "formatted_address": "4,2(666)",
    "phone_number": "+73012312493",
    "source_url": "https://www.google.com/maps/place/Vegos-M/data=!4m7!3m6!1s0x5dafc445935d4d17:0xc45f78b82f217153!8m2!3d51.850713!4d107.50979!16s%2Fg%2F11b86v52sr!19sChIJF01dk0XEr10RU3EhL7h4X8Q?authuser=0&hl=tr&rclk=1",
    "website_url": "",
    "rating_text": "4,2",
    "stars": null,
    "number_of_reviews": null,
    "price_level": "",
    "open_hours": "",
    "extraction_timestamp": "2025-06-08T02:47:01.611Z",
    "source_name": "google",
    "source_query": "Irrigation Equipment",
    "source_country": "RU",
    "country": "Russia",
    "state": "Republic of Buryatia",
    "city": "Ulan-Ude"
  },
  {
    "source_id": "ChIJJVsQU_3Dr10RmkQ2djy_0_4",
    "name": "Teplosila",
    "category": "Teplosila",
    "formatted_address": "5,0(1)",
    "phone_number": "+79025657378",
    "source_url": "https://www.google.com/maps/place/Teplosila/data=!4m7!3m6!1s0x5dafc3fd53105b25:0xfed3bf3c7636449a!8m2!3d51.8066578!4d107.4972767!16s%2Fg%2F11qqyhtq3t!19sChIJJVsQU_3Dr10RmkQ2djy_0_4?authuser=0&hl=tr&rclk=1",
    "website_url": "",
    "rating_text": "5,0",
    "stars": null,
    "number_of_reviews": null,
    "price_level": "",
    "open_hours": "",
    "extraction_timestamp": "2025-06-08T02:47:01.613Z",
    "source_name": "google",
    "source_query": "Irrigation Equipment",
    "source_country": "RU",
    "country": "Russia",
    "state": "Republic of Buryatia",
    "city": "Ulan-Ude"
  },
  {
    "source_id": "ChIJu_GkXJPcr10RqnA1_xNMxh4",
    "name": "Mashtorg",
    "category": "Mashtorg",
    "formatted_address": "5,0(3)",
    "phone_number": "+73012373600",
    "source_url": "https://www.google.com/maps/place/Mashtorg/data=!4m7!3m6!1s0x5dafdc935ca4f1bb:0x1ec64c13ff3570aa!8m2!3d51.7850138!4d107.5958863!16s%2Fg%2F11gggbbb4_!19sChIJu_GkXJPcr10RqnA1_xNMxh4?authuser=0&hl=tr&rclk=1",
    "website_url": "",
    "rating_text": "5,0",
    "stars": null,
    "number_of_reviews": null,
    "price_level": "",
    "open_hours": "",
    "extraction_timestamp": "2025-06-08T02:47:01.614Z",
    "source_name": "google",
    "source_query": "Irrigation Equipment",
    "source_country": "RU",
    "country": "Russia",
    "state": "Republic of Buryatia",
    "city": "Ulan-Ude"
  },
  {
    "source_id": "ChIJRWvA9f3ar10Rb5EkAFPkBvs",
    "name": "Gidravlika",
    "category": "Gidravlika",
    "formatted_address": "3,5(6)",
    "phone_number": "+73012673168",
    "source_url": "https://www.google.com/maps/place/Gidravlika/data=!4m7!3m6!1s0x5dafdafdf5c06b45:0xfb06e4530024916f!8m2!3d51.8415524!4d107.6466635!16s%2Fg%2F11b87gk8cn!19sChIJRWvA9f3ar10Rb5EkAFPkBvs?authuser=0&hl=tr&rclk=1",
    "website_url": "",
    "rating_text": "3,5",
    "stars": null,
    "number_of_reviews": null,
    "price_level": "",
    "open_hours": "",
    "extraction_timestamp": "2025-06-08T02:47:01.615Z",
    "source_name": "google",
    "source_query": "Irrigation Equipment",
    "source_country": "RU",
    "country": "Russia",
    "state": "Republic of Buryatia",
    "city": "Ulan-Ude"
  },
  {
    "source_id": "ChIJr6ue_ajbr10ROVczXHroB2w",
    "name": "Aqua City, sanitary ware store chain",
    "category": "Aqua City, sanitary ware store chain",
    "formatted_address": "Aqua City, sanitary ware store chain",
    "phone_number": "+73012200151",
    "source_url": "https://www.google.com/maps/place/Aqua+City,+sanitary+ware+store+chain/data=!4m7!3m6!1s0x5dafdba8fd9eabaf:0x6c07e87a5c335739!8m2!3d51.8319969!4d107.6549453!16s%2Fg%2F11b8d4rjps!19sChIJr6ue_ajbr10ROVczXHroB2w?authuser=0&hl=tr&rclk=1",
    "website_url": "",
    "rating_text": "4,3",
    "stars": null,
    "number_of_reviews": null,
    "price_level": "",
    "open_hours": "",
    "extraction_timestamp": "2025-06-08T02:47:01.616Z",
    "source_name": "google",
    "source_query": "Irrigation Equipment",
    "source_country": "RU",
    "country": "Russia",
    "state": "Republic of Buryatia",
    "city": "Ulan-Ude"
  },
  {
    "source_id": "ChIJu7c0xzDbr10RutxB4GzcM0A",
    "name": "Akvatoriya Tepla, Spetsializirovannyy Magazin",
    "category": "Akvatoriya Tepla, Spetsializirovannyy Magazin",
    "formatted_address": "Akvatoriya Tepla, Spetsializirovannyy Magazin",
    "phone_number": "+73012333056",
    "source_url": "https://www.google.com/maps/place/Akvatoriya+Tepla,+Spetsializirovannyy+Magazin/data=!4m7!3m6!1s0x5dafdb30c734b7bb:0x4033dc6ce041dcba!8m2!3d51.84024!4d107.5766901!16s%2Fg%2F11r926k0c!19sChIJu7c0xzDbr10RutxB4GzcM0A?authuser=0&hl=tr&rclk=1",
    "website_url": "",
    "rating_text": "1,0",
    "stars": null,
    "number_of_reviews": null,
    "price_level": "",
    "open_hours": "",
    "extraction_timestamp": "2025-06-08T02:47:01.616Z",
    "source_name": "google",
    "source_query": "Irrigation Equipment",
    "source_country": "RU",
    "country": "Russia",
    "state": "Republic of Buryatia",
    "city": "Ulan-Ude"
  },
  {
    "source_id": "ChIJG9WwaKjFr10R5mx6LVtfvLU",
    "name": "\"Abvas\" Stroitel'naya Montazhnaya Kompaniya",
    "category": "\"Abvas\" Stroitel'naya Montazhnaya Kompaniya",
    "formatted_address": "5,0(6)",
    "phone_number": "+73012515120",
    "source_url": "https://www.google.com/maps/place/%22Abvas%22+Stroitel%27naya+Montazhnaya+Kompaniya/data=!4m7!3m6!1s0x5dafc5a868b0d51b:0xb5bc5f5b2d7a6ce6!8m2!3d51.8230891!4d107.6350187!16s%2Fg%2F11hdjcl2mh!19sChIJG9WwaKjFr10R5mx6LVtfvLU?authuser=0&hl=tr&rclk=1",
    "website_url": "",
    "rating_text": "5,0",
    "stars": null,
    "number_of_reviews": null,
    "price_level": "",
    "open_hours": "",
    "extraction_timestamp": "2025-06-08T02:47:01.617Z",
    "source_name": "google",
    "source_query": "Irrigation Equipment",
    "source_country": "RU",
    "country": "Russia",
    "state": "Republic of Buryatia",
    "city": "Ulan-Ude"
  },
  {
    "source_id": "ChIJu7c0xzDbr10RtTnLSnf_RYc",
    "name": "Sadem",
    "category": "Sadem",
    "formatted_address": "4,4(93)",
    "phone_number": "+73012212098",
    "source_url": "https://www.google.com/maps/place/Sadem/data=!4m7!3m6!1s0x5dafdb30c734b7bb:0x8745ff774acb39b5!8m2!3d51.8266859!4d107.58046!16s%2Fg%2F1hd_cb34m!19sChIJu7c0xzDbr10RtTnLSnf_RYc?authuser=0&hl=tr&rclk=1",
    "website_url": "",
    "rating_text": "4,4",
    "stars": null,
    "number_of_reviews": null,
    "price_level": "",
    "open_hours": "",
    "extraction_timestamp": "2025-06-08T02:47:01.618Z",
    "source_name": "google",
    "source_query": "Irrigation Equipment",
    "source_country": "RU",
    "country": "Russia",
    "state": "Republic of Buryatia",
    "city": "Ulan-Ude"
  },
  {
    "source_id": "ChIJLVo4f8nEr10RMOHS8DMaQHM",
    "name": "Sportmaster",
    "category": "Sportmaster",
    "formatted_address": "4,2(1.046)",
    "phone_number": "+78007777771",
    "source_url": "https://www.google.com/maps/place/Sportmaster/data=!4m7!3m6!1s0x5dafc4c97f385a2d:0x73401a33f0d2e130!8m2!3d51.8332713!4d107.5773707!16s%2Fg%2F11c1543jvt!19sChIJLVo4f8nEr10RMOHS8DMaQHM?authuser=0&hl=tr&rclk=1",
    "website_url": "",
    "rating_text": "4,2",
    "stars": null,
    "number_of_reviews": null,
    "price_level": "",
    "open_hours": "",
    "extraction_timestamp": "2025-06-08T02:47:01.620Z",
    "source_name": "google",
    "source_query": "Irrigation Equipment",
    "source_country": "RU",
    "country": "Russia",
    "state": "Republic of Buryatia",
    "city": "Ulan-Ude"
  },
  {
    "source_id": "ChIJudSJanTbr10RCSIOQVSkAWE",
    "name": "Устранение засоров, прочистка канализации. Отогрев водопровода, канализации Улан- Удэ.",
    "category": "Устранение засоров, прочистка канализации. Отогрев водопровода, канализации Улан- Удэ.",
    "formatted_address": "Устранение засоров, прочистка канализации. Отогрев водопровода, канализации Улан- Удэ.",
    "phone_number": "+79021681537",
    "source_url": "https://www.google.com/maps/place/%D0%A3%D1%81%D1%82%D1%80%D0%B0%D0%BD%D0%B5%D0%BD%D0%B8%D0%B5+%D0%B7%D0%B0%D1%81%D0%BE%D1%80%D0%BE%D0%B2,+%D0%BF%D1%80%D0%BE%D1%87%D0%B8%D1%81%D1%82%D0%BA%D0%B0+%D0%BA%D0%B0%D0%BD%D0%B0%D0%BB%D0%B8%D0%B7%D0%B0%D1%86%D0%B8%D0%B8.+%D0%9E%D1%82%D0%BE%D0%B3%D1%80%D0%B5%D0%B2+%D0%B2%D0%BE%D0%B4%D0%BE%D0%BF%D1%80%D0%BE%D0%B2%D0%BE%D0%B4%D0%B0,+%D0%BA%D0%B0%D0%BD%D0%B0%D0%BB%D0%B8%D0%B7%D0%B0%D1%86%D0%B8%D0%B8+%D0%A3%D0%BB%D0%B0%D0%BD-+%D0%A3%D0%B4%D1%8D./data=!4m7!3m6!1s0x5dafdb746a89d4b9:0x6101a454410e2209!8m2!3d51.8299075!4d107.616164!16s%2Fg%2F11hyv9spq9!19sChIJudSJanTbr10RCSIOQVSkAWE?authuser=0&hl=tr&rclk=1",
    "website_url": "",
    "rating_text": "5,0",
    "stars": null,
    "number_of_reviews": null,
    "price_level": "",
    "open_hours": "",
    "extraction_timestamp": "2025-06-08T02:47:01.621Z",
    "source_name": "google",
    "source_query": "Irrigation Equipment",
    "source_country": "RU",
    "country": "Russia",
    "state": "Republic of Buryatia",
    "city": "Ulan-Ude"
  },
  {
    "source_id": "ChIJacjaxMzEr10RzcfqOtG6j8E",
    "name": "Okhotaktiv",
    "category": "Okhotaktiv",
    "formatted_address": "4,6(251)",
    "phone_number": "+74951214114",
    "source_url": "https://www.google.com/maps/place/Okhotaktiv/data=!4m7!3m6!1s0x5dafc4ccc4dac869:0xc18fbad13aeac7cd!8m2!3d51.8390268!4d107.5807861!16s%2Fg%2F11cr_s4fbc!19sChIJacjaxMzEr10RzcfqOtG6j8E?authuser=0&hl=tr&rclk=1",
    "website_url": "",
    "rating_text": "4,6",
    "stars": null,
    "number_of_reviews": null,
    "price_level": "",
    "open_hours": "",
    "extraction_timestamp": "2025-06-08T02:47:01.622Z",
    "source_name": "google",
    "source_query": "Irrigation Equipment",
    "source_country": "RU",
    "country": "Russia",
    "state": "Republic of Buryatia",
    "city": "Ulan-Ude"
  },
  {
    "source_id": "ChIJvUvYRQDbr10RMdPYsg_F83A",
    "name": "Akva-Plyus",
    "category": "Akva-Plyus",
    "formatted_address": "5,0(2)",
    "phone_number": "+73012502323",
    "source_url": "https://www.google.com/maps/place/Akva-Plyus/data=!4m7!3m6!1s0x5dafdb0045d84bbd:0x70f3c50fb2d8d331!8m2!3d51.8327005!4d107.6538356!16s%2Fg%2F11c1s2sj66!19sChIJvUvYRQDbr10RMdPYsg_F83A?authuser=0&hl=tr&rclk=1",
    "website_url": "",
    "rating_text": "5,0",
    "stars": null,
    "number_of_reviews": null,
    "price_level": "",
    "open_hours": "",
    "extraction_timestamp": "2025-06-08T02:47:01.623Z",
    "source_name": "google",
    "source_query": "Irrigation Equipment",
    "source_country": "RU",
    "country": "Russia",
    "state": "Republic of Buryatia",
    "city": "Ulan-Ude"
  },
  {
    "source_id": "ChIJu7c0xzDbr10R0v8gx8SfrNk",
    "name": "Santekhtsentr, Magazin Santekhniki",
    "category": "Santekhtsentr, Magazin Santekhniki",
    "formatted_address": "Santekhtsentr, Magazin Santekhniki",
    "phone_number": "+73012350590",
    "source_url": "https://www.google.com/maps/place/Santekhtsentr,+Magazin+Santekhniki/data=!4m7!3m6!1s0x5dafdb30c734b7bb:0xd9ac9fc4c720ffd2!8m2!3d51.825189!4d107.603256!16s%2Fg%2F11bvvzp3ts!19sChIJu7c0xzDbr10R0v8gx8SfrNk?authuser=0&hl=tr&rclk=1",
    "website_url": "",
    "rating_text": "4,7",
    "stars": null,
    "number_of_reviews": null,
    "price_level": "",
    "open_hours": "",
    "extraction_timestamp": "2025-06-08T02:47:01.623Z",
    "source_name": "google",
    "source_query": "Irrigation Equipment",
    "source_country": "RU",
    "country": "Russia",
    "state": "Republic of Buryatia",
    "city": "Ulan-Ude"
  },
  {
    "source_id": "ChIJ58e9jx7br10RGD6H6SGKOpg",
    "name": "Tsentr Professional'noy Santekhniki",
    "category": "Tsentr Professional'noy Santekhniki",
    "formatted_address": "Su Tesisatı Malzemeleri Satıcısı · Ulitsa Botanicheskaya, 7дAçık ⋅ Kapanış saati: 17:00 · +7 301 244-67-17",
    "phone_number": "+73012446717",
    "source_url": "https://www.google.com/maps/place/Tsentr+Professional%27noy+Santekhniki/data=!4m7!3m6!1s0x5dafdb1e8fbdc7e7:0x983a8a21e9873e18!8m2!3d51.840696!4d107.630289!16s%2Fg%2F12qf98zgy!19sChIJ58e9jx7br10RGD6H6SGKOpg?authuser=0&hl=tr&rclk=1",
    "website_url": "",
    "rating_text": "",
    "stars": null,
    "number_of_reviews": null,
    "price_level": "",
    "open_hours": "",
    "extraction_timestamp": "2025-06-08T02:47:01.625Z",
    "source_name": "google",
    "source_query": "Irrigation Equipment",
    "source_country": "RU",
    "country": "Russia",
    "state": "Republic of Buryatia",
    "city": "Ulan-Ude"
  },
  {
    "source_id": "ChIJH_sO1qjbr10RDpVX2KpBMyc",
    "name": "Santekhnika03, Magazin Santekhniki I Oborudovaniya",
    "category": "Santekhnika03, Magazin Santekhniki I Oborudovaniya",
    "formatted_address": "Santekhnika03, Magazin Santekhniki I Oborudovaniya",
    "phone_number": "+73012611226",
    "source_url": "https://www.google.com/maps/place/Santekhnika03,+Magazin+Santekhniki+I+Oborudovaniya/data=!4m7!3m6!1s0x5dafdba8d60efb1f:0x273341aad857950e!8m2!3d51.8314746!4d107.6571299!16s%2Fg%2F12qgjrdz4!19sChIJH_sO1qjbr10RDpVX2KpBMyc?authuser=0&hl=tr&rclk=1",
    "website_url": "",
    "rating_text": "",
    "stars": null,
    "number_of_reviews": null,
    "price_level": "",
    "open_hours": "",
    "extraction_timestamp": "2025-06-08T02:47:01.625Z",
    "source_name": "google",
    "source_query": "Irrigation Equipment",
    "source_country": "RU",
    "country": "Russia",
    "state": "Republic of Buryatia",
    "city": "Ulan-Ude"
  },
  {
    "source_id": "ChIJ7xZrFKnbr10RIVWzOlrDJWU",
    "name": "Teplosila",
    "category": "Teplosila",
    "formatted_address": "Su Tesisatı Malzemeleri Satıcısı · Prospekt Avtomobilistov, 4б/5Açık ⋅ Kapanış saati: 16:00 · +7 301 244-37-22",
    "phone_number": "+73012443722",
    "source_url": "https://www.google.com/maps/place/Teplosila/data=!4m7!3m6!1s0x5dafdba9146b16ef:0x6525c35a3ab35521!8m2!3d51.832879!4d107.656498!16s%2Fg%2F11hdb1q5h2!19sChIJ7xZrFKnbr10RIVWzOlrDJWU?authuser=0&hl=tr&rclk=1",
    "website_url": "",
    "rating_text": "",
    "stars": null,
    "number_of_reviews": null,
    "price_level": "",
    "open_hours": "",
    "extraction_timestamp": "2025-06-08T02:47:01.626Z",
    "source_name": "google",
    "source_query": "Irrigation Equipment",
    "source_country": "RU",
    "country": "Russia",
    "state": "Republic of Buryatia",
    "city": "Ulan-Ude"
  },
  {
    "source_id": "ChIJu7c0xzDbr10RAHGEPtZ0XnM",
    "name": "Milyy Dom, Magazin Tovarov Dlya Doma",
    "category": "Milyy Dom, Magazin Tovarov Dlya Doma",
    "formatted_address": "Milyy Dom, Magazin Tovarov Dlya Doma",
    "phone_number": "+79146375570",
    "source_url": "https://www.google.com/maps/place/Milyy+Dom,+Magazin+Tovarov+Dlya+Doma/data=!4m7!3m6!1s0x5dafdb30c734b7bb:0x735e74d63e847100!8m2!3d51.8421666!4d107.5921518!16s%2Fg%2F1hd_g_8yv!19sChIJu7c0xzDbr10RAHGEPtZ0XnM?authuser=0&hl=tr&rclk=1",
    "website_url": "",
    "rating_text": "5,0",
    "stars": null,
    "number_of_reviews": null,
    "price_level": "",
    "open_hours": "",
    "extraction_timestamp": "2025-06-08T02:47:01.627Z",
    "source_name": "google",
    "source_query": "Irrigation Equipment",
    "source_country": "RU",
    "country": "Russia",
    "state": "Republic of Buryatia",
    "city": "Ulan-Ude"
  },
  {
    "source_id": "ChIJu7c0xzDbr10RqMIPEbe6J9g",
    "name": "Urozhay",
    "category": "Urozhay",
    "formatted_address": "5,0(1)",
    "phone_number": "+73012218568",
    "source_url": "https://www.google.com/maps/place/Urozhay/data=!4m7!3m6!1s0x5dafdb30c734b7bb:0xd827bab7110fc2a8!8m2!3d51.8271998!4d107.583811!16s%2Fg%2F1pv61bl5c!19sChIJu7c0xzDbr10RqMIPEbe6J9g?authuser=0&hl=tr&rclk=1",
    "website_url": "",
    "rating_text": "5,0",
    "stars": null,
    "number_of_reviews": null,
    "price_level": "",
    "open_hours": "",
    "extraction_timestamp": "2025-06-08T02:47:01.628Z",
    "source_name": "google",
    "source_query": "Irrigation Equipment",
    "source_country": "RU",
    "country": "Russia",
    "state": "Republic of Buryatia",
    "city": "Ulan-Ude"
  },
  {
    "source_id": "ChIJZfDn5v3ar10RqUdhaf7EL6s",
    "name": "Kompaniya Po Prodazhe Zapchastey Dlya Bytovykh Priborov I Elektroinstrumenta",
    "category": "Kompaniya Po Prodazhe Zapchastey Dlya Bytovykh Priborov I Elektroinstrumenta",
    "formatted_address": "5,0(1)",
    "phone_number": "+79021692049",
    "source_url": "https://www.google.com/maps/place/Kompaniya+Po+Prodazhe+Zapchastey+Dlya+Bytovykh+Priborov+I+Elektroinstrumenta/data=!4m7!3m6!1s0x5dafdafde6e7f065:0xab2fc4fe696147a9!8m2!3d51.8423368!4d107.6501747!16s%2Fg%2F12qgkr5w9!19sChIJZfDn5v3ar10RqUdhaf7EL6s?authuser=0&hl=tr&rclk=1",
    "website_url": "",
    "rating_text": "5,0",
    "stars": null,
    "number_of_reviews": null,
    "price_level": "",
    "open_hours": "",
    "extraction_timestamp": "2025-06-08T02:47:01.629Z",
    "source_name": "google",
    "source_query": "Irrigation Equipment",
    "source_country": "RU",
    "country": "Russia",
    "state": "Republic of Buryatia",
    "city": "Ulan-Ude"
  },
  {
    "source_id": "ChIJlZ4A9MTcr10R8UcSAinYYcs",
    "name": "Magazin Vodoley",
    "category": "Magazin Vodoley",
    "formatted_address": "Su Tesisatı Malzemeleri Satıcısı · Zabaykal'skaya Ulitsa, 8Açık ⋅ Kapanış saati: 19:00 · +7 301 220-43-50",
    "phone_number": "+73012204350",
    "source_url": "https://www.google.com/maps/place/Magazin+Vodoley/data=!4m7!3m6!1s0x5dafdcc4f4009e95:0xcb61d829021247f1!8m2!3d51.779038!4d107.57239!16s%2Fg%2F12qg0gt2s!19sChIJlZ4A9MTcr10R8UcSAinYYcs?authuser=0&hl=tr&rclk=1",
    "website_url": "",
    "rating_text": "",
    "stars": null,
    "number_of_reviews": null,
    "price_level": "",
    "open_hours": "",
    "extraction_timestamp": "2025-06-08T02:47:01.630Z",
    "source_name": "google",
    "source_query": "Irrigation Equipment",
    "source_country": "RU",
    "country": "Russia",
    "state": "Republic of Buryatia",
    "city": "Ulan-Ude"
  },
  {
    "source_id": "ChIJu7c0xzDbr10RE2m9a9efL34",
    "name": "Santekhnika, Elektrika, Magazin",
    "category": "Santekhnika, Elektrika, Magazin",
    "formatted_address": "Santekhnika, Elektrika, Magazin",
    "phone_number": "+73012634539",
    "source_url": "https://www.google.com/maps/place/Santekhnika,+Elektrika,+Magazin/data=!4m7!3m6!1s0x5dafdb30c734b7bb:0x7e2f9fd76bbd6913!8m2!3d51.831553!4d107.657517!16s%2Fg%2F1hf7rn74m!19sChIJu7c0xzDbr10RE2m9a9efL34?authuser=0&hl=tr&rclk=1",
    "website_url": "",
    "rating_text": "",
    "stars": null,
    "number_of_reviews": null,
    "price_level": "",
    "open_hours": "",
    "extraction_timestamp": "2025-06-08T02:47:01.630Z",
    "source_name": "google",
    "source_query": "Irrigation Equipment",
    "source_country": "RU",
    "country": "Russia",
    "state": "Republic of Buryatia",
    "city": "Ulan-Ude"
  },
  {
    "source_id": "ChIJu7c0xzDbr10R7zfy-HkKIEo",
    "name": "Sibarmaplast",
    "category": "Sibarmaplast",
    "formatted_address": "Su Tesisatı Malzemeleri Satıcısı · Ulitsa 3-Ya Transportnaya, 1АAçık ⋅ Kapanış saati: 17:00 · +7 301 246-88-76",
    "phone_number": "+73012468876",
    "source_url": "https://www.google.com/maps/place/Sibarmaplast/data=!4m7!3m6!1s0x5dafdb30c734b7bb:0x4a200a79f8f237ef!8m2!3d51.8267558!4d107.6102543!16s%2Fg%2F11rwk_m9c!19sChIJu7c0xzDbr10R7zfy-HkKIEo?authuser=0&hl=tr&rclk=1",
    "website_url": "",
    "rating_text": "",
    "stars": null,
    "number_of_reviews": null,
    "price_level": "",
    "open_hours": "",
    "extraction_timestamp": "2025-06-08T02:47:01.631Z",
    "source_name": "google",
    "source_query": "Irrigation Equipment",
    "source_country": "RU",
    "country": "Russia",
    "state": "Republic of Buryatia",
    "city": "Ulan-Ude"
  },
  {
    "source_id": "ChIJlZOBTszEr10RoZidV09PUJA",
    "name": "House master",
    "category": "House master",
    "formatted_address": "4,3(55)",
    "phone_number": "+73012218777",
    "source_url": "https://www.google.com/maps/place/House+master/data=!4m7!3m6!1s0x5dafc4cc4e819395:0x90504f4f579d98a1!8m2!3d51.8376494!4d107.5837652!16s%2Fg%2F11b5phyfwd!19sChIJlZOBTszEr10RoZidV09PUJA?authuser=0&hl=tr&rclk=1",
    "website_url": "",
    "rating_text": "4,3",
    "stars": null,
    "number_of_reviews": null,
    "price_level": "",
    "open_hours": "",
    "extraction_timestamp": "2025-06-08T02:47:01.632Z",
    "source_name": "google",
    "source_query": "Irrigation Equipment",
    "source_country": "RU",
    "country": "Russia",
    "state": "Republic of Buryatia",
    "city": "Ulan-Ude"
  },
  {
    "source_id": "ChIJQawvquLar10RSVhThpADmgg",
    "name": "Rosh-Stroy, Stroitel'nyy Magazin",
    "category": "Rosh-Stroy, Stroitel'nyy Magazin",
    "formatted_address": "Rosh-Stroy, Stroitel'nyy Magazin",
    "phone_number": "+73012270706",
    "source_url": "https://www.google.com/maps/place/Rosh-Stroy,+Stroitel%27nyy+Magazin/data=!4m7!3m6!1s0x5dafdae2aa2fac41:0x89a039086535849!8m2!3d51.8425719!4d107.640368!16s%2Fg%2F11bychbhrz!19sChIJQawvquLar10RSVhThpADmgg?authuser=0&hl=tr&rclk=1",
    "website_url": "",
    "rating_text": "",
    "stars": null,
    "number_of_reviews": null,
    "price_level": "",
    "open_hours": "",
    "extraction_timestamp": "2025-06-08T02:47:01.633Z",
    "source_name": "google",
    "source_query": "Irrigation Equipment",
    "source_country": "RU",
    "country": "Russia",
    "state": "Republic of Buryatia",
    "city": "Ulan-Ude"
  },
  {
    "source_id": "ChIJO5DjlzTbr10RT9T09peT9Pk",
    "name": "Sputnik",
    "category": "Sputnik",
    "formatted_address": "4,3(475)",
    "phone_number": "+73012307308",
    "source_url": "https://www.google.com/maps/place/Sputnik/data=!4m7!3m6!1s0x5dafdb3497e3903b:0xf9f49397f6f4d44f!8m2!3d51.833422!4d107.5880201!16s%2Fg%2F11nrqhwqc3!19sChIJO5DjlzTbr10RT9T09peT9Pk?authuser=0&hl=tr&rclk=1",
    "website_url": "",
    "rating_text": "4,3",
    "stars": null,
    "number_of_reviews": null,
    "price_level": "",
    "open_hours": "",
    "extraction_timestamp": "2025-06-08T02:47:01.634Z",
    "source_name": "google",
    "source_query": "Irrigation Equipment",
    "source_country": "RU",
    "country": "Russia",
    "state": "Republic of Buryatia",
    "city": "Ulan-Ude"
  },
  {
    "source_id": "ChIJDV8rmUnbr10RH5nBOH9oYjY",
    "name": "DNS",
    "category": "DNS",
    "formatted_address": "4,2(691)",
    "phone_number": "+78007707999",
    "source_url": "https://www.google.com/maps/place/DNS/data=!4m7!3m6!1s0x5dafdb49992b5f0d:0x3662687f38c1991f!8m2!3d51.826527!4d107.589659!16s%2Fg%2F12qghmczx!19sChIJDV8rmUnbr10RH5nBOH9oYjY?authuser=0&hl=tr&rclk=1",
    "website_url": "",
    "rating_text": "4,2",
    "stars": null,
    "number_of_reviews": null,
    "price_level": "",
    "open_hours": "",
    "extraction_timestamp": "2025-06-08T02:47:01.634Z",
    "source_name": "google",
    "source_query": "Irrigation Equipment",
    "source_country": "RU",
    "country": "Russia",
    "state": "Republic of Buryatia",
    "city": "Ulan-Ude"
  },
  {
    "source_id": "ChIJnzINE0rbr10RRQpNs52KOFM",
    "name": "Legion",
    "category": "Legion",
    "formatted_address": "3,7(9)",
    "phone_number": "+79085975656",
    "source_url": "https://www.google.com/maps/place/Legion/data=!4m7!3m6!1s0x5dafdb4a130d329f:0x53388a9db34d0a45!8m2!3d51.8274892!4d107.5887495!16s%2Fg%2F12qg5szt7!19sChIJnzINE0rbr10RRQpNs52KOFM?authuser=0&hl=tr&rclk=1",
    "website_url": "",
    "rating_text": "3,7",
    "stars": null,
    "number_of_reviews": null,
    "price_level": "",
    "open_hours": "",
    "extraction_timestamp": "2025-06-08T02:47:01.635Z",
    "source_name": "google",
    "source_query": "Irrigation Equipment",
    "source_country": "RU",
    "country": "Russia",
    "state": "Republic of Buryatia",
    "city": "Ulan-Ude"
  },
  {
    "source_id": "ChIJu7c0xzDbr10RaEiB3mLDXjA",
    "name": "Magazin Santekhniki",
    "category": "Magazin Santekhniki",
    "formatted_address": "1,0(1)",
    "phone_number": "+73012260555",
    "source_url": "https://www.google.com/maps/place/Magazin+Santekhniki/data=!4m7!3m6!1s0x5dafdb30c734b7bb:0x305ec362de814868!8m2!3d51.8425728!4d107.6488325!16s%2Fg%2F1hf2slt53!19sChIJu7c0xzDbr10RaEiB3mLDXjA?authuser=0&hl=tr&rclk=1",
    "website_url": "",
    "rating_text": "1,0",
    "stars": null,
    "number_of_reviews": null,
    "price_level": "",
    "open_hours": "",
    "extraction_timestamp": "2025-06-08T02:47:01.636Z",
    "source_name": "google",
    "source_query": "Irrigation Equipment",
    "source_country": "RU",
    "country": "Russia",
    "state": "Republic of Buryatia",
    "city": "Ulan-Ude"
  },
  {
    "source_id": "ChIJwSUWaTLbr10RXvpK8qvGYsw",
    "name": "Amino club",
    "category": "Amino club",
    "formatted_address": "4,0(6)",
    "phone_number": "+73012510050",
    "source_url": "https://www.google.com/maps/place/Amino+club/data=!4m7!3m6!1s0x5dafdb32691625c1:0xcc62c6abf24afa5e!8m2!3d51.837508!4d107.593968!16s%2Fg%2F11bysjqgzg!19sChIJwSUWaTLbr10RXvpK8qvGYsw?authuser=0&hl=tr&rclk=1",
    "website_url": "",
    "rating_text": "4,0",
    "stars": null,
    "number_of_reviews": null,
    "price_level": "",
    "open_hours": "",
    "extraction_timestamp": "2025-06-08T02:47:01.637Z",
    "source_name": "google",
    "source_query": "Irrigation Equipment",
    "source_country": "RU",
    "country": "Russia",
    "state": "Republic of Buryatia",
    "city": "Ulan-Ude"
  },
  {
    "source_id": "ChIJv1yLtMrEr10RN9yuXUfmWVc",
    "name": "Detskiy Mir",
    "category": "Detskiy Mir",
    "formatted_address": "4,3(574)",
    "phone_number": "+78002500000",
    "source_url": "https://www.google.com/maps/place/Detskiy+Mir/data=!4m7!3m6!1s0x5dafc4cab48b5cbf:0x5759e6475daedc37!8m2!3d51.830642!4d107.5834496!16s%2Fg%2F11hc_11zm7!19sChIJv1yLtMrEr10RN9yuXUfmWVc?authuser=0&hl=tr&rclk=1",
    "website_url": "",
    "rating_text": "4,3",
    "stars": null,
    "number_of_reviews": null,
    "price_level": "",
    "open_hours": "",
    "extraction_timestamp": "2025-06-08T02:47:01.638Z",
    "source_name": "google",
    "source_query": "Irrigation Equipment",
    "source_country": "RU",
    "country": "Russia",
    "state": "Republic of Buryatia",
    "city": "Ulan-Ude"
  }
]
