[
  {
    "source_id": "ChIJS2V0zxSDsl0RNMc9kf1q2xM",
    "name": "\"Sobol'\"",
    "category": "\"Sobol'\"",
    "formatted_address": "3,7(60)",
    "phone_number": "",
    "source_url": "https://www.google.com/maps/place/%22Sobol%27%22/data=!4m7!3m6!1s0x5db28314cf74654b:0x13db6afd913dc734!8m2!3d53.4066874!4d109.0348221!16s%2Fg%2F11bws792dl!19sChIJS2V0zxSDsl0RNMc9kf1q2xM?authuser=0&hl=tr&rclk=1",
    "website_url": "",
    "rating_text": "3,7",
    "stars": null,
    "number_of_reviews": null,
    "price_level": "",
    "open_hours": "",
    "extraction_timestamp": "2025-06-08T03:01:24.990Z",
    "source_name": "google",
    "source_query": "Irrigation Equipment",
    "source_country": "RU",
    "country": "Russia",
    "state": "Republic of Buryatia",
    "city": "Ust’-Barguzin"
  },
  {
    "source_id": "ChIJba6B9CKDsl0R2U3SdVvGrIE",
    "name": "Karat",
    "category": "Karat",
    "formatted_address": "4,3(22)",
    "phone_number": "",
    "source_url": "https://www.google.com/maps/place/Karat/data=!4m7!3m6!1s0x5db28322f481ae6d:0x81acc65b75d24dd9!8m2!3d53.4136571!4d109.0206001!16s%2Fg%2F11c43qf8sk!19sChIJba6B9CKDsl0R2U3SdVvGrIE?authuser=0&hl=tr&rclk=1",
    "website_url": "",
    "rating_text": "4,3",
    "stars": null,
    "number_of_reviews": null,
    "price_level": "",
    "open_hours": "",
    "extraction_timestamp": "2025-06-08T03:01:25.019Z",
    "source_name": "google",
    "source_query": "Irrigation Equipment",
    "source_country": "RU",
    "country": "Russia",
    "state": "Republic of Buryatia",
    "city": "Ust’-Barguzin"
  },
  {
    "source_id": "ChIJxd7982uDsl0RdF4UwkfT1AQ",
    "name": "\"Mayak\"",
    "category": "\"Mayak\"",
    "formatted_address": "5,0(1)",
    "phone_number": "",
    "source_url": "https://www.google.com/maps/place/%22Mayak%22/data=!4m7!3m6!1s0x5db2836bf3fddec5:0x4d4d347c2145e74!8m2!3d53.4041274!4d109.0410339!16s%2Fg%2F11b6hwl1zc!19sChIJxd7982uDsl0RdF4UwkfT1AQ?authuser=0&hl=tr&rclk=1",
    "website_url": "",
    "rating_text": "5,0",
    "stars": null,
    "number_of_reviews": null,
    "price_level": "",
    "open_hours": "",
    "extraction_timestamp": "2025-06-08T03:01:25.020Z",
    "source_name": "google",
    "source_query": "Irrigation Equipment",
    "source_country": "RU",
    "country": "Russia",
    "state": "Republic of Buryatia",
    "city": "Ust’-Barguzin"
  },
  {
    "source_id": "ChIJC8XLgT6Dsl0RuePDHktOi8w",
    "name": "Magazin Karat-2",
    "category": "Magazin Karat-2",
    "formatted_address": "4,2(35)",
    "phone_number": "",
    "source_url": "https://www.google.com/maps/place/Magazin+Karat-2/data=!4m7!3m6!1s0x5db2833e81cbc50b:0xcc8b4e4b1ec3e3b9!8m2!3d53.4137948!4d109.0323057!16s%2Fg%2F11c1xnqsp2!19sChIJC8XLgT6Dsl0RuePDHktOi8w?authuser=0&hl=tr&rclk=1",
    "website_url": "",
    "rating_text": "4,2",
    "stars": null,
    "number_of_reviews": null,
    "price_level": "",
    "open_hours": "",
    "extraction_timestamp": "2025-06-08T03:01:25.022Z",
    "source_name": "google",
    "source_query": "Irrigation Equipment",
    "source_country": "RU",
    "country": "Russia",
    "state": "Republic of Buryatia",
    "city": "Ust’-Barguzin"
  },
  {
    "source_id": "ChIJz2HpnD-Dsl0R6CDRIFALSls",
    "name": "Al'yans",
    "category": "Al'yans",
    "formatted_address": "4,6(13)",
    "phone_number": "",
    "source_url": "https://www.google.com/maps/place/Al%27yans/data=!4m7!3m6!1s0x5db2833f9ce961cf:0x5b4a0b5020d120e8!8m2!3d53.4123201!4d109.0386066!16s%2Fg%2F11c703x9dw!19sChIJz2HpnD-Dsl0R6CDRIFALSls?authuser=0&hl=tr&rclk=1",
    "website_url": "",
    "rating_text": "4,6",
    "stars": null,
    "number_of_reviews": null,
    "price_level": "",
    "open_hours": "",
    "extraction_timestamp": "2025-06-08T03:01:25.023Z",
    "source_name": "google",
    "source_query": "Irrigation Equipment",
    "source_country": "RU",
    "country": "Russia",
    "state": "Republic of Buryatia",
    "city": "Ust’-Barguzin"
  },
  {
    "source_id": "ChIJm6Eg2hqDsl0RgEZPdF6kAzY",
    "name": "Titan",
    "category": "Titan",
    "formatted_address": "4,0(26)",
    "phone_number": "+73013192920",
    "source_url": "https://www.google.com/maps/place/Titan/data=!4m7!3m6!1s0x5db2831ada20a19b:0x3603a45e744f4680!8m2!3d53.4141164!4d109.0335463!16s%2Fg%2F11nmn723ff!19sChIJm6Eg2hqDsl0RgEZPdF6kAzY?authuser=0&hl=tr&rclk=1",
    "website_url": "",
    "rating_text": "4,0",
    "stars": null,
    "number_of_reviews": null,
    "price_level": "",
    "open_hours": "",
    "extraction_timestamp": "2025-06-08T03:01:25.026Z",
    "source_name": "google",
    "source_query": "Irrigation Equipment",
    "source_country": "RU",
    "country": "Russia",
    "state": "Republic of Buryatia",
    "city": "Ust’-Barguzin"
  },
  {
    "source_id": "ChIJdwVoMWqDsl0Ri28KfP7XQvw",
    "name": "Абсолют CASH AND CARRY",
    "category": "Абсолют CASH AND CARRY",
    "formatted_address": "3,9(335)",
    "phone_number": "",
    "source_url": "https://www.google.com/maps/place/%D0%90%D0%B1%D1%81%D0%BE%D0%BB%D1%8E%D1%82+CASH+AND+CARRY/data=!4m7!3m6!1s0x5db2836a31680577:0xfc42d7fe7c0a6f8b!8m2!3d53.4066293!4d109.0429886!16s%2Fg%2F11c0vpg9z4!19sChIJdwVoMWqDsl0Ri28KfP7XQvw?authuser=0&hl=tr&rclk=1",
    "website_url": "",
    "rating_text": "3,9",
    "stars": null,
    "number_of_reviews": null,
    "price_level": "",
    "open_hours": "",
    "extraction_timestamp": "2025-06-08T03:01:25.027Z",
    "source_name": "google",
    "source_query": "Irrigation Equipment",
    "source_country": "RU",
    "country": "Russia",
    "state": "Republic of Buryatia",
    "city": "Ust’-Barguzin"
  },
  {
    "source_id": "ChIJ5ac0aa-Dsl0Rh4a3oHzrk54",
    "name": "Set' Tekhniki",
    "category": "Set' Tekhniki",
    "formatted_address": "5,0(5)",
    "phone_number": "+79243511815",
    "source_url": "https://www.google.com/maps/place/Set%27+Tekhniki/data=!4m7!3m6!1s0x5db283af6934a7e5:0x9e93eb7ca0b78687!8m2!3d53.399846!4d109.0412807!16s%2Fg%2F11nnv4973g!19sChIJ5ac0aa-Dsl0Rh4a3oHzrk54?authuser=0&hl=tr&rclk=1",
    "website_url": "",
    "rating_text": "5,0",
    "stars": null,
    "number_of_reviews": null,
    "price_level": "",
    "open_hours": "",
    "extraction_timestamp": "2025-06-08T03:01:25.030Z",
    "source_name": "google",
    "source_query": "Irrigation Equipment",
    "source_country": "RU",
    "country": "Russia",
    "state": "Republic of Buryatia",
    "city": "Ust’-Barguzin"
  },
  {
    "source_id": "ChIJHR24FhiDsl0RIL0h22Wy1U4",
    "name": "Magazin Raduga",
    "category": "Magazin Raduga",
    "formatted_address": "4,6(47)",
    "phone_number": "",
    "source_url": "https://www.google.com/maps/place/Magazin+Raduga/data=!4m7!3m6!1s0x5db2831816b81d1d:0x4ed5b265db21bd20!8m2!3d53.4115737!4d109.0204239!16s%2Fg%2F11c5g_wqpc!19sChIJHR24FhiDsl0RIL0h22Wy1U4?authuser=0&hl=tr&rclk=1",
    "website_url": "",
    "rating_text": "4,6",
    "stars": null,
    "number_of_reviews": null,
    "price_level": "",
    "open_hours": "",
    "extraction_timestamp": "2025-06-08T03:01:25.031Z",
    "source_name": "google",
    "source_query": "Irrigation Equipment",
    "source_country": "RU",
    "country": "Russia",
    "state": "Republic of Buryatia",
    "city": "Ust’-Barguzin"
  },
  {
    "source_id": "ChIJsXzNBlqDsl0R02Ni5DV-lwQ",
    "name": "Kedr",
    "category": "Kedr",
    "formatted_address": "5,0(2)",
    "phone_number": "",
    "source_url": "https://www.google.com/maps/place/Kedr/data=!4m7!3m6!1s0x5db2835a06cd7cb1:0x4977e35e46263d3!8m2!3d53.4141812!4d109.0456312!16s%2Fg%2F11q1qx90d2!19sChIJsXzNBlqDsl0R02Ni5DV-lwQ?authuser=0&hl=tr&rclk=1",
    "website_url": "",
    "rating_text": "5,0",
    "stars": null,
    "number_of_reviews": null,
    "price_level": "",
    "open_hours": "",
    "extraction_timestamp": "2025-06-08T03:01:25.032Z",
    "source_name": "google",
    "source_query": "Irrigation Equipment",
    "source_country": "RU",
    "country": "Russia",
    "state": "Republic of Buryatia",
    "city": "Ust’-Barguzin"
  },
  {
    "source_id": "ChIJDbNqG2yDsl0RWQhXJwhEcmg",
    "name": "Magazin \"Krokus\"",
    "category": "Magazin \"Krokus\"",
    "formatted_address": "4,4(51)",
    "phone_number": "",
    "source_url": "https://www.google.com/maps/place/Magazin+%22Krokus%22/data=!4m7!3m6!1s0x5db2836c1b6ab30d:0x6872440827570859!8m2!3d53.4029512!4d109.0410035!16s%2Fg%2F11b6hzqfh7!19sChIJDbNqG2yDsl0RWQhXJwhEcmg?authuser=0&hl=tr&rclk=1",
    "website_url": "",
    "rating_text": "4,4",
    "stars": null,
    "number_of_reviews": null,
    "price_level": "",
    "open_hours": "",
    "extraction_timestamp": "2025-06-08T03:01:25.033Z",
    "source_name": "google",
    "source_query": "Irrigation Equipment",
    "source_country": "RU",
    "country": "Russia",
    "state": "Republic of Buryatia",
    "city": "Ust’-Barguzin"
  },
  {
    "source_id": "ChIJgbQdjSODsl0Rz5-BpfEWMj8",
    "name": "Magazin\"Argun'\"",
    "category": "Magazin\"Argun'\"",
    "formatted_address": "3,7(30)",
    "phone_number": "+79500625007",
    "source_url": "https://www.google.com/maps/place/Magazin%22Argun%27%22/data=!4m7!3m6!1s0x5db283238d1db481:0x3f3216f1a5819fcf!8m2!3d53.4178434!4d109.0199528!16s%2Fg%2F11cs9z1jl5!19sChIJgbQdjSODsl0Rz5-BpfEWMj8?authuser=0&hl=tr&rclk=1",
    "website_url": "",
    "rating_text": "3,7",
    "stars": null,
    "number_of_reviews": null,
    "price_level": "",
    "open_hours": "",
    "extraction_timestamp": "2025-06-08T03:01:25.034Z",
    "source_name": "google",
    "source_query": "Irrigation Equipment",
    "source_country": "RU",
    "country": "Russia",
    "state": "Republic of Buryatia",
    "city": "Ust’-Barguzin"
  },
  {
    "source_id": "ChIJI4V8DhGDsl0RfJeSFzSk7Rk",
    "name": "Magazin Okey",
    "category": "Magazin Okey",
    "formatted_address": "3,7(25)",
    "phone_number": "",
    "source_url": "https://www.google.com/maps/place/Magazin+Okey/data=!4m7!3m6!1s0x5db283110e7c8523:0x19eda4341792977c!8m2!3d53.4045206!4d109.0227262!16s%2Fg%2F11c5h2gxj0!19sChIJI4V8DhGDsl0RfJeSFzSk7Rk?authuser=0&hl=tr&rclk=1",
    "website_url": "",
    "rating_text": "3,7",
    "stars": null,
    "number_of_reviews": null,
    "price_level": "",
    "open_hours": "",
    "extraction_timestamp": "2025-06-08T03:01:25.035Z",
    "source_name": "google",
    "source_query": "Irrigation Equipment",
    "source_country": "RU",
    "country": "Russia",
    "state": "Republic of Buryatia",
    "city": "Ust’-Barguzin"
  },
  {
    "source_id": "ChIJMaw7YtWDsl0R34PCdyQVvlo",
    "name": "Pekarnya Magazin Sharlotta",
    "category": "Pekarnya Magazin Sharlotta",
    "formatted_address": "4,7(16)",
    "phone_number": "+79062384545",
    "source_url": "https://www.google.com/maps/place/Pekarnya+Magazin+Sharlotta/data=!4m7!3m6!1s0x5db283d5623bac31:0x5abe152477c283df!8m2!3d53.4123249!4d109.0326291!16s%2Fg%2F11ff5jlmbs!19sChIJMaw7YtWDsl0R34PCdyQVvlo?authuser=0&hl=tr&rclk=1",
    "website_url": "",
    "rating_text": "4,7",
    "stars": null,
    "number_of_reviews": null,
    "price_level": "",
    "open_hours": "",
    "extraction_timestamp": "2025-06-08T03:01:25.036Z",
    "source_name": "google",
    "source_query": "Irrigation Equipment",
    "source_country": "RU",
    "country": "Russia",
    "state": "Republic of Buryatia",
    "city": "Ust’-Barguzin"
  },
  {
    "source_id": "ChIJCQYpHmuDsl0R9bbJ1vnoINg",
    "name": "Magazin\"Lovushka\" I Khlebopekarnya",
    "category": "Magazin\"Lovushka\" I Khlebopekarnya",
    "formatted_address": "4,5(34)",
    "phone_number": "",
    "source_url": "https://www.google.com/maps/place/Magazin%22Lovushka%22+I+Khlebopekarnya/data=!4m7!3m6!1s0x5db2836b1e290609:0xd820e8f9d6c9b6f5!8m2!3d53.4069405!4d109.0385024!16s%2Fg%2F11cs9yzls4!19sChIJCQYpHmuDsl0R9bbJ1vnoINg?authuser=0&hl=tr&rclk=1",
    "website_url": "",
    "rating_text": "4,5",
    "stars": null,
    "number_of_reviews": null,
    "price_level": "",
    "open_hours": "",
    "extraction_timestamp": "2025-06-08T03:01:25.037Z",
    "source_name": "google",
    "source_query": "Irrigation Equipment",
    "source_country": "RU",
    "country": "Russia",
    "state": "Republic of Buryatia",
    "city": "Ust’-Barguzin"
  },
  {
    "source_id": "ChIJXcV1pJ6Dsl0RJRghBRkJgKw",
    "name": "Magazin Svetofor P. Ust'-Barguzin. Produkty I Tovary Po Nizkim Tsenam.",
    "category": "Magazin Svetofor P. Ust'-Barguzin. Produkty I Tovary Po Nizkim Tsenam.",
    "formatted_address": "3,9(21)",
    "phone_number": "+73013192922",
    "source_url": "https://www.google.com/maps/place/Magazin+Svetofor+P.+Ust%27-Barguzin.+Produkty+I+Tovary+Po+Nizkim+Tsenam./data=!4m7!3m6!1s0x5db2839ea475c55d:0xac80091905211825!8m2!3d53.4130287!4d109.0488357!16s%2Fg%2F11nnqg3chv!19sChIJXcV1pJ6Dsl0RJRghBRkJgKw?authuser=0&hl=tr&rclk=1",
    "website_url": "",
    "rating_text": "3,9",
    "stars": null,
    "number_of_reviews": null,
    "price_level": "",
    "open_hours": "",
    "extraction_timestamp": "2025-06-08T03:01:25.038Z",
    "source_name": "google",
    "source_query": "Irrigation Equipment",
    "source_country": "RU",
    "country": "Russia",
    "state": "Republic of Buryatia",
    "city": "Ust’-Barguzin"
  },
  {
    "source_id": "ChIJWXcmi62Dsl0RWIRbwKZyJ0c",
    "name": "Magazin Severyanka",
    "category": "Magazin Severyanka",
    "formatted_address": "Mağaza · Ulitsa Lenina, 10Açık ⋅ Kapanış saati: 18:00 · +7 924 658-60-18",
    "phone_number": "+79246586018",
    "source_url": "https://www.google.com/maps/place/Magazin+Severyanka/data=!4m7!3m6!1s0x5db283ad8b267759:0x472772a6c05b8458!8m2!3d53.4154531!4d109.0203831!16s%2Fg%2F11r4c4s9n1!19sChIJWXcmi62Dsl0RWIRbwKZyJ0c?authuser=0&hl=tr&rclk=1",
    "website_url": "",
    "rating_text": "",
    "stars": null,
    "number_of_reviews": null,
    "price_level": "",
    "open_hours": "",
    "extraction_timestamp": "2025-06-08T03:01:25.039Z",
    "source_name": "google",
    "source_query": "Irrigation Equipment",
    "source_country": "RU",
    "country": "Russia",
    "state": "Republic of Buryatia",
    "city": "Ust’-Barguzin"
  }
]
