[
  {
    "source_id": "ChIJF01dk0XEr10RU3EhL7h4X8Q",
    "name": "Vegos-M",
    "category": "Vegos-M",
    "formatted_address": "4,2(666)",
    "phone_number": "+73012312493",
    "source_url": "https://www.google.com/maps/place/Vegos-M/data=!4m7!3m6!1s0x5dafc445935d4d17:0xc45f78b82f217153!8m2!3d51.850713!4d107.50979!16s%2Fg%2F11b86v52sr!19sChIJF01dk0XEr10RU3EhL7h4X8Q?authuser=0&hl=tr&rclk=1",
    "website_url": "",
    "rating_text": "4,2",
    "stars": null,
    "number_of_reviews": null,
    "price_level": "",
    "open_hours": "",
    "extraction_timestamp": "2025-06-08T02:54:05.221Z",
    "source_name": "google",
    "source_query": "Irrigation Equipment",
    "source_country": "RU",
    "country": "Russia",
    "state": "Republic of Buryatia",
    "city": "Zarechnyy"
  },
  {
    "source_id": "ChIJ807RwFHEr10RteK2huUvmP0",
    "name": "Profsoyuznik",
    "category": "Profsoyuznik",
    "formatted_address": "3,8(90)",
    "phone_number": "",
    "source_url": "https://www.google.com/maps/place/Profsoyuznik/data=!4m7!3m6!1s0x5dafc451c0d14ef3:0xfd982fe586b6e2b5!8m2!3d51.8538818!4d107.5196787!16s%2Fg%2F11csb0kjwk!19sChIJ807RwFHEr10RteK2huUvmP0?authuser=0&hl=tr&rclk=1",
    "website_url": "",
    "rating_text": "3,8",
    "stars": null,
    "number_of_reviews": null,
    "price_level": "",
    "open_hours": "",
    "extraction_timestamp": "2025-06-08T02:54:05.222Z",
    "source_name": "google",
    "source_query": "Irrigation Equipment",
    "source_country": "RU",
    "country": "Russia",
    "state": "Republic of Buryatia",
    "city": "Zarechnyy"
  },
  {
    "source_id": "ChIJD0IOelzEr10RQuZ3W0CM-Oo",
    "name": "Titan",
    "category": "Titan",
    "formatted_address": "4,0(819)",
    "phone_number": "+73012224546",
    "source_url": "https://www.google.com/maps/place/Titan/data=!4m7!3m6!1s0x5dafc45c7a0e420f:0xeaf88c405b77e642!8m2!3d51.844775!4d107.516782!16s%2Fg%2F1ptwbfplk!19sChIJD0IOelzEr10RQuZ3W0CM-Oo?authuser=0&hl=tr&rclk=1",
    "website_url": "",
    "rating_text": "4,0",
    "stars": null,
    "number_of_reviews": null,
    "price_level": "",
    "open_hours": "",
    "extraction_timestamp": "2025-06-08T02:54:05.224Z",
    "source_name": "google",
    "source_query": "Irrigation Equipment",
    "source_country": "RU",
    "country": "Russia",
    "state": "Republic of Buryatia",
    "city": "Zarechnyy"
  },
  {
    "source_id": "ChIJiYKzpUPEr10RajImrbMqySQ",
    "name": "Zalan",
    "category": "Zalan",
    "formatted_address": "4,5(176)",
    "phone_number": "+73012371718",
    "source_url": "https://www.google.com/maps/place/Zalan/data=!4m7!3m6!1s0x5dafc443a5b38289:0x24c92ab3ad26326a!8m2!3d51.844753!4d107.507454!16s%2Fg%2F11c5rs8wp1!19sChIJiYKzpUPEr10RajImrbMqySQ?authuser=0&hl=tr&rclk=1",
    "website_url": "",
    "rating_text": "4,5",
    "stars": null,
    "number_of_reviews": null,
    "price_level": "",
    "open_hours": "",
    "extraction_timestamp": "2025-06-08T02:54:05.226Z",
    "source_name": "google",
    "source_query": "Irrigation Equipment",
    "source_country": "RU",
    "country": "Russia",
    "state": "Republic of Buryatia",
    "city": "Zarechnyy"
  },
  {
    "source_id": "ChIJTd4hy1fEr10RrTVkXa59Q_4",
    "name": "Gloriya",
    "category": "Gloriya",
    "formatted_address": "3,4(20)",
    "phone_number": "+73012638760",
    "source_url": "https://www.google.com/maps/place/Gloriya/data=!4m7!3m6!1s0x5dafc457cb21de4d:0xfe437dae5d6435ad!8m2!3d51.8503736!4d107.5287871!16s%2Fg%2F12hpj91vy!19sChIJTd4hy1fEr10RrTVkXa59Q_4?authuser=0&hl=tr&rclk=1",
    "website_url": "",
    "rating_text": "3,4",
    "stars": null,
    "number_of_reviews": null,
    "price_level": "",
    "open_hours": "",
    "extraction_timestamp": "2025-06-08T02:54:05.227Z",
    "source_name": "google",
    "source_query": "Irrigation Equipment",
    "source_country": "RU",
    "country": "Russia",
    "state": "Republic of Buryatia",
    "city": "Zarechnyy"
  },
  {
    "source_id": "ChIJLa3Xm17Er10RCUiQ_kQNSxY",
    "name": "Sadem",
    "category": "Sadem",
    "formatted_address": "4,0(91)",
    "phone_number": "+73012689202",
    "source_url": "https://www.google.com/maps/place/Sadem/data=!4m7!3m6!1s0x5dafc45e9bd7ad2d:0x164b0d44fe904809!8m2!3d51.8432503!4d107.5178317!16s%2Fg%2F12qh7jtlj!19sChIJLa3Xm17Er10RCUiQ_kQNSxY?authuser=0&hl=tr&rclk=1",
    "website_url": "",
    "rating_text": "4,0",
    "stars": null,
    "number_of_reviews": null,
    "price_level": "",
    "open_hours": "",
    "extraction_timestamp": "2025-06-08T02:54:05.228Z",
    "source_name": "google",
    "source_query": "Irrigation Equipment",
    "source_country": "RU",
    "country": "Russia",
    "state": "Republic of Buryatia",
    "city": "Zarechnyy"
  },
  {
    "source_id": "ChIJu7c0xzDbr10R0IxmgI2tl0c",
    "name": "Zarechny",
    "category": "Zarechny",
    "formatted_address": "4,0(54)",
    "phone_number": "+73012225793",
    "source_url": "https://www.google.com/maps/place/Zarechny/data=!4m7!3m6!1s0x5dafdb30c734b7bb:0x4797ad8d80668cd0!8m2!3d51.840715!4d107.517979!16s%2Fg%2F11y702f7h!19sChIJu7c0xzDbr10R0IxmgI2tl0c?authuser=0&hl=tr&rclk=1",
    "website_url": "",
    "rating_text": "4,0",
    "stars": null,
    "number_of_reviews": null,
    "price_level": "",
    "open_hours": "",
    "extraction_timestamp": "2025-06-08T02:54:05.230Z",
    "source_name": "google",
    "source_query": "Irrigation Equipment",
    "source_country": "RU",
    "country": "Russia",
    "state": "Republic of Buryatia",
    "city": "Zarechnyy"
  },
  {
    "source_id": "ChIJtVAnfnvEr10Ra7_DgFBlxYA",
    "name": "Magazin Produkty",
    "category": "Magazin Produkty",
    "formatted_address": "3,4(16)",
    "phone_number": "+79516200695",
    "source_url": "https://www.google.com/maps/place/Magazin+Produkty/data=!4m7!3m6!1s0x5dafc47b7e2750b5:0x80c5655080c3bf6b!8m2!3d51.8274869!4d107.5088526!16s%2Fg%2F11f3r3xn1h!19sChIJtVAnfnvEr10Ra7_DgFBlxYA?authuser=0&hl=tr&rclk=1",
    "website_url": "",
    "rating_text": "3,4",
    "stars": null,
    "number_of_reviews": null,
    "price_level": "",
    "open_hours": "",
    "extraction_timestamp": "2025-06-08T02:54:05.231Z",
    "source_name": "google",
    "source_query": "Irrigation Equipment",
    "source_country": "RU",
    "country": "Russia",
    "state": "Republic of Buryatia",
    "city": "Zarechnyy"
  },
  {
    "source_id": "ChIJe0hhvkTEr10RabVLl70heZw",
    "name": "Belorechenskoye",
    "category": "Belorechenskoye",
    "formatted_address": "3,5(4)",
    "phone_number": "+79247576623",
    "source_url": "https://www.google.com/maps/place/Belorechenskoye/data=!4m7!3m6!1s0x5dafc444be61487b:0x9c7921bd974bb569!8m2!3d51.8469939!4d107.511581!16s%2Fg%2F11c3n2hsvm!19sChIJe0hhvkTEr10RabVLl70heZw?authuser=0&hl=tr&rclk=1",
    "website_url": "",
    "rating_text": "3,5",
    "stars": null,
    "number_of_reviews": null,
    "price_level": "",
    "open_hours": "",
    "extraction_timestamp": "2025-06-08T02:54:05.233Z",
    "source_name": "google",
    "source_query": "Irrigation Equipment",
    "source_country": "RU",
    "country": "Russia",
    "state": "Republic of Buryatia",
    "city": "Zarechnyy"
  },
  {
    "source_id": "ChIJjYhrqkjEr10RNg1haYEu5yk",
    "name": "Akva Siti, Set' Magazinov Santekhniki",
    "category": "Akva Siti, Set' Magazinov Santekhniki",
    "formatted_address": "Akva Siti, Set' Magazinov Santekhniki",
    "phone_number": "+73012374303",
    "source_url": "https://www.google.com/maps/place/Akva+Siti,+Set%27+Magazinov+Santekhniki/data=!4m7!3m6!1s0x5dafc448aa6b888d:0x29e72e8169610d36!8m2!3d51.8424459!4d107.519178!16s%2Fg%2F12qfqqnh0!19sChIJjYhrqkjEr10RNg1haYEu5yk?authuser=0&hl=tr&rclk=1",
    "website_url": "",
    "rating_text": "4,3",
    "stars": null,
    "number_of_reviews": null,
    "price_level": "",
    "open_hours": "",
    "extraction_timestamp": "2025-06-08T02:54:05.234Z",
    "source_name": "google",
    "source_query": "Irrigation Equipment",
    "source_country": "RU",
    "country": "Russia",
    "state": "Republic of Buryatia",
    "city": "Zarechnyy"
  },
  {
    "source_id": "ChIJu7c0xzDbr10RHCsWf9KPUyM",
    "name": "Maksim",
    "category": "Maksim",
    "formatted_address": "3,9(140)",
    "phone_number": "+73012224012",
    "source_url": "https://www.google.com/maps/place/Maksim/data=!4m7!3m6!1s0x5dafdb30c734b7bb:0x23538fd27f162b1c!8m2!3d51.8427129!4d107.5199561!16s%2Fg%2F1hf5zkrg2!19sChIJu7c0xzDbr10RHCsWf9KPUyM?authuser=0&hl=tr&rclk=1",
    "website_url": "",
    "rating_text": "3,9",
    "stars": null,
    "number_of_reviews": null,
    "price_level": "",
    "open_hours": "",
    "extraction_timestamp": "2025-06-08T02:54:05.235Z",
    "source_name": "google",
    "source_query": "Irrigation Equipment",
    "source_country": "RU",
    "country": "Russia",
    "state": "Republic of Buryatia",
    "city": "Zarechnyy"
  },
  {
    "source_id": "ChIJD4Zu2PHEr10RjK0sJJy8DFk",
    "name": "Stimul",
    "category": "Stimul",
    "formatted_address": "4,1(647)",
    "phone_number": "",
    "source_url": "https://www.google.com/maps/place/Stimul/data=!4m7!3m6!1s0x5dafc4f1d86e860f:0x590cbc9c242cad8c!8m2!3d51.842258!4d107.533852!16s%2Fg%2F12qf7ytvd!19sChIJD4Zu2PHEr10RjK0sJJy8DFk?authuser=0&hl=tr&rclk=1",
    "website_url": "",
    "rating_text": "4,1",
    "stars": null,
    "number_of_reviews": null,
    "price_level": "",
    "open_hours": "",
    "extraction_timestamp": "2025-06-08T02:54:05.236Z",
    "source_name": "google",
    "source_query": "Irrigation Equipment",
    "source_country": "RU",
    "country": "Russia",
    "state": "Republic of Buryatia",
    "city": "Zarechnyy"
  },
  {
    "source_id": "ChIJdf74tEjEr10RMoov5B00Wl0",
    "name": "Larets",
    "category": "Larets",
    "formatted_address": "3,4(31)",
    "phone_number": "",
    "source_url": "https://www.google.com/maps/place/Larets/data=!4m7!3m6!1s0x5dafc448b4f8fe75:0x5d5a341de42f8a32!8m2!3d51.8529294!4d107.5088679!16s%2Fg%2F11c3l7ylp3!19sChIJdf74tEjEr10RMoov5B00Wl0?authuser=0&hl=tr&rclk=1",
    "website_url": "",
    "rating_text": "3,4",
    "stars": null,
    "number_of_reviews": null,
    "price_level": "",
    "open_hours": "",
    "extraction_timestamp": "2025-06-08T02:54:05.236Z",
    "source_name": "google",
    "source_query": "Irrigation Equipment",
    "source_country": "RU",
    "country": "Russia",
    "state": "Republic of Buryatia",
    "city": "Zarechnyy"
  },
  {
    "source_id": "ChIJLeKrukTEr10RwwwiUYgONao",
    "name": "Belorech'ye, Set' Produktovykh Magazinov",
    "category": "Belorech'ye, Set' Produktovykh Magazinov",
    "formatted_address": "Belorech'ye, Set' Produktovykh Magazinov",
    "phone_number": "+73012416255",
    "source_url": "https://www.google.com/maps/place/Belorech%27ye,+Set%27+Produktovykh+Magazinov/data=!4m7!3m6!1s0x5dafc444baabe22d:0xaa350e8851220cc3!8m2!3d51.8466686!4d107.5122643!16s%2Fg%2F12qgyzcfb!19sChIJLeKrukTEr10RwwwiUYgONao?authuser=0&hl=tr&rclk=1",
    "website_url": "",
    "rating_text": "4,3",
    "stars": null,
    "number_of_reviews": null,
    "price_level": "",
    "open_hours": "",
    "extraction_timestamp": "2025-06-08T02:54:05.238Z",
    "source_name": "google",
    "source_query": "Irrigation Equipment",
    "source_country": "RU",
    "country": "Russia",
    "state": "Republic of Buryatia",
    "city": "Zarechnyy"
  },
  {
    "source_id": "ChIJ_9AL-WDEr10RQHW1pMYWcKE",
    "name": "Stroyka, Magazin Stroitel'nykh Materialov",
    "category": "Stroyka, Magazin Stroitel'nykh Materialov",
    "formatted_address": "Stroyka, Magazin Stroitel'nykh Materialov",
    "phone_number": "+73012224011",
    "source_url": "https://www.google.com/maps/place/Stroyka,+Magazin+Stroitel%27nykh+Materialov/data=!4m7!3m6!1s0x5dafc460f90bd0ff:0xa17016c6a4b57540!8m2!3d51.8371403!4d107.5187137!16s%2Fg%2F12hqyb32g!19sChIJ_9AL-WDEr10RQHW1pMYWcKE?authuser=0&hl=tr&rclk=1",
    "website_url": "",
    "rating_text": "1,0",
    "stars": null,
    "number_of_reviews": null,
    "price_level": "",
    "open_hours": "",
    "extraction_timestamp": "2025-06-08T02:54:05.239Z",
    "source_name": "google",
    "source_query": "Irrigation Equipment",
    "source_country": "RU",
    "country": "Russia",
    "state": "Republic of Buryatia",
    "city": "Zarechnyy"
  },
  {
    "source_id": "ChIJd1GFY4jFr10RlrZIfraNwVM",
    "name": "Svetofor",
    "category": "Svetofor",
    "formatted_address": "4,0(316)",
    "phone_number": "",
    "source_url": "https://www.google.com/maps/place/Svetofor/data=!4m7!3m6!1s0x5dafc58863855177:0x53c18db67e48b696!8m2!3d51.8475695!4d107.5082491!16s%2Fg%2F11g1lswll2!19sChIJd1GFY4jFr10RlrZIfraNwVM?authuser=0&hl=tr&rclk=1",
    "website_url": "",
    "rating_text": "4,0",
    "stars": null,
    "number_of_reviews": null,
    "price_level": "",
    "open_hours": "",
    "extraction_timestamp": "2025-06-08T02:54:05.239Z",
    "source_name": "google",
    "source_query": "Irrigation Equipment",
    "source_country": "RU",
    "country": "Russia",
    "state": "Republic of Buryatia",
    "city": "Zarechnyy"
  },
  {
    "source_id": "ChIJu-LJtUTEr10R56zUgawXIiw",
    "name": "Nikolayevskiy",
    "category": "Nikolayevskiy",
    "formatted_address": "4,7(12)",
    "phone_number": "+73012436954",
    "source_url": "https://www.google.com/maps/place/Nikolayevskiy/data=!4m7!3m6!1s0x5dafc444b5c9e2bb:0x2c2217ac81d4ace7!8m2!3d51.8469095!4d107.5129523!16s%2Fg%2F11b88zygmk!19sChIJu-LJtUTEr10R56zUgawXIiw?authuser=0&hl=tr&rclk=1",
    "website_url": "",
    "rating_text": "4,7",
    "stars": null,
    "number_of_reviews": null,
    "price_level": "",
    "open_hours": "",
    "extraction_timestamp": "2025-06-08T02:54:05.240Z",
    "source_name": "google",
    "source_query": "Irrigation Equipment",
    "source_country": "RU",
    "country": "Russia",
    "state": "Republic of Buryatia",
    "city": "Zarechnyy"
  },
  {
    "source_id": "ChIJCbWGsH7Er10Ro_l3gX67UPc",
    "name": "Produktovyy Magazin",
    "category": "Produktovyy Magazin",
    "formatted_address": "4,1(29)",
    "phone_number": "",
    "source_url": "https://www.google.com/maps/place/Produktovyy+Magazin/data=!4m7!3m6!1s0x5dafc47eb086b509:0xf750bb7e8177f9a3!8m2!3d51.8238866!4d107.5075399!16s%2Fg%2F11f_j3gvl2!19sChIJCbWGsH7Er10Ro_l3gX67UPc?authuser=0&hl=tr&rclk=1",
    "website_url": "",
    "rating_text": "4,1",
    "stars": null,
    "number_of_reviews": null,
    "price_level": "",
    "open_hours": "",
    "extraction_timestamp": "2025-06-08T02:54:05.241Z",
    "source_name": "google",
    "source_query": "Irrigation Equipment",
    "source_country": "RU",
    "country": "Russia",
    "state": "Republic of Buryatia",
    "city": "Zarechnyy"
  },
  {
    "source_id": "ChIJ-QYguFHEr10RanXIIubOj1w",
    "name": "Nikolayevich",
    "category": "Nikolayevich",
    "formatted_address": "4,4(5)",
    "phone_number": "+73012228000",
    "source_url": "https://www.google.com/maps/place/Nikolayevich/data=!4m7!3m6!1s0x5dafc451b82006f9:0x5c8fcee622c8756a!8m2!3d51.8536134!4d107.5202318!16s%2Fg%2F11b868tr_6!19sChIJ-QYguFHEr10RanXIIubOj1w?authuser=0&hl=tr&rclk=1",
    "website_url": "",
    "rating_text": "4,4",
    "stars": null,
    "number_of_reviews": null,
    "price_level": "",
    "open_hours": "",
    "extraction_timestamp": "2025-06-08T02:54:05.242Z",
    "source_name": "google",
    "source_query": "Irrigation Equipment",
    "source_country": "RU",
    "country": "Russia",
    "state": "Republic of Buryatia",
    "city": "Zarechnyy"
  },
  {
    "source_id": "ChIJu7c0xzDbr10RcGmdJYt8Zc0",
    "name": "Polistroydetal'",
    "category": "Polistroydetal'",
    "formatted_address": "5,0(6)",
    "phone_number": "+79644090056",
    "source_url": "https://www.google.com/maps/place/Polistroydetal%27/data=!4m7!3m6!1s0x5dafdb30c734b7bb:0xcd657c8b259d6970!8m2!3d51.842853!4d107.544195!16s%2Fg%2F1pt_s7z4n!19sChIJu7c0xzDbr10RcGmdJYt8Zc0?authuser=0&hl=tr&rclk=1",
    "website_url": "",
    "rating_text": "5,0",
    "stars": null,
    "number_of_reviews": null,
    "price_level": "",
    "open_hours": "",
    "extraction_timestamp": "2025-06-08T02:54:05.243Z",
    "source_name": "google",
    "source_query": "Irrigation Equipment",
    "source_country": "RU",
    "country": "Russia",
    "state": "Republic of Buryatia",
    "city": "Zarechnyy"
  },
  {
    "source_id": "ChIJu7c0xzDbr10RJ4AnvVLiA7Q",
    "name": "Produktovyy Magazin Ooo \"Levyy Bereg Selengi\"",
    "category": "Produktovyy Magazin Ooo \"Levyy Bereg Selengi\"",
    "formatted_address": "3,7(17)",
    "phone_number": "+73012628602",
    "source_url": "https://www.google.com/maps/place/Produktovyy+Magazin+Ooo+%22Levyy+Bereg+Selengi%22/data=!4m7!3m6!1s0x5dafdb30c734b7bb:0xb403e252bd278027!8m2!3d51.8452945!4d107.5534279!16s%2Fg%2F11r8v1959!19sChIJu7c0xzDbr10RJ4AnvVLiA7Q?authuser=0&hl=tr&rclk=1",
    "website_url": "",
    "rating_text": "3,7",
    "stars": null,
    "number_of_reviews": null,
    "price_level": "",
    "open_hours": "",
    "extraction_timestamp": "2025-06-08T02:54:05.244Z",
    "source_name": "google",
    "source_query": "Irrigation Equipment",
    "source_country": "RU",
    "country": "Russia",
    "state": "Republic of Buryatia",
    "city": "Zarechnyy"
  },
  {
    "source_id": "ChIJA8p_fnnFr10R7KoCD_KRfnc",
    "name": "Aleks",
    "category": "Aleks",
    "formatted_address": "4,2(9)",
    "phone_number": "+73012660836",
    "source_url": "https://www.google.com/maps/place/Aleks/data=!4m7!3m6!1s0x5dafc5797e7fca03:0x777e91f20f02aaec!8m2!3d51.8318384!4d107.4802671!16s%2Fg%2F11gxrmm6p5!19sChIJA8p_fnnFr10R7KoCD_KRfnc?authuser=0&hl=tr&rclk=1",
    "website_url": "",
    "rating_text": "4,2",
    "stars": null,
    "number_of_reviews": null,
    "price_level": "",
    "open_hours": "",
    "extraction_timestamp": "2025-06-08T02:54:05.245Z",
    "source_name": "google",
    "source_query": "Irrigation Equipment",
    "source_country": "RU",
    "country": "Russia",
    "state": "Republic of Buryatia",
    "city": "Zarechnyy"
  },
  {
    "source_id": "ChIJbeXeJe7Er10RyFS5aFdjW0M",
    "name": "Terem",
    "category": "Terem",
    "formatted_address": "3,9(131)",
    "phone_number": "+73012244777",
    "source_url": "https://www.google.com/maps/place/Terem/data=!4m7!3m6!1s0x5dafc4ee25dee56d:0x435b635768b954c8!8m2!3d51.842689!4d107.5437725!16s%2Fg%2F11dyr9zmhx!19sChIJbeXeJe7Er10RyFS5aFdjW0M?authuser=0&hl=tr&rclk=1",
    "website_url": "",
    "rating_text": "3,9",
    "stars": null,
    "number_of_reviews": null,
    "price_level": "",
    "open_hours": "",
    "extraction_timestamp": "2025-06-08T02:54:05.246Z",
    "source_name": "google",
    "source_query": "Irrigation Equipment",
    "source_country": "RU",
    "country": "Russia",
    "state": "Republic of Buryatia",
    "city": "Zarechnyy"
  },
  {
    "source_id": "ChIJUy3Zz3_Dr10R9XG5WsowahE",
    "name": "Kopeyechka",
    "category": "Kopeyechka",
    "formatted_address": "3,8(266)",
    "phone_number": "",
    "source_url": "https://www.google.com/maps/place/Kopeyechka/data=!4m7!3m6!1s0x5dafc37fcfd92d53:0x116a30ca5ab971f5!8m2!3d51.8176338!4d107.5137953!16s%2Fg%2F1yfj4q_17!19sChIJUy3Zz3_Dr10R9XG5WsowahE?authuser=0&hl=tr&rclk=1",
    "website_url": "",
    "rating_text": "3,8",
    "stars": null,
    "number_of_reviews": null,
    "price_level": "",
    "open_hours": "",
    "extraction_timestamp": "2025-06-08T02:54:05.246Z",
    "source_name": "google",
    "source_query": "Irrigation Equipment",
    "source_country": "RU",
    "country": "Russia",
    "state": "Republic of Buryatia",
    "city": "Zarechnyy"
  }
]
