[
  {
    "source_id": "ChIJ6_q5mYujakARHImBZS4MM5U",
    "name": "Aqua Master",
    "category": "Aqua Master",
    "formatted_address": "5,0(3)",
    "phone_number": "+37443826682",
    "source_url": "https://www.google.com/maps/place/Aqua+Master/data=!4m7!3m6!1s0x406aa38b99b9faeb:0x95330c2e6581891c!8m2!3d40.2408716!4d44.5710315!16s%2Fg%2F11l6mbhtpr!19sChIJ6_q5mYujakARHImBZS4MM5U?authuser=0&hl=tr&rclk=1",
    "website_url": "https://www.irrigation.am/",
    "rating_text": "5,0",
    "stars": null,
    "number_of_reviews": null,
    "price_level": "",
    "open_hours": "",
    "extraction_timestamp": "2025-06-07T15:06:48.443Z",
    "source_name": "google",
    "source_query": "Irrigation Equipment",
    "source_country": "AM",
    "country": "Armenia",
    "state": "Vayots Dzor Region",
    "city": "Shatin"
  },
  {
    "source_id": "ChIJ02H1fJm8akARGkCR2BU48us",
    "name": "Iratek LLC",
    "category": "Iratek LLC",
    "formatted_address": "4,7(3)",
    "phone_number": "+37433646646",
    "source_url": "https://www.google.com/maps/place/Iratek+LLC/data=!4m7!3m6!1s0x406abc997cf561d3:0xebf23815d891401a!8m2!3d40.1702145!4d44.5495049!16s%2Fg%2F11b7c2xs5d!19sChIJ02H1fJm8akARGkCR2BU48us?authuser=0&hl=tr&rclk=1",
    "website_url": "http://www.iratek.am/",
    "rating_text": "4,7",
    "stars": null,
    "number_of_reviews": null,
    "price_level": "",
    "open_hours": "",
    "extraction_timestamp": "2025-06-07T15:06:48.448Z",
    "source_name": "google",
    "source_query": "Irrigation Equipment",
    "source_country": "AM",
    "country": "Armenia",
    "state": "Vayots Dzor Region",
    "city": "Shatin"
  },
  {
    "source_id": "ChIJSehc_K69akAR5hWXcDHb1G0",
    "name": "IRRRISAL Irrigation systems",
    "category": "IRRRISAL Irrigation systems",
    "formatted_address": "Sulama Ekipmanları Tedarikçisi · 210/1 Arshakunyats AveKapalı ⋅ Açılış zamanı: Paz 10:00 · +374 99 000559",
    "phone_number": "+37499000559",
    "source_url": "https://www.google.com/maps/place/IRRRISAL+Irrigation+systems/data=!4m7!3m6!1s0x406abdaefc5ce849:0x6dd4db31709715e6!8m2!3d40.1428036!4d44.4957727!16s%2Fg%2F11jgmv2bl9!19sChIJSehc_K69akAR5hWXcDHb1G0?authuser=0&hl=tr&rclk=1",
    "website_url": "",
    "rating_text": "",
    "stars": null,
    "number_of_reviews": null,
    "price_level": "",
    "open_hours": "",
    "extraction_timestamp": "2025-06-07T15:06:48.451Z",
    "source_name": "google",
    "source_query": "Irrigation Equipment",
    "source_country": "AM",
    "country": "Armenia",
    "state": "Vayots Dzor Region",
    "city": "Shatin"
  },
  {
    "source_id": "ChIJ6_q5mYujakARHImBZS4MM5U",
    "name": "Aqua Master",
    "category": "Aqua Master",
    "formatted_address": "5,0(3)",
    "phone_number": "+37443826682",
    "source_url": "https://www.google.com/maps/place/Aqua+Master/data=!4m7!3m6!1s0x406aa38b99b9faeb:0x95330c2e6581891c!8m2!3d40.2408716!4d44.5710315!16s%2Fg%2F11l6mbhtpr!19sChIJ6_q5mYujakARHImBZS4MM5U?authuser=0&hl=tr&rclk=1",
    "website_url": "https://www.irrigation.am/",
    "rating_text": "5,0",
    "stars": null,
    "number_of_reviews": null,
    "price_level": "",
    "open_hours": "",
    "extraction_timestamp": "2025-06-07T15:06:56.925Z",
    "source_name": "google",
    "source_query": "Irrigation Equipment",
    "source_country": "AM",
    "country": "Armenia",
    "state": "Vayots Dzor Region",
    "city": "Gladzor"
  },
  {
    "source_id": "ChIJ02H1fJm8akARGkCR2BU48us",
    "name": "Iratek LLC",
    "category": "Iratek LLC",
    "formatted_address": "4,7(3)",
    "phone_number": "+37433646646",
    "source_url": "https://www.google.com/maps/place/Iratek+LLC/data=!4m7!3m6!1s0x406abc997cf561d3:0xebf23815d891401a!8m2!3d40.1702145!4d44.5495049!16s%2Fg%2F11b7c2xs5d!19sChIJ02H1fJm8akARGkCR2BU48us?authuser=0&hl=tr&rclk=1",
    "website_url": "http://www.iratek.am/",
    "rating_text": "4,7",
    "stars": null,
    "number_of_reviews": null,
    "price_level": "",
    "open_hours": "",
    "extraction_timestamp": "2025-06-07T15:06:56.926Z",
    "source_name": "google",
    "source_query": "Irrigation Equipment",
    "source_country": "AM",
    "country": "Armenia",
    "state": "Vayots Dzor Region",
    "city": "Gladzor"
  },
  {
    "source_id": "ChIJG3rqlb1xFUARjO8qinVgkYI",
    "name": "Сельпо",
    "category": "Сельпо",
    "formatted_address": "5,0(2)",
    "phone_number": "",
    "source_url": "https://www.google.com/maps/place/%D0%A1%D0%B5%D0%BB%D1%8C%D0%BF%D0%BE/data=!4m7!3m6!1s0x401571bd95ea7a1b:0x829160758a2aef8c!8m2!3d39.7705122!4d45.3353842!16s%2Fg%2F11q3__3ltz!19sChIJG3rqlb1xFUARjO8qinVgkYI?authuser=0&hl=tr&rclk=1",
    "website_url": "",
    "rating_text": "5,0",
    "stars": null,
    "number_of_reviews": null,
    "price_level": "",
    "open_hours": "",
    "extraction_timestamp": "2025-06-07T15:06:56.926Z",
    "source_name": "google",
    "source_query": "Irrigation Equipment",
    "source_country": "AM",
    "country": "Armenia",
    "state": "Vayots Dzor Region",
    "city": "Gladzor"
  },
  {
    "source_id": "ChIJjQJDJxlxFUARm8kmTUwdFc8",
    "name": "Vachik-jan Market | Магазин Продуктов",
    "category": "Vachik-jan Market | Магазин Продуктов",
    "formatted_address": "5,0(3)",
    "phone_number": "+37494343132",
    "source_url": "https://www.google.com/maps/place/Vachik-jan+Market+%7C+%D0%9C%D0%B0%D0%B3%D0%B0%D0%B7%D0%B8%D0%BD+%D0%9F%D1%80%D0%BE%D0%B4%D1%83%D0%BA%D1%82%D0%BE%D0%B2/data=!4m7!3m6!1s0x401571192743028d:0xcf151d4c4d26c99b!8m2!3d39.7721702!4d45.3293022!16s%2Fg%2F11jyqkk8zl!19sChIJjQJDJxlxFUARm8kmTUwdFc8?authuser=0&hl=tr&rclk=1",
    "website_url": "",
    "rating_text": "5,0",
    "stars": null,
    "number_of_reviews": null,
    "price_level": "",
    "open_hours": "",
    "extraction_timestamp": "2025-06-07T15:06:56.927Z",
    "source_name": "google",
    "source_query": "Irrigation Equipment",
    "source_country": "AM",
    "country": "Armenia",
    "state": "Vayots Dzor Region",
    "city": "Gladzor"
  },
  {
    "source_id": "ChIJSehc_K69akAR5hWXcDHb1G0",
    "name": "IRRRISAL Irrigation systems",
    "category": "IRRRISAL Irrigation systems",
    "formatted_address": "Sulama Ekipmanları Tedarikçisi · 210/1 Arshakunyats AveKapalı ⋅ Açılış zamanı: Paz 10:00 · +374 99 000559",
    "phone_number": "+37499000559",
    "source_url": "https://www.google.com/maps/place/IRRRISAL+Irrigation+systems/data=!4m7!3m6!1s0x406abdaefc5ce849:0x6dd4db31709715e6!8m2!3d40.1428036!4d44.4957727!16s%2Fg%2F11jgmv2bl9!19sChIJSehc_K69akAR5hWXcDHb1G0?authuser=0&hl=tr&rclk=1",
    "website_url": "",
    "rating_text": "",
    "stars": null,
    "number_of_reviews": null,
    "price_level": "",
    "open_hours": "",
    "extraction_timestamp": "2025-06-07T15:06:56.928Z",
    "source_name": "google",
    "source_query": "Irrigation Equipment",
    "source_country": "AM",
    "country": "Armenia",
    "state": "Vayots Dzor Region",
    "city": "Gladzor"
  },
  {
    "source_id": "ChIJ6_q5mYujakARHImBZS4MM5U",
    "name": "Aqua Master",
    "category": "Aqua Master",
    "formatted_address": "5,0(3)",
    "phone_number": "+37443826682",
    "source_url": "https://www.google.com/maps/place/Aqua+Master/data=!4m7!3m6!1s0x406aa38b99b9faeb:0x95330c2e6581891c!8m2!3d40.2408716!4d44.5710315!16s%2Fg%2F11l6mbhtpr!19sChIJ6_q5mYujakARHImBZS4MM5U?authuser=0&hl=tr&rclk=1",
    "website_url": "https://www.irrigation.am/",
    "rating_text": "5,0",
    "stars": null,
    "number_of_reviews": null,
    "price_level": "",
    "open_hours": "",
    "extraction_timestamp": "2025-06-07T15:07:05.300Z",
    "source_name": "google",
    "source_query": "Irrigation Equipment",
    "source_country": "AM",
    "country": "Armenia",
    "state": "Vayots Dzor Region",
    "city": "Agarakadzor"
  },
  {
    "source_id": "ChIJ02H1fJm8akARGkCR2BU48us",
    "name": "Iratek LLC",
    "category": "Iratek LLC",
    "formatted_address": "4,7(3)",
    "phone_number": "+37433646646",
    "source_url": "https://www.google.com/maps/place/Iratek+LLC/data=!4m7!3m6!1s0x406abc997cf561d3:0xebf23815d891401a!8m2!3d40.1702145!4d44.5495049!16s%2Fg%2F11b7c2xs5d!19sChIJ02H1fJm8akARGkCR2BU48us?authuser=0&hl=tr&rclk=1",
    "website_url": "http://www.iratek.am/",
    "rating_text": "4,7",
    "stars": null,
    "number_of_reviews": null,
    "price_level": "",
    "open_hours": "",
    "extraction_timestamp": "2025-06-07T15:07:05.301Z",
    "source_name": "google",
    "source_query": "Irrigation Equipment",
    "source_country": "AM",
    "country": "Armenia",
    "state": "Vayots Dzor Region",
    "city": "Agarakadzor"
  },
  {
    "source_id": "ChIJSehc_K69akAR5hWXcDHb1G0",
    "name": "IRRRISAL Irrigation systems",
    "category": "IRRRISAL Irrigation systems",
    "formatted_address": "Sulama Ekipmanları Tedarikçisi · 210/1 Arshakunyats AveKapalı ⋅ Açılış zamanı: Paz 10:00 · +374 99 000559",
    "phone_number": "+37499000559",
    "source_url": "https://www.google.com/maps/place/IRRRISAL+Irrigation+systems/data=!4m7!3m6!1s0x406abdaefc5ce849:0x6dd4db31709715e6!8m2!3d40.1428036!4d44.4957727!16s%2Fg%2F11jgmv2bl9!19sChIJSehc_K69akAR5hWXcDHb1G0?authuser=0&hl=tr&rclk=1",
    "website_url": "",
    "rating_text": "",
    "stars": null,
    "number_of_reviews": null,
    "price_level": "",
    "open_hours": "",
    "extraction_timestamp": "2025-06-07T15:07:05.301Z",
    "source_name": "google",
    "source_query": "Irrigation Equipment",
    "source_country": "AM",
    "country": "Armenia",
    "state": "Vayots Dzor Region",
    "city": "Agarakadzor"
  },
  {
    "source_id": "ChIJ6_q5mYujakARHImBZS4MM5U",
    "name": "Aqua Master",
    "category": "Aqua Master",
    "formatted_address": "5,0(3)",
    "phone_number": "+37443826682",
    "source_url": "https://www.google.com/maps/place/Aqua+Master/data=!4m7!3m6!1s0x406aa38b99b9faeb:0x95330c2e6581891c!8m2!3d40.2408716!4d44.5710315!16s%2Fg%2F11l6mbhtpr!19sChIJ6_q5mYujakARHImBZS4MM5U?authuser=0&hl=tr&rclk=1",
    "website_url": "https://www.irrigation.am/",
    "rating_text": "5,0",
    "stars": null,
    "number_of_reviews": null,
    "price_level": "",
    "open_hours": "",
    "extraction_timestamp": "2025-06-07T15:07:13.849Z",
    "source_name": "google",
    "source_query": "Irrigation Equipment",
    "source_country": "AM",
    "country": "Armenia",
    "state": "Vayots Dzor Region",
    "city": "Vernashen"
  },
  {
    "source_id": "ChIJ02H1fJm8akARGkCR2BU48us",
    "name": "Iratek LLC",
    "category": "Iratek LLC",
    "formatted_address": "4,7(3)",
    "phone_number": "+37433646646",
    "source_url": "https://www.google.com/maps/place/Iratek+LLC/data=!4m7!3m6!1s0x406abc997cf561d3:0xebf23815d891401a!8m2!3d40.1702145!4d44.5495049!16s%2Fg%2F11b7c2xs5d!19sChIJ02H1fJm8akARGkCR2BU48us?authuser=0&hl=tr&rclk=1",
    "website_url": "http://www.iratek.am/",
    "rating_text": "4,7",
    "stars": null,
    "number_of_reviews": null,
    "price_level": "",
    "open_hours": "",
    "extraction_timestamp": "2025-06-07T15:07:13.852Z",
    "source_name": "google",
    "source_query": "Irrigation Equipment",
    "source_country": "AM",
    "country": "Armenia",
    "state": "Vayots Dzor Region",
    "city": "Vernashen"
  },
  {
    "source_id": "ChIJSehc_K69akAR5hWXcDHb1G0",
    "name": "IRRRISAL Irrigation systems",
    "category": "IRRRISAL Irrigation systems",
    "formatted_address": "Sulama Ekipmanları Tedarikçisi · 210/1 Arshakunyats AveKapalı ⋅ Açılış zamanı: Paz 10:00 · +374 99 000559",
    "phone_number": "+37499000559",
    "source_url": "https://www.google.com/maps/place/IRRRISAL+Irrigation+systems/data=!4m7!3m6!1s0x406abdaefc5ce849:0x6dd4db31709715e6!8m2!3d40.1428036!4d44.4957727!16s%2Fg%2F11jgmv2bl9!19sChIJSehc_K69akAR5hWXcDHb1G0?authuser=0&hl=tr&rclk=1",
    "website_url": "",
    "rating_text": "",
    "stars": null,
    "number_of_reviews": null,
    "price_level": "",
    "open_hours": "",
    "extraction_timestamp": "2025-06-07T15:07:13.854Z",
    "source_name": "google",
    "source_query": "Irrigation Equipment",
    "source_country": "AM",
    "country": "Armenia",
    "state": "Vayots Dzor Region",
    "city": "Vernashen"
  },
  {
    "source_id": "ChIJ02H1fJm8akARGkCR2BU48us",
    "name": "Iratek LLC",
    "category": "Iratek LLC",
    "formatted_address": "4,7(3)",
    "phone_number": "+37433646646",
    "source_url": "https://www.google.com/maps/place/Iratek+LLC/data=!4m7!3m6!1s0x406abc997cf561d3:0xebf23815d891401a!8m2!3d40.1702145!4d44.5495049!16s%2Fg%2F11b7c2xs5d!19sChIJ02H1fJm8akARGkCR2BU48us?authuser=0&hl=tr&rclk=1",
    "website_url": "http://www.iratek.am/",
    "rating_text": "4,7",
    "stars": null,
    "number_of_reviews": null,
    "price_level": "",
    "open_hours": "",
    "extraction_timestamp": "2025-06-07T15:07:22.350Z",
    "source_name": "google",
    "source_query": "Irrigation Equipment",
    "source_country": "AM",
    "country": "Armenia",
    "state": "Vayots Dzor Region",
    "city": "Rrind"
  },
  {
    "source_id": "ChIJ6_q5mYujakARHImBZS4MM5U",
    "name": "Aqua Master",
    "category": "Aqua Master",
    "formatted_address": "5,0(3)",
    "phone_number": "+37443826682",
    "source_url": "https://www.google.com/maps/place/Aqua+Master/data=!4m7!3m6!1s0x406aa38b99b9faeb:0x95330c2e6581891c!8m2!3d40.2408716!4d44.5710315!16s%2Fg%2F11l6mbhtpr!19sChIJ6_q5mYujakARHImBZS4MM5U?authuser=0&hl=tr&rclk=1",
    "website_url": "https://www.irrigation.am/",
    "rating_text": "5,0",
    "stars": null,
    "number_of_reviews": null,
    "price_level": "",
    "open_hours": "",
    "extraction_timestamp": "2025-06-07T15:07:22.351Z",
    "source_name": "google",
    "source_query": "Irrigation Equipment",
    "source_country": "AM",
    "country": "Armenia",
    "state": "Vayots Dzor Region",
    "city": "Rrind"
  },
  {
    "source_id": "ChIJSehc_K69akAR5hWXcDHb1G0",
    "name": "IRRRISAL Irrigation systems",
    "category": "IRRRISAL Irrigation systems",
    "formatted_address": "Sulama Ekipmanları Tedarikçisi · 210/1 Arshakunyats AveKapalı ⋅ Açılış zamanı: Paz 10:00 · +374 99 000559",
    "phone_number": "+37499000559",
    "source_url": "https://www.google.com/maps/place/IRRRISAL+Irrigation+systems/data=!4m7!3m6!1s0x406abdaefc5ce849:0x6dd4db31709715e6!8m2!3d40.1428036!4d44.4957727!16s%2Fg%2F11jgmv2bl9!19sChIJSehc_K69akAR5hWXcDHb1G0?authuser=0&hl=tr&rclk=1",
    "website_url": "",
    "rating_text": "",
    "stars": null,
    "number_of_reviews": null,
    "price_level": "",
    "open_hours": "",
    "extraction_timestamp": "2025-06-07T15:07:22.352Z",
    "source_name": "google",
    "source_query": "Irrigation Equipment",
    "source_country": "AM",
    "country": "Armenia",
    "state": "Vayots Dzor Region",
    "city": "Rrind"
  },
  {
    "source_id": "ChIJpSuXbBDVP0ARvSDh4cSYw44",
    "name": "Jermuk Group CJSC",
    "category": "Jermuk Group CJSC",
    "formatted_address": "4,9(10)",
    "phone_number": "",
    "source_url": "https://www.google.com/maps/place/Jermuk+Group+CJSC/data=!4m7!3m6!1s0x403fd5106c972ba5:0x8ec398c4e1e120bd!8m2!3d39.8391022!4d45.6631989!16s%2Fg%2F1tgj79qq!19sChIJpSuXbBDVP0ARvSDh4cSYw44?authuser=0&hl=tr&rclk=1",
    "website_url": "",
    "rating_text": "4,9",
    "stars": null,
    "number_of_reviews": null,
    "price_level": "",
    "open_hours": "",
    "extraction_timestamp": "2025-06-07T15:07:30.898Z",
    "source_name": "google",
    "source_query": "Irrigation Equipment",
    "source_country": "AM",
    "country": "Armenia",
    "state": "Vayots Dzor Region",
    "city": "Jermuk"
  },
  {
    "source_id": "ChIJoZEF5RXVP0ARB0N7Ji5N6Yc",
    "name": "Jermuk Hotel",
    "category": "Jermuk Hotel",
    "formatted_address": "4,7(190)",
    "phone_number": "+37460441144",
    "source_url": "https://www.google.com/maps/place/Jermuk+Hotel/data=!4m10!3m9!1s0x403fd515e50591a1:0x87e94d2e267b4307!5m2!4m1!1i2!8m2!3d39.8328141!4d45.666818!16s%2Fg%2F1tg66l3l!19sChIJoZEF5RXVP0ARB0N7Ji5N6Yc?authuser=0&hl=tr&rclk=1",
    "website_url": "http://jermukhotel.am/",
    "rating_text": "4,7",
    "stars": null,
    "number_of_reviews": null,
    "price_level": "",
    "open_hours": "",
    "extraction_timestamp": "2025-06-07T15:07:30.899Z",
    "source_name": "google",
    "source_query": "Irrigation Equipment",
    "source_country": "AM",
    "country": "Armenia",
    "state": "Vayots Dzor Region",
    "city": "Jermuk"
  },
  {
    "source_id": "ChIJ7e0RnRDVP0AR12HVT9HS34E",
    "name": "Dolphin Lake",
    "category": "Dolphin Lake",
    "formatted_address": "5,0(6)",
    "phone_number": "",
    "source_url": "https://www.google.com/maps/place/Dolphin+Lake/data=!4m7!3m6!1s0x403fd5109d11eded:0x81dfd2d14fd561d7!8m2!3d39.8385238!4d45.6659406!16s%2Fg%2F1tdcvlff!19sChIJ7e0RnRDVP0AR12HVT9HS34E?authuser=0&hl=tr&rclk=1",
    "website_url": "",
    "rating_text": "5,0",
    "stars": null,
    "number_of_reviews": null,
    "price_level": "",
    "open_hours": "",
    "extraction_timestamp": "2025-06-07T15:07:30.899Z",
    "source_name": "google",
    "source_query": "Irrigation Equipment",
    "source_country": "AM",
    "country": "Armenia",
    "state": "Vayots Dzor Region",
    "city": "Jermuk"
  },
  {
    "source_id": "ChIJ6_q5mYujakARHImBZS4MM5U",
    "name": "Aqua Master",
    "category": "Aqua Master",
    "formatted_address": "5,0(3)",
    "phone_number": "+37443826682",
    "source_url": "https://www.google.com/maps/place/Aqua+Master/data=!4m7!3m6!1s0x406aa38b99b9faeb:0x95330c2e6581891c!8m2!3d40.2408716!4d44.5710315!16s%2Fg%2F11l6mbhtpr!19sChIJ6_q5mYujakARHImBZS4MM5U?authuser=0&hl=tr&rclk=1",
    "website_url": "https://www.irrigation.am/",
    "rating_text": "5,0",
    "stars": null,
    "number_of_reviews": null,
    "price_level": "",
    "open_hours": "",
    "extraction_timestamp": "2025-06-07T15:07:30.899Z",
    "source_name": "google",
    "source_query": "Irrigation Equipment",
    "source_country": "AM",
    "country": "Armenia",
    "state": "Vayots Dzor Region",
    "city": "Jermuk"
  },
  {
    "source_id": "ChIJz2PxrY7VP0ARbhtjvydOlOU",
    "name": "Магазин продуктов",
    "category": "Магазин продуктов",
    "formatted_address": "5,0(1)",
    "phone_number": "",
    "source_url": "https://www.google.com/maps/place/%D0%9C%D0%B0%D0%B3%D0%B0%D0%B7%D0%B8%D0%BD+%D0%BF%D1%80%D0%BE%D0%B4%D1%83%D0%BA%D1%82%D0%BE%D0%B2/data=!4m7!3m6!1s0x403fd58eadf163cf:0xe5944e27bf631b6e!8m2!3d39.8433039!4d45.6770999!16s%2Fg%2F11ss6tj690!19sChIJz2PxrY7VP0ARbhtjvydOlOU?authuser=0&hl=tr&rclk=1",
    "website_url": "",
    "rating_text": "5,0",
    "stars": null,
    "number_of_reviews": null,
    "price_level": "",
    "open_hours": "",
    "extraction_timestamp": "2025-06-07T15:07:30.900Z",
    "source_name": "google",
    "source_query": "Irrigation Equipment",
    "source_country": "AM",
    "country": "Armenia",
    "state": "Vayots Dzor Region",
    "city": "Jermuk"
  },
  {
    "source_id": "ChIJ02H1fJm8akARGkCR2BU48us",
    "name": "Iratek LLC",
    "category": "Iratek LLC",
    "formatted_address": "4,7(3)",
    "phone_number": "+37433646646",
    "source_url": "https://www.google.com/maps/place/Iratek+LLC/data=!4m7!3m6!1s0x406abc997cf561d3:0xebf23815d891401a!8m2!3d40.1702145!4d44.5495049!16s%2Fg%2F11b7c2xs5d!19sChIJ02H1fJm8akARGkCR2BU48us?authuser=0&hl=tr&rclk=1",
    "website_url": "http://www.iratek.am/",
    "rating_text": "4,7",
    "stars": null,
    "number_of_reviews": null,
    "price_level": "",
    "open_hours": "",
    "extraction_timestamp": "2025-06-07T15:07:30.901Z",
    "source_name": "google",
    "source_query": "Irrigation Equipment",
    "source_country": "AM",
    "country": "Armenia",
    "state": "Vayots Dzor Region",
    "city": "Jermuk"
  },
  {
    "source_id": "ChIJmXihRQDVP0AR_7FE6Nv-QTg",
    "name": "Ախպերների խանութ",
    "category": "Ախպերների խանութ",
    "formatted_address": "Bakkal · RMP8+F7P, Shahumyan StreetAçık ⋅ Kapanış saati: 23:00",
    "phone_number": "",
    "source_url": "https://www.google.com/maps/place/%D4%B1%D5%AD%D5%BA%D5%A5%D6%80%D5%B6%D5%A5%D6%80%D5%AB+%D5%AD%D5%A1%D5%B6%D5%B8%D6%82%D5%A9/data=!4m7!3m6!1s0x403fd50045a17899:0x3841fedbe844b1ff!8m2!3d39.8362208!4d45.6656937!16s%2Fg%2F11vxspsfjp!19sChIJmXihRQDVP0AR_7FE6Nv-QTg?authuser=0&hl=tr&rclk=1",
    "website_url": "",
    "rating_text": "",
    "stars": null,
    "number_of_reviews": null,
    "price_level": "",
    "open_hours": "",
    "extraction_timestamp": "2025-06-07T15:07:30.901Z",
    "source_name": "google",
    "source_query": "Irrigation Equipment",
    "source_country": "AM",
    "country": "Armenia",
    "state": "Vayots Dzor Region",
    "city": "Jermuk"
  },
  {
    "source_id": "ChIJ6_q5mYujakARHImBZS4MM5U",
    "name": "Aqua Master",
    "category": "Aqua Master",
    "formatted_address": "5,0(3)",
    "phone_number": "",
    "source_url": "https://www.google.com/maps/place/Aqua+Master/data=!4m7!3m6!1s0x406aa38b99b9faeb:0x95330c2e6581891c!8m2!3d40.2408716!4d44.5710315!16s%2Fg%2F11l6mbhtpr!19sChIJ6_q5mYujakARHImBZS4MM5U?authuser=0&hl=tr&rclk=1",
    "website_url": "",
    "rating_text": "5,0",
    "stars": null,
    "number_of_reviews": null,
    "price_level": "",
    "open_hours": "",
    "extraction_timestamp": "2025-06-07T15:07:39.511Z",
    "source_name": "google",
    "source_query": "Irrigation Equipment",
    "source_country": "AM",
    "country": "Armenia",
    "state": "Vayots Dzor Region",
    "city": "Getap’"
  },
  {
    "source_id": "ChIJ02H1fJm8akARGkCR2BU48us",
    "name": "Iratek LLC",
    "category": "Iratek LLC",
    "formatted_address": "4,7(3)",
    "phone_number": "",
    "source_url": "https://www.google.com/maps/place/Iratek+LLC/data=!4m7!3m6!1s0x406abc997cf561d3:0xebf23815d891401a!8m2!3d40.1702145!4d44.5495049!16s%2Fg%2F11b7c2xs5d!19sChIJ02H1fJm8akARGkCR2BU48us?authuser=0&hl=tr&rclk=1",
    "website_url": "",
    "rating_text": "4,7",
    "stars": null,
    "number_of_reviews": null,
    "price_level": "",
    "open_hours": "",
    "extraction_timestamp": "2025-06-07T15:07:39.511Z",
    "source_name": "google",
    "source_query": "Irrigation Equipment",
    "source_country": "AM",
    "country": "Armenia",
    "state": "Vayots Dzor Region",
    "city": "Getap’"
  },
  {
    "source_id": "ChIJrWII9PFxFUARHzfSCBy7lCo",
    "name": "Gevorg Shop Khanut",
    "category": "Gevorg Shop Khanut",
    "formatted_address": "5,0(3)",
    "phone_number": "",
    "source_url": "https://www.google.com/maps/place/Gevorg+Shop+Khanut/data=!4m7!3m6!1s0x401571f1f40862ad:0x2a94bb1c08d2371f!8m2!3d39.7567946!4d45.3112596!16s%2Fg%2F11gvzdv1dp!19sChIJrWII9PFxFUARHzfSCBy7lCo?authuser=0&hl=tr&rclk=1",
    "website_url": "",
    "rating_text": "5,0",
    "stars": null,
    "number_of_reviews": null,
    "price_level": "",
    "open_hours": "",
    "extraction_timestamp": "2025-06-07T15:07:39.513Z",
    "source_name": "google",
    "source_query": "Irrigation Equipment",
    "source_country": "AM",
    "country": "Armenia",
    "state": "Vayots Dzor Region",
    "city": "Getap’"
  },
  {
    "source_id": "ChIJSehc_K69akAR5hWXcDHb1G0",
    "name": "IRRRISAL Irrigation systems",
    "category": "IRRRISAL Irrigation systems",
    "formatted_address": "Sulama Ekipmanları Tedarikçisi · 210/1 Arshakunyats AveKapalı ⋅ Açılış zamanı: Paz 10:00",
    "phone_number": "",
    "source_url": "https://www.google.com/maps/place/IRRRISAL+Irrigation+systems/data=!4m7!3m6!1s0x406abdaefc5ce849:0x6dd4db31709715e6!8m2!3d40.1428036!4d44.4957727!16s%2Fg%2F11jgmv2bl9!19sChIJSehc_K69akAR5hWXcDHb1G0?authuser=0&hl=tr&rclk=1",
    "website_url": "",
    "rating_text": "",
    "stars": null,
    "number_of_reviews": null,
    "price_level": "",
    "open_hours": "",
    "extraction_timestamp": "2025-06-07T15:07:39.514Z",
    "source_name": "google",
    "source_query": "Irrigation Equipment",
    "source_country": "AM",
    "country": "Armenia",
    "state": "Vayots Dzor Region",
    "city": "Getap’"
  },
  {
    "source_id": "ChIJ1ZycGBOjakARqQ-pKik3MzE",
    "name": "Agrotech LLC",
    "category": "Agrotech LLC",
    "formatted_address": "4,0(2)",
    "phone_number": "",
    "source_url": "https://www.google.com/maps/place/Agrotech+LLC/data=!4m7!3m6!1s0x406aa313189c9cd5:0x313337292aa90fa9!8m2!3d40.2579135!4d44.6239412!16s%2Fg%2F11gtzc4byt!19sChIJ1ZycGBOjakARqQ-pKik3MzE?authuser=0&hl=tr&rclk=1",
    "website_url": "",
    "rating_text": "4,0",
    "stars": null,
    "number_of_reviews": null,
    "price_level": "",
    "open_hours": "",
    "extraction_timestamp": "2025-06-07T15:07:39.516Z",
    "source_name": "google",
    "source_query": "Irrigation Equipment",
    "source_country": "AM",
    "country": "Armenia",
    "state": "Vayots Dzor Region",
    "city": "Getap’"
  },
  {
    "source_id": "ChIJVVXl4PS8akARiI91mzdLyCI",
    "name": "AQUA Systems Armenia",
    "category": "AQUA Systems Armenia",
    "formatted_address": "3,9(16)",
    "phone_number": "",
    "source_url": "https://www.google.com/maps/place/AQUA+Systems+Armenia/data=!4m7!3m6!1s0x406abcf4e0e55555:0x22c84b379b758f88!8m2!3d40.1711706!4d44.520994!16s%2Fg%2F11h84zy3x2!19sChIJVVXl4PS8akARiI91mzdLyCI?authuser=0&hl=tr&rclk=1",
    "website_url": "",
    "rating_text": "3,9",
    "stars": null,
    "number_of_reviews": null,
    "price_level": "",
    "open_hours": "",
    "extraction_timestamp": "2025-06-07T15:07:39.516Z",
    "source_name": "google",
    "source_query": "Irrigation Equipment",
    "source_country": "AM",
    "country": "Armenia",
    "state": "Vayots Dzor Region",
    "city": "Getap’"
  },
  {
    "source_id": "ChIJ02H1fJm8akARGkCR2BU48us",
    "name": "Iratek LLC",
    "category": "Iratek LLC",
    "formatted_address": "4,7(3)",
    "phone_number": "+37433646646",
    "source_url": "https://www.google.com/maps/place/Iratek+LLC/data=!4m7!3m6!1s0x406abc997cf561d3:0xebf23815d891401a!8m2!3d40.1702145!4d44.5495049!16s%2Fg%2F11b7c2xs5d!19sChIJ02H1fJm8akARGkCR2BU48us?authuser=0&hl=tr&rclk=1",
    "website_url": "http://www.iratek.am/",
    "rating_text": "4,7",
    "stars": null,
    "number_of_reviews": null,
    "price_level": "",
    "open_hours": "",
    "extraction_timestamp": "2025-06-07T15:07:47.861Z",
    "source_name": "google",
    "source_query": "Irrigation Equipment",
    "source_country": "AM",
    "country": "Armenia",
    "state": "Vayots Dzor Region",
    "city": "Yeghegis"
  },
  {
    "source_id": "ChIJSehc_K69akAR5hWXcDHb1G0",
    "name": "IRRRISAL Irrigation systems",
    "category": "IRRRISAL Irrigation systems",
    "formatted_address": "Sulama Ekipmanları Tedarikçisi · 210/1 Arshakunyats AveKapalı ⋅ Açılış zamanı: Paz 10:00 · +374 99 000559",
    "phone_number": "+37499000559",
    "source_url": "https://www.google.com/maps/place/IRRRISAL+Irrigation+systems/data=!4m7!3m6!1s0x406abdaefc5ce849:0x6dd4db31709715e6!8m2!3d40.1428036!4d44.4957727!16s%2Fg%2F11jgmv2bl9!19sChIJSehc_K69akAR5hWXcDHb1G0?authuser=0&hl=tr&rclk=1",
    "website_url": "",
    "rating_text": "",
    "stars": null,
    "number_of_reviews": null,
    "price_level": "",
    "open_hours": "",
    "extraction_timestamp": "2025-06-07T15:07:47.861Z",
    "source_name": "google",
    "source_query": "Irrigation Equipment",
    "source_country": "AM",
    "country": "Armenia",
    "state": "Vayots Dzor Region",
    "city": "Yeghegis"
  },
  {
    "source_id": "ChIJ6_q5mYujakARHImBZS4MM5U",
    "name": "Aqua Master",
    "category": "Aqua Master",
    "formatted_address": "5,0(3)",
    "phone_number": "+37443826682",
    "source_url": "https://www.google.com/maps/place/Aqua+Master/data=!4m7!3m6!1s0x406aa38b99b9faeb:0x95330c2e6581891c!8m2!3d40.2408716!4d44.5710315!16s%2Fg%2F11l6mbhtpr!19sChIJ6_q5mYujakARHImBZS4MM5U?authuser=0&hl=tr&rclk=1",
    "website_url": "",
    "rating_text": "5,0",
    "stars": null,
    "number_of_reviews": null,
    "price_level": "",
    "open_hours": "",
    "extraction_timestamp": "2025-06-07T15:07:56.574Z",
    "source_name": "google",
    "source_query": "Irrigation Equipment",
    "source_country": "AM",
    "country": "Armenia",
    "state": "Vayots Dzor Region",
    "city": "Yeghegnadzor"
  },
  {
    "source_id": "ChIJ02H1fJm8akARGkCR2BU48us",
    "name": "Iratek LLC",
    "category": "Iratek LLC",
    "formatted_address": "4,7(3)",
    "phone_number": "+37433646646",
    "source_url": "https://www.google.com/maps/place/Iratek+LLC/data=!4m7!3m6!1s0x406abc997cf561d3:0xebf23815d891401a!8m2!3d40.1702145!4d44.5495049!16s%2Fg%2F11b7c2xs5d!19sChIJ02H1fJm8akARGkCR2BU48us?authuser=0&hl=tr&rclk=1",
    "website_url": "",
    "rating_text": "4,7",
    "stars": null,
    "number_of_reviews": null,
    "price_level": "",
    "open_hours": "",
    "extraction_timestamp": "2025-06-07T15:07:56.575Z",
    "source_name": "google",
    "source_query": "Irrigation Equipment",
    "source_country": "AM",
    "country": "Armenia",
    "state": "Vayots Dzor Region",
    "city": "Yeghegnadzor"
  },
  {
    "source_id": "ChIJaXVMmxpxFUARRaxK9gHPywo",
    "name": "Պիցցա Եղեգնաձոր",
    "category": "Պիցցա Եղեգնաձոր",
    "formatted_address": "4,1(8)",
    "phone_number": "+37494770987",
    "source_url": "https://www.google.com/maps/place/%D5%8A%D5%AB%D6%81%D6%81%D5%A1+%D4%B5%D5%B2%D5%A5%D5%A3%D5%B6%D5%A1%D5%B1%D5%B8%D6%80/data=!4m7!3m6!1s0x4015711a9b4c7569:0xacbcf01f64aac45!8m2!3d39.7599667!4d45.33307!16s%2Fg%2F11g6hyw2j6!19sChIJaXVMmxpxFUARRaxK9gHPywo?authuser=0&hl=tr&rclk=1",
    "website_url": "",
    "rating_text": "4,1",
    "stars": null,
    "number_of_reviews": null,
    "price_level": "",
    "open_hours": "",
    "extraction_timestamp": "2025-06-07T15:07:56.575Z",
    "source_name": "google",
    "source_query": "Irrigation Equipment",
    "source_country": "AM",
    "country": "Armenia",
    "state": "Vayots Dzor Region",
    "city": "Yeghegnadzor"
  },
  {
    "source_id": "ChIJ5wfFrh5xFUAR4S_1P8RuwYw",
    "name": "ԲԻԳ ՓՐՈԴԱՔԹ ՍՊԸ",
    "category": "ԲԻԳ ՓՐՈԴԱՔԹ ՍՊԸ",
    "formatted_address": "",
    "phone_number": "+37455807002",
    "source_url": "https://www.google.com/maps/place/%D4%B2%D4%BB%D4%B3+%D5%93%D5%90%D5%88%D4%B4%D4%B1%D5%94%D4%B9+%D5%8D%D5%8A%D4%B8/data=!4m7!3m6!1s0x4015711eaec507e7:0x8cc16ec43ff52fe1!8m2!3d39.7598668!4d45.3304793!16s%2Fg%2F11x6c1dvdr!19sChIJ5wfFrh5xFUAR4S_1P8RuwYw?authuser=0&hl=tr&rclk=1",
    "website_url": "",
    "rating_text": "",
    "stars": null,
    "number_of_reviews": null,
    "price_level": "",
    "open_hours": "",
    "extraction_timestamp": "2025-06-07T15:07:56.576Z",
    "source_name": "google",
    "source_query": "Irrigation Equipment",
    "source_country": "AM",
    "country": "Armenia",
    "state": "Vayots Dzor Region",
    "city": "Yeghegnadzor"
  },
  {
    "source_id": "ChIJT5yVnBpxFUARgw06Kv3e39s",
    "name": "RIGHT MARKET",
    "category": "RIGHT MARKET",
    "formatted_address": "4,8(12)",
    "phone_number": "+37428161170",
    "source_url": "https://www.google.com/maps/place/RIGHT+MARKET/data=!4m7!3m6!1s0x4015711a9c959c4f:0xdbdfdefd2a3a0d83!8m2!3d39.7599375!4d45.3328702!16s%2Fg%2F11dx91y6_p!19sChIJT5yVnBpxFUARgw06Kv3e39s?authuser=0&hl=tr&rclk=1",
    "website_url": "",
    "rating_text": "4,8",
    "stars": null,
    "number_of_reviews": null,
    "price_level": "",
    "open_hours": "",
    "extraction_timestamp": "2025-06-07T15:07:56.576Z",
    "source_name": "google",
    "source_query": "Irrigation Equipment",
    "source_country": "AM",
    "country": "Armenia",
    "state": "Vayots Dzor Region",
    "city": "Yeghegnadzor"
  },
  {
    "source_id": "ChIJG3rqlb1xFUARjO8qinVgkYI",
    "name": "Сельпо",
    "category": "Сельпо",
    "formatted_address": "5,0(2)",
    "phone_number": "",
    "source_url": "https://www.google.com/maps/place/%D0%A1%D0%B5%D0%BB%D1%8C%D0%BF%D0%BE/data=!4m7!3m6!1s0x401571bd95ea7a1b:0x829160758a2aef8c!8m2!3d39.7705122!4d45.3353842!16s%2Fg%2F11q3__3ltz!19sChIJG3rqlb1xFUARjO8qinVgkYI?authuser=0&hl=tr&rclk=1",
    "website_url": "",
    "rating_text": "5,0",
    "stars": null,
    "number_of_reviews": null,
    "price_level": "",
    "open_hours": "",
    "extraction_timestamp": "2025-06-07T15:07:56.576Z",
    "source_name": "google",
    "source_query": "Irrigation Equipment",
    "source_country": "AM",
    "country": "Armenia",
    "state": "Vayots Dzor Region",
    "city": "Yeghegnadzor"
  },
  {
    "source_id": "ChIJjQJDJxlxFUARm8kmTUwdFc8",
    "name": "Vachik-jan Market | Магазин Продуктов",
    "category": "Vachik-jan Market | Магазин Продуктов",
    "formatted_address": "5,0(3)",
    "phone_number": "+37494343132",
    "source_url": "https://www.google.com/maps/place/Vachik-jan+Market+%7C+%D0%9C%D0%B0%D0%B3%D0%B0%D0%B7%D0%B8%D0%BD+%D0%9F%D1%80%D0%BE%D0%B4%D1%83%D0%BA%D1%82%D0%BE%D0%B2/data=!4m7!3m6!1s0x401571192743028d:0xcf151d4c4d26c99b!8m2!3d39.7721702!4d45.3293022!16s%2Fg%2F11jyqkk8zl!19sChIJjQJDJxlxFUARm8kmTUwdFc8?authuser=0&hl=tr&rclk=1",
    "website_url": "",
    "rating_text": "5,0",
    "stars": null,
    "number_of_reviews": null,
    "price_level": "",
    "open_hours": "",
    "extraction_timestamp": "2025-06-07T15:07:56.577Z",
    "source_name": "google",
    "source_query": "Irrigation Equipment",
    "source_country": "AM",
    "country": "Armenia",
    "state": "Vayots Dzor Region",
    "city": "Yeghegnadzor"
  },
  {
    "source_id": "ChIJf3FZCuJxFUARW9CJ6BQ289c",
    "name": "Noric Nor Minimarket",
    "category": "Noric Nor Minimarket",
    "formatted_address": "5,0(9)",
    "phone_number": "+37493575755",
    "source_url": "https://www.google.com/maps/place/Noric+Nor+Minimarket/data=!4m7!3m6!1s0x401571e20a59717f:0xd7f33614e889d05b!8m2!3d39.758621!4d45.3315079!16s%2Fg%2F11srgn0xx_!19sChIJf3FZCuJxFUARW9CJ6BQ289c?authuser=0&hl=tr&rclk=1",
    "website_url": "",
    "rating_text": "5,0",
    "stars": null,
    "number_of_reviews": null,
    "price_level": "",
    "open_hours": "",
    "extraction_timestamp": "2025-06-07T15:07:56.577Z",
    "source_name": "google",
    "source_query": "Irrigation Equipment",
    "source_country": "AM",
    "country": "Armenia",
    "state": "Vayots Dzor Region",
    "city": "Yeghegnadzor"
  },
  {
    "source_id": "ChIJo4I3OC9xFUARgZdpmPiLU1g",
    "name": "LILI Market",
    "category": "LILI Market",
    "formatted_address": "5,0(3)",
    "phone_number": "",
    "source_url": "https://www.google.com/maps/place/LILI+Market/data=!4m7!3m6!1s0x4015712f383782a3:0x58538bf898699781!8m2!3d39.7571294!4d45.3323532!16s%2Fg%2F11kqvwlcv3!19sChIJo4I3OC9xFUARgZdpmPiLU1g?authuser=0&hl=tr&rclk=1",
    "website_url": "",
    "rating_text": "5,0",
    "stars": null,
    "number_of_reviews": null,
    "price_level": "",
    "open_hours": "",
    "extraction_timestamp": "2025-06-07T15:07:56.577Z",
    "source_name": "google",
    "source_query": "Irrigation Equipment",
    "source_country": "AM",
    "country": "Armenia",
    "state": "Vayots Dzor Region",
    "city": "Yeghegnadzor"
  },
  {
    "source_id": "ChIJKQDQnBpxFUARZWN-mZAIL_A",
    "name": "Sevaki A4",
    "category": "Sevaki A4",
    "formatted_address": "Süpermarket · Q85M+W4M, Sevak StreetAçık ⋅ Kapanış saati: 23:00 · +374 281 61170",
    "phone_number": "+37428161170",
    "source_url": "https://www.google.com/maps/place/Sevaki+A4/data=!4m7!3m6!1s0x4015711a9cd00029:0xf02f0890997e6365!8m2!3d39.759831!4d45.332796!16s%2Fg%2F11c6qdwsr7!19sChIJKQDQnBpxFUARZWN-mZAIL_A?authuser=0&hl=tr&rclk=1",
    "website_url": "",
    "rating_text": "",
    "stars": null,
    "number_of_reviews": null,
    "price_level": "",
    "open_hours": "",
    "extraction_timestamp": "2025-06-07T15:07:56.578Z",
    "source_name": "google",
    "source_query": "Irrigation Equipment",
    "source_country": "AM",
    "country": "Armenia",
    "state": "Vayots Dzor Region",
    "city": "Yeghegnadzor"
  },
  {
    "source_id": "ChIJSehc_K69akAR5hWXcDHb1G0",
    "name": "IRRRISAL Irrigation systems",
    "category": "IRRRISAL Irrigation systems",
    "formatted_address": "Sulama Ekipmanları Tedarikçisi · 210/1 Arshakunyats AveKapalı ⋅ Açılış zamanı: Paz 10:00 · +374 99 000559",
    "phone_number": "+37499000559",
    "source_url": "https://www.google.com/maps/place/IRRRISAL+Irrigation+systems/data=!4m7!3m6!1s0x406abdaefc5ce849:0x6dd4db31709715e6!8m2!3d40.1428036!4d44.4957727!16s%2Fg%2F11jgmv2bl9!19sChIJSehc_K69akAR5hWXcDHb1G0?authuser=0&hl=tr&rclk=1",
    "website_url": "",
    "rating_text": "",
    "stars": null,
    "number_of_reviews": null,
    "price_level": "",
    "open_hours": "",
    "extraction_timestamp": "2025-06-07T15:07:56.578Z",
    "source_name": "google",
    "source_query": "Irrigation Equipment",
    "source_country": "AM",
    "country": "Armenia",
    "state": "Vayots Dzor Region",
    "city": "Yeghegnadzor"
  },
  {
    "source_id": "ChIJ6_q5mYujakARHImBZS4MM5U",
    "name": "Aqua Master",
    "category": "Aqua Master",
    "formatted_address": "5,0(3)",
    "phone_number": "+37443826682",
    "source_url": "https://www.google.com/maps/place/Aqua+Master/data=!4m7!3m6!1s0x406aa38b99b9faeb:0x95330c2e6581891c!8m2!3d40.2408716!4d44.5710315!16s%2Fg%2F11l6mbhtpr!19sChIJ6_q5mYujakARHImBZS4MM5U?authuser=0&hl=tr&rclk=1",
    "website_url": "",
    "rating_text": "5,0",
    "stars": null,
    "number_of_reviews": null,
    "price_level": "",
    "open_hours": "",
    "extraction_timestamp": "2025-06-07T15:08:05.176Z",
    "source_name": "google",
    "source_query": "Irrigation Equipment",
    "source_country": "AM",
    "country": "Armenia",
    "state": "Vayots Dzor Region",
    "city": "Vayk’"
  },
  {
    "source_id": "ChIJ02H1fJm8akARGkCR2BU48us",
    "name": "Iratek LLC",
    "category": "Iratek LLC",
    "formatted_address": "4,7(3)",
    "phone_number": "+37433646646",
    "source_url": "https://www.google.com/maps/place/Iratek+LLC/data=!4m7!3m6!1s0x406abc997cf561d3:0xebf23815d891401a!8m2!3d40.1702145!4d44.5495049!16s%2Fg%2F11b7c2xs5d!19sChIJ02H1fJm8akARGkCR2BU48us?authuser=0&hl=tr&rclk=1",
    "website_url": "",
    "rating_text": "4,7",
    "stars": null,
    "number_of_reviews": null,
    "price_level": "",
    "open_hours": "",
    "extraction_timestamp": "2025-06-07T15:08:05.181Z",
    "source_name": "google",
    "source_query": "Irrigation Equipment",
    "source_country": "AM",
    "country": "Armenia",
    "state": "Vayots Dzor Region",
    "city": "Vayk’"
  },
  {
    "source_id": "ChIJK-VcILudFUAR30SMDUZWiYA",
    "name": "MenDav",
    "category": "MenDav",
    "formatted_address": "4,5(13)",
    "phone_number": "+37493377565",
    "source_url": "https://www.google.com/maps/place/MenDav/data=!4m7!3m6!1s0x40159dbb205ce52b:0x808956460d8c44df!8m2!3d39.689744!4d45.4708779!16s%2Fg%2F1q62cyk09!19sChIJK-VcILudFUAR30SMDUZWiYA?authuser=0&hl=tr&rclk=1",
    "website_url": "",
    "rating_text": "4,5",
    "stars": null,
    "number_of_reviews": null,
    "price_level": "",
    "open_hours": "",
    "extraction_timestamp": "2025-06-07T15:08:05.184Z",
    "source_name": "google",
    "source_query": "Irrigation Equipment",
    "source_country": "AM",
    "country": "Armenia",
    "state": "Vayots Dzor Region",
    "city": "Vayk’"
  },
  {
    "source_id": "ChIJ9_T_lbqdFUARec4LvSqJ8yM",
    "name": "Lotus Supermarket",
    "category": "Lotus Supermarket",
    "formatted_address": "5,0(6)",
    "phone_number": "",
    "source_url": "https://www.google.com/maps/place/Lotus+Supermarket/data=!4m7!3m6!1s0x40159dba95fff4f7:0x23f3892abd0bce79!8m2!3d39.6888361!4d45.4724395!16s%2Fg%2F11d_ycztks!19sChIJ9_T_lbqdFUARec4LvSqJ8yM?authuser=0&hl=tr&rclk=1",
    "website_url": "",
    "rating_text": "5,0",
    "stars": null,
    "number_of_reviews": null,
    "price_level": "",
    "open_hours": "",
    "extraction_timestamp": "2025-06-07T15:08:05.185Z",
    "source_name": "google",
    "source_query": "Irrigation Equipment",
    "source_country": "AM",
    "country": "Armenia",
    "state": "Vayots Dzor Region",
    "city": "Vayk’"
  },
  {
    "source_id": "ChIJ_11g2eadFUARAuNFGs-Dcbw",
    "name": "Lider Complex Supermarket",
    "category": "Lider Complex Supermarket",
    "formatted_address": "5,0(6)",
    "phone_number": "+37494757505",
    "source_url": "https://www.google.com/maps/place/Lider+Complex+Supermarket/data=!4m7!3m6!1s0x40159de6d9605dff:0xbc7183cf1a45e302!8m2!3d39.6889653!4d45.4730602!16s%2Fg%2F11h4nbrjvt!19sChIJ_11g2eadFUARAuNFGs-Dcbw?authuser=0&hl=tr&rclk=1",
    "website_url": "",
    "rating_text": "5,0",
    "stars": null,
    "number_of_reviews": null,
    "price_level": "",
    "open_hours": "",
    "extraction_timestamp": "2025-06-07T15:08:05.188Z",
    "source_name": "google",
    "source_query": "Irrigation Equipment",
    "source_country": "AM",
    "country": "Armenia",
    "state": "Vayots Dzor Region",
    "city": "Vayk’"
  },
  {
    "source_id": "ChIJrcblpq-dFUARkE7Q-0z6dEw",
    "name": "Grand Market",
    "category": "Grand Market",
    "formatted_address": "Mağaza · 31, 1 Jermuk HighwayKapalı ⋅ Açılış zamanı: Pzt 09:00",
    "phone_number": "",
    "source_url": "https://www.google.com/maps/place/Grand+Market/data=!4m7!3m6!1s0x40159dafa6e5c6ad:0x4c74fa4cfbd04e90!8m2!3d39.6888445!4d45.4723723!16s%2Fg%2F11km_jkkgw!19sChIJrcblpq-dFUARkE7Q-0z6dEw?authuser=0&hl=tr&rclk=1",
    "website_url": "",
    "rating_text": "",
    "stars": null,
    "number_of_reviews": null,
    "price_level": "",
    "open_hours": "",
    "extraction_timestamp": "2025-06-07T15:08:05.189Z",
    "source_name": "google",
    "source_query": "Irrigation Equipment",
    "source_country": "AM",
    "country": "Armenia",
    "state": "Vayots Dzor Region",
    "city": "Vayk’"
  },
  {
    "source_id": "ChIJ78OUfwCdFUARhP8zcr9hPuA",
    "name": "Zateek Coffee",
    "category": "Zateek Coffee",
    "formatted_address": "5,0(2)",
    "phone_number": "",
    "source_url": "https://www.google.com/maps/place/Zateek+Coffee/data=!4m7!3m6!1s0x40159d007f94c3ef:0xe03e61bf7233ff84!8m2!3d39.6890022!4d45.4721764!16s%2Fg%2F11xgjsr_4n!19sChIJ78OUfwCdFUARhP8zcr9hPuA?authuser=0&hl=tr&rclk=1",
    "website_url": "",
    "rating_text": "5,0",
    "stars": null,
    "number_of_reviews": null,
    "price_level": "",
    "open_hours": "",
    "extraction_timestamp": "2025-06-07T15:08:05.191Z",
    "source_name": "google",
    "source_query": "Irrigation Equipment",
    "source_country": "AM",
    "country": "Armenia",
    "state": "Vayots Dzor Region",
    "city": "Vayk’"
  },
  {
    "source_id": "ChIJSehc_K69akAR5hWXcDHb1G0",
    "name": "IRRRISAL Irrigation systems",
    "category": "IRRRISAL Irrigation systems",
    "formatted_address": "Sulama Ekipmanları Tedarikçisi · 210/1 Arshakunyats AveKapalı ⋅ Açılış zamanı: Paz 10:00 · +374 99 000559",
    "phone_number": "+37499000559",
    "source_url": "https://www.google.com/maps/place/IRRRISAL+Irrigation+systems/data=!4m7!3m6!1s0x406abdaefc5ce849:0x6dd4db31709715e6!8m2!3d40.1428036!4d44.4957727!16s%2Fg%2F11jgmv2bl9!19sChIJSehc_K69akAR5hWXcDHb1G0?authuser=0&hl=tr&rclk=1",
    "website_url": "",
    "rating_text": "",
    "stars": null,
    "number_of_reviews": null,
    "price_level": "",
    "open_hours": "",
    "extraction_timestamp": "2025-06-07T15:08:05.192Z",
    "source_name": "google",
    "source_query": "Irrigation Equipment",
    "source_country": "AM",
    "country": "Armenia",
    "state": "Vayots Dzor Region",
    "city": "Vayk’"
  },
  {
    "source_id": "ChIJ6_q5mYujakARHImBZS4MM5U",
    "name": "Aqua Master",
    "category": "Aqua Master",
    "formatted_address": "5,0(3)",
    "phone_number": "+37443826682",
    "source_url": "https://www.google.com/maps/place/Aqua+Master/data=!4m7!3m6!1s0x406aa38b99b9faeb:0x95330c2e6581891c!8m2!3d40.2408716!4d44.5710315!16s%2Fg%2F11l6mbhtpr!19sChIJ6_q5mYujakARHImBZS4MM5U?authuser=0&hl=tr&rclk=1",
    "website_url": "https://www.irrigation.am/",
    "rating_text": "5,0",
    "stars": null,
    "number_of_reviews": null,
    "price_level": "",
    "open_hours": "",
    "extraction_timestamp": "2025-06-07T15:08:13.696Z",
    "source_name": "google",
    "source_query": "Irrigation Equipment",
    "source_country": "AM",
    "country": "Armenia",
    "state": "Vayots Dzor Region",
    "city": "Zarrit’ap’"
  },
  {
    "source_id": "ChIJ02H1fJm8akARGkCR2BU48us",
    "name": "Iratek LLC",
    "category": "Iratek LLC",
    "formatted_address": "4,7(3)",
    "phone_number": "+37433646646",
    "source_url": "https://www.google.com/maps/place/Iratek+LLC/data=!4m7!3m6!1s0x406abc997cf561d3:0xebf23815d891401a!8m2!3d40.1702145!4d44.5495049!16s%2Fg%2F11b7c2xs5d!19sChIJ02H1fJm8akARGkCR2BU48us?authuser=0&hl=tr&rclk=1",
    "website_url": "http://www.iratek.am/",
    "rating_text": "4,7",
    "stars": null,
    "number_of_reviews": null,
    "price_level": "",
    "open_hours": "",
    "extraction_timestamp": "2025-06-07T15:08:13.697Z",
    "source_name": "google",
    "source_query": "Irrigation Equipment",
    "source_country": "AM",
    "country": "Armenia",
    "state": "Vayots Dzor Region",
    "city": "Zarrit’ap’"
  },
  {
    "source_id": "ChIJFZnbfD2ZFUARd929zP8bbFc",
    "name": "Մթերային խանութ՝ food shop",
    "category": "Մթերային խանութ՝ food shop",
    "formatted_address": "5,0(2)",
    "phone_number": "",
    "source_url": "https://www.google.com/maps/place/%D5%84%D5%A9%D5%A5%D6%80%D5%A1%D5%B5%D5%AB%D5%B6+%D5%AD%D5%A1%D5%B6%D5%B8%D6%82%D5%A9%D5%9D+food+shop/data=!4m7!3m6!1s0x4015993d7cdb9915:0x576c1bffccbddd77!8m2!3d39.636624!4d45.5110379!16s%2Fg%2F11gxr32_c_!19sChIJFZnbfD2ZFUARd929zP8bbFc?authuser=0&hl=tr&rclk=1",
    "website_url": "",
    "rating_text": "5,0",
    "stars": null,
    "number_of_reviews": null,
    "price_level": "",
    "open_hours": "",
    "extraction_timestamp": "2025-06-07T15:08:13.697Z",
    "source_name": "google",
    "source_query": "Irrigation Equipment",
    "source_country": "AM",
    "country": "Armenia",
    "state": "Vayots Dzor Region",
    "city": "Zarrit’ap’"
  },
  {
    "source_id": "ChIJSehc_K69akAR5hWXcDHb1G0",
    "name": "IRRRISAL Irrigation systems",
    "category": "IRRRISAL Irrigation systems",
    "formatted_address": "Sulama Ekipmanları Tedarikçisi · 210/1 Arshakunyats AveKapalı ⋅ Açılış zamanı: Paz 10:00 · +374 99 000559",
    "phone_number": "+37499000559",
    "source_url": "https://www.google.com/maps/place/IRRRISAL+Irrigation+systems/data=!4m7!3m6!1s0x406abdaefc5ce849:0x6dd4db31709715e6!8m2!3d40.1428036!4d44.4957727!16s%2Fg%2F11jgmv2bl9!19sChIJSehc_K69akAR5hWXcDHb1G0?authuser=0&hl=tr&rclk=1",
    "website_url": "",
    "rating_text": "",
    "stars": null,
    "number_of_reviews": null,
    "price_level": "",
    "open_hours": "",
    "extraction_timestamp": "2025-06-07T15:08:13.698Z",
    "source_name": "google",
    "source_query": "Irrigation Equipment",
    "source_country": "AM",
    "country": "Armenia",
    "state": "Vayots Dzor Region",
    "city": "Zarrit’ap’"
  },
  {
    "source_id": "ChIJ6_q5mYujakARHImBZS4MM5U",
    "name": "Aqua Master",
    "category": "Aqua Master",
    "formatted_address": "5,0(3)",
    "phone_number": "+37443826682",
    "source_url": "https://www.google.com/maps/place/Aqua+Master/data=!4m7!3m6!1s0x406aa38b99b9faeb:0x95330c2e6581891c!8m2!3d40.2408716!4d44.5710315!16s%2Fg%2F11l6mbhtpr!19sChIJ6_q5mYujakARHImBZS4MM5U?authuser=0&hl=tr&rclk=1",
    "website_url": "https://www.irrigation.am/",
    "rating_text": "5,0",
    "stars": null,
    "number_of_reviews": null,
    "price_level": "",
    "open_hours": "",
    "extraction_timestamp": "2025-06-07T15:08:22.300Z",
    "source_name": "google",
    "source_query": "Irrigation Equipment",
    "source_country": "AM",
    "country": "Armenia",
    "state": "Vayots Dzor Region",
    "city": "Aghavnadzor"
  },
  {
    "source_id": "ChIJ02H1fJm8akARGkCR2BU48us",
    "name": "Iratek LLC",
    "category": "Iratek LLC",
    "formatted_address": "4,7(3)",
    "phone_number": "+37433646646",
    "source_url": "https://www.google.com/maps/place/Iratek+LLC/data=!4m7!3m6!1s0x406abc997cf561d3:0xebf23815d891401a!8m2!3d40.1702145!4d44.5495049!16s%2Fg%2F11b7c2xs5d!19sChIJ02H1fJm8akARGkCR2BU48us?authuser=0&hl=tr&rclk=1",
    "website_url": "http://www.iratek.am/",
    "rating_text": "4,7",
    "stars": null,
    "number_of_reviews": null,
    "price_level": "",
    "open_hours": "",
    "extraction_timestamp": "2025-06-07T15:08:22.302Z",
    "source_name": "google",
    "source_query": "Irrigation Equipment",
    "source_country": "AM",
    "country": "Armenia",
    "state": "Vayots Dzor Region",
    "city": "Aghavnadzor"
  },
  {
    "source_id": "ChIJ2c92UZVtFUARHrwpak1EVgI",
    "name": "ARDO Market",
    "category": "ARDO Market",
    "formatted_address": "5,0(6)",
    "phone_number": "+37494120622",
    "source_url": "https://www.google.com/maps/place/ARDO+Market/data=!4m7!3m6!1s0x40156d955176cfd9:0x256444d6a29bc1e!8m2!3d39.7764699!4d45.227827!16s%2Fg%2F11vqyyy71b!19sChIJ2c92UZVtFUARHrwpak1EVgI?authuser=0&hl=tr&rclk=1",
    "website_url": "",
    "rating_text": "5,0",
    "stars": null,
    "number_of_reviews": null,
    "price_level": "",
    "open_hours": "",
    "extraction_timestamp": "2025-06-07T15:08:22.303Z",
    "source_name": "google",
    "source_query": "Irrigation Equipment",
    "source_country": "AM",
    "country": "Armenia",
    "state": "Vayots Dzor Region",
    "city": "Aghavnadzor"
  },
  {
    "source_id": "ChIJSehc_K69akAR5hWXcDHb1G0",
    "name": "IRRRISAL Irrigation systems",
    "category": "IRRRISAL Irrigation systems",
    "formatted_address": "Sulama Ekipmanları Tedarikçisi · 210/1 Arshakunyats AveKapalı ⋅ Açılış zamanı: Paz 10:00 · +374 99 000559",
    "phone_number": "+37499000559",
    "source_url": "https://www.google.com/maps/place/IRRRISAL+Irrigation+systems/data=!4m7!3m6!1s0x406abdaefc5ce849:0x6dd4db31709715e6!8m2!3d40.1428036!4d44.4957727!16s%2Fg%2F11jgmv2bl9!19sChIJSehc_K69akAR5hWXcDHb1G0?authuser=0&hl=tr&rclk=1",
    "website_url": "",
    "rating_text": "",
    "stars": null,
    "number_of_reviews": null,
    "price_level": "",
    "open_hours": "",
    "extraction_timestamp": "2025-06-07T15:08:22.305Z",
    "source_name": "google",
    "source_query": "Irrigation Equipment",
    "source_country": "AM",
    "country": "Armenia",
    "state": "Vayots Dzor Region",
    "city": "Aghavnadzor"
  },
  {
    "source_id": "ChIJ1ZycGBOjakARqQ-pKik3MzE",
    "name": "Agrotech LLC",
    "category": "Agrotech LLC",
    "formatted_address": "4,0(2)",
    "phone_number": "+37491206220",
    "source_url": "https://www.google.com/maps/place/Agrotech+LLC/data=!4m7!3m6!1s0x406aa313189c9cd5:0x313337292aa90fa9!8m2!3d40.2579135!4d44.6239412!16s%2Fg%2F11gtzc4byt!19sChIJ1ZycGBOjakARqQ-pKik3MzE?authuser=0&hl=tr&rclk=1",
    "website_url": "http://www.agrotech.am/",
    "rating_text": "4,0",
    "stars": null,
    "number_of_reviews": null,
    "price_level": "",
    "open_hours": "",
    "extraction_timestamp": "2025-06-07T15:08:22.306Z",
    "source_name": "google",
    "source_query": "Irrigation Equipment",
    "source_country": "AM",
    "country": "Armenia",
    "state": "Vayots Dzor Region",
    "city": "Aghavnadzor"
  },
  {
    "source_id": "ChIJVVXl4PS8akARiI91mzdLyCI",
    "name": "AQUA Systems Armenia",
    "category": "AQUA Systems Armenia",
    "formatted_address": "3,9(16)",
    "phone_number": "+37433606060",
    "source_url": "https://www.google.com/maps/place/AQUA+Systems+Armenia/data=!4m7!3m6!1s0x406abcf4e0e55555:0x22c84b379b758f88!8m2!3d40.1711706!4d44.520994!16s%2Fg%2F11h84zy3x2!19sChIJVVXl4PS8akARiI91mzdLyCI?authuser=0&hl=tr&rclk=1",
    "website_url": "https://aquasystems.am/",
    "rating_text": "3,9",
    "stars": null,
    "number_of_reviews": null,
    "price_level": "",
    "open_hours": "",
    "extraction_timestamp": "2025-06-07T15:08:22.308Z",
    "source_name": "google",
    "source_query": "Irrigation Equipment",
    "source_country": "AM",
    "country": "Armenia",
    "state": "Vayots Dzor Region",
    "city": "Aghavnadzor"
  },
  {
    "source_id": "ChIJ6_q5mYujakARHImBZS4MM5U",
    "name": "Aqua Master",
    "category": "Aqua Master",
    "formatted_address": "5,0(3)",
    "phone_number": "+37443826682",
    "source_url": "https://www.google.com/maps/place/Aqua+Master/data=!4m7!3m6!1s0x406aa38b99b9faeb:0x95330c2e6581891c!8m2!3d40.2408716!4d44.5710315!16s%2Fg%2F11l6mbhtpr!19sChIJ6_q5mYujakARHImBZS4MM5U?authuser=0&hl=tr&rclk=1",
    "website_url": "https://www.irrigation.am/",
    "rating_text": "5,0",
    "stars": null,
    "number_of_reviews": null,
    "price_level": "",
    "open_hours": "",
    "extraction_timestamp": "2025-06-07T15:08:31.396Z",
    "source_name": "google",
    "source_query": "Irrigation Equipment",
    "source_country": "AM",
    "country": "Armenia",
    "state": "Vayots Dzor Region",
    "city": "Areni"
  },
  {
    "source_id": "ChIJjeIoWbByFUARNfNSQ1TYh3k",
    "name": "Areni Wine Factory",
    "category": "Areni Wine Factory",
    "formatted_address": "4,5(232)",
    "phone_number": "+37494424427",
    "source_url": "https://www.google.com/maps/place/Areni+Wine+Factory/data=!4m7!3m6!1s0x401572b05928e28d:0x7987d8544352f335!8m2!3d39.7283882!4d45.186757!16s%2Fg%2F1yy3vlykt!19sChIJjeIoWbByFUARNfNSQ1TYh3k?authuser=0&hl=tr&rclk=1",
    "website_url": "https://vayotsdzorwineroute.com/winery/areni-winy-factory/",
    "rating_text": "4,5",
    "stars": null,
    "number_of_reviews": null,
    "price_level": "",
    "open_hours": "",
    "extraction_timestamp": "2025-06-07T15:08:31.398Z",
    "source_name": "google",
    "source_query": "Irrigation Equipment",
    "source_country": "AM",
    "country": "Armenia",
    "state": "Vayots Dzor Region",
    "city": "Areni"
  },
  {
    "source_id": "ChIJk9D1LbVyFUARC8p7z54dd5g",
    "name": "Areni Wine Winery",
    "category": "Areni Wine Winery",
    "formatted_address": "4,9(55)",
    "phone_number": "+37498942488",
    "source_url": "https://www.google.com/maps/place/Areni+Wine+Winery/data=!4m7!3m6!1s0x401572b52df5d093:0x98771d9ecf7bca0b!8m2!3d39.7216233!4d45.1842088!16s%2Fg%2F11b6tqt3bv!19sChIJk9D1LbVyFUARC8p7z54dd5g?authuser=0&hl=tr&rclk=1",
    "website_url": "https://www.facebook.com/pg/AreniWineWinery/",
    "rating_text": "4,9",
    "stars": null,
    "number_of_reviews": null,
    "price_level": "",
    "open_hours": "",
    "extraction_timestamp": "2025-06-07T15:08:31.400Z",
    "source_name": "google",
    "source_query": "Irrigation Equipment",
    "source_country": "AM",
    "country": "Armenia",
    "state": "Vayots Dzor Region",
    "city": "Areni"
  },
  {
    "source_id": "ChIJ02H1fJm8akARGkCR2BU48us",
    "name": "Iratek LLC",
    "category": "Iratek LLC",
    "formatted_address": "4,7(3)",
    "phone_number": "+37433646646",
    "source_url": "https://www.google.com/maps/place/Iratek+LLC/data=!4m7!3m6!1s0x406abc997cf561d3:0xebf23815d891401a!8m2!3d40.1702145!4d44.5495049!16s%2Fg%2F11b7c2xs5d!19sChIJ02H1fJm8akARGkCR2BU48us?authuser=0&hl=tr&rclk=1",
    "website_url": "http://www.iratek.am/",
    "rating_text": "4,7",
    "stars": null,
    "number_of_reviews": null,
    "price_level": "",
    "open_hours": "",
    "extraction_timestamp": "2025-06-07T15:08:31.402Z",
    "source_name": "google",
    "source_query": "Irrigation Equipment",
    "source_country": "AM",
    "country": "Armenia",
    "state": "Vayots Dzor Region",
    "city": "Areni"
  },
  {
    "source_id": "ChIJSamv97ByFUARLiZqOq8n1jk",
    "name": "Hin Areni Winery",
    "category": "Hin Areni Winery",
    "formatted_address": "4,1(109)",
    "phone_number": "+37411521111",
    "source_url": "https://www.google.com/maps/place/Hin+Areni+Winery/data=!4m7!3m6!1s0x401572b0f7afa949:0x39d627af3a6a262e!8m2!3d39.7283946!4d45.1868997!16s%2Fg%2F11b6ynwlqm!19sChIJSamv97ByFUARLiZqOq8n1jk?authuser=0&hl=tr&rclk=1",
    "website_url": "http://hinareniwine.am/",
    "rating_text": "4,1",
    "stars": null,
    "number_of_reviews": null,
    "price_level": "",
    "open_hours": "",
    "extraction_timestamp": "2025-06-07T15:08:31.403Z",
    "source_name": "google",
    "source_query": "Irrigation Equipment",
    "source_country": "AM",
    "country": "Armenia",
    "state": "Vayots Dzor Region",
    "city": "Areni"
  },
  {
    "source_id": "ChIJ-_JQg5wNFUAROae0OODInXI",
    "name": "Beer House Areni",
    "category": "Beer House Areni",
    "formatted_address": "5,0(6)",
    "phone_number": "+37494688234",
    "source_url": "https://www.google.com/maps/place/Beer+House+Areni/data=!4m7!3m6!1s0x40150d9c8350f2fb:0x729dc8e038b4a739!8m2!3d39.720945!4d45.183603!16s%2Fg%2F11m5wspljr!19sChIJ-_JQg5wNFUAROae0OODInXI?authuser=0&hl=tr&rclk=1",
    "website_url": "",
    "rating_text": "5,0",
    "stars": null,
    "number_of_reviews": null,
    "price_level": "",
    "open_hours": "",
    "extraction_timestamp": "2025-06-07T15:08:31.405Z",
    "source_name": "google",
    "source_query": "Irrigation Equipment",
    "source_country": "AM",
    "country": "Armenia",
    "state": "Vayots Dzor Region",
    "city": "Areni"
  },
  {
    "source_id": "ChIJSTwPNL5yFUARZq9bYTUXoUs",
    "name": "Areni-1 Mağara Kompleksi",
    "category": "Areni-1 Mağara Kompleksi",
    "formatted_address": "4,6(742)",
    "phone_number": "+37455514008",
    "source_url": "https://www.google.com/maps/place/Areni-1+Ma%C4%9Fara+Kompleksi/data=!4m7!3m6!1s0x401572be340f3c49:0x4ba11735615baf66!8m2!3d39.731447!4d45.2034247!16s%2Fm%2F0g9wdy8!19sChIJSTwPNL5yFUARZq9bYTUXoUs?authuser=0&hl=tr&rclk=1",
    "website_url": "http://arenicave.am/",
    "rating_text": "4,6",
    "stars": null,
    "number_of_reviews": null,
    "price_level": "",
    "open_hours": "",
    "extraction_timestamp": "2025-06-07T15:08:31.407Z",
    "source_name": "google",
    "source_query": "Irrigation Equipment",
    "source_country": "AM",
    "country": "Armenia",
    "state": "Vayots Dzor Region",
    "city": "Areni"
  },
  {
    "source_id": "ChIJ9VEfNLdyFUARfXCGsl3usqc",
    "name": "ԱՁ Արամ Հարությունյան",
    "category": "ԱՁ Արամ Հարությունյան",
    "formatted_address": "5,0(4)",
    "phone_number": "+37493686966",
    "source_url": "https://www.google.com/maps/place/%D4%B1%D5%81+%D4%B1%D6%80%D5%A1%D5%B4+%D5%80%D5%A1%D6%80%D5%B8%D6%82%D5%A9%D5%B5%D5%B8%D6%82%D5%B6%D5%B5%D5%A1%D5%B6/data=!4m7!3m6!1s0x401572b7341f51f5:0xa7b2ee5db286707d!8m2!3d39.7207877!4d45.1829666!16s%2Fg%2F11b86rt9wj!19sChIJ9VEfNLdyFUARfXCGsl3usqc?authuser=0&hl=tr&rclk=1",
    "website_url": "",
    "rating_text": "5,0",
    "stars": null,
    "number_of_reviews": null,
    "price_level": "",
    "open_hours": "",
    "extraction_timestamp": "2025-06-07T15:08:31.408Z",
    "source_name": "google",
    "source_query": "Irrigation Equipment",
    "source_country": "AM",
    "country": "Armenia",
    "state": "Vayots Dzor Region",
    "city": "Areni"
  },
  {
    "source_id": "ChIJSehc_K69akAR5hWXcDHb1G0",
    "name": "IRRRISAL Irrigation systems",
    "category": "IRRRISAL Irrigation systems",
    "formatted_address": "Sulama Ekipmanları Tedarikçisi · 210/1 Arshakunyats AveKapalı ⋅ Açılış zamanı: Paz 10:00 · +374 99 000559",
    "phone_number": "+37499000559",
    "source_url": "https://www.google.com/maps/place/IRRRISAL+Irrigation+systems/data=!4m7!3m6!1s0x406abdaefc5ce849:0x6dd4db31709715e6!8m2!3d40.1428036!4d44.4957727!16s%2Fg%2F11jgmv2bl9!19sChIJSehc_K69akAR5hWXcDHb1G0?authuser=0&hl=tr&rclk=1",
    "website_url": "",
    "rating_text": "",
    "stars": null,
    "number_of_reviews": null,
    "price_level": "",
    "open_hours": "",
    "extraction_timestamp": "2025-06-07T15:08:31.410Z",
    "source_name": "google",
    "source_query": "Irrigation Equipment",
    "source_country": "AM",
    "country": "Armenia",
    "state": "Vayots Dzor Region",
    "city": "Areni"
  },
  {
    "source_id": "ChIJl42OXNgNFUARNkUJh8J15NM",
    "name": "Ռայս Մարկետ RISE MARKET",
    "category": "Ռայս Մարկետ RISE MARKET",
    "formatted_address": "5,0(5)",
    "phone_number": "+37477688575",
    "source_url": "https://www.google.com/maps/place/%D5%8C%D5%A1%D5%B5%D5%BD+%D5%84%D5%A1%D6%80%D5%AF%D5%A5%D5%BF+RISE+MARKET/data=!4m7!3m6!1s0x40150dd85c8e8d97:0xd3e475c287094536!8m2!3d39.7200105!4d45.1836822!16s%2Fg%2F11h781jjx2!19sChIJl42OXNgNFUARNkUJh8J15NM?authuser=0&hl=tr&rclk=1",
    "website_url": "",
    "rating_text": "5,0",
    "stars": null,
    "number_of_reviews": null,
    "price_level": "",
    "open_hours": "",
    "extraction_timestamp": "2025-06-07T15:08:31.411Z",
    "source_name": "google",
    "source_query": "Irrigation Equipment",
    "source_country": "AM",
    "country": "Armenia",
    "state": "Vayots Dzor Region",
    "city": "Areni"
  },
  {
    "source_id": "ChIJFSbIQkFzFUARDjBBVVblBSs",
    "name": "Aharoni mot(wine,vodka market)",
    "category": "Aharoni mot(wine,vodka market)",
    "formatted_address": "Aharoni mot(wine,vodka market)",
    "phone_number": "+37494573836",
    "source_url": "https://www.google.com/maps/place/Aharoni+mot%28wine,vodka+market%29/data=!4m7!3m6!1s0x4015734142c82615:0x2b05e5565541300e!8m2!3d39.7292303!4d45.1930575!16s%2Fg%2F11f62cn6t5!19sChIJFSbIQkFzFUARDjBBVVblBSs?authuser=0&hl=tr&rclk=1",
    "website_url": "",
    "rating_text": "4,2",
    "stars": null,
    "number_of_reviews": null,
    "price_level": "",
    "open_hours": "",
    "extraction_timestamp": "2025-06-07T15:08:31.413Z",
    "source_name": "google",
    "source_query": "Irrigation Equipment",
    "source_country": "AM",
    "country": "Armenia",
    "state": "Vayots Dzor Region",
    "city": "Areni"
  },
  {
    "source_id": "ChIJ6_q5mYujakARHImBZS4MM5U",
    "name": "Aqua Master",
    "category": "Aqua Master",
    "formatted_address": "5,0(3)",
    "phone_number": "+37443826682",
    "source_url": "https://www.google.com/maps/place/Aqua+Master/data=!4m7!3m6!1s0x406aa38b99b9faeb:0x95330c2e6581891c!8m2!3d40.2408716!4d44.5710315!16s%2Fg%2F11l6mbhtpr!19sChIJ6_q5mYujakARHImBZS4MM5U?authuser=0&hl=tr&rclk=1",
    "website_url": "https://www.irrigation.am/",
    "rating_text": "5,0",
    "stars": null,
    "number_of_reviews": null,
    "price_level": "",
    "open_hours": "",
    "extraction_timestamp": "2025-06-07T15:08:39.753Z",
    "source_name": "google",
    "source_query": "Irrigation Equipment",
    "source_country": "AM",
    "country": "Armenia",
    "state": "Vayots Dzor Region",
    "city": "Malishka"
  },
  {
    "source_id": "ChIJ02H1fJm8akARGkCR2BU48us",
    "name": "Iratek LLC",
    "category": "Iratek LLC",
    "formatted_address": "4,7(3)",
    "phone_number": "+37433646646",
    "source_url": "https://www.google.com/maps/place/Iratek+LLC/data=!4m7!3m6!1s0x406abc997cf561d3:0xebf23815d891401a!8m2!3d40.1702145!4d44.5495049!16s%2Fg%2F11b7c2xs5d!19sChIJ02H1fJm8akARGkCR2BU48us?authuser=0&hl=tr&rclk=1",
    "website_url": "http://www.iratek.am/",
    "rating_text": "4,7",
    "stars": null,
    "number_of_reviews": null,
    "price_level": "",
    "open_hours": "",
    "extraction_timestamp": "2025-06-07T15:08:39.754Z",
    "source_name": "google",
    "source_query": "Irrigation Equipment",
    "source_country": "AM",
    "country": "Armenia",
    "state": "Vayots Dzor Region",
    "city": "Malishka"
  },
  {
    "source_id": "ChIJSehc_K69akAR5hWXcDHb1G0",
    "name": "IRRRISAL Irrigation systems",
    "category": "IRRRISAL Irrigation systems",
    "formatted_address": "Sulama Ekipmanları Tedarikçisi · 210/1 Arshakunyats AveKapalı ⋅ Açılış zamanı: Paz 10:00 · +374 99 000559",
    "phone_number": "+37499000559",
    "source_url": "https://www.google.com/maps/place/IRRRISAL+Irrigation+systems/data=!4m7!3m6!1s0x406abdaefc5ce849:0x6dd4db31709715e6!8m2!3d40.1428036!4d44.4957727!16s%2Fg%2F11jgmv2bl9!19sChIJSehc_K69akAR5hWXcDHb1G0?authuser=0&hl=tr&rclk=1",
    "website_url": "",
    "rating_text": "",
    "stars": null,
    "number_of_reviews": null,
    "price_level": "",
    "open_hours": "",
    "extraction_timestamp": "2025-06-07T15:08:39.754Z",
    "source_name": "google",
    "source_query": "Irrigation Equipment",
    "source_country": "AM",
    "country": "Armenia",
    "state": "Vayots Dzor Region",
    "city": "Malishka"
  },
  {
    "source_id": "ChIJVVXl4PS8akARiI91mzdLyCI",
    "name": "AQUA Systems Armenia",
    "category": "AQUA Systems Armenia",
    "formatted_address": "3,9(16)",
    "phone_number": "+37433606060",
    "source_url": "https://www.google.com/maps/place/AQUA+Systems+Armenia/data=!4m7!3m6!1s0x406abcf4e0e55555:0x22c84b379b758f88!8m2!3d40.1711706!4d44.520994!16s%2Fg%2F11h84zy3x2!19sChIJVVXl4PS8akARiI91mzdLyCI?authuser=0&hl=tr&rclk=1",
    "website_url": "https://aquasystems.am/",
    "rating_text": "3,9",
    "stars": null,
    "number_of_reviews": null,
    "price_level": "",
    "open_hours": "",
    "extraction_timestamp": "2025-06-07T15:08:39.755Z",
    "source_name": "google",
    "source_query": "Irrigation Equipment",
    "source_country": "AM",
    "country": "Armenia",
    "state": "Vayots Dzor Region",
    "city": "Malishka"
  }
]
