[
  {
    "source_id": "ChIJ6_q5mYujakARHImBZS4MM5U",
    "name": "Aqua Master",
    "category": "Aqua Master",
    "formatted_address": "5,0(3)",
    "phone_number": "+37443826682",
    "source_url": "https://www.google.com/maps/place/Aqua+Master/data=!4m7!3m6!1s0x406aa38b99b9faeb:0x95330c2e6581891c!8m2!3d40.2408716!4d44.5710315!16s%2Fg%2F11l6mbhtpr!19sChIJ6_q5mYujakARHImBZS4MM5U?authuser=0&hl=tr&rclk=1",
    "website_url": "https://www.irrigation.am/",
    "rating_text": "5,0",
    "stars": null,
    "number_of_reviews": null,
    "price_level": "",
    "open_hours": "",
    "extraction_timestamp": "2025-06-07T15:08:31.396Z",
    "source_name": "google",
    "source_query": "Irrigation Equipment",
    "source_country": "AM",
    "country": "Armenia",
    "state": "Vayots Dzor Region",
    "city": "Areni"
  },
  {
    "source_id": "ChIJjeIoWbByFUARNfNSQ1TYh3k",
    "name": "Areni Wine Factory",
    "category": "Areni Wine Factory",
    "formatted_address": "4,5(232)",
    "phone_number": "+37494424427",
    "source_url": "https://www.google.com/maps/place/Areni+Wine+Factory/data=!4m7!3m6!1s0x401572b05928e28d:0x7987d8544352f335!8m2!3d39.7283882!4d45.186757!16s%2Fg%2F1yy3vlykt!19sChIJjeIoWbByFUARNfNSQ1TYh3k?authuser=0&hl=tr&rclk=1",
    "website_url": "https://vayotsdzorwineroute.com/winery/areni-winy-factory/",
    "rating_text": "4,5",
    "stars": null,
    "number_of_reviews": null,
    "price_level": "",
    "open_hours": "",
    "extraction_timestamp": "2025-06-07T15:08:31.398Z",
    "source_name": "google",
    "source_query": "Irrigation Equipment",
    "source_country": "AM",
    "country": "Armenia",
    "state": "Vayots Dzor Region",
    "city": "Areni"
  },
  {
    "source_id": "ChIJk9D1LbVyFUARC8p7z54dd5g",
    "name": "Areni Wine Winery",
    "category": "Areni Wine Winery",
    "formatted_address": "4,9(55)",
    "phone_number": "+37498942488",
    "source_url": "https://www.google.com/maps/place/Areni+Wine+Winery/data=!4m7!3m6!1s0x401572b52df5d093:0x98771d9ecf7bca0b!8m2!3d39.7216233!4d45.1842088!16s%2Fg%2F11b6tqt3bv!19sChIJk9D1LbVyFUARC8p7z54dd5g?authuser=0&hl=tr&rclk=1",
    "website_url": "https://www.facebook.com/pg/AreniWineWinery/",
    "rating_text": "4,9",
    "stars": null,
    "number_of_reviews": null,
    "price_level": "",
    "open_hours": "",
    "extraction_timestamp": "2025-06-07T15:08:31.400Z",
    "source_name": "google",
    "source_query": "Irrigation Equipment",
    "source_country": "AM",
    "country": "Armenia",
    "state": "Vayots Dzor Region",
    "city": "Areni"
  },
  {
    "source_id": "ChIJ02H1fJm8akARGkCR2BU48us",
    "name": "Iratek LLC",
    "category": "Iratek LLC",
    "formatted_address": "4,7(3)",
    "phone_number": "+37433646646",
    "source_url": "https://www.google.com/maps/place/Iratek+LLC/data=!4m7!3m6!1s0x406abc997cf561d3:0xebf23815d891401a!8m2!3d40.1702145!4d44.5495049!16s%2Fg%2F11b7c2xs5d!19sChIJ02H1fJm8akARGkCR2BU48us?authuser=0&hl=tr&rclk=1",
    "website_url": "http://www.iratek.am/",
    "rating_text": "4,7",
    "stars": null,
    "number_of_reviews": null,
    "price_level": "",
    "open_hours": "",
    "extraction_timestamp": "2025-06-07T15:08:31.402Z",
    "source_name": "google",
    "source_query": "Irrigation Equipment",
    "source_country": "AM",
    "country": "Armenia",
    "state": "Vayots Dzor Region",
    "city": "Areni"
  },
  {
    "source_id": "ChIJSamv97ByFUARLiZqOq8n1jk",
    "name": "Hin Areni Winery",
    "category": "Hin Areni Winery",
    "formatted_address": "4,1(109)",
    "phone_number": "+37411521111",
    "source_url": "https://www.google.com/maps/place/Hin+Areni+Winery/data=!4m7!3m6!1s0x401572b0f7afa949:0x39d627af3a6a262e!8m2!3d39.7283946!4d45.1868997!16s%2Fg%2F11b6ynwlqm!19sChIJSamv97ByFUARLiZqOq8n1jk?authuser=0&hl=tr&rclk=1",
    "website_url": "http://hinareniwine.am/",
    "rating_text": "4,1",
    "stars": null,
    "number_of_reviews": null,
    "price_level": "",
    "open_hours": "",
    "extraction_timestamp": "2025-06-07T15:08:31.403Z",
    "source_name": "google",
    "source_query": "Irrigation Equipment",
    "source_country": "AM",
    "country": "Armenia",
    "state": "Vayots Dzor Region",
    "city": "Areni"
  },
  {
    "source_id": "ChIJ-_JQg5wNFUAROae0OODInXI",
    "name": "Beer House Areni",
    "category": "Beer House Areni",
    "formatted_address": "5,0(6)",
    "phone_number": "+37494688234",
    "source_url": "https://www.google.com/maps/place/Beer+House+Areni/data=!4m7!3m6!1s0x40150d9c8350f2fb:0x729dc8e038b4a739!8m2!3d39.720945!4d45.183603!16s%2Fg%2F11m5wspljr!19sChIJ-_JQg5wNFUAROae0OODInXI?authuser=0&hl=tr&rclk=1",
    "website_url": "",
    "rating_text": "5,0",
    "stars": null,
    "number_of_reviews": null,
    "price_level": "",
    "open_hours": "",
    "extraction_timestamp": "2025-06-07T15:08:31.405Z",
    "source_name": "google",
    "source_query": "Irrigation Equipment",
    "source_country": "AM",
    "country": "Armenia",
    "state": "Vayots Dzor Region",
    "city": "Areni"
  },
  {
    "source_id": "ChIJSTwPNL5yFUARZq9bYTUXoUs",
    "name": "Areni-1 Mağara Kompleksi",
    "category": "Areni-1 Mağara Kompleksi",
    "formatted_address": "4,6(742)",
    "phone_number": "+37455514008",
    "source_url": "https://www.google.com/maps/place/Areni-1+Ma%C4%9Fara+Kompleksi/data=!4m7!3m6!1s0x401572be340f3c49:0x4ba11735615baf66!8m2!3d39.731447!4d45.2034247!16s%2Fm%2F0g9wdy8!19sChIJSTwPNL5yFUARZq9bYTUXoUs?authuser=0&hl=tr&rclk=1",
    "website_url": "http://arenicave.am/",
    "rating_text": "4,6",
    "stars": null,
    "number_of_reviews": null,
    "price_level": "",
    "open_hours": "",
    "extraction_timestamp": "2025-06-07T15:08:31.407Z",
    "source_name": "google",
    "source_query": "Irrigation Equipment",
    "source_country": "AM",
    "country": "Armenia",
    "state": "Vayots Dzor Region",
    "city": "Areni"
  },
  {
    "source_id": "ChIJ9VEfNLdyFUARfXCGsl3usqc",
    "name": "ԱՁ Արամ Հարությունյան",
    "category": "ԱՁ Արամ Հարությունյան",
    "formatted_address": "5,0(4)",
    "phone_number": "+37493686966",
    "source_url": "https://www.google.com/maps/place/%D4%B1%D5%81+%D4%B1%D6%80%D5%A1%D5%B4+%D5%80%D5%A1%D6%80%D5%B8%D6%82%D5%A9%D5%B5%D5%B8%D6%82%D5%B6%D5%B5%D5%A1%D5%B6/data=!4m7!3m6!1s0x401572b7341f51f5:0xa7b2ee5db286707d!8m2!3d39.7207877!4d45.1829666!16s%2Fg%2F11b86rt9wj!19sChIJ9VEfNLdyFUARfXCGsl3usqc?authuser=0&hl=tr&rclk=1",
    "website_url": "",
    "rating_text": "5,0",
    "stars": null,
    "number_of_reviews": null,
    "price_level": "",
    "open_hours": "",
    "extraction_timestamp": "2025-06-07T15:08:31.408Z",
    "source_name": "google",
    "source_query": "Irrigation Equipment",
    "source_country": "AM",
    "country": "Armenia",
    "state": "Vayots Dzor Region",
    "city": "Areni"
  },
  {
    "source_id": "ChIJSehc_K69akAR5hWXcDHb1G0",
    "name": "IRRRISAL Irrigation systems",
    "category": "IRRRISAL Irrigation systems",
    "formatted_address": "Sulama Ekipmanları Tedarikçisi · 210/1 Arshakunyats AveKapalı ⋅ Açılış zamanı: Paz 10:00 · +374 99 000559",
    "phone_number": "+37499000559",
    "source_url": "https://www.google.com/maps/place/IRRRISAL+Irrigation+systems/data=!4m7!3m6!1s0x406abdaefc5ce849:0x6dd4db31709715e6!8m2!3d40.1428036!4d44.4957727!16s%2Fg%2F11jgmv2bl9!19sChIJSehc_K69akAR5hWXcDHb1G0?authuser=0&hl=tr&rclk=1",
    "website_url": "",
    "rating_text": "",
    "stars": null,
    "number_of_reviews": null,
    "price_level": "",
    "open_hours": "",
    "extraction_timestamp": "2025-06-07T15:08:31.410Z",
    "source_name": "google",
    "source_query": "Irrigation Equipment",
    "source_country": "AM",
    "country": "Armenia",
    "state": "Vayots Dzor Region",
    "city": "Areni"
  },
  {
    "source_id": "ChIJl42OXNgNFUARNkUJh8J15NM",
    "name": "Ռայս Մարկետ RISE MARKET",
    "category": "Ռայս Մարկետ RISE MARKET",
    "formatted_address": "5,0(5)",
    "phone_number": "+37477688575",
    "source_url": "https://www.google.com/maps/place/%D5%8C%D5%A1%D5%B5%D5%BD+%D5%84%D5%A1%D6%80%D5%AF%D5%A5%D5%BF+RISE+MARKET/data=!4m7!3m6!1s0x40150dd85c8e8d97:0xd3e475c287094536!8m2!3d39.7200105!4d45.1836822!16s%2Fg%2F11h781jjx2!19sChIJl42OXNgNFUARNkUJh8J15NM?authuser=0&hl=tr&rclk=1",
    "website_url": "",
    "rating_text": "5,0",
    "stars": null,
    "number_of_reviews": null,
    "price_level": "",
    "open_hours": "",
    "extraction_timestamp": "2025-06-07T15:08:31.411Z",
    "source_name": "google",
    "source_query": "Irrigation Equipment",
    "source_country": "AM",
    "country": "Armenia",
    "state": "Vayots Dzor Region",
    "city": "Areni"
  },
  {
    "source_id": "ChIJFSbIQkFzFUARDjBBVVblBSs",
    "name": "Aharoni mot(wine,vodka market)",
    "category": "Aharoni mot(wine,vodka market)",
    "formatted_address": "Aharoni mot(wine,vodka market)",
    "phone_number": "+37494573836",
    "source_url": "https://www.google.com/maps/place/Aharoni+mot%28wine,vodka+market%29/data=!4m7!3m6!1s0x4015734142c82615:0x2b05e5565541300e!8m2!3d39.7292303!4d45.1930575!16s%2Fg%2F11f62cn6t5!19sChIJFSbIQkFzFUARDjBBVVblBSs?authuser=0&hl=tr&rclk=1",
    "website_url": "",
    "rating_text": "4,2",
    "stars": null,
    "number_of_reviews": null,
    "price_level": "",
    "open_hours": "",
    "extraction_timestamp": "2025-06-07T15:08:31.413Z",
    "source_name": "google",
    "source_query": "Irrigation Equipment",
    "source_country": "AM",
    "country": "Armenia",
    "state": "Vayots Dzor Region",
    "city": "Areni"
  }
]
