[
  {
    "source_id": "ChIJ02H1fJm8akARGkCR2BU48us",
    "name": "Iratek LLC",
    "category": "Iratek LLC",
    "formatted_address": "4,7(3)",
    "phone_number": "+37433646646",
    "source_url": "https://www.google.com/maps/place/Iratek+LLC/data=!4m7!3m6!1s0x406abc997cf561d3:0xebf23815d891401a!8m2!3d40.1702145!4d44.5495049!16s%2Fg%2F11b7c2xs5d!19sChIJ02H1fJm8akARGkCR2BU48us?authuser=0&hl=tr&rclk=1",
    "website_url": "http://www.iratek.am/",
    "rating_text": "4,7",
    "stars": null,
    "number_of_reviews": null,
    "price_level": "",
    "open_hours": "",
    "extraction_timestamp": "2025-06-07T13:20:42.281Z",
    "source_name": "google",
    "source_query": "Irrigation Equipment",
    "source_country": "AM",
    "country": "Armenia",
    "state": "Vayots Dzor Region",
    "city": "Gladzor"
  },
  {
    "source_id": "ChIJ6_q5mYujakARHImBZS4MM5U",
    "name": "Aqua Master",
    "category": "Aqua Master",
    "formatted_address": "5,0(3)",
    "phone_number": "+37443826682",
    "source_url": "https://www.google.com/maps/place/Aqua+Master/data=!4m7!3m6!1s0x406aa38b99b9faeb:0x95330c2e6581891c!8m2!3d40.2408716!4d44.5710315!16s%2Fg%2F11l6mbhtpr!19sChIJ6_q5mYujakARHImBZS4MM5U?authuser=0&hl=tr&rclk=1",
    "website_url": "https://www.irrigation.am/",
    "rating_text": "5,0",
    "stars": null,
    "number_of_reviews": null,
    "price_level": "",
    "open_hours": "",
    "extraction_timestamp": "2025-06-07T13:20:42.283Z",
    "source_name": "google",
    "source_query": "Irrigation Equipment",
    "source_country": "AM",
    "country": "Armenia",
    "state": "Vayots Dzor Region",
    "city": "Gladzor"
  },
  {
    "source_id": "ChIJSehc_K69akAR5hWXcDHb1G0",
    "name": "IRRRISAL Irrigation systems",
    "category": "IRRRISAL Irrigation systems",
    "formatted_address": "Sulama Ekipmanları Tedarikçisi · 210/1 Arshakunyats AveKapanmak üzere ⋅ 18:00 ⋅ Açılış zamanı: Paz 10:00 · +374 99 000559",
    "phone_number": "+37499000559",
    "source_url": "https://www.google.com/maps/place/IRRRISAL+Irrigation+systems/data=!4m7!3m6!1s0x406abdaefc5ce849:0x6dd4db31709715e6!8m2!3d40.1428036!4d44.4957727!16s%2Fg%2F11jgmv2bl9!19sChIJSehc_K69akAR5hWXcDHb1G0?authuser=0&hl=tr&rclk=1",
    "website_url": "",
    "rating_text": "",
    "stars": null,
    "number_of_reviews": null,
    "price_level": "",
    "open_hours": "",
    "extraction_timestamp": "2025-06-07T13:20:42.285Z",
    "source_name": "google",
    "source_query": "Irrigation Equipment",
    "source_country": "AM",
    "country": "Armenia",
    "state": "Vayots Dzor Region",
    "city": "Gladzor"
  },
  {
    "source_id": "ChIJ8_riUEq9akARq1_fzkTLj9w",
    "name": "Gorciqner.am",
    "category": "Gorciqner.am",
    "formatted_address": "4,6(25)",
    "phone_number": "+37495065176",
    "source_url": "https://www.google.com/maps/place/Gorciqner.am/data=!4m7!3m6!1s0x406abd4a50e2faf3:0xdc8fcb44cedf5fab!8m2!3d40.2078698!4d44.5402048!16s%2Fg%2F11hczz26vn!19sChIJ8_riUEq9akARq1_fzkTLj9w?authuser=0&hl=tr&rclk=1",
    "website_url": "http://gorciqner.am/",
    "rating_text": "4,6",
    "stars": null,
    "number_of_reviews": null,
    "price_level": "",
    "open_hours": "",
    "extraction_timestamp": "2025-06-07T13:20:42.287Z",
    "source_name": "google",
    "source_query": "Irrigation Equipment",
    "source_country": "AM",
    "country": "Armenia",
    "state": "Vayots Dzor Region",
    "city": "Gladzor"
  },
  {
    "source_id": "ChIJVVXl4PS8akARiI91mzdLyCI",
    "name": "AQUA Systems Armenia",
    "category": "AQUA Systems Armenia",
    "formatted_address": "3,9(16)",
    "phone_number": "+37433606060",
    "source_url": "https://www.google.com/maps/place/AQUA+Systems+Armenia/data=!4m7!3m6!1s0x406abcf4e0e55555:0x22c84b379b758f88!8m2!3d40.1711706!4d44.520994!16s%2Fg%2F11h84zy3x2!19sChIJVVXl4PS8akARiI91mzdLyCI?authuser=0&hl=tr&rclk=1",
    "website_url": "https://aquasystems.am/",
    "rating_text": "3,9",
    "stars": null,
    "number_of_reviews": null,
    "price_level": "",
    "open_hours": "",
    "extraction_timestamp": "2025-06-07T13:20:42.296Z",
    "source_name": "google",
    "source_query": "Irrigation Equipment",
    "source_country": "AM",
    "country": "Armenia",
    "state": "Vayots Dzor Region",
    "city": "Gladzor"
  },
  {
    "source_id": "ChIJkQkLn6eXakARsnkoD2RCHgw",
    "name": "O2 Gardens",
    "category": "O2 Gardens",
    "formatted_address": "O2 Gardens",
    "phone_number": "+37411202202",
    "source_url": "https://www.google.com/maps/place/O2+Gardens/data=!4m7!3m6!1s0x406a97a79f0b0991:0xc1e42640f2879b2!8m2!3d40.2159135!4d44.4382438!16s%2Fg%2F11rtzltrtb!19sChIJkQkLn6eXakARsnkoD2RCHgw?authuser=0&hl=tr&rclk=1",
    "website_url": "https://www.o2gardens.am/",
    "rating_text": "4,2",
    "stars": null,
    "number_of_reviews": null,
    "price_level": "",
    "open_hours": "",
    "extraction_timestamp": "2025-06-07T13:20:42.297Z",
    "source_name": "google",
    "source_query": "Irrigation Equipment",
    "source_country": "AM",
    "country": "Armenia",
    "state": "Vayots Dzor Region",
    "city": "Gladzor"
  }
]
