[
  {
    "source_id": "ChIJpSuXbBDVP0ARvSDh4cSYw44",
    "name": "Jermuk Group CJSC",
    "category": "Jermuk Group CJSC",
    "formatted_address": "4,9(10)",
    "phone_number": "",
    "source_url": "https://www.google.com/maps/place/Jermuk+Group+CJSC/data=!4m7!3m6!1s0x403fd5106c972ba5:0x8ec398c4e1e120bd!8m2!3d39.8391022!4d45.6631989!16s%2Fg%2F1tgj79qq!19sChIJpSuXbBDVP0ARvSDh4cSYw44?authuser=0&hl=tr&rclk=1",
    "website_url": "",
    "rating_text": "4,9",
    "stars": null,
    "number_of_reviews": null,
    "price_level": "",
    "open_hours": "",
    "extraction_timestamp": "2025-06-07T15:07:30.898Z",
    "source_name": "google",
    "source_query": "Irrigation Equipment",
    "source_country": "AM",
    "country": "Armenia",
    "state": "Vayots Dzor Region",
    "city": "Jermuk"
  },
  {
    "source_id": "ChIJoZEF5RXVP0ARB0N7Ji5N6Yc",
    "name": "Jermuk Hotel",
    "category": "Jermuk Hotel",
    "formatted_address": "4,7(190)",
    "phone_number": "+37460441144",
    "source_url": "https://www.google.com/maps/place/Jermuk+Hotel/data=!4m10!3m9!1s0x403fd515e50591a1:0x87e94d2e267b4307!5m2!4m1!1i2!8m2!3d39.8328141!4d45.666818!16s%2Fg%2F1tg66l3l!19sChIJoZEF5RXVP0ARB0N7Ji5N6Yc?authuser=0&hl=tr&rclk=1",
    "website_url": "http://jermukhotel.am/",
    "rating_text": "4,7",
    "stars": null,
    "number_of_reviews": null,
    "price_level": "",
    "open_hours": "",
    "extraction_timestamp": "2025-06-07T15:07:30.899Z",
    "source_name": "google",
    "source_query": "Irrigation Equipment",
    "source_country": "AM",
    "country": "Armenia",
    "state": "Vayots Dzor Region",
    "city": "Jermuk"
  },
  {
    "source_id": "ChIJ7e0RnRDVP0AR12HVT9HS34E",
    "name": "Dolphin Lake",
    "category": "Dolphin Lake",
    "formatted_address": "5,0(6)",
    "phone_number": "",
    "source_url": "https://www.google.com/maps/place/Dolphin+Lake/data=!4m7!3m6!1s0x403fd5109d11eded:0x81dfd2d14fd561d7!8m2!3d39.8385238!4d45.6659406!16s%2Fg%2F1tdcvlff!19sChIJ7e0RnRDVP0AR12HVT9HS34E?authuser=0&hl=tr&rclk=1",
    "website_url": "",
    "rating_text": "5,0",
    "stars": null,
    "number_of_reviews": null,
    "price_level": "",
    "open_hours": "",
    "extraction_timestamp": "2025-06-07T15:07:30.899Z",
    "source_name": "google",
    "source_query": "Irrigation Equipment",
    "source_country": "AM",
    "country": "Armenia",
    "state": "Vayots Dzor Region",
    "city": "Jermuk"
  },
  {
    "source_id": "ChIJ6_q5mYujakARHImBZS4MM5U",
    "name": "Aqua Master",
    "category": "Aqua Master",
    "formatted_address": "5,0(3)",
    "phone_number": "+37443826682",
    "source_url": "https://www.google.com/maps/place/Aqua+Master/data=!4m7!3m6!1s0x406aa38b99b9faeb:0x95330c2e6581891c!8m2!3d40.2408716!4d44.5710315!16s%2Fg%2F11l6mbhtpr!19sChIJ6_q5mYujakARHImBZS4MM5U?authuser=0&hl=tr&rclk=1",
    "website_url": "https://www.irrigation.am/",
    "rating_text": "5,0",
    "stars": null,
    "number_of_reviews": null,
    "price_level": "",
    "open_hours": "",
    "extraction_timestamp": "2025-06-07T15:07:30.899Z",
    "source_name": "google",
    "source_query": "Irrigation Equipment",
    "source_country": "AM",
    "country": "Armenia",
    "state": "Vayots Dzor Region",
    "city": "Jermuk"
  },
  {
    "source_id": "ChIJz2PxrY7VP0ARbhtjvydOlOU",
    "name": "Магазин продуктов",
    "category": "Магазин продуктов",
    "formatted_address": "5,0(1)",
    "phone_number": "",
    "source_url": "https://www.google.com/maps/place/%D0%9C%D0%B0%D0%B3%D0%B0%D0%B7%D0%B8%D0%BD+%D0%BF%D1%80%D0%BE%D0%B4%D1%83%D0%BA%D1%82%D0%BE%D0%B2/data=!4m7!3m6!1s0x403fd58eadf163cf:0xe5944e27bf631b6e!8m2!3d39.8433039!4d45.6770999!16s%2Fg%2F11ss6tj690!19sChIJz2PxrY7VP0ARbhtjvydOlOU?authuser=0&hl=tr&rclk=1",
    "website_url": "",
    "rating_text": "5,0",
    "stars": null,
    "number_of_reviews": null,
    "price_level": "",
    "open_hours": "",
    "extraction_timestamp": "2025-06-07T15:07:30.900Z",
    "source_name": "google",
    "source_query": "Irrigation Equipment",
    "source_country": "AM",
    "country": "Armenia",
    "state": "Vayots Dzor Region",
    "city": "Jermuk"
  },
  {
    "source_id": "ChIJ02H1fJm8akARGkCR2BU48us",
    "name": "Iratek LLC",
    "category": "Iratek LLC",
    "formatted_address": "4,7(3)",
    "phone_number": "+37433646646",
    "source_url": "https://www.google.com/maps/place/Iratek+LLC/data=!4m7!3m6!1s0x406abc997cf561d3:0xebf23815d891401a!8m2!3d40.1702145!4d44.5495049!16s%2Fg%2F11b7c2xs5d!19sChIJ02H1fJm8akARGkCR2BU48us?authuser=0&hl=tr&rclk=1",
    "website_url": "http://www.iratek.am/",
    "rating_text": "4,7",
    "stars": null,
    "number_of_reviews": null,
    "price_level": "",
    "open_hours": "",
    "extraction_timestamp": "2025-06-07T15:07:30.901Z",
    "source_name": "google",
    "source_query": "Irrigation Equipment",
    "source_country": "AM",
    "country": "Armenia",
    "state": "Vayots Dzor Region",
    "city": "Jermuk"
  },
  {
    "source_id": "ChIJmXihRQDVP0AR_7FE6Nv-QTg",
    "name": "Ախպերների խանութ",
    "category": "Ախպերների խանութ",
    "formatted_address": "Bakkal · RMP8+F7P, Shahumyan StreetAçık ⋅ Kapanış saati: 23:00",
    "phone_number": "",
    "source_url": "https://www.google.com/maps/place/%D4%B1%D5%AD%D5%BA%D5%A5%D6%80%D5%B6%D5%A5%D6%80%D5%AB+%D5%AD%D5%A1%D5%B6%D5%B8%D6%82%D5%A9/data=!4m7!3m6!1s0x403fd50045a17899:0x3841fedbe844b1ff!8m2!3d39.8362208!4d45.6656937!16s%2Fg%2F11vxspsfjp!19sChIJmXihRQDVP0AR_7FE6Nv-QTg?authuser=0&hl=tr&rclk=1",
    "website_url": "",
    "rating_text": "",
    "stars": null,
    "number_of_reviews": null,
    "price_level": "",
    "open_hours": "",
    "extraction_timestamp": "2025-06-07T15:07:30.901Z",
    "source_name": "google",
    "source_query": "Irrigation Equipment",
    "source_country": "AM",
    "country": "Armenia",
    "state": "Vayots Dzor Region",
    "city": "Jermuk"
  }
]
