[
  {
    "source_id": "ChIJ6_q5mYujakARHImBZS4MM5U",
    "name": "Aqua Master",
    "category": "Aqua Master",
    "formatted_address": "5,0(3)",
    "phone_number": "+37443826682",
    "source_url": "https://www.google.com/maps/place/Aqua+Master/data=!4m7!3m6!1s0x406aa38b99b9faeb:0x95330c2e6581891c!8m2!3d40.2408716!4d44.5710315!16s%2Fg%2F11l6mbhtpr!19sChIJ6_q5mYujakARHImBZS4MM5U?authuser=0&hl=tr&rclk=1",
    "website_url": "",
    "rating_text": "5,0",
    "stars": null,
    "number_of_reviews": null,
    "price_level": "",
    "open_hours": "",
    "extraction_timestamp": "2025-06-07T15:08:05.176Z",
    "source_name": "google",
    "source_query": "Irrigation Equipment",
    "source_country": "AM",
    "country": "Armenia",
    "state": "Vayots Dzor Region",
    "city": "Vayk’"
  },
  {
    "source_id": "ChIJ02H1fJm8akARGkCR2BU48us",
    "name": "Iratek LLC",
    "category": "Iratek LLC",
    "formatted_address": "4,7(3)",
    "phone_number": "+37433646646",
    "source_url": "https://www.google.com/maps/place/Iratek+LLC/data=!4m7!3m6!1s0x406abc997cf561d3:0xebf23815d891401a!8m2!3d40.1702145!4d44.5495049!16s%2Fg%2F11b7c2xs5d!19sChIJ02H1fJm8akARGkCR2BU48us?authuser=0&hl=tr&rclk=1",
    "website_url": "",
    "rating_text": "4,7",
    "stars": null,
    "number_of_reviews": null,
    "price_level": "",
    "open_hours": "",
    "extraction_timestamp": "2025-06-07T15:08:05.181Z",
    "source_name": "google",
    "source_query": "Irrigation Equipment",
    "source_country": "AM",
    "country": "Armenia",
    "state": "Vayots Dzor Region",
    "city": "Vayk’"
  },
  {
    "source_id": "ChIJK-VcILudFUAR30SMDUZWiYA",
    "name": "MenDav",
    "category": "MenDav",
    "formatted_address": "4,5(13)",
    "phone_number": "+37493377565",
    "source_url": "https://www.google.com/maps/place/MenDav/data=!4m7!3m6!1s0x40159dbb205ce52b:0x808956460d8c44df!8m2!3d39.689744!4d45.4708779!16s%2Fg%2F1q62cyk09!19sChIJK-VcILudFUAR30SMDUZWiYA?authuser=0&hl=tr&rclk=1",
    "website_url": "",
    "rating_text": "4,5",
    "stars": null,
    "number_of_reviews": null,
    "price_level": "",
    "open_hours": "",
    "extraction_timestamp": "2025-06-07T15:08:05.184Z",
    "source_name": "google",
    "source_query": "Irrigation Equipment",
    "source_country": "AM",
    "country": "Armenia",
    "state": "Vayots Dzor Region",
    "city": "Vayk’"
  },
  {
    "source_id": "ChIJ9_T_lbqdFUARec4LvSqJ8yM",
    "name": "Lotus Supermarket",
    "category": "Lotus Supermarket",
    "formatted_address": "5,0(6)",
    "phone_number": "",
    "source_url": "https://www.google.com/maps/place/Lotus+Supermarket/data=!4m7!3m6!1s0x40159dba95fff4f7:0x23f3892abd0bce79!8m2!3d39.6888361!4d45.4724395!16s%2Fg%2F11d_ycztks!19sChIJ9_T_lbqdFUARec4LvSqJ8yM?authuser=0&hl=tr&rclk=1",
    "website_url": "",
    "rating_text": "5,0",
    "stars": null,
    "number_of_reviews": null,
    "price_level": "",
    "open_hours": "",
    "extraction_timestamp": "2025-06-07T15:08:05.185Z",
    "source_name": "google",
    "source_query": "Irrigation Equipment",
    "source_country": "AM",
    "country": "Armenia",
    "state": "Vayots Dzor Region",
    "city": "Vayk’"
  },
  {
    "source_id": "ChIJ_11g2eadFUARAuNFGs-Dcbw",
    "name": "Lider Complex Supermarket",
    "category": "Lider Complex Supermarket",
    "formatted_address": "5,0(6)",
    "phone_number": "+37494757505",
    "source_url": "https://www.google.com/maps/place/Lider+Complex+Supermarket/data=!4m7!3m6!1s0x40159de6d9605dff:0xbc7183cf1a45e302!8m2!3d39.6889653!4d45.4730602!16s%2Fg%2F11h4nbrjvt!19sChIJ_11g2eadFUARAuNFGs-Dcbw?authuser=0&hl=tr&rclk=1",
    "website_url": "",
    "rating_text": "5,0",
    "stars": null,
    "number_of_reviews": null,
    "price_level": "",
    "open_hours": "",
    "extraction_timestamp": "2025-06-07T15:08:05.188Z",
    "source_name": "google",
    "source_query": "Irrigation Equipment",
    "source_country": "AM",
    "country": "Armenia",
    "state": "Vayots Dzor Region",
    "city": "Vayk’"
  },
  {
    "source_id": "ChIJrcblpq-dFUARkE7Q-0z6dEw",
    "name": "Grand Market",
    "category": "Grand Market",
    "formatted_address": "Mağaza · 31, 1 Jermuk HighwayKapalı ⋅ Açılış zamanı: Pzt 09:00",
    "phone_number": "",
    "source_url": "https://www.google.com/maps/place/Grand+Market/data=!4m7!3m6!1s0x40159dafa6e5c6ad:0x4c74fa4cfbd04e90!8m2!3d39.6888445!4d45.4723723!16s%2Fg%2F11km_jkkgw!19sChIJrcblpq-dFUARkE7Q-0z6dEw?authuser=0&hl=tr&rclk=1",
    "website_url": "",
    "rating_text": "",
    "stars": null,
    "number_of_reviews": null,
    "price_level": "",
    "open_hours": "",
    "extraction_timestamp": "2025-06-07T15:08:05.189Z",
    "source_name": "google",
    "source_query": "Irrigation Equipment",
    "source_country": "AM",
    "country": "Armenia",
    "state": "Vayots Dzor Region",
    "city": "Vayk’"
  },
  {
    "source_id": "ChIJ78OUfwCdFUARhP8zcr9hPuA",
    "name": "Zateek Coffee",
    "category": "Zateek Coffee",
    "formatted_address": "5,0(2)",
    "phone_number": "",
    "source_url": "https://www.google.com/maps/place/Zateek+Coffee/data=!4m7!3m6!1s0x40159d007f94c3ef:0xe03e61bf7233ff84!8m2!3d39.6890022!4d45.4721764!16s%2Fg%2F11xgjsr_4n!19sChIJ78OUfwCdFUARhP8zcr9hPuA?authuser=0&hl=tr&rclk=1",
    "website_url": "",
    "rating_text": "5,0",
    "stars": null,
    "number_of_reviews": null,
    "price_level": "",
    "open_hours": "",
    "extraction_timestamp": "2025-06-07T15:08:05.191Z",
    "source_name": "google",
    "source_query": "Irrigation Equipment",
    "source_country": "AM",
    "country": "Armenia",
    "state": "Vayots Dzor Region",
    "city": "Vayk’"
  },
  {
    "source_id": "ChIJSehc_K69akAR5hWXcDHb1G0",
    "name": "IRRRISAL Irrigation systems",
    "category": "IRRRISAL Irrigation systems",
    "formatted_address": "Sulama Ekipmanları Tedarikçisi · 210/1 Arshakunyats AveKapalı ⋅ Açılış zamanı: Paz 10:00 · +374 99 000559",
    "phone_number": "+37499000559",
    "source_url": "https://www.google.com/maps/place/IRRRISAL+Irrigation+systems/data=!4m7!3m6!1s0x406abdaefc5ce849:0x6dd4db31709715e6!8m2!3d40.1428036!4d44.4957727!16s%2Fg%2F11jgmv2bl9!19sChIJSehc_K69akAR5hWXcDHb1G0?authuser=0&hl=tr&rclk=1",
    "website_url": "",
    "rating_text": "",
    "stars": null,
    "number_of_reviews": null,
    "price_level": "",
    "open_hours": "",
    "extraction_timestamp": "2025-06-07T15:08:05.192Z",
    "source_name": "google",
    "source_query": "Irrigation Equipment",
    "source_country": "AM",
    "country": "Armenia",
    "state": "Vayots Dzor Region",
    "city": "Vayk’"
  }
]
