[
  {
    "source_id": "ChIJ6_q5mYujakARHImBZS4MM5U",
    "name": "Aqua Master",
    "category": "Aqua Master",
    "formatted_address": "5,0(3)",
    "phone_number": "+37443826682",
    "source_url": "https://www.google.com/maps/place/Aqua+Master/data=!4m7!3m6!1s0x406aa38b99b9faeb:0x95330c2e6581891c!8m2!3d40.2408716!4d44.5710315!16s%2Fg%2F11l6mbhtpr!19sChIJ6_q5mYujakARHImBZS4MM5U?authuser=0&hl=tr&rclk=1",
    "website_url": "",
    "rating_text": "5,0",
    "stars": null,
    "number_of_reviews": null,
    "price_level": "",
    "open_hours": "",
    "extraction_timestamp": "2025-06-07T15:07:56.574Z",
    "source_name": "google",
    "source_query": "Irrigation Equipment",
    "source_country": "AM",
    "country": "Armenia",
    "state": "Vayots Dzor Region",
    "city": "Yeghegnadzor"
  },
  {
    "source_id": "ChIJ02H1fJm8akARGkCR2BU48us",
    "name": "Iratek LLC",
    "category": "Iratek LLC",
    "formatted_address": "4,7(3)",
    "phone_number": "+37433646646",
    "source_url": "https://www.google.com/maps/place/Iratek+LLC/data=!4m7!3m6!1s0x406abc997cf561d3:0xebf23815d891401a!8m2!3d40.1702145!4d44.5495049!16s%2Fg%2F11b7c2xs5d!19sChIJ02H1fJm8akARGkCR2BU48us?authuser=0&hl=tr&rclk=1",
    "website_url": "",
    "rating_text": "4,7",
    "stars": null,
    "number_of_reviews": null,
    "price_level": "",
    "open_hours": "",
    "extraction_timestamp": "2025-06-07T15:07:56.575Z",
    "source_name": "google",
    "source_query": "Irrigation Equipment",
    "source_country": "AM",
    "country": "Armenia",
    "state": "Vayots Dzor Region",
    "city": "Yeghegnadzor"
  },
  {
    "source_id": "ChIJaXVMmxpxFUARRaxK9gHPywo",
    "name": "Պիցցա Եղեգնաձոր",
    "category": "Պիցցա Եղեգնաձոր",
    "formatted_address": "4,1(8)",
    "phone_number": "+37494770987",
    "source_url": "https://www.google.com/maps/place/%D5%8A%D5%AB%D6%81%D6%81%D5%A1+%D4%B5%D5%B2%D5%A5%D5%A3%D5%B6%D5%A1%D5%B1%D5%B8%D6%80/data=!4m7!3m6!1s0x4015711a9b4c7569:0xacbcf01f64aac45!8m2!3d39.7599667!4d45.33307!16s%2Fg%2F11g6hyw2j6!19sChIJaXVMmxpxFUARRaxK9gHPywo?authuser=0&hl=tr&rclk=1",
    "website_url": "",
    "rating_text": "4,1",
    "stars": null,
    "number_of_reviews": null,
    "price_level": "",
    "open_hours": "",
    "extraction_timestamp": "2025-06-07T15:07:56.575Z",
    "source_name": "google",
    "source_query": "Irrigation Equipment",
    "source_country": "AM",
    "country": "Armenia",
    "state": "Vayots Dzor Region",
    "city": "Yeghegnadzor"
  },
  {
    "source_id": "ChIJ5wfFrh5xFUAR4S_1P8RuwYw",
    "name": "ԲԻԳ ՓՐՈԴԱՔԹ ՍՊԸ",
    "category": "ԲԻԳ ՓՐՈԴԱՔԹ ՍՊԸ",
    "formatted_address": "",
    "phone_number": "+37455807002",
    "source_url": "https://www.google.com/maps/place/%D4%B2%D4%BB%D4%B3+%D5%93%D5%90%D5%88%D4%B4%D4%B1%D5%94%D4%B9+%D5%8D%D5%8A%D4%B8/data=!4m7!3m6!1s0x4015711eaec507e7:0x8cc16ec43ff52fe1!8m2!3d39.7598668!4d45.3304793!16s%2Fg%2F11x6c1dvdr!19sChIJ5wfFrh5xFUAR4S_1P8RuwYw?authuser=0&hl=tr&rclk=1",
    "website_url": "",
    "rating_text": "",
    "stars": null,
    "number_of_reviews": null,
    "price_level": "",
    "open_hours": "",
    "extraction_timestamp": "2025-06-07T15:07:56.576Z",
    "source_name": "google",
    "source_query": "Irrigation Equipment",
    "source_country": "AM",
    "country": "Armenia",
    "state": "Vayots Dzor Region",
    "city": "Yeghegnadzor"
  },
  {
    "source_id": "ChIJT5yVnBpxFUARgw06Kv3e39s",
    "name": "RIGHT MARKET",
    "category": "RIGHT MARKET",
    "formatted_address": "4,8(12)",
    "phone_number": "+37428161170",
    "source_url": "https://www.google.com/maps/place/RIGHT+MARKET/data=!4m7!3m6!1s0x4015711a9c959c4f:0xdbdfdefd2a3a0d83!8m2!3d39.7599375!4d45.3328702!16s%2Fg%2F11dx91y6_p!19sChIJT5yVnBpxFUARgw06Kv3e39s?authuser=0&hl=tr&rclk=1",
    "website_url": "",
    "rating_text": "4,8",
    "stars": null,
    "number_of_reviews": null,
    "price_level": "",
    "open_hours": "",
    "extraction_timestamp": "2025-06-07T15:07:56.576Z",
    "source_name": "google",
    "source_query": "Irrigation Equipment",
    "source_country": "AM",
    "country": "Armenia",
    "state": "Vayots Dzor Region",
    "city": "Yeghegnadzor"
  },
  {
    "source_id": "ChIJG3rqlb1xFUARjO8qinVgkYI",
    "name": "Сельпо",
    "category": "Сельпо",
    "formatted_address": "5,0(2)",
    "phone_number": "",
    "source_url": "https://www.google.com/maps/place/%D0%A1%D0%B5%D0%BB%D1%8C%D0%BF%D0%BE/data=!4m7!3m6!1s0x401571bd95ea7a1b:0x829160758a2aef8c!8m2!3d39.7705122!4d45.3353842!16s%2Fg%2F11q3__3ltz!19sChIJG3rqlb1xFUARjO8qinVgkYI?authuser=0&hl=tr&rclk=1",
    "website_url": "",
    "rating_text": "5,0",
    "stars": null,
    "number_of_reviews": null,
    "price_level": "",
    "open_hours": "",
    "extraction_timestamp": "2025-06-07T15:07:56.576Z",
    "source_name": "google",
    "source_query": "Irrigation Equipment",
    "source_country": "AM",
    "country": "Armenia",
    "state": "Vayots Dzor Region",
    "city": "Yeghegnadzor"
  },
  {
    "source_id": "ChIJjQJDJxlxFUARm8kmTUwdFc8",
    "name": "Vachik-jan Market | Магазин Продуктов",
    "category": "Vachik-jan Market | Магазин Продуктов",
    "formatted_address": "5,0(3)",
    "phone_number": "+37494343132",
    "source_url": "https://www.google.com/maps/place/Vachik-jan+Market+%7C+%D0%9C%D0%B0%D0%B3%D0%B0%D0%B7%D0%B8%D0%BD+%D0%9F%D1%80%D0%BE%D0%B4%D1%83%D0%BA%D1%82%D0%BE%D0%B2/data=!4m7!3m6!1s0x401571192743028d:0xcf151d4c4d26c99b!8m2!3d39.7721702!4d45.3293022!16s%2Fg%2F11jyqkk8zl!19sChIJjQJDJxlxFUARm8kmTUwdFc8?authuser=0&hl=tr&rclk=1",
    "website_url": "",
    "rating_text": "5,0",
    "stars": null,
    "number_of_reviews": null,
    "price_level": "",
    "open_hours": "",
    "extraction_timestamp": "2025-06-07T15:07:56.577Z",
    "source_name": "google",
    "source_query": "Irrigation Equipment",
    "source_country": "AM",
    "country": "Armenia",
    "state": "Vayots Dzor Region",
    "city": "Yeghegnadzor"
  },
  {
    "source_id": "ChIJf3FZCuJxFUARW9CJ6BQ289c",
    "name": "Noric Nor Minimarket",
    "category": "Noric Nor Minimarket",
    "formatted_address": "5,0(9)",
    "phone_number": "+37493575755",
    "source_url": "https://www.google.com/maps/place/Noric+Nor+Minimarket/data=!4m7!3m6!1s0x401571e20a59717f:0xd7f33614e889d05b!8m2!3d39.758621!4d45.3315079!16s%2Fg%2F11srgn0xx_!19sChIJf3FZCuJxFUARW9CJ6BQ289c?authuser=0&hl=tr&rclk=1",
    "website_url": "",
    "rating_text": "5,0",
    "stars": null,
    "number_of_reviews": null,
    "price_level": "",
    "open_hours": "",
    "extraction_timestamp": "2025-06-07T15:07:56.577Z",
    "source_name": "google",
    "source_query": "Irrigation Equipment",
    "source_country": "AM",
    "country": "Armenia",
    "state": "Vayots Dzor Region",
    "city": "Yeghegnadzor"
  },
  {
    "source_id": "ChIJo4I3OC9xFUARgZdpmPiLU1g",
    "name": "LILI Market",
    "category": "LILI Market",
    "formatted_address": "5,0(3)",
    "phone_number": "",
    "source_url": "https://www.google.com/maps/place/LILI+Market/data=!4m7!3m6!1s0x4015712f383782a3:0x58538bf898699781!8m2!3d39.7571294!4d45.3323532!16s%2Fg%2F11kqvwlcv3!19sChIJo4I3OC9xFUARgZdpmPiLU1g?authuser=0&hl=tr&rclk=1",
    "website_url": "",
    "rating_text": "5,0",
    "stars": null,
    "number_of_reviews": null,
    "price_level": "",
    "open_hours": "",
    "extraction_timestamp": "2025-06-07T15:07:56.577Z",
    "source_name": "google",
    "source_query": "Irrigation Equipment",
    "source_country": "AM",
    "country": "Armenia",
    "state": "Vayots Dzor Region",
    "city": "Yeghegnadzor"
  },
  {
    "source_id": "ChIJKQDQnBpxFUARZWN-mZAIL_A",
    "name": "Sevaki A4",
    "category": "Sevaki A4",
    "formatted_address": "Süpermarket · Q85M+W4M, Sevak StreetAçık ⋅ Kapanış saati: 23:00 · +374 281 61170",
    "phone_number": "+37428161170",
    "source_url": "https://www.google.com/maps/place/Sevaki+A4/data=!4m7!3m6!1s0x4015711a9cd00029:0xf02f0890997e6365!8m2!3d39.759831!4d45.332796!16s%2Fg%2F11c6qdwsr7!19sChIJKQDQnBpxFUARZWN-mZAIL_A?authuser=0&hl=tr&rclk=1",
    "website_url": "",
    "rating_text": "",
    "stars": null,
    "number_of_reviews": null,
    "price_level": "",
    "open_hours": "",
    "extraction_timestamp": "2025-06-07T15:07:56.578Z",
    "source_name": "google",
    "source_query": "Irrigation Equipment",
    "source_country": "AM",
    "country": "Armenia",
    "state": "Vayots Dzor Region",
    "city": "Yeghegnadzor"
  },
  {
    "source_id": "ChIJSehc_K69akAR5hWXcDHb1G0",
    "name": "IRRRISAL Irrigation systems",
    "category": "IRRRISAL Irrigation systems",
    "formatted_address": "Sulama Ekipmanları Tedarikçisi · 210/1 Arshakunyats AveKapalı ⋅ Açılış zamanı: Paz 10:00 · +374 99 000559",
    "phone_number": "+37499000559",
    "source_url": "https://www.google.com/maps/place/IRRRISAL+Irrigation+systems/data=!4m7!3m6!1s0x406abdaefc5ce849:0x6dd4db31709715e6!8m2!3d40.1428036!4d44.4957727!16s%2Fg%2F11jgmv2bl9!19sChIJSehc_K69akAR5hWXcDHb1G0?authuser=0&hl=tr&rclk=1",
    "website_url": "",
    "rating_text": "",
    "stars": null,
    "number_of_reviews": null,
    "price_level": "",
    "open_hours": "",
    "extraction_timestamp": "2025-06-07T15:07:56.578Z",
    "source_name": "google",
    "source_query": "Irrigation Equipment",
    "source_country": "AM",
    "country": "Armenia",
    "state": "Vayots Dzor Region",
    "city": "Yeghegnadzor"
  }
]
