[
  {
    "source_id": "ChIJFXvSmH_YukARLbHoiybo7Is",
    "name": "DEPOZIT MATERIALE CONSTRUCTII MAX 23 AUGUST",
    "category": "DEPOZIT MATERIALE CONSTRUCTII MAX 23 AUGUST",
    "formatted_address": "DEPOZIT MATERIALE CONSTRUCTII MAX 23 AUGUST",
    "phone_number": "+40241733848",
    "source_url": "https://www.google.com/maps/place/DEPOZIT+MATERIALE+CONSTRUCTII+MAX+23+AUGUST/data=!4m7!3m6!1s0x40bad87f98d27b15:0x8bece8268be8b12d!8m2!3d43.9234369!4d28.5856869!16s%2Fg%2F11f3473npk!19sChIJFXvSmH_YukARLbHoiybo7Is?authuser=0&hl=tr&rclk=1",
    "website_url": "",
    "rating_text": "4,8",
    "stars": null,
    "number_of_reviews": null,
    "price_level": "",
    "open_hours": "",
    "extraction_timestamp": "2025-06-07T13:43:47.226Z",
    "source_name": "google",
    "source_query": "Irrigation Equipment",
    "source_country": "RO",
    "country": "Romania",
    "state": "Constanța County",
    "city": "23 August"
  },
  {
    "source_id": "ChIJJxnpT5LnukARNzeGdA7AKlQ",
    "name": "Karina Sea 98 - Depozit & Magazin materiale de constructii Techirghiol",
    "category": "Karina Sea 98 - Depozit & Magazin materiale de constructii Techirghiol",
    "formatted_address": "Karina Sea 98 - Depozit & Magazin materiale de constructii Techirghiol",
    "phone_number": "+40731379391",
    "source_url": "https://www.google.com/maps/place/Karina+Sea+98+-+Depozit+%26+Magazin+materiale+de+constructii+Techirghiol/data=!4m7!3m6!1s0x40bae7924fe91927:0x542ac00e74863737!8m2!3d44.0619564!4d28.5987748!16s%2Fg%2F11gxmh3xt9!19sChIJJxnpT5LnukARNzeGdA7AKlQ?authuser=0&hl=tr&rclk=1",
    "website_url": "",
    "rating_text": "4,1",
    "stars": null,
    "number_of_reviews": null,
    "price_level": "",
    "open_hours": "",
    "extraction_timestamp": "2025-06-07T13:43:47.227Z",
    "source_name": "google",
    "source_query": "Irrigation Equipment",
    "source_country": "RO",
    "country": "Romania",
    "state": "Constanța County",
    "city": "23 August"
  },
  {
    "source_id": "ChIJzSZUv9Mnu0ARzOZ18TagwXo",
    "name": "I&M Polux",
    "category": "I&M Polux",
    "formatted_address": "4,2(102)",
    "phone_number": "+40747338738",
    "source_url": "https://www.google.com/maps/place/I%26M+Polux/data=!4m7!3m6!1s0x40bb27d3bf5426cd:0x7ac1a036f175e6cc!8m2!3d43.9125418!4d28.578798!16s%2Fg%2F11hz_3qrry!19sChIJzSZUv9Mnu0ARzOZ18TagwXo?authuser=0&hl=tr&rclk=1",
    "website_url": "",
    "rating_text": "4,2",
    "stars": null,
    "number_of_reviews": null,
    "price_level": "",
    "open_hours": "",
    "extraction_timestamp": "2025-06-07T13:43:47.228Z",
    "source_name": "google",
    "source_query": "Irrigation Equipment",
    "source_country": "RO",
    "country": "Romania",
    "state": "Constanța County",
    "city": "23 August"
  },
  {
    "source_id": "ChIJZWI_jMgnu0ARsW7LIgdxaOs",
    "name": "Non-Stop",
    "category": "Non-Stop",
    "formatted_address": "4,2(90)",
    "phone_number": "",
    "source_url": "https://www.google.com/maps/place/Non-Stop/data=!4m7!3m6!1s0x40bb27c88c3f6265:0xeb68710722cb6eb1!8m2!3d43.9169036!4d28.5818!16s%2Fg%2F11j3t9pfh8!19sChIJZWI_jMgnu0ARsW7LIgdxaOs?authuser=0&hl=tr&rclk=1",
    "website_url": "",
    "rating_text": "4,2",
    "stars": null,
    "number_of_reviews": null,
    "price_level": "",
    "open_hours": "",
    "extraction_timestamp": "2025-06-07T13:43:47.228Z",
    "source_name": "google",
    "source_query": "Irrigation Equipment",
    "source_country": "RO",
    "country": "Romania",
    "state": "Constanța County",
    "city": "23 August"
  },
  {
    "source_id": "ChIJz1SoPNYnu0AR0TOZokDIb0s",
    "name": "Market La Doi Pasi Oceanic Olimp",
    "category": "Market La Doi Pasi Oceanic Olimp",
    "formatted_address": "3,4(15)",
    "phone_number": "+40753522204",
    "source_url": "https://www.google.com/maps/place/Market+La+Doi+Pasi+Oceanic+Olimp/data=!4m7!3m6!1s0x40bb27d63ca854cf:0x4b6fc840a29933d1!8m2!3d43.882004!4d28.6040165!16s%2Fg%2F11s33kp5y0!19sChIJz1SoPNYnu0AR0TOZokDIb0s?authuser=0&hl=tr&rclk=1",
    "website_url": "",
    "rating_text": "3,4",
    "stars": null,
    "number_of_reviews": null,
    "price_level": "",
    "open_hours": "",
    "extraction_timestamp": "2025-06-07T13:43:47.229Z",
    "source_name": "google",
    "source_query": "Irrigation Equipment",
    "source_country": "RO",
    "country": "Romania",
    "state": "Constanța County",
    "city": "23 August"
  },
  {
    "source_id": "ChIJrZRrFlMnu0AR66b3PCaUqZs",
    "name": "La Doi Pasi",
    "category": "La Doi Pasi",
    "formatted_address": "4,5(2)",
    "phone_number": "",
    "source_url": "https://www.google.com/maps/place/La+Doi+Pasi/data=!4m7!3m6!1s0x40bb2753166b94ad:0x9ba994263cf7a6eb!8m2!3d43.8979122!4d28.6091925!16s%2Fg%2F11v18x7b8m!19sChIJrZRrFlMnu0AR66b3PCaUqZs?authuser=0&hl=tr&rclk=1",
    "website_url": "",
    "rating_text": "4,5",
    "stars": null,
    "number_of_reviews": null,
    "price_level": "",
    "open_hours": "",
    "extraction_timestamp": "2025-06-07T13:43:47.230Z",
    "source_name": "google",
    "source_query": "Irrigation Equipment",
    "source_country": "RO",
    "country": "Romania",
    "state": "Constanța County",
    "city": "23 August"
  },
  {
    "source_id": "ChIJH-OX_YzZukARmATi_ZfBlvI",
    "name": "Magazin Alimentar \"Găzdaru\"",
    "category": "Magazin Alimentar \"Găzdaru\"",
    "formatted_address": "4,7(48)",
    "phone_number": "+40766683759",
    "source_url": "https://www.google.com/maps/place/Magazin+Alimentar+%22G%C4%83zdaru%22/data=!4m7!3m6!1s0x40bad98cfd97e31f:0xf296c197fde20498!8m2!3d43.9200171!4d28.5835498!16s%2Fg%2F11fq9q8hpb!19sChIJH-OX_YzZukARmATi_ZfBlvI?authuser=0&hl=tr&rclk=1",
    "website_url": "",
    "rating_text": "4,7",
    "stars": null,
    "number_of_reviews": null,
    "price_level": "",
    "open_hours": "",
    "extraction_timestamp": "2025-06-07T13:43:47.231Z",
    "source_name": "google",
    "source_query": "Irrigation Equipment",
    "source_country": "RO",
    "country": "Romania",
    "state": "Constanța County",
    "city": "23 August"
  },
  {
    "source_id": "ChIJVVVVcUwnu0ARIAhPHJktnOM",
    "name": "23 August Beach",
    "category": "23 August Beach",
    "formatted_address": "23 August Beach",
    "phone_number": "",
    "source_url": "https://www.google.com/maps/place/23+August+Beach/data=!4m7!3m6!1s0x40bb274c71555555:0xe39c2d991c4f0820!8m2!3d43.906533!4d28.6206912!16s%2Fg%2F11cs1wvpj6!19sChIJVVVVcUwnu0ARIAhPHJktnOM?authuser=0&hl=tr&rclk=1",
    "website_url": "",
    "rating_text": "4,2",
    "stars": null,
    "number_of_reviews": null,
    "price_level": "",
    "open_hours": "",
    "extraction_timestamp": "2025-06-07T13:43:47.234Z",
    "source_name": "google",
    "source_query": "Irrigation Equipment",
    "source_country": "RO",
    "country": "Romania",
    "state": "Constanța County",
    "city": "23 August"
  },
  {
    "source_id": "ChIJTxdRZ7gnu0ARYG-R75jWksE",
    "name": "Faleza 23",
    "category": "Faleza 23",
    "formatted_address": "4,3(237)",
    "phone_number": "+40762774544",
    "source_url": "https://www.google.com/maps/place/Faleza+23/data=!4m7!3m6!1s0x40bb27b86751174f:0xc192d698ef916f60!8m2!3d43.9173482!4d28.6315464!16s%2Fg%2F11n85z_ypm!19sChIJTxdRZ7gnu0ARYG-R75jWksE?authuser=0&hl=tr&rclk=1",
    "website_url": "",
    "rating_text": "4,3",
    "stars": null,
    "number_of_reviews": null,
    "price_level": "",
    "open_hours": "",
    "extraction_timestamp": "2025-06-07T13:43:47.236Z",
    "source_name": "google",
    "source_query": "Irrigation Equipment",
    "source_country": "RO",
    "country": "Romania",
    "state": "Constanța County",
    "city": "23 August"
  },
  {
    "source_id": "ChIJUzUN7IzzukARTwVr2SXoFIA",
    "name": "Titan Machinery Constanta",
    "category": "Titan Machinery Constanta",
    "formatted_address": "4,5(48)",
    "phone_number": "+40374367640",
    "source_url": "https://www.google.com/maps/place/Titan+Machinery+Constanta/data=!4m7!3m6!1s0x40baf38cec0d3553:0x8014e825d96b054f!8m2!3d44.2839278!4d28.5561504!16s%2Fg%2F11g8trht3p!19sChIJUzUN7IzzukARTwVr2SXoFIA?authuser=0&hl=tr&rclk=1",
    "website_url": "",
    "rating_text": "4,5",
    "stars": null,
    "number_of_reviews": null,
    "price_level": "",
    "open_hours": "",
    "extraction_timestamp": "2025-06-07T13:43:47.237Z",
    "source_name": "google",
    "source_query": "Irrigation Equipment",
    "source_country": "RO",
    "country": "Romania",
    "state": "Constanța County",
    "city": "23 August"
  },
  {
    "source_id": "ChIJ3yH2Leknu0AR8OnusbPusIQ",
    "name": "Express Makret",
    "category": "Express Makret",
    "formatted_address": "5,0(41)",
    "phone_number": "+40720575259",
    "source_url": "https://www.google.com/maps/place/Express+Makret/data=!4m7!3m6!1s0x40bb27e92df621df:0x84b0eeb3b1eee9f0!8m2!3d43.9465152!4d28.627752!16s%2Fg%2F11hdvwd12p!19sChIJ3yH2Leknu0AR8OnusbPusIQ?authuser=0&hl=tr&rclk=1",
    "website_url": "",
    "rating_text": "5,0",
    "stars": null,
    "number_of_reviews": null,
    "price_level": "",
    "open_hours": "",
    "extraction_timestamp": "2025-06-07T13:43:47.238Z",
    "source_name": "google",
    "source_query": "Irrigation Equipment",
    "source_country": "RO",
    "country": "Romania",
    "state": "Constanța County",
    "city": "23 August"
  },
  {
    "source_id": "ChIJzUdzcfMou0ARqW-VtJz1Q58",
    "name": "Paradis Land",
    "category": "Paradis Land",
    "formatted_address": "4,4(2.455)",
    "phone_number": "+40756166611",
    "source_url": "https://www.google.com/maps/place/Paradis+Land/data=!4m7!3m6!1s0x40bb28f3717347cd:0x9f43f59cb4956fa9!8m2!3d43.8623613!4d28.5939536!16s%2Fg%2F11c0pzjrmp!19sChIJzUdzcfMou0ARqW-VtJz1Q58?authuser=0&hl=tr&rclk=1",
    "website_url": "",
    "rating_text": "4,4",
    "stars": null,
    "number_of_reviews": null,
    "price_level": "",
    "open_hours": "",
    "extraction_timestamp": "2025-06-07T13:43:47.241Z",
    "source_name": "google",
    "source_query": "Irrigation Equipment",
    "source_country": "RO",
    "country": "Romania",
    "state": "Constanța County",
    "city": "23 August"
  },
  {
    "source_id": "ChIJNQ74Ukknu0ARQ_RheY9ByDw",
    "name": "JT Air & Watersports",
    "category": "JT Air & Watersports",
    "formatted_address": "3,3(30)",
    "phone_number": "+40770129786",
    "source_url": "https://www.google.com/maps/place/JT+Air+%26+Watersports/data=!4m7!3m6!1s0x40bb274952f80e35:0x3cc8418f7961f443!8m2!3d43.9458371!4d28.6362901!16s%2Fg%2F11fylvvwqd!19sChIJNQ74Ukknu0ARQ_RheY9ByDw?authuser=0&hl=tr&rclk=1",
    "website_url": "",
    "rating_text": "3,3",
    "stars": null,
    "number_of_reviews": null,
    "price_level": "",
    "open_hours": "",
    "extraction_timestamp": "2025-06-07T13:43:47.242Z",
    "source_name": "google",
    "source_query": "Irrigation Equipment",
    "source_country": "RO",
    "country": "Romania",
    "state": "Constanța County",
    "city": "23 August"
  },
  {
    "source_id": "ChIJnTq_Ooonu0ARd4e2_qyyOEo",
    "name": "Brutarie Patiserie Kosovari",
    "category": "Brutarie Patiserie Kosovari",
    "formatted_address": "4,7(100) · L 20–40",
    "phone_number": "+40757622342",
    "source_url": "https://www.google.com/maps/place/Brutarie+Patiserie+Kosovari/data=!4m7!3m6!1s0x40bb278a3abf3a9d:0x4a38b2acfeb68777!8m2!3d43.9121542!4d28.5779638!16s%2Fg%2F11vcvv3zsv!19sChIJnTq_Ooonu0ARd4e2_qyyOEo?authuser=0&hl=tr&rclk=1",
    "website_url": "",
    "rating_text": "4,7",
    "stars": null,
    "number_of_reviews": null,
    "price_level": "",
    "open_hours": "",
    "extraction_timestamp": "2025-06-07T13:43:47.244Z",
    "source_name": "google",
    "source_query": "Irrigation Equipment",
    "source_country": "RO",
    "country": "Romania",
    "state": "Constanța County",
    "city": "23 August"
  },
  {
    "source_id": "ChIJfefQjFoou0ARvbYIQQxbh4k",
    "name": "Bariera Mangalia",
    "category": "Bariera Mangalia",
    "formatted_address": "3,7(18)",
    "phone_number": "",
    "source_url": "https://www.google.com/maps/place/Bariera+Mangalia/data=!4m7!3m6!1s0x40bb285a8cd0e77d:0x89875b0c4108b6bd!8m2!3d43.861511!4d28.5715332!16s%2Fg%2F11gf8frpgs!19sChIJfefQjFoou0ARvbYIQQxbh4k?authuser=0&hl=tr&rclk=1",
    "website_url": "",
    "rating_text": "3,7",
    "stars": null,
    "number_of_reviews": null,
    "price_level": "",
    "open_hours": "",
    "extraction_timestamp": "2025-06-07T13:43:47.245Z",
    "source_name": "google",
    "source_query": "Irrigation Equipment",
    "source_country": "RO",
    "country": "Romania",
    "state": "Constanța County",
    "city": "23 August"
  },
  {
    "source_id": "ChIJEfeBk4wou0ARARPLYDmx0ko",
    "name": "Supermarket Neptun",
    "category": "Supermarket Neptun",
    "formatted_address": "3,9(191)",
    "phone_number": "+40744194444",
    "source_url": "https://www.google.com/maps/place/Supermarket+Neptun/data=!4m7!3m6!1s0x40bb288c9381f711:0x4ad2b13960cb1301!8m2!3d43.8658064!4d28.5977291!16s%2Fg%2F11gb3z41ny!19sChIJEfeBk4wou0ARARPLYDmx0ko?authuser=0&hl=tr&rclk=1",
    "website_url": "",
    "rating_text": "3,9",
    "stars": null,
    "number_of_reviews": null,
    "price_level": "",
    "open_hours": "",
    "extraction_timestamp": "2025-06-07T13:43:47.246Z",
    "source_name": "google",
    "source_query": "Irrigation Equipment",
    "source_country": "RO",
    "country": "Romania",
    "state": "Constanța County",
    "city": "23 August"
  },
  {
    "source_id": "ChIJIe21_fEnu0ARg2Nbesy1prw",
    "name": "Minimarket Non Stop",
    "category": "Minimarket Non Stop",
    "formatted_address": "4,8(5)",
    "phone_number": "",
    "source_url": "https://www.google.com/maps/place/Minimarket+Non+Stop/data=!4m7!3m6!1s0x40bb27f1fdb5ed21:0xbca6b5cc7a5b6383!8m2!3d43.9466686!4d28.6272268!16s%2Fg%2F11hy_n7bwp!19sChIJIe21_fEnu0ARg2Nbesy1prw?authuser=0&hl=tr&rclk=1",
    "website_url": "",
    "rating_text": "4,8",
    "stars": null,
    "number_of_reviews": null,
    "price_level": "",
    "open_hours": "",
    "extraction_timestamp": "2025-06-07T13:43:47.246Z",
    "source_name": "google",
    "source_query": "Irrigation Equipment",
    "source_country": "RO",
    "country": "Romania",
    "state": "Constanța County",
    "city": "23 August"
  },
  {
    "source_id": "ChIJyYchxEopu0ARSFchaKEnBeI",
    "name": "Market Steaguri",
    "category": "Market Steaguri",
    "formatted_address": "4,7(29)",
    "phone_number": "",
    "source_url": "https://www.google.com/maps/place/Market+Steaguri/data=!4m7!3m6!1s0x40bb294ac42187c9:0xe20527a168215748!8m2!3d43.8662997!4d28.6041958!16s%2Fg%2F11fw_g0gn6!19sChIJyYchxEopu0ARSFchaKEnBeI?authuser=0&hl=tr&rclk=1",
    "website_url": "",
    "rating_text": "4,7",
    "stars": null,
    "number_of_reviews": null,
    "price_level": "",
    "open_hours": "",
    "extraction_timestamp": "2025-06-07T13:43:47.247Z",
    "source_name": "google",
    "source_query": "Irrigation Equipment",
    "source_country": "RO",
    "country": "Romania",
    "state": "Constanța County",
    "city": "23 August"
  },
  {
    "source_id": "ChIJ3y34QcUpu0ARhnm5nefsWQE",
    "name": "Atelier sudura argon indreptat jante aluminiu",
    "category": "Atelier sudura argon indreptat jante aluminiu",
    "formatted_address": "5,0(3)",
    "phone_number": "+40771251161",
    "source_url": "https://www.google.com/maps/place/Atelier+sudura+argon+indreptat+jante+aluminiu/data=!4m7!3m6!1s0x40bb29c541f82ddf:0x159ece79db97986!8m2!3d43.860761!4d28.5711438!16s%2Fg%2F11l8glz47q!19sChIJ3y34QcUpu0ARhnm5nefsWQE?authuser=0&hl=tr&rclk=1",
    "website_url": "",
    "rating_text": "5,0",
    "stars": null,
    "number_of_reviews": null,
    "price_level": "",
    "open_hours": "",
    "extraction_timestamp": "2025-06-07T13:43:47.248Z",
    "source_name": "google",
    "source_query": "Irrigation Equipment",
    "source_country": "RO",
    "country": "Romania",
    "state": "Constanța County",
    "city": "23 August"
  },
  {
    "source_id": "ChIJzwNcLCopu0ARmOjbVhoM2fI",
    "name": "İstanbul bazaar neptun",
    "category": "İstanbul bazaar neptun",
    "formatted_address": "5,0(3)",
    "phone_number": "",
    "source_url": "https://www.google.com/maps/place/%C4%B0stanbul+bazaar+neptun/data=!4m7!3m6!1s0x40bb292a2c5c03cf:0xf2d90c1a56dbe898!8m2!3d43.8653644!4d28.5976857!16s%2Fg%2F11kqqnx5f3!19sChIJzwNcLCopu0ARmOjbVhoM2fI?authuser=0&hl=tr&rclk=1",
    "website_url": "",
    "rating_text": "5,0",
    "stars": null,
    "number_of_reviews": null,
    "price_level": "",
    "open_hours": "",
    "extraction_timestamp": "2025-06-07T13:43:47.249Z",
    "source_name": "google",
    "source_query": "Irrigation Equipment",
    "source_country": "RO",
    "country": "Romania",
    "state": "Constanța County",
    "city": "23 August"
  }
]
