[
  {
    "source_id": "ChIJebOc4afAukARbIlyj0S2wBA",
    "name": "Electo Dem",
    "category": "Electo Dem",
    "formatted_address": "3,9(68)",
    "phone_number": "+40735353286",
    "source_url": "https://www.google.com/maps/place/Electo+Dem/data=!4m7!3m6!1s0x40bac0a7e19cb379:0x10c0b6448f72896c!8m2!3d44.0705536!4d28.2326539!16s%2Fg%2F11b6_fs79r!19sChIJebOc4afAukARbIlyj0S2wBA?authuser=0&hl=tr&rclk=1",
    "website_url": "",
    "rating_text": "3,9",
    "stars": null,
    "number_of_reviews": null,
    "price_level": "",
    "open_hours": "",
    "extraction_timestamp": "2025-06-07T13:44:22.030Z",
    "source_name": "google",
    "source_query": "Irrigation Equipment",
    "source_country": "RO",
    "country": "Romania",
    "state": "Constanța County",
    "city": "Cobadin"
  },
  {
    "source_id": "ChIJWSeo6avAukARO1RJsqcNrIk",
    "name": "Pento Market",
    "category": "Pento Market",
    "formatted_address": "3,9(81)",
    "phone_number": "",
    "source_url": "https://www.google.com/maps/place/Pento+Market/data=!4m7!3m6!1s0x40bac0abe9a82759:0x89ac0da7b249543b!8m2!3d44.0649928!4d28.2312406!16s%2Fg%2F11b75p6j8j!19sChIJWSeo6avAukARO1RJsqcNrIk?authuser=0&hl=tr&rclk=1",
    "website_url": "",
    "rating_text": "3,9",
    "stars": null,
    "number_of_reviews": null,
    "price_level": "",
    "open_hours": "",
    "extraction_timestamp": "2025-06-07T13:44:22.031Z",
    "source_name": "google",
    "source_query": "Irrigation Equipment",
    "source_country": "RO",
    "country": "Romania",
    "state": "Constanța County",
    "city": "Cobadin"
  },
  {
    "source_id": "ChIJ50hVhpLxukAR4eynDSVY2DA",
    "name": "sisteme irigatii/irrigation system",
    "category": "sisteme irigatii/irrigation system",
    "formatted_address": "",
    "phone_number": "+40720300211",
    "source_url": "https://www.google.com/maps/place/sisteme+irigatii%2Firrigation+system/data=!4m7!3m6!1s0x40baf192865548e7:0x30d858250da7ece1!8m2!3d44.2488592!4d28.5681867!16s%2Fg%2F11r8vwz55l!19sChIJ50hVhpLxukAR4eynDSVY2DA?authuser=0&hl=tr&rclk=1",
    "website_url": "",
    "rating_text": "",
    "stars": null,
    "number_of_reviews": null,
    "price_level": "",
    "open_hours": "",
    "extraction_timestamp": "2025-06-07T13:44:22.051Z",
    "source_name": "google",
    "source_query": "Irrigation Equipment",
    "source_country": "RO",
    "country": "Romania",
    "state": "Constanța County",
    "city": "Cobadin"
  },
  {
    "source_id": "ChIJA79PH7bHukARCkdNII38qbo",
    "name": "SC Europress Denisa SRL",
    "category": "SC Europress Denisa SRL",
    "formatted_address": "5,0(1)",
    "phone_number": "",
    "source_url": "https://www.google.com/maps/place/SC+Europress+Denisa+SRL/data=!4m7!3m6!1s0x40bac7b61f4fbf03:0xbaa9fc8d204d470a!8m2!3d44.0570822!4d28.2377668!16s%2Fg%2F11vjmcdvbs!19sChIJA79PH7bHukARCkdNII38qbo?authuser=0&hl=tr&rclk=1",
    "website_url": "",
    "rating_text": "5,0",
    "stars": null,
    "number_of_reviews": null,
    "price_level": "",
    "open_hours": "",
    "extraction_timestamp": "2025-06-07T13:44:22.051Z",
    "source_name": "google",
    "source_query": "Irrigation Equipment",
    "source_country": "RO",
    "country": "Romania",
    "state": "Constanța County",
    "city": "Cobadin"
  },
  {
    "source_id": "ChIJlW3tMqrAukARAti0hE1L7CQ",
    "name": "Piața Centrală",
    "category": "Piața Centrală",
    "formatted_address": "3,8(15)",
    "phone_number": "",
    "source_url": "https://www.google.com/maps/place/Pia%C8%9Ba+Central%C4%83/data=!4m7!3m6!1s0x40bac0aa32ed6d95:0x24ec4b4d84b4d802!8m2!3d44.0656036!4d28.2294171!16s%2Fg%2F11bw63x0sj!19sChIJlW3tMqrAukARAti0hE1L7CQ?authuser=0&hl=tr&rclk=1",
    "website_url": "",
    "rating_text": "3,8",
    "stars": null,
    "number_of_reviews": null,
    "price_level": "",
    "open_hours": "",
    "extraction_timestamp": "2025-06-07T13:44:22.052Z",
    "source_name": "google",
    "source_query": "Irrigation Equipment",
    "source_country": "RO",
    "country": "Romania",
    "state": "Constanța County",
    "city": "Cobadin"
  },
  {
    "source_id": "ChIJrSWN3lnBukARF9jelTQvZSI",
    "name": "La doi paşi",
    "category": "La doi paşi",
    "formatted_address": "4,0(219)",
    "phone_number": "+40374072072",
    "source_url": "https://www.google.com/maps/place/La+doi+pa%C5%9Fi/data=!4m7!3m6!1s0x40bac159de8d25ad:0x22652f3495ded817!8m2!3d44.0657614!4d28.2299171!16s%2Fg%2F11b6zwk0s5!19sChIJrSWN3lnBukARF9jelTQvZSI?authuser=0&hl=tr&rclk=1",
    "website_url": "",
    "rating_text": "4,0",
    "stars": null,
    "number_of_reviews": null,
    "price_level": "",
    "open_hours": "",
    "extraction_timestamp": "2025-06-07T13:44:22.052Z",
    "source_name": "google",
    "source_query": "Irrigation Equipment",
    "source_country": "RO",
    "country": "Romania",
    "state": "Constanța County",
    "city": "Cobadin"
  },
  {
    "source_id": "ChIJtX6tVEflukARXjKzd-jpeJg",
    "name": "Partener S.R.L.",
    "category": "Partener S.R.L.",
    "formatted_address": "4,6(17)",
    "phone_number": "+40744704534",
    "source_url": "https://www.google.com/maps/place/Partener+S.R.L./data=!4m7!3m6!1s0x40bae54754ad7eb5:0x9878e9e877b3325e!8m2!3d44.1604855!4d28.5978515!16s%2Fg%2F1hc6rtfjh!19sChIJtX6tVEflukARXjKzd-jpeJg?authuser=0&hl=tr&rclk=1",
    "website_url": "",
    "rating_text": "4,6",
    "stars": null,
    "number_of_reviews": null,
    "price_level": "",
    "open_hours": "",
    "extraction_timestamp": "2025-06-07T13:44:22.053Z",
    "source_name": "google",
    "source_query": "Irrigation Equipment",
    "source_country": "RO",
    "country": "Romania",
    "state": "Constanța County",
    "city": "Cobadin"
  },
  {
    "source_id": "ChIJQUZdMqrAukARgN02zo5ds3Y",
    "name": "Magnum Market",
    "category": "Magnum Market",
    "formatted_address": "4,3(38)",
    "phone_number": "+40722504149",
    "source_url": "https://www.google.com/maps/place/Magnum+Market/data=!4m7!3m6!1s0x40bac0aa325d4641:0x76b35d8ece36dd80!8m2!3d44.0656788!4d28.2290368!16s%2Fg%2F11b6zt5t75!19sChIJQUZdMqrAukARgN02zo5ds3Y?authuser=0&hl=tr&rclk=1",
    "website_url": "",
    "rating_text": "4,3",
    "stars": null,
    "number_of_reviews": null,
    "price_level": "",
    "open_hours": "",
    "extraction_timestamp": "2025-06-07T13:44:22.054Z",
    "source_name": "google",
    "source_query": "Irrigation Equipment",
    "source_country": "RO",
    "country": "Romania",
    "state": "Constanța County",
    "city": "Cobadin"
  },
  {
    "source_id": "ChIJpfXNwLTAukARdjLazjFrX9I",
    "name": "Obor Cobadin",
    "category": "Obor Cobadin",
    "formatted_address": "3,8(156)",
    "phone_number": "",
    "source_url": "https://www.google.com/maps/place/Obor+Cobadin/data=!4m7!3m6!1s0x40bac0b4c0cdf5a5:0xd25f6b31ceda3276!8m2!3d44.0583575!4d28.2441223!16s%2Fg%2F11b6zvm340!19sChIJpfXNwLTAukARdjLazjFrX9I?authuser=0&hl=tr&rclk=1",
    "website_url": "",
    "rating_text": "3,8",
    "stars": null,
    "number_of_reviews": null,
    "price_level": "",
    "open_hours": "",
    "extraction_timestamp": "2025-06-07T13:44:22.054Z",
    "source_name": "google",
    "source_query": "Irrigation Equipment",
    "source_country": "RO",
    "country": "Romania",
    "state": "Constanța County",
    "city": "Cobadin"
  },
  {
    "source_id": "ChIJWWQZZ3DHukARM8ALKc1yqOc",
    "name": "La doi paşi",
    "category": "La doi paşi",
    "formatted_address": "4,0(44)",
    "phone_number": "+40374072072",
    "source_url": "https://www.google.com/maps/place/La+doi+pa%C5%9Fi/data=!4m7!3m6!1s0x40bac77067196459:0xe7a872cd290bc033!8m2!3d44.0599537!4d28.2268764!16s%2Fg%2F11d_2c4mbt!19sChIJWWQZZ3DHukARM8ALKc1yqOc?authuser=0&hl=tr&rclk=1",
    "website_url": "",
    "rating_text": "4,0",
    "stars": null,
    "number_of_reviews": null,
    "price_level": "",
    "open_hours": "",
    "extraction_timestamp": "2025-06-07T13:44:22.054Z",
    "source_name": "google",
    "source_query": "Irrigation Equipment",
    "source_country": "RO",
    "country": "Romania",
    "state": "Constanța County",
    "city": "Cobadin"
  },
  {
    "source_id": "ChIJgUccXFTlukARgmLa-3WY0C4",
    "name": "Sevirox Garden",
    "category": "Sevirox Garden",
    "formatted_address": "5,0(13)",
    "phone_number": "+40764814001",
    "source_url": "https://www.google.com/maps/place/Sevirox+Garden/data=!4m7!3m6!1s0x40bae5545c1c4781:0x2ed09875fbda6282!8m2!3d44.19335!4d28.5907635!16s%2Fg%2F11qnrv5y6f!19sChIJgUccXFTlukARgmLa-3WY0C4?authuser=0&hl=tr&rclk=1",
    "website_url": "",
    "rating_text": "5,0",
    "stars": null,
    "number_of_reviews": null,
    "price_level": "",
    "open_hours": "",
    "extraction_timestamp": "2025-06-07T13:44:22.055Z",
    "source_name": "google",
    "source_query": "Irrigation Equipment",
    "source_country": "RO",
    "country": "Romania",
    "state": "Constanța County",
    "city": "Cobadin"
  },
  {
    "source_id": "ChIJnZN-qFrBukARmznpXcHQmmg",
    "name": "La doi paşi",
    "category": "La doi paşi",
    "formatted_address": "4,1(55)",
    "phone_number": "+40374072072",
    "source_url": "https://www.google.com/maps/place/La+doi+pa%C5%9Fi/data=!4m7!3m6!1s0x40bac15aa87e939d:0x689ad0c15de9399b!8m2!3d44.0635619!4d28.2352542!16s%2Fg%2F11bw3d6cy2!19sChIJnZN-qFrBukARmznpXcHQmmg?authuser=0&hl=tr&rclk=1",
    "website_url": "",
    "rating_text": "4,1",
    "stars": null,
    "number_of_reviews": null,
    "price_level": "",
    "open_hours": "",
    "extraction_timestamp": "2025-06-07T13:44:22.056Z",
    "source_name": "google",
    "source_query": "Irrigation Equipment",
    "source_country": "RO",
    "country": "Romania",
    "state": "Constanța County",
    "city": "Cobadin"
  },
  {
    "source_id": "ChIJfZotcTHBukARZWYkaQEMwBY",
    "name": "Profi Super",
    "category": "Profi Super",
    "formatted_address": "4,0(211)",
    "phone_number": "+40746284282",
    "source_url": "https://www.google.com/maps/place/Profi+Super/data=!4m7!3m6!1s0x40bac131712d9a7d:0x16c00c0169246665!8m2!3d44.0675945!4d28.2298707!16s%2Fg%2F11jghsdzzb!19sChIJfZotcTHBukARZWYkaQEMwBY?authuser=0&hl=tr&rclk=1",
    "website_url": "",
    "rating_text": "4,0",
    "stars": null,
    "number_of_reviews": null,
    "price_level": "",
    "open_hours": "",
    "extraction_timestamp": "2025-06-07T13:44:22.057Z",
    "source_name": "google",
    "source_query": "Irrigation Equipment",
    "source_country": "RO",
    "country": "Romania",
    "state": "Constanța County",
    "city": "Cobadin"
  }
]
