[
  {
    "source_id": "ChIJFXvSmH_YukARLbHoiybo7Is",
    "name": "DEPOZIT MATERIALE CONSTRUCTII MAX 23 AUGUST",
    "category": "DEPOZIT MATERIALE CONSTRUCTII MAX 23 AUGUST",
    "formatted_address": "DEPOZIT MATERIALE CONSTRUCTII MAX 23 AUGUST",
    "phone_number": "+40241733848",
    "source_url": "https://www.google.com/maps/place/DEPOZIT+MATERIALE+CONSTRUCTII+MAX+23+AUGUST/data=!4m7!3m6!1s0x40bad87f98d27b15:0x8bece8268be8b12d!8m2!3d43.9234369!4d28.5856869!16s%2Fg%2F11f3473npk!19sChIJFXvSmH_YukARLbHoiybo7Is?authuser=0&hl=tr&rclk=1",
    "website_url": "",
    "rating_text": "4,8",
    "stars": null,
    "number_of_reviews": null,
    "price_level": "",
    "open_hours": "",
    "extraction_timestamp": "2025-06-07T13:43:13.110Z",
    "source_name": "google",
    "source_query": "Irrigation Equipment",
    "source_country": "RO",
    "country": "Romania",
    "state": "Constanța County",
    "city": "Comuna 23 August"
  },
  {
    "source_id": "ChIJzSZUv9Mnu0ARzOZ18TagwXo",
    "name": "I&M Polux",
    "category": "I&M Polux",
    "formatted_address": "4,2(102)",
    "phone_number": "+40747338738",
    "source_url": "https://www.google.com/maps/place/I%26M+Polux/data=!4m7!3m6!1s0x40bb27d3bf5426cd:0x7ac1a036f175e6cc!8m2!3d43.9125418!4d28.578798!16s%2Fg%2F11hz_3qrry!19sChIJzSZUv9Mnu0ARzOZ18TagwXo?authuser=0&hl=tr&rclk=1",
    "website_url": "",
    "rating_text": "4,2",
    "stars": null,
    "number_of_reviews": null,
    "price_level": "",
    "open_hours": "",
    "extraction_timestamp": "2025-06-07T13:43:13.111Z",
    "source_name": "google",
    "source_query": "Irrigation Equipment",
    "source_country": "RO",
    "country": "Romania",
    "state": "Constanța County",
    "city": "Comuna 23 August"
  },
  {
    "source_id": "ChIJH-OX_YzZukARmATi_ZfBlvI",
    "name": "Magazin Alimentar \"Găzdaru\"",
    "category": "Magazin Alimentar \"Găzdaru\"",
    "formatted_address": "4,7(48)",
    "phone_number": "+40766683759",
    "source_url": "https://www.google.com/maps/place/Magazin+Alimentar+%22G%C4%83zdaru%22/data=!4m7!3m6!1s0x40bad98cfd97e31f:0xf296c197fde20498!8m2!3d43.9200171!4d28.5835498!16s%2Fg%2F11fq9q8hpb!19sChIJH-OX_YzZukARmATi_ZfBlvI?authuser=0&hl=tr&rclk=1",
    "website_url": "",
    "rating_text": "4,7",
    "stars": null,
    "number_of_reviews": null,
    "price_level": "",
    "open_hours": "",
    "extraction_timestamp": "2025-06-07T13:43:13.113Z",
    "source_name": "google",
    "source_query": "Irrigation Equipment",
    "source_country": "RO",
    "country": "Romania",
    "state": "Constanța County",
    "city": "Comuna 23 August"
  },
  {
    "source_id": "ChIJJxnpT5LnukARNzeGdA7AKlQ",
    "name": "Karina Sea 98 - Depozit & Magazin materiale de constructii Techirghiol",
    "category": "Karina Sea 98 - Depozit & Magazin materiale de constructii Techirghiol",
    "formatted_address": "Karina Sea 98 - Depozit & Magazin materiale de constructii Techirghiol",
    "phone_number": "+40731379391",
    "source_url": "https://www.google.com/maps/place/Karina+Sea+98+-+Depozit+%26+Magazin+materiale+de+constructii+Techirghiol/data=!4m7!3m6!1s0x40bae7924fe91927:0x542ac00e74863737!8m2!3d44.0619564!4d28.5987748!16s%2Fg%2F11gxmh3xt9!19sChIJJxnpT5LnukARNzeGdA7AKlQ?authuser=0&hl=tr&rclk=1",
    "website_url": "",
    "rating_text": "4,1",
    "stars": null,
    "number_of_reviews": null,
    "price_level": "",
    "open_hours": "",
    "extraction_timestamp": "2025-06-07T13:43:13.114Z",
    "source_name": "google",
    "source_query": "Irrigation Equipment",
    "source_country": "RO",
    "country": "Romania",
    "state": "Constanța County",
    "city": "Comuna 23 August"
  },
  {
    "source_id": "ChIJUzUN7IzzukARTwVr2SXoFIA",
    "name": "Titan Machinery Constanta",
    "category": "Titan Machinery Constanta",
    "formatted_address": "4,5(48)",
    "phone_number": "+40374367640",
    "source_url": "https://www.google.com/maps/place/Titan+Machinery+Constanta/data=!4m7!3m6!1s0x40baf38cec0d3553:0x8014e825d96b054f!8m2!3d44.2839278!4d28.5561504!16s%2Fg%2F11g8trht3p!19sChIJUzUN7IzzukARTwVr2SXoFIA?authuser=0&hl=tr&rclk=1",
    "website_url": "",
    "rating_text": "4,5",
    "stars": null,
    "number_of_reviews": null,
    "price_level": "",
    "open_hours": "",
    "extraction_timestamp": "2025-06-07T13:43:13.116Z",
    "source_name": "google",
    "source_query": "Irrigation Equipment",
    "source_country": "RO",
    "country": "Romania",
    "state": "Constanța County",
    "city": "Comuna 23 August"
  },
  {
    "source_id": "ChIJZWI_jMgnu0ARsW7LIgdxaOs",
    "name": "Non-Stop",
    "category": "Non-Stop",
    "formatted_address": "4,2(90)",
    "phone_number": "",
    "source_url": "https://www.google.com/maps/place/Non-Stop/data=!4m7!3m6!1s0x40bb27c88c3f6265:0xeb68710722cb6eb1!8m2!3d43.9169036!4d28.5818!16s%2Fg%2F11j3t9pfh8!19sChIJZWI_jMgnu0ARsW7LIgdxaOs?authuser=0&hl=tr&rclk=1",
    "website_url": "",
    "rating_text": "4,2",
    "stars": null,
    "number_of_reviews": null,
    "price_level": "",
    "open_hours": "",
    "extraction_timestamp": "2025-06-07T13:43:13.117Z",
    "source_name": "google",
    "source_query": "Irrigation Equipment",
    "source_country": "RO",
    "country": "Romania",
    "state": "Constanța County",
    "city": "Comuna 23 August"
  }
]
