[
  {
    "source_id": "ChIJNQ74Ukknu0ARQ_RheY9ByDw",
    "name": "JT Air & Watersports",
    "category": "JT Air & Watersports",
    "formatted_address": "3,3(30)",
    "phone_number": "+40770129786",
    "source_url": "https://www.google.com/maps/place/JT+Air+%26+Watersports/data=!4m7!3m6!1s0x40bb274952f80e35:0x3cc8418f7961f443!8m2!3d43.9458371!4d28.6362901!16s%2Fg%2F11fylvvwqd!19sChIJNQ74Ukknu0ARQ_RheY9ByDw?authuser=0&hl=tr&rclk=1",
    "website_url": "",
    "rating_text": "3,3",
    "stars": null,
    "number_of_reviews": null,
    "price_level": "",
    "open_hours": "",
    "extraction_timestamp": "2025-06-07T13:42:19.463Z",
    "source_name": "google",
    "source_query": "Irrigation Equipment",
    "source_country": "RO",
    "country": "Romania",
    "state": "Constanța County",
    "city": "Costineşti"
  },
  {
    "source_id": "ChIJQ-3CYwInu0AR_YqzvVmD2oE",
    "name": "Profi Paris",
    "category": "Profi Paris",
    "formatted_address": "3,8(412)",
    "phone_number": "",
    "source_url": "https://www.google.com/maps/place/Profi+Paris/data=!4m7!3m6!1s0x40bb270263c2ed43:0x81da8359bdb38afd!8m2!3d43.9480236!4d28.633397!16s%2Fg%2F11r4d65cql!19sChIJQ-3CYwInu0AR_YqzvVmD2oE?authuser=0&hl=tr&rclk=1",
    "website_url": "",
    "rating_text": "3,8",
    "stars": null,
    "number_of_reviews": null,
    "price_level": "",
    "open_hours": "",
    "extraction_timestamp": "2025-06-07T13:42:19.464Z",
    "source_name": "google",
    "source_query": "Irrigation Equipment",
    "source_country": "RO",
    "country": "Romania",
    "state": "Constanța County",
    "city": "Costineşti"
  },
  {
    "source_id": "ChIJ8aZBVq4gu0AR-5raU2BuPFU",
    "name": "Supermarket zen",
    "category": "Supermarket zen",
    "formatted_address": "4,0(603)",
    "phone_number": "+40740274244",
    "source_url": "https://www.google.com/maps/place/Supermarket+zen/data=!4m7!3m6!1s0x40bb20ae5641a6f1:0x553c6e6053da9afb!8m2!3d43.9580081!4d28.6373584!16s%2Fg%2F11g8v23bnq!19sChIJ8aZBVq4gu0AR-5raU2BuPFU?authuser=0&hl=tr&rclk=1",
    "website_url": "",
    "rating_text": "4,0",
    "stars": null,
    "number_of_reviews": null,
    "price_level": "",
    "open_hours": "",
    "extraction_timestamp": "2025-06-07T13:42:19.466Z",
    "source_name": "google",
    "source_query": "Irrigation Equipment",
    "source_country": "RO",
    "country": "Romania",
    "state": "Constanța County",
    "city": "Costineşti"
  },
  {
    "source_id": "ChIJ50hVhpLxukAR4eynDSVY2DA",
    "name": "sisteme irigatii/irrigation system",
    "category": "sisteme irigatii/irrigation system",
    "formatted_address": "",
    "phone_number": "+40720300211",
    "source_url": "https://www.google.com/maps/place/sisteme+irigatii%2Firrigation+system/data=!4m7!3m6!1s0x40baf192865548e7:0x30d858250da7ece1!8m2!3d44.2488592!4d28.5681867!16s%2Fg%2F11r8vwz55l!19sChIJ50hVhpLxukAR4eynDSVY2DA?authuser=0&hl=tr&rclk=1",
    "website_url": "",
    "rating_text": "",
    "stars": null,
    "number_of_reviews": null,
    "price_level": "",
    "open_hours": "",
    "extraction_timestamp": "2025-06-07T13:42:19.467Z",
    "source_name": "google",
    "source_query": "Irrigation Equipment",
    "source_country": "RO",
    "country": "Romania",
    "state": "Constanța County",
    "city": "Costineşti"
  },
  {
    "source_id": "ChIJN93NwbInu0ARQwjCjo4_Cdc",
    "name": "OPEN MARKET - Magazin Alimentar Costinesti",
    "category": "OPEN MARKET - Magazin Alimentar Costinesti",
    "formatted_address": "4,0(103)",
    "phone_number": "",
    "source_url": "https://www.google.com/maps/place/OPEN+MARKET+-+Magazin+Alimentar+Costinesti/data=!4m7!3m6!1s0x40bb27b2c1cddd37:0xd7093f8e8ec20843!8m2!3d43.946188!4d28.6295436!16s%2Fg%2F11jnm8x18d!19sChIJN93NwbInu0ARQwjCjo4_Cdc?authuser=0&hl=tr&rclk=1",
    "website_url": "",
    "rating_text": "4,0",
    "stars": null,
    "number_of_reviews": null,
    "price_level": "",
    "open_hours": "",
    "extraction_timestamp": "2025-06-07T13:42:19.468Z",
    "source_name": "google",
    "source_query": "Irrigation Equipment",
    "source_country": "RO",
    "country": "Romania",
    "state": "Constanța County",
    "city": "Costineşti"
  },
  {
    "source_id": "ChIJtX6tVEflukARXjKzd-jpeJg",
    "name": "Partener S.R.L.",
    "category": "Partener S.R.L.",
    "formatted_address": "4,6(17)",
    "phone_number": "+40744704534",
    "source_url": "https://www.google.com/maps/place/Partener+S.R.L./data=!4m7!3m6!1s0x40bae54754ad7eb5:0x9878e9e877b3325e!8m2!3d44.1604855!4d28.5978515!16s%2Fg%2F1hc6rtfjh!19sChIJtX6tVEflukARXjKzd-jpeJg?authuser=0&hl=tr&rclk=1",
    "website_url": "",
    "rating_text": "4,6",
    "stars": null,
    "number_of_reviews": null,
    "price_level": "",
    "open_hours": "",
    "extraction_timestamp": "2025-06-07T13:42:19.469Z",
    "source_name": "google",
    "source_query": "Irrigation Equipment",
    "source_country": "RO",
    "country": "Romania",
    "state": "Constanța County",
    "city": "Costineşti"
  },
  {
    "source_id": "ChIJbwIEqFUhu0ARYH2f0mC2aqE",
    "name": "Magazin alimentar",
    "category": "Magazin alimentar",
    "formatted_address": "4,8(12)",
    "phone_number": "",
    "source_url": "https://www.google.com/maps/place/Magazin+alimentar/data=!4m7!3m6!1s0x40bb2155a804026f:0xa16ab660d29f7d60!8m2!3d43.9520994!4d28.6337579!16s%2Fg%2F11h_1zmqqb!19sChIJbwIEqFUhu0ARYH2f0mC2aqE?authuser=0&hl=tr&rclk=1",
    "website_url": "",
    "rating_text": "4,8",
    "stars": null,
    "number_of_reviews": null,
    "price_level": "",
    "open_hours": "",
    "extraction_timestamp": "2025-06-07T13:42:19.471Z",
    "source_name": "google",
    "source_query": "Irrigation Equipment",
    "source_country": "RO",
    "country": "Romania",
    "state": "Constanța County",
    "city": "Costineşti"
  },
  {
    "source_id": "ChIJCSWXDk0nu0ARgtp0-0xh7s8",
    "name": "Market Tanase",
    "category": "Market Tanase",
    "formatted_address": "4,5(6)",
    "phone_number": "+40766184424",
    "source_url": "https://www.google.com/maps/place/Market+Tanase/data=!4m7!3m6!1s0x40bb274d0e972509:0xcfee614cfb74da82!8m2!3d43.9504625!4d28.6349367!16s%2Fg%2F11g8lr4m8l!19sChIJCSWXDk0nu0ARgtp0-0xh7s8?authuser=0&hl=tr&rclk=1",
    "website_url": "",
    "rating_text": "4,5",
    "stars": null,
    "number_of_reviews": null,
    "price_level": "",
    "open_hours": "",
    "extraction_timestamp": "2025-06-07T13:42:19.473Z",
    "source_name": "google",
    "source_query": "Irrigation Equipment",
    "source_country": "RO",
    "country": "Romania",
    "state": "Constanța County",
    "city": "Costineşti"
  },
  {
    "source_id": "ChIJPURHAGUnu0ARQdUQlmPYz34",
    "name": "SuperMarket Raluca",
    "category": "SuperMarket Raluca",
    "formatted_address": "4,5(50)",
    "phone_number": "",
    "source_url": "https://www.google.com/maps/place/SuperMarket+Raluca/data=!4m7!3m6!1s0x40bb27650047443d:0x7ecfd8639610d541!8m2!3d43.9500271!4d28.6352204!16s%2Fg%2F11g07ymkgp!19sChIJPURHAGUnu0ARQdUQlmPYz34?authuser=0&hl=tr&rclk=1",
    "website_url": "",
    "rating_text": "4,5",
    "stars": null,
    "number_of_reviews": null,
    "price_level": "",
    "open_hours": "",
    "extraction_timestamp": "2025-06-07T13:42:19.473Z",
    "source_name": "google",
    "source_query": "Irrigation Equipment",
    "source_country": "RO",
    "country": "Romania",
    "state": "Constanța County",
    "city": "Costineşti"
  },
  {
    "source_id": "ChIJEWm7pQwnu0ARtYrrl0czVyU",
    "name": "Vila Cochilia Costinesti",
    "category": "Vila Cochilia Costinesti",
    "formatted_address": "4,7(26)",
    "phone_number": "+40740007654",
    "source_url": "https://www.google.com/maps/place/Vila+Cochilia+Costinesti/data=!4m10!3m9!1s0x40bb270ca5bb6911:0x2557334797eb8ab5!5m2!4m1!1i2!8m2!3d43.9503682!4d28.6318797!16s%2Fg%2F11v3svvfv5!19sChIJEWm7pQwnu0ARtYrrl0czVyU?authuser=0&hl=tr&rclk=1",
    "website_url": "",
    "rating_text": "4,7",
    "stars": null,
    "number_of_reviews": null,
    "price_level": "",
    "open_hours": "",
    "extraction_timestamp": "2025-06-07T13:42:19.474Z",
    "source_name": "google",
    "source_query": "Irrigation Equipment",
    "source_country": "RO",
    "country": "Romania",
    "state": "Constanța County",
    "city": "Costineşti"
  },
  {
    "source_id": "ChIJm0Vq9yQnu0ARAh022ZP4bcA",
    "name": "Piața Costinești",
    "category": "Piața Costinești",
    "formatted_address": "3,8(68)",
    "phone_number": "",
    "source_url": "https://www.google.com/maps/place/Pia%C8%9Ba+Costine%C8%99ti/data=!4m7!3m6!1s0x40bb2724f76a459b:0xc06df893d9361d02!8m2!3d43.9489755!4d28.6328702!16s%2Fg%2F11f8kxf_r2!19sChIJm0Vq9yQnu0ARAh022ZP4bcA?authuser=0&hl=tr&rclk=1",
    "website_url": "",
    "rating_text": "3,8",
    "stars": null,
    "number_of_reviews": null,
    "price_level": "",
    "open_hours": "",
    "extraction_timestamp": "2025-06-07T13:42:19.475Z",
    "source_name": "google",
    "source_query": "Irrigation Equipment",
    "source_country": "RO",
    "country": "Romania",
    "state": "Constanța County",
    "city": "Costineşti"
  },
  {
    "source_id": "ChIJG5q4cb8nu0ARYfsKxdQ0gSI",
    "name": "SUPERMARKET ABC",
    "category": "SUPERMARKET ABC",
    "formatted_address": "4,1(128)",
    "phone_number": "+40751075958",
    "source_url": "https://www.google.com/maps/place/SUPERMARKET+ABC/data=!4m7!3m6!1s0x40bb27bf71b89a1b:0x228134d4c50afb61!8m2!3d43.9513606!4d28.6359198!16s%2Fg%2F11h_7k5zbj!19sChIJG5q4cb8nu0ARYfsKxdQ0gSI?authuser=0&hl=tr&rclk=1",
    "website_url": "",
    "rating_text": "4,1",
    "stars": null,
    "number_of_reviews": null,
    "price_level": "",
    "open_hours": "",
    "extraction_timestamp": "2025-06-07T13:42:19.477Z",
    "source_name": "google",
    "source_query": "Irrigation Equipment",
    "source_country": "RO",
    "country": "Romania",
    "state": "Constanța County",
    "city": "Costineşti"
  },
  {
    "source_id": "ChIJKUwogSonu0ARoIdoHtPdNWY",
    "name": "Fresh Estival Activ",
    "category": "Fresh Estival Activ",
    "formatted_address": "5,0(2)",
    "phone_number": "",
    "source_url": "https://www.google.com/maps/place/Fresh+Estival+Activ/data=!4m7!3m6!1s0x40bb272a81284c29:0x6635ddd31e6887a0!8m2!3d43.9488542!4d28.6334372!16s%2Fg%2F11gl1ypc4v!19sChIJKUwogSonu0ARoIdoHtPdNWY?authuser=0&hl=tr&rclk=1",
    "website_url": "",
    "rating_text": "5,0",
    "stars": null,
    "number_of_reviews": null,
    "price_level": "",
    "open_hours": "",
    "extraction_timestamp": "2025-06-07T13:42:19.478Z",
    "source_name": "google",
    "source_query": "Irrigation Equipment",
    "source_country": "RO",
    "country": "Romania",
    "state": "Constanța County",
    "city": "Costineşti"
  },
  {
    "source_id": "ChIJfy-BjMwhu0ARQ5rvCNyDlGE",
    "name": "Supermarket Costinesti",
    "category": "Supermarket Costinesti",
    "formatted_address": "4,7(18)",
    "phone_number": "",
    "source_url": "https://www.google.com/maps/place/Supermarket+Costinesti/data=!4m7!3m6!1s0x40bb21cc8c812f7f:0x619483dc08ef9a43!8m2!3d43.9532157!4d28.6366706!16s%2Fg%2F11ksp1thhf!19sChIJfy-BjMwhu0ARQ5rvCNyDlGE?authuser=0&hl=tr&rclk=1",
    "website_url": "",
    "rating_text": "4,7",
    "stars": null,
    "number_of_reviews": null,
    "price_level": "",
    "open_hours": "",
    "extraction_timestamp": "2025-06-07T13:42:19.479Z",
    "source_name": "google",
    "source_query": "Irrigation Equipment",
    "source_country": "RO",
    "country": "Romania",
    "state": "Constanța County",
    "city": "Costineşti"
  },
  {
    "source_id": "ChIJ3yH2Leknu0AR8OnusbPusIQ",
    "name": "Express Makret",
    "category": "Express Makret",
    "formatted_address": "5,0(41)",
    "phone_number": "+40720575259",
    "source_url": "https://www.google.com/maps/place/Express+Makret/data=!4m7!3m6!1s0x40bb27e92df621df:0x84b0eeb3b1eee9f0!8m2!3d43.9465152!4d28.627752!16s%2Fg%2F11hdvwd12p!19sChIJ3yH2Leknu0AR8OnusbPusIQ?authuser=0&hl=tr&rclk=1",
    "website_url": "",
    "rating_text": "5,0",
    "stars": null,
    "number_of_reviews": null,
    "price_level": "",
    "open_hours": "",
    "extraction_timestamp": "2025-06-07T13:42:19.480Z",
    "source_name": "google",
    "source_query": "Irrigation Equipment",
    "source_country": "RO",
    "country": "Romania",
    "state": "Constanța County",
    "city": "Costineşti"
  },
  {
    "source_id": "ChIJDVUKhbIgu0ARM7YhFu7Ww38",
    "name": "Marketul Tineretului",
    "category": "Marketul Tineretului",
    "formatted_address": "4,4(5)",
    "phone_number": "",
    "source_url": "https://www.google.com/maps/place/Marketul+Tineretului/data=!4m7!3m6!1s0x40bb20b2850a550d:0x7fc3d6ee1621b633!8m2!3d43.9531134!4d28.6368095!16s%2Fg%2F11ljbtj625!19sChIJDVUKhbIgu0ARM7YhFu7Ww38?authuser=0&hl=tr&rclk=1",
    "website_url": "",
    "rating_text": "4,4",
    "stars": null,
    "number_of_reviews": null,
    "price_level": "",
    "open_hours": "",
    "extraction_timestamp": "2025-06-07T13:42:19.481Z",
    "source_name": "google",
    "source_query": "Irrigation Equipment",
    "source_country": "RO",
    "country": "Romania",
    "state": "Constanța County",
    "city": "Costineşti"
  },
  {
    "source_id": "ChIJgUccXFTlukARgmLa-3WY0C4",
    "name": "Sevirox Garden",
    "category": "Sevirox Garden",
    "formatted_address": "5,0(13)",
    "phone_number": "+40764814001",
    "source_url": "https://www.google.com/maps/place/Sevirox+Garden/data=!4m7!3m6!1s0x40bae5545c1c4781:0x2ed09875fbda6282!8m2!3d44.19335!4d28.5907635!16s%2Fg%2F11qnrv5y6f!19sChIJgUccXFTlukARgmLa-3WY0C4?authuser=0&hl=tr&rclk=1",
    "website_url": "",
    "rating_text": "5,0",
    "stars": null,
    "number_of_reviews": null,
    "price_level": "",
    "open_hours": "",
    "extraction_timestamp": "2025-06-07T13:42:19.483Z",
    "source_name": "google",
    "source_query": "Irrigation Equipment",
    "source_country": "RO",
    "country": "Romania",
    "state": "Constanța County",
    "city": "Costineşti"
  },
  {
    "source_id": "ChIJjTTSf1onu0ARi_lBEaXyc7M",
    "name": "Magazin",
    "category": "Magazin",
    "formatted_address": "4,2(33)",
    "phone_number": "",
    "source_url": "https://www.google.com/maps/place/Magazin/data=!4m7!3m6!1s0x40bb275a7fd2348d:0xb373f2a51141f98b!8m2!3d43.9449553!4d28.6228824!16s%2Fg%2F1tzgmqsk!19sChIJjTTSf1onu0ARi_lBEaXyc7M?authuser=0&hl=tr&rclk=1",
    "website_url": "",
    "rating_text": "4,2",
    "stars": null,
    "number_of_reviews": null,
    "price_level": "",
    "open_hours": "",
    "extraction_timestamp": "2025-06-07T13:42:19.484Z",
    "source_name": "google",
    "source_query": "Irrigation Equipment",
    "source_country": "RO",
    "country": "Romania",
    "state": "Constanța County",
    "city": "Costineşti"
  },
  {
    "source_id": "ChIJ_Z41wLwgu0ARb1MkgzsRfW0",
    "name": "Pofta Pescarului",
    "category": "Pofta Pescarului",
    "formatted_address": "4,4(3.114) · ₺₺",
    "phone_number": "+40742154754",
    "source_url": "https://www.google.com/maps/place/Pofta+Pescarului/data=!4m7!3m6!1s0x40bb20bcc0359efd:0x6d7d113b8324536f!8m2!3d43.9646504!4d28.6507532!16s%2Fg%2F11df0w7f37!19sChIJ_Z41wLwgu0ARb1MkgzsRfW0?authuser=0&hl=tr&rclk=1",
    "website_url": "",
    "rating_text": "4,4",
    "stars": null,
    "number_of_reviews": null,
    "price_level": "",
    "open_hours": "",
    "extraction_timestamp": "2025-06-07T13:42:19.487Z",
    "source_name": "google",
    "source_query": "Irrigation Equipment",
    "source_country": "RO",
    "country": "Romania",
    "state": "Constanța County",
    "city": "Costineşti"
  },
  {
    "source_id": "ChIJa9A0YAAhu0ARssO51yuGqto",
    "name": "Alfa Market",
    "category": "Alfa Market",
    "formatted_address": "5,0(1)",
    "phone_number": "",
    "source_url": "https://www.google.com/maps/place/Alfa+Market/data=!4m7!3m6!1s0x40bb21006034d06b:0xdaaa862bd7b9c3b2!8m2!3d43.9511789!4d28.637398!16s%2Fg%2F11vy0q2yf5!19sChIJa9A0YAAhu0ARssO51yuGqto?authuser=0&hl=tr&rclk=1",
    "website_url": "",
    "rating_text": "5,0",
    "stars": null,
    "number_of_reviews": null,
    "price_level": "",
    "open_hours": "",
    "extraction_timestamp": "2025-06-07T13:42:19.488Z",
    "source_name": "google",
    "source_query": "Irrigation Equipment",
    "source_country": "RO",
    "country": "Romania",
    "state": "Constanța County",
    "city": "Costineşti"
  }
]
