[
  {
    "source_id": "ChIJL09k86TnukAR9Xqt-yUeO3A",
    "name": "Sc INSTALCRIS NON STOP",
    "category": "Sc INSTALCRIS NON STOP",
    "formatted_address": "4,9(94)",
    "phone_number": "+40737269416",
    "source_url": "https://www.google.com/maps/place/Sc+INSTALCRIS+NON+STOP/data=!4m7!3m6!1s0x40bae7a4f3644f2f:0x703b1e25fbad7af5!8m2!3d44.1063561!4d28.5612939!16s%2Fg%2F11rx3nr1gp!19sChIJL09k86TnukAR9Xqt-yUeO3A?authuser=0&hl=tr&rclk=1",
    "website_url": "",
    "rating_text": "4,9",
    "stars": null,
    "number_of_reviews": null,
    "price_level": "",
    "open_hours": "",
    "extraction_timestamp": "2025-06-07T13:43:42.605Z",
    "source_name": "google",
    "source_query": "Irrigation Equipment",
    "source_country": "RO",
    "country": "Romania",
    "state": "Constanța County",
    "city": "Cumpăna"
  },
  {
    "source_id": "ChIJI_azQH3nukARKEYWZS1qZwg",
    "name": "CRISTAL AQUA",
    "category": "CRISTAL AQUA",
    "formatted_address": "4,7(105)",
    "phone_number": "+40790431776",
    "source_url": "https://www.google.com/maps/place/CRISTAL+AQUA/data=!4m7!3m6!1s0x40bae77d40b3f623:0x8676a2d65164628!8m2!3d44.117654!4d28.5631234!16s%2Fg%2F11sq2zr4kt!19sChIJI_azQH3nukARKEYWZS1qZwg?authuser=0&hl=tr&rclk=1",
    "website_url": "",
    "rating_text": "4,7",
    "stars": null,
    "number_of_reviews": null,
    "price_level": "",
    "open_hours": "",
    "extraction_timestamp": "2025-06-07T13:43:42.606Z",
    "source_name": "google",
    "source_query": "Irrigation Equipment",
    "source_country": "RO",
    "country": "Romania",
    "state": "Constanța County",
    "city": "Cumpăna"
  },
  {
    "source_id": "ChIJFzmJrAbnukAR9bUOUWJDwzY",
    "name": "OCTANO",
    "category": "OCTANO",
    "formatted_address": "3,8(27)",
    "phone_number": "+40236314234",
    "source_url": "https://www.google.com/maps/place/OCTANO/data=!4m7!3m6!1s0x40bae706ac893917:0x36c34362510eb5f5!8m2!3d44.1205153!4d28.5707496!16s%2Fg%2F11scv8d57b!19sChIJFzmJrAbnukAR9bUOUWJDwzY?authuser=0&hl=tr&rclk=1",
    "website_url": "",
    "rating_text": "3,8",
    "stars": null,
    "number_of_reviews": null,
    "price_level": "",
    "open_hours": "",
    "extraction_timestamp": "2025-06-07T13:43:42.606Z",
    "source_name": "google",
    "source_query": "Irrigation Equipment",
    "source_country": "RO",
    "country": "Romania",
    "state": "Constanța County",
    "city": "Cumpăna"
  },
  {
    "source_id": "ChIJqZmDrZPvukARafOxwsbRk9o",
    "name": "Star Aqua - water filters",
    "category": "Star Aqua - water filters",
    "formatted_address": "4,7(62)",
    "phone_number": "+40735788788",
    "source_url": "https://www.google.com/maps/place/Star+Aqua+-+water+filters/data=!4m7!3m6!1s0x40baef93ad8399a9:0xda93d1c6c2b1f369!8m2!3d44.1769258!4d28.6014246!16s%2Fg%2F11hd_9vzxl!19sChIJqZmDrZPvukARafOxwsbRk9o?authuser=0&hl=tr&rclk=1",
    "website_url": "",
    "rating_text": "4,7",
    "stars": null,
    "number_of_reviews": null,
    "price_level": "",
    "open_hours": "",
    "extraction_timestamp": "2025-06-07T13:43:42.607Z",
    "source_name": "google",
    "source_query": "Irrigation Equipment",
    "source_country": "RO",
    "country": "Romania",
    "state": "Constanța County",
    "city": "Cumpăna"
  },
  {
    "source_id": "ChIJVVuNwmfvukARU1N9pVrgA24",
    "name": "Pipes System",
    "category": "Pipes System",
    "formatted_address": "4,7(6)",
    "phone_number": "+40733730700",
    "source_url": "https://www.google.com/maps/place/Pipes+System/data=!4m7!3m6!1s0x40baef67c28d5b55:0x6e03e05aa57d5353!8m2!3d44.1812876!4d28.6020485!16s%2Fg%2F11lqp802hm!19sChIJVVuNwmfvukARU1N9pVrgA24?authuser=0&hl=tr&rclk=1",
    "website_url": "",
    "rating_text": "4,7",
    "stars": null,
    "number_of_reviews": null,
    "price_level": "",
    "open_hours": "",
    "extraction_timestamp": "2025-06-07T13:43:42.608Z",
    "source_name": "google",
    "source_query": "Irrigation Equipment",
    "source_country": "RO",
    "country": "Romania",
    "state": "Constanța County",
    "city": "Cumpăna"
  },
  {
    "source_id": "ChIJKSRn5x3nukAR71XVy35XLpM",
    "name": "Sere Flori Cumpăna",
    "category": "Sere Flori Cumpăna",
    "formatted_address": "5,0(8)",
    "phone_number": "+40764432982",
    "source_url": "https://www.google.com/maps/place/Sere+Flori+Cump%C4%83na/data=!4m7!3m6!1s0x40bae71de7672429:0x932e577ecbd555ef!8m2!3d44.1092444!4d28.5431286!16s%2Fg%2F11gmg7l9c3!19sChIJKSRn5x3nukAR71XVy35XLpM?authuser=0&hl=tr&rclk=1",
    "website_url": "",
    "rating_text": "5,0",
    "stars": null,
    "number_of_reviews": null,
    "price_level": "",
    "open_hours": "",
    "extraction_timestamp": "2025-06-07T13:43:42.608Z",
    "source_name": "google",
    "source_query": "Irrigation Equipment",
    "source_country": "RO",
    "country": "Romania",
    "state": "Constanța County",
    "city": "Cumpăna"
  },
  {
    "source_id": "ChIJY3WSPBbmukARPIZ3PD6oVVk",
    "name": "Fel de Fel",
    "category": "Fel de Fel",
    "formatted_address": "4,5(565)",
    "phone_number": "+40241730077",
    "source_url": "https://www.google.com/maps/place/Fel+de+Fel/data=!4m7!3m6!1s0x40bae6163c927563:0x5955a83e3c77863c!8m2!3d44.1125608!4d28.5575893!16s%2Fg%2F1tq8h1h6!19sChIJY3WSPBbmukARPIZ3PD6oVVk?authuser=0&hl=tr&rclk=1",
    "website_url": "",
    "rating_text": "4,5",
    "stars": null,
    "number_of_reviews": null,
    "price_level": "",
    "open_hours": "",
    "extraction_timestamp": "2025-06-07T13:43:42.609Z",
    "source_name": "google",
    "source_query": "Irrigation Equipment",
    "source_country": "RO",
    "country": "Romania",
    "state": "Constanța County",
    "city": "Cumpăna"
  },
  {
    "source_id": "ChIJ2SOlmUfnukARJU7DEeyTAUc",
    "name": "Standard Exim SRL 1 Receptie",
    "category": "Standard Exim SRL 1 Receptie",
    "formatted_address": "4,5(20)",
    "phone_number": "",
    "source_url": "https://www.google.com/maps/place/Standard+Exim+SRL+1+Receptie/data=!4m7!3m6!1s0x40bae74799a523d9:0x470193ec11c34e25!8m2!3d44.1128797!4d28.5549775!16s%2Fg%2F11fdxb8w77!19sChIJ2SOlmUfnukARJU7DEeyTAUc?authuser=0&hl=tr&rclk=1",
    "website_url": "",
    "rating_text": "4,5",
    "stars": null,
    "number_of_reviews": null,
    "price_level": "",
    "open_hours": "",
    "extraction_timestamp": "2025-06-07T13:43:42.610Z",
    "source_name": "google",
    "source_query": "Irrigation Equipment",
    "source_country": "RO",
    "country": "Romania",
    "state": "Constanța County",
    "city": "Cumpăna"
  },
  {
    "source_id": "ChIJBTafXT3mukARl1KXT1DJ7NY",
    "name": "Dina Market",
    "category": "Dina Market",
    "formatted_address": "4,3(450)",
    "phone_number": "",
    "source_url": "https://www.google.com/maps/place/Dina+Market/data=!4m7!3m6!1s0x40bae63d5d9f3605:0xd6ecc9504f975297!8m2!3d44.1121594!4d28.5526821!16s%2Fg%2F11g7nv6_0q!19sChIJBTafXT3mukARl1KXT1DJ7NY?authuser=0&hl=tr&rclk=1",
    "website_url": "",
    "rating_text": "4,3",
    "stars": null,
    "number_of_reviews": null,
    "price_level": "",
    "open_hours": "",
    "extraction_timestamp": "2025-06-07T13:43:42.610Z",
    "source_name": "google",
    "source_query": "Irrigation Equipment",
    "source_country": "RO",
    "country": "Romania",
    "state": "Constanța County",
    "city": "Cumpăna"
  },
  {
    "source_id": "ChIJ8d_lPhbmukARnfaKprp8dRA",
    "name": "Piata Agroalimentară",
    "category": "Piata Agroalimentară",
    "formatted_address": "4,2(36)",
    "phone_number": "+40749633209",
    "source_url": "https://www.google.com/maps/place/Piata+Agroalimentar%C4%83/data=!4m7!3m6!1s0x40bae6163ee5dff1:0x10757cbaa68af69d!8m2!3d44.1126533!4d28.5566583!16s%2Fg%2F11g9w4dgh_!19sChIJ8d_lPhbmukARnfaKprp8dRA?authuser=0&hl=tr&rclk=1",
    "website_url": "",
    "rating_text": "4,2",
    "stars": null,
    "number_of_reviews": null,
    "price_level": "",
    "open_hours": "",
    "extraction_timestamp": "2025-06-07T13:43:42.612Z",
    "source_name": "google",
    "source_query": "Irrigation Equipment",
    "source_country": "RO",
    "country": "Romania",
    "state": "Constanța County",
    "city": "Cumpăna"
  },
  {
    "source_id": "ChIJ29uVeF3nukARJ9crrPLbkqw",
    "name": "Ena Paas Marcom SRL",
    "category": "Ena Paas Marcom SRL",
    "formatted_address": "4,5(2)",
    "phone_number": "+40799225292",
    "source_url": "https://www.google.com/maps/place/Ena+Paas+Marcom+SRL/data=!4m7!3m6!1s0x40bae75d7895dbdb:0xac92dbf2ac2bd727!8m2!3d44.1165359!4d28.5422685!16s%2Fg%2F11k9hf5m2s!19sChIJ29uVeF3nukARJ9crrPLbkqw?authuser=0&hl=tr&rclk=1",
    "website_url": "",
    "rating_text": "4,5",
    "stars": null,
    "number_of_reviews": null,
    "price_level": "",
    "open_hours": "",
    "extraction_timestamp": "2025-06-07T13:43:42.614Z",
    "source_name": "google",
    "source_query": "Irrigation Equipment",
    "source_country": "RO",
    "country": "Romania",
    "state": "Constanța County",
    "city": "Cumpăna"
  },
  {
    "source_id": "ChIJJxnpT5LnukARNzeGdA7AKlQ",
    "name": "Karina Sea 98 - Depozit & Magazin materiale de constructii Techirghiol",
    "category": "Karina Sea 98 - Depozit & Magazin materiale de constructii Techirghiol",
    "formatted_address": "Karina Sea 98 - Depozit & Magazin materiale de constructii Techirghiol",
    "phone_number": "+40731379391",
    "source_url": "https://www.google.com/maps/place/Karina+Sea+98+-+Depozit+%26+Magazin+materiale+de+constructii+Techirghiol/data=!4m7!3m6!1s0x40bae7924fe91927:0x542ac00e74863737!8m2!3d44.0619564!4d28.5987748!16s%2Fg%2F11gxmh3xt9!19sChIJJxnpT5LnukARNzeGdA7AKlQ?authuser=0&hl=tr&rclk=1",
    "website_url": "",
    "rating_text": "4,1",
    "stars": null,
    "number_of_reviews": null,
    "price_level": "",
    "open_hours": "",
    "extraction_timestamp": "2025-06-07T13:43:42.615Z",
    "source_name": "google",
    "source_query": "Irrigation Equipment",
    "source_country": "RO",
    "country": "Romania",
    "state": "Constanța County",
    "city": "Cumpăna"
  },
  {
    "source_id": "ChIJOWyeDhLmukARXg-xxUQCG-E",
    "name": "Maria Market",
    "category": "Maria Market",
    "formatted_address": "4,1(76)",
    "phone_number": "",
    "source_url": "https://www.google.com/maps/place/Maria+Market/data=!4m7!3m6!1s0x40bae6120e9e6c39:0xe11b0244c5b10f5e!8m2!3d44.1183784!4d28.5667117!16s%2Fg%2F11fy2l5mqh!19sChIJOWyeDhLmukARXg-xxUQCG-E?authuser=0&hl=tr&rclk=1",
    "website_url": "",
    "rating_text": "4,1",
    "stars": null,
    "number_of_reviews": null,
    "price_level": "",
    "open_hours": "",
    "extraction_timestamp": "2025-06-07T13:43:42.616Z",
    "source_name": "google",
    "source_query": "Irrigation Equipment",
    "source_country": "RO",
    "country": "Romania",
    "state": "Constanța County",
    "city": "Cumpăna"
  },
  {
    "source_id": "ChIJ410LJiPmukARZ_31j1p6zXw",
    "name": "Magazin alimentar",
    "category": "Magazin alimentar",
    "formatted_address": "4,2(64)",
    "phone_number": "",
    "source_url": "https://www.google.com/maps/place/Magazin+alimentar/data=!4m7!3m6!1s0x40bae623260b5de3:0x7ccd7a5a8ff5fd67!8m2!3d44.1111202!4d28.5481608!16s%2Fg%2F11gbk2yb0k!19sChIJ410LJiPmukARZ_31j1p6zXw?authuser=0&hl=tr&rclk=1",
    "website_url": "",
    "rating_text": "4,2",
    "stars": null,
    "number_of_reviews": null,
    "price_level": "",
    "open_hours": "",
    "extraction_timestamp": "2025-06-07T13:43:42.617Z",
    "source_name": "google",
    "source_query": "Irrigation Equipment",
    "source_country": "RO",
    "country": "Romania",
    "state": "Constanța County",
    "city": "Cumpăna"
  },
  {
    "source_id": "ChIJozdnvgjnukAR_z6uxhACZpc",
    "name": "MixMarket Jr.",
    "category": "MixMarket Jr.",
    "formatted_address": "4,0(4)",
    "phone_number": "+40724254573",
    "source_url": "https://www.google.com/maps/place/MixMarket+Jr./data=!4m7!3m6!1s0x40bae708be6737a3:0x97660210c6ae3eff!8m2!3d44.1156907!4d28.5615074!16s%2Fg%2F11p66jgq88!19sChIJozdnvgjnukAR_z6uxhACZpc?authuser=0&hl=tr&rclk=1",
    "website_url": "",
    "rating_text": "4,0",
    "stars": null,
    "number_of_reviews": null,
    "price_level": "",
    "open_hours": "",
    "extraction_timestamp": "2025-06-07T13:43:42.617Z",
    "source_name": "google",
    "source_query": "Irrigation Equipment",
    "source_country": "RO",
    "country": "Romania",
    "state": "Constanța County",
    "city": "Cumpăna"
  },
  {
    "source_id": "ChIJ84ReZbHnukARFHMQKFB39FQ",
    "name": "II MARGULESCU CAMELIA",
    "category": "II MARGULESCU CAMELIA",
    "formatted_address": "4,5(14)",
    "phone_number": "+40725020952",
    "source_url": "https://www.google.com/maps/place/II+MARGULESCU+CAMELIA/data=!4m7!3m6!1s0x40bae7b1655e84f3:0x54f4775028107314!8m2!3d44.1141697!4d28.5460304!16s%2Fg%2F11lfl6d014!19sChIJ84ReZbHnukARFHMQKFB39FQ?authuser=0&hl=tr&rclk=1",
    "website_url": "",
    "rating_text": "4,5",
    "stars": null,
    "number_of_reviews": null,
    "price_level": "",
    "open_hours": "",
    "extraction_timestamp": "2025-06-07T13:43:42.618Z",
    "source_name": "google",
    "source_query": "Irrigation Equipment",
    "source_country": "RO",
    "country": "Romania",
    "state": "Constanța County",
    "city": "Cumpăna"
  },
  {
    "source_id": "ChIJUzUN7IzzukARTwVr2SXoFIA",
    "name": "Titan Machinery Constanta",
    "category": "Titan Machinery Constanta",
    "formatted_address": "4,5(48)",
    "phone_number": "+40374367640",
    "source_url": "https://www.google.com/maps/place/Titan+Machinery+Constanta/data=!4m7!3m6!1s0x40baf38cec0d3553:0x8014e825d96b054f!8m2!3d44.2839278!4d28.5561504!16s%2Fg%2F11g8trht3p!19sChIJUzUN7IzzukARTwVr2SXoFIA?authuser=0&hl=tr&rclk=1",
    "website_url": "",
    "rating_text": "4,5",
    "stars": null,
    "number_of_reviews": null,
    "price_level": "",
    "open_hours": "",
    "extraction_timestamp": "2025-06-07T13:43:42.619Z",
    "source_name": "google",
    "source_query": "Irrigation Equipment",
    "source_country": "RO",
    "country": "Romania",
    "state": "Constanța County",
    "city": "Cumpăna"
  },
  {
    "source_id": "ChIJj4e2X_LnukAR1-TxJfnBops",
    "name": "PENNY",
    "category": "PENNY",
    "formatted_address": "4,1(164)",
    "phone_number": "+40800110111",
    "source_url": "https://www.google.com/maps/place/PENNY/data=!4m7!3m6!1s0x40bae7f25fb6878f:0x9ba2c1f925f1e4d7!8m2!3d44.115884!4d28.5601569!16s%2Fg%2F11rlmlx2sh!19sChIJj4e2X_LnukAR1-TxJfnBops?authuser=0&hl=tr&rclk=1",
    "website_url": "",
    "rating_text": "4,1",
    "stars": null,
    "number_of_reviews": null,
    "price_level": "",
    "open_hours": "",
    "extraction_timestamp": "2025-06-07T13:43:42.619Z",
    "source_name": "google",
    "source_query": "Irrigation Equipment",
    "source_country": "RO",
    "country": "Romania",
    "state": "Constanța County",
    "city": "Cumpăna"
  },
  {
    "source_id": "ChIJ1T1C5jDnukARsuVBHNtVKm8",
    "name": "Service Profession-all Horeca",
    "category": "Service Profession-all Horeca",
    "formatted_address": "1,0(2)",
    "phone_number": "+40721177776",
    "source_url": "https://www.google.com/maps/place/Service+Profession-all+Horeca/data=!4m7!3m6!1s0x40bae730e6423dd5:0x6f2a55db1c41e5b2!8m2!3d44.1171323!4d28.5639579!16s%2Fg%2F11h80c74ny!19sChIJ1T1C5jDnukARsuVBHNtVKm8?authuser=0&hl=tr&rclk=1",
    "website_url": "",
    "rating_text": "1,0",
    "stars": null,
    "number_of_reviews": null,
    "price_level": "",
    "open_hours": "",
    "extraction_timestamp": "2025-06-07T13:43:42.620Z",
    "source_name": "google",
    "source_query": "Irrigation Equipment",
    "source_country": "RO",
    "country": "Romania",
    "state": "Constanța County",
    "city": "Cumpăna"
  },
  {
    "source_id": "ChIJ91W5iUSBla4R1MqF5w6-dxg",
    "name": "Instalator Intervenții Sanitare Constanța",
    "category": "Instalator Intervenții Sanitare Constanța",
    "formatted_address": "5,0(2)",
    "phone_number": "+40725963169",
    "source_url": "https://www.google.com/maps/place/Instalator+Interven%C8%9Bii+Sanitare+Constan%C8%9Ba/data=!4m7!3m6!1s0xae95814489b955f7:0x1877be0ee785cad4!8m2!3d44.1810427!4d28.6300063!16s%2Fg%2F11wnjf06t9!19sChIJ91W5iUSBla4R1MqF5w6-dxg?authuser=0&hl=tr&rclk=1",
    "website_url": "",
    "rating_text": "5,0",
    "stars": null,
    "number_of_reviews": null,
    "price_level": "",
    "open_hours": "",
    "extraction_timestamp": "2025-06-07T13:43:42.621Z",
    "source_name": "google",
    "source_query": "Irrigation Equipment",
    "source_country": "RO",
    "country": "Romania",
    "state": "Constanța County",
    "city": "Cumpăna"
  },
  {
    "source_id": "ChIJXY5JIdXlukARh5XX1rtumUA",
    "name": "Constructii Renovari GC SRL",
    "category": "Constructii Renovari GC SRL",
    "formatted_address": "5,0(38)",
    "phone_number": "+40770663663",
    "source_url": "https://www.google.com/maps/place/Constructii+Renovari+GC+SRL/data=!4m7!3m6!1s0x40bae5d521498e5d:0x40996ebbd6d79587!8m2!3d44.1884721!4d28.6355049!16s%2Fg%2F11sbsq5q7m!19sChIJXY5JIdXlukARh5XX1rtumUA?authuser=0&hl=tr&rclk=1",
    "website_url": "",
    "rating_text": "5,0",
    "stars": null,
    "number_of_reviews": null,
    "price_level": "",
    "open_hours": "",
    "extraction_timestamp": "2025-06-07T13:43:42.622Z",
    "source_name": "google",
    "source_query": "Irrigation Equipment",
    "source_country": "RO",
    "country": "Romania",
    "state": "Constanța County",
    "city": "Cumpăna"
  },
  {
    "source_id": "ChIJAQBMj07lukARXVsOxpT9tGI",
    "name": "Instalații Distribuție SRL",
    "category": "Instalații Distribuție SRL",
    "formatted_address": "4,0(29)",
    "phone_number": "+40341170017",
    "source_url": "https://www.google.com/maps/place/Instala%C8%9Bii+Distribu%C8%9Bie+SRL/data=!4m7!3m6!1s0x40bae54e8f4c0001:0x62b4fd94c60e5b5d!8m2!3d44.1836138!4d28.6323031!16s%2Fg%2F11bbrllpg0!19sChIJAQBMj07lukARXVsOxpT9tGI?authuser=0&hl=tr&rclk=1",
    "website_url": "",
    "rating_text": "4,0",
    "stars": null,
    "number_of_reviews": null,
    "price_level": "",
    "open_hours": "",
    "extraction_timestamp": "2025-06-07T13:43:42.622Z",
    "source_name": "google",
    "source_query": "Irrigation Equipment",
    "source_country": "RO",
    "country": "Romania",
    "state": "Constanța County",
    "city": "Cumpăna"
  },
  {
    "source_id": "ChIJG_ZVlyzvukARVAyopz1dwGE",
    "name": "ClimaventPro",
    "category": "ClimaventPro",
    "formatted_address": "4,9(15)",
    "phone_number": "+40729994848",
    "source_url": "https://www.google.com/maps/place/ClimaventPro/data=!4m7!3m6!1s0x40baef2c9755f61b:0x61c05d3da7a80c54!8m2!3d44.1814273!4d28.5940866!16s%2Fg%2F11vkp11gsl!19sChIJG_ZVlyzvukARVAyopz1dwGE?authuser=0&hl=tr&rclk=1",
    "website_url": "",
    "rating_text": "4,9",
    "stars": null,
    "number_of_reviews": null,
    "price_level": "",
    "open_hours": "",
    "extraction_timestamp": "2025-06-07T13:43:42.623Z",
    "source_name": "google",
    "source_query": "Irrigation Equipment",
    "source_country": "RO",
    "country": "Romania",
    "state": "Constanța County",
    "city": "Cumpăna"
  },
  {
    "source_id": "ChIJ-0mfRFPpBy0Rwcx-ablvWZU",
    "name": "Desfundari Canalizare Constanta",
    "category": "Desfundari Canalizare Constanta",
    "formatted_address": "5,0(1)",
    "phone_number": "+40763178942",
    "source_url": "https://www.google.com/maps/place/Desfundari+Canalizare+Constanta/data=!4m7!3m6!1s0x2d07e953449f49fb:0x95596fb9697eccc1!8m2!3d44.1841016!4d28.6478905!16s%2Fg%2F11rqgd6gx7!19sChIJ-0mfRFPpBy0Rwcx-ablvWZU?authuser=0&hl=tr&rclk=1",
    "website_url": "",
    "rating_text": "5,0",
    "stars": null,
    "number_of_reviews": null,
    "price_level": "",
    "open_hours": "",
    "extraction_timestamp": "2025-06-07T13:43:42.623Z",
    "source_name": "google",
    "source_query": "Irrigation Equipment",
    "source_country": "RO",
    "country": "Romania",
    "state": "Constanța County",
    "city": "Cumpăna"
  },
  {
    "source_id": "ChIJ99LL-Qr7ukARYIA9B2kLb0o",
    "name": "Magazin Unarta Company",
    "category": "Magazin Unarta Company",
    "formatted_address": "5,0(2)",
    "phone_number": "+40241639350",
    "source_url": "https://www.google.com/maps/place/Magazin+Unarta+Company/data=!4m7!3m6!1s0x40bafb0af9cbd2f7:0x4a6f0b69073d8060!8m2!3d44.1952102!4d28.630047!16s%2Fg%2F11jgr5c2cx!19sChIJ99LL-Qr7ukARYIA9B2kLb0o?authuser=0&hl=tr&rclk=1",
    "website_url": "",
    "rating_text": "5,0",
    "stars": null,
    "number_of_reviews": null,
    "price_level": "",
    "open_hours": "",
    "extraction_timestamp": "2025-06-07T13:43:42.624Z",
    "source_name": "google",
    "source_query": "Irrigation Equipment",
    "source_country": "RO",
    "country": "Romania",
    "state": "Constanța County",
    "city": "Cumpăna"
  },
  {
    "source_id": "ChIJ0ZqUgnnlukARcWGkHmDhfPs",
    "name": "Ncv Echilibrum SRL",
    "category": "Ncv Echilibrum SRL",
    "formatted_address": "4,8(20)",
    "phone_number": "",
    "source_url": "https://www.google.com/maps/place/Ncv+Echilibrum+SRL/data=!4m7!3m6!1s0x40bae57982949ad1:0xfb7ce1601ea46171!8m2!3d44.1742515!4d28.6072502!16s%2Fg%2F11jclngmnm!19sChIJ0ZqUgnnlukARcWGkHmDhfPs?authuser=0&hl=tr&rclk=1",
    "website_url": "",
    "rating_text": "4,8",
    "stars": null,
    "number_of_reviews": null,
    "price_level": "",
    "open_hours": "",
    "extraction_timestamp": "2025-06-07T13:43:42.624Z",
    "source_name": "google",
    "source_query": "Irrigation Equipment",
    "source_country": "RO",
    "country": "Romania",
    "state": "Constanța County",
    "city": "Cumpăna"
  },
  {
    "source_id": "ChIJ__8PtjjlukARAZBG-6GrMWA",
    "name": "ALFA PREST INDUSTRY SRL",
    "category": "ALFA PREST INDUSTRY SRL",
    "formatted_address": "4,6(11)",
    "phone_number": "+40733698600",
    "source_url": "https://www.google.com/maps/place/ALFA+PREST+INDUSTRY+SRL/data=!4m7!3m6!1s0x40bae538b60fffff:0x6031aba1fb469001!8m2!3d44.1873533!4d28.6481656!16s%2Fg%2F11gf5r69m0!19sChIJ__8PtjjlukARAZBG-6GrMWA?authuser=0&hl=tr&rclk=1",
    "website_url": "",
    "rating_text": "4,6",
    "stars": null,
    "number_of_reviews": null,
    "price_level": "",
    "open_hours": "",
    "extraction_timestamp": "2025-06-07T13:43:42.625Z",
    "source_name": "google",
    "source_query": "Irrigation Equipment",
    "source_country": "RO",
    "country": "Romania",
    "state": "Constanța County",
    "city": "Cumpăna"
  },
  {
    "source_id": "ChIJAy0KQJ3vukARH5rH2SQpA5g",
    "name": "MatHaus Constanta",
    "category": "MatHaus Constanta",
    "formatted_address": "3,9(284)",
    "phone_number": "+40753108759",
    "source_url": "https://www.google.com/maps/place/MatHaus+Constanta/data=!4m7!3m6!1s0x40baef9d400a2d03:0x98032924d9c79a1f!8m2!3d44.1838141!4d28.5962841!16s%2Fg%2F11ghrbbwy6!19sChIJAy0KQJ3vukARH5rH2SQpA5g?authuser=0&hl=tr&rclk=1",
    "website_url": "",
    "rating_text": "3,9",
    "stars": null,
    "number_of_reviews": null,
    "price_level": "",
    "open_hours": "",
    "extraction_timestamp": "2025-06-07T13:43:42.625Z",
    "source_name": "google",
    "source_query": "Irrigation Equipment",
    "source_country": "RO",
    "country": "Romania",
    "state": "Constanța County",
    "city": "Cumpăna"
  },
  {
    "source_id": "ChIJO_VMwKXlukARaSv4qYkpKL8",
    "name": "Hiroterm",
    "category": "Hiroterm",
    "formatted_address": "4,8(16)",
    "phone_number": "+40736982780",
    "source_url": "https://www.google.com/maps/place/Hiroterm/data=!4m7!3m6!1s0x40bae5a5c04cf53b:0xbf282989a9f82b69!8m2!3d44.1479415!4d28.6192329!16s%2Fg%2F11h46098nb!19sChIJO_VMwKXlukARaSv4qYkpKL8?authuser=0&hl=tr&rclk=1",
    "website_url": "",
    "rating_text": "4,8",
    "stars": null,
    "number_of_reviews": null,
    "price_level": "",
    "open_hours": "",
    "extraction_timestamp": "2025-06-07T13:43:42.626Z",
    "source_name": "google",
    "source_query": "Irrigation Equipment",
    "source_country": "RO",
    "country": "Romania",
    "state": "Constanța County",
    "city": "Cumpăna"
  },
  {
    "source_id": "ChIJDYiDH4fT94ARh1j16cK9ED4",
    "name": "Andrei Instalator Constanța",
    "category": "Andrei Instalator Constanța",
    "formatted_address": "5,0(11)",
    "phone_number": "+40731282853",
    "source_url": "https://www.google.com/maps/place/Andrei+Instalator+Constan%C8%9Ba/data=!4m7!3m6!1s0x80f7d3871f83880d:0x3e10bdc2e9f55887!8m2!3d44.1810427!4d28.6300063!16s%2Fg%2F11yc1_lpjy!19sChIJDYiDH4fT94ARh1j16cK9ED4?authuser=0&hl=tr&rclk=1",
    "website_url": "",
    "rating_text": "5,0",
    "stars": null,
    "number_of_reviews": null,
    "price_level": "",
    "open_hours": "",
    "extraction_timestamp": "2025-06-07T13:43:42.626Z",
    "source_name": "google",
    "source_query": "Irrigation Equipment",
    "source_country": "RO",
    "country": "Romania",
    "state": "Constanța County",
    "city": "Cumpăna"
  }
]
