[
  {
    "source_id": "ChIJ959zFIaNsEARaWuGihSGrg8",
    "name": "Lukoil",
    "category": "Lukoil",
    "formatted_address": "4,0(739)",
    "phone_number": "+40752097192",
    "source_url": "https://www.google.com/maps/place/Lukoil/data=!4m7!3m6!1s0x40b08d8614739ff7:0xfae86148a866b69!8m2!3d44.6920569!4d27.9386721!16s%2Fg%2F1tksg8x2!19sChIJ959zFIaNsEARaWuGihSGrg8?authuser=0&hl=tr&rclk=1",
    "website_url": "",
    "rating_text": "4,0",
    "stars": null,
    "number_of_reviews": null,
    "price_level": "",
    "open_hours": "",
    "extraction_timestamp": "2025-06-07T13:45:42.140Z",
    "source_name": "google",
    "source_query": "Irrigation Equipment",
    "source_country": "RO",
    "country": "Romania",
    "state": "Constanța County",
    "city": "Hârşova"
  },
  {
    "source_id": "ChIJY_Atae2NsEAROg2trSIVb6k",
    "name": "Iatsa Hârşova S.R.L.",
    "category": "Iatsa Hârşova S.R.L.",
    "formatted_address": "4,0(21)",
    "phone_number": "+40241871444",
    "source_url": "https://www.google.com/maps/place/Iatsa+H%C3%A2r%C5%9Fova+S.R.L./data=!4m7!3m6!1s0x40b08ded692df063:0xa96f1522adad0d3a!8m2!3d44.6894048!4d27.9591856!16s%2Fg%2F1hc1r8dnv!19sChIJY_Atae2NsEAROg2trSIVb6k?authuser=0&hl=tr&rclk=1",
    "website_url": "",
    "rating_text": "4,0",
    "stars": null,
    "number_of_reviews": null,
    "price_level": "",
    "open_hours": "",
    "extraction_timestamp": "2025-06-07T13:45:42.141Z",
    "source_name": "google",
    "source_query": "Irrigation Equipment",
    "source_country": "RO",
    "country": "Romania",
    "state": "Constanța County",
    "city": "Hârşova"
  },
  {
    "source_id": "ChIJ50hVhpLxukAR4eynDSVY2DA",
    "name": "sisteme irigatii/irrigation system",
    "category": "sisteme irigatii/irrigation system",
    "formatted_address": "",
    "phone_number": "+40720300211",
    "source_url": "https://www.google.com/maps/place/sisteme+irigatii%2Firrigation+system/data=!4m7!3m6!1s0x40baf192865548e7:0x30d858250da7ece1!8m2!3d44.2488592!4d28.5681867!16s%2Fg%2F11r8vwz55l!19sChIJ50hVhpLxukAR4eynDSVY2DA?authuser=0&hl=tr&rclk=1",
    "website_url": "",
    "rating_text": "",
    "stars": null,
    "number_of_reviews": null,
    "price_level": "",
    "open_hours": "",
    "extraction_timestamp": "2025-06-07T13:45:42.141Z",
    "source_name": "google",
    "source_query": "Irrigation Equipment",
    "source_country": "RO",
    "country": "Romania",
    "state": "Constanța County",
    "city": "Hârşova"
  },
  {
    "source_id": "ChIJn_noBvONsEAR_UxNwZcwUm0",
    "name": "Dobrogea Fresh 76",
    "category": "Dobrogea Fresh 76",
    "formatted_address": "3,9(18)",
    "phone_number": "",
    "source_url": "https://www.google.com/maps/place/Dobrogea+Fresh+76/data=!4m7!3m6!1s0x40b08df306e8f99f:0x6d523097c14d4cfd!8m2!3d44.6862634!4d27.9530277!16s%2Fg%2F11b5ytwbcl!19sChIJn_noBvONsEAR_UxNwZcwUm0?authuser=0&hl=tr&rclk=1",
    "website_url": "",
    "rating_text": "3,9",
    "stars": null,
    "number_of_reviews": null,
    "price_level": "",
    "open_hours": "",
    "extraction_timestamp": "2025-06-07T13:45:42.142Z",
    "source_name": "google",
    "source_query": "Irrigation Equipment",
    "source_country": "RO",
    "country": "Romania",
    "state": "Constanța County",
    "city": "Hârşova"
  },
  {
    "source_id": "ChIJ-djhUmCNsEARYJvJEpxdnU4",
    "name": "Profi Super",
    "category": "Profi Super",
    "formatted_address": "3,9(155) · ₺₺",
    "phone_number": "+40756039253",
    "source_url": "https://www.google.com/maps/place/Profi+Super/data=!4m7!3m6!1s0x40b08d6052e1d8f9:0x4e9d5d9c12c99b60!8m2!3d44.6882172!4d27.9480178!16s%2Fg%2F11mv_pjwvz!19sChIJ-djhUmCNsEARYJvJEpxdnU4?authuser=0&hl=tr&rclk=1",
    "website_url": "",
    "rating_text": "3,9",
    "stars": null,
    "number_of_reviews": null,
    "price_level": "",
    "open_hours": "",
    "extraction_timestamp": "2025-06-07T13:45:42.143Z",
    "source_name": "google",
    "source_query": "Irrigation Equipment",
    "source_country": "RO",
    "country": "Romania",
    "state": "Constanța County",
    "city": "Hârşova"
  },
  {
    "source_id": "ChIJbb3Tf_uNsEARHDQWpngDvTo",
    "name": "La Doi Pași",
    "category": "La Doi Pași",
    "formatted_address": "4,4(25)",
    "phone_number": "",
    "source_url": "https://www.google.com/maps/place/La+Doi+Pa%C8%99i/data=!4m7!3m6!1s0x40b08dfb7fd3bd6d:0x3abd0378a616341c!8m2!3d44.68764!4d27.9493239!16s%2Fg%2F11p06g4_gm!19sChIJbb3Tf_uNsEARHDQWpngDvTo?authuser=0&hl=tr&rclk=1",
    "website_url": "",
    "rating_text": "4,4",
    "stars": null,
    "number_of_reviews": null,
    "price_level": "",
    "open_hours": "",
    "extraction_timestamp": "2025-06-07T13:45:42.144Z",
    "source_name": "google",
    "source_query": "Irrigation Equipment",
    "source_country": "RO",
    "country": "Romania",
    "state": "Constanța County",
    "city": "Hârşova"
  },
  {
    "source_id": "ChIJ-7oOcwCNsEARIRCQR0pLRdw",
    "name": "Pet Store",
    "category": "Pet Store",
    "formatted_address": "5,0(1)",
    "phone_number": "",
    "source_url": "https://www.google.com/maps/place/Pet+Store/data=!4m7!3m6!1s0x40b08d00730ebafb:0xdc454b4a47901021!8m2!3d44.6861462!4d27.949837!16s%2Fg%2F11wp_2155s!19sChIJ-7oOcwCNsEARIRCQR0pLRdw?authuser=0&hl=tr&rclk=1",
    "website_url": "",
    "rating_text": "5,0",
    "stars": null,
    "number_of_reviews": null,
    "price_level": "",
    "open_hours": "",
    "extraction_timestamp": "2025-06-07T13:45:42.144Z",
    "source_name": "google",
    "source_query": "Irrigation Equipment",
    "source_country": "RO",
    "country": "Romania",
    "state": "Constanța County",
    "city": "Hârşova"
  },
  {
    "source_id": "ChIJJRm1RGeNsEARKzztE5E6tEQ",
    "name": "Lidl",
    "category": "Lidl",
    "formatted_address": "4,6(33)",
    "phone_number": "+40800896622",
    "source_url": "https://www.google.com/maps/place/Lidl/data=!4m7!3m6!1s0x40b08d6744b51925:0x44b43a9113ed3c2b!8m2!3d44.69198!4d27.9394099!16s%2Fg%2F11x2s_9jvk!19sChIJJRm1RGeNsEARKzztE5E6tEQ?authuser=0&hl=tr&rclk=1",
    "website_url": "",
    "rating_text": "4,6",
    "stars": null,
    "number_of_reviews": null,
    "price_level": "",
    "open_hours": "",
    "extraction_timestamp": "2025-06-07T13:45:42.146Z",
    "source_name": "google",
    "source_query": "Irrigation Equipment",
    "source_country": "RO",
    "country": "Romania",
    "state": "Constanța County",
    "city": "Hârşova"
  },
  {
    "source_id": "ChIJX4AdijiNsEARftEfHDFn7As",
    "name": "Carrefour Contact",
    "category": "Carrefour Contact",
    "formatted_address": "4,3(50)",
    "phone_number": "+40766885078",
    "source_url": "https://www.google.com/maps/place/Carrefour+Contact/data=!4m7!3m6!1s0x40b08d388a1d805f:0xbec67311c1fd17e!8m2!3d44.6853001!4d27.9504023!16s%2Fg%2F11h1f1hp9n!19sChIJX4AdijiNsEARftEfHDFn7As?authuser=0&hl=tr&rclk=1",
    "website_url": "",
    "rating_text": "4,3",
    "stars": null,
    "number_of_reviews": null,
    "price_level": "",
    "open_hours": "",
    "extraction_timestamp": "2025-06-07T13:45:42.147Z",
    "source_name": "google",
    "source_query": "Irrigation Equipment",
    "source_country": "RO",
    "country": "Romania",
    "state": "Constanța County",
    "city": "Hârşova"
  },
  {
    "source_id": "ChIJX252AOTzukARZ7-XIX-7dwg",
    "name": "NHR Agropartners Constanța",
    "category": "NHR Agropartners Constanța",
    "formatted_address": "4,3(8)",
    "phone_number": "+40720220337",
    "source_url": "https://www.google.com/maps/place/NHR+Agropartners+Constan%C8%9Ba/data=!4m7!3m6!1s0x40baf3e400766e5f:0x877bb7f2197bf67!8m2!3d44.2927152!4d28.5277746!16s%2Fg%2F11rgrt37vv!19sChIJX252AOTzukARZ7-XIX-7dwg?authuser=0&hl=tr&rclk=1",
    "website_url": "",
    "rating_text": "4,3",
    "stars": null,
    "number_of_reviews": null,
    "price_level": "",
    "open_hours": "",
    "extraction_timestamp": "2025-06-07T13:45:42.148Z",
    "source_name": "google",
    "source_query": "Irrigation Equipment",
    "source_country": "RO",
    "country": "Romania",
    "state": "Constanța County",
    "city": "Hârşova"
  },
  {
    "source_id": "ChIJPxuMsO-NsEARKYYt-lKfbbE",
    "name": "Caty Farm Vet SC Comaliment SRL",
    "category": "Caty Farm Vet SC Comaliment SRL",
    "formatted_address": "4,8(12)",
    "phone_number": "+40722627519",
    "source_url": "https://www.google.com/maps/place/Caty+Farm+Vet+SC+Comaliment+SRL/data=!4m7!3m6!1s0x40b08defb08c1b3f:0xb16d9f52fa2d8629!8m2!3d44.6862008!4d27.9532471!16s%2Fg%2F11hdvsl90w!19sChIJPxuMsO-NsEARKYYt-lKfbbE?authuser=0&hl=tr&rclk=1",
    "website_url": "",
    "rating_text": "4,8",
    "stars": null,
    "number_of_reviews": null,
    "price_level": "",
    "open_hours": "",
    "extraction_timestamp": "2025-06-07T13:45:42.148Z",
    "source_name": "google",
    "source_query": "Irrigation Equipment",
    "source_country": "RO",
    "country": "Romania",
    "state": "Constanța County",
    "city": "Hârşova"
  },
  {
    "source_id": "ChIJo6zZlduNsEARzzh27cKt5Bg",
    "name": "Rac 74 Hârșova",
    "category": "Rac 74 Hârșova",
    "formatted_address": "5,0(2)",
    "phone_number": "+40786138400",
    "source_url": "https://www.google.com/maps/place/Rac+74+H%C3%A2r%C8%99ova/data=!4m7!3m6!1s0x40b08ddb95d9aca3:0x18e4adc2ed7638cf!8m2!3d44.6876472!4d27.9517792!16s%2Fg%2F11rt2ynbs6!19sChIJo6zZlduNsEARzzh27cKt5Bg?authuser=0&hl=tr&rclk=1",
    "website_url": "",
    "rating_text": "5,0",
    "stars": null,
    "number_of_reviews": null,
    "price_level": "",
    "open_hours": "",
    "extraction_timestamp": "2025-06-07T13:45:42.150Z",
    "source_name": "google",
    "source_query": "Irrigation Equipment",
    "source_country": "RO",
    "country": "Romania",
    "state": "Constanța County",
    "city": "Hârşova"
  },
  {
    "source_id": "ChIJWZfMMPONsEARMZVcEMj0F7o",
    "name": "Cofetaria scorpion",
    "category": "Cofetaria scorpion",
    "formatted_address": "4,9(28)",
    "phone_number": "+40767162652",
    "source_url": "https://www.google.com/maps/place/Cofetaria+scorpion/data=!4m7!3m6!1s0x40b08df330cc9759:0xba17f4c8105c9531!8m2!3d44.6870049!4d27.9533571!16s%2Fg%2F11fn4nmmhz!19sChIJWZfMMPONsEARMZVcEMj0F7o?authuser=0&hl=tr&rclk=1",
    "website_url": "",
    "rating_text": "4,9",
    "stars": null,
    "number_of_reviews": null,
    "price_level": "",
    "open_hours": "",
    "extraction_timestamp": "2025-06-07T13:45:42.150Z",
    "source_name": "google",
    "source_query": "Irrigation Equipment",
    "source_country": "RO",
    "country": "Romania",
    "state": "Constanța County",
    "city": "Hârşova"
  },
  {
    "source_id": "ChIJAbcmOYyNsEARUy1IkR0_Ix4",
    "name": "C.M.I. Dr. Bulancea Catinca",
    "category": "C.M.I. Dr. Bulancea Catinca",
    "formatted_address": "4,2(5)",
    "phone_number": "+40722627519",
    "source_url": "https://www.google.com/maps/place/C.M.I.+Dr.+Bulancea+Catinca/data=!4m7!3m6!1s0x40b08d8c3926b701:0x1e233f1d91482d53!8m2!3d44.6877219!4d27.9464683!16s%2Fg%2F1hc1grl5g!19sChIJAbcmOYyNsEARUy1IkR0_Ix4?authuser=0&hl=tr&rclk=1",
    "website_url": "",
    "rating_text": "4,2",
    "stars": null,
    "number_of_reviews": null,
    "price_level": "",
    "open_hours": "",
    "extraction_timestamp": "2025-06-07T13:45:42.151Z",
    "source_name": "google",
    "source_query": "Irrigation Equipment",
    "source_country": "RO",
    "country": "Romania",
    "state": "Constanța County",
    "city": "Hârşova"
  },
  {
    "source_id": "ChIJVW8bZIuNsEAR1Vuvx3R3bn8",
    "name": "PENNY",
    "category": "PENNY",
    "formatted_address": "4,1(828)",
    "phone_number": "+40800110111",
    "source_url": "https://www.google.com/maps/place/PENNY/data=!4m7!3m6!1s0x40b08d8b641b6f55:0x7f6e7774c7af5bd5!8m2!3d44.6884645!4d27.9501806!16s%2Fg%2F11dynz4rc5!19sChIJVW8bZIuNsEAR1Vuvx3R3bn8?authuser=0&hl=tr&rclk=1",
    "website_url": "",
    "rating_text": "4,1",
    "stars": null,
    "number_of_reviews": null,
    "price_level": "",
    "open_hours": "",
    "extraction_timestamp": "2025-06-07T13:45:42.152Z",
    "source_name": "google",
    "source_query": "Irrigation Equipment",
    "source_country": "RO",
    "country": "Romania",
    "state": "Constanța County",
    "city": "Hârşova"
  },
  {
    "source_id": "ChIJJyXPMzmNsEARZKV9bFjbzPE",
    "name": "Pepco",
    "category": "Pepco",
    "formatted_address": "4,6(15)",
    "phone_number": "",
    "source_url": "https://www.google.com/maps/place/Pepco/data=!4m7!3m6!1s0x40b08d3933cf2527:0xf1ccdb586c7da564!8m2!3d44.6881637!4d27.9482059!16s%2Fg%2F11nnvvc_vj!19sChIJJyXPMzmNsEARZKV9bFjbzPE?authuser=0&hl=tr&rclk=1",
    "website_url": "",
    "rating_text": "4,6",
    "stars": null,
    "number_of_reviews": null,
    "price_level": "",
    "open_hours": "",
    "extraction_timestamp": "2025-06-07T13:45:42.153Z",
    "source_name": "google",
    "source_query": "Irrigation Equipment",
    "source_country": "RO",
    "country": "Romania",
    "state": "Constanța County",
    "city": "Hârşova"
  },
  {
    "source_id": "ChIJUzUN7IzzukARTwVr2SXoFIA",
    "name": "Titan Machinery Constanta",
    "category": "Titan Machinery Constanta",
    "formatted_address": "4,5(48)",
    "phone_number": "+40374367640",
    "source_url": "https://www.google.com/maps/place/Titan+Machinery+Constanta/data=!4m7!3m6!1s0x40baf38cec0d3553:0x8014e825d96b054f!8m2!3d44.2839278!4d28.5561504!16s%2Fg%2F11g8trht3p!19sChIJUzUN7IzzukARTwVr2SXoFIA?authuser=0&hl=tr&rclk=1",
    "website_url": "",
    "rating_text": "4,5",
    "stars": null,
    "number_of_reviews": null,
    "price_level": "",
    "open_hours": "",
    "extraction_timestamp": "2025-06-07T13:45:42.154Z",
    "source_name": "google",
    "source_query": "Irrigation Equipment",
    "source_country": "RO",
    "country": "Romania",
    "state": "Constanța County",
    "city": "Hârşova"
  },
  {
    "source_id": "ChIJgUccXFTlukARgmLa-3WY0C4",
    "name": "Sevirox Garden",
    "category": "Sevirox Garden",
    "formatted_address": "5,0(13)",
    "phone_number": "+40764814001",
    "source_url": "https://www.google.com/maps/place/Sevirox+Garden/data=!4m7!3m6!1s0x40bae5545c1c4781:0x2ed09875fbda6282!8m2!3d44.19335!4d28.5907635!16s%2Fg%2F11qnrv5y6f!19sChIJgUccXFTlukARgmLa-3WY0C4?authuser=0&hl=tr&rclk=1",
    "website_url": "",
    "rating_text": "5,0",
    "stars": null,
    "number_of_reviews": null,
    "price_level": "",
    "open_hours": "",
    "extraction_timestamp": "2025-06-07T13:45:42.155Z",
    "source_name": "google",
    "source_query": "Irrigation Equipment",
    "source_country": "RO",
    "country": "Romania",
    "state": "Constanța County",
    "city": "Hârşova"
  },
  {
    "source_id": "ChIJXY5JIdXlukARh5XX1rtumUA",
    "name": "Constructii Renovari GC SRL",
    "category": "Constructii Renovari GC SRL",
    "formatted_address": "5,0(38)",
    "phone_number": "+40770663663",
    "source_url": "https://www.google.com/maps/place/Constructii+Renovari+GC+SRL/data=!4m7!3m6!1s0x40bae5d521498e5d:0x40996ebbd6d79587!8m2!3d44.1884721!4d28.6355049!16s%2Fg%2F11sbsq5q7m!19sChIJXY5JIdXlukARh5XX1rtumUA?authuser=0&hl=tr&rclk=1",
    "website_url": "",
    "rating_text": "5,0",
    "stars": null,
    "number_of_reviews": null,
    "price_level": "",
    "open_hours": "",
    "extraction_timestamp": "2025-06-07T13:45:42.156Z",
    "source_name": "google",
    "source_query": "Irrigation Equipment",
    "source_country": "RO",
    "country": "Romania",
    "state": "Constanța County",
    "city": "Hârşova"
  },
  {
    "source_id": "ChIJ99LL-Qr7ukARYIA9B2kLb0o",
    "name": "Magazin Unarta Company",
    "category": "Magazin Unarta Company",
    "formatted_address": "5,0(2)",
    "phone_number": "+40241639350",
    "source_url": "https://www.google.com/maps/place/Magazin+Unarta+Company/data=!4m7!3m6!1s0x40bafb0af9cbd2f7:0x4a6f0b69073d8060!8m2!3d44.1952102!4d28.630047!16s%2Fg%2F11jgr5c2cx!19sChIJ99LL-Qr7ukARYIA9B2kLb0o?authuser=0&hl=tr&rclk=1",
    "website_url": "",
    "rating_text": "5,0",
    "stars": null,
    "number_of_reviews": null,
    "price_level": "",
    "open_hours": "",
    "extraction_timestamp": "2025-06-07T13:45:42.157Z",
    "source_name": "google",
    "source_query": "Irrigation Equipment",
    "source_country": "RO",
    "country": "Romania",
    "state": "Constanța County",
    "city": "Hârşova"
  },
  {
    "source_id": "ChIJ3bmD_676ukARpy-qSt0lSAs",
    "name": "CONTOR GROUP S.A.",
    "category": "CONTOR GROUP S.A.",
    "formatted_address": "",
    "phone_number": "+40241550051",
    "source_url": "https://www.google.com/maps/place/CONTOR+GROUP+S.A./data=!4m7!3m6!1s0x40bafaaeff83b9dd:0xb4825dd4aaa2fa7!8m2!3d44.2006536!4d28.6366833!16s%2Fg%2F1hc1hhc_m!19sChIJ3bmD_676ukARpy-qSt0lSAs?authuser=0&hl=tr&rclk=1",
    "website_url": "",
    "rating_text": "",
    "stars": null,
    "number_of_reviews": null,
    "price_level": "",
    "open_hours": "",
    "extraction_timestamp": "2025-06-07T13:45:42.157Z",
    "source_name": "google",
    "source_query": "Irrigation Equipment",
    "source_country": "RO",
    "country": "Romania",
    "state": "Constanța County",
    "city": "Hârşova"
  },
  {
    "source_id": "ChIJ3zRH5zlRsEARufz9ioiWrhI",
    "name": "Romstal",
    "category": "Romstal",
    "formatted_address": "4,9(115)",
    "phone_number": "+40372123171",
    "source_url": "https://www.google.com/maps/place/Romstal/data=!4m7!3m6!1s0x40b05139e74734df:0x12ae96888afdfcb9!8m2!3d44.5661176!4d27.3860658!16s%2Fg%2F11fv1g85pr!19sChIJ3zRH5zlRsEARufz9ioiWrhI?authuser=0&hl=tr&rclk=1",
    "website_url": "",
    "rating_text": "4,9",
    "stars": null,
    "number_of_reviews": null,
    "price_level": "",
    "open_hours": "",
    "extraction_timestamp": "2025-06-07T13:45:42.157Z",
    "source_name": "google",
    "source_query": "Irrigation Equipment",
    "source_country": "RO",
    "country": "Romania",
    "state": "Constanța County",
    "city": "Hârşova"
  },
  {
    "source_id": "ChIJ_ZF5nmjlukAR6nOy_0wRNqY",
    "name": "Băcioiu Import-Export S.R.L.",
    "category": "Băcioiu Import-Export S.R.L.",
    "formatted_address": "4,6(18)",
    "phone_number": "+40374053381",
    "source_url": "https://www.google.com/maps/place/B%C4%83cioiu+Import-Export+S.R.L./data=!4m7!3m6!1s0x40bae5689e7991fd:0xa636114cffb273ea!8m2!3d44.1678973!4d28.6434989!16s%2Fg%2F1hc4hngt5!19sChIJ_ZF5nmjlukAR6nOy_0wRNqY?authuser=0&hl=tr&rclk=1",
    "website_url": "",
    "rating_text": "4,6",
    "stars": null,
    "number_of_reviews": null,
    "price_level": "",
    "open_hours": "",
    "extraction_timestamp": "2025-06-07T13:45:42.158Z",
    "source_name": "google",
    "source_query": "Irrigation Equipment",
    "source_country": "RO",
    "country": "Romania",
    "state": "Constanța County",
    "city": "Hârşova"
  },
  {
    "source_id": "ChIJKQ9NtkvlukARWOBSskNX6jw",
    "name": "Plumber Constanta - EUROFLUID",
    "category": "Plumber Constanta - EUROFLUID",
    "formatted_address": "4,0(1)",
    "phone_number": "+40724699805",
    "source_url": "https://www.google.com/maps/place/Plumber+Constanta+-+EUROFLUID/data=!4m7!3m6!1s0x40bae54bb64d0f29:0x3cea5743b252e058!8m2!3d44.2687673!4d28.133501!16s%2Fg%2F11g9gvwpfv!19sChIJKQ9NtkvlukARWOBSskNX6jw?authuser=0&hl=tr&rclk=1",
    "website_url": "",
    "rating_text": "4,0",
    "stars": null,
    "number_of_reviews": null,
    "price_level": "",
    "open_hours": "",
    "extraction_timestamp": "2025-06-07T13:45:42.159Z",
    "source_name": "google",
    "source_query": "Irrigation Equipment",
    "source_country": "RO",
    "country": "Romania",
    "state": "Constanța County",
    "city": "Hârşova"
  },
  {
    "source_id": "ChIJKc1-y5cLVq4RkDES4gvatG8",
    "name": "Hydrotech Innovations SRL",
    "category": "Hydrotech Innovations SRL",
    "formatted_address": "",
    "phone_number": "+40758616733",
    "source_url": "https://www.google.com/maps/place/Hydrotech+Innovations+SRL/data=!4m7!3m6!1s0xae560b97cb7ecd29:0x6fb4da0be2123190!8m2!3d61.5211265!4d40.6056444!16s%2Fg%2F11krs3kxtb!19sChIJKc1-y5cLVq4RkDES4gvatG8?authuser=0&hl=tr&rclk=1",
    "website_url": "",
    "rating_text": "",
    "stars": null,
    "number_of_reviews": null,
    "price_level": "",
    "open_hours": "",
    "extraction_timestamp": "2025-06-07T13:45:42.159Z",
    "source_name": "google",
    "source_query": "Irrigation Equipment",
    "source_country": "RO",
    "country": "Romania",
    "state": "Constanța County",
    "city": "Hârşova"
  },
  {
    "source_id": "ChIJO_VMwKXlukARaSv4qYkpKL8",
    "name": "Hiroterm",
    "category": "Hiroterm",
    "formatted_address": "4,8(16)",
    "phone_number": "+40736982780",
    "source_url": "https://www.google.com/maps/place/Hiroterm/data=!4m7!3m6!1s0x40bae5a5c04cf53b:0xbf282989a9f82b69!8m2!3d44.1479415!4d28.6192329!16s%2Fg%2F11h46098nb!19sChIJO_VMwKXlukARaSv4qYkpKL8?authuser=0&hl=tr&rclk=1",
    "website_url": "",
    "rating_text": "4,8",
    "stars": null,
    "number_of_reviews": null,
    "price_level": "",
    "open_hours": "",
    "extraction_timestamp": "2025-06-07T13:45:42.160Z",
    "source_name": "google",
    "source_query": "Irrigation Equipment",
    "source_country": "RO",
    "country": "Romania",
    "state": "Constanța County",
    "city": "Hârşova"
  },
  {
    "source_id": "ChIJ__8PtjjlukARAZBG-6GrMWA",
    "name": "ALFA PREST INDUSTRY SRL",
    "category": "ALFA PREST INDUSTRY SRL",
    "formatted_address": "4,6(11)",
    "phone_number": "+40733698600",
    "source_url": "https://www.google.com/maps/place/ALFA+PREST+INDUSTRY+SRL/data=!4m7!3m6!1s0x40bae538b60fffff:0x6031aba1fb469001!8m2!3d44.1873533!4d28.6481656!16s%2Fg%2F11gf5r69m0!19sChIJ__8PtjjlukARAZBG-6GrMWA?authuser=0&hl=tr&rclk=1",
    "website_url": "",
    "rating_text": "4,6",
    "stars": null,
    "number_of_reviews": null,
    "price_level": "",
    "open_hours": "",
    "extraction_timestamp": "2025-06-07T13:45:42.160Z",
    "source_name": "google",
    "source_query": "Irrigation Equipment",
    "source_country": "RO",
    "country": "Romania",
    "state": "Constanța County",
    "city": "Hârşova"
  },
  {
    "source_id": "ChIJ91W5iUSBla4R1MqF5w6-dxg",
    "name": "Instalator Intervenții Sanitare Constanța",
    "category": "Instalator Intervenții Sanitare Constanța",
    "formatted_address": "5,0(2)",
    "phone_number": "+40725963169",
    "source_url": "https://www.google.com/maps/place/Instalator+Interven%C8%9Bii+Sanitare+Constan%C8%9Ba/data=!4m7!3m6!1s0xae95814489b955f7:0x1877be0ee785cad4!8m2!3d44.1810427!4d28.6300063!16s%2Fg%2F11wnjf06t9!19sChIJ91W5iUSBla4R1MqF5w6-dxg?authuser=0&hl=tr&rclk=1",
    "website_url": "",
    "rating_text": "5,0",
    "stars": null,
    "number_of_reviews": null,
    "price_level": "",
    "open_hours": "",
    "extraction_timestamp": "2025-06-07T13:45:42.162Z",
    "source_name": "google",
    "source_query": "Irrigation Equipment",
    "source_country": "RO",
    "country": "Romania",
    "state": "Constanța County",
    "city": "Hârşova"
  },
  {
    "source_id": "ChIJFe4Zh-vlukARisAC1PyXxG0",
    "name": "FRIGO LAND - Camere / Instalatii Frigorifice",
    "category": "FRIGO LAND - Camere / Instalatii Frigorifice",
    "formatted_address": "4,7(26)",
    "phone_number": "+40766311138",
    "source_url": "https://www.google.com/maps/place/FRIGO+LAND+-+Camere+%2F+Instalatii+Frigorifice/data=!4m7!3m6!1s0x40bae5eb8719ee15:0x6dc497fcd402c08a!8m2!3d44.1564395!4d28.6215311!16s%2Fg%2F11gtym1y7c!19sChIJFe4Zh-vlukARisAC1PyXxG0?authuser=0&hl=tr&rclk=1",
    "website_url": "",
    "rating_text": "4,7",
    "stars": null,
    "number_of_reviews": null,
    "price_level": "",
    "open_hours": "",
    "extraction_timestamp": "2025-06-07T13:45:42.163Z",
    "source_name": "google",
    "source_query": "Irrigation Equipment",
    "source_country": "RO",
    "country": "Romania",
    "state": "Constanța County",
    "city": "Hârşova"
  }
]
