[
  {
    "source_id": "ChIJ50hVhpLxukAR4eynDSVY2DA",
    "name": "sisteme irigatii/irrigation system",
    "category": "sisteme irigatii/irrigation system",
    "formatted_address": "",
    "phone_number": "+40720300211",
    "source_url": "https://www.google.com/maps/place/sisteme+irigatii%2Firrigation+system/data=!4m7!3m6!1s0x40baf192865548e7:0x30d858250da7ece1!8m2!3d44.2488592!4d28.5681867!16s%2Fg%2F11r8vwz55l!19sChIJ50hVhpLxukAR4eynDSVY2DA?authuser=0&hl=tr&rclk=1",
    "website_url": "http://www.pic-pic.ro/",
    "rating_text": "",
    "stars": null,
    "number_of_reviews": null,
    "price_level": "",
    "open_hours": "",
    "extraction_timestamp": "2025-06-07T13:43:42.797Z",
    "source_name": "google",
    "source_query": "Irrigation Equipment",
    "source_country": "RO",
    "country": "Romania",
    "state": "Constanța County",
    "city": "Lumina"
  },
  {
    "source_id": "ChIJUzUN7IzzukARTwVr2SXoFIA",
    "name": "Titan Machinery Constanta",
    "category": "Titan Machinery Constanta",
    "formatted_address": "4,5(48)",
    "phone_number": "+40374367640",
    "source_url": "https://www.google.com/maps/place/Titan+Machinery+Constanta/data=!4m7!3m6!1s0x40baf38cec0d3553:0x8014e825d96b054f!8m2!3d44.2839278!4d28.5561504!16s%2Fg%2F11g8trht3p!19sChIJUzUN7IzzukARTwVr2SXoFIA?authuser=0&hl=tr&rclk=1",
    "website_url": "http://www.titanmachinery.ro/",
    "rating_text": "4,5",
    "stars": null,
    "number_of_reviews": null,
    "price_level": "",
    "open_hours": "",
    "extraction_timestamp": "2025-06-07T13:43:42.799Z",
    "source_name": "google",
    "source_query": "Irrigation Equipment",
    "source_country": "RO",
    "country": "Romania",
    "state": "Constanța County",
    "city": "Lumina"
  },
  {
    "source_id": "ChIJJe_J-BT0ukAR5eY2HvnHvog",
    "name": "ECO FIRE SISTEMS",
    "category": "ECO FIRE SISTEMS",
    "formatted_address": "4,5(13)",
    "phone_number": "+40747047400",
    "source_url": "https://www.google.com/maps/place/ECO+FIRE+SISTEMS/data=!4m7!3m6!1s0x40baf414f8c9ef25:0x88bec7f91e36e6e5!8m2!3d44.301032!4d28.58179!16s%2Fg%2F1hdztdx5v!19sChIJJe_J-BT0ukAR5eY2HvnHvog?authuser=0&hl=tr&rclk=1",
    "website_url": "http://www.ecofire.ro/",
    "rating_text": "4,5",
    "stars": null,
    "number_of_reviews": null,
    "price_level": "",
    "open_hours": "",
    "extraction_timestamp": "2025-06-07T13:43:42.800Z",
    "source_name": "google",
    "source_query": "Irrigation Equipment",
    "source_country": "RO",
    "country": "Romania",
    "state": "Constanța County",
    "city": "Lumina"
  },
  {
    "source_id": "ChIJh860y_zzukARbyhlvr618XI",
    "name": "BRICK Ovidiu",
    "category": "BRICK Ovidiu",
    "formatted_address": "4,2(222)",
    "phone_number": "+40731100115",
    "source_url": "https://www.google.com/maps/place/BRICK+Ovidiu/data=!4m7!3m6!1s0x40baf3fccbb4ce87:0x72f1b5bebe65286f!8m2!3d44.2781954!4d28.5584559!16s%2Fg%2F11qnrzl94_!19sChIJh860y_zzukARbyhlvr618XI?authuser=0&hl=tr&rclk=1",
    "website_url": "https://brick-romania.ro/",
    "rating_text": "4,2",
    "stars": null,
    "number_of_reviews": null,
    "price_level": "",
    "open_hours": "",
    "extraction_timestamp": "2025-06-07T13:43:42.817Z",
    "source_name": "google",
    "source_query": "Irrigation Equipment",
    "source_country": "RO",
    "country": "Romania",
    "state": "Constanța County",
    "city": "Lumina"
  },
  {
    "source_id": "ChIJqZmDrZPvukARafOxwsbRk9o",
    "name": "Star Aqua - water filters",
    "category": "Star Aqua - water filters",
    "formatted_address": "4,7(62)",
    "phone_number": "+40735788788",
    "source_url": "https://www.google.com/maps/place/Star+Aqua+-+water+filters/data=!4m7!3m6!1s0x40baef93ad8399a9:0xda93d1c6c2b1f369!8m2!3d44.1769258!4d28.6014246!16s%2Fg%2F11hd_9vzxl!19sChIJqZmDrZPvukARafOxwsbRk9o?authuser=0&hl=tr&rclk=1",
    "website_url": "http://www.staraqua.ro/",
    "rating_text": "4,7",
    "stars": null,
    "number_of_reviews": null,
    "price_level": "",
    "open_hours": "",
    "extraction_timestamp": "2025-06-07T13:43:42.818Z",
    "source_name": "google",
    "source_query": "Irrigation Equipment",
    "source_country": "RO",
    "country": "Romania",
    "state": "Constanța County",
    "city": "Lumina"
  }
]
