[
  {
    "source_id": "ChIJgUccXFTlukARgmLa-3WY0C4",
    "name": "Sevirox Garden",
    "category": "Sevirox Garden",
    "formatted_address": "5,0(13)",
    "phone_number": "+40764814001",
    "source_url": "https://www.google.com/maps/place/Sevirox+Garden/data=!4m7!3m6!1s0x40bae5545c1c4781:0x2ed09875fbda6282!8m2!3d44.19335!4d28.5907635!16s%2Fg%2F11qnrv5y6f!19sChIJgUccXFTlukARgmLa-3WY0C4?authuser=0&hl=tr&rclk=1",
    "website_url": "http://www.amenajari-gradini-constanta.ro/",
    "rating_text": "5,0",
    "stars": null,
    "number_of_reviews": null,
    "price_level": "",
    "open_hours": "",
    "extraction_timestamp": "2025-06-07T13:42:59.955Z",
    "source_name": "google",
    "source_query": "Irrigation Equipment",
    "source_country": "RO",
    "country": "Romania",
    "state": "Constanța County",
    "city": "Mircea Vodă"
  },
  {
    "source_id": "ChIJUzUN7IzzukARTwVr2SXoFIA",
    "name": "Titan Machinery Constanta",
    "category": "Titan Machinery Constanta",
    "formatted_address": "4,5(48)",
    "phone_number": "+40374367640",
    "source_url": "https://www.google.com/maps/place/Titan+Machinery+Constanta/data=!4m7!3m6!1s0x40baf38cec0d3553:0x8014e825d96b054f!8m2!3d44.2839278!4d28.5561504!16s%2Fg%2F11g8trht3p!19sChIJUzUN7IzzukARTwVr2SXoFIA?authuser=0&hl=tr&rclk=1",
    "website_url": "http://www.titanmachinery.ro/",
    "rating_text": "4,5",
    "stars": null,
    "number_of_reviews": null,
    "price_level": "",
    "open_hours": "",
    "extraction_timestamp": "2025-06-07T13:42:59.957Z",
    "source_name": "google",
    "source_query": "Irrigation Equipment",
    "source_country": "RO",
    "country": "Romania",
    "state": "Constanța County",
    "city": "Mircea Vodă"
  },
  {
    "source_id": "ChIJO9PEk07lukARccUFjL-TwuA",
    "name": "Camera de Comerţ, Industrie, Navigaţie şi Agricultură",
    "category": "Camera de Comerţ, Industrie, Navigaţie şi Agricultură",
    "formatted_address": "Camera de Comerţ, Industrie, Navigaţie şi Agricultură",
    "phone_number": "+40241619854",
    "source_url": "https://www.google.com/maps/place/Camera+de+Comer%C5%A3,+Industrie,+Naviga%C5%A3ie+%C5%9Fi+Agricultur%C4%83/data=!4m7!3m6!1s0x40bae54e93c4d33b:0xe0c293bf8c05c571!8m2!3d44.210051!4d28.6283408!16s%2Fg%2F12hk95xh7!19sChIJO9PEk07lukARccUFjL-TwuA?authuser=0&hl=tr&rclk=1",
    "website_url": "http://www.ccina.ro/",
    "rating_text": "4,7",
    "stars": null,
    "number_of_reviews": null,
    "price_level": "",
    "open_hours": "",
    "extraction_timestamp": "2025-06-07T13:42:59.959Z",
    "source_name": "google",
    "source_query": "Irrigation Equipment",
    "source_country": "RO",
    "country": "Romania",
    "state": "Constanța County",
    "city": "Mircea Vodă"
  },
  {
    "source_id": "ChIJVVVx1Y7vukARcE44ktnszu8",
    "name": "Magazin Irigatie",
    "category": "Magazin Irigatie",
    "formatted_address": "",
    "phone_number": "+40722301527",
    "source_url": "https://www.google.com/maps/place/Magazin+Irigatie/data=!4m7!3m6!1s0x40baef8ed5715555:0xefceecd992384e70!8m2!3d44.1737547!4d28.5929597!16s%2Fg%2F11flzgjrc8!19sChIJVVVx1Y7vukARcE44ktnszu8?authuser=0&hl=tr&rclk=1",
    "website_url": "http://magazin-irigatie.ro/index.php?route=information/contact",
    "rating_text": "",
    "stars": null,
    "number_of_reviews": null,
    "price_level": "",
    "open_hours": "",
    "extraction_timestamp": "2025-06-07T13:42:59.960Z",
    "source_name": "google",
    "source_query": "Irrigation Equipment",
    "source_country": "RO",
    "country": "Romania",
    "state": "Constanța County",
    "city": "Mircea Vodă"
  },
  {
    "source_id": "ChIJq0XQuI-ZRUcR0dN_lDpf8dI",
    "name": "SC AIDA-ROM COM LLC",
    "category": "SC AIDA-ROM COM LLC",
    "formatted_address": "",
    "phone_number": "+40724627420",
    "source_url": "https://www.google.com/maps/place/SC+AIDA-ROM+COM+LLC/data=!4m7!3m6!1s0x4745998fb8d045ab:0xd2f15f3a947fd3d1!8m2!3d44.6424114!4d28.6922174!16s%2Fg%2F11b7lq7kw9!19sChIJq0XQuI-ZRUcR0dN_lDpf8dI?authuser=0&hl=tr&rclk=1",
    "website_url": "http://www.rom-aida.ro/",
    "rating_text": "",
    "stars": null,
    "number_of_reviews": null,
    "price_level": "",
    "open_hours": "",
    "extraction_timestamp": "2025-06-07T13:42:59.961Z",
    "source_name": "google",
    "source_query": "Irrigation Equipment",
    "source_country": "RO",
    "country": "Romania",
    "state": "Constanța County",
    "city": "Mircea Vodă"
  }
]
