[
  {
    "source_id": "ChIJ1VTBtbP6ukARe0SO3_N03fU",
    "name": "Studio Garden - Amenajari Gradini",
    "category": "Studio Garden - Amenajari Gradini",
    "formatted_address": "5,0(22)",
    "phone_number": "+40735285485",
    "source_url": "https://www.google.com/maps/place/Studio+Garden+-+Amenajari+Gradini/data=!4m7!3m6!1s0x40bafab3b5c154d5:0xf5dd74f3df8e447b!8m2!3d44.1883696!4d28.6114278!16s%2Fg%2F11b6q6t0gz!19sChIJ1VTBtbP6ukARe0SO3_N03fU?authuser=0&hl=tr&rclk=1",
    "website_url": "https://studiogarden.ro/constanta/",
    "rating_text": "5,0",
    "stars": null,
    "number_of_reviews": null,
    "price_level": "",
    "open_hours": "",
    "extraction_timestamp": "2025-06-07T13:45:53.430Z",
    "source_name": "google",
    "source_query": "Irrigation Equipment",
    "source_country": "RO",
    "country": "Romania",
    "state": "Constanța County",
    "city": "Municipiul Constanţa"
  },
  {
    "source_id": "ChIJiQRvfC_vukARn97LPspf2yU",
    "name": "HIDROstore",
    "category": "HIDROstore",
    "formatted_address": "4,9(47)",
    "phone_number": "+40751151217",
    "source_url": "https://www.google.com/maps/place/HIDROstore/data=!4m7!3m6!1s0x40baef2f7c6f0489:0x25db5fca3ecbde9f!8m2!3d44.1620523!4d28.6024738!16s%2Fg%2F11ftkc_y07!19sChIJiQRvfC_vukARn97LPspf2yU?authuser=0&hl=tr&rclk=1",
    "website_url": "https://hidrostore.ro/",
    "rating_text": "4,9",
    "stars": null,
    "number_of_reviews": null,
    "price_level": "",
    "open_hours": "",
    "extraction_timestamp": "2025-06-07T13:45:53.431Z",
    "source_name": "google",
    "source_query": "Irrigation Equipment",
    "source_country": "RO",
    "country": "Romania",
    "state": "Constanța County",
    "city": "Municipiul Constanţa"
  },
  {
    "source_id": "ChIJ50hVhpLxukAR4eynDSVY2DA",
    "name": "sisteme irigatii/irrigation system",
    "category": "sisteme irigatii/irrigation system",
    "formatted_address": "",
    "phone_number": "+40720300211",
    "source_url": "https://www.google.com/maps/place/sisteme+irigatii%2Firrigation+system/data=!4m7!3m6!1s0x40baf192865548e7:0x30d858250da7ece1!8m2!3d44.2488592!4d28.5681867!16s%2Fg%2F11r8vwz55l!19sChIJ50hVhpLxukAR4eynDSVY2DA?authuser=0&hl=tr&rclk=1",
    "website_url": "http://www.pic-pic.ro/",
    "rating_text": "",
    "stars": null,
    "number_of_reviews": null,
    "price_level": "",
    "open_hours": "",
    "extraction_timestamp": "2025-06-07T13:45:53.432Z",
    "source_name": "google",
    "source_query": "Irrigation Equipment",
    "source_country": "RO",
    "country": "Romania",
    "state": "Constanța County",
    "city": "Municipiul Constanţa"
  },
  {
    "source_id": "ChIJtX6tVEflukARXjKzd-jpeJg",
    "name": "Partener S.R.L.",
    "category": "Partener S.R.L.",
    "formatted_address": "4,6(17)",
    "phone_number": "+40744704534",
    "source_url": "https://www.google.com/maps/place/Partener+S.R.L./data=!4m7!3m6!1s0x40bae54754ad7eb5:0x9878e9e877b3325e!8m2!3d44.1604855!4d28.5978515!16s%2Fg%2F1hc6rtfjh!19sChIJtX6tVEflukARXjKzd-jpeJg?authuser=0&hl=tr&rclk=1",
    "website_url": "http://www.partner.ro/",
    "rating_text": "4,6",
    "stars": null,
    "number_of_reviews": null,
    "price_level": "",
    "open_hours": "",
    "extraction_timestamp": "2025-06-07T13:45:53.433Z",
    "source_name": "google",
    "source_query": "Irrigation Equipment",
    "source_country": "RO",
    "country": "Romania",
    "state": "Constanța County",
    "city": "Municipiul Constanţa"
  },
  {
    "source_id": "ChIJgUccXFTlukARgmLa-3WY0C4",
    "name": "Sevirox Garden",
    "category": "Sevirox Garden",
    "formatted_address": "5,0(13)",
    "phone_number": "+40764814001",
    "source_url": "https://www.google.com/maps/place/Sevirox+Garden/data=!4m7!3m6!1s0x40bae5545c1c4781:0x2ed09875fbda6282!8m2!3d44.19335!4d28.5907635!16s%2Fg%2F11qnrv5y6f!19sChIJgUccXFTlukARgmLa-3WY0C4?authuser=0&hl=tr&rclk=1",
    "website_url": "http://www.amenajari-gradini-constanta.ro/",
    "rating_text": "5,0",
    "stars": null,
    "number_of_reviews": null,
    "price_level": "",
    "open_hours": "",
    "extraction_timestamp": "2025-06-07T13:45:53.434Z",
    "source_name": "google",
    "source_query": "Irrigation Equipment",
    "source_country": "RO",
    "country": "Romania",
    "state": "Constanța County",
    "city": "Municipiul Constanţa"
  },
  {
    "source_id": "ChIJAQBMj07lukARXVsOxpT9tGI",
    "name": "Instalații Distribuție SRL",
    "category": "Instalații Distribuție SRL",
    "formatted_address": "4,0(29)",
    "phone_number": "+40341170017",
    "source_url": "https://www.google.com/maps/place/Instala%C8%9Bii+Distribu%C8%9Bie+SRL/data=!4m7!3m6!1s0x40bae54e8f4c0001:0x62b4fd94c60e5b5d!8m2!3d44.1836138!4d28.6323031!16s%2Fg%2F11bbrllpg0!19sChIJAQBMj07lukARXVsOxpT9tGI?authuser=0&hl=tr&rclk=1",
    "website_url": "http://www.servicecentraleariston.ro/",
    "rating_text": "4,0",
    "stars": null,
    "number_of_reviews": null,
    "price_level": "",
    "open_hours": "",
    "extraction_timestamp": "2025-06-07T13:45:53.435Z",
    "source_name": "google",
    "source_query": "Irrigation Equipment",
    "source_country": "RO",
    "country": "Romania",
    "state": "Constanța County",
    "city": "Municipiul Constanţa"
  },
  {
    "source_id": "ChIJP9756j3lukARsnQ_5sS-Afg",
    "name": "Instalator Constanța",
    "category": "Instalator Constanța",
    "formatted_address": "5,0(53)",
    "phone_number": "+40764991268",
    "source_url": "https://www.google.com/maps/place/Instalator+Constan%C8%9Ba/data=!4m7!3m6!1s0x40bae53deaf9de3f:0xf801bec4e63f74b2!8m2!3d44.1725449!4d28.6320426!16s%2Fg%2F11g6qd71n5!19sChIJP9756j3lukARsnQ_5sS-Afg?authuser=0&hl=tr&rclk=1",
    "website_url": "http://instalator-sanitar-constanta.ro/",
    "rating_text": "5,0",
    "stars": null,
    "number_of_reviews": null,
    "price_level": "",
    "open_hours": "",
    "extraction_timestamp": "2025-06-07T13:45:53.435Z",
    "source_name": "google",
    "source_query": "Irrigation Equipment",
    "source_country": "RO",
    "country": "Romania",
    "state": "Constanța County",
    "city": "Municipiul Constanţa"
  },
  {
    "source_id": "ChIJNef6Dbb6ukARuS_EQb5SMTc",
    "name": "Family Aqua",
    "category": "Family Aqua",
    "formatted_address": "5,0(7)",
    "phone_number": "+40721555556",
    "source_url": "https://www.google.com/maps/place/Family+Aqua/data=!4m7!3m6!1s0x40bafab60dfae735:0x373152be41c42fb9!8m2!3d44.1907504!4d28.6507974!16s%2Fg%2F1q62k470j!19sChIJNef6Dbb6ukARuS_EQb5SMTc?authuser=0&hl=tr&rclk=1",
    "website_url": "http://www.familyaqua.ro/",
    "rating_text": "5,0",
    "stars": null,
    "number_of_reviews": null,
    "price_level": "",
    "open_hours": "",
    "extraction_timestamp": "2025-06-07T13:45:53.436Z",
    "source_name": "google",
    "source_query": "Irrigation Equipment",
    "source_country": "RO",
    "country": "Romania",
    "state": "Constanța County",
    "city": "Municipiul Constanţa"
  },
  {
    "source_id": "ChIJnUVPGWrlukAR_y3l4Z5MuZw",
    "name": "M.P.M. Tehnic Serv",
    "category": "M.P.M. Tehnic Serv",
    "formatted_address": "3,1(14)",
    "phone_number": "+40241610244",
    "source_url": "https://www.google.com/maps/place/M.P.M.+Tehnic+Serv/data=!4m7!3m6!1s0x40bae56a194f459d:0x9cb94c9ee1e52dff!8m2!3d44.1875641!4d28.6018981!16s%2Fg%2F1hc9wfl_s!19sChIJnUVPGWrlukAR_y3l4Z5MuZw?authuser=0&hl=tr&rclk=1",
    "website_url": "http://www.mpmtech.ro/",
    "rating_text": "3,1",
    "stars": null,
    "number_of_reviews": null,
    "price_level": "",
    "open_hours": "",
    "extraction_timestamp": "2025-06-07T13:45:53.437Z",
    "source_name": "google",
    "source_query": "Irrigation Equipment",
    "source_country": "RO",
    "country": "Romania",
    "state": "Constanța County",
    "city": "Municipiul Constanţa"
  },
  {
    "source_id": "ChIJu3JhyE3lukARSAYk_D_TEqg",
    "name": "Bio Energy Water SRL",
    "category": "Bio Energy Water SRL",
    "formatted_address": "",
    "phone_number": "+40784203062",
    "source_url": "https://www.google.com/maps/place/Bio+Energy+Water+SRL/data=!4m7!3m6!1s0x40bae54dc86172bb:0xa812d33ffc240648!8m2!3d44.185958!4d28.634029!16s%2Fg%2F11xp58c6x!19sChIJu3JhyE3lukARSAYk_D_TEqg?authuser=0&hl=tr&rclk=1",
    "website_url": "http://www.bewater.ro/",
    "rating_text": "",
    "stars": null,
    "number_of_reviews": null,
    "price_level": "",
    "open_hours": "",
    "extraction_timestamp": "2025-06-07T13:45:53.438Z",
    "source_name": "google",
    "source_query": "Irrigation Equipment",
    "source_country": "RO",
    "country": "Romania",
    "state": "Constanța County",
    "city": "Municipiul Constanţa"
  }
]
