[
  {
    "source_id": "ChIJWatbUFeRukARVjf_BYHSwfA",
    "name": "Foisor Com srl Hidrofor",
    "category": "Foisor Com srl Hidrofor",
    "formatted_address": "3,9(122)",
    "phone_number": "+40741794811",
    "source_url": "https://www.google.com/maps/place/Foisor+Com+srl+Hidrofor/data=!4m7!3m6!1s0x40ba9157505bab59:0xf0c1d28105ff3756!8m2!3d44.2369213!4d28.2724108!16s%2Fg%2F11h79stmn9!19sChIJWatbUFeRukARVjf_BYHSwfA?authuser=0&hl=tr&rclk=1",
    "website_url": "",
    "rating_text": "3,9",
    "stars": null,
    "number_of_reviews": null,
    "price_level": "",
    "open_hours": "",
    "extraction_timestamp": "2025-06-07T13:44:17.910Z",
    "source_name": "google",
    "source_query": "Irrigation Equipment",
    "source_country": "RO",
    "country": "Romania",
    "state": "Constanța County",
    "city": "Municipiul Medgidia"
  },
  {
    "source_id": "ChIJBUcaEfGQukARqfaj2asDyJk",
    "name": "Rolls of turf",
    "category": "Rolls of turf",
    "formatted_address": "4,6(18)",
    "phone_number": "+40742085684",
    "source_url": "https://www.google.com/maps/place/Rolls+of+turf/data=!4m7!3m6!1s0x40ba90f1111a4705:0x99c803abd9a3f6a9!8m2!3d44.2577953!4d28.2146607!16s%2Fg%2F11cjj38z8l!19sChIJBUcaEfGQukARqfaj2asDyJk?authuser=0&hl=tr&rclk=1",
    "website_url": "",
    "rating_text": "4,6",
    "stars": null,
    "number_of_reviews": null,
    "price_level": "",
    "open_hours": "",
    "extraction_timestamp": "2025-06-07T13:44:17.912Z",
    "source_name": "google",
    "source_query": "Irrigation Equipment",
    "source_country": "RO",
    "country": "Romania",
    "state": "Constanța County",
    "city": "Municipiul Medgidia"
  },
  {
    "source_id": "ChIJQ-A9ZXaRukARFjwgg1iVGwM",
    "name": "Fermierul Dobrogean",
    "category": "Fermierul Dobrogean",
    "formatted_address": "5,0(1)",
    "phone_number": "+40726976809",
    "source_url": "https://www.google.com/maps/place/Fermierul+Dobrogean/data=!4m7!3m6!1s0x40ba9176653de043:0x31b955883203c16!8m2!3d44.2470955!4d28.2685757!16s%2Fg%2F11rq7_0g6k!19sChIJQ-A9ZXaRukARFjwgg1iVGwM?authuser=0&hl=tr&rclk=1",
    "website_url": "",
    "rating_text": "5,0",
    "stars": null,
    "number_of_reviews": null,
    "price_level": "",
    "open_hours": "",
    "extraction_timestamp": "2025-06-07T13:44:17.912Z",
    "source_name": "google",
    "source_query": "Irrigation Equipment",
    "source_country": "RO",
    "country": "Romania",
    "state": "Constanța County",
    "city": "Municipiul Medgidia"
  },
  {
    "source_id": "ChIJ2eedbsCRukARPBSeR2qDeKc",
    "name": "Extremis srl",
    "category": "Extremis srl",
    "formatted_address": "4,8(14)",
    "phone_number": "",
    "source_url": "https://www.google.com/maps/place/Extremis+srl/data=!4m7!3m6!1s0x40ba91c06e9de7d9:0xa778836a479e143c!8m2!3d44.246292!4d28.2553131!16s%2Fg%2F11hzpnft1d!19sChIJ2eedbsCRukARPBSeR2qDeKc?authuser=0&hl=tr&rclk=1",
    "website_url": "",
    "rating_text": "4,8",
    "stars": null,
    "number_of_reviews": null,
    "price_level": "",
    "open_hours": "",
    "extraction_timestamp": "2025-06-07T13:44:17.913Z",
    "source_name": "google",
    "source_query": "Irrigation Equipment",
    "source_country": "RO",
    "country": "Romania",
    "state": "Constanța County",
    "city": "Municipiul Medgidia"
  },
  {
    "source_id": "ChIJI5MFmqSRukARa-vBpVD9ikE",
    "name": "Giorgia Nord S.R.L.",
    "category": "Giorgia Nord S.R.L.",
    "formatted_address": "4,3(44)",
    "phone_number": "+40723040214",
    "source_url": "https://www.google.com/maps/place/Giorgia+Nord+S.R.L./data=!4m7!3m6!1s0x40ba91a49a059323:0x418afd50a5c1eb6b!8m2!3d44.262743!4d28.2611396!16s%2Fg%2F1hc1pgr03!19sChIJI5MFmqSRukARa-vBpVD9ikE?authuser=0&hl=tr&rclk=1",
    "website_url": "",
    "rating_text": "4,3",
    "stars": null,
    "number_of_reviews": null,
    "price_level": "",
    "open_hours": "",
    "extraction_timestamp": "2025-06-07T13:44:17.914Z",
    "source_name": "google",
    "source_query": "Irrigation Equipment",
    "source_country": "RO",
    "country": "Romania",
    "state": "Constanța County",
    "city": "Municipiul Medgidia"
  },
  {
    "source_id": "ChIJaUGTuquRukAR2sSra2fAhR0",
    "name": "Casa cu Mesteri",
    "category": "Casa cu Mesteri",
    "formatted_address": "5,0(13)",
    "phone_number": "+40757052957",
    "source_url": "https://www.google.com/maps/place/Casa+cu+Mesteri/data=!4m7!3m6!1s0x40ba91abba934169:0x1d85c0676babc4da!8m2!3d44.2457999!4d28.270419!16s%2Fg%2F11ybzgmdk1!19sChIJaUGTuquRukAR2sSra2fAhR0?authuser=0&hl=tr&rclk=1",
    "website_url": "",
    "rating_text": "5,0",
    "stars": null,
    "number_of_reviews": null,
    "price_level": "",
    "open_hours": "",
    "extraction_timestamp": "2025-06-07T13:44:17.916Z",
    "source_name": "google",
    "source_query": "Irrigation Equipment",
    "source_country": "RO",
    "country": "Romania",
    "state": "Constanța County",
    "city": "Municipiul Medgidia"
  },
  {
    "source_id": "ChIJ28ITGe6RukARmPufMcZr7WI",
    "name": "Materiale De Construcții Bowling",
    "category": "Materiale De Construcții Bowling",
    "formatted_address": "5,0(4)",
    "phone_number": "+40724444484",
    "source_url": "https://www.google.com/maps/place/Materiale+De+Construc%C8%9Bii+Bowling/data=!4m7!3m6!1s0x40ba91ee1913c2db:0x62ed6bc6319ffb98!8m2!3d44.2482217!4d28.2703083!16s%2Fg%2F11gtd9pdf6!19sChIJ28ITGe6RukARmPufMcZr7WI?authuser=0&hl=tr&rclk=1",
    "website_url": "",
    "rating_text": "5,0",
    "stars": null,
    "number_of_reviews": null,
    "price_level": "",
    "open_hours": "",
    "extraction_timestamp": "2025-06-07T13:44:17.917Z",
    "source_name": "google",
    "source_query": "Irrigation Equipment",
    "source_country": "RO",
    "country": "Romania",
    "state": "Constanța County",
    "city": "Municipiul Medgidia"
  },
  {
    "source_id": "ChIJ_bhs8fyRukARuRaGWuWSoM4",
    "name": "Sportisimo",
    "category": "Sportisimo",
    "formatted_address": "4,4(22)",
    "phone_number": "+40722465819",
    "source_url": "https://www.google.com/maps/place/Sportisimo/data=!4m7!3m6!1s0x40ba91fcf16cb8fd:0xcea092e55a8616b9!8m2!3d44.2621688!4d28.2628112!16s%2Fg%2F11hds61b4w!19sChIJ_bhs8fyRukARuRaGWuWSoM4?authuser=0&hl=tr&rclk=1",
    "website_url": "",
    "rating_text": "4,4",
    "stars": null,
    "number_of_reviews": null,
    "price_level": "",
    "open_hours": "",
    "extraction_timestamp": "2025-06-07T13:44:17.918Z",
    "source_name": "google",
    "source_query": "Irrigation Equipment",
    "source_country": "RO",
    "country": "Romania",
    "state": "Constanța County",
    "city": "Municipiul Medgidia"
  },
  {
    "source_id": "ChIJxdbumnCRukARoa01tGbnXxM",
    "name": "Madixi S.R.L.",
    "category": "Madixi S.R.L.",
    "formatted_address": "4,6(7)",
    "phone_number": "+40722698911",
    "source_url": "https://www.google.com/maps/place/Madixi+S.R.L./data=!4m7!3m6!1s0x40ba91709aeed6c5:0x135fe766b435ada1!8m2!3d44.2419698!4d28.2694472!16s%2Fg%2F1hc2bhn8r!19sChIJxdbumnCRukARoa01tGbnXxM?authuser=0&hl=tr&rclk=1",
    "website_url": "",
    "rating_text": "4,6",
    "stars": null,
    "number_of_reviews": null,
    "price_level": "",
    "open_hours": "",
    "extraction_timestamp": "2025-06-07T13:44:17.919Z",
    "source_name": "google",
    "source_query": "Irrigation Equipment",
    "source_country": "RO",
    "country": "Romania",
    "state": "Constanța County",
    "city": "Municipiul Medgidia"
  },
  {
    "source_id": "ChIJFXJnIpOTukARQ_3YDKRO4Nk",
    "name": "Materiale de constructii",
    "category": "Materiale de constructii",
    "formatted_address": "3,9(8)",
    "phone_number": "+40755041513",
    "source_url": "https://www.google.com/maps/place/Materiale+de+constructii/data=!4m7!3m6!1s0x40ba939322677215:0xd9e04ea40cd8fd43!8m2!3d44.238095!4d28.2883521!16s%2Fg%2F11fkvqdlww!19sChIJFXJnIpOTukARQ_3YDKRO4Nk?authuser=0&hl=tr&rclk=1",
    "website_url": "",
    "rating_text": "3,9",
    "stars": null,
    "number_of_reviews": null,
    "price_level": "",
    "open_hours": "",
    "extraction_timestamp": "2025-06-07T13:44:17.920Z",
    "source_name": "google",
    "source_query": "Irrigation Equipment",
    "source_country": "RO",
    "country": "Romania",
    "state": "Constanța County",
    "city": "Municipiul Medgidia"
  },
  {
    "source_id": "ChIJLTRs73aRukAR37PUKek70NY",
    "name": "Magazin Foisor",
    "category": "Magazin Foisor",
    "formatted_address": "4,0(444)",
    "phone_number": "",
    "source_url": "https://www.google.com/maps/place/Magazin+Foisor/data=!4m7!3m6!1s0x40ba9176ef6c342d:0xd6d03be929d4b3df!8m2!3d44.245722!4d28.2687794!16s%2Fg%2F11ckvkz1v0!19sChIJLTRs73aRukAR37PUKek70NY?authuser=0&hl=tr&rclk=1",
    "website_url": "",
    "rating_text": "4,0",
    "stars": null,
    "number_of_reviews": null,
    "price_level": "",
    "open_hours": "",
    "extraction_timestamp": "2025-06-07T13:44:17.920Z",
    "source_name": "google",
    "source_query": "Irrigation Equipment",
    "source_country": "RO",
    "country": "Romania",
    "state": "Constanța County",
    "city": "Municipiul Medgidia"
  },
  {
    "source_id": "ChIJyZOVLruRukAR-PhTH43L4qQ",
    "name": "Mezozoica SRL",
    "category": "Mezozoica SRL",
    "formatted_address": "4,5(37)",
    "phone_number": "+40724556837",
    "source_url": "https://www.google.com/maps/place/Mezozoica+SRL/data=!4m7!3m6!1s0x40ba91bb2e9593c9:0xa4e2cb8d1f53f8f8!8m2!3d44.261255!4d28.2629377!16s%2Fg%2F11c5rt9krt!19sChIJyZOVLruRukAR-PhTH43L4qQ?authuser=0&hl=tr&rclk=1",
    "website_url": "",
    "rating_text": "4,5",
    "stars": null,
    "number_of_reviews": null,
    "price_level": "",
    "open_hours": "",
    "extraction_timestamp": "2025-06-07T13:44:17.921Z",
    "source_name": "google",
    "source_query": "Irrigation Equipment",
    "source_country": "RO",
    "country": "Romania",
    "state": "Constanța County",
    "city": "Municipiul Medgidia"
  },
  {
    "source_id": "ChIJ-b2mEXGRukARN23h92t5ORc",
    "name": "Muntal S.R.L.",
    "category": "Muntal S.R.L.",
    "formatted_address": "4,8(6)",
    "phone_number": "+40722284243",
    "source_url": "https://www.google.com/maps/place/Muntal+S.R.L./data=!4m7!3m6!1s0x40ba917111a6bdf9:0x1739796bf7e16d37!8m2!3d44.2541831!4d28.2684552!16s%2Fg%2F1tdsh8lj!19sChIJ-b2mEXGRukARN23h92t5ORc?authuser=0&hl=tr&rclk=1",
    "website_url": "",
    "rating_text": "4,8",
    "stars": null,
    "number_of_reviews": null,
    "price_level": "",
    "open_hours": "",
    "extraction_timestamp": "2025-06-07T13:44:17.921Z",
    "source_name": "google",
    "source_query": "Irrigation Equipment",
    "source_country": "RO",
    "country": "Romania",
    "state": "Constanța County",
    "city": "Municipiul Medgidia"
  },
  {
    "source_id": "ChIJq1khH0SRukARrjJ-oEPb1B0",
    "name": "Foișor Market",
    "category": "Foișor Market",
    "formatted_address": "4,2(187)",
    "phone_number": "+40770654221",
    "source_url": "https://www.google.com/maps/place/Foi%C8%99or+Market/data=!4m7!3m6!1s0x40ba91441f2159ab:0x1dd4db43a07e32ae!8m2!3d44.2599569!4d28.2625614!16s%2Fg%2F11hz8hh6tm!19sChIJq1khH0SRukARrjJ-oEPb1B0?authuser=0&hl=tr&rclk=1",
    "website_url": "",
    "rating_text": "4,2",
    "stars": null,
    "number_of_reviews": null,
    "price_level": "",
    "open_hours": "",
    "extraction_timestamp": "2025-06-07T13:44:17.922Z",
    "source_name": "google",
    "source_query": "Irrigation Equipment",
    "source_country": "RO",
    "country": "Romania",
    "state": "Constanța County",
    "city": "Municipiul Medgidia"
  },
  {
    "source_id": "ChIJ50hVhpLxukAR4eynDSVY2DA",
    "name": "sisteme irigatii/irrigation system",
    "category": "sisteme irigatii/irrigation system",
    "formatted_address": "",
    "phone_number": "+40720300211",
    "source_url": "https://www.google.com/maps/place/sisteme+irigatii%2Firrigation+system/data=!4m7!3m6!1s0x40baf192865548e7:0x30d858250da7ece1!8m2!3d44.2488592!4d28.5681867!16s%2Fg%2F11r8vwz55l!19sChIJ50hVhpLxukAR4eynDSVY2DA?authuser=0&hl=tr&rclk=1",
    "website_url": "",
    "rating_text": "",
    "stars": null,
    "number_of_reviews": null,
    "price_level": "",
    "open_hours": "",
    "extraction_timestamp": "2025-06-07T13:44:17.923Z",
    "source_name": "google",
    "source_query": "Irrigation Equipment",
    "source_country": "RO",
    "country": "Romania",
    "state": "Constanța County",
    "city": "Municipiul Medgidia"
  },
  {
    "source_id": "ChIJB_RKahCRukAR1p23RJc-kbk",
    "name": "Project construct murat",
    "category": "Project construct murat",
    "formatted_address": "4,2(51)",
    "phone_number": "",
    "source_url": "https://www.google.com/maps/place/Project+construct+murat/data=!4m7!3m6!1s0x40ba91106a4af407:0xb9913e9744b79dd6!8m2!3d44.2397578!4d28.2667608!16s%2Fg%2F11h4zqkf5m!19sChIJB_RKahCRukAR1p23RJc-kbk?authuser=0&hl=tr&rclk=1",
    "website_url": "",
    "rating_text": "4,2",
    "stars": null,
    "number_of_reviews": null,
    "price_level": "",
    "open_hours": "",
    "extraction_timestamp": "2025-06-07T13:44:17.923Z",
    "source_name": "google",
    "source_query": "Irrigation Equipment",
    "source_country": "RO",
    "country": "Romania",
    "state": "Constanța County",
    "city": "Municipiul Medgidia"
  },
  {
    "source_id": "ChIJEwt6mt-RukARpHuGLHbQxTk",
    "name": "Sc TonyMarket Med SRL",
    "category": "Sc TonyMarket Med SRL",
    "formatted_address": "4,5(22)",
    "phone_number": "+40766593559",
    "source_url": "https://www.google.com/maps/place/Sc+TonyMarket+Med+SRL/data=!4m7!3m6!1s0x40ba91df9a7a0b13:0x39c5d0762c867ba4!8m2!3d44.2448323!4d28.2824789!16s%2Fg%2F11hy_qk_k3!19sChIJEwt6mt-RukARpHuGLHbQxTk?authuser=0&hl=tr&rclk=1",
    "website_url": "",
    "rating_text": "4,5",
    "stars": null,
    "number_of_reviews": null,
    "price_level": "",
    "open_hours": "",
    "extraction_timestamp": "2025-06-07T13:44:17.924Z",
    "source_name": "google",
    "source_query": "Irrigation Equipment",
    "source_country": "RO",
    "country": "Romania",
    "state": "Constanța County",
    "city": "Municipiul Medgidia"
  },
  {
    "source_id": "ChIJW_5fw6KRukARNP0kBea8goE",
    "name": "Romsav",
    "category": "Romsav",
    "formatted_address": "4,6(33)",
    "phone_number": "",
    "source_url": "https://www.google.com/maps/place/Romsav/data=!4m7!3m6!1s0x40ba91a2c35ffe5b:0x8182bce60524fd34!8m2!3d44.2581263!4d28.2683192!16s%2Fg%2F11c1s8r41c!19sChIJW_5fw6KRukARNP0kBea8goE?authuser=0&hl=tr&rclk=1",
    "website_url": "",
    "rating_text": "4,6",
    "stars": null,
    "number_of_reviews": null,
    "price_level": "",
    "open_hours": "",
    "extraction_timestamp": "2025-06-07T13:44:17.924Z",
    "source_name": "google",
    "source_query": "Irrigation Equipment",
    "source_country": "RO",
    "country": "Romania",
    "state": "Constanța County",
    "city": "Municipiul Medgidia"
  },
  {
    "source_id": "ChIJF7gtdnaRukARSM6S4av_3rk",
    "name": "Profi Imum",
    "category": "Profi Imum",
    "formatted_address": "4,5(101)",
    "phone_number": "",
    "source_url": "https://www.google.com/maps/place/Profi+Imum/data=!4m7!3m6!1s0x40ba9176762db817:0xb9deffabe192ce48!8m2!3d44.2596267!4d28.2626084!16s%2Fg%2F11hz162xvn!19sChIJF7gtdnaRukARSM6S4av_3rk?authuser=0&hl=tr&rclk=1",
    "website_url": "",
    "rating_text": "4,5",
    "stars": null,
    "number_of_reviews": null,
    "price_level": "",
    "open_hours": "",
    "extraction_timestamp": "2025-06-07T13:44:17.924Z",
    "source_name": "google",
    "source_query": "Irrigation Equipment",
    "source_country": "RO",
    "country": "Romania",
    "state": "Constanța County",
    "city": "Municipiul Medgidia"
  },
  {
    "source_id": "ChIJA3DL-7CRukARz2V24GI80Mc",
    "name": "Stavros Medgidia",
    "category": "Stavros Medgidia",
    "formatted_address": "4,3(245)",
    "phone_number": "",
    "source_url": "https://www.google.com/maps/place/Stavros+Medgidia/data=!4m7!3m6!1s0x40ba91b0fbcb7003:0xc7d03c62e07665cf!8m2!3d44.2640916!4d28.2583038!16s%2Fg%2F11f3zm9_l5!19sChIJA3DL-7CRukARz2V24GI80Mc?authuser=0&hl=tr&rclk=1",
    "website_url": "",
    "rating_text": "4,3",
    "stars": null,
    "number_of_reviews": null,
    "price_level": "",
    "open_hours": "",
    "extraction_timestamp": "2025-06-07T13:44:17.925Z",
    "source_name": "google",
    "source_query": "Irrigation Equipment",
    "source_country": "RO",
    "country": "Romania",
    "state": "Constanța County",
    "city": "Municipiul Medgidia"
  },
  {
    "source_id": "ChIJ__8PtjjlukARAZBG-6GrMWA",
    "name": "ALFA PREST INDUSTRY SRL",
    "category": "ALFA PREST INDUSTRY SRL",
    "formatted_address": "4,6(11)",
    "phone_number": "+40733698600",
    "source_url": "https://www.google.com/maps/place/ALFA+PREST+INDUSTRY+SRL/data=!4m7!3m6!1s0x40bae538b60fffff:0x6031aba1fb469001!8m2!3d44.1873533!4d28.6481656!16s%2Fg%2F11gf5r69m0!19sChIJ__8PtjjlukARAZBG-6GrMWA?authuser=0&hl=tr&rclk=1",
    "website_url": "",
    "rating_text": "4,6",
    "stars": null,
    "number_of_reviews": null,
    "price_level": "",
    "open_hours": "",
    "extraction_timestamp": "2025-06-07T13:44:17.926Z",
    "source_name": "google",
    "source_query": "Irrigation Equipment",
    "source_country": "RO",
    "country": "Romania",
    "state": "Constanța County",
    "city": "Municipiul Medgidia"
  },
  {
    "source_id": "ChIJXY5JIdXlukARh5XX1rtumUA",
    "name": "Constructii Renovari GC SRL",
    "category": "Constructii Renovari GC SRL",
    "formatted_address": "5,0(38)",
    "phone_number": "+40770663663",
    "source_url": "https://www.google.com/maps/place/Constructii+Renovari+GC+SRL/data=!4m7!3m6!1s0x40bae5d521498e5d:0x40996ebbd6d79587!8m2!3d44.1884721!4d28.6355049!16s%2Fg%2F11sbsq5q7m!19sChIJXY5JIdXlukARh5XX1rtumUA?authuser=0&hl=tr&rclk=1",
    "website_url": "",
    "rating_text": "5,0",
    "stars": null,
    "number_of_reviews": null,
    "price_level": "",
    "open_hours": "",
    "extraction_timestamp": "2025-06-07T13:44:17.941Z",
    "source_name": "google",
    "source_query": "Irrigation Equipment",
    "source_country": "RO",
    "country": "Romania",
    "state": "Constanța County",
    "city": "Municipiul Medgidia"
  },
  {
    "source_id": "ChIJlYVJlYbvukARNogMS_B4zz8",
    "name": "Romstal",
    "category": "Romstal",
    "formatted_address": "3,6(272)",
    "phone_number": "+40372123107",
    "source_url": "https://www.google.com/maps/place/Romstal/data=!4m7!3m6!1s0x40baef8695498595:0x3fcf78f04b0c8836!8m2!3d44.1687826!4d28.5897289!16s%2Fg%2F1hdzq2csb!19sChIJlYVJlYbvukARNogMS_B4zz8?authuser=0&hl=tr&rclk=1",
    "website_url": "",
    "rating_text": "3,6",
    "stars": null,
    "number_of_reviews": null,
    "price_level": "",
    "open_hours": "",
    "extraction_timestamp": "2025-06-07T13:44:17.941Z",
    "source_name": "google",
    "source_query": "Irrigation Equipment",
    "source_country": "RO",
    "country": "Romania",
    "state": "Constanța County",
    "city": "Municipiul Medgidia"
  },
  {
    "source_id": "ChIJA9RuN4qRukAREjelEua-NTc",
    "name": "Profi Standard",
    "category": "Profi Standard",
    "formatted_address": "4,0(126)",
    "phone_number": "+40739932741",
    "source_url": "https://www.google.com/maps/place/Profi+Standard/data=!4m7!3m6!1s0x40ba918a376ed403:0x3735bee612a53712!8m2!3d44.2455553!4d28.2875151!16s%2Fg%2F11flvrxhvp!19sChIJA9RuN4qRukAREjelEua-NTc?authuser=0&hl=tr&rclk=1",
    "website_url": "",
    "rating_text": "4,0",
    "stars": null,
    "number_of_reviews": null,
    "price_level": "",
    "open_hours": "",
    "extraction_timestamp": "2025-06-07T13:44:17.942Z",
    "source_name": "google",
    "source_query": "Irrigation Equipment",
    "source_country": "RO",
    "country": "Romania",
    "state": "Constanța County",
    "city": "Municipiul Medgidia"
  }
]
