[
  {
    "source_id": "ChIJzWyZEf8dgEcRM0sVtbJE3TI",
    "name": "Impiantistica LAVONE",
    "category": "Impiantistica LAVONE",
    "formatted_address": "5,0(3)",
    "phone_number": "+393514759408",
    "source_url": "https://www.google.com/maps/place/Impiantistica+LAVONE/data=!4m7!3m6!1s0x47801dff11996ccd:0x32dd44b2b5154b33!8m2!3d44.7120611!4d10.6241549!16s%2Fg%2F11lp1gdrnd!19sChIJzWyZEf8dgEcRM0sVtbJE3TI?authuser=0&hl=tr&rclk=1",
    "website_url": "",
    "rating_text": "5,0",
    "stars": null,
    "number_of_reviews": null,
    "price_level": "",
    "open_hours": "",
    "extraction_timestamp": "2025-06-07T15:51:40.290Z",
    "source_name": "google",
    "source_query": "Irrigation Equipment",
    "source_country": "IT",
    "country": "Italy",
    "state": "Emilia-Romagna",
    "city": "Albinea"
  },
  {
    "source_id": "ChIJQ8ZWRBADgEcRztdNNGcrqIM",
    "name": "Maxent E C. Snc Di Pedroni",
    "category": "Maxent E C. Snc Di Pedroni",
    "formatted_address": "4,3(261)",
    "phone_number": "+390522348535",
    "source_url": "https://www.google.com/maps/place/Maxent+E+C.+Snc+Di+Pedroni/data=!4m7!3m6!1s0x478003104456c643:0x83a82b67344dd7ce!8m2!3d44.6303558!4d10.6055136!16s%2Fg%2F1hc4tqj4y!19sChIJQ8ZWRBADgEcRztdNNGcrqIM?authuser=0&hl=tr&rclk=1",
    "website_url": "http://www.maxent.it/",
    "rating_text": "4,3",
    "stars": null,
    "number_of_reviews": null,
    "price_level": "",
    "open_hours": "",
    "extraction_timestamp": "2025-06-07T15:51:40.292Z",
    "source_name": "google",
    "source_query": "Irrigation Equipment",
    "source_country": "IT",
    "country": "Italy",
    "state": "Emilia-Romagna",
    "city": "Albinea"
  },
  {
    "source_id": "ChIJSz4Pmn4DgEcRken0THBzxTc",
    "name": "Tapognani S.R.L",
    "category": "Tapognani S.R.L",
    "formatted_address": "5,0(1)",
    "phone_number": "+390522598224",
    "source_url": "https://www.google.com/maps/place/Tapognani+S.R.L/data=!4m7!3m6!1s0x4780037e9a0f3e4b:0x37c573704cf4e991!8m2!3d44.6256573!4d10.5779931!16s%2Fg%2F1tf3y6sn!19sChIJSz4Pmn4DgEcRken0THBzxTc?authuser=0&hl=tr&rclk=1",
    "website_url": "http://tapognanisrl.com/",
    "rating_text": "5,0",
    "stars": null,
    "number_of_reviews": null,
    "price_level": "",
    "open_hours": "",
    "extraction_timestamp": "2025-06-07T15:51:40.294Z",
    "source_name": "google",
    "source_query": "Irrigation Equipment",
    "source_country": "IT",
    "country": "Italy",
    "state": "Emilia-Romagna",
    "city": "Albinea"
  },
  {
    "source_id": "ChIJJbUMkj0DgEcRQKUFWBq9D1I",
    "name": "Samec Srl",
    "category": "Samec Srl",
    "formatted_address": "5,0(2)",
    "phone_number": "+390522598124",
    "source_url": "https://www.google.com/maps/place/Samec+Srl/data=!4m7!3m6!1s0x4780033d920cb525:0x520fbd1a5805a540!8m2!3d44.6371064!4d10.6068592!16s%2Fg%2F1tcxt2kq!19sChIJJbUMkj0DgEcRQKUFWBq9D1I?authuser=0&hl=tr&rclk=1",
    "website_url": "https://www.samec-electricmotors.com/",
    "rating_text": "5,0",
    "stars": null,
    "number_of_reviews": null,
    "price_level": "",
    "open_hours": "",
    "extraction_timestamp": "2025-06-07T15:51:40.295Z",
    "source_name": "google",
    "source_query": "Irrigation Equipment",
    "source_country": "IT",
    "country": "Italy",
    "state": "Emilia-Romagna",
    "city": "Albinea"
  },
  {
    "source_id": "ChIJveAeFroEgEcRZfa9xqlB6vM",
    "name": "Morelli Irrigazioni",
    "category": "Morelli Irrigazioni",
    "formatted_address": "1,0(1)",
    "phone_number": "+393480042122",
    "source_url": "https://www.google.com/maps/place/Morelli+Irrigazioni/data=!4m7!3m6!1s0x478004ba161ee0bd:0xf3ea41a9c6bdf665!8m2!3d44.649256!4d10.5636837!16s%2Fg%2F11gy01p0bd!19sChIJveAeFroEgEcRZfa9xqlB6vM?authuser=0&hl=tr&rclk=1",
    "website_url": "http://irrigazionimorelli.it/",
    "rating_text": "1,0",
    "stars": null,
    "number_of_reviews": null,
    "price_level": "",
    "open_hours": "",
    "extraction_timestamp": "2025-06-07T15:51:40.297Z",
    "source_name": "google",
    "source_query": "Irrigation Equipment",
    "source_country": "IT",
    "country": "Italy",
    "state": "Emilia-Romagna",
    "city": "Albinea"
  },
  {
    "source_id": "ChIJna7HjaQcgEcR2wnTD8_e_HY",
    "name": "Hydrocontrol S.R.L.",
    "category": "Hydrocontrol S.R.L.",
    "formatted_address": "4,4(7)",
    "phone_number": "+390522330315",
    "source_url": "https://www.google.com/maps/place/Hydrocontrol+S.R.L./data=!4m7!3m6!1s0x47801ca48dc7ae9d:0x76fcdecf0fd309db!8m2!3d44.669783!4d10.597142!16s%2Fg%2F12hmcfzzg!19sChIJna7HjaQcgEcR2wnTD8_e_HY?authuser=0&hl=tr&rclk=1",
    "website_url": "https://www.hydrocontrol.it/",
    "rating_text": "4,4",
    "stars": null,
    "number_of_reviews": null,
    "price_level": "",
    "open_hours": "",
    "extraction_timestamp": "2025-06-07T15:51:40.299Z",
    "source_name": "google",
    "source_query": "Irrigation Equipment",
    "source_country": "IT",
    "country": "Italy",
    "state": "Emilia-Romagna",
    "city": "Albinea"
  }
]
