[
  {
    "source_id": "ChIJp65ZEfz0gEcROZp4Wq2Uisw",
    "name": "Tecnotubi Srl | Tubi e strumenti per l'oleodinamica e idraulica",
    "category": "Tecnotubi Srl | Tubi e strumenti per l'oleodinamica e idraulica",
    "formatted_address": "4,8(29)",
    "phone_number": "+390523949293",
    "source_url": "https://www.google.com/maps/place/Tecnotubi+Srl+%7C+Tubi+e+strumenti+per+l%27oleodinamica+e+idraulica/data=!4m7!3m6!1s0x4780f4fc1159aea7:0xcc8a94ad5a789a39!8m2!3d44.9009882!4d9.9612158!16s%2Fg%2F1tfvg1vc!19sChIJp65ZEfz0gEcROZp4Wq2Uisw?authuser=0&hl=tr&rclk=1",
    "website_url": "https://www.tecnotubialseno.it/",
    "rating_text": "4,8",
    "stars": null,
    "number_of_reviews": null,
    "price_level": "",
    "open_hours": "",
    "extraction_timestamp": "2025-06-07T15:44:53.825Z",
    "source_name": "google",
    "source_query": "Irrigation Equipment",
    "source_country": "IT",
    "country": "Italy",
    "state": "Emilia-Romagna",
    "city": "Alseno"
  },
  {
    "source_id": "ChIJy805WcDcgEcRtmGWlwosXQc",
    "name": "IRRIMEC SRL",
    "category": "IRRIMEC SRL",
    "formatted_address": "4,5(90)",
    "phone_number": "+390523760441",
    "source_url": "https://www.google.com/maps/place/IRRIMEC+SRL/data=!4m7!3m6!1s0x4780dcc05939cdcb:0x75d2c0a979661b6!8m2!3d45.0612353!4d9.630829!16s%2Fg%2F1tdgt7d_!19sChIJy805WcDcgEcRtmGWlwosXQc?authuser=0&hl=tr&rclk=1",
    "website_url": "http://www.irrimec.com/",
    "rating_text": "4,5",
    "stars": null,
    "number_of_reviews": null,
    "price_level": "",
    "open_hours": "",
    "extraction_timestamp": "2025-06-07T15:44:53.826Z",
    "source_name": "google",
    "source_query": "Irrigation Equipment",
    "source_country": "IT",
    "country": "Italy",
    "state": "Emilia-Romagna",
    "city": "Alseno"
  },
  {
    "source_id": "ChIJGWoSvc9fgEcRIrimfsBGb0s",
    "name": "Gardenmax Giardini Srl",
    "category": "Gardenmax Giardini Srl",
    "formatted_address": "4,9(56)",
    "phone_number": "+393923449261",
    "source_url": "https://www.google.com/maps/place/Gardenmax+Giardini+Srl/data=!4m7!3m6!1s0x47805fcfbd126a19:0x4b6f46c07ea6b822!8m2!3d44.9040554!4d9.9561126!16s%2Fg%2F1v1knqfy!19sChIJGWoSvc9fgEcRIrimfsBGb0s?authuser=0&hl=tr&rclk=1",
    "website_url": "http://www.gardenmaxgiardini.it/",
    "rating_text": "4,9",
    "stars": null,
    "number_of_reviews": null,
    "price_level": "",
    "open_hours": "",
    "extraction_timestamp": "2025-06-07T15:44:53.826Z",
    "source_name": "google",
    "source_query": "Irrigation Equipment",
    "source_country": "IT",
    "country": "Italy",
    "state": "Emilia-Romagna",
    "city": "Alseno"
  },
  {
    "source_id": "ChIJtVDkNgRFgEcRqc6umwWIJuI",
    "name": "Rm Spa",
    "category": "Rm Spa",
    "formatted_address": "4,6(81)",
    "phone_number": "+390521872321",
    "source_url": "https://www.google.com/maps/place/Rm+Spa/data=!4m7!3m6!1s0x4780450436e450b5:0xe22688059baecea9!8m2!3d44.9105406!4d10.2583785!16s%2Fg%2F12hl93byl!19sChIJtVDkNgRFgEcRqc6umwWIJuI?authuser=0&hl=tr&rclk=1",
    "website_url": "http://www.rmirrigation.com/",
    "rating_text": "4,6",
    "stars": null,
    "number_of_reviews": null,
    "price_level": "",
    "open_hours": "",
    "extraction_timestamp": "2025-06-07T15:44:53.827Z",
    "source_name": "google",
    "source_query": "Irrigation Equipment",
    "source_country": "IT",
    "country": "Italy",
    "state": "Emilia-Romagna",
    "city": "Alseno"
  }
]
