[
  {
    "source_id": "ChIJM1YDrdvQf0cR04ugW7FgB5o",
    "name": "Green Blue Italia srl",
    "category": "Green Blue Italia srl",
    "formatted_address": "4,7(17)",
    "phone_number": "+390510492100",
    "source_url": "https://www.google.com/maps/place/Green+Blue+Italia+srl/data=!4m7!3m6!1s0x477fd0dbad035633:0x9a0760b15ba08bd3!8m2!3d44.5324593!4d11.2320285!16s%2Fg%2F11gr3cvb1v!19sChIJM1YDrdvQf0cR04ugW7FgB5o?authuser=0&hl=tr&rclk=1",
    "website_url": "",
    "rating_text": "4,7",
    "stars": null,
    "number_of_reviews": null,
    "price_level": "",
    "open_hours": "",
    "extraction_timestamp": "2025-06-07T15:50:46.278Z",
    "source_name": "google",
    "source_query": "Irrigation Equipment",
    "source_country": "IT",
    "country": "Italy",
    "state": "Emilia-Romagna",
    "city": "Anzola dell'Emilia"
  },
  {
    "source_id": "ChIJE_3jOnMtfkcRkxtTFj3Ym9E",
    "name": "Irrigation Scarabelli Srl",
    "category": "Irrigation Scarabelli Srl",
    "formatted_address": "4,5(23)",
    "phone_number": "+39051763363",
    "source_url": "https://www.google.com/maps/place/Irrigation+Scarabelli+Srl/data=!4m7!3m6!1s0x477e2d733ae3fd13:0xd19bd83d16531b93!8m2!3d44.5426053!4d11.4189136!16s%2Fg%2F11gzdz6vf!19sChIJE_3jOnMtfkcRkxtTFj3Ym9E?authuser=0&hl=tr&rclk=1",
    "website_url": "",
    "rating_text": "4,5",
    "stars": null,
    "number_of_reviews": null,
    "price_level": "",
    "open_hours": "",
    "extraction_timestamp": "2025-06-07T15:50:46.279Z",
    "source_name": "google",
    "source_query": "Irrigation Equipment",
    "source_country": "IT",
    "country": "Italy",
    "state": "Emilia-Romagna",
    "city": "Anzola dell'Emilia"
  },
  {
    "source_id": "ChIJk3KQ08bQf0cRV2CGLA_Mr68",
    "name": "Globalforniture S.R.L.",
    "category": "Globalforniture S.R.L.",
    "formatted_address": "4,0(3)",
    "phone_number": "+39051736936",
    "source_url": "https://www.google.com/maps/place/Globalforniture+S.R.L./data=!4m7!3m6!1s0x477fd0c6d3907293:0xafafcc0f2c866057!8m2!3d44.5352006!4d11.2216546!16s%2Fg%2F11b6jh7m6t!19sChIJk3KQ08bQf0cRV2CGLA_Mr68?authuser=0&hl=tr&rclk=1",
    "website_url": "http://www.globalforniture.it/",
    "rating_text": "4,0",
    "stars": null,
    "number_of_reviews": null,
    "price_level": "",
    "open_hours": "",
    "extraction_timestamp": "2025-06-07T15:50:46.280Z",
    "source_name": "google",
    "source_query": "Irrigation Equipment",
    "source_country": "IT",
    "country": "Italy",
    "state": "Emilia-Romagna",
    "city": "Anzola dell'Emilia"
  },
  {
    "source_id": "ChIJ4f0MXkHRf0cRt8XT-F86zk4",
    "name": "Draintech s.r.l. Gruppo Transtecno Interpump",
    "category": "Draintech s.r.l. Gruppo Transtecno Interpump",
    "formatted_address": "4,4(5)",
    "phone_number": "+39051727447",
    "source_url": "https://www.google.com/maps/place/Draintech+s.r.l.+Gruppo+Transtecno+Interpump/data=!4m7!3m6!1s0x477fd1415e0cfde1:0x4ece3a5ff8d3c5b7!8m2!3d44.5355338!4d11.219571!16s%2Fg%2F11b6j8bd0w!19sChIJ4f0MXkHRf0cRt8XT-F86zk4?authuser=0&hl=tr&rclk=1",
    "website_url": "http://www.draintech.it/",
    "rating_text": "4,4",
    "stars": null,
    "number_of_reviews": null,
    "price_level": "",
    "open_hours": "",
    "extraction_timestamp": "2025-06-07T15:50:46.281Z",
    "source_name": "google",
    "source_query": "Irrigation Equipment",
    "source_country": "IT",
    "country": "Italy",
    "state": "Emilia-Romagna",
    "city": "Anzola dell'Emilia"
  },
  {
    "source_id": "ChIJ4QGh9bjUKhMRDRq03sajDzM",
    "name": "AERBOLOGNA Srl",
    "category": "AERBOLOGNA Srl",
    "formatted_address": "4,8(22)",
    "phone_number": "+390516784203",
    "source_url": "https://www.google.com/maps/place/AERBOLOGNA+Srl/data=!4m7!3m6!1s0x132ad4b8f5a101e1:0x330fa3c6deb41a0d!8m2!3d44.5422483!4d11.2057804!16s%2Fg%2F11g9gq0jp3!19sChIJ4QGh9bjUKhMRDRq03sajDzM?authuser=0&hl=tr&rclk=1",
    "website_url": "http://www.aerbologna.it/",
    "rating_text": "4,8",
    "stars": null,
    "number_of_reviews": null,
    "price_level": "",
    "open_hours": "",
    "extraction_timestamp": "2025-06-07T15:50:46.283Z",
    "source_name": "google",
    "source_query": "Irrigation Equipment",
    "source_country": "IT",
    "country": "Italy",
    "state": "Emilia-Romagna",
    "city": "Anzola dell'Emilia"
  },
  {
    "source_id": "ChIJcQG6ul7df0cR3VxKiu5OPBs",
    "name": "Scova Impianti Srl",
    "category": "Scova Impianti Srl",
    "formatted_address": "4,5(64)",
    "phone_number": "+39059923202",
    "source_url": "https://www.google.com/maps/place/Scova+Impianti+Srl/data=!4m7!3m6!1s0x477fdd5ebaba0171:0x1b3c4eee8a4a5cdd!8m2!3d44.6018135!4d11.032294!16s%2Fg%2F1tfzwbfb!19sChIJcQG6ul7df0cR3VxKiu5OPBs?authuser=0&hl=tr&rclk=1",
    "website_url": "https://www.scovaimpianti.com/",
    "rating_text": "4,5",
    "stars": null,
    "number_of_reviews": null,
    "price_level": "",
    "open_hours": "",
    "extraction_timestamp": "2025-06-07T15:50:46.284Z",
    "source_name": "google",
    "source_query": "Irrigation Equipment",
    "source_country": "IT",
    "country": "Italy",
    "state": "Emilia-Romagna",
    "city": "Anzola dell'Emilia"
  },
  {
    "source_id": "ChIJlfxVwr3Qf0cRHoZffKZw66U",
    "name": "GD2",
    "category": "GD2",
    "formatted_address": "5,0(12)",
    "phone_number": "+393404874871",
    "source_url": "https://www.google.com/maps/place/GD2/data=!4m7!3m6!1s0x477fd0bdc255fc95:0xa5eb70a67c5f861e!8m2!3d44.5399379!4d11.2129026!16s%2Fg%2F11dxlcg3rp!19sChIJlfxVwr3Qf0cRHoZffKZw66U?authuser=0&hl=tr&rclk=1",
    "website_url": "https://www.gidi.it/it",
    "rating_text": "5,0",
    "stars": null,
    "number_of_reviews": null,
    "price_level": "",
    "open_hours": "",
    "extraction_timestamp": "2025-06-07T15:50:46.285Z",
    "source_name": "google",
    "source_query": "Irrigation Equipment",
    "source_country": "IT",
    "country": "Italy",
    "state": "Emilia-Romagna",
    "city": "Anzola dell'Emilia"
  },
  {
    "source_id": "ChIJ28_JK5_Qf0cRQaf0ZXpXf-Q",
    "name": "Bartolini Srl - Impresa Edile e Installazione Impianti",
    "category": "Bartolini Srl - Impresa Edile e Installazione Impianti",
    "formatted_address": "4,6(19)",
    "phone_number": "+39051735438",
    "source_url": "https://www.google.com/maps/place/Bartolini+Srl+-+Impresa+Edile+e+Installazione+Impianti/data=!4m7!3m6!1s0x477fd09f2bc9cfdb:0xe47f577a65f4a741!8m2!3d44.5441104!4d11.2037667!16s%2Fg%2F1hc84j5cj!19sChIJ28_JK5_Qf0cRQaf0ZXpXf-Q?authuser=0&hl=tr&rclk=1",
    "website_url": "http://www.bartolinisrl.it/",
    "rating_text": "4,6",
    "stars": null,
    "number_of_reviews": null,
    "price_level": "",
    "open_hours": "",
    "extraction_timestamp": "2025-06-07T15:50:46.286Z",
    "source_name": "google",
    "source_query": "Irrigation Equipment",
    "source_country": "IT",
    "country": "Italy",
    "state": "Emilia-Romagna",
    "city": "Anzola dell'Emilia"
  },
  {
    "source_id": "ChIJmUONSEDRf0cRyIBwcN5CcNc",
    "name": "Euronova International S.R.L.",
    "category": "Euronova International S.R.L.",
    "formatted_address": "Su Tesisatı Malzemeleri Satıcısı ·  · Via I° Maggio, 27Kapalı ⋅ Açılış zamanı: Pzt 08:00 · +39 055 487741",
    "phone_number": "+39055487741",
    "source_url": "https://www.google.com/maps/place/Euronova+International+S.R.L./data=!4m7!3m6!1s0x477fd140488d4399:0xd77042de707080c8!8m2!3d44.5353357!4d11.2218924!16s%2Fg%2F11x0nzx2tq!19sChIJmUONSEDRf0cRyIBwcN5CcNc?authuser=0&hl=tr&rclk=1",
    "website_url": "http://www.euronova.net/",
    "rating_text": "",
    "stars": null,
    "number_of_reviews": null,
    "price_level": "",
    "open_hours": "",
    "extraction_timestamp": "2025-06-07T15:50:46.288Z",
    "source_name": "google",
    "source_query": "Irrigation Equipment",
    "source_country": "IT",
    "country": "Italy",
    "state": "Emilia-Romagna",
    "city": "Anzola dell'Emilia"
  },
  {
    "source_id": "ChIJh3Nd8G0sfkcR_m7VewEmxXM",
    "name": "Irrigarden",
    "category": "Irrigarden",
    "formatted_address": "4,7(158)",
    "phone_number": "+39051782013",
    "source_url": "https://www.google.com/maps/place/Irrigarden/data=!4m7!3m6!1s0x477e2c6df05d7387:0x73c526017bd56efe!8m2!3d44.5096266!4d11.4390897!16s%2Fg%2F1vgw_l7w!19sChIJh3Nd8G0sfkcR_m7VewEmxXM?authuser=0&hl=tr&rclk=1",
    "website_url": "https://www.irrigarden-bo.it/",
    "rating_text": "4,7",
    "stars": null,
    "number_of_reviews": null,
    "price_level": "",
    "open_hours": "",
    "extraction_timestamp": "2025-06-07T15:50:46.289Z",
    "source_name": "google",
    "source_query": "Irrigation Equipment",
    "source_country": "IT",
    "country": "Italy",
    "state": "Emilia-Romagna",
    "city": "Anzola dell'Emilia"
  },
  {
    "source_id": "ChIJ_SYf2IMsfkcRVw9xVhrnjyI",
    "name": "Irrigazione Bragaglia",
    "category": "Irrigazione Bragaglia",
    "formatted_address": "4,7(30)",
    "phone_number": "+39051534865",
    "source_url": "https://www.google.com/maps/place/Irrigazione+Bragaglia/data=!4m7!3m6!1s0x477e2c83d81f26fd:0x228fe71a56710f57!8m2!3d44.5053735!4d11.412403!16s%2Fg%2F1vp6z0gf!19sChIJ_SYf2IMsfkcRVw9xVhrnjyI?authuser=0&hl=tr&rclk=1",
    "website_url": "http://www.irrigazionebragaglia.it/",
    "rating_text": "4,7",
    "stars": null,
    "number_of_reviews": null,
    "price_level": "",
    "open_hours": "",
    "extraction_timestamp": "2025-06-07T15:50:46.290Z",
    "source_name": "google",
    "source_query": "Irrigation Equipment",
    "source_country": "IT",
    "country": "Italy",
    "state": "Emilia-Romagna",
    "city": "Anzola dell'Emilia"
  },
  {
    "source_id": "ChIJJ6V6lMDgf0cR1SpFsfjDuHg",
    "name": "Ocmis Irrigazione Spa",
    "category": "Ocmis Irrigazione Spa",
    "formatted_address": "3,5(31)",
    "phone_number": "+39059702150",
    "source_url": "https://www.google.com/maps/place/Ocmis+Irrigazione+Spa/data=!4m7!3m6!1s0x477fe0c0947aa527:0x78b8c3f8b1452ad5!8m2!3d44.530494!4d10.9794578!16s%2Fg%2F1vd3tn19!19sChIJJ6V6lMDgf0cR1SpFsfjDuHg?authuser=0&hl=tr&rclk=1",
    "website_url": "http://www.ocmis-irrigazione.it/",
    "rating_text": "3,5",
    "stars": null,
    "number_of_reviews": null,
    "price_level": "",
    "open_hours": "",
    "extraction_timestamp": "2025-06-07T15:50:46.291Z",
    "source_name": "google",
    "source_query": "Irrigation Equipment",
    "source_country": "IT",
    "country": "Italy",
    "state": "Emilia-Romagna",
    "city": "Anzola dell'Emilia"
  },
  {
    "source_id": "ChIJyXgg68QrfkcRAaJCOMJ3PxY",
    "name": "hidrisistem",
    "category": "hidrisistem",
    "formatted_address": "5,0(1)",
    "phone_number": "+39366448310824",
    "source_url": "https://www.google.com/maps/place/hidrisistem/data=!4m7!3m6!1s0x477e2bc4eb2078c9:0x163f77c23842a201!8m2!3d44.496029!4d11.402638!16s%2Fg%2F11w_zjhjy3!19sChIJyXgg68QrfkcRAaJCOMJ3PxY?authuser=0&hl=tr&rclk=1",
    "website_url": "",
    "rating_text": "5,0",
    "stars": null,
    "number_of_reviews": null,
    "price_level": "",
    "open_hours": "",
    "extraction_timestamp": "2025-06-07T15:50:46.292Z",
    "source_name": "google",
    "source_query": "Irrigation Equipment",
    "source_country": "IT",
    "country": "Italy",
    "state": "Emilia-Romagna",
    "city": "Anzola dell'Emilia"
  },
  {
    "source_id": "ChIJGds2w8PQf0cR79hfOdkp3aE",
    "name": "ECO SRL",
    "category": "ECO SRL",
    "formatted_address": "5,0(1)",
    "phone_number": "+39051383892",
    "source_url": "https://www.google.com/maps/place/ECO+SRL/data=!4m7!3m6!1s0x477fd0c3c336db19:0xa1dd29d9395fd8ef!8m2!3d44.5364508!4d11.2256551!16s%2Fg%2F1tf6qmxw!19sChIJGds2w8PQf0cR79hfOdkp3aE?authuser=0&hl=tr&rclk=1",
    "website_url": "http://www.eco1975.com/",
    "rating_text": "5,0",
    "stars": null,
    "number_of_reviews": null,
    "price_level": "",
    "open_hours": "",
    "extraction_timestamp": "2025-06-07T15:50:46.293Z",
    "source_name": "google",
    "source_query": "Irrigation Equipment",
    "source_country": "IT",
    "country": "Italy",
    "state": "Emilia-Romagna",
    "city": "Anzola dell'Emilia"
  }
]
