[
  {
    "source_id": "ChIJV4exvUTzf0cRUNFCAIGxe78",
    "name": "WATERPOOL INDUSTRIES S.R.L.",
    "category": "WATERPOOL INDUSTRIES S.R.L.",
    "formatted_address": "5,0(1)",
    "phone_number": "+3905221751836",
    "source_url": "https://www.google.com/maps/place/WATERPOOL+INDUSTRIES+S.R.L./data=!4m7!3m6!1s0x477ff344bdb18757:0xbf7bb1810042d150!8m2!3d44.6263677!4d10.7270162!16s%2Fg%2F11cs31lyh2!19sChIJV4exvUTzf0cRUNFCAIGxe78?authuser=0&hl=tr&rclk=1",
    "website_url": "",
    "rating_text": "5,0",
    "stars": null,
    "number_of_reviews": null,
    "price_level": "",
    "open_hours": "",
    "extraction_timestamp": "2025-06-07T15:49:59.909Z",
    "source_name": "google",
    "source_query": "Irrigation Equipment",
    "source_country": "IT",
    "country": "Italy",
    "state": "Emilia-Romagna",
    "city": "Arceto"
  },
  {
    "source_id": "ChIJy0wmFbr5f0cRPiuJyM6TOQo",
    "name": "Corradini Franco",
    "category": "Corradini Franco",
    "formatted_address": "4,7(29)",
    "phone_number": "+390522989196",
    "source_url": "https://www.google.com/maps/place/Corradini+Franco/data=!4m7!3m6!1s0x477ff9ba15264ccb:0xa3993cec8892b3e!8m2!3d44.62044!4d10.7228933!16s%2Fg%2F1hc3401x7!19sChIJy0wmFbr5f0cRPiuJyM6TOQo?authuser=0&hl=tr&rclk=1",
    "website_url": "",
    "rating_text": "4,7",
    "stars": null,
    "number_of_reviews": null,
    "price_level": "",
    "open_hours": "",
    "extraction_timestamp": "2025-06-07T15:49:59.911Z",
    "source_name": "google",
    "source_query": "Irrigation Equipment",
    "source_country": "IT",
    "country": "Italy",
    "state": "Emilia-Romagna",
    "city": "Arceto"
  },
  {
    "source_id": "ChIJc-n6Orf5f0cRb_qNV_iNOPw",
    "name": "Idrotermica Triex s.n.c. di Munzittu G.",
    "category": "Idrotermica Triex s.n.c. di Munzittu G.",
    "formatted_address": "4,9(216)",
    "phone_number": "+393357508667",
    "source_url": "https://www.google.com/maps/place/Idrotermica+Triex+s.n.c.+di+Munzittu+G./data=!4m7!3m6!1s0x477ff9b73afae973:0xfc388df8578dfa6f!8m2!3d44.6256841!4d10.7150587!16s%2Fg%2F1tj3jxx1!19sChIJc-n6Orf5f0cRb_qNV_iNOPw?authuser=0&hl=tr&rclk=1",
    "website_url": "https://www.triex.it/",
    "rating_text": "4,9",
    "stars": null,
    "number_of_reviews": null,
    "price_level": "",
    "open_hours": "",
    "extraction_timestamp": "2025-06-07T15:49:59.920Z",
    "source_name": "google",
    "source_query": "Irrigation Equipment",
    "source_country": "IT",
    "country": "Italy",
    "state": "Emilia-Romagna",
    "city": "Arceto"
  },
  {
    "source_id": "ChIJcQG6ul7df0cR3VxKiu5OPBs",
    "name": "Scova Impianti Srl",
    "category": "Scova Impianti Srl",
    "formatted_address": "4,5(64)",
    "phone_number": "+39059923202",
    "source_url": "https://www.google.com/maps/place/Scova+Impianti+Srl/data=!4m7!3m6!1s0x477fdd5ebaba0171:0x1b3c4eee8a4a5cdd!8m2!3d44.6018135!4d11.032294!16s%2Fg%2F1tfzwbfb!19sChIJcQG6ul7df0cR3VxKiu5OPBs?authuser=0&hl=tr&rclk=1",
    "website_url": "https://www.scovaimpianti.com/",
    "rating_text": "4,5",
    "stars": null,
    "number_of_reviews": null,
    "price_level": "",
    "open_hours": "",
    "extraction_timestamp": "2025-06-07T15:49:59.921Z",
    "source_name": "google",
    "source_query": "Irrigation Equipment",
    "source_country": "IT",
    "country": "Italy",
    "state": "Emilia-Romagna",
    "city": "Arceto"
  },
  {
    "source_id": "ChIJG3-yFbr5f0cRPM13Wo37-ow",
    "name": "Irrigazione Automatica",
    "category": "Irrigazione Automatica",
    "formatted_address": "Via G. Pagliani, 1",
    "phone_number": "",
    "source_url": "https://www.google.com/maps/place/Irrigazione+Automatica/data=!4m7!3m6!1s0x477ff9ba15b27f1b:0x8cfafb8d5a77cd3c!8m2!3d44.6204425!4d10.7228609!16s%2Fg%2F11j3vc5s87!19sChIJG3-yFbr5f0cRPM13Wo37-ow?authuser=0&hl=tr&rclk=1",
    "website_url": "",
    "rating_text": "",
    "stars": null,
    "number_of_reviews": null,
    "price_level": "",
    "open_hours": "",
    "extraction_timestamp": "2025-06-07T15:49:59.922Z",
    "source_name": "google",
    "source_query": "Irrigation Equipment",
    "source_country": "IT",
    "country": "Italy",
    "state": "Emilia-Romagna",
    "city": "Arceto"
  },
  {
    "source_id": "ChIJ54x2drr5f0cRIC9eCELa5DM",
    "name": "Palazzolo Salvador",
    "category": "Palazzolo Salvador",
    "formatted_address": "4,7(19)",
    "phone_number": "+390522989761",
    "source_url": "https://www.google.com/maps/place/Palazzolo+Salvador/data=!4m7!3m6!1s0x477ff9ba76768ce7:0x33e4da42085e2f20!8m2!3d44.6200023!4d10.7214505!16s%2Fg%2F1tcxc151!19sChIJ54x2drr5f0cRIC9eCELa5DM?authuser=0&hl=tr&rclk=1",
    "website_url": "",
    "rating_text": "4,7",
    "stars": null,
    "number_of_reviews": null,
    "price_level": "",
    "open_hours": "",
    "extraction_timestamp": "2025-06-07T15:49:59.923Z",
    "source_name": "google",
    "source_query": "Irrigation Equipment",
    "source_country": "IT",
    "country": "Italy",
    "state": "Emilia-Romagna",
    "city": "Arceto"
  },
  {
    "source_id": "ChIJiSoBTwP5f0cROM6sxCP18N4",
    "name": "Cambielli S.p.A.",
    "category": "Cambielli S.p.A.",
    "formatted_address": "4,4(24)",
    "phone_number": "+390522767201",
    "source_url": "https://www.google.com/maps/place/Cambielli+S.p.A./data=!4m7!3m6!1s0x477ff9034f012a89:0xdef0f523c4acce38!8m2!3d44.6001566!4d10.7069425!16s%2Fg%2F1tmqf1d9!19sChIJiSoBTwP5f0cROM6sxCP18N4?authuser=0&hl=tr&rclk=1",
    "website_url": "https://www.cambielli.it/",
    "rating_text": "4,4",
    "stars": null,
    "number_of_reviews": null,
    "price_level": "",
    "open_hours": "",
    "extraction_timestamp": "2025-06-07T15:49:59.924Z",
    "source_name": "google",
    "source_query": "Irrigation Equipment",
    "source_country": "IT",
    "country": "Italy",
    "state": "Emilia-Romagna",
    "city": "Arceto"
  },
  {
    "source_id": "ChIJ-yCCHIpUG0wRx6AVWTZUPyw",
    "name": "Termoidraulica A.W. Impianti di Astrologi William",
    "category": "Termoidraulica A.W. Impianti di Astrologi William",
    "formatted_address": "5,0(2)",
    "phone_number": "+393391847391",
    "source_url": "https://www.google.com/maps/place/Termoidraulica+A.W.+Impianti+di+Astrologi+William/data=!4m7!3m6!1s0x4c1b548a1c8220fb:0x2c3f54365915a0c7!8m2!3d44.5388154!4d10.9193608!16s%2Fg%2F11v_b57_85!19sChIJ-yCCHIpUG0wRx6AVWTZUPyw?authuser=0&hl=tr&rclk=1",
    "website_url": "https://astrologitermoidraulica.com/",
    "rating_text": "5,0",
    "stars": null,
    "number_of_reviews": null,
    "price_level": "",
    "open_hours": "",
    "extraction_timestamp": "2025-06-07T15:49:59.925Z",
    "source_name": "google",
    "source_query": "Irrigation Equipment",
    "source_country": "IT",
    "country": "Italy",
    "state": "Emilia-Romagna",
    "city": "Arceto"
  }
]
