[
  {
    "source_id": "ChIJ2-iFldUVfkcRdM0tOr6sX4E",
    "name": "Idros.art & Bozzola Group S.p.A.",
    "category": "Idros.art & Bozzola Group S.p.A.",
    "formatted_address": "4,4(28)",
    "phone_number": "+390532852229",
    "source_url": "https://www.google.com/maps/place/Idros.art+%26+Bozzola+Group+S.p.A./data=!4m7!3m6!1s0x477e15d59585e8db:0x815facbe3a2dcd74!8m2!3d44.6092829!4d11.838364!16s%2Fg%2F1v42dmtj!19sChIJ2-iFldUVfkcRdM0tOr6sX4E?authuser=0&hl=tr&rclk=1",
    "website_url": "",
    "rating_text": "4,4",
    "stars": null,
    "number_of_reviews": null,
    "price_level": "",
    "open_hours": "",
    "extraction_timestamp": "2025-06-07T15:49:50.468Z",
    "source_name": "google",
    "source_query": "Irrigation Equipment",
    "source_country": "IT",
    "country": "Italy",
    "state": "Emilia-Romagna",
    "city": "Argenta"
  },
  {
    "source_id": "ChIJLWKC2oYWfkcRdDW-Zgq5X_Y",
    "name": "Cila Ciicai Magazzino Argenta",
    "category": "Cila Ciicai Magazzino Argenta",
    "formatted_address": "4,3(3)",
    "phone_number": "+390532804413",
    "source_url": "https://www.google.com/maps/place/Cila+Ciicai+Magazzino+Argenta/data=!4m7!3m6!1s0x477e1686da82622d:0xf65fb90a66be3574!8m2!3d44.6026841!4d11.8435968!16s%2Fg%2F1ptvzhtd7!19sChIJLWKC2oYWfkcRdDW-Zgq5X_Y?authuser=0&hl=tr&rclk=1",
    "website_url": "",
    "rating_text": "4,3",
    "stars": null,
    "number_of_reviews": null,
    "price_level": "",
    "open_hours": "",
    "extraction_timestamp": "2025-06-07T15:49:50.469Z",
    "source_name": "google",
    "source_query": "Irrigation Equipment",
    "source_country": "IT",
    "country": "Italy",
    "state": "Emilia-Romagna",
    "city": "Argenta"
  },
  {
    "source_id": "ChIJyZV_JZUVfkcR2Mwrt6gZaeQ",
    "name": "Agrifer",
    "category": "Agrifer",
    "formatted_address": "4,6(40)",
    "phone_number": "+393385272005",
    "source_url": "https://www.google.com/maps/place/Agrifer/data=!4m7!3m6!1s0x477e1595257f95c9:0xe46919a8b72bccd8!8m2!3d44.6291351!4d11.8245134!16s%2Fg%2F1ptyt6yl7!19sChIJyZV_JZUVfkcR2Mwrt6gZaeQ?authuser=0&hl=tr&rclk=1",
    "website_url": "",
    "rating_text": "4,6",
    "stars": null,
    "number_of_reviews": null,
    "price_level": "",
    "open_hours": "",
    "extraction_timestamp": "2025-06-07T15:49:50.470Z",
    "source_name": "google",
    "source_query": "Irrigation Equipment",
    "source_country": "IT",
    "country": "Italy",
    "state": "Emilia-Romagna",
    "city": "Argenta"
  },
  {
    "source_id": "ChIJqQrxkNUVfkcRAKtAcmzj14Y",
    "name": "Brico Amico Srl",
    "category": "Brico Amico Srl",
    "formatted_address": "4,4(182)",
    "phone_number": "+390532800340",
    "source_url": "https://www.google.com/maps/place/Brico+Amico+Srl/data=!4m7!3m6!1s0x477e15d590f10aa9:0x86d7e36c7240ab00!8m2!3d44.6096464!4d11.8394094!16s%2Fg%2F11h0_f196!19sChIJqQrxkNUVfkcRAKtAcmzj14Y?authuser=0&hl=tr&rclk=1",
    "website_url": "",
    "rating_text": "4,4",
    "stars": null,
    "number_of_reviews": null,
    "price_level": "",
    "open_hours": "",
    "extraction_timestamp": "2025-06-07T15:49:50.471Z",
    "source_name": "google",
    "source_query": "Irrigation Equipment",
    "source_country": "IT",
    "country": "Italy",
    "state": "Emilia-Romagna",
    "city": "Argenta"
  },
  {
    "source_id": "ChIJjV5BCekVfkcRqHFOiQiRSI0",
    "name": "Molino Birati Andrea",
    "category": "Molino Birati Andrea",
    "formatted_address": "4,5(91)",
    "phone_number": "+390532804942",
    "source_url": "https://www.google.com/maps/place/Molino+Birati+Andrea/data=!4m7!3m6!1s0x477e15e909415e8d:0x8d489108894e71a8!8m2!3d44.6226291!4d11.8211485!16s%2Fg%2F11cn5m3f_h!19sChIJjV5BCekVfkcRqHFOiQiRSI0?authuser=0&hl=tr&rclk=1",
    "website_url": "",
    "rating_text": "4,5",
    "stars": null,
    "number_of_reviews": null,
    "price_level": "",
    "open_hours": "",
    "extraction_timestamp": "2025-06-07T15:49:50.472Z",
    "source_name": "google",
    "source_query": "Irrigation Equipment",
    "source_country": "IT",
    "country": "Italy",
    "state": "Emilia-Romagna",
    "city": "Argenta"
  },
  {
    "source_id": "ChIJH5qJ2tEVfkcRXiRwDz3N6sw",
    "name": "M.C. SPORT E BIKE - TO SHINE",
    "category": "M.C. SPORT E BIKE - TO SHINE",
    "formatted_address": "4,8(295)",
    "phone_number": "+390532852233",
    "source_url": "https://www.google.com/maps/place/M.C.+SPORT+E+BIKE+-+TO+SHINE/data=!4m7!3m6!1s0x477e15d1da899a1f:0xcceacd3d0f70245e!8m2!3d44.6187669!4d11.8385816!16s%2Fg%2F11fkq_xzvr!19sChIJH5qJ2tEVfkcRXiRwDz3N6sw?authuser=0&hl=tr&rclk=1",
    "website_url": "",
    "rating_text": "4,8",
    "stars": null,
    "number_of_reviews": null,
    "price_level": "",
    "open_hours": "",
    "extraction_timestamp": "2025-06-07T15:49:50.474Z",
    "source_name": "google",
    "source_query": "Irrigation Equipment",
    "source_country": "IT",
    "country": "Italy",
    "state": "Emilia-Romagna",
    "city": "Argenta"
  },
  {
    "source_id": "ChIJE_3jOnMtfkcRkxtTFj3Ym9E",
    "name": "Irrigation Scarabelli Srl",
    "category": "Irrigation Scarabelli Srl",
    "formatted_address": "4,5(23)",
    "phone_number": "+39051763363",
    "source_url": "https://www.google.com/maps/place/Irrigation+Scarabelli+Srl/data=!4m7!3m6!1s0x477e2d733ae3fd13:0xd19bd83d16531b93!8m2!3d44.5426053!4d11.4189136!16s%2Fg%2F11gzdz6vf!19sChIJE_3jOnMtfkcRkxtTFj3Ym9E?authuser=0&hl=tr&rclk=1",
    "website_url": "",
    "rating_text": "4,5",
    "stars": null,
    "number_of_reviews": null,
    "price_level": "",
    "open_hours": "",
    "extraction_timestamp": "2025-06-07T15:49:50.475Z",
    "source_name": "google",
    "source_query": "Irrigation Equipment",
    "source_country": "IT",
    "country": "Italy",
    "state": "Emilia-Romagna",
    "city": "Argenta"
  },
  {
    "source_id": "ChIJg6C4LOgVfkcR080iSQB4k_s",
    "name": "Ipercoop",
    "category": "Ipercoop",
    "formatted_address": "3,9(1.223)",
    "phone_number": "+390532318661",
    "source_url": "https://www.google.com/maps/place/Ipercoop/data=!4m7!3m6!1s0x477e15e82cb8a083:0xfb9378004922cdd3!8m2!3d44.6208489!4d11.8232197!16s%2Fg%2F1tdm74qb!19sChIJg6C4LOgVfkcR080iSQB4k_s?authuser=0&hl=tr&rclk=1",
    "website_url": "",
    "rating_text": "3,9",
    "stars": null,
    "number_of_reviews": null,
    "price_level": "",
    "open_hours": "",
    "extraction_timestamp": "2025-06-07T15:49:50.477Z",
    "source_name": "google",
    "source_query": "Irrigation Equipment",
    "source_country": "IT",
    "country": "Italy",
    "state": "Emilia-Romagna",
    "city": "Argenta"
  },
  {
    "source_id": "ChIJwyVy1dUVfkcRxfLAq_NURCg",
    "name": "Village Nature S.R.L.",
    "category": "Village Nature S.R.L.",
    "formatted_address": "4,6(459)",
    "phone_number": "+390532804466",
    "source_url": "https://www.google.com/maps/place/Village+Nature+S.R.L./data=!4m7!3m6!1s0x477e15d5d57225c3:0x284454f3abc0f2c5!8m2!3d44.6107924!4d11.8373981!16s%2Fg%2F1tdq4vlq!19sChIJwyVy1dUVfkcRxfLAq_NURCg?authuser=0&hl=tr&rclk=1",
    "website_url": "",
    "rating_text": "4,6",
    "stars": null,
    "number_of_reviews": null,
    "price_level": "",
    "open_hours": "",
    "extraction_timestamp": "2025-06-07T15:49:50.479Z",
    "source_name": "google",
    "source_query": "Irrigation Equipment",
    "source_country": "IT",
    "country": "Italy",
    "state": "Emilia-Romagna",
    "city": "Argenta"
  },
  {
    "source_id": "ChIJB0HHj38WfkcROYodH1d_9pE",
    "name": "SAF - Negozio di Batterie a Argenta",
    "category": "SAF - Negozio di Batterie a Argenta",
    "formatted_address": "4,5(89)",
    "phone_number": "+390532318008",
    "source_url": "https://www.google.com/maps/place/SAF+-+Negozio+di+Batterie+a+Argenta/data=!4m7!3m6!1s0x477e167f8fc74107:0x91f67f571f1d8a39!8m2!3d44.6102097!4d11.838307!16s%2Fg%2F11c0r5xl5g!19sChIJB0HHj38WfkcROYodH1d_9pE?authuser=0&hl=tr&rclk=1",
    "website_url": "",
    "rating_text": "4,5",
    "stars": null,
    "number_of_reviews": null,
    "price_level": "",
    "open_hours": "",
    "extraction_timestamp": "2025-06-07T15:49:50.480Z",
    "source_name": "google",
    "source_query": "Irrigation Equipment",
    "source_country": "IT",
    "country": "Italy",
    "state": "Emilia-Romagna",
    "city": "Argenta"
  },
  {
    "source_id": "ChIJCXJb6IYWfkcRUkH9M22Hl8M",
    "name": "Mercatone Stella",
    "category": "Mercatone Stella",
    "formatted_address": "3,6(331)",
    "phone_number": "",
    "source_url": "https://www.google.com/maps/place/Mercatone+Stella/data=!4m7!3m6!1s0x477e1686e85b7209:0xc397876d33fd4152!8m2!3d44.6026578!4d11.8422166!16s%2Fg%2F12hs4m314!19sChIJCXJb6IYWfkcRUkH9M22Hl8M?authuser=0&hl=tr&rclk=1",
    "website_url": "",
    "rating_text": "3,6",
    "stars": null,
    "number_of_reviews": null,
    "price_level": "",
    "open_hours": "",
    "extraction_timestamp": "2025-06-07T15:49:50.482Z",
    "source_name": "google",
    "source_query": "Irrigation Equipment",
    "source_country": "IT",
    "country": "Italy",
    "state": "Emilia-Romagna",
    "city": "Argenta"
  },
  {
    "source_id": "ChIJu6gzeNwVfkcRGmm67t2qZcc",
    "name": "Sirene Blu Argenta",
    "category": "Sirene Blu Argenta",
    "formatted_address": "4,2(175)",
    "phone_number": "+3905321867381",
    "source_url": "https://www.google.com/maps/place/Sirene+Blu+Argenta/data=!4m7!3m6!1s0x477e15dc7833a8bb:0xc765aaddeeba691a!8m2!3d44.6159782!4d11.8273296!16s%2Fg%2F11c0rvjv2d!19sChIJu6gzeNwVfkcRGmm67t2qZcc?authuser=0&hl=tr&rclk=1",
    "website_url": "",
    "rating_text": "4,2",
    "stars": null,
    "number_of_reviews": null,
    "price_level": "",
    "open_hours": "",
    "extraction_timestamp": "2025-06-07T15:49:50.483Z",
    "source_name": "google",
    "source_query": "Irrigation Equipment",
    "source_country": "IT",
    "country": "Italy",
    "state": "Emilia-Romagna",
    "city": "Argenta"
  },
  {
    "source_id": "ChIJyRBladAVfkcR128zlEP8F2w",
    "name": "Erboristeria Il Tiglio",
    "category": "Erboristeria Il Tiglio",
    "formatted_address": "4,7(79)",
    "phone_number": "+393383252913",
    "source_url": "https://www.google.com/maps/place/Erboristeria+Il+Tiglio/data=!4m7!3m6!1s0x477e15d0696510c9:0x6c17fc4394336fd7!8m2!3d44.616693!4d11.8348544!16s%2Fg%2F11bc7sjvdx!19sChIJyRBladAVfkcR128zlEP8F2w?authuser=0&hl=tr&rclk=1",
    "website_url": "",
    "rating_text": "4,7",
    "stars": null,
    "number_of_reviews": null,
    "price_level": "",
    "open_hours": "",
    "extraction_timestamp": "2025-06-07T15:49:50.485Z",
    "source_name": "google",
    "source_query": "Irrigation Equipment",
    "source_country": "IT",
    "country": "Italy",
    "state": "Emilia-Romagna",
    "city": "Argenta"
  },
  {
    "source_id": "ChIJs-22FsYVfkcRtVqPJ6stePw",
    "name": "L'Arca di Noè - Argenta",
    "category": "L'Arca di Noè - Argenta",
    "formatted_address": "4,9(14)",
    "phone_number": "+3905321940354",
    "source_url": "https://www.google.com/maps/place/L%27Arca+di+No%C3%A8+-+Argenta/data=!4m7!3m6!1s0x477e15c616b6edb3:0xfc782dab278f5ab5!8m2!3d44.6166718!4d11.8258056!16s%2Fg%2F11vycddjqp!19sChIJs-22FsYVfkcRtVqPJ6stePw?authuser=0&hl=tr&rclk=1",
    "website_url": "",
    "rating_text": "4,9",
    "stars": null,
    "number_of_reviews": null,
    "price_level": "",
    "open_hours": "",
    "extraction_timestamp": "2025-06-07T15:49:50.486Z",
    "source_name": "google",
    "source_query": "Irrigation Equipment",
    "source_country": "IT",
    "country": "Italy",
    "state": "Emilia-Romagna",
    "city": "Argenta"
  },
  {
    "source_id": "ChIJDzWv3kwVfkcRnc521_qTZRA",
    "name": "Negozio per Casalinghe",
    "category": "Negozio per Casalinghe",
    "formatted_address": "4,2(133)",
    "phone_number": "+393519408899",
    "source_url": "https://www.google.com/maps/place/Negozio+per+Casalinghe/data=!4m7!3m6!1s0x477e154cdeaf350f:0x106593fad776ce9d!8m2!3d44.6185593!4d11.8292209!16s%2Fg%2F11j62nhq0p!19sChIJDzWv3kwVfkcRnc521_qTZRA?authuser=0&hl=tr&rclk=1",
    "website_url": "",
    "rating_text": "4,2",
    "stars": null,
    "number_of_reviews": null,
    "price_level": "",
    "open_hours": "",
    "extraction_timestamp": "2025-06-07T15:49:50.487Z",
    "source_name": "google",
    "source_query": "Irrigation Equipment",
    "source_country": "IT",
    "country": "Italy",
    "state": "Emilia-Romagna",
    "city": "Argenta"
  },
  {
    "source_id": "ChIJdwRALkkVfkcRu49IY0xiGdE",
    "name": "Tigotà",
    "category": "Tigotà",
    "formatted_address": "4,3(380)",
    "phone_number": "+390532318586",
    "source_url": "https://www.google.com/maps/place/Tigot%C3%A0/data=!4m7!3m6!1s0x477e15492e400477:0xd119624c63488fbb!8m2!3d44.6129307!4d11.8348978!16s%2Fg%2F11c0xftx_v!19sChIJdwRALkkVfkcRu49IY0xiGdE?authuser=0&hl=tr&rclk=1",
    "website_url": "",
    "rating_text": "4,3",
    "stars": null,
    "number_of_reviews": null,
    "price_level": "",
    "open_hours": "",
    "extraction_timestamp": "2025-06-07T15:49:50.488Z",
    "source_name": "google",
    "source_query": "Irrigation Equipment",
    "source_country": "IT",
    "country": "Italy",
    "state": "Emilia-Romagna",
    "city": "Argenta"
  },
  {
    "source_id": "ChIJgUh6_9AVfkcRt6U2LIEfcmk",
    "name": "Centro Commerciale Unieuro City",
    "category": "Centro Commerciale Unieuro City",
    "formatted_address": "4,4(133)",
    "phone_number": "+390532680914",
    "source_url": "https://www.google.com/maps/place/Centro+Commerciale+Unieuro+City/data=!4m7!3m6!1s0x477e15d0ff7a4881:0x69721f812c36a5b7!8m2!3d44.6157227!4d11.8362527!16s%2Fg%2F11b7rngmgs!19sChIJgUh6_9AVfkcRt6U2LIEfcmk?authuser=0&hl=tr&rclk=1",
    "website_url": "",
    "rating_text": "4,4",
    "stars": null,
    "number_of_reviews": null,
    "price_level": "",
    "open_hours": "",
    "extraction_timestamp": "2025-06-07T15:49:50.489Z",
    "source_name": "google",
    "source_query": "Irrigation Equipment",
    "source_country": "IT",
    "country": "Italy",
    "state": "Emilia-Romagna",
    "city": "Argenta"
  },
  {
    "source_id": "ChIJkwsMV9EVfkcRb1r4iO5GfVI",
    "name": "Gelateria Mundos Di Ghesini Nicola",
    "category": "Gelateria Mundos Di Ghesini Nicola",
    "formatted_address": "4,6(164) · ₺",
    "phone_number": "+393463660572",
    "source_url": "https://www.google.com/maps/place/Gelateria+Mundos+Di+Ghesini+Nicola/data=!4m7!3m6!1s0x477e15d1570c0b93:0x527d46ee88f85a6f!8m2!3d44.6137969!4d11.8380323!16s%2Fg%2F11c6y_c_gs!19sChIJkwsMV9EVfkcRb1r4iO5GfVI?authuser=0&hl=tr&rclk=1",
    "website_url": "",
    "rating_text": "4,6",
    "stars": null,
    "number_of_reviews": null,
    "price_level": "",
    "open_hours": "",
    "extraction_timestamp": "2025-06-07T15:49:50.490Z",
    "source_name": "google",
    "source_query": "Irrigation Equipment",
    "source_country": "IT",
    "country": "Italy",
    "state": "Emilia-Romagna",
    "city": "Argenta"
  },
  {
    "source_id": "ChIJtwv5BMUVfkcRXACuOAQRzM0",
    "name": "Cavallini Dolciumi E Bevande Di Cavallini Davide E C. Sas",
    "category": "Cavallini Dolciumi E Bevande Di Cavallini Davide E C. Sas",
    "formatted_address": "4,7(29)",
    "phone_number": "+390532804146",
    "source_url": "https://www.google.com/maps/place/Cavallini+Dolciumi+E+Bevande+Di+Cavallini+Davide+E+C.+Sas/data=!4m7!3m6!1s0x477e15c504f90bb7:0xcdcc110438ae005c!8m2!3d44.620017!4d11.8326255!16s%2Fg%2F1td_9j69!19sChIJtwv5BMUVfkcRXACuOAQRzM0?authuser=0&hl=tr&rclk=1",
    "website_url": "",
    "rating_text": "4,7",
    "stars": null,
    "number_of_reviews": null,
    "price_level": "",
    "open_hours": "",
    "extraction_timestamp": "2025-06-07T15:49:50.491Z",
    "source_name": "google",
    "source_query": "Irrigation Equipment",
    "source_country": "IT",
    "country": "Italy",
    "state": "Emilia-Romagna",
    "city": "Argenta"
  },
  {
    "source_id": "ChIJJxQRNNcVfkcRpKkNgTVkC8Q",
    "name": "Il Gelatone Di Paolo E Ale Di Emiliani Paolo & C. S.N.C.",
    "category": "Il Gelatone Di Paolo E Ale Di Emiliani Paolo & C. S.N.C.",
    "formatted_address": "4,6(503) · ₺",
    "phone_number": "+390532852200",
    "source_url": "https://www.google.com/maps/place/Il+Gelatone+Di+Paolo+E+Ale+Di+Emiliani+Paolo+%26+C.+S.N.C./data=!4m7!3m6!1s0x477e15d734111427:0xc40b6435810da9a4!8m2!3d44.613422!4d11.834209!16s%2Fg%2F1tghbzz0!19sChIJJxQRNNcVfkcRpKkNgTVkC8Q?authuser=0&hl=tr&rclk=1",
    "website_url": "",
    "rating_text": "4,6",
    "stars": null,
    "number_of_reviews": null,
    "price_level": "",
    "open_hours": "",
    "extraction_timestamp": "2025-06-07T15:49:50.493Z",
    "source_name": "google",
    "source_query": "Irrigation Equipment",
    "source_country": "IT",
    "country": "Italy",
    "state": "Emilia-Romagna",
    "city": "Argenta"
  },
  {
    "source_id": "ChIJhQBF-GhIfkcRFZ34l9qDsN0",
    "name": "Baraldi Leonardo",
    "category": "Baraldi Leonardo",
    "formatted_address": "5,0(1)",
    "phone_number": "+390532722654",
    "source_url": "https://www.google.com/maps/place/Baraldi+Leonardo/data=!4m7!3m6!1s0x477e4868f8450085:0xddb083da97f89d15!8m2!3d44.73549!4d11.64391!16s%2Fg%2F1hc1pgtmd!19sChIJhQBF-GhIfkcRFZ34l9qDsN0?authuser=0&hl=tr&rclk=1",
    "website_url": "",
    "rating_text": "5,0",
    "stars": null,
    "number_of_reviews": null,
    "price_level": "",
    "open_hours": "",
    "extraction_timestamp": "2025-06-07T15:49:50.494Z",
    "source_name": "google",
    "source_query": "Irrigation Equipment",
    "source_country": "IT",
    "country": "Italy",
    "state": "Emilia-Romagna",
    "city": "Argenta"
  },
  {
    "source_id": "ChIJIQWklBovfkcRcQcmc6JRihc",
    "name": "Vivoil Oleodinamica Vivolo S.r.l.",
    "category": "Vivoil Oleodinamica Vivolo S.r.l.",
    "formatted_address": "4,6(22)",
    "phone_number": "+39051803689",
    "source_url": "https://www.google.com/maps/place/Vivoil+Oleodinamica+Vivolo+S.r.l./data=!4m7!3m6!1s0x477e2f1a94a40521:0x178a51a273260771!8m2!3d44.5170593!4d11.5294361!16s%2Fg%2F1tfcxn72!19sChIJIQWklBovfkcRcQcmc6JRihc?authuser=0&hl=tr&rclk=1",
    "website_url": "",
    "rating_text": "4,6",
    "stars": null,
    "number_of_reviews": null,
    "price_level": "",
    "open_hours": "",
    "extraction_timestamp": "2025-06-07T15:49:50.495Z",
    "source_name": "google",
    "source_query": "Irrigation Equipment",
    "source_country": "IT",
    "country": "Italy",
    "state": "Emilia-Romagna",
    "city": "Argenta"
  },
  {
    "source_id": "ChIJ-eLL5ShMfkcRkJZIiiw4RaU",
    "name": "P.M. di Peverati M. srl",
    "category": "P.M. di Peverati M. srl",
    "formatted_address": "4,7(50)",
    "phone_number": "+39053294452",
    "source_url": "https://www.google.com/maps/place/P.M.+di+Peverati+M.+srl/data=!4m7!3m6!1s0x477e4c28e5cbe2f9:0xa545382c8a489690!8m2!3d44.8147477!4d11.5887959!16s%2Fg%2F1thp6v8g!19sChIJ-eLL5ShMfkcRkJZIiiw4RaU?authuser=0&hl=tr&rclk=1",
    "website_url": "",
    "rating_text": "4,7",
    "stars": null,
    "number_of_reviews": null,
    "price_level": "",
    "open_hours": "",
    "extraction_timestamp": "2025-06-07T15:49:50.496Z",
    "source_name": "google",
    "source_query": "Irrigation Equipment",
    "source_country": "IT",
    "country": "Italy",
    "state": "Emilia-Romagna",
    "city": "Argenta"
  },
  {
    "source_id": "ChIJj7p79zMzKxMRxzB_tpcRXKE",
    "name": "F.lli Farne' Srl",
    "category": "F.lli Farne' Srl",
    "formatted_address": "4,7(97)",
    "phone_number": "+39051941145",
    "source_url": "https://www.google.com/maps/place/F.lli+Farne%27+Srl/data=!4m7!3m6!1s0x132b3333f77bba8f:0xa15c1197b67f30c7!8m2!3d44.4060269!4d11.5874732!16s%2Fg%2F1vx88btc!19sChIJj7p79zMzKxMRxzB_tpcRXKE?authuser=0&hl=tr&rclk=1",
    "website_url": "",
    "rating_text": "4,7",
    "stars": null,
    "number_of_reviews": null,
    "price_level": "",
    "open_hours": "",
    "extraction_timestamp": "2025-06-07T15:49:50.497Z",
    "source_name": "google",
    "source_query": "Irrigation Equipment",
    "source_country": "IT",
    "country": "Italy",
    "state": "Emilia-Romagna",
    "city": "Argenta"
  },
  {
    "source_id": "ChIJn3CmKgA_fkcRSVrYEKJS4tU",
    "name": "Impianto Irriguo Cavo Spina",
    "category": "Impianto Irriguo Cavo Spina",
    "formatted_address": "3,0(1)",
    "phone_number": "",
    "source_url": "https://www.google.com/maps/place/Impianto+Irriguo+Cavo+Spina/data=!4m7!3m6!1s0x477e3f002aa6709f:0xd5e252a210d85a49!8m2!3d44.6574803!4d11.7354165!16s%2Fg%2F11wftnkpw8!19sChIJn3CmKgA_fkcRSVrYEKJS4tU?authuser=0&hl=tr&rclk=1",
    "website_url": "",
    "rating_text": "3,0",
    "stars": null,
    "number_of_reviews": null,
    "price_level": "",
    "open_hours": "",
    "extraction_timestamp": "2025-06-07T15:49:50.498Z",
    "source_name": "google",
    "source_query": "Irrigation Equipment",
    "source_country": "IT",
    "country": "Italy",
    "state": "Emilia-Romagna",
    "city": "Argenta"
  },
  {
    "source_id": "ChIJ-W8C14Zy7ykRUm4O3L6Q274",
    "name": "Lorenzo Tonielli - Giardiniere specializzato in Treeclimbing",
    "category": "Lorenzo Tonielli - Giardiniere specializzato in Treeclimbing",
    "formatted_address": "5,0(4)",
    "phone_number": "+393393044931",
    "source_url": "https://www.google.com/maps/place/Lorenzo+Tonielli+-+Giardiniere+specializzato+in+Treeclimbing/data=!4m7!3m6!1s0x29ef7286d7026ff9:0xbedb90bedc0e6e52!8m2!3d44.6211392!4d11.6678642!16s%2Fg%2F11x1cqndxm!19sChIJ-W8C14Zy7ykRUm4O3L6Q274?authuser=0&hl=tr&rclk=1",
    "website_url": "",
    "rating_text": "5,0",
    "stars": null,
    "number_of_reviews": null,
    "price_level": "",
    "open_hours": "",
    "extraction_timestamp": "2025-06-07T15:49:50.499Z",
    "source_name": "google",
    "source_query": "Irrigation Equipment",
    "source_country": "IT",
    "country": "Italy",
    "state": "Emilia-Romagna",
    "city": "Argenta"
  },
  {
    "source_id": "ChIJj6lqi20sfkcRzOHfxextuA0",
    "name": "La Pioggia",
    "category": "La Pioggia",
    "formatted_address": "4,6(54)",
    "phone_number": "+39051781194",
    "source_url": "https://www.google.com/maps/place/La+Pioggia/data=!4m7!3m6!1s0x477e2c6d8b6aa98f:0xdb86decc5dfe1cc!8m2!3d44.5092215!4d11.4394615!16s%2Fg%2F1tffc0h0!19sChIJj6lqi20sfkcRzOHfxextuA0?authuser=0&hl=tr&rclk=1",
    "website_url": "",
    "rating_text": "4,6",
    "stars": null,
    "number_of_reviews": null,
    "price_level": "",
    "open_hours": "",
    "extraction_timestamp": "2025-06-07T15:49:50.500Z",
    "source_name": "google",
    "source_query": "Irrigation Equipment",
    "source_country": "IT",
    "country": "Italy",
    "state": "Emilia-Romagna",
    "city": "Argenta"
  }
]
