[
  {
    "source_id": "ChIJE_3jOnMtfkcRkxtTFj3Ym9E",
    "name": "Irrigation Scarabelli Srl",
    "category": "Irrigation Scarabelli Srl",
    "formatted_address": "4,5(23)",
    "phone_number": "+39051763363",
    "source_url": "https://www.google.com/maps/place/Irrigation+Scarabelli+Srl/data=!4m7!3m6!1s0x477e2d733ae3fd13:0xd19bd83d16531b93!8m2!3d44.5426053!4d11.4189136!16s%2Fg%2F11gzdz6vf!19sChIJE_3jOnMtfkcRkxtTFj3Ym9E?authuser=0&hl=tr&rclk=1",
    "website_url": "",
    "rating_text": "4,5",
    "stars": null,
    "number_of_reviews": null,
    "price_level": "",
    "open_hours": "",
    "extraction_timestamp": "2025-06-07T17:07:26.461Z",
    "source_name": "google",
    "source_query": "Irrigation Equipment",
    "source_country": "IT",
    "country": "Italy",
    "state": "Emilia-Romagna",
    "city": "Argine"
  },
  {
    "source_id": "ChIJ9X_DI6LDLBMR84MeChQNUCU",
    "name": "Irriverde - Il Paesaggio S.r.l.",
    "category": "Irriverde - Il Paesaggio S.r.l.",
    "formatted_address": "4,8(15)",
    "phone_number": "+393939275801",
    "source_url": "https://www.google.com/maps/place/Irriverde+-+Il+Paesaggio+S.r.l./data=!4m7!3m6!1s0x132cc3a223c37ff5:0x25500d140a1e83f3!8m2!3d43.982224!4d12.5281091!16s%2Fg%2F1ptz65rjr!19sChIJ9X_DI6LDLBMR84MeChQNUCU?authuser=0&hl=tr&rclk=1",
    "website_url": "http://www.irriverde.it/",
    "rating_text": "4,8",
    "stars": null,
    "number_of_reviews": null,
    "price_level": "",
    "open_hours": "",
    "extraction_timestamp": "2025-06-07T17:07:26.462Z",
    "source_name": "google",
    "source_query": "Irrigation Equipment",
    "source_country": "IT",
    "country": "Italy",
    "state": "Emilia-Romagna",
    "city": "Argine"
  },
  {
    "source_id": "ChIJcQG6ul7df0cR3VxKiu5OPBs",
    "name": "Scova Impianti Srl",
    "category": "Scova Impianti Srl",
    "formatted_address": "4,5(64)",
    "phone_number": "+39059923202",
    "source_url": "https://www.google.com/maps/place/Scova+Impianti+Srl/data=!4m7!3m6!1s0x477fdd5ebaba0171:0x1b3c4eee8a4a5cdd!8m2!3d44.6018135!4d11.032294!16s%2Fg%2F1tfzwbfb!19sChIJcQG6ul7df0cR3VxKiu5OPBs?authuser=0&hl=tr&rclk=1",
    "website_url": "https://www.scovaimpianti.com/",
    "rating_text": "4,5",
    "stars": null,
    "number_of_reviews": null,
    "price_level": "",
    "open_hours": "",
    "extraction_timestamp": "2025-06-07T17:07:26.463Z",
    "source_name": "google",
    "source_query": "Irrigation Equipment",
    "source_country": "IT",
    "country": "Italy",
    "state": "Emilia-Romagna",
    "city": "Argine"
  },
  {
    "source_id": "ChIJyXgg68QrfkcRAaJCOMJ3PxY",
    "name": "hidrisistem",
    "category": "hidrisistem",
    "formatted_address": "5,0(1)",
    "phone_number": "+39366448310824",
    "source_url": "https://www.google.com/maps/place/hidrisistem/data=!4m7!3m6!1s0x477e2bc4eb2078c9:0x163f77c23842a201!8m2!3d44.496029!4d11.402638!16s%2Fg%2F11w_zjhjy3!19sChIJyXgg68QrfkcRAaJCOMJ3PxY?authuser=0&hl=tr&rclk=1",
    "website_url": "",
    "rating_text": "5,0",
    "stars": null,
    "number_of_reviews": null,
    "price_level": "",
    "open_hours": "",
    "extraction_timestamp": "2025-06-07T17:07:26.464Z",
    "source_name": "google",
    "source_query": "Irrigation Equipment",
    "source_country": "IT",
    "country": "Italy",
    "state": "Emilia-Romagna",
    "city": "Argine"
  },
  {
    "source_id": "ChIJQyDw8N_0f0cRhE_m36C06SU",
    "name": "Irrigreen",
    "category": "Irrigreen",
    "formatted_address": "4,3(3)",
    "phone_number": "+390522642318",
    "source_url": "https://www.google.com/maps/place/Irrigreen/data=!4m7!3m6!1s0x477ff4dff0f02043:0x25e9b4a0dfe64f84!8m2!3d45.1836109!4d10.6267461!16s%2Fg%2F1tddwm9t!19sChIJQyDw8N_0f0cRhE_m36C06SU?authuser=0&hl=tr&rclk=1",
    "website_url": "http://www.irrigreen.it/",
    "rating_text": "4,3",
    "stars": null,
    "number_of_reviews": null,
    "price_level": "",
    "open_hours": "",
    "extraction_timestamp": "2025-06-07T17:07:26.465Z",
    "source_name": "google",
    "source_query": "Irrigation Equipment",
    "source_country": "IT",
    "country": "Italy",
    "state": "Emilia-Romagna",
    "city": "Argine"
  },
  {
    "source_id": "ChIJtVDkNgRFgEcRqc6umwWIJuI",
    "name": "Rm Spa",
    "category": "Rm Spa",
    "formatted_address": "4,6(81)",
    "phone_number": "+390521872321",
    "source_url": "https://www.google.com/maps/place/Rm+Spa/data=!4m7!3m6!1s0x4780450436e450b5:0xe22688059baecea9!8m2!3d44.9105406!4d10.2583785!16s%2Fg%2F12hl93byl!19sChIJtVDkNgRFgEcRqc6umwWIJuI?authuser=0&hl=tr&rclk=1",
    "website_url": "http://www.rmirrigation.com/",
    "rating_text": "4,6",
    "stars": null,
    "number_of_reviews": null,
    "price_level": "",
    "open_hours": "",
    "extraction_timestamp": "2025-06-07T17:07:26.467Z",
    "source_name": "google",
    "source_query": "Irrigation Equipment",
    "source_country": "IT",
    "country": "Italy",
    "state": "Emilia-Romagna",
    "city": "Argine"
  },
  {
    "source_id": "ChIJFW3XPJejLBMRDpQWGwmYqU4",
    "name": "Raggini Irrigazioni e Robot Tosaerba",
    "category": "Raggini Irrigazioni e Robot Tosaerba",
    "formatted_address": "5,0(1)",
    "phone_number": "+393926808947",
    "source_url": "https://www.google.com/maps/place/Raggini+Irrigazioni+e+Robot+Tosaerba/data=!4m7!3m6!1s0x132ca3973cd76d15:0x4ea998091b16940e!8m2!3d44.36369!4d11.8460774!16s%2Fg%2F11dz0bbs9t!19sChIJFW3XPJejLBMRDpQWGwmYqU4?authuser=0&hl=tr&rclk=1",
    "website_url": "",
    "rating_text": "5,0",
    "stars": null,
    "number_of_reviews": null,
    "price_level": "",
    "open_hours": "",
    "extraction_timestamp": "2025-06-07T17:07:26.468Z",
    "source_name": "google",
    "source_query": "Irrigation Equipment",
    "source_country": "IT",
    "country": "Italy",
    "state": "Emilia-Romagna",
    "city": "Argine"
  },
  {
    "source_id": "ChIJR0cLXhQkgEcRi9oI9GALzlg",
    "name": "IRRILAND",
    "category": "IRRILAND",
    "formatted_address": "4,0(4)",
    "phone_number": "+390522831544",
    "source_url": "https://www.google.com/maps/place/IRRILAND/data=!4m7!3m6!1s0x478024145e0b4747:0x58ce0b60f408da8b!8m2!3d44.891987!4d10.650983!16s%2Fg%2F1tczjb0h!19sChIJR0cLXhQkgEcRi9oI9GALzlg?authuser=0&hl=tr&rclk=1",
    "website_url": "http://www.irriland.it/",
    "rating_text": "4,0",
    "stars": null,
    "number_of_reviews": null,
    "price_level": "",
    "open_hours": "",
    "extraction_timestamp": "2025-06-07T17:07:26.469Z",
    "source_name": "google",
    "source_query": "Irrigation Equipment",
    "source_country": "IT",
    "country": "Italy",
    "state": "Emilia-Romagna",
    "city": "Argine"
  },
  {
    "source_id": "ChIJN3McatqOhkcRd1Bzz5AHqlY",
    "name": "Ag Plast Irrigation Srl",
    "category": "Ag Plast Irrigation Srl",
    "formatted_address": "5,0(3)",
    "phone_number": "+390331611846",
    "source_url": "https://www.google.com/maps/place/Ag+Plast+Irrigation+Srl/data=!4m7!3m6!1s0x47868eda6a1c7337:0x56aa0790cf735077!8m2!3d45.6666828!4d8.8878019!16s%2Fg%2F12jm3wfjk!19sChIJN3McatqOhkcRd1Bzz5AHqlY?authuser=0&hl=tr&rclk=1",
    "website_url": "http://agplastirrigation.it/",
    "rating_text": "5,0",
    "stars": null,
    "number_of_reviews": null,
    "price_level": "",
    "open_hours": "",
    "extraction_timestamp": "2025-06-07T17:07:26.470Z",
    "source_name": "google",
    "source_query": "Irrigation Equipment",
    "source_country": "IT",
    "country": "Italy",
    "state": "Emilia-Romagna",
    "city": "Argine"
  },
  {
    "source_id": "ChIJQ8fJol1SKxMRShirn3slxH4",
    "name": "Tecnir",
    "category": "Tecnir",
    "formatted_address": "4,4(17)",
    "phone_number": "+390546641026",
    "source_url": "https://www.google.com/maps/place/Tecnir/data=!4m7!3m6!1s0x132b525da2c9c743:0x7ec4257b9fab184a!8m2!3d44.363732!4d11.935557!16s%2Fg%2F1vfps_3m!19sChIJQ8fJol1SKxMRShirn3slxH4?authuser=0&hl=tr&rclk=1",
    "website_url": "https://www.tecnirirrigazione.it/",
    "rating_text": "4,4",
    "stars": null,
    "number_of_reviews": null,
    "price_level": "",
    "open_hours": "",
    "extraction_timestamp": "2025-06-07T17:07:26.471Z",
    "source_name": "google",
    "source_query": "Irrigation Equipment",
    "source_country": "IT",
    "country": "Italy",
    "state": "Emilia-Romagna",
    "city": "Argine"
  },
  {
    "source_id": "ChIJSSMzGN4pfkcRxNrEMhpqts8",
    "name": "Hydro Ware srl",
    "category": "Hydro Ware srl",
    "formatted_address": "4,5(2)",
    "phone_number": "+390510404329",
    "source_url": "https://www.google.com/maps/place/Hydro+Ware+srl/data=!4m7!3m6!1s0x477e29de18332349:0xcfb66a1a32c4dac4!8m2!3d44.4442053!4d11.4850842!16s%2Fg%2F11h55y8w7d!19sChIJSSMzGN4pfkcRxNrEMhpqts8?authuser=0&hl=tr&rclk=1",
    "website_url": "http://www.hydroware.it/it/",
    "rating_text": "4,5",
    "stars": null,
    "number_of_reviews": null,
    "price_level": "",
    "open_hours": "",
    "extraction_timestamp": "2025-06-07T17:07:26.472Z",
    "source_name": "google",
    "source_query": "Irrigation Equipment",
    "source_country": "IT",
    "country": "Italy",
    "state": "Emilia-Romagna",
    "city": "Argine"
  },
  {
    "source_id": "ChIJ_SYf2IMsfkcRVw9xVhrnjyI",
    "name": "Irrigazione Bragaglia",
    "category": "Irrigazione Bragaglia",
    "formatted_address": "4,7(30)",
    "phone_number": "+39051534865",
    "source_url": "https://www.google.com/maps/place/Irrigazione+Bragaglia/data=!4m7!3m6!1s0x477e2c83d81f26fd:0x228fe71a56710f57!8m2!3d44.5053735!4d11.412403!16s%2Fg%2F1vp6z0gf!19sChIJ_SYf2IMsfkcRVw9xVhrnjyI?authuser=0&hl=tr&rclk=1",
    "website_url": "http://www.irrigazionebragaglia.it/",
    "rating_text": "4,7",
    "stars": null,
    "number_of_reviews": null,
    "price_level": "",
    "open_hours": "",
    "extraction_timestamp": "2025-06-07T17:07:26.474Z",
    "source_name": "google",
    "source_query": "Irrigation Equipment",
    "source_country": "IT",
    "country": "Italy",
    "state": "Emilia-Romagna",
    "city": "Argine"
  },
  {
    "source_id": "ChIJISlyN8fVfkcRP1ghb3uyg-o",
    "name": "Import Irrigation Systems S.R.L.",
    "category": "Import Irrigation Systems S.R.L.",
    "formatted_address": "Üretici ·  · Via Salvo d'Acquisto, 5Kapalı ⋅ Açılış zamanı: Pzt 08:30 · +39 049 559 1020",
    "phone_number": "+390495591020",
    "source_url": "https://www.google.com/maps/place/Import+Irrigation+Systems+S.R.L./data=!4m7!3m6!1s0x477ed5c737722921:0xea83b27b6f21583f!8m2!3d45.5362842!4d11.825368!16s%2Fg%2F1tsjchn3!19sChIJISlyN8fVfkcRP1ghb3uyg-o?authuser=0&hl=tr&rclk=1",
    "website_url": "http://www.importirrigation.com/",
    "rating_text": "",
    "stars": null,
    "number_of_reviews": null,
    "price_level": "",
    "open_hours": "",
    "extraction_timestamp": "2025-06-07T17:07:26.475Z",
    "source_name": "google",
    "source_query": "Irrigation Equipment",
    "source_country": "IT",
    "country": "Italy",
    "state": "Emilia-Romagna",
    "city": "Argine"
  },
  {
    "source_id": "ChIJJ6V6lMDgf0cR1SpFsfjDuHg",
    "name": "Ocmis Irrigazione Spa",
    "category": "Ocmis Irrigazione Spa",
    "formatted_address": "3,5(31)",
    "phone_number": "+39059702150",
    "source_url": "https://www.google.com/maps/place/Ocmis+Irrigazione+Spa/data=!4m7!3m6!1s0x477fe0c0947aa527:0x78b8c3f8b1452ad5!8m2!3d44.530494!4d10.9794578!16s%2Fg%2F1vd3tn19!19sChIJJ6V6lMDgf0cR1SpFsfjDuHg?authuser=0&hl=tr&rclk=1",
    "website_url": "http://www.ocmis-irrigazione.it/",
    "rating_text": "3,5",
    "stars": null,
    "number_of_reviews": null,
    "price_level": "",
    "open_hours": "",
    "extraction_timestamp": "2025-06-07T17:07:26.476Z",
    "source_name": "google",
    "source_query": "Irrigation Equipment",
    "source_country": "IT",
    "country": "Italy",
    "state": "Emilia-Romagna",
    "city": "Argine"
  },
  {
    "source_id": "ChIJa-er_rg1fkcR91VT6-rG3xU",
    "name": "Reni Technology",
    "category": "Reni Technology",
    "formatted_address": "5,0(1)",
    "phone_number": "+393351025315",
    "source_url": "https://www.google.com/maps/place/Reni+Technology/data=!4m7!3m6!1s0x477e35b8feabe76b:0x15dfc6eaeb5355f7!8m2!3d44.6801953!4d11.4932506!16s%2Fg%2F11vkp3f3qd!19sChIJa-er_rg1fkcR91VT6-rG3xU?authuser=0&hl=tr&rclk=1",
    "website_url": "https://www.renitechnology.net/",
    "rating_text": "5,0",
    "stars": null,
    "number_of_reviews": null,
    "price_level": "",
    "open_hours": "",
    "extraction_timestamp": "2025-06-07T17:07:26.477Z",
    "source_name": "google",
    "source_query": "Irrigation Equipment",
    "source_country": "IT",
    "country": "Italy",
    "state": "Emilia-Romagna",
    "city": "Argine"
  },
  {
    "source_id": "ChIJiVSvsQIdgEcR0PUcMFDq-Yg",
    "name": "Idrotim",
    "category": "Idrotim",
    "formatted_address": "5,0(5)",
    "phone_number": "+393387675768",
    "source_url": "https://www.google.com/maps/place/Idrotim/data=!4m7!3m6!1s0x47801d02b1af5489:0x88f9ea50301cf5d0!8m2!3d44.642221!4d10.671266!16s%2Fg%2F1tnhx5lh!19sChIJiVSvsQIdgEcR0PUcMFDq-Yg?authuser=0&hl=tr&rclk=1",
    "website_url": "http://www.idrotim.it/",
    "rating_text": "5,0",
    "stars": null,
    "number_of_reviews": null,
    "price_level": "",
    "open_hours": "",
    "extraction_timestamp": "2025-06-07T17:07:26.478Z",
    "source_name": "google",
    "source_query": "Irrigation Equipment",
    "source_country": "IT",
    "country": "Italy",
    "state": "Emilia-Romagna",
    "city": "Argine"
  },
  {
    "source_id": "ChIJy4AVn9C-LBMRn6nsnuZl82A",
    "name": "Ramilli Irrigazioni S.R.L.",
    "category": "Ramilli Irrigazioni S.R.L.",
    "formatted_address": "4,3(52)",
    "phone_number": "+390541945335",
    "source_url": "https://www.google.com/maps/place/Ramilli+Irrigazioni+S.R.L./data=!4m7!3m6!1s0x132cbed09f1580cb:0x60f365e69eeca99f!8m2!3d44.0923156!4d12.3843691!16s%2Fg%2F1ts2ls1r!19sChIJy4AVn9C-LBMRn6nsnuZl82A?authuser=0&hl=tr&rclk=1",
    "website_url": "https://www.ramilli.it/",
    "rating_text": "4,3",
    "stars": null,
    "number_of_reviews": null,
    "price_level": "",
    "open_hours": "",
    "extraction_timestamp": "2025-06-07T17:07:26.479Z",
    "source_name": "google",
    "source_query": "Irrigation Equipment",
    "source_country": "IT",
    "country": "Italy",
    "state": "Emilia-Romagna",
    "city": "Argine"
  },
  {
    "source_id": "ChIJAUxJ7j3df0cRV576jjhogAg",
    "name": "Aldrovandi Srl Sistemi Irrigazione",
    "category": "Aldrovandi Srl Sistemi Irrigazione",
    "formatted_address": "Sulama Ekipmanları Tedarikçisi · Via Giuseppe Verdi, 34Kalıcı olarak kapalı · +39 059 927676",
    "phone_number": "+39059927676",
    "source_url": "https://www.google.com/maps/place/Aldrovandi+Srl+Sistemi+Irrigazione/data=!4m7!3m6!1s0x477fdd3dee494c01:0x88068388efa9e57!8m2!3d44.59442!4d11.0592496!16s%2Fg%2F12hkr2kns!19sChIJAUxJ7j3df0cRV576jjhogAg?authuser=0&hl=tr&rclk=1",
    "website_url": "",
    "rating_text": "",
    "stars": null,
    "number_of_reviews": null,
    "price_level": "",
    "open_hours": "",
    "extraction_timestamp": "2025-06-07T17:07:26.480Z",
    "source_name": "google",
    "source_query": "Irrigation Equipment",
    "source_country": "IT",
    "country": "Italy",
    "state": "Emilia-Romagna",
    "city": "Argine"
  }
]
