[
  {
    "source_id": "ChIJ8S_H450fgEcRen1BwvkupIc",
    "name": "Agro-system Snc di Bassoli - Piscine e Macchine giardino - Reggio Emilia",
    "category": "Agro-system Snc di Bassoli - Piscine e Macchine giardino - Reggio Emilia",
    "formatted_address": "4,6(88)",
    "phone_number": "+390522954100",
    "source_url": "https://www.google.com/maps/place/Agro-system+Snc+di+Bassoli+-+Piscine+e+Macchine+giardino+-+Reggio+Emilia/data=!4m7!3m6!1s0x47801f9de3c72ff1:0x87a42ef9c2417d7a!8m2!3d44.797091!4d10.686568!16s%2Fg%2F1tfb5f45!19sChIJ8S_H450fgEcRen1BwvkupIc?authuser=0&hl=tr&rclk=1",
    "website_url": "https://agrosystem.info/",
    "rating_text": "4,6",
    "stars": null,
    "number_of_reviews": null,
    "price_level": "",
    "open_hours": "",
    "extraction_timestamp": "2025-06-07T17:11:29.962Z",
    "source_name": "google",
    "source_query": "Irrigation Equipment",
    "source_country": "IT",
    "country": "Italy",
    "state": "Emilia-Romagna",
    "city": "Bagnolo in Piano"
  },
  {
    "source_id": "ChIJ_Zc6KVgegEcRfqrGRpYM0Hg",
    "name": "Emak S.p.A.",
    "category": "Emak S.p.A.",
    "formatted_address": "4,1(119)",
    "phone_number": "+390522956611",
    "source_url": "https://www.google.com/maps/place/Emak+S.p.A./data=!4m7!3m6!1s0x47801e58293a97fd:0x78d00c9646c6aa7e!8m2!3d44.7549659!4d10.671825!16s%2Fg%2F1tqck1rg!19sChIJ_Zc6KVgegEcRfqrGRpYM0Hg?authuser=0&hl=tr&rclk=1",
    "website_url": "http://www.emak.it/",
    "rating_text": "4,1",
    "stars": null,
    "number_of_reviews": null,
    "price_level": "",
    "open_hours": "",
    "extraction_timestamp": "2025-06-07T17:11:29.964Z",
    "source_name": "google",
    "source_query": "Irrigation Equipment",
    "source_country": "IT",
    "country": "Italy",
    "state": "Emilia-Romagna",
    "city": "Bagnolo in Piano"
  },
  {
    "source_id": "ChIJzWyZEf8dgEcRM0sVtbJE3TI",
    "name": "Impiantistica LAVONE",
    "category": "Impiantistica LAVONE",
    "formatted_address": "5,0(3)",
    "phone_number": "+393514759408",
    "source_url": "https://www.google.com/maps/place/Impiantistica+LAVONE/data=!4m7!3m6!1s0x47801dff11996ccd:0x32dd44b2b5154b33!8m2!3d44.7120611!4d10.6241549!16s%2Fg%2F11lp1gdrnd!19sChIJzWyZEf8dgEcRM0sVtbJE3TI?authuser=0&hl=tr&rclk=1",
    "website_url": "",
    "rating_text": "5,0",
    "stars": null,
    "number_of_reviews": null,
    "price_level": "",
    "open_hours": "",
    "extraction_timestamp": "2025-06-07T17:11:29.965Z",
    "source_name": "google",
    "source_query": "Irrigation Equipment",
    "source_country": "IT",
    "country": "Italy",
    "state": "Emilia-Romagna",
    "city": "Bagnolo in Piano"
  },
  {
    "source_id": "ChIJAcsK30Lzf0cRaTFJPma9CoA",
    "name": "G.F. Srl - Enjoy the garden",
    "category": "G.F. Srl - Enjoy the garden",
    "formatted_address": "4,1(9)",
    "phone_number": "+390522637311",
    "source_url": "https://www.google.com/maps/place/G.F.+Srl+-+Enjoy+the+garden/data=!4m7!3m6!1s0x477ff342df0acb01:0x800abd663e493169!8m2!3d44.7681164!4d10.8260182!16s%2Fg%2F12mm851w6!19sChIJAcsK30Lzf0cRaTFJPma9CoA?authuser=0&hl=tr&rclk=1",
    "website_url": "http://www.gfgarden.it/",
    "rating_text": "4,1",
    "stars": null,
    "number_of_reviews": null,
    "price_level": "",
    "open_hours": "",
    "extraction_timestamp": "2025-06-07T17:11:29.966Z",
    "source_name": "google",
    "source_query": "Irrigation Equipment",
    "source_country": "IT",
    "country": "Italy",
    "state": "Emilia-Romagna",
    "city": "Bagnolo in Piano"
  },
  {
    "source_id": "ChIJIboPXysfgEcR3CbbJo7qXD4",
    "name": "Corradi Automazioni",
    "category": "Corradi Automazioni",
    "formatted_address": "5,0(1)",
    "phone_number": "+390522951122",
    "source_url": "https://www.google.com/maps/place/Corradi+Automazioni/data=!4m7!3m6!1s0x47801f2b5f0fba21:0x3e5cea8e26db26dc!8m2!3d44.7635312!4d10.6763116!16s%2Fg%2F11fls2t74q!19sChIJIboPXysfgEcR3CbbJo7qXD4?authuser=0&hl=tr&rclk=1",
    "website_url": "http://fccorradi.it/",
    "rating_text": "5,0",
    "stars": null,
    "number_of_reviews": null,
    "price_level": "",
    "open_hours": "",
    "extraction_timestamp": "2025-06-07T17:11:29.968Z",
    "source_name": "google",
    "source_query": "Irrigation Equipment",
    "source_country": "IT",
    "country": "Italy",
    "state": "Emilia-Romagna",
    "city": "Bagnolo in Piano"
  },
  {
    "source_id": "ChIJay9N6PgegEcRbwS-Bw9QZlM",
    "name": "Riello Service Center",
    "category": "Riello Service Center",
    "formatted_address": "4,2(30)",
    "phone_number": "+390522955047",
    "source_url": "https://www.google.com/maps/place/Riello+Service+Center/data=!4m7!3m6!1s0x47801ef8e84d2f6b:0x5366500f07be046f!8m2!3d44.7567046!4d10.66524!16s%2Fg%2F11c2ntszkh!19sChIJay9N6PgegEcRbwS-Bw9QZlM?authuser=0&hl=tr&rclk=1",
    "website_url": "http://www.arcservice.it/",
    "rating_text": "4,2",
    "stars": null,
    "number_of_reviews": null,
    "price_level": "",
    "open_hours": "",
    "extraction_timestamp": "2025-06-07T17:11:29.969Z",
    "source_name": "google",
    "source_query": "Irrigation Equipment",
    "source_country": "IT",
    "country": "Italy",
    "state": "Emilia-Romagna",
    "city": "Bagnolo in Piano"
  },
  {
    "source_id": "ChIJOUdlKlYegEcR76PxCcp4Afc",
    "name": "F.R.Fregni & Raggi di Marasti Andrea",
    "category": "F.R.Fregni & Raggi di Marasti Andrea",
    "formatted_address": "4,4(40)",
    "phone_number": "+390522952538",
    "source_url": "https://www.google.com/maps/place/F.R.Fregni+%26+Raggi+di+Marasti+Andrea/data=!4m7!3m6!1s0x47801e562a654739:0xf70178ca09f1a3ef!8m2!3d44.75613!4d10.6671734!16s%2Fg%2F1tdnvrfx!19sChIJOUdlKlYegEcR76PxCcp4Afc?authuser=0&hl=tr&rclk=1",
    "website_url": "http://www.fregnieraggi.it/",
    "rating_text": "4,4",
    "stars": null,
    "number_of_reviews": null,
    "price_level": "",
    "open_hours": "",
    "extraction_timestamp": "2025-06-07T17:11:29.970Z",
    "source_name": "google",
    "source_query": "Irrigation Equipment",
    "source_country": "IT",
    "country": "Italy",
    "state": "Emilia-Romagna",
    "city": "Bagnolo in Piano"
  },
  {
    "source_id": "ChIJQyDw8N_0f0cRhE_m36C06SU",
    "name": "Irrigreen",
    "category": "Irrigreen",
    "formatted_address": "4,3(3)",
    "phone_number": "+390522642318",
    "source_url": "https://www.google.com/maps/place/Irrigreen/data=!4m7!3m6!1s0x477ff4dff0f02043:0x25e9b4a0dfe64f84!8m2!3d45.1836109!4d10.6267461!16s%2Fg%2F1tddwm9t!19sChIJQyDw8N_0f0cRhE_m36C06SU?authuser=0&hl=tr&rclk=1",
    "website_url": "http://www.irrigreen.it/",
    "rating_text": "4,3",
    "stars": null,
    "number_of_reviews": null,
    "price_level": "",
    "open_hours": "",
    "extraction_timestamp": "2025-06-07T17:11:29.971Z",
    "source_name": "google",
    "source_query": "Irrigation Equipment",
    "source_country": "IT",
    "country": "Italy",
    "state": "Emilia-Romagna",
    "city": "Bagnolo in Piano"
  },
  {
    "source_id": "ChIJX-0HrXYcgEcRPiaDZKdV6iw",
    "name": "Idromeccanica Bertolini S.p.a.",
    "category": "Idromeccanica Bertolini S.p.a.",
    "formatted_address": "3,7(20)",
    "phone_number": "+390522306641",
    "source_url": "https://www.google.com/maps/place/Idromeccanica+Bertolini+S.p.a./data=!4m7!3m6!1s0x47801c76ad07ed5f:0x2cea55a76483263e!8m2!3d44.7131562!4d10.5953009!16s%2Fg%2F11b6j1nfcw!19sChIJX-0HrXYcgEcRPiaDZKdV6iw?authuser=0&hl=tr&rclk=1",
    "website_url": "http://www.bertolinipumps.com/",
    "rating_text": "3,7",
    "stars": null,
    "number_of_reviews": null,
    "price_level": "",
    "open_hours": "",
    "extraction_timestamp": "2025-06-07T17:11:29.973Z",
    "source_name": "google",
    "source_query": "Irrigation Equipment",
    "source_country": "IT",
    "country": "Italy",
    "state": "Emilia-Romagna",
    "city": "Bagnolo in Piano"
  },
  {
    "source_id": "ChIJh3Nd8G0sfkcR_m7VewEmxXM",
    "name": "Irrigarden",
    "category": "Irrigarden",
    "formatted_address": "4,7(158)",
    "phone_number": "+39051782013",
    "source_url": "https://www.google.com/maps/place/Irrigarden/data=!4m7!3m6!1s0x477e2c6df05d7387:0x73c526017bd56efe!8m2!3d44.5096266!4d11.4390897!16s%2Fg%2F1vgw_l7w!19sChIJh3Nd8G0sfkcR_m7VewEmxXM?authuser=0&hl=tr&rclk=1",
    "website_url": "https://www.irrigarden-bo.it/",
    "rating_text": "4,7",
    "stars": null,
    "number_of_reviews": null,
    "price_level": "",
    "open_hours": "",
    "extraction_timestamp": "2025-06-07T17:11:29.974Z",
    "source_name": "google",
    "source_query": "Irrigation Equipment",
    "source_country": "IT",
    "country": "Italy",
    "state": "Emilia-Romagna",
    "city": "Bagnolo in Piano"
  },
  {
    "source_id": "ChIJtVDkNgRFgEcRqc6umwWIJuI",
    "name": "Rm Spa",
    "category": "Rm Spa",
    "formatted_address": "4,6(81)",
    "phone_number": "+390521872321",
    "source_url": "https://www.google.com/maps/place/Rm+Spa/data=!4m7!3m6!1s0x4780450436e450b5:0xe22688059baecea9!8m2!3d44.9105406!4d10.2583785!16s%2Fg%2F12hl93byl!19sChIJtVDkNgRFgEcRqc6umwWIJuI?authuser=0&hl=tr&rclk=1",
    "website_url": "http://www.rmirrigation.com/",
    "rating_text": "4,6",
    "stars": null,
    "number_of_reviews": null,
    "price_level": "",
    "open_hours": "",
    "extraction_timestamp": "2025-06-07T17:11:29.975Z",
    "source_name": "google",
    "source_query": "Irrigation Equipment",
    "source_country": "IT",
    "country": "Italy",
    "state": "Emilia-Romagna",
    "city": "Bagnolo in Piano"
  },
  {
    "source_id": "ChIJMdPi06sfgEcRuwnCvzx2CMA",
    "name": "Com-Edil di Grazioli & C. snc",
    "category": "Com-Edil di Grazioli & C. snc",
    "formatted_address": "4,6(25)",
    "phone_number": "+390522952853",
    "source_url": "https://www.google.com/maps/place/Com-Edil+di+Grazioli+%26+C.+snc/data=!4m7!3m6!1s0x47801fabd3e2d331:0xc008763cbfc209bb!8m2!3d44.7660434!4d10.6744364!16s%2Fg%2F1tfkplxg!19sChIJMdPi06sfgEcRuwnCvzx2CMA?authuser=0&hl=tr&rclk=1",
    "website_url": "http://www.comedilgrazioli.it/",
    "rating_text": "4,6",
    "stars": null,
    "number_of_reviews": null,
    "price_level": "",
    "open_hours": "",
    "extraction_timestamp": "2025-06-07T17:11:29.976Z",
    "source_name": "google",
    "source_query": "Irrigation Equipment",
    "source_country": "IT",
    "country": "Italy",
    "state": "Emilia-Romagna",
    "city": "Bagnolo in Piano"
  },
  {
    "source_id": "ChIJiVSvsQIdgEcR0PUcMFDq-Yg",
    "name": "Idrotim",
    "category": "Idrotim",
    "formatted_address": "5,0(5)",
    "phone_number": "+393387675768",
    "source_url": "https://www.google.com/maps/place/Idrotim/data=!4m7!3m6!1s0x47801d02b1af5489:0x88f9ea50301cf5d0!8m2!3d44.642221!4d10.671266!16s%2Fg%2F1tnhx5lh!19sChIJiVSvsQIdgEcR0PUcMFDq-Yg?authuser=0&hl=tr&rclk=1",
    "website_url": "http://www.idrotim.it/",
    "rating_text": "5,0",
    "stars": null,
    "number_of_reviews": null,
    "price_level": "",
    "open_hours": "",
    "extraction_timestamp": "2025-06-07T17:11:29.977Z",
    "source_name": "google",
    "source_query": "Irrigation Equipment",
    "source_country": "IT",
    "country": "Italy",
    "state": "Emilia-Romagna",
    "city": "Bagnolo in Piano"
  },
  {
    "source_id": "ChIJpVv9TmYQgEcRkPUIA3tc-yo",
    "name": "Hobby Garden Petucco Srl",
    "category": "Hobby Garden Petucco Srl",
    "formatted_address": "4,1(158)",
    "phone_number": "+390522243076",
    "source_url": "https://www.google.com/maps/place/Hobby+Garden+Petucco+Srl/data=!4m7!3m6!1s0x478010664efd5ba5:0x2afb5c7b0308f590!8m2!3d44.696324!4d10.485611!16s%2Fg%2F1td2956f!19sChIJpVv9TmYQgEcRkPUIA3tc-yo?authuser=0&hl=tr&rclk=1",
    "website_url": "http://www.hobbygarden.eu/",
    "rating_text": "4,1",
    "stars": null,
    "number_of_reviews": null,
    "price_level": "",
    "open_hours": "",
    "extraction_timestamp": "2025-06-07T17:11:29.977Z",
    "source_name": "google",
    "source_query": "Irrigation Equipment",
    "source_country": "IT",
    "country": "Italy",
    "state": "Emilia-Romagna",
    "city": "Bagnolo in Piano"
  },
  {
    "source_id": "ChIJQapmsYkegEcR8QMwHO1R0LU",
    "name": "Garmec Srl",
    "category": "Garmec Srl",
    "formatted_address": "4,9(20)",
    "phone_number": "+390522503911",
    "source_url": "https://www.google.com/maps/place/Garmec+Srl/data=!4m7!3m6!1s0x47801e89b166aa41:0xb5d051ed1c3003f1!8m2!3d44.7374947!4d10.6587624!16s%2Fg%2F1td16pqf!19sChIJQapmsYkegEcR8QMwHO1R0LU?authuser=0&hl=tr&rclk=1",
    "website_url": "",
    "rating_text": "4,9",
    "stars": null,
    "number_of_reviews": null,
    "price_level": "",
    "open_hours": "",
    "extraction_timestamp": "2025-06-07T17:11:29.978Z",
    "source_name": "google",
    "source_query": "Irrigation Equipment",
    "source_country": "IT",
    "country": "Italy",
    "state": "Emilia-Romagna",
    "city": "Bagnolo in Piano"
  },
  {
    "source_id": "ChIJcQG6ul7df0cR3VxKiu5OPBs",
    "name": "Scova Impianti Srl",
    "category": "Scova Impianti Srl",
    "formatted_address": "4,5(64)",
    "phone_number": "+39059923202",
    "source_url": "https://www.google.com/maps/place/Scova+Impianti+Srl/data=!4m7!3m6!1s0x477fdd5ebaba0171:0x1b3c4eee8a4a5cdd!8m2!3d44.6018135!4d11.032294!16s%2Fg%2F1tfzwbfb!19sChIJcQG6ul7df0cR3VxKiu5OPBs?authuser=0&hl=tr&rclk=1",
    "website_url": "https://www.scovaimpianti.com/",
    "rating_text": "4,5",
    "stars": null,
    "number_of_reviews": null,
    "price_level": "",
    "open_hours": "",
    "extraction_timestamp": "2025-06-07T17:11:29.979Z",
    "source_name": "google",
    "source_query": "Irrigation Equipment",
    "source_country": "IT",
    "country": "Italy",
    "state": "Emilia-Romagna",
    "city": "Bagnolo in Piano"
  },
  {
    "source_id": "ChIJq5e6TTv0f0cRe0lfkBwyQVE",
    "name": "Aqua Industrial Group",
    "category": "Aqua Industrial Group",
    "formatted_address": "3,5(10)",
    "phone_number": "+390522695805",
    "source_url": "https://www.google.com/maps/place/Aqua+Industrial+Group/data=!4m7!3m6!1s0x477ff43b4dba97ab:0x5141321c905f497b!8m2!3d44.7252141!4d10.7656823!16s%2Fg%2F1hc61vd63!19sChIJq5e6TTv0f0cRe0lfkBwyQVE?authuser=0&hl=tr&rclk=1",
    "website_url": "http://www.aqua.it/",
    "rating_text": "3,5",
    "stars": null,
    "number_of_reviews": null,
    "price_level": "",
    "open_hours": "",
    "extraction_timestamp": "2025-06-07T17:11:29.980Z",
    "source_name": "google",
    "source_query": "Irrigation Equipment",
    "source_country": "IT",
    "country": "Italy",
    "state": "Emilia-Romagna",
    "city": "Bagnolo in Piano"
  },
  {
    "source_id": "ChIJE_3jOnMtfkcRkxtTFj3Ym9E",
    "name": "Irrigation Scarabelli Srl",
    "category": "Irrigation Scarabelli Srl",
    "formatted_address": "4,5(23)",
    "phone_number": "+39051763363",
    "source_url": "https://www.google.com/maps/place/Irrigation+Scarabelli+Srl/data=!4m7!3m6!1s0x477e2d733ae3fd13:0xd19bd83d16531b93!8m2!3d44.5426053!4d11.4189136!16s%2Fg%2F11gzdz6vf!19sChIJE_3jOnMtfkcRkxtTFj3Ym9E?authuser=0&hl=tr&rclk=1",
    "website_url": "",
    "rating_text": "4,5",
    "stars": null,
    "number_of_reviews": null,
    "price_level": "",
    "open_hours": "",
    "extraction_timestamp": "2025-06-07T17:11:29.981Z",
    "source_name": "google",
    "source_query": "Irrigation Equipment",
    "source_country": "IT",
    "country": "Italy",
    "state": "Emilia-Romagna",
    "city": "Bagnolo in Piano"
  },
  {
    "source_id": "ChIJW3IOr1UegEcROs2d_dheFUw",
    "name": "Ferbo Srl",
    "category": "Ferbo Srl",
    "formatted_address": "4,6(79)",
    "phone_number": "+390522957304",
    "source_url": "https://www.google.com/maps/place/Ferbo+Srl/data=!4m7!3m6!1s0x47801e55af0e725b:0x4c155ed8fd9dcd3a!8m2!3d44.7601763!4d10.6725177!16s%2Fg%2F1tfbrr5j!19sChIJW3IOr1UegEcROs2d_dheFUw?authuser=0&hl=tr&rclk=1",
    "website_url": "http://www.ferbosrl.com/",
    "rating_text": "4,6",
    "stars": null,
    "number_of_reviews": null,
    "price_level": "",
    "open_hours": "",
    "extraction_timestamp": "2025-06-07T17:11:29.982Z",
    "source_name": "google",
    "source_query": "Irrigation Equipment",
    "source_country": "IT",
    "country": "Italy",
    "state": "Emilia-Romagna",
    "city": "Bagnolo in Piano"
  },
  {
    "source_id": "ChIJtdJC5j6Zf0cRmmVcuMyNEW0",
    "name": "Tadei | Impianti irrigazione | Robot tagliaerba | Barbecue | Outdoor",
    "category": "Tadei | Impianti irrigazione | Robot tagliaerba | Barbecue | Outdoor",
    "formatted_address": "4,6(69)",
    "phone_number": "+390386733460",
    "source_url": "https://www.google.com/maps/place/Tadei+%7C+Impianti+irrigazione+%7C+Robot+tagliaerba+%7C+Barbecue+%7C+Outdoor/data=!4m7!3m6!1s0x477f993ee642d2b5:0x6d118dccb85c659a!8m2!3d44.9680645!4d11.1076526!16s%2Fg%2F113dpgnd_!19sChIJtdJC5j6Zf0cRmmVcuMyNEW0?authuser=0&hl=tr&rclk=1",
    "website_url": "https://www.irrigazionetadei.it/",
    "rating_text": "4,6",
    "stars": null,
    "number_of_reviews": null,
    "price_level": "",
    "open_hours": "",
    "extraction_timestamp": "2025-06-07T17:11:29.983Z",
    "source_name": "google",
    "source_query": "Irrigation Equipment",
    "source_country": "IT",
    "country": "Italy",
    "state": "Emilia-Romagna",
    "city": "Bagnolo in Piano"
  },
  {
    "source_id": "ChIJi24mSbsggEcRb26xfRLERzM",
    "name": "Garden Store",
    "category": "Garden Store",
    "formatted_address": "4,5(73)",
    "phone_number": "+393351499648",
    "source_url": "https://www.google.com/maps/place/Garden+Store/data=!4m7!3m6!1s0x478020bb49266e8b:0x3347c4127db16e6f!8m2!3d44.8472938!4d10.7413978!16s%2Fg%2F119x3dp7l!19sChIJi24mSbsggEcRb26xfRLERzM?authuser=0&hl=tr&rclk=1",
    "website_url": "http://www.gardenstoresrl.it/",
    "rating_text": "4,5",
    "stars": null,
    "number_of_reviews": null,
    "price_level": "",
    "open_hours": "",
    "extraction_timestamp": "2025-06-07T17:11:29.985Z",
    "source_name": "google",
    "source_query": "Irrigation Equipment",
    "source_country": "IT",
    "country": "Italy",
    "state": "Emilia-Romagna",
    "city": "Bagnolo in Piano"
  },
  {
    "source_id": "ChIJyXgg68QrfkcRAaJCOMJ3PxY",
    "name": "hidrisistem",
    "category": "hidrisistem",
    "formatted_address": "5,0(1)",
    "phone_number": "+39366448310824",
    "source_url": "https://www.google.com/maps/place/hidrisistem/data=!4m7!3m6!1s0x477e2bc4eb2078c9:0x163f77c23842a201!8m2!3d44.496029!4d11.402638!16s%2Fg%2F11w_zjhjy3!19sChIJyXgg68QrfkcRAaJCOMJ3PxY?authuser=0&hl=tr&rclk=1",
    "website_url": "",
    "rating_text": "5,0",
    "stars": null,
    "number_of_reviews": null,
    "price_level": "",
    "open_hours": "",
    "extraction_timestamp": "2025-06-07T17:11:29.985Z",
    "source_name": "google",
    "source_query": "Irrigation Equipment",
    "source_country": "IT",
    "country": "Italy",
    "state": "Emilia-Romagna",
    "city": "Bagnolo in Piano"
  },
  {
    "source_id": "ChIJkQfAZmNnE6wRroS1nR6NIYo",
    "name": "IDROTECH di Nester Valentyn",
    "category": "IDROTECH di Nester Valentyn",
    "formatted_address": "5,0(29)",
    "phone_number": "+393485020901",
    "source_url": "https://www.google.com/maps/place/IDROTECH+di+Nester+Valentyn/data=!4m7!3m6!1s0xac13676366c00791:0x8a218d1e9db584ae!8m2!3d44.7187818!4d10.6382682!16s%2Fg%2F11x62pm3z0!19sChIJkQfAZmNnE6wRroS1nR6NIYo?authuser=0&hl=tr&rclk=1",
    "website_url": "",
    "rating_text": "5,0",
    "stars": null,
    "number_of_reviews": null,
    "price_level": "",
    "open_hours": "",
    "extraction_timestamp": "2025-06-07T17:11:29.986Z",
    "source_name": "google",
    "source_query": "Irrigation Equipment",
    "source_country": "IT",
    "country": "Italy",
    "state": "Emilia-Romagna",
    "city": "Bagnolo in Piano"
  },
  {
    "source_id": "ChIJ_SYf2IMsfkcRVw9xVhrnjyI",
    "name": "Irrigazione Bragaglia",
    "category": "Irrigazione Bragaglia",
    "formatted_address": "4,7(30)",
    "phone_number": "+39051534865",
    "source_url": "https://www.google.com/maps/place/Irrigazione+Bragaglia/data=!4m7!3m6!1s0x477e2c83d81f26fd:0x228fe71a56710f57!8m2!3d44.5053735!4d11.412403!16s%2Fg%2F1vp6z0gf!19sChIJ_SYf2IMsfkcRVw9xVhrnjyI?authuser=0&hl=tr&rclk=1",
    "website_url": "http://www.irrigazionebragaglia.it/",
    "rating_text": "4,7",
    "stars": null,
    "number_of_reviews": null,
    "price_level": "",
    "open_hours": "",
    "extraction_timestamp": "2025-06-07T17:11:29.987Z",
    "source_name": "google",
    "source_query": "Irrigation Equipment",
    "source_country": "IT",
    "country": "Italy",
    "state": "Emilia-Romagna",
    "city": "Bagnolo in Piano"
  },
  {
    "source_id": "ChIJq2tl2JMegEcRtJo1-Rc7V30",
    "name": "GB ServiceLab",
    "category": "GB ServiceLab",
    "formatted_address": "5,0(3)",
    "phone_number": "+390522232767",
    "source_url": "https://www.google.com/maps/place/GB+ServiceLab/data=!4m7!3m6!1s0x47801e93d8656bab:0x7d573b17f9359ab4!8m2!3d44.7407044!4d10.6461569!16s%2Fg%2F11f087_1bb!19sChIJq2tl2JMegEcRtJo1-Rc7V30?authuser=0&hl=tr&rclk=1",
    "website_url": "http://www.gbservicelab.com/",
    "rating_text": "5,0",
    "stars": null,
    "number_of_reviews": null,
    "price_level": "",
    "open_hours": "",
    "extraction_timestamp": "2025-06-07T17:11:29.988Z",
    "source_name": "google",
    "source_query": "Irrigation Equipment",
    "source_country": "IT",
    "country": "Italy",
    "state": "Emilia-Romagna",
    "city": "Bagnolo in Piano"
  },
  {
    "source_id": "ChIJy5emkawfgEcR8_40Tom-K2o",
    "name": "Soncini Marino E Aldo (S.N.C.)",
    "category": "Soncini Marino E Aldo (S.N.C.)",
    "formatted_address": "4,9(19)",
    "phone_number": "+390522951013",
    "source_url": "https://www.google.com/maps/place/Soncini+Marino+E+Aldo+%28S.N.C.%29/data=!4m7!3m6!1s0x47801fac91a697cb:0x6a2bbe894e34fef3!8m2!3d44.7633799!4d10.6739434!16s%2Fg%2F1vnnh7m2!19sChIJy5emkawfgEcR8_40Tom-K2o?authuser=0&hl=tr&rclk=1",
    "website_url": "",
    "rating_text": "4,9",
    "stars": null,
    "number_of_reviews": null,
    "price_level": "",
    "open_hours": "",
    "extraction_timestamp": "2025-06-07T17:11:29.989Z",
    "source_name": "google",
    "source_query": "Irrigation Equipment",
    "source_country": "IT",
    "country": "Italy",
    "state": "Emilia-Romagna",
    "city": "Bagnolo in Piano"
  },
  {
    "source_id": "ChIJwbFrw9wdgEcRUkQQWLvaJmc",
    "name": "Depurtecnica Trattamento Acque",
    "category": "Depurtecnica Trattamento Acque",
    "formatted_address": "4,7(19)",
    "phone_number": "+390522215085",
    "source_url": "https://www.google.com/maps/place/Depurtecnica+Trattamento+Acque/data=!4m7!3m6!1s0x47801ddcc36bb1c1:0x6726dabb58104452!8m2!3d44.7154811!4d10.6721644!16s%2Fg%2F11b75gdbf2!19sChIJwbFrw9wdgEcRUkQQWLvaJmc?authuser=0&hl=tr&rclk=1",
    "website_url": "https://depurtecnica.com/",
    "rating_text": "4,7",
    "stars": null,
    "number_of_reviews": null,
    "price_level": "",
    "open_hours": "",
    "extraction_timestamp": "2025-06-07T17:11:29.990Z",
    "source_name": "google",
    "source_query": "Irrigation Equipment",
    "source_country": "IT",
    "country": "Italy",
    "state": "Emilia-Romagna",
    "city": "Bagnolo in Piano"
  },
  {
    "source_id": "ChIJhz_KGZNkeKwR4sqPH-CYuRs",
    "name": "V.M. edilizia elettrotermoidraulica PRONTO INTERVENTO 24H",
    "category": "V.M. edilizia elettrotermoidraulica PRONTO INTERVENTO 24H",
    "formatted_address": "5,0(1)",
    "phone_number": "+39339226631524",
    "source_url": "https://www.google.com/maps/place/V.M.+edilizia+elettrotermoidraulica+PRONTO+INTERVENTO+24H/data=!4m7!3m6!1s0xac78649319ca3f87:0x1bb998e01f8fcae2!8m2!3d44.7016295!4d10.6382682!16s%2Fg%2F11l6gnw2r0!19sChIJhz_KGZNkeKwR4sqPH-CYuRs?authuser=0&hl=tr&rclk=1",
    "website_url": "https://vmedilizia.it/",
    "rating_text": "5,0",
    "stars": null,
    "number_of_reviews": null,
    "price_level": "",
    "open_hours": "",
    "extraction_timestamp": "2025-06-07T17:11:29.991Z",
    "source_name": "google",
    "source_query": "Irrigation Equipment",
    "source_country": "IT",
    "country": "Italy",
    "state": "Emilia-Romagna",
    "city": "Bagnolo in Piano"
  },
  {
    "source_id": "ChIJGZf9pFMcgEcREL2aHIf_MhY",
    "name": "Reggio Sport",
    "category": "Reggio Sport",
    "formatted_address": "4,5(302)",
    "phone_number": "+390522430660",
    "source_url": "https://www.google.com/maps/place/Reggio+Sport/data=!4m7!3m6!1s0x47801c53a4fd9719:0x1632ff871c9abd10!8m2!3d44.6962139!4d10.6410678!16s%2Fg%2F11dxkgz59n!19sChIJGZf9pFMcgEcREL2aHIf_MhY?authuser=0&hl=tr&rclk=1",
    "website_url": "https://www.facebook.com/reggiosport/",
    "rating_text": "4,5",
    "stars": null,
    "number_of_reviews": null,
    "price_level": "",
    "open_hours": "",
    "extraction_timestamp": "2025-06-07T17:11:29.993Z",
    "source_name": "google",
    "source_query": "Irrigation Equipment",
    "source_country": "IT",
    "country": "Italy",
    "state": "Emilia-Romagna",
    "city": "Bagnolo in Piano"
  },
  {
    "source_id": "ChIJVR2cVqgdgEcRNhrbn9Vfq0E",
    "name": "Forno Delle Delizie",
    "category": "Forno Delle Delizie",
    "formatted_address": "4,5(41)",
    "phone_number": "+390522555382",
    "source_url": "https://www.google.com/maps/place/Forno+Delle+Delizie/data=!4m7!3m6!1s0x47801da8569c1d55:0x41ab5fd59fdb1a36!8m2!3d44.6910928!4d10.6518556!16s%2Fg%2F1tjysg95!19sChIJVR2cVqgdgEcRNhrbn9Vfq0E?authuser=0&hl=tr&rclk=1",
    "website_url": "https://www.facebook.com/FornodelleDelizie/",
    "rating_text": "4,5",
    "stars": null,
    "number_of_reviews": null,
    "price_level": "",
    "open_hours": "",
    "extraction_timestamp": "2025-06-07T17:11:29.994Z",
    "source_name": "google",
    "source_query": "Irrigation Equipment",
    "source_country": "IT",
    "country": "Italy",
    "state": "Emilia-Romagna",
    "city": "Bagnolo in Piano"
  },
  {
    "source_id": "ChIJ3SjiCzMagEcRDX4gPOM2sM4",
    "name": "Emiltec Srl - Tecnologie per la pulizia industriale",
    "category": "Emiltec Srl - Tecnologie per la pulizia industriale",
    "formatted_address": "4,3(3)",
    "phone_number": "+390522941825",
    "source_url": "https://www.google.com/maps/place/Emiltec+Srl+-+Tecnologie+per+la+pulizia+industriale/data=!4m7!3m6!1s0x47801a330be228dd:0xceb036e33c207e0d!8m2!3d44.7427684!4d10.6495126!16s%2Fg%2F11g5_4qxs1!19sChIJ3SjiCzMagEcRDX4gPOM2sM4?authuser=0&hl=tr&rclk=1",
    "website_url": "https://www.emiltec.com/",
    "rating_text": "4,3",
    "stars": null,
    "number_of_reviews": null,
    "price_level": "",
    "open_hours": "",
    "extraction_timestamp": "2025-06-07T17:11:29.995Z",
    "source_name": "google",
    "source_query": "Irrigation Equipment",
    "source_country": "IT",
    "country": "Italy",
    "state": "Emilia-Romagna",
    "city": "Bagnolo in Piano"
  },
  {
    "source_id": "ChIJAdruoW0cgEcR3Gg91KmmNQw",
    "name": "Kramp Italia",
    "category": "Kramp Italia",
    "formatted_address": "4,7(18)",
    "phone_number": "+3905221712630",
    "source_url": "https://www.google.com/maps/place/Kramp+Italia/data=!4m7!3m6!1s0x47801c6da1eeda01:0xc35a6a9d43d68dc!8m2!3d44.711173!4d10.7080676!16s%2Fg%2F1hc4fppvw!19sChIJAdruoW0cgEcR3Gg91KmmNQw?authuser=0&hl=tr&rclk=1",
    "website_url": "https://www.kramp.com/shop-it/it?utm_source=google&utm_medium=organic&utm_campaign=gmb&utm_content=website",
    "rating_text": "4,7",
    "stars": null,
    "number_of_reviews": null,
    "price_level": "",
    "open_hours": "",
    "extraction_timestamp": "2025-06-07T17:11:29.996Z",
    "source_name": "google",
    "source_query": "Irrigation Equipment",
    "source_country": "IT",
    "country": "Italy",
    "state": "Emilia-Romagna",
    "city": "Bagnolo in Piano"
  },
  {
    "source_id": "ChIJ-arxwdPWgUcRmXWoftdyjYg",
    "name": "Pioggia Carnevali",
    "category": "Pioggia Carnevali",
    "formatted_address": "4,8(22)",
    "phone_number": "+390376398151",
    "source_url": "https://www.google.com/maps/place/Pioggia+Carnevali/data=!4m7!3m6!1s0x4781d6d3c1f1aaf9:0x888d72d77ea87599!8m2!3d45.1985116!4d10.7916482!16s%2Fg%2F1hc1z5fv1!19sChIJ-arxwdPWgUcRmXWoftdyjYg?authuser=0&hl=tr&rclk=1",
    "website_url": "http://www.pioggiacarnevali.com/",
    "rating_text": "4,8",
    "stars": null,
    "number_of_reviews": null,
    "price_level": "",
    "open_hours": "",
    "extraction_timestamp": "2025-06-07T17:11:29.997Z",
    "source_name": "google",
    "source_query": "Irrigation Equipment",
    "source_country": "IT",
    "country": "Italy",
    "state": "Emilia-Romagna",
    "city": "Bagnolo in Piano"
  }
]
