[
  {
    "source_id": "ChIJW2v-OOYbgEcRs2i9KLnLYAg",
    "name": "Compressori HP Technology Assistenza Aria Compressa",
    "category": "Compressori HP Technology Assistenza Aria Compressa",
    "formatted_address": "5,0(1)",
    "phone_number": "+390522363018",
    "source_url": "https://www.google.com/maps/place/Compressori+HP+Technology+Assistenza+Aria+Compressa/data=!4m7!3m6!1s0x47801be638fe6b5b:0x860cbb928bd68b3!8m2!3d44.690258!4d10.50433!16s%2Fg%2F11j4dkgdp8!19sChIJW2v-OOYbgEcRs2i9KLnLYAg?authuser=0&hl=tr&rclk=1",
    "website_url": "http://www.hptechnology.info/",
    "rating_text": "5,0",
    "stars": null,
    "number_of_reviews": null,
    "price_level": "",
    "open_hours": "",
    "extraction_timestamp": "2025-06-07T17:08:37.049Z",
    "source_name": "google",
    "source_query": "Irrigation Equipment",
    "source_country": "IT",
    "country": "Italy",
    "state": "Emilia-Romagna",
    "city": "Barco"
  },
  {
    "source_id": "ChIJcQG6ul7df0cR3VxKiu5OPBs",
    "name": "Scova Impianti Srl",
    "category": "Scova Impianti Srl",
    "formatted_address": "4,5(64)",
    "phone_number": "+39059923202",
    "source_url": "https://www.google.com/maps/place/Scova+Impianti+Srl/data=!4m7!3m6!1s0x477fdd5ebaba0171:0x1b3c4eee8a4a5cdd!8m2!3d44.6018135!4d11.032294!16s%2Fg%2F1tfzwbfb!19sChIJcQG6ul7df0cR3VxKiu5OPBs?authuser=0&hl=tr&rclk=1",
    "website_url": "https://www.scovaimpianti.com/",
    "rating_text": "4,5",
    "stars": null,
    "number_of_reviews": null,
    "price_level": "",
    "open_hours": "",
    "extraction_timestamp": "2025-06-07T17:08:37.051Z",
    "source_name": "google",
    "source_query": "Irrigation Equipment",
    "source_country": "IT",
    "country": "Italy",
    "state": "Emilia-Romagna",
    "city": "Barco"
  },
  {
    "source_id": "ChIJtVDkNgRFgEcRqc6umwWIJuI",
    "name": "Rm Spa",
    "category": "Rm Spa",
    "formatted_address": "4,6(81)",
    "phone_number": "+390521872321",
    "source_url": "https://www.google.com/maps/place/Rm+Spa/data=!4m7!3m6!1s0x4780450436e450b5:0xe22688059baecea9!8m2!3d44.9105406!4d10.2583785!16s%2Fg%2F12hl93byl!19sChIJtVDkNgRFgEcRqc6umwWIJuI?authuser=0&hl=tr&rclk=1",
    "website_url": "http://www.rmirrigation.com/",
    "rating_text": "4,6",
    "stars": null,
    "number_of_reviews": null,
    "price_level": "",
    "open_hours": "",
    "extraction_timestamp": "2025-06-07T17:08:37.067Z",
    "source_name": "google",
    "source_query": "Irrigation Equipment",
    "source_country": "IT",
    "country": "Italy",
    "state": "Emilia-Romagna",
    "city": "Barco"
  },
  {
    "source_id": "ChIJz6guvZ0agEcRjam6Vg8TR00",
    "name": "Rivel",
    "category": "Rivel",
    "formatted_address": "3,8(44)",
    "phone_number": "+390522875788",
    "source_url": "https://www.google.com/maps/place/Rivel/data=!4m7!3m6!1s0x47801a9dbd2ea8cf:0x4d47130f56baa98d!8m2!3d44.6908595!4d10.504116!16s%2Fg%2F1w9x_z5v!19sChIJz6guvZ0agEcRjam6Vg8TR00?authuser=0&hl=tr&rclk=1",
    "website_url": "https://www.rivelferramenta.it/",
    "rating_text": "3,8",
    "stars": null,
    "number_of_reviews": null,
    "price_level": "",
    "open_hours": "",
    "extraction_timestamp": "2025-06-07T17:08:37.070Z",
    "source_name": "google",
    "source_query": "Irrigation Equipment",
    "source_country": "IT",
    "country": "Italy",
    "state": "Emilia-Romagna",
    "city": "Barco"
  },
  {
    "source_id": "ChIJ_6tKaYwagEcRL6soZdnk11U",
    "name": "Molino Borghi Ferruccio & C. S.N.C.",
    "category": "Molino Borghi Ferruccio & C. S.N.C.",
    "formatted_address": "4,8(52)",
    "phone_number": "+390522371948",
    "source_url": "https://www.google.com/maps/place/Molino+Borghi+Ferruccio+%26+C.+S.N.C./data=!4m7!3m6!1s0x47801a8c694aabff:0x55d7e4d96528ab2f!8m2!3d44.695174!4d10.5232699!16s%2Fg%2F1td75f93!19sChIJ_6tKaYwagEcRL6soZdnk11U?authuser=0&hl=tr&rclk=1",
    "website_url": "http://pellet-reggio-emilia.it/",
    "rating_text": "4,8",
    "stars": null,
    "number_of_reviews": null,
    "price_level": "",
    "open_hours": "",
    "extraction_timestamp": "2025-06-07T17:08:37.071Z",
    "source_name": "google",
    "source_query": "Irrigation Equipment",
    "source_country": "IT",
    "country": "Italy",
    "state": "Emilia-Romagna",
    "city": "Barco"
  },
  {
    "source_id": "ChIJq5e6TTv0f0cRe0lfkBwyQVE",
    "name": "Aqua Industrial Group",
    "category": "Aqua Industrial Group",
    "formatted_address": "3,5(10)",
    "phone_number": "+390522695805",
    "source_url": "https://www.google.com/maps/place/Aqua+Industrial+Group/data=!4m7!3m6!1s0x477ff43b4dba97ab:0x5141321c905f497b!8m2!3d44.7252141!4d10.7656823!16s%2Fg%2F1hc61vd63!19sChIJq5e6TTv0f0cRe0lfkBwyQVE?authuser=0&hl=tr&rclk=1",
    "website_url": "http://www.aqua.it/",
    "rating_text": "3,5",
    "stars": null,
    "number_of_reviews": null,
    "price_level": "",
    "open_hours": "",
    "extraction_timestamp": "2025-06-07T17:08:37.073Z",
    "source_name": "google",
    "source_query": "Irrigation Equipment",
    "source_country": "IT",
    "country": "Italy",
    "state": "Emilia-Romagna",
    "city": "Barco"
  },
  {
    "source_id": "ChIJE_3jOnMtfkcRkxtTFj3Ym9E",
    "name": "Irrigation Scarabelli Srl",
    "category": "Irrigation Scarabelli Srl",
    "formatted_address": "4,5(23)",
    "phone_number": "+39051763363",
    "source_url": "https://www.google.com/maps/place/Irrigation+Scarabelli+Srl/data=!4m7!3m6!1s0x477e2d733ae3fd13:0xd19bd83d16531b93!8m2!3d44.5426053!4d11.4189136!16s%2Fg%2F11gzdz6vf!19sChIJE_3jOnMtfkcRkxtTFj3Ym9E?authuser=0&hl=tr&rclk=1",
    "website_url": "",
    "rating_text": "4,5",
    "stars": null,
    "number_of_reviews": null,
    "price_level": "",
    "open_hours": "",
    "extraction_timestamp": "2025-06-07T17:08:37.075Z",
    "source_name": "google",
    "source_query": "Irrigation Equipment",
    "source_country": "IT",
    "country": "Italy",
    "state": "Emilia-Romagna",
    "city": "Barco"
  },
  {
    "source_id": "ChIJJ6V6lMDgf0cR1SpFsfjDuHg",
    "name": "Ocmis Irrigazione Spa",
    "category": "Ocmis Irrigazione Spa",
    "formatted_address": "3,5(31)",
    "phone_number": "+39059702150",
    "source_url": "https://www.google.com/maps/place/Ocmis+Irrigazione+Spa/data=!4m7!3m6!1s0x477fe0c0947aa527:0x78b8c3f8b1452ad5!8m2!3d44.530494!4d10.9794578!16s%2Fg%2F1vd3tn19!19sChIJJ6V6lMDgf0cR1SpFsfjDuHg?authuser=0&hl=tr&rclk=1",
    "website_url": "http://www.ocmis-irrigazione.it/",
    "rating_text": "3,5",
    "stars": null,
    "number_of_reviews": null,
    "price_level": "",
    "open_hours": "",
    "extraction_timestamp": "2025-06-07T17:08:37.077Z",
    "source_name": "google",
    "source_query": "Irrigation Equipment",
    "source_country": "IT",
    "country": "Italy",
    "state": "Emilia-Romagna",
    "city": "Barco"
  },
  {
    "source_id": "ChIJQwuA7P4PgEcRdbXi6m4Avkw",
    "name": "I.S.A. DEL RIO",
    "category": "I.S.A. DEL RIO",
    "formatted_address": "Endüstriyel Ekipman Tedarikçisi ·  · Via Fratelli Corradini, 50/B+39 0522 882306",
    "phone_number": "+390522882306",
    "source_url": "https://www.google.com/maps/place/I.S.A.+DEL+RIO/data=!4m7!3m6!1s0x47800ffeec800b43:0x4cbe006eeae2b575!8m2!3d44.6626104!4d10.4870282!16s%2Fg%2F11h6nnfxss!19sChIJQwuA7P4PgEcRdbXi6m4Avkw?authuser=0&hl=tr&rclk=1",
    "website_url": "http://www.isadelrio.it/",
    "rating_text": "",
    "stars": null,
    "number_of_reviews": null,
    "price_level": "",
    "open_hours": "",
    "extraction_timestamp": "2025-06-07T17:08:37.078Z",
    "source_name": "google",
    "source_query": "Irrigation Equipment",
    "source_country": "IT",
    "country": "Italy",
    "state": "Emilia-Romagna",
    "city": "Barco"
  },
  {
    "source_id": "ChIJoyTJNnUQgEcRQ-UPbHpfry4",
    "name": "Sigma Di Bibbiano Barco",
    "category": "Sigma Di Bibbiano Barco",
    "formatted_address": "4,0(394)",
    "phone_number": "+3905221717275",
    "source_url": "https://www.google.com/maps/place/Sigma+Di+Bibbiano+Barco/data=!4m7!3m6!1s0x4780107536c924a3:0x2eaf5f7a6c0fe543!8m2!3d44.6850499!4d10.498465!16s%2Fg%2F11b_2xxr64!19sChIJoyTJNnUQgEcRQ-UPbHpfry4?authuser=0&hl=tr&rclk=1",
    "website_url": "https://www.supersigma.com/pdv/realc_re_3953",
    "rating_text": "4,0",
    "stars": null,
    "number_of_reviews": null,
    "price_level": "",
    "open_hours": "",
    "extraction_timestamp": "2025-06-07T17:08:37.079Z",
    "source_name": "google",
    "source_query": "Irrigation Equipment",
    "source_country": "IT",
    "country": "Italy",
    "state": "Emilia-Romagna",
    "city": "Barco"
  },
  {
    "source_id": "ChIJh3Nd8G0sfkcR_m7VewEmxXM",
    "name": "Irrigarden",
    "category": "Irrigarden",
    "formatted_address": "4,7(158)",
    "phone_number": "+39051782013",
    "source_url": "https://www.google.com/maps/place/Irrigarden/data=!4m7!3m6!1s0x477e2c6df05d7387:0x73c526017bd56efe!8m2!3d44.5096266!4d11.4390897!16s%2Fg%2F1vgw_l7w!19sChIJh3Nd8G0sfkcR_m7VewEmxXM?authuser=0&hl=tr&rclk=1",
    "website_url": "https://www.irrigarden-bo.it/",
    "rating_text": "4,7",
    "stars": null,
    "number_of_reviews": null,
    "price_level": "",
    "open_hours": "",
    "extraction_timestamp": "2025-06-07T17:08:37.080Z",
    "source_name": "google",
    "source_query": "Irrigation Equipment",
    "source_country": "IT",
    "country": "Italy",
    "state": "Emilia-Romagna",
    "city": "Barco"
  },
  {
    "source_id": "ChIJH-U61HIQgEcRhgqfY_IO0B0",
    "name": "The Yellow that invites Di Pioli Savina",
    "category": "The Yellow that invites Di Pioli Savina",
    "formatted_address": "4,7(140) · €1–10",
    "phone_number": "+390522875950",
    "source_url": "https://www.google.com/maps/place/The+Yellow+that+invites+Di+Pioli+Savina/data=!4m7!3m6!1s0x47801072d43ae51f:0x1dd00ef2639f0a86!8m2!3d44.6854471!4d10.4910539!16s%2Fg%2F11b6jh10z9!19sChIJH-U61HIQgEcRhgqfY_IO0B0?authuser=0&hl=tr&rclk=1",
    "website_url": "",
    "rating_text": "4,7",
    "stars": null,
    "number_of_reviews": null,
    "price_level": "",
    "open_hours": "",
    "extraction_timestamp": "2025-06-07T17:08:37.082Z",
    "source_name": "google",
    "source_query": "Irrigation Equipment",
    "source_country": "IT",
    "country": "Italy",
    "state": "Emilia-Romagna",
    "city": "Barco"
  },
  {
    "source_id": "ChIJQyDw8N_0f0cRhE_m36C06SU",
    "name": "Irrigreen",
    "category": "Irrigreen",
    "formatted_address": "4,3(3)",
    "phone_number": "+390522642318",
    "source_url": "https://www.google.com/maps/place/Irrigreen/data=!4m7!3m6!1s0x477ff4dff0f02043:0x25e9b4a0dfe64f84!8m2!3d45.1836109!4d10.6267461!16s%2Fg%2F1tddwm9t!19sChIJQyDw8N_0f0cRhE_m36C06SU?authuser=0&hl=tr&rclk=1",
    "website_url": "http://www.irrigreen.it/",
    "rating_text": "4,3",
    "stars": null,
    "number_of_reviews": null,
    "price_level": "",
    "open_hours": "",
    "extraction_timestamp": "2025-06-07T17:08:37.083Z",
    "source_name": "google",
    "source_query": "Irrigation Equipment",
    "source_country": "IT",
    "country": "Italy",
    "state": "Emilia-Romagna",
    "city": "Barco"
  },
  {
    "source_id": "ChIJAUxJ7j3df0cRV576jjhogAg",
    "name": "Aldrovandi Srl Sistemi Irrigazione",
    "category": "Aldrovandi Srl Sistemi Irrigazione",
    "formatted_address": "Sulama Ekipmanları Tedarikçisi · Via Giuseppe Verdi, 34Kalıcı olarak kapalı · +39 059 927676",
    "phone_number": "+39059927676",
    "source_url": "https://www.google.com/maps/place/Aldrovandi+Srl+Sistemi+Irrigazione/data=!4m7!3m6!1s0x477fdd3dee494c01:0x88068388efa9e57!8m2!3d44.59442!4d11.0592496!16s%2Fg%2F12hkr2kns!19sChIJAUxJ7j3df0cRV576jjhogAg?authuser=0&hl=tr&rclk=1",
    "website_url": "",
    "rating_text": "",
    "stars": null,
    "number_of_reviews": null,
    "price_level": "",
    "open_hours": "",
    "extraction_timestamp": "2025-06-07T17:08:37.084Z",
    "source_name": "google",
    "source_query": "Irrigation Equipment",
    "source_country": "IT",
    "country": "Italy",
    "state": "Emilia-Romagna",
    "city": "Barco"
  }
]
