[
  {
    "source_id": "ChIJcQG6ul7df0cR3VxKiu5OPBs",
    "name": "Scova Impianti Srl",
    "category": "Scova Impianti Srl",
    "formatted_address": "4,5(64)",
    "phone_number": "+39059923202",
    "source_url": "https://www.google.com/maps/place/Scova+Impianti+Srl/data=!4m7!3m6!1s0x477fdd5ebaba0171:0x1b3c4eee8a4a5cdd!8m2!3d44.6018135!4d11.032294!16s%2Fg%2F1tfzwbfb!19sChIJcQG6ul7df0cR3VxKiu5OPBs?authuser=0&hl=tr&rclk=1",
    "website_url": "https://www.scovaimpianti.com/",
    "rating_text": "4,5",
    "stars": null,
    "number_of_reviews": null,
    "price_level": "",
    "open_hours": "",
    "extraction_timestamp": "2025-06-07T16:37:42.702Z",
    "source_name": "google",
    "source_query": "Irrigation Equipment",
    "source_country": "IT",
    "country": "Italy",
    "state": "Emilia-Romagna",
    "city": "Bastiglia"
  },
  {
    "source_id": "ChIJAUCjYpDpf0cRFKkBBaYRyTQ",
    "name": "FP Modena Srl",
    "category": "FP Modena Srl",
    "formatted_address": "4,6(18)",
    "phone_number": "+39059815121",
    "source_url": "https://www.google.com/maps/place/FP+Modena+Srl/data=!4m7!3m6!1s0x477fe99062a34001:0x34c911a60501a914!8m2!3d44.7297164!4d11.0002061!16s%2Fg%2F12hnq4w5t!19sChIJAUCjYpDpf0cRFKkBBaYRyTQ?authuser=0&hl=tr&rclk=1",
    "website_url": "http://www.fpmodena.it/",
    "rating_text": "4,6",
    "stars": null,
    "number_of_reviews": null,
    "price_level": "",
    "open_hours": "",
    "extraction_timestamp": "2025-06-07T16:37:42.704Z",
    "source_name": "google",
    "source_query": "Irrigation Equipment",
    "source_country": "IT",
    "country": "Italy",
    "state": "Emilia-Romagna",
    "city": "Bastiglia"
  },
  {
    "source_id": "ChIJJ6V6lMDgf0cR1SpFsfjDuHg",
    "name": "Ocmis Irrigazione Spa",
    "category": "Ocmis Irrigazione Spa",
    "formatted_address": "3,5(31)",
    "phone_number": "+39059702150",
    "source_url": "https://www.google.com/maps/place/Ocmis+Irrigazione+Spa/data=!4m7!3m6!1s0x477fe0c0947aa527:0x78b8c3f8b1452ad5!8m2!3d44.530494!4d10.9794578!16s%2Fg%2F1vd3tn19!19sChIJJ6V6lMDgf0cR1SpFsfjDuHg?authuser=0&hl=tr&rclk=1",
    "website_url": "http://www.ocmis-irrigazione.it/",
    "rating_text": "3,5",
    "stars": null,
    "number_of_reviews": null,
    "price_level": "",
    "open_hours": "",
    "extraction_timestamp": "2025-06-07T16:37:42.706Z",
    "source_name": "google",
    "source_query": "Irrigation Equipment",
    "source_country": "IT",
    "country": "Italy",
    "state": "Emilia-Romagna",
    "city": "Bastiglia"
  },
  {
    "source_id": "ChIJHQGz6dXof0cRPD2igQWHtxo",
    "name": "Hidrostar",
    "category": "Hidrostar",
    "formatted_address": "4,8(33)",
    "phone_number": "+39059251056",
    "source_url": "https://www.google.com/maps/place/Hidrostar/data=!4m7!3m6!1s0x477fe8d5e9b3011d:0x1ab7870581a23d3c!8m2!3d44.6584919!4d10.9641811!16s%2Fg%2F1tf9rp0c!19sChIJHQGz6dXof0cRPD2igQWHtxo?authuser=0&hl=tr&rclk=1",
    "website_url": "http://www.hidrostar.it/",
    "rating_text": "4,8",
    "stars": null,
    "number_of_reviews": null,
    "price_level": "",
    "open_hours": "",
    "extraction_timestamp": "2025-06-07T16:37:42.708Z",
    "source_name": "google",
    "source_query": "Irrigation Equipment",
    "source_country": "IT",
    "country": "Italy",
    "state": "Emilia-Romagna",
    "city": "Bastiglia"
  },
  {
    "source_id": "ChIJOcjeFXjrf0cRWWwtHYQxPbk",
    "name": "IME IMPIANTI - Impianti frigoriferi e di climatizzazione Modena",
    "category": "IME IMPIANTI - Impianti frigoriferi e di climatizzazione Modena",
    "formatted_address": "5,0(3)",
    "phone_number": "+39059904855",
    "source_url": "https://www.google.com/maps/place/IME+IMPIANTI+-+Impianti+frigoriferi+e+di+climatizzazione+Modena/data=!4m7!3m6!1s0x477feb7815dec839:0xb93d31841d2d6c59!8m2!3d44.7310626!4d11.0017344!16s%2Fg%2F1ptv_7m32!19sChIJOcjeFXjrf0cRWWwtHYQxPbk?authuser=0&hl=tr&rclk=1",
    "website_url": "https://ime-impianti.net/",
    "rating_text": "5,0",
    "stars": null,
    "number_of_reviews": null,
    "price_level": "",
    "open_hours": "",
    "extraction_timestamp": "2025-06-07T16:37:42.710Z",
    "source_name": "google",
    "source_query": "Irrigation Equipment",
    "source_country": "IT",
    "country": "Italy",
    "state": "Emilia-Romagna",
    "city": "Bastiglia"
  },
  {
    "source_id": "ChIJb_LkO5zrf0cRavumiWlyWyM",
    "name": "Magnum Fluid Power Srl",
    "category": "Magnum Fluid Power Srl",
    "formatted_address": "Endüstriyel Ekipman Tedarikçisi ·  · Via dell'Artigianato, 22Kapalı ⋅ Açılış zamanı: Pzt 08:30 · +39 059 838 4117",
    "phone_number": "+390598384117",
    "source_url": "https://www.google.com/maps/place/Magnum+Fluid+Power+Srl/data=!4m7!3m6!1s0x477feb9c3be4f26f:0x235b726989a6fb6a!8m2!3d44.7281041!4d11.002805!16s%2Fg%2F11h6nmn09n!19sChIJb_LkO5zrf0cRavumiWlyWyM?authuser=0&hl=tr&rclk=1",
    "website_url": "http://www.magnumfp.it/",
    "rating_text": "",
    "stars": null,
    "number_of_reviews": null,
    "price_level": "",
    "open_hours": "",
    "extraction_timestamp": "2025-06-07T16:37:42.711Z",
    "source_name": "google",
    "source_query": "Irrigation Equipment",
    "source_country": "IT",
    "country": "Italy",
    "state": "Emilia-Romagna",
    "city": "Bastiglia"
  },
  {
    "source_id": "ChIJEz21Bn3pf0cR3WUf4Kmr0t4",
    "name": "Tecnosald Emilia Srl",
    "category": "Tecnosald Emilia Srl",
    "formatted_address": "4,5(2)",
    "phone_number": "+39059909958",
    "source_url": "https://www.google.com/maps/place/Tecnosald+Emilia+Srl/data=!4m7!3m6!1s0x477fe97d06b53d13:0xded2aba9e01f65dd!8m2!3d44.690182!4d11.0099231!16s%2Fg%2F1tdwtjlj!19sChIJEz21Bn3pf0cR3WUf4Kmr0t4?authuser=0&hl=tr&rclk=1",
    "website_url": "http://www.tecnosald.com/",
    "rating_text": "4,5",
    "stars": null,
    "number_of_reviews": null,
    "price_level": "",
    "open_hours": "",
    "extraction_timestamp": "2025-06-07T16:37:42.713Z",
    "source_name": "google",
    "source_query": "Irrigation Equipment",
    "source_country": "IT",
    "country": "Italy",
    "state": "Emilia-Romagna",
    "city": "Bastiglia"
  },
  {
    "source_id": "ChIJE_3jOnMtfkcRkxtTFj3Ym9E",
    "name": "Irrigation Scarabelli Srl",
    "category": "Irrigation Scarabelli Srl",
    "formatted_address": "4,5(23)",
    "phone_number": "+39051763363",
    "source_url": "https://www.google.com/maps/place/Irrigation+Scarabelli+Srl/data=!4m7!3m6!1s0x477e2d733ae3fd13:0xd19bd83d16531b93!8m2!3d44.5426053!4d11.4189136!16s%2Fg%2F11gzdz6vf!19sChIJE_3jOnMtfkcRkxtTFj3Ym9E?authuser=0&hl=tr&rclk=1",
    "website_url": "",
    "rating_text": "4,5",
    "stars": null,
    "number_of_reviews": null,
    "price_level": "",
    "open_hours": "",
    "extraction_timestamp": "2025-06-07T16:37:42.715Z",
    "source_name": "google",
    "source_query": "Irrigation Equipment",
    "source_country": "IT",
    "country": "Italy",
    "state": "Emilia-Romagna",
    "city": "Bastiglia"
  },
  {
    "source_id": "ChIJV02TC0qNf0cRlaeibvnDnEw",
    "name": "TECMODENA Group srl: Guarnizioni piane - Espansi Termoisolanti - Interno Packaging - Waterjet, Taglio a getto d'acqua",
    "category": "TECMODENA Group srl: Guarnizioni piane - Espansi Termoisolanti - Interno Packaging - Waterjet, Taglio a getto d'acqua",
    "formatted_address": "TECMODENA Group srl: Guarnizioni piane - Espansi Termoisolanti - Interno Packaging - Waterjet, Taglio a getto d'acqua",
    "phone_number": "+39059566551",
    "source_url": "https://www.google.com/maps/place/TECMODENA+Group+srl:+Guarnizioni+piane+-+Espansi+Termoisolanti+-+Interno+Packaging+-+Waterjet,+Taglio+a+getto+d%27acqua/data=!4m7!3m6!1s0x477f8d4a0b934d57:0x4c9cc3f96ea2a795!8m2!3d44.7266063!4d10.9167357!16s%2Fg%2F1tf74cnn!19sChIJV02TC0qNf0cRlaeibvnDnEw?authuser=0&hl=tr&rclk=1",
    "website_url": "http://www.tecmodena.it/",
    "rating_text": "5,0",
    "stars": null,
    "number_of_reviews": null,
    "price_level": "",
    "open_hours": "",
    "extraction_timestamp": "2025-06-07T16:37:42.716Z",
    "source_name": "google",
    "source_query": "Irrigation Equipment",
    "source_country": "IT",
    "country": "Italy",
    "state": "Emilia-Romagna",
    "city": "Bastiglia"
  },
  {
    "source_id": "ChIJhT-kpAXff0cRKJQqKYwIulA",
    "name": "Irrigo",
    "category": "Irrigo",
    "formatted_address": "4,7(36)",
    "phone_number": "+393473096499",
    "source_url": "https://www.google.com/maps/place/Irrigo/data=!4m7!3m6!1s0x477fdf05a4a43f85:0x50ba088c292a9428!8m2!3d44.5018172!4d11.005272!16s%2Fg%2F11hdjcp5pk!19sChIJhT-kpAXff0cRKJQqKYwIulA?authuser=0&hl=tr&rclk=1",
    "website_url": "https://www.irrigovignola.it/",
    "rating_text": "4,7",
    "stars": null,
    "number_of_reviews": null,
    "price_level": "",
    "open_hours": "",
    "extraction_timestamp": "2025-06-07T16:37:42.717Z",
    "source_name": "google",
    "source_query": "Irrigation Equipment",
    "source_country": "IT",
    "country": "Italy",
    "state": "Emilia-Romagna",
    "city": "Bastiglia"
  },
  {
    "source_id": "ChIJJ6V6lMDgf0cRkL2jf5B3MwQ",
    "name": "Scova Engineering Spa",
    "category": "Scova Engineering Spa",
    "formatted_address": "5,0(2)",
    "phone_number": "+39059702012",
    "source_url": "https://www.google.com/maps/place/Scova+Engineering+Spa/data=!4m7!3m6!1s0x477fe0c0947aa527:0x43377907fa3bd90!8m2!3d44.5304758!4d10.9796265!16s%2Fg%2F1tql3mky!19sChIJJ6V6lMDgf0cRkL2jf5B3MwQ?authuser=0&hl=tr&rclk=1",
    "website_url": "https://www.scova-engineering.it/",
    "rating_text": "5,0",
    "stars": null,
    "number_of_reviews": null,
    "price_level": "",
    "open_hours": "",
    "extraction_timestamp": "2025-06-07T16:37:42.718Z",
    "source_name": "google",
    "source_query": "Irrigation Equipment",
    "source_country": "IT",
    "country": "Italy",
    "state": "Emilia-Romagna",
    "city": "Bastiglia"
  },
  {
    "source_id": "ChIJAUxJ7j3df0cRV576jjhogAg",
    "name": "Aldrovandi Srl Sistemi Irrigazione",
    "category": "Aldrovandi Srl Sistemi Irrigazione",
    "formatted_address": "Sulama Ekipmanları Tedarikçisi · Via Giuseppe Verdi, 34Kalıcı olarak kapalı · +39 059 927676",
    "phone_number": "+39059927676",
    "source_url": "https://www.google.com/maps/place/Aldrovandi+Srl+Sistemi+Irrigazione/data=!4m7!3m6!1s0x477fdd3dee494c01:0x88068388efa9e57!8m2!3d44.59442!4d11.0592496!16s%2Fg%2F12hkr2kns!19sChIJAUxJ7j3df0cRV576jjhogAg?authuser=0&hl=tr&rclk=1",
    "website_url": "",
    "rating_text": "",
    "stars": null,
    "number_of_reviews": null,
    "price_level": "",
    "open_hours": "",
    "extraction_timestamp": "2025-06-07T16:37:42.720Z",
    "source_name": "google",
    "source_query": "Irrigation Equipment",
    "source_country": "IT",
    "country": "Italy",
    "state": "Emilia-Romagna",
    "city": "Bastiglia"
  }
]
