[
  {
    "source_id": "ChIJNdkI15jMKhMR0pvkGYU1wA8",
    "name": "VI-BO s.r.l.",
    "category": "VI-BO s.r.l.",
    "formatted_address": "4,4(61)",
    "phone_number": "+39051831443",
    "source_url": "https://www.google.com/maps/place/VI-BO+s.r.l./data=!4m7!3m6!1s0x132acc98d708d935:0xfc0358519e49bd2!8m2!3d44.5068134!4d11.0738512!16s%2Fg%2F11b6jh6jxk!19sChIJNdkI15jMKhMR0pvkGYU1wA8?authuser=0&hl=tr&rclk=1",
    "website_url": "http://www.vibogreen.it/",
    "rating_text": "4,4",
    "stars": null,
    "number_of_reviews": null,
    "price_level": "",
    "open_hours": "",
    "extraction_timestamp": "2025-06-07T15:47:14.097Z",
    "source_name": "google",
    "source_query": "Irrigation Equipment",
    "source_country": "IT",
    "country": "Italy",
    "state": "Emilia-Romagna",
    "city": "Bazzano"
  },
  {
    "source_id": "ChIJ3ayFgy3Zf0cRPkLEEEh2n6U",
    "name": "Consorzio Agrario dell'Emilia Soc.Coop.",
    "category": "Consorzio Agrario dell'Emilia Soc.Coop.",
    "formatted_address": "4,2(47)",
    "phone_number": "+39051831140",
    "source_url": "https://www.google.com/maps/place/Consorzio+Agrario+dell%27Emilia+Soc.Coop./data=!4m7!3m6!1s0x477fd92d8385acdd:0xa59f764810c4423e!8m2!3d44.5061861!4d11.0915794!16s%2Fg%2F1tdmtgk9!19sChIJ3ayFgy3Zf0cRPkLEEEh2n6U?authuser=0&hl=tr&rclk=1",
    "website_url": "http://www.caemilia.it/sedi/scheda/id/30",
    "rating_text": "4,2",
    "stars": null,
    "number_of_reviews": null,
    "price_level": "",
    "open_hours": "",
    "extraction_timestamp": "2025-06-07T15:47:14.098Z",
    "source_name": "google",
    "source_query": "Irrigation Equipment",
    "source_country": "IT",
    "country": "Italy",
    "state": "Emilia-Romagna",
    "city": "Bazzano"
  },
  {
    "source_id": "ChIJyS1kg9vef0cR4HmiUpcRdKs",
    "name": "Gruppo Ciicai - magazzino di Bazzano",
    "category": "Gruppo Ciicai - magazzino di Bazzano",
    "formatted_address": "4,5(33)",
    "phone_number": "+39051833661",
    "source_url": "https://www.google.com/maps/place/Gruppo+Ciicai+-+magazzino+di+Bazzano/data=!4m7!3m6!1s0x477fdedb83642dc9:0xab74119752a279e0!8m2!3d44.5057716!4d11.0715198!16s%2Fg%2F1vvywy7z!19sChIJyS1kg9vef0cR4HmiUpcRdKs?authuser=0&hl=tr&rclk=1",
    "website_url": "https://www.ciicai.com/magazzini/bazzano?utm_source=google&utm_medium=gmb&utm_campaign=m_bazzano",
    "rating_text": "4,5",
    "stars": null,
    "number_of_reviews": null,
    "price_level": "",
    "open_hours": "",
    "extraction_timestamp": "2025-06-07T15:47:14.099Z",
    "source_name": "google",
    "source_query": "Irrigation Equipment",
    "source_country": "IT",
    "country": "Italy",
    "state": "Emilia-Romagna",
    "city": "Bazzano"
  },
  {
    "source_id": "ChIJE_3jOnMtfkcRkxtTFj3Ym9E",
    "name": "Irrigation Scarabelli Srl",
    "category": "Irrigation Scarabelli Srl",
    "formatted_address": "4,5(23)",
    "phone_number": "+39051763363",
    "source_url": "https://www.google.com/maps/place/Irrigation+Scarabelli+Srl/data=!4m7!3m6!1s0x477e2d733ae3fd13:0xd19bd83d16531b93!8m2!3d44.5426053!4d11.4189136!16s%2Fg%2F11gzdz6vf!19sChIJE_3jOnMtfkcRkxtTFj3Ym9E?authuser=0&hl=tr&rclk=1",
    "website_url": "",
    "rating_text": "4,5",
    "stars": null,
    "number_of_reviews": null,
    "price_level": "",
    "open_hours": "",
    "extraction_timestamp": "2025-06-07T15:47:14.123Z",
    "source_name": "google",
    "source_query": "Irrigation Equipment",
    "source_country": "IT",
    "country": "Italy",
    "state": "Emilia-Romagna",
    "city": "Bazzano"
  },
  {
    "source_id": "ChIJcQG6ul7df0cR3VxKiu5OPBs",
    "name": "Scova Impianti Srl",
    "category": "Scova Impianti Srl",
    "formatted_address": "4,5(64)",
    "phone_number": "+39059923202",
    "source_url": "https://www.google.com/maps/place/Scova+Impianti+Srl/data=!4m7!3m6!1s0x477fdd5ebaba0171:0x1b3c4eee8a4a5cdd!8m2!3d44.6018135!4d11.032294!16s%2Fg%2F1tfzwbfb!19sChIJcQG6ul7df0cR3VxKiu5OPBs?authuser=0&hl=tr&rclk=1",
    "website_url": "https://www.scovaimpianti.com/",
    "rating_text": "4,5",
    "stars": null,
    "number_of_reviews": null,
    "price_level": "",
    "open_hours": "",
    "extraction_timestamp": "2025-06-07T15:47:14.124Z",
    "source_name": "google",
    "source_query": "Irrigation Equipment",
    "source_country": "IT",
    "country": "Italy",
    "state": "Emilia-Romagna",
    "city": "Bazzano"
  },
  {
    "source_id": "ChIJyTwuGJ3Vf0cRHJXFjtTz0dQ",
    "name": "La Sorgente di Rossi Francesco & C. SaS",
    "category": "La Sorgente di Rossi Francesco & C. SaS",
    "formatted_address": "4,2(25)",
    "phone_number": "+393274537604",
    "source_url": "https://www.google.com/maps/place/La+Sorgente+di+Rossi+Francesco+%26+C.+SaS/data=!4m7!3m6!1s0x477fd59d182e3cc9:0xd4d1f3d48ec5951c!8m2!3d44.5050915!4d11.0824397!16s%2Fg%2F11gts9cjjg!19sChIJyTwuGJ3Vf0cRHJXFjtTz0dQ?authuser=0&hl=tr&rclk=1",
    "website_url": "https://www.idraulicalasorgente.com/",
    "rating_text": "4,2",
    "stars": null,
    "number_of_reviews": null,
    "price_level": "",
    "open_hours": "",
    "extraction_timestamp": "2025-06-07T15:47:14.125Z",
    "source_name": "google",
    "source_query": "Irrigation Equipment",
    "source_country": "IT",
    "country": "Italy",
    "state": "Emilia-Romagna",
    "city": "Bazzano"
  },
  {
    "source_id": "ChIJhT-kpAXff0cRKJQqKYwIulA",
    "name": "Irrigo",
    "category": "Irrigo",
    "formatted_address": "4,7(36)",
    "phone_number": "+393473096499",
    "source_url": "https://www.google.com/maps/place/Irrigo/data=!4m7!3m6!1s0x477fdf05a4a43f85:0x50ba088c292a9428!8m2!3d44.5018172!4d11.005272!16s%2Fg%2F11hdjcp5pk!19sChIJhT-kpAXff0cRKJQqKYwIulA?authuser=0&hl=tr&rclk=1",
    "website_url": "https://www.irrigovignola.it/",
    "rating_text": "4,7",
    "stars": null,
    "number_of_reviews": null,
    "price_level": "",
    "open_hours": "",
    "extraction_timestamp": "2025-06-07T15:47:14.126Z",
    "source_name": "google",
    "source_query": "Irrigation Equipment",
    "source_country": "IT",
    "country": "Italy",
    "state": "Emilia-Romagna",
    "city": "Bazzano"
  },
  {
    "source_id": "ChIJh3Nd8G0sfkcR_m7VewEmxXM",
    "name": "Irrigarden",
    "category": "Irrigarden",
    "formatted_address": "4,7(158)",
    "phone_number": "+39051782013",
    "source_url": "https://www.google.com/maps/place/Irrigarden/data=!4m7!3m6!1s0x477e2c6df05d7387:0x73c526017bd56efe!8m2!3d44.5096266!4d11.4390897!16s%2Fg%2F1vgw_l7w!19sChIJh3Nd8G0sfkcR_m7VewEmxXM?authuser=0&hl=tr&rclk=1",
    "website_url": "https://www.irrigarden-bo.it/",
    "rating_text": "4,7",
    "stars": null,
    "number_of_reviews": null,
    "price_level": "",
    "open_hours": "",
    "extraction_timestamp": "2025-06-07T15:47:14.127Z",
    "source_name": "google",
    "source_query": "Irrigation Equipment",
    "source_country": "IT",
    "country": "Italy",
    "state": "Emilia-Romagna",
    "city": "Bazzano"
  },
  {
    "source_id": "ChIJ43swexjZf0cRoMuBym1AEeY",
    "name": "Idrotermica DND",
    "category": "Idrotermica DND",
    "formatted_address": "3,7(6)",
    "phone_number": "+39051831223",
    "source_url": "https://www.google.com/maps/place/Idrotermica+DND/data=!4m7!3m6!1s0x477fd9187b307be3:0xe611406dca81cba0!8m2!3d44.5069765!4d11.0978181!16s%2Fg%2F11khy1cqvk!19sChIJ43swexjZf0cRoMuBym1AEeY?authuser=0&hl=tr&rclk=1",
    "website_url": "",
    "rating_text": "3,7",
    "stars": null,
    "number_of_reviews": null,
    "price_level": "",
    "open_hours": "",
    "extraction_timestamp": "2025-06-07T15:47:14.128Z",
    "source_name": "google",
    "source_query": "Irrigation Equipment",
    "source_country": "IT",
    "country": "Italy",
    "state": "Emilia-Romagna",
    "city": "Bazzano"
  },
  {
    "source_id": "ChIJJcuBAuvff0cR0Uo2xYYzXWk",
    "name": "CFC S.R.L. Termoidraulica e Condizionamento",
    "category": "CFC S.R.L. Termoidraulica e Condizionamento",
    "formatted_address": "5,0(1)",
    "phone_number": "+390514843390",
    "source_url": "https://www.google.com/maps/place/CFC+S.R.L.+Termoidraulica+e+Condizionamento/data=!4m7!3m6!1s0x477fdfeb0281cb25:0x695d3386c5364ad1!8m2!3d44.5128595!4d11.0753764!16s%2Fg%2F11x6nqy8hr!19sChIJJcuBAuvff0cR0Uo2xYYzXWk?authuser=0&hl=tr&rclk=1",
    "website_url": "",
    "rating_text": "5,0",
    "stars": null,
    "number_of_reviews": null,
    "price_level": "",
    "open_hours": "",
    "extraction_timestamp": "2025-06-07T15:47:14.129Z",
    "source_name": "google",
    "source_query": "Irrigation Equipment",
    "source_country": "IT",
    "country": "Italy",
    "state": "Emilia-Romagna",
    "city": "Bazzano"
  },
  {
    "source_id": "ChIJM0y8HR_ff0cR2BTQUaSJrJQ",
    "name": "Gruppo Ciicai - showroom di Bazzano",
    "category": "Gruppo Ciicai - showroom di Bazzano",
    "formatted_address": "4,4(10)",
    "phone_number": "+39051833661",
    "source_url": "https://www.google.com/maps/place/Gruppo+Ciicai+-+showroom+di+Bazzano/data=!4m7!3m6!1s0x477fdf1f1dbc4c33:0x94ac89a451d014d8!8m2!3d44.505781!4d11.0715466!16s%2Fg%2F11f9j8fglx!19sChIJM0y8HR_ff0cR2BTQUaSJrJQ?authuser=0&hl=tr&rclk=1",
    "website_url": "https://www.ciicai.com/showroom/bazzano",
    "rating_text": "4,4",
    "stars": null,
    "number_of_reviews": null,
    "price_level": "",
    "open_hours": "",
    "extraction_timestamp": "2025-06-07T15:47:14.131Z",
    "source_name": "google",
    "source_query": "Irrigation Equipment",
    "source_country": "IT",
    "country": "Italy",
    "state": "Emilia-Romagna",
    "city": "Bazzano"
  },
  {
    "source_id": "ChIJY8FBrcTef0cRSJQMsqNQ8uw",
    "name": "L.D. Idrosanitari di De Maria Lorenzo & C. srl",
    "category": "L.D. Idrosanitari di De Maria Lorenzo & C. srl",
    "formatted_address": "5,0(4)",
    "phone_number": "+39051831763",
    "source_url": "https://www.google.com/maps/place/L.D.+Idrosanitari+di+De+Maria+Lorenzo+%26+C.+srl/data=!4m7!3m6!1s0x477fdec4ad41c163:0xecf250a3b20c9448!8m2!3d44.5089172!4d11.0729333!16s%2Fg%2F11c32jz64p!19sChIJY8FBrcTef0cRSJQMsqNQ8uw?authuser=0&hl=tr&rclk=1",
    "website_url": "",
    "rating_text": "5,0",
    "stars": null,
    "number_of_reviews": null,
    "price_level": "",
    "open_hours": "",
    "extraction_timestamp": "2025-06-07T15:47:14.132Z",
    "source_name": "google",
    "source_query": "Irrigation Equipment",
    "source_country": "IT",
    "country": "Italy",
    "state": "Emilia-Romagna",
    "city": "Bazzano"
  },
  {
    "source_id": "ChIJ_SYf2IMsfkcRVw9xVhrnjyI",
    "name": "Irrigazione Bragaglia",
    "category": "Irrigazione Bragaglia",
    "formatted_address": "4,7(30)",
    "phone_number": "+39051534865",
    "source_url": "https://www.google.com/maps/place/Irrigazione+Bragaglia/data=!4m7!3m6!1s0x477e2c83d81f26fd:0x228fe71a56710f57!8m2!3d44.5053735!4d11.412403!16s%2Fg%2F1vp6z0gf!19sChIJ_SYf2IMsfkcRVw9xVhrnjyI?authuser=0&hl=tr&rclk=1",
    "website_url": "http://www.irrigazionebragaglia.it/",
    "rating_text": "4,7",
    "stars": null,
    "number_of_reviews": null,
    "price_level": "",
    "open_hours": "",
    "extraction_timestamp": "2025-06-07T15:47:14.133Z",
    "source_name": "google",
    "source_query": "Irrigation Equipment",
    "source_country": "IT",
    "country": "Italy",
    "state": "Emilia-Romagna",
    "city": "Bazzano"
  },
  {
    "source_id": "ChIJ7fvZas7ef0cR4O-2kIX21Ng",
    "name": "Ferramenta La Pesa di Pescari Daniele snc di Pescari Carlo",
    "category": "Ferramenta La Pesa di Pescari Daniele snc di Pescari Carlo",
    "formatted_address": "4,5(112)",
    "phone_number": "+39051830978",
    "source_url": "https://www.google.com/maps/place/Ferramenta+La+Pesa+di+Pescari+Daniele+snc+di+Pescari+Carlo/data=!4m7!3m6!1s0x477fdece6ad9fbed:0xd8d4f68590b6efe0!8m2!3d44.5087354!4d11.0821071!16s%2Fg%2F11c6dg867k!19sChIJ7fvZas7ef0cR4O-2kIX21Ng?authuser=0&hl=tr&rclk=1",
    "website_url": "https://www.instagram.com/ferramentalapesabazzano?igsh=MXdkaGx3cmJ0aTUycQ%3D%3D&utm_source=qr",
    "rating_text": "4,5",
    "stars": null,
    "number_of_reviews": null,
    "price_level": "",
    "open_hours": "",
    "extraction_timestamp": "2025-06-07T15:47:14.134Z",
    "source_name": "google",
    "source_query": "Irrigation Equipment",
    "source_country": "IT",
    "country": "Italy",
    "state": "Emilia-Romagna",
    "city": "Bazzano"
  },
  {
    "source_id": "ChIJbzLJMpHYf0cRCyYAAxf9PXM",
    "name": "Junior Garden Srl",
    "category": "Junior Garden Srl",
    "formatted_address": "4,5(17)",
    "phone_number": "+390510380617",
    "source_url": "https://www.google.com/maps/place/Junior+Garden+Srl/data=!4m7!3m6!1s0x477fd89132c9326f:0x733dfd170300260b!8m2!3d44.4978295!4d11.1084233!16s%2Fg%2F1td9pcqv!19sChIJbzLJMpHYf0cRCyYAAxf9PXM?authuser=0&hl=tr&rclk=1",
    "website_url": "https://www.juniorgarden.it/",
    "rating_text": "4,5",
    "stars": null,
    "number_of_reviews": null,
    "price_level": "",
    "open_hours": "",
    "extraction_timestamp": "2025-06-07T15:47:14.135Z",
    "source_name": "google",
    "source_query": "Irrigation Equipment",
    "source_country": "IT",
    "country": "Italy",
    "state": "Emilia-Romagna",
    "city": "Bazzano"
  },
  {
    "source_id": "ChIJ6VM8sbHZf0cR4ViEe1hnT1k",
    "name": "Ferramenta Emiliana",
    "category": "Ferramenta Emiliana",
    "formatted_address": "4,4(69)",
    "phone_number": "+390516592414",
    "source_url": "https://www.google.com/maps/place/Ferramenta+Emiliana/data=!4m7!3m6!1s0x477fd9b1b13c53e9:0x594f67587b8458e1!8m2!3d44.5056264!4d11.0938486!16s%2Fg%2F11h8043yl2!19sChIJ6VM8sbHZf0cR4ViEe1hnT1k?authuser=0&hl=tr&rclk=1",
    "website_url": "",
    "rating_text": "4,4",
    "stars": null,
    "number_of_reviews": null,
    "price_level": "",
    "open_hours": "",
    "extraction_timestamp": "2025-06-07T15:47:14.136Z",
    "source_name": "google",
    "source_query": "Irrigation Equipment",
    "source_country": "IT",
    "country": "Italy",
    "state": "Emilia-Romagna",
    "city": "Bazzano"
  },
  {
    "source_id": "ChIJ5U4rJy7Zf0cRi9rCbjQShBo",
    "name": "Vip Casa",
    "category": "Vip Casa",
    "formatted_address": "4,6(44)",
    "phone_number": "+39051831816",
    "source_url": "https://www.google.com/maps/place/Vip+Casa/data=!4m7!3m6!1s0x477fd92e272b4ee5:0x1a8412346ec2da8b!8m2!3d44.5063247!4d11.0958814!16s%2Fg%2F1v3kgbv4!19sChIJ5U4rJy7Zf0cRi9rCbjQShBo?authuser=0&hl=tr&rclk=1",
    "website_url": "https://vipcasa.it/",
    "rating_text": "4,6",
    "stars": null,
    "number_of_reviews": null,
    "price_level": "",
    "open_hours": "",
    "extraction_timestamp": "2025-06-07T15:47:14.137Z",
    "source_name": "google",
    "source_query": "Irrigation Equipment",
    "source_country": "IT",
    "country": "Italy",
    "state": "Emilia-Romagna",
    "city": "Bazzano"
  },
  {
    "source_id": "ChIJJ6V6lMDgf0cR1SpFsfjDuHg",
    "name": "Ocmis Irrigazione Spa",
    "category": "Ocmis Irrigazione Spa",
    "formatted_address": "3,5(31)",
    "phone_number": "+39059702150",
    "source_url": "https://www.google.com/maps/place/Ocmis+Irrigazione+Spa/data=!4m7!3m6!1s0x477fe0c0947aa527:0x78b8c3f8b1452ad5!8m2!3d44.530494!4d10.9794578!16s%2Fg%2F1vd3tn19!19sChIJJ6V6lMDgf0cR1SpFsfjDuHg?authuser=0&hl=tr&rclk=1",
    "website_url": "http://www.ocmis-irrigazione.it/",
    "rating_text": "3,5",
    "stars": null,
    "number_of_reviews": null,
    "price_level": "",
    "open_hours": "",
    "extraction_timestamp": "2025-06-07T15:47:14.138Z",
    "source_name": "google",
    "source_query": "Irrigation Equipment",
    "source_country": "IT",
    "country": "Italy",
    "state": "Emilia-Romagna",
    "city": "Bazzano"
  },
  {
    "source_id": "ChIJYXP1itHef0cRY6ETpGmUG9I",
    "name": "Erboristeria Liquirizia - Benessere Salino",
    "category": "Erboristeria Liquirizia - Benessere Salino",
    "formatted_address": "4,8(31)",
    "phone_number": "+393479236420",
    "source_url": "https://www.google.com/maps/place/Erboristeria+Liquirizia+-+Benessere+Salino/data=!4m7!3m6!1s0x477fded18af57361:0xd21b9469a413a163!8m2!3d44.5069517!4d11.0820595!16s%2Fg%2F11h0qkh1m!19sChIJYXP1itHef0cRY6ETpGmUG9I?authuser=0&hl=tr&rclk=1",
    "website_url": "",
    "rating_text": "4,8",
    "stars": null,
    "number_of_reviews": null,
    "price_level": "",
    "open_hours": "",
    "extraction_timestamp": "2025-06-07T15:47:14.139Z",
    "source_name": "google",
    "source_query": "Irrigation Equipment",
    "source_country": "IT",
    "country": "Italy",
    "state": "Emilia-Romagna",
    "city": "Bazzano"
  },
  {
    "source_id": "ChIJBylLbdPef0cR19RquuL7ZIw",
    "name": "Sanitaria Valsamoggia di Turatti Chiara",
    "category": "Sanitaria Valsamoggia di Turatti Chiara",
    "formatted_address": "4,6(19)",
    "phone_number": "+39051834020",
    "source_url": "https://www.google.com/maps/place/Sanitaria+Valsamoggia+di+Turatti+Chiara/data=!4m7!3m6!1s0x477fded36d4b2907:0x8c64fbe2ba6ad4d7!8m2!3d44.5036312!4d11.0856953!16s%2Fg%2F11bwgwfdt7!19sChIJBylLbdPef0cR19RquuL7ZIw?authuser=0&hl=tr&rclk=1",
    "website_url": "http://sanitariavalsamoggia.it/",
    "rating_text": "4,6",
    "stars": null,
    "number_of_reviews": null,
    "price_level": "",
    "open_hours": "",
    "extraction_timestamp": "2025-06-07T15:47:14.139Z",
    "source_name": "google",
    "source_query": "Irrigation Equipment",
    "source_country": "IT",
    "country": "Italy",
    "state": "Emilia-Romagna",
    "city": "Bazzano"
  },
  {
    "source_id": "ChIJxfUIjO7Zf0cRbVQeDK-zpgU",
    "name": "MOP Crespellano",
    "category": "MOP Crespellano",
    "formatted_address": "3,8(1.066)",
    "phone_number": "+390516713535",
    "source_url": "https://www.google.com/maps/place/MOP+Crespellano/data=!4m7!3m6!1s0x477fd9ee8c08f5c5:0x5a6b3af0c1e546d!8m2!3d44.5131056!4d11.1690134!16s%2Fg%2F1thvrjv7!19sChIJxfUIjO7Zf0cRbVQeDK-zpgU?authuser=0&hl=tr&rclk=1",
    "website_url": "http://www.magazzinimop.it/",
    "rating_text": "3,8",
    "stars": null,
    "number_of_reviews": null,
    "price_level": "",
    "open_hours": "",
    "extraction_timestamp": "2025-06-07T15:47:14.141Z",
    "source_name": "google",
    "source_query": "Irrigation Equipment",
    "source_country": "IT",
    "country": "Italy",
    "state": "Emilia-Romagna",
    "city": "Bazzano"
  },
  {
    "source_id": "ChIJA48bp-zuf0cR5X_1epiGBsI",
    "name": "Usco Spa",
    "category": "Usco Spa",
    "formatted_address": "4,1(292)",
    "phone_number": "+390599780111",
    "source_url": "https://www.google.com/maps/place/Usco+Spa/data=!4m7!3m6!1s0x477feeeca71b8f03:0xc20686987af57fe5!8m2!3d44.6796173!4d10.9388601!16s%2Fg%2F1tfpnk4c!19sChIJA48bp-zuf0cR5X_1epiGBsI?authuser=0&hl=tr&rclk=1",
    "website_url": "https://www.usco.it/",
    "rating_text": "4,1",
    "stars": null,
    "number_of_reviews": null,
    "price_level": "",
    "open_hours": "",
    "extraction_timestamp": "2025-06-07T15:47:14.143Z",
    "source_name": "google",
    "source_query": "Irrigation Equipment",
    "source_country": "IT",
    "country": "Italy",
    "state": "Emilia-Romagna",
    "city": "Bazzano"
  },
  {
    "source_id": "ChIJgVjbdx7df0cRsMjOLRKEzBA",
    "name": "Geocentro",
    "category": "Geocentro",
    "formatted_address": "4,4(87)",
    "phone_number": "+39059926168",
    "source_url": "https://www.google.com/maps/place/Geocentro/data=!4m7!3m6!1s0x477fdd1e77db5881:0x10cc84122dcec8b0!8m2!3d44.5868616!4d11.070717!16s%2Fg%2F11cn3ph0_q!19sChIJgVjbdx7df0cRsMjOLRKEzBA?authuser=0&hl=tr&rclk=1",
    "website_url": "https://www.geocentrosrl.it/",
    "rating_text": "4,4",
    "stars": null,
    "number_of_reviews": null,
    "price_level": "",
    "open_hours": "",
    "extraction_timestamp": "2025-06-07T15:47:14.144Z",
    "source_name": "google",
    "source_query": "Irrigation Equipment",
    "source_country": "IT",
    "country": "Italy",
    "state": "Emilia-Romagna",
    "city": "Bazzano"
  },
  {
    "source_id": "ChIJ-Z_RHvbnf0cRry0jCm7Q5GQ",
    "name": "Scova Impianti",
    "category": "Scova Impianti",
    "formatted_address": "4,0(4)",
    "phone_number": "+39059925910",
    "source_url": "https://www.google.com/maps/place/Scova+Impianti/data=!4m7!3m6!1s0x477fe7f61ed19ff9:0x64e4d06e0a232daf!8m2!3d44.6018937!4d11.0315223!16s%2Fg%2F1td6wznv!19sChIJ-Z_RHvbnf0cRry0jCm7Q5GQ?authuser=0&hl=tr&rclk=1",
    "website_url": "https://scovaimpianti.com/",
    "rating_text": "4,0",
    "stars": null,
    "number_of_reviews": null,
    "price_level": "",
    "open_hours": "",
    "extraction_timestamp": "2025-06-07T15:47:14.145Z",
    "source_name": "google",
    "source_query": "Irrigation Equipment",
    "source_country": "IT",
    "country": "Italy",
    "state": "Emilia-Romagna",
    "city": "Bazzano"
  },
  {
    "source_id": "ChIJcU2vKv7Xf0cRu8GqO9msNWc",
    "name": "Idro Spurghi Bologna srl",
    "category": "Idro Spurghi Bologna srl",
    "formatted_address": "4,9(67)",
    "phone_number": "+39333800181824",
    "source_url": "https://www.google.com/maps/place/Idro+Spurghi+Bologna+srl/data=!4m7!3m6!1s0x477fd7fe2aaf4d71:0x6735acd93baac1bb!8m2!3d44.5051841!4d11.2344246!16s%2Fg%2F11j90vmx7d!19sChIJcU2vKv7Xf0cRu8GqO9msNWc?authuser=0&hl=tr&rclk=1",
    "website_url": "https://www.idrospurghibologna.it/",
    "rating_text": "4,9",
    "stars": null,
    "number_of_reviews": null,
    "price_level": "",
    "open_hours": "",
    "extraction_timestamp": "2025-06-07T15:47:14.145Z",
    "source_name": "google",
    "source_query": "Irrigation Equipment",
    "source_country": "IT",
    "country": "Italy",
    "state": "Emilia-Romagna",
    "city": "Bazzano"
  },
  {
    "source_id": "ChIJkzpv_C3Zf0cRoiqBac37YeQ",
    "name": "Animal Garden",
    "category": "Animal Garden",
    "formatted_address": "4,6(335)",
    "phone_number": "+39051833290",
    "source_url": "https://www.google.com/maps/place/Animal+Garden/data=!4m7!3m6!1s0x477fd92dfc6f3a93:0xe461fbcd69812aa2!8m2!3d44.5034783!4d11.0885991!16s%2Fg%2F11h0gtv5q!19sChIJkzpv_C3Zf0cRoiqBac37YeQ?authuser=0&hl=tr&rclk=1",
    "website_url": "http://www.animalgarden.it/",
    "rating_text": "4,6",
    "stars": null,
    "number_of_reviews": null,
    "price_level": "",
    "open_hours": "",
    "extraction_timestamp": "2025-06-07T15:47:14.146Z",
    "source_name": "google",
    "source_query": "Irrigation Equipment",
    "source_country": "IT",
    "country": "Italy",
    "state": "Emilia-Romagna",
    "city": "Bazzano"
  },
  {
    "source_id": "ChIJnTMseWMrfkcROkZnl9Ut3MM",
    "name": "Supreme Compression Fittings Quapus Srl",
    "category": "Supreme Compression Fittings Quapus Srl",
    "formatted_address": "4,6(9)",
    "phone_number": "+390516053557",
    "source_url": "https://www.google.com/maps/place/Supreme+Compression+Fittings+Quapus+Srl/data=!4m7!3m6!1s0x477e2b63792c339d:0xc3dc2dd59767463a!8m2!3d44.4986604!4d11.4240626!16s%2Fg%2F1ptw88990!19sChIJnTMseWMrfkcROkZnl9Ut3MM?authuser=0&hl=tr&rclk=1",
    "website_url": "https://www.supreme-systems.net/",
    "rating_text": "4,6",
    "stars": null,
    "number_of_reviews": null,
    "price_level": "",
    "open_hours": "",
    "extraction_timestamp": "2025-06-07T15:47:14.148Z",
    "source_name": "google",
    "source_query": "Irrigation Equipment",
    "source_country": "IT",
    "country": "Italy",
    "state": "Emilia-Romagna",
    "city": "Bazzano"
  },
  {
    "source_id": "ChIJTbPcNCDZf0cR1ocCLbzV9Rg",
    "name": "Caseificio Valsamoggia",
    "category": "Caseificio Valsamoggia",
    "formatted_address": "4,6(240)",
    "phone_number": "+39051960334",
    "source_url": "https://www.google.com/maps/place/Caseificio+Valsamoggia/data=!4m7!3m6!1s0x477fd92034dcb34d:0x18f5d5bc2d0287d6!8m2!3d44.497942!4d11.1075901!16s%2Fg%2F12hr8qght!19sChIJTbPcNCDZf0cR1ocCLbzV9Rg?authuser=0&hl=tr&rclk=1",
    "website_url": "https://caseificiovalsamoggia.it/",
    "rating_text": "4,6",
    "stars": null,
    "number_of_reviews": null,
    "price_level": "",
    "open_hours": "",
    "extraction_timestamp": "2025-06-07T15:47:14.150Z",
    "source_name": "google",
    "source_query": "Irrigation Equipment",
    "source_country": "IT",
    "country": "Italy",
    "state": "Emilia-Romagna",
    "city": "Bazzano"
  }
]
