[
  {
    "source_id": "ChIJtVDkNgRFgEcRqc6umwWIJuI",
    "name": "Rm Spa",
    "category": "Rm Spa",
    "formatted_address": "4,6(81)",
    "phone_number": "+390521872321",
    "source_url": "https://www.google.com/maps/place/Rm+Spa/data=!4m7!3m6!1s0x4780450436e450b5:0xe22688059baecea9!8m2!3d44.9105406!4d10.2583785!16s%2Fg%2F12hl93byl!19sChIJtVDkNgRFgEcRqc6umwWIJuI?authuser=0&hl=tr&rclk=1",
    "website_url": "http://www.rmirrigation.com/",
    "rating_text": "4,6",
    "stars": null,
    "number_of_reviews": null,
    "price_level": "",
    "open_hours": "",
    "extraction_timestamp": "2025-06-07T16:55:58.089Z",
    "source_name": "google",
    "source_query": "Irrigation Equipment",
    "source_country": "IT",
    "country": "Italy",
    "state": "Emilia-Romagna",
    "city": "Bedonia"
  },
  {
    "source_id": "ChIJJYj2ZEnJ1BIRd2sWhqvUmxA",
    "name": "Ferramenta Caramatti",
    "category": "Ferramenta Caramatti",
    "formatted_address": "4,5(51)",
    "phone_number": "+390525826678",
    "source_url": "https://www.google.com/maps/place/Ferramenta+Caramatti/data=!4m7!3m6!1s0x12d4c94964f68825:0x109bd4ab86166b77!8m2!3d44.5041734!4d9.6282183!16s%2Fg%2F1thpyy96!19sChIJJYj2ZEnJ1BIRd2sWhqvUmxA?authuser=0&hl=tr&rclk=1",
    "website_url": "",
    "rating_text": "4,5",
    "stars": null,
    "number_of_reviews": null,
    "price_level": "",
    "open_hours": "",
    "extraction_timestamp": "2025-06-07T16:55:58.091Z",
    "source_name": "google",
    "source_query": "Irrigation Equipment",
    "source_country": "IT",
    "country": "Italy",
    "state": "Emilia-Romagna",
    "city": "Bedonia"
  },
  {
    "source_id": "ChIJy805WcDcgEcRtmGWlwosXQc",
    "name": "IRRIMEC SRL",
    "category": "IRRIMEC SRL",
    "formatted_address": "4,5(90)",
    "phone_number": "+390523760441",
    "source_url": "https://www.google.com/maps/place/IRRIMEC+SRL/data=!4m7!3m6!1s0x4780dcc05939cdcb:0x75d2c0a979661b6!8m2!3d45.0612353!4d9.630829!16s%2Fg%2F1tdgt7d_!19sChIJy805WcDcgEcRtmGWlwosXQc?authuser=0&hl=tr&rclk=1",
    "website_url": "http://www.irrimec.com/",
    "rating_text": "4,5",
    "stars": null,
    "number_of_reviews": null,
    "price_level": "",
    "open_hours": "",
    "extraction_timestamp": "2025-06-07T16:55:58.093Z",
    "source_name": "google",
    "source_query": "Irrigation Equipment",
    "source_country": "IT",
    "country": "Italy",
    "state": "Emilia-Romagna",
    "city": "Bedonia"
  },
  {
    "source_id": "ChIJzWyZEf8dgEcRM0sVtbJE3TI",
    "name": "Impiantistica LAVONE",
    "category": "Impiantistica LAVONE",
    "formatted_address": "5,0(3)",
    "phone_number": "+393514759408",
    "source_url": "https://www.google.com/maps/place/Impiantistica+LAVONE/data=!4m7!3m6!1s0x47801dff11996ccd:0x32dd44b2b5154b33!8m2!3d44.7120611!4d10.6241549!16s%2Fg%2F11lp1gdrnd!19sChIJzWyZEf8dgEcRM0sVtbJE3TI?authuser=0&hl=tr&rclk=1",
    "website_url": "",
    "rating_text": "5,0",
    "stars": null,
    "number_of_reviews": null,
    "price_level": "",
    "open_hours": "",
    "extraction_timestamp": "2025-06-07T16:55:58.095Z",
    "source_name": "google",
    "source_query": "Irrigation Equipment",
    "source_country": "IT",
    "country": "Italy",
    "state": "Emilia-Romagna",
    "city": "Bedonia"
  }
]
