[
  {
    "source_id": "ChIJy4AVn9C-LBMRn6nsnuZl82A",
    "name": "Ramilli Irrigazioni S.R.L.",
    "category": "Ramilli Irrigazioni S.R.L.",
    "formatted_address": "4,3(52)",
    "phone_number": "+390541945335",
    "source_url": "https://www.google.com/maps/place/Ramilli+Irrigazioni+S.R.L./data=!4m7!3m6!1s0x132cbed09f1580cb:0x60f365e69eeca99f!8m2!3d44.0923156!4d12.3843691!16s%2Fg%2F1ts2ls1r!19sChIJy4AVn9C-LBMRn6nsnuZl82A?authuser=0&hl=tr&rclk=1",
    "website_url": "https://www.ramilli.it/",
    "rating_text": "4,3",
    "stars": null,
    "number_of_reviews": null,
    "price_level": "",
    "open_hours": "",
    "extraction_timestamp": "2025-06-07T16:02:19.752Z",
    "source_name": "google",
    "source_query": "Irrigation Equipment",
    "source_country": "IT",
    "country": "Italy",
    "state": "Emilia-Romagna",
    "city": "Bellaria-Igea Marina"
  },
  {
    "source_id": "ChIJQZkm5_PHLBMRxLRgkTRWA7U",
    "name": "Travisani Stefano Giardinaggio",
    "category": "Travisani Stefano Giardinaggio",
    "formatted_address": "4,7(13)",
    "phone_number": "+393487748132",
    "source_url": "https://www.google.com/maps/place/Travisani+Stefano+Giardinaggio/data=!4m7!3m6!1s0x132cc7f3e7269941:0xb50356349160b4c4!8m2!3d44.1548972!4d12.4451316!16s%2Fg%2F11cm6cvd71!19sChIJQZkm5_PHLBMRxLRgkTRWA7U?authuser=0&hl=tr&rclk=1",
    "website_url": "http://travisanistefanogiardinaggio.com/?utm_source=gmb&utm_medium=referral",
    "rating_text": "4,7",
    "stars": null,
    "number_of_reviews": null,
    "price_level": "",
    "open_hours": "",
    "extraction_timestamp": "2025-06-07T16:02:19.752Z",
    "source_name": "google",
    "source_query": "Irrigation Equipment",
    "source_country": "IT",
    "country": "Italy",
    "state": "Emilia-Romagna",
    "city": "Bellaria-Igea Marina"
  },
  {
    "source_id": "ChIJ-fd46pHHLBMR2J1wi5MChlg",
    "name": "Ortotecnica S.A.S.",
    "category": "Ortotecnica S.A.S.",
    "formatted_address": "4,5(30)",
    "phone_number": "+390541346881",
    "source_url": "https://www.google.com/maps/place/Ortotecnica+S.A.S./data=!4m7!3m6!1s0x132cc791ea78f7f9:0x588602938b709dd8!8m2!3d44.1443187!4d12.4507426!16s%2Fg%2F11c1szs16q!19sChIJ-fd46pHHLBMR2J1wi5MChlg?authuser=0&hl=tr&rclk=1",
    "website_url": "http://www.ortotecnica.it/",
    "rating_text": "4,5",
    "stars": null,
    "number_of_reviews": null,
    "price_level": "",
    "open_hours": "",
    "extraction_timestamp": "2025-06-07T16:02:19.752Z",
    "source_name": "google",
    "source_query": "Irrigation Equipment",
    "source_country": "IT",
    "country": "Italy",
    "state": "Emilia-Romagna",
    "city": "Bellaria-Igea Marina"
  },
  {
    "source_id": "ChIJxwyfbMW-LBMR82ivWDKLyak",
    "name": "Campedelli srl",
    "category": "Campedelli srl",
    "formatted_address": "4,3(20)",
    "phone_number": "+390541945180",
    "source_url": "https://www.google.com/maps/place/Campedelli+srl/data=!4m7!3m6!1s0x132cbec56c9f0cc7:0xa9c98b3258af68f3!8m2!3d44.0913771!4d12.3790216!16s%2Fg%2F1td55wfn!19sChIJxwyfbMW-LBMR82ivWDKLyak?authuser=0&hl=tr&rclk=1",
    "website_url": "https://www.facebook.com/pg/campedellisrl.savignanosulrubicone/community/",
    "rating_text": "4,3",
    "stars": null,
    "number_of_reviews": null,
    "price_level": "",
    "open_hours": "",
    "extraction_timestamp": "2025-06-07T16:02:19.753Z",
    "source_name": "google",
    "source_query": "Irrigation Equipment",
    "source_country": "IT",
    "country": "Italy",
    "state": "Emilia-Romagna",
    "city": "Bellaria-Igea Marina"
  },
  {
    "source_id": "ChIJ-V8moVXGLBMRYanev7Qn2I8",
    "name": "A.T.I.C. gas srl",
    "category": "A.T.I.C. gas srl",
    "formatted_address": "3,8(10)",
    "phone_number": "+390541345548",
    "source_url": "https://www.google.com/maps/place/A.T.I.C.+gas+srl/data=!4m7!3m6!1s0x132cc655a1265ff9:0x8fd827b4bfdea961!8m2!3d44.1416124!4d12.4510418!16s%2Fg%2F11c6pkxvgg!19sChIJ-V8moVXGLBMRYanev7Qn2I8?authuser=0&hl=tr&rclk=1",
    "website_url": "https://www.aticgas.it/",
    "rating_text": "3,8",
    "stars": null,
    "number_of_reviews": null,
    "price_level": "",
    "open_hours": "",
    "extraction_timestamp": "2025-06-07T16:02:19.753Z",
    "source_name": "google",
    "source_query": "Irrigation Equipment",
    "source_country": "IT",
    "country": "Italy",
    "state": "Emilia-Romagna",
    "city": "Bellaria-Igea Marina"
  },
  {
    "source_id": "ChIJ_SYf2IMsfkcRVw9xVhrnjyI",
    "name": "Irrigazione Bragaglia",
    "category": "Irrigazione Bragaglia",
    "formatted_address": "4,7(30)",
    "phone_number": "+39051534865",
    "source_url": "https://www.google.com/maps/place/Irrigazione+Bragaglia/data=!4m7!3m6!1s0x477e2c83d81f26fd:0x228fe71a56710f57!8m2!3d44.5053735!4d11.412403!16s%2Fg%2F1vp6z0gf!19sChIJ_SYf2IMsfkcRVw9xVhrnjyI?authuser=0&hl=tr&rclk=1",
    "website_url": "http://www.irrigazionebragaglia.it/",
    "rating_text": "4,7",
    "stars": null,
    "number_of_reviews": null,
    "price_level": "",
    "open_hours": "",
    "extraction_timestamp": "2025-06-07T16:02:19.753Z",
    "source_name": "google",
    "source_query": "Irrigation Equipment",
    "source_country": "IT",
    "country": "Italy",
    "state": "Emilia-Romagna",
    "city": "Bellaria-Igea Marina"
  },
  {
    "source_id": "ChIJA3YP277HLBMRMFKnEUEhX2s",
    "name": "Ma-St",
    "category": "Ma-St",
    "formatted_address": "2,9(27)",
    "phone_number": "+390541394239",
    "source_url": "https://www.google.com/maps/place/Ma-St/data=!4m7!3m6!1s0x132cc7bedb0f7603:0x6b5f214111a75230!8m2!3d44.145401!4d12.466013!16s%2Fg%2F1tnl3j4f!19sChIJA3YP277HLBMRMFKnEUEhX2s?authuser=0&hl=tr&rclk=1",
    "website_url": "",
    "rating_text": "2,9",
    "stars": null,
    "number_of_reviews": null,
    "price_level": "",
    "open_hours": "",
    "extraction_timestamp": "2025-06-07T16:02:19.754Z",
    "source_name": "google",
    "source_query": "Irrigation Equipment",
    "source_country": "IT",
    "country": "Italy",
    "state": "Emilia-Romagna",
    "city": "Bellaria-Igea Marina"
  },
  {
    "source_id": "ChIJDXdcRarHLBMRcepEfE2LROs",
    "name": "Ges Srl",
    "category": "Ges Srl",
    "formatted_address": "5,0(1)",
    "phone_number": "+390541333047",
    "source_url": "https://www.google.com/maps/place/Ges+Srl/data=!4m7!3m6!1s0x132cc7aa455c770d:0xeb448b4d7c44ea71!8m2!3d44.1301062!4d12.4812194!16s%2Fg%2F1tjvtgj3!19sChIJDXdcRarHLBMRcepEfE2LROs?authuser=0&hl=tr&rclk=1",
    "website_url": "http://www.gessrl.com/",
    "rating_text": "5,0",
    "stars": null,
    "number_of_reviews": null,
    "price_level": "",
    "open_hours": "",
    "extraction_timestamp": "2025-06-07T16:02:19.754Z",
    "source_name": "google",
    "source_query": "Irrigation Equipment",
    "source_country": "IT",
    "country": "Italy",
    "state": "Emilia-Romagna",
    "city": "Bellaria-Igea Marina"
  },
  {
    "source_id": "ChIJTzTbdKfHLBMRv03YTNfIdrA",
    "name": "Gebim",
    "category": "Gebim",
    "formatted_address": "4,2(5)",
    "phone_number": "+390541330436",
    "source_url": "https://www.google.com/maps/place/Gebim/data=!4m7!3m6!1s0x132cc7a774db344f:0xb076c8d74cd84dbf!8m2!3d44.130325!4d12.4694777!16s%2Fg%2F1tz2vtb4!19sChIJTzTbdKfHLBMRv03YTNfIdrA?authuser=0&hl=tr&rclk=1",
    "website_url": "http://www.gebim.it/",
    "rating_text": "4,2",
    "stars": null,
    "number_of_reviews": null,
    "price_level": "",
    "open_hours": "",
    "extraction_timestamp": "2025-06-07T16:02:19.754Z",
    "source_name": "google",
    "source_query": "Irrigation Equipment",
    "source_country": "IT",
    "country": "Italy",
    "state": "Emilia-Romagna",
    "city": "Bellaria-Igea Marina"
  }
]
