[
  {
    "source_id": "ChIJE_3jOnMtfkcRkxtTFj3Ym9E",
    "name": "Irrigation Scarabelli Srl",
    "category": "Irrigation Scarabelli Srl",
    "formatted_address": "4,5(23)",
    "phone_number": "+39051763363",
    "source_url": "https://www.google.com/maps/place/Irrigation+Scarabelli+Srl/data=!4m7!3m6!1s0x477e2d733ae3fd13:0xd19bd83d16531b93!8m2!3d44.5426053!4d11.4189136!16s%2Fg%2F11gzdz6vf!19sChIJE_3jOnMtfkcRkxtTFj3Ym9E?authuser=0&hl=tr&rclk=1",
    "website_url": "",
    "rating_text": "4,5",
    "stars": null,
    "number_of_reviews": null,
    "price_level": "",
    "open_hours": "",
    "extraction_timestamp": "2025-06-07T15:55:35.337Z",
    "source_name": "google",
    "source_query": "Irrigation Equipment",
    "source_country": "IT",
    "country": "Italy",
    "state": "Emilia-Romagna",
    "city": "Berra"
  },
  {
    "source_id": "ChIJcQG6ul7df0cR3VxKiu5OPBs",
    "name": "Scova Impianti Srl",
    "category": "Scova Impianti Srl",
    "formatted_address": "4,5(64)",
    "phone_number": "+39059923202",
    "source_url": "https://www.google.com/maps/place/Scova+Impianti+Srl/data=!4m7!3m6!1s0x477fdd5ebaba0171:0x1b3c4eee8a4a5cdd!8m2!3d44.6018135!4d11.032294!16s%2Fg%2F1tfzwbfb!19sChIJcQG6ul7df0cR3VxKiu5OPBs?authuser=0&hl=tr&rclk=1",
    "website_url": "https://www.scovaimpianti.com/",
    "rating_text": "4,5",
    "stars": null,
    "number_of_reviews": null,
    "price_level": "",
    "open_hours": "",
    "extraction_timestamp": "2025-06-07T15:55:35.339Z",
    "source_name": "google",
    "source_query": "Irrigation Equipment",
    "source_country": "IT",
    "country": "Italy",
    "state": "Emilia-Romagna",
    "city": "Berra"
  },
  {
    "source_id": "ChIJh3Nd8G0sfkcR_m7VewEmxXM",
    "name": "Irrigarden",
    "category": "Irrigarden",
    "formatted_address": "4,7(158)",
    "phone_number": "+39051782013",
    "source_url": "https://www.google.com/maps/place/Irrigarden/data=!4m7!3m6!1s0x477e2c6df05d7387:0x73c526017bd56efe!8m2!3d44.5096266!4d11.4390897!16s%2Fg%2F1vgw_l7w!19sChIJh3Nd8G0sfkcR_m7VewEmxXM?authuser=0&hl=tr&rclk=1",
    "website_url": "https://www.irrigarden-bo.it/",
    "rating_text": "4,7",
    "stars": null,
    "number_of_reviews": null,
    "price_level": "",
    "open_hours": "",
    "extraction_timestamp": "2025-06-07T15:55:35.340Z",
    "source_name": "google",
    "source_query": "Irrigation Equipment",
    "source_country": "IT",
    "country": "Italy",
    "state": "Emilia-Romagna",
    "city": "Berra"
  },
  {
    "source_id": "ChIJ_SYf2IMsfkcRVw9xVhrnjyI",
    "name": "Irrigazione Bragaglia",
    "category": "Irrigazione Bragaglia",
    "formatted_address": "4,7(30)",
    "phone_number": "+39051534865",
    "source_url": "https://www.google.com/maps/place/Irrigazione+Bragaglia/data=!4m7!3m6!1s0x477e2c83d81f26fd:0x228fe71a56710f57!8m2!3d44.5053735!4d11.412403!16s%2Fg%2F1vp6z0gf!19sChIJ_SYf2IMsfkcRVw9xVhrnjyI?authuser=0&hl=tr&rclk=1",
    "website_url": "http://www.irrigazionebragaglia.it/",
    "rating_text": "4,7",
    "stars": null,
    "number_of_reviews": null,
    "price_level": "",
    "open_hours": "",
    "extraction_timestamp": "2025-06-07T15:55:35.341Z",
    "source_name": "google",
    "source_query": "Irrigation Equipment",
    "source_country": "IT",
    "country": "Italy",
    "state": "Emilia-Romagna",
    "city": "Berra"
  },
  {
    "source_id": "ChIJtVDkNgRFgEcRqc6umwWIJuI",
    "name": "Rm Spa",
    "category": "Rm Spa",
    "formatted_address": "4,6(81)",
    "phone_number": "+390521872321",
    "source_url": "https://www.google.com/maps/place/Rm+Spa/data=!4m7!3m6!1s0x4780450436e450b5:0xe22688059baecea9!8m2!3d44.9105406!4d10.2583785!16s%2Fg%2F12hl93byl!19sChIJtVDkNgRFgEcRqc6umwWIJuI?authuser=0&hl=tr&rclk=1",
    "website_url": "http://www.rmirrigation.com/",
    "rating_text": "4,6",
    "stars": null,
    "number_of_reviews": null,
    "price_level": "",
    "open_hours": "",
    "extraction_timestamp": "2025-06-07T15:55:35.377Z",
    "source_name": "google",
    "source_query": "Irrigation Equipment",
    "source_country": "IT",
    "country": "Italy",
    "state": "Emilia-Romagna",
    "city": "Berra"
  },
  {
    "source_id": "ChIJqdtsqMTaf0cRFSqvzNBB5Tw",
    "name": "Ricchetti Irrigazione Snc Di Alberghini Paolo E C.",
    "category": "Ricchetti Irrigazione Snc Di Alberghini Paolo E C.",
    "formatted_address": "4,9(31)",
    "phone_number": "+39051950115",
    "source_url": "https://www.google.com/maps/place/Ricchetti+Irrigazione+Snc+Di+Alberghini+Paolo+E+C./data=!4m7!3m6!1s0x477fdac4a86cdba9:0x3ce541d0ccaf2a15!8m2!3d44.5883369!4d11.1803569!16s%2Fg%2F1vfn5hgh!19sChIJqdtsqMTaf0cRFSqvzNBB5Tw?authuser=0&hl=tr&rclk=1",
    "website_url": "http://www.ricchetti-irrigatori.it/",
    "rating_text": "4,9",
    "stars": null,
    "number_of_reviews": null,
    "price_level": "",
    "open_hours": "",
    "extraction_timestamp": "2025-06-07T15:55:35.379Z",
    "source_name": "google",
    "source_query": "Irrigation Equipment",
    "source_country": "IT",
    "country": "Italy",
    "state": "Emilia-Romagna",
    "city": "Berra"
  },
  {
    "source_id": "ChIJISlyN8fVfkcRP1ghb3uyg-o",
    "name": "Import Irrigation Systems S.R.L.",
    "category": "Import Irrigation Systems S.R.L.",
    "formatted_address": "Üretici ·  · Via Salvo d'Acquisto, 5Kapalı ⋅ Açılış zamanı: Pzt 08:30 · +39 049 559 1020",
    "phone_number": "+390495591020",
    "source_url": "https://www.google.com/maps/place/Import+Irrigation+Systems+S.R.L./data=!4m7!3m6!1s0x477ed5c737722921:0xea83b27b6f21583f!8m2!3d45.5362842!4d11.825368!16s%2Fg%2F1tsjchn3!19sChIJISlyN8fVfkcRP1ghb3uyg-o?authuser=0&hl=tr&rclk=1",
    "website_url": "http://www.importirrigation.com/",
    "rating_text": "",
    "stars": null,
    "number_of_reviews": null,
    "price_level": "",
    "open_hours": "",
    "extraction_timestamp": "2025-06-07T15:55:35.380Z",
    "source_name": "google",
    "source_query": "Irrigation Equipment",
    "source_country": "IT",
    "country": "Italy",
    "state": "Emilia-Romagna",
    "city": "Berra"
  },
  {
    "source_id": "ChIJy4AVn9C-LBMRn6nsnuZl82A",
    "name": "Ramilli Irrigazioni S.R.L.",
    "category": "Ramilli Irrigazioni S.R.L.",
    "formatted_address": "4,3(52)",
    "phone_number": "+390541945335",
    "source_url": "https://www.google.com/maps/place/Ramilli+Irrigazioni+S.R.L./data=!4m7!3m6!1s0x132cbed09f1580cb:0x60f365e69eeca99f!8m2!3d44.0923156!4d12.3843691!16s%2Fg%2F1ts2ls1r!19sChIJy4AVn9C-LBMRn6nsnuZl82A?authuser=0&hl=tr&rclk=1",
    "website_url": "https://www.ramilli.it/",
    "rating_text": "4,3",
    "stars": null,
    "number_of_reviews": null,
    "price_level": "",
    "open_hours": "",
    "extraction_timestamp": "2025-06-07T15:55:35.381Z",
    "source_name": "google",
    "source_query": "Irrigation Equipment",
    "source_country": "IT",
    "country": "Italy",
    "state": "Emilia-Romagna",
    "city": "Berra"
  },
  {
    "source_id": "ChIJtdJC5j6Zf0cRmmVcuMyNEW0",
    "name": "Tadei | Impianti irrigazione | Robot tagliaerba | Barbecue | Outdoor",
    "category": "Tadei | Impianti irrigazione | Robot tagliaerba | Barbecue | Outdoor",
    "formatted_address": "4,6(69)",
    "phone_number": "+390386733460",
    "source_url": "https://www.google.com/maps/place/Tadei+%7C+Impianti+irrigazione+%7C+Robot+tagliaerba+%7C+Barbecue+%7C+Outdoor/data=!4m7!3m6!1s0x477f993ee642d2b5:0x6d118dccb85c659a!8m2!3d44.9680645!4d11.1076526!16s%2Fg%2F113dpgnd_!19sChIJtdJC5j6Zf0cRmmVcuMyNEW0?authuser=0&hl=tr&rclk=1",
    "website_url": "https://www.irrigazionetadei.it/",
    "rating_text": "4,6",
    "stars": null,
    "number_of_reviews": null,
    "price_level": "",
    "open_hours": "",
    "extraction_timestamp": "2025-06-07T15:55:35.383Z",
    "source_name": "google",
    "source_query": "Irrigation Equipment",
    "source_country": "IT",
    "country": "Italy",
    "state": "Emilia-Romagna",
    "city": "Berra"
  },
  {
    "source_id": "ChIJyXgg68QrfkcRAaJCOMJ3PxY",
    "name": "hidrisistem",
    "category": "hidrisistem",
    "formatted_address": "5,0(1)",
    "phone_number": "+39366448310824",
    "source_url": "https://www.google.com/maps/place/hidrisistem/data=!4m7!3m6!1s0x477e2bc4eb2078c9:0x163f77c23842a201!8m2!3d44.496029!4d11.402638!16s%2Fg%2F11w_zjhjy3!19sChIJyXgg68QrfkcRAaJCOMJ3PxY?authuser=0&hl=tr&rclk=1",
    "website_url": "",
    "rating_text": "5,0",
    "stars": null,
    "number_of_reviews": null,
    "price_level": "",
    "open_hours": "",
    "extraction_timestamp": "2025-06-07T15:55:35.384Z",
    "source_name": "google",
    "source_query": "Irrigation Equipment",
    "source_country": "IT",
    "country": "Italy",
    "state": "Emilia-Romagna",
    "city": "Berra"
  },
  {
    "source_id": "ChIJ9X_DI6LDLBMR84MeChQNUCU",
    "name": "Irriverde - Il Paesaggio S.r.l.",
    "category": "Irriverde - Il Paesaggio S.r.l.",
    "formatted_address": "4,8(15)",
    "phone_number": "+393939275801",
    "source_url": "https://www.google.com/maps/place/Irriverde+-+Il+Paesaggio+S.r.l./data=!4m7!3m6!1s0x132cc3a223c37ff5:0x25500d140a1e83f3!8m2!3d43.982224!4d12.5281091!16s%2Fg%2F1ptz65rjr!19sChIJ9X_DI6LDLBMR84MeChQNUCU?authuser=0&hl=tr&rclk=1",
    "website_url": "http://www.irriverde.it/",
    "rating_text": "4,8",
    "stars": null,
    "number_of_reviews": null,
    "price_level": "",
    "open_hours": "",
    "extraction_timestamp": "2025-06-07T15:55:35.385Z",
    "source_name": "google",
    "source_query": "Irrigation Equipment",
    "source_country": "IT",
    "country": "Italy",
    "state": "Emilia-Romagna",
    "city": "Berra"
  },
  {
    "source_id": "ChIJj6lqi20sfkcRzOHfxextuA0",
    "name": "La Pioggia",
    "category": "La Pioggia",
    "formatted_address": "4,6(54)",
    "phone_number": "+39051781194",
    "source_url": "https://www.google.com/maps/place/La+Pioggia/data=!4m7!3m6!1s0x477e2c6d8b6aa98f:0xdb86decc5dfe1cc!8m2!3d44.5092215!4d11.4394615!16s%2Fg%2F1tffc0h0!19sChIJj6lqi20sfkcRzOHfxextuA0?authuser=0&hl=tr&rclk=1",
    "website_url": "http://www.lapioggia.it/",
    "rating_text": "4,6",
    "stars": null,
    "number_of_reviews": null,
    "price_level": "",
    "open_hours": "",
    "extraction_timestamp": "2025-06-07T15:55:35.387Z",
    "source_name": "google",
    "source_query": "Irrigation Equipment",
    "source_country": "IT",
    "country": "Italy",
    "state": "Emilia-Romagna",
    "city": "Berra"
  },
  {
    "source_id": "ChIJJ6V6lMDgf0cR1SpFsfjDuHg",
    "name": "Ocmis Irrigazione Spa",
    "category": "Ocmis Irrigazione Spa",
    "formatted_address": "3,5(31)",
    "phone_number": "+39059702150",
    "source_url": "https://www.google.com/maps/place/Ocmis+Irrigazione+Spa/data=!4m7!3m6!1s0x477fe0c0947aa527:0x78b8c3f8b1452ad5!8m2!3d44.530494!4d10.9794578!16s%2Fg%2F1vd3tn19!19sChIJJ6V6lMDgf0cR1SpFsfjDuHg?authuser=0&hl=tr&rclk=1",
    "website_url": "http://www.ocmis-irrigazione.it/",
    "rating_text": "3,5",
    "stars": null,
    "number_of_reviews": null,
    "price_level": "",
    "open_hours": "",
    "extraction_timestamp": "2025-06-07T15:55:35.388Z",
    "source_name": "google",
    "source_query": "Irrigation Equipment",
    "source_country": "IT",
    "country": "Italy",
    "state": "Emilia-Romagna",
    "city": "Berra"
  },
  {
    "source_id": "ChIJhT-kpAXff0cRKJQqKYwIulA",
    "name": "Irrigo",
    "category": "Irrigo",
    "formatted_address": "4,7(36)",
    "phone_number": "+393473096499",
    "source_url": "https://www.google.com/maps/place/Irrigo/data=!4m7!3m6!1s0x477fdf05a4a43f85:0x50ba088c292a9428!8m2!3d44.5018172!4d11.005272!16s%2Fg%2F11hdjcp5pk!19sChIJhT-kpAXff0cRKJQqKYwIulA?authuser=0&hl=tr&rclk=1",
    "website_url": "https://www.irrigovignola.it/",
    "rating_text": "4,7",
    "stars": null,
    "number_of_reviews": null,
    "price_level": "",
    "open_hours": "",
    "extraction_timestamp": "2025-06-07T15:55:35.389Z",
    "source_name": "google",
    "source_query": "Irrigation Equipment",
    "source_country": "IT",
    "country": "Italy",
    "state": "Emilia-Romagna",
    "city": "Berra"
  },
  {
    "source_id": "ChIJp2R3w7_Qf0cRHlt9J4ovm_o",
    "name": "Irritec S.p.A. - Stabilimento F",
    "category": "Irritec S.p.A. - Stabilimento F",
    "formatted_address": "5,0(2)",
    "phone_number": "+390516508020",
    "source_url": "https://www.google.com/maps/place/Irritec+S.p.A.+-+Stabilimento+F/data=!4m7!3m6!1s0x477fd0bfc37764a7:0xfa9b2f8a277d5b1e!8m2!3d44.6210254!4d11.3703614!16s%2Fg%2F1xpwhmq4!19sChIJp2R3w7_Qf0cRHlt9J4ovm_o?authuser=0&hl=tr&rclk=1",
    "website_url": "http://www.irritec.com/",
    "rating_text": "5,0",
    "stars": null,
    "number_of_reviews": null,
    "price_level": "",
    "open_hours": "",
    "extraction_timestamp": "2025-06-07T15:55:35.390Z",
    "source_name": "google",
    "source_query": "Irrigation Equipment",
    "source_country": "IT",
    "country": "Italy",
    "state": "Emilia-Romagna",
    "city": "Berra"
  },
  {
    "source_id": "ChIJ-Z_RHvbnf0cRry0jCm7Q5GQ",
    "name": "Scova Impianti",
    "category": "Scova Impianti",
    "formatted_address": "4,0(4)",
    "phone_number": "+39059925910",
    "source_url": "https://www.google.com/maps/place/Scova+Impianti/data=!4m7!3m6!1s0x477fe7f61ed19ff9:0x64e4d06e0a232daf!8m2!3d44.6018937!4d11.0315223!16s%2Fg%2F1td6wznv!19sChIJ-Z_RHvbnf0cRry0jCm7Q5GQ?authuser=0&hl=tr&rclk=1",
    "website_url": "https://scovaimpianti.com/",
    "rating_text": "4,0",
    "stars": null,
    "number_of_reviews": null,
    "price_level": "",
    "open_hours": "",
    "extraction_timestamp": "2025-06-07T15:55:35.392Z",
    "source_name": "google",
    "source_query": "Irrigation Equipment",
    "source_country": "IT",
    "country": "Italy",
    "state": "Emilia-Romagna",
    "city": "Berra"
  },
  {
    "source_id": "ChIJa-er_rg1fkcR91VT6-rG3xU",
    "name": "Reni Technology",
    "category": "Reni Technology",
    "formatted_address": "5,0(1)",
    "phone_number": "+393351025315",
    "source_url": "https://www.google.com/maps/place/Reni+Technology/data=!4m7!3m6!1s0x477e35b8feabe76b:0x15dfc6eaeb5355f7!8m2!3d44.6801953!4d11.4932506!16s%2Fg%2F11vkp3f3qd!19sChIJa-er_rg1fkcR91VT6-rG3xU?authuser=0&hl=tr&rclk=1",
    "website_url": "https://www.renitechnology.net/",
    "rating_text": "5,0",
    "stars": null,
    "number_of_reviews": null,
    "price_level": "",
    "open_hours": "",
    "extraction_timestamp": "2025-06-07T15:55:35.393Z",
    "source_name": "google",
    "source_query": "Irrigation Equipment",
    "source_country": "IT",
    "country": "Italy",
    "state": "Emilia-Romagna",
    "city": "Berra"
  },
  {
    "source_id": "ChIJSSMzGN4pfkcRxNrEMhpqts8",
    "name": "Hydro Ware srl",
    "category": "Hydro Ware srl",
    "formatted_address": "4,5(2)",
    "phone_number": "+390510404329",
    "source_url": "https://www.google.com/maps/place/Hydro+Ware+srl/data=!4m7!3m6!1s0x477e29de18332349:0xcfb66a1a32c4dac4!8m2!3d44.4442053!4d11.4850842!16s%2Fg%2F11h55y8w7d!19sChIJSSMzGN4pfkcRxNrEMhpqts8?authuser=0&hl=tr&rclk=1",
    "website_url": "http://www.hydroware.it/it/",
    "rating_text": "4,5",
    "stars": null,
    "number_of_reviews": null,
    "price_level": "",
    "open_hours": "",
    "extraction_timestamp": "2025-06-07T15:55:35.394Z",
    "source_name": "google",
    "source_query": "Irrigation Equipment",
    "source_country": "IT",
    "country": "Italy",
    "state": "Emilia-Romagna",
    "city": "Berra"
  },
  {
    "source_id": "ChIJQyDw8N_0f0cRhE_m36C06SU",
    "name": "Irrigreen",
    "category": "Irrigreen",
    "formatted_address": "4,3(3)",
    "phone_number": "+390522642318",
    "source_url": "https://www.google.com/maps/place/Irrigreen/data=!4m7!3m6!1s0x477ff4dff0f02043:0x25e9b4a0dfe64f84!8m2!3d45.1836109!4d10.6267461!16s%2Fg%2F1tddwm9t!19sChIJQyDw8N_0f0cRhE_m36C06SU?authuser=0&hl=tr&rclk=1",
    "website_url": "http://www.irrigreen.it/",
    "rating_text": "4,3",
    "stars": null,
    "number_of_reviews": null,
    "price_level": "",
    "open_hours": "",
    "extraction_timestamp": "2025-06-07T15:55:35.395Z",
    "source_name": "google",
    "source_query": "Irrigation Equipment",
    "source_country": "IT",
    "country": "Italy",
    "state": "Emilia-Romagna",
    "city": "Berra"
  },
  {
    "source_id": "ChIJe_YsuO0biEcRle1AfyU9sG0",
    "name": "Berra Irroratrici srl",
    "category": "Berra Irroratrici srl",
    "formatted_address": "4,6(32)",
    "phone_number": "+390119735954",
    "source_url": "https://www.google.com/maps/place/Berra+Irroratrici+srl/data=!4m7!3m6!1s0x47881bedb82cf67b:0x6db03d257f40ed95!8m2!3d44.835556!4d7.5709238!16s%2Fg%2F1hc102mbc!19sChIJe_YsuO0biEcRle1AfyU9sG0?authuser=0&hl=tr&rclk=1",
    "website_url": "http://www.berrairroratrici.it/",
    "rating_text": "4,6",
    "stars": null,
    "number_of_reviews": null,
    "price_level": "",
    "open_hours": "",
    "extraction_timestamp": "2025-06-07T15:55:35.396Z",
    "source_name": "google",
    "source_query": "Irrigation Equipment",
    "source_country": "IT",
    "country": "Italy",
    "state": "Emilia-Romagna",
    "city": "Berra"
  },
  {
    "source_id": "ChIJzcFQMxQkgEcRn-wZrxhX9_E",
    "name": "Omv Officine Meccaniche",
    "category": "Omv Officine Meccaniche",
    "formatted_address": "4,3(26)",
    "phone_number": "+390522831361",
    "source_url": "https://www.google.com/maps/place/Omv+Officine+Meccaniche/data=!4m7!3m6!1s0x478024143350c1cd:0xf1f75718af19ec9f!8m2!3d44.8935027!4d10.6517664!16s%2Fg%2F1td5q3gq!19sChIJzcFQMxQkgEcRn-wZrxhX9_E?authuser=0&hl=tr&rclk=1",
    "website_url": "http://www.omve.it/",
    "rating_text": "4,3",
    "stars": null,
    "number_of_reviews": null,
    "price_level": "",
    "open_hours": "",
    "extraction_timestamp": "2025-06-07T15:55:35.397Z",
    "source_name": "google",
    "source_query": "Irrigation Equipment",
    "source_country": "IT",
    "country": "Italy",
    "state": "Emilia-Romagna",
    "city": "Berra"
  },
  {
    "source_id": "ChIJG5IVdjwuf0cRuiuvDB912EI",
    "name": "Irrigazione Veneta (S.R.L.)",
    "category": "Irrigazione Veneta (S.R.L.)",
    "formatted_address": "4,3(55)",
    "phone_number": "+390444581098",
    "source_url": "https://www.google.com/maps/place/Irrigazione+Veneta+%28S.R.L.%29/data=!4m7!3m6!1s0x477f2e3c7615921b:0x42d8751f0caf2bba!8m2!3d45.5172457!4d11.6066912!16s%2Fg%2F1tfj203m!19sChIJG5IVdjwuf0cRuiuvDB912EI?authuser=0&hl=tr&rclk=1",
    "website_url": "http://www.irrigazioneveneta.com/",
    "rating_text": "4,3",
    "stars": null,
    "number_of_reviews": null,
    "price_level": "",
    "open_hours": "",
    "extraction_timestamp": "2025-06-07T15:55:35.399Z",
    "source_name": "google",
    "source_query": "Irrigation Equipment",
    "source_country": "IT",
    "country": "Italy",
    "state": "Emilia-Romagna",
    "city": "Berra"
  },
  {
    "source_id": "ChIJhQBF-GhIfkcRFZ34l9qDsN0",
    "name": "Baraldi Leonardo",
    "category": "Baraldi Leonardo",
    "formatted_address": "5,0(1)",
    "phone_number": "+390532722654",
    "source_url": "https://www.google.com/maps/place/Baraldi+Leonardo/data=!4m7!3m6!1s0x477e4868f8450085:0xddb083da97f89d15!8m2!3d44.73549!4d11.64391!16s%2Fg%2F1hc1pgtmd!19sChIJhQBF-GhIfkcRFZ34l9qDsN0?authuser=0&hl=tr&rclk=1",
    "website_url": "",
    "rating_text": "5,0",
    "stars": null,
    "number_of_reviews": null,
    "price_level": "",
    "open_hours": "",
    "extraction_timestamp": "2025-06-07T15:55:35.400Z",
    "source_name": "google",
    "source_query": "Irrigation Equipment",
    "source_country": "IT",
    "country": "Italy",
    "state": "Emilia-Romagna",
    "city": "Berra"
  },
  {
    "source_id": "ChIJE6kRxlYcf0cRnom3DWfVclk",
    "name": "La Veneta Agricola srl",
    "category": "La Veneta Agricola srl",
    "formatted_address": "4,4(124)",
    "phone_number": "+39042990625",
    "source_url": "https://www.google.com/maps/place/La+Veneta+Agricola+srl/data=!4m7!3m6!1s0x477f1c56c611a913:0x5972d5670db7899e!8m2!3d45.2032789!4d11.599103!16s%2Fg%2F1tp0cj4m!19sChIJE6kRxlYcf0cRnom3DWfVclk?authuser=0&hl=tr&rclk=1",
    "website_url": "http://www.veneta-agricola.it/",
    "rating_text": "4,4",
    "stars": null,
    "number_of_reviews": null,
    "price_level": "",
    "open_hours": "",
    "extraction_timestamp": "2025-06-07T15:55:35.401Z",
    "source_name": "google",
    "source_query": "Irrigation Equipment",
    "source_country": "IT",
    "country": "Italy",
    "state": "Emilia-Romagna",
    "city": "Berra"
  },
  {
    "source_id": "ChIJRW_5YVTrfkcRTmNl63ZnX14",
    "name": "Zappaterra Snc",
    "category": "Zappaterra Snc",
    "formatted_address": "4,5(47)",
    "phone_number": "+39042659115",
    "source_url": "https://www.google.com/maps/place/Zappaterra+Snc/data=!4m7!3m6!1s0x477eeb5461f96f45:0x5e5f6776eb65634e!8m2!3d45.1945338!4d12.0386873!16s%2Fg%2F11g_53xn4!19sChIJRW_5YVTrfkcRTmNl63ZnX14?authuser=0&hl=tr&rclk=1",
    "website_url": "https://www.ferramenta.tech/",
    "rating_text": "4,5",
    "stars": null,
    "number_of_reviews": null,
    "price_level": "",
    "open_hours": "",
    "extraction_timestamp": "2025-06-07T15:55:35.403Z",
    "source_name": "google",
    "source_query": "Irrigation Equipment",
    "source_country": "IT",
    "country": "Italy",
    "state": "Emilia-Romagna",
    "city": "Berra"
  },
  {
    "source_id": "ChIJlyTt577ZfkcR_LKtJLskqLw",
    "name": "Ecorain Irrigation Systems S.R.L.",
    "category": "Ecorain Irrigation Systems S.R.L.",
    "formatted_address": "4,7(3)",
    "phone_number": "+390498900774",
    "source_url": "https://www.google.com/maps/place/Ecorain+Irrigation+Systems+S.R.L./data=!4m7!3m6!1s0x477ed9bee7ed2497:0xbca824bb24adb2fc!8m2!3d45.420902!4d11.8150559!16s%2Fg%2F1tfz_y17!19sChIJlyTt577ZfkcR_LKtJLskqLw?authuser=0&hl=tr&rclk=1",
    "website_url": "http://www.ecorain.it/",
    "rating_text": "4,7",
    "stars": null,
    "number_of_reviews": null,
    "price_level": "",
    "open_hours": "",
    "extraction_timestamp": "2025-06-07T15:55:35.404Z",
    "source_name": "google",
    "source_query": "Irrigation Equipment",
    "source_country": "IT",
    "country": "Italy",
    "state": "Emilia-Romagna",
    "city": "Berra"
  },
  {
    "source_id": "ChIJNakYw-P5fkcRxM3hmmAmnSs",
    "name": "Acquaprogetti",
    "category": "Acquaprogetti",
    "formatted_address": "4,8(62)",
    "phone_number": "+3904251901991",
    "source_url": "https://www.google.com/maps/place/Acquaprogetti/data=!4m7!3m6!1s0x477ef9e3c318a935:0x2b9d26609ae1cdc4!8m2!3d45.053652!4d11.7825522!16s%2Fg%2F11c2k416_8!19sChIJNakYw-P5fkcRxM3hmmAmnSs?authuser=0&hl=tr&rclk=1",
    "website_url": "https://www.acquaprogetti.it/",
    "rating_text": "4,8",
    "stars": null,
    "number_of_reviews": null,
    "price_level": "",
    "open_hours": "",
    "extraction_timestamp": "2025-06-07T15:55:35.406Z",
    "source_name": "google",
    "source_query": "Irrigation Equipment",
    "source_country": "IT",
    "country": "Italy",
    "state": "Emilia-Romagna",
    "city": "Berra"
  },
  {
    "source_id": "ChIJvyUSxQRtf0cRRO1VDXbOkuI",
    "name": "Bludrops srl - Sistemi D'Irrigazione",
    "category": "Bludrops srl - Sistemi D'Irrigazione",
    "formatted_address": "4,8(8)",
    "phone_number": "+3904421791413",
    "source_url": "https://www.google.com/maps/place/Bludrops+srl+-+Sistemi+D%27Irrigazione/data=!4m7!3m6!1s0x477f6d04c51225bf:0xe292ce760d55ed44!8m2!3d45.2669457!4d11.2263981!16s%2Fg%2F11f4pphzpt!19sChIJvyUSxQRtf0cRRO1VDXbOkuI?authuser=0&hl=tr&rclk=1",
    "website_url": "http://www.bludrops.it/",
    "rating_text": "4,8",
    "stars": null,
    "number_of_reviews": null,
    "price_level": "",
    "open_hours": "",
    "extraction_timestamp": "2025-06-07T15:55:35.407Z",
    "source_name": "google",
    "source_query": "Irrigation Equipment",
    "source_country": "IT",
    "country": "Italy",
    "state": "Emilia-Romagna",
    "city": "Berra"
  },
  {
    "source_id": "ChIJjV5BCekVfkcRqHFOiQiRSI0",
    "name": "Molino Birati Andrea",
    "category": "Molino Birati Andrea",
    "formatted_address": "4,5(91)",
    "phone_number": "+390532804942",
    "source_url": "https://www.google.com/maps/place/Molino+Birati+Andrea/data=!4m7!3m6!1s0x477e15e909415e8d:0x8d489108894e71a8!8m2!3d44.6226291!4d11.8211485!16s%2Fg%2F11cn5m3f_h!19sChIJjV5BCekVfkcRqHFOiQiRSI0?authuser=0&hl=tr&rclk=1",
    "website_url": "",
    "rating_text": "4,5",
    "stars": null,
    "number_of_reviews": null,
    "price_level": "",
    "open_hours": "",
    "extraction_timestamp": "2025-06-07T15:55:35.408Z",
    "source_name": "google",
    "source_query": "Irrigation Equipment",
    "source_country": "IT",
    "country": "Italy",
    "state": "Emilia-Romagna",
    "city": "Berra"
  },
  {
    "source_id": "ChIJ0VNlJROXf0cRawSw3h0WMtU",
    "name": "Idromarket Srl",
    "category": "Idromarket Srl",
    "formatted_address": "4,5(132)",
    "phone_number": "+390535610490",
    "source_url": "https://www.google.com/maps/place/Idromarket+Srl/data=!4m7!3m6!1s0x477f9713256553d1:0xd532161ddeb0046b!8m2!3d44.8739092!4d11.0680834!16s%2Fg%2F1tql3mhn!19sChIJ0VNlJROXf0cRawSw3h0WMtU?authuser=0&hl=tr&rclk=1",
    "website_url": "https://idromarket.com/",
    "rating_text": "4,5",
    "stars": null,
    "number_of_reviews": null,
    "price_level": "",
    "open_hours": "",
    "extraction_timestamp": "2025-06-07T15:55:35.410Z",
    "source_name": "google",
    "source_query": "Irrigation Equipment",
    "source_country": "IT",
    "country": "Italy",
    "state": "Emilia-Romagna",
    "city": "Berra"
  },
  {
    "source_id": "ChIJIY-7PnzBfkcR87O3-DY_Gks",
    "name": "Zambonin agricoltura - Vigorovea",
    "category": "Zambonin agricoltura - Vigorovea",
    "formatted_address": "4,5(174)",
    "phone_number": "+390495842271",
    "source_url": "https://www.google.com/maps/place/Zambonin+agricoltura+-+Vigorovea/data=!4m7!3m6!1s0x477ec17c3ebb8f21:0x4b1a3f36f8b7b3f3!8m2!3d45.3215406!4d11.999526!16s%2Fg%2F1tdw29ld!19sChIJIY-7PnzBfkcR87O3-DY_Gks?authuser=0&hl=tr&rclk=1",
    "website_url": "http://www.zamboninagricoltura.it/",
    "rating_text": "4,5",
    "stars": null,
    "number_of_reviews": null,
    "price_level": "",
    "open_hours": "",
    "extraction_timestamp": "2025-06-07T15:55:35.411Z",
    "source_name": "google",
    "source_query": "Irrigation Equipment",
    "source_country": "IT",
    "country": "Italy",
    "state": "Emilia-Romagna",
    "city": "Berra"
  },
  {
    "source_id": "ChIJAdruoW0cgEcR3Gg91KmmNQw",
    "name": "Kramp Italia",
    "category": "Kramp Italia",
    "formatted_address": "4,7(18)",
    "phone_number": "+3905221712630",
    "source_url": "https://www.google.com/maps/place/Kramp+Italia/data=!4m7!3m6!1s0x47801c6da1eeda01:0xc35a6a9d43d68dc!8m2!3d44.711173!4d10.7080676!16s%2Fg%2F1hc4fppvw!19sChIJAdruoW0cgEcR3Gg91KmmNQw?authuser=0&hl=tr&rclk=1",
    "website_url": "https://www.kramp.com/shop-it/it?utm_source=google&utm_medium=organic&utm_campaign=gmb&utm_content=website",
    "rating_text": "4,7",
    "stars": null,
    "number_of_reviews": null,
    "price_level": "",
    "open_hours": "",
    "extraction_timestamp": "2025-06-07T15:55:35.413Z",
    "source_name": "google",
    "source_query": "Irrigation Equipment",
    "source_country": "IT",
    "country": "Italy",
    "state": "Emilia-Romagna",
    "city": "Berra"
  }
]
