[
  {
    "source_id": "ChIJpVv9TmYQgEcRkPUIA3tc-yo",
    "name": "Hobby Garden Petucco Srl",
    "category": "Hobby Garden Petucco Srl",
    "formatted_address": "4,1(158)",
    "phone_number": "+390522243076",
    "source_url": "https://www.google.com/maps/place/Hobby+Garden+Petucco+Srl/data=!4m7!3m6!1s0x478010664efd5ba5:0x2afb5c7b0308f590!8m2!3d44.696324!4d10.485611!16s%2Fg%2F1td2956f!19sChIJpVv9TmYQgEcRkPUIA3tc-yo?authuser=0&hl=tr&rclk=1",
    "website_url": "http://www.hobbygarden.eu/",
    "rating_text": "4,1",
    "stars": null,
    "number_of_reviews": null,
    "price_level": "",
    "open_hours": "",
    "extraction_timestamp": "2025-06-07T16:41:02.882Z",
    "source_name": "google",
    "source_query": "Irrigation Equipment",
    "source_country": "IT",
    "country": "Italy",
    "state": "Emilia-Romagna",
    "city": "Bibbiano"
  },
  {
    "source_id": "ChIJKQzLWd4PgEcR3YwZlIfW10Y",
    "name": "Agri1 Srl",
    "category": "Agri1 Srl",
    "formatted_address": "4,4(112)",
    "phone_number": "+390522253689",
    "source_url": "https://www.google.com/maps/place/Agri1+Srl/data=!4m7!3m6!1s0x47800fde59cb0c29:0x46d7d68794198cdd!8m2!3d44.6657764!4d10.4667623!16s%2Fg%2F11g698h7np!19sChIJKQzLWd4PgEcR3YwZlIfW10Y?authuser=0&hl=tr&rclk=1",
    "website_url": "http://www.agri1.it/",
    "rating_text": "4,4",
    "stars": null,
    "number_of_reviews": null,
    "price_level": "",
    "open_hours": "",
    "extraction_timestamp": "2025-06-07T16:41:02.883Z",
    "source_name": "google",
    "source_query": "Irrigation Equipment",
    "source_country": "IT",
    "country": "Italy",
    "state": "Emilia-Romagna",
    "city": "Bibbiano"
  },
  {
    "source_id": "ChIJb8MGHf8PgEcRvsfXRlZ8l-o",
    "name": "O.C.R.E. Elettromeccanica",
    "category": "O.C.R.E. Elettromeccanica",
    "formatted_address": "5,0(2)",
    "phone_number": "+390522882335",
    "source_url": "https://www.google.com/maps/place/O.C.R.E.+Elettromeccanica/data=!4m7!3m6!1s0x47800fff1d06c36f:0xea977c5646d7c7be!8m2!3d44.6625805!4d10.488149!16s%2Fg%2F1tdjvwds!19sChIJb8MGHf8PgEcRvsfXRlZ8l-o?authuser=0&hl=tr&rclk=1",
    "website_url": "",
    "rating_text": "5,0",
    "stars": null,
    "number_of_reviews": null,
    "price_level": "",
    "open_hours": "",
    "extraction_timestamp": "2025-06-07T16:41:02.885Z",
    "source_name": "google",
    "source_query": "Irrigation Equipment",
    "source_country": "IT",
    "country": "Italy",
    "state": "Emilia-Romagna",
    "city": "Bibbiano"
  },
  {
    "source_id": "ChIJwxott6IPgEcRH6nAvneHEIw",
    "name": "GEOSISM & NATURE s.a.s. di Barani Simone & C.",
    "category": "GEOSISM & NATURE s.a.s. di Barani Simone & C.",
    "formatted_address": "4,9(112)",
    "phone_number": "+393488219198",
    "source_url": "https://www.google.com/maps/place/GEOSISM+%26+NATURE+s.a.s.+di+Barani+Simone+%26+C./data=!4m7!3m6!1s0x47800fa2b72d1ac3:0x8c108777bec0a91f!8m2!3d44.666199!4d10.4735223!16s%2Fg%2F11hmzxc3jx!19sChIJwxott6IPgEcRH6nAvneHEIw?authuser=0&hl=tr&rclk=1",
    "website_url": "http://www.geosism.com/",
    "rating_text": "4,9",
    "stars": null,
    "number_of_reviews": null,
    "price_level": "",
    "open_hours": "",
    "extraction_timestamp": "2025-06-07T16:41:02.886Z",
    "source_name": "google",
    "source_query": "Irrigation Equipment",
    "source_country": "IT",
    "country": "Italy",
    "state": "Emilia-Romagna",
    "city": "Bibbiano"
  },
  {
    "source_id": "ChIJl1DtLvIagEcRB7oC6fRm17w",
    "name": "Agrostar Srl",
    "category": "Agrostar Srl",
    "formatted_address": "4,6(13)",
    "phone_number": "+390522577741",
    "source_url": "https://www.google.com/maps/place/Agrostar+Srl/data=!4m7!3m6!1s0x47801af22eed5097:0xbcd766f4e902ba07!8m2!3d44.663296!4d10.489464!16s%2Fg%2F1v9ghvj3!19sChIJl1DtLvIagEcRB7oC6fRm17w?authuser=0&hl=tr&rclk=1",
    "website_url": "http://www.agrostar.it/",
    "rating_text": "4,6",
    "stars": null,
    "number_of_reviews": null,
    "price_level": "",
    "open_hours": "",
    "extraction_timestamp": "2025-06-07T16:41:02.888Z",
    "source_name": "google",
    "source_query": "Irrigation Equipment",
    "source_country": "IT",
    "country": "Italy",
    "state": "Emilia-Romagna",
    "city": "Bibbiano"
  },
  {
    "source_id": "ChIJzWyZEf8dgEcRM0sVtbJE3TI",
    "name": "Impiantistica LAVONE",
    "category": "Impiantistica LAVONE",
    "formatted_address": "5,0(3)",
    "phone_number": "+393514759408",
    "source_url": "https://www.google.com/maps/place/Impiantistica+LAVONE/data=!4m7!3m6!1s0x47801dff11996ccd:0x32dd44b2b5154b33!8m2!3d44.7120611!4d10.6241549!16s%2Fg%2F11lp1gdrnd!19sChIJzWyZEf8dgEcRM0sVtbJE3TI?authuser=0&hl=tr&rclk=1",
    "website_url": "",
    "rating_text": "5,0",
    "stars": null,
    "number_of_reviews": null,
    "price_level": "",
    "open_hours": "",
    "extraction_timestamp": "2025-06-07T16:41:02.889Z",
    "source_name": "google",
    "source_query": "Irrigation Equipment",
    "source_country": "IT",
    "country": "Italy",
    "state": "Emilia-Romagna",
    "city": "Bibbiano"
  },
  {
    "source_id": "ChIJQwuA7P4PgEcRdbXi6m4Avkw",
    "name": "I.S.A. DEL RIO",
    "category": "I.S.A. DEL RIO",
    "formatted_address": "Endüstriyel Ekipman Tedarikçisi ·  · Via Fratelli Corradini, 50/B+39 0522 882306",
    "phone_number": "+390522882306",
    "source_url": "https://www.google.com/maps/place/I.S.A.+DEL+RIO/data=!4m7!3m6!1s0x47800ffeec800b43:0x4cbe006eeae2b575!8m2!3d44.6626104!4d10.4870282!16s%2Fg%2F11h6nnfxss!19sChIJQwuA7P4PgEcRdbXi6m4Avkw?authuser=0&hl=tr&rclk=1",
    "website_url": "http://www.isadelrio.it/",
    "rating_text": "",
    "stars": null,
    "number_of_reviews": null,
    "price_level": "",
    "open_hours": "",
    "extraction_timestamp": "2025-06-07T16:41:02.890Z",
    "source_name": "google",
    "source_query": "Irrigation Equipment",
    "source_country": "IT",
    "country": "Italy",
    "state": "Emilia-Romagna",
    "city": "Bibbiano"
  },
  {
    "source_id": "ChIJwafHK-IPgEcRBQyicG6eaqI",
    "name": "CM Ferramenta sas - Husqvarna",
    "category": "CM Ferramenta sas - Husqvarna",
    "formatted_address": "4,4(87)",
    "phone_number": "+390522882686",
    "source_url": "https://www.google.com/maps/place/CM+Ferramenta+sas+-+Husqvarna/data=!4m7!3m6!1s0x47800fe22bc7a7c1:0xa26a9e6e70a20c05!8m2!3d44.6659337!4d10.4754113!16s%2Fg%2F11b6jh4xz_!19sChIJwafHK-IPgEcRBQyicG6eaqI?authuser=0&hl=tr&rclk=1",
    "website_url": "http://www.cmferramenta.it/",
    "rating_text": "4,4",
    "stars": null,
    "number_of_reviews": null,
    "price_level": "",
    "open_hours": "",
    "extraction_timestamp": "2025-06-07T16:41:02.891Z",
    "source_name": "google",
    "source_query": "Irrigation Equipment",
    "source_country": "IT",
    "country": "Italy",
    "state": "Emilia-Romagna",
    "city": "Bibbiano"
  },
  {
    "source_id": "ChIJcQG6ul7df0cR3VxKiu5OPBs",
    "name": "Scova Impianti Srl",
    "category": "Scova Impianti Srl",
    "formatted_address": "4,5(64)",
    "phone_number": "+39059923202",
    "source_url": "https://www.google.com/maps/place/Scova+Impianti+Srl/data=!4m7!3m6!1s0x477fdd5ebaba0171:0x1b3c4eee8a4a5cdd!8m2!3d44.6018135!4d11.032294!16s%2Fg%2F1tfzwbfb!19sChIJcQG6ul7df0cR3VxKiu5OPBs?authuser=0&hl=tr&rclk=1",
    "website_url": "https://www.scovaimpianti.com/",
    "rating_text": "4,5",
    "stars": null,
    "number_of_reviews": null,
    "price_level": "",
    "open_hours": "",
    "extraction_timestamp": "2025-06-07T16:41:02.892Z",
    "source_name": "google",
    "source_query": "Irrigation Equipment",
    "source_country": "IT",
    "country": "Italy",
    "state": "Emilia-Romagna",
    "city": "Bibbiano"
  },
  {
    "source_id": "ChIJW2v-OOYbgEcRs2i9KLnLYAg",
    "name": "Compressori HP Technology Assistenza Aria Compressa",
    "category": "Compressori HP Technology Assistenza Aria Compressa",
    "formatted_address": "5,0(1)",
    "phone_number": "+390522363018",
    "source_url": "https://www.google.com/maps/place/Compressori+HP+Technology+Assistenza+Aria+Compressa/data=!4m7!3m6!1s0x47801be638fe6b5b:0x860cbb928bd68b3!8m2!3d44.690258!4d10.50433!16s%2Fg%2F11j4dkgdp8!19sChIJW2v-OOYbgEcRs2i9KLnLYAg?authuser=0&hl=tr&rclk=1",
    "website_url": "http://www.hptechnology.info/",
    "rating_text": "5,0",
    "stars": null,
    "number_of_reviews": null,
    "price_level": "",
    "open_hours": "",
    "extraction_timestamp": "2025-06-07T16:41:02.894Z",
    "source_name": "google",
    "source_query": "Irrigation Equipment",
    "source_country": "IT",
    "country": "Italy",
    "state": "Emilia-Romagna",
    "city": "Bibbiano"
  },
  {
    "source_id": "ChIJveAeFroEgEcRZfa9xqlB6vM",
    "name": "Morelli Irrigazioni",
    "category": "Morelli Irrigazioni",
    "formatted_address": "1,0(1)",
    "phone_number": "+393480042122",
    "source_url": "https://www.google.com/maps/place/Morelli+Irrigazioni/data=!4m7!3m6!1s0x478004ba161ee0bd:0xf3ea41a9c6bdf665!8m2!3d44.649256!4d10.5636837!16s%2Fg%2F11gy01p0bd!19sChIJveAeFroEgEcRZfa9xqlB6vM?authuser=0&hl=tr&rclk=1",
    "website_url": "http://irrigazionimorelli.it/",
    "rating_text": "1,0",
    "stars": null,
    "number_of_reviews": null,
    "price_level": "",
    "open_hours": "",
    "extraction_timestamp": "2025-06-07T16:41:02.895Z",
    "source_name": "google",
    "source_query": "Irrigation Equipment",
    "source_country": "IT",
    "country": "Italy",
    "state": "Emilia-Romagna",
    "city": "Bibbiano"
  },
  {
    "source_id": "ChIJtVDkNgRFgEcRqc6umwWIJuI",
    "name": "Rm Spa",
    "category": "Rm Spa",
    "formatted_address": "4,6(81)",
    "phone_number": "+390521872321",
    "source_url": "https://www.google.com/maps/place/Rm+Spa/data=!4m7!3m6!1s0x4780450436e450b5:0xe22688059baecea9!8m2!3d44.9105406!4d10.2583785!16s%2Fg%2F12hl93byl!19sChIJtVDkNgRFgEcRqc6umwWIJuI?authuser=0&hl=tr&rclk=1",
    "website_url": "http://www.rmirrigation.com/",
    "rating_text": "4,6",
    "stars": null,
    "number_of_reviews": null,
    "price_level": "",
    "open_hours": "",
    "extraction_timestamp": "2025-06-07T16:41:02.896Z",
    "source_name": "google",
    "source_query": "Irrigation Equipment",
    "source_country": "IT",
    "country": "Italy",
    "state": "Emilia-Romagna",
    "city": "Bibbiano"
  }
]
