[
  {
    "source_id": "ChIJM1YDrdvQf0cR04ugW7FgB5o",
    "name": "Green Blue Italia srl",
    "category": "Green Blue Italia srl",
    "formatted_address": "4,7(17)",
    "phone_number": "+390510492100",
    "source_url": "https://www.google.com/maps/place/Green+Blue+Italia+srl/data=!4m7!3m6!1s0x477fd0dbad035633:0x9a0760b15ba08bd3!8m2!3d44.5324593!4d11.2320285!16s%2Fg%2F11gr3cvb1v!19sChIJM1YDrdvQf0cR04ugW7FgB5o?authuser=0&hl=tr&rclk=1",
    "website_url": "",
    "rating_text": "4,7",
    "stars": null,
    "number_of_reviews": null,
    "price_level": "",
    "open_hours": "",
    "extraction_timestamp": "2025-06-07T16:00:15.846Z",
    "source_name": "google",
    "source_query": "Irrigation Equipment",
    "source_country": "IT",
    "country": "Italy",
    "state": "Emilia-Romagna",
    "city": "Bologna"
  },
  {
    "source_id": "ChIJE_3jOnMtfkcRkxtTFj3Ym9E",
    "name": "Irrigation Scarabelli Srl",
    "category": "Irrigation Scarabelli Srl",
    "formatted_address": "4,5(23)",
    "phone_number": "+39051763363",
    "source_url": "https://www.google.com/maps/place/Irrigation+Scarabelli+Srl/data=!4m7!3m6!1s0x477e2d733ae3fd13:0xd19bd83d16531b93!8m2!3d44.5426053!4d11.4189136!16s%2Fg%2F11gzdz6vf!19sChIJE_3jOnMtfkcRkxtTFj3Ym9E?authuser=0&hl=tr&rclk=1",
    "website_url": "",
    "rating_text": "4,5",
    "stars": null,
    "number_of_reviews": null,
    "price_level": "",
    "open_hours": "",
    "extraction_timestamp": "2025-06-07T16:00:15.847Z",
    "source_name": "google",
    "source_query": "Irrigation Equipment",
    "source_country": "IT",
    "country": "Italy",
    "state": "Emilia-Romagna",
    "city": "Bologna"
  },
  {
    "source_id": "ChIJ_SYf2IMsfkcRVw9xVhrnjyI",
    "name": "Irrigazione Bragaglia",
    "category": "Irrigazione Bragaglia",
    "formatted_address": "4,7(30)",
    "phone_number": "+39051534865",
    "source_url": "https://www.google.com/maps/place/Irrigazione+Bragaglia/data=!4m7!3m6!1s0x477e2c83d81f26fd:0x228fe71a56710f57!8m2!3d44.5053735!4d11.412403!16s%2Fg%2F1vp6z0gf!19sChIJ_SYf2IMsfkcRVw9xVhrnjyI?authuser=0&hl=tr&rclk=1",
    "website_url": "",
    "rating_text": "4,7",
    "stars": null,
    "number_of_reviews": null,
    "price_level": "",
    "open_hours": "",
    "extraction_timestamp": "2025-06-07T16:00:15.848Z",
    "source_name": "google",
    "source_query": "Irrigation Equipment",
    "source_country": "IT",
    "country": "Italy",
    "state": "Emilia-Romagna",
    "city": "Bologna"
  },
  {
    "source_id": "ChIJh3Nd8G0sfkcR_m7VewEmxXM",
    "name": "Irrigarden",
    "category": "Irrigarden",
    "formatted_address": "4,7(158)",
    "phone_number": "+39051782013",
    "source_url": "https://www.google.com/maps/place/Irrigarden/data=!4m7!3m6!1s0x477e2c6df05d7387:0x73c526017bd56efe!8m2!3d44.5096266!4d11.4390897!16s%2Fg%2F1vgw_l7w!19sChIJh3Nd8G0sfkcR_m7VewEmxXM?authuser=0&hl=tr&rclk=1",
    "website_url": "",
    "rating_text": "4,7",
    "stars": null,
    "number_of_reviews": null,
    "price_level": "",
    "open_hours": "",
    "extraction_timestamp": "2025-06-07T16:00:15.849Z",
    "source_name": "google",
    "source_query": "Irrigation Equipment",
    "source_country": "IT",
    "country": "Italy",
    "state": "Emilia-Romagna",
    "city": "Bologna"
  },
  {
    "source_id": "ChIJfwIlLTstfkcRqXM-Eu7aw-E",
    "name": "Grundfos Water Treatment Italy - Filiale di Bologna",
    "category": "Grundfos Water Treatment Italy - Filiale di Bologna",
    "formatted_address": "3,1(152)",
    "phone_number": "",
    "source_url": "https://www.google.com/maps/place/Grundfos+Water+Treatment+Italy+-+Filiale+di+Bologna/data=!4m7!3m6!1s0x477e2d3b2d25027f:0xe1c3daee123e73a9!8m2!3d44.5487154!4d11.4097534!16s%2Fg%2F1tdwzcny!19sChIJfwIlLTstfkcRqXM-Eu7aw-E?authuser=0&hl=tr&rclk=1",
    "website_url": "",
    "rating_text": "3,1",
    "stars": null,
    "number_of_reviews": null,
    "price_level": "",
    "open_hours": "",
    "extraction_timestamp": "2025-06-07T16:00:15.849Z",
    "source_name": "google",
    "source_query": "Irrigation Equipment",
    "source_country": "IT",
    "country": "Italy",
    "state": "Emilia-Romagna",
    "city": "Bologna"
  },
  {
    "source_id": "ChIJRTfJkFgrfkcROAgs4fAwi90",
    "name": "Tecnomat",
    "category": "Tecnomat",
    "formatted_address": "4,3(7.142)",
    "phone_number": "+390283905463",
    "source_url": "https://www.google.com/maps/place/Tecnomat/data=!4m7!3m6!1s0x477e2b5890c93745:0xdd8b30f0e12c0838!8m2!3d44.5047222!4d11.3869444!16s%2Fg%2F1q62m6z7l!19sChIJRTfJkFgrfkcROAgs4fAwi90?authuser=0&hl=tr&rclk=1",
    "website_url": "",
    "rating_text": "4,3",
    "stars": null,
    "number_of_reviews": null,
    "price_level": "",
    "open_hours": "",
    "extraction_timestamp": "2025-06-07T16:00:15.851Z",
    "source_name": "google",
    "source_query": "Irrigation Equipment",
    "source_country": "IT",
    "country": "Italy",
    "state": "Emilia-Romagna",
    "city": "Bologna"
  },
  {
    "source_id": "ChIJyXgg68QrfkcRAaJCOMJ3PxY",
    "name": "hidrisistem",
    "category": "hidrisistem",
    "formatted_address": "5,0(1)",
    "phone_number": "+39366448310824",
    "source_url": "https://www.google.com/maps/place/hidrisistem/data=!4m7!3m6!1s0x477e2bc4eb2078c9:0x163f77c23842a201!8m2!3d44.496029!4d11.402638!16s%2Fg%2F11w_zjhjy3!19sChIJyXgg68QrfkcRAaJCOMJ3PxY?authuser=0&hl=tr&rclk=1",
    "website_url": "",
    "rating_text": "5,0",
    "stars": null,
    "number_of_reviews": null,
    "price_level": "",
    "open_hours": "",
    "extraction_timestamp": "2025-06-07T16:00:15.852Z",
    "source_name": "google",
    "source_query": "Irrigation Equipment",
    "source_country": "IT",
    "country": "Italy",
    "state": "Emilia-Romagna",
    "city": "Bologna"
  },
  {
    "source_id": "ChIJkzfApunUf0cRsUbK9d6Ur7I",
    "name": "Climequipe",
    "category": "Climequipe",
    "formatted_address": "4,9(52)",
    "phone_number": "+393489043191",
    "source_url": "https://www.google.com/maps/place/Climequipe/data=!4m7!3m6!1s0x477fd4e9a6c03793:0xb2af94def5ca46b1!8m2!3d44.4853096!4d11.3370209!16s%2Fg%2F11g0wglr1z!19sChIJkzfApunUf0cRsUbK9d6Ur7I?authuser=0&hl=tr&rclk=1",
    "website_url": "",
    "rating_text": "4,9",
    "stars": null,
    "number_of_reviews": null,
    "price_level": "",
    "open_hours": "",
    "extraction_timestamp": "2025-06-07T16:00:15.880Z",
    "source_name": "google",
    "source_query": "Irrigation Equipment",
    "source_country": "IT",
    "country": "Italy",
    "state": "Emilia-Romagna",
    "city": "Bologna"
  },
  {
    "source_id": "ChIJj6lqi20sfkcRzOHfxextuA0",
    "name": "La Pioggia",
    "category": "La Pioggia",
    "formatted_address": "4,6(54)",
    "phone_number": "+39051781194",
    "source_url": "https://www.google.com/maps/place/La+Pioggia/data=!4m7!3m6!1s0x477e2c6d8b6aa98f:0xdb86decc5dfe1cc!8m2!3d44.5092215!4d11.4394615!16s%2Fg%2F1tffc0h0!19sChIJj6lqi20sfkcRzOHfxextuA0?authuser=0&hl=tr&rclk=1",
    "website_url": "",
    "rating_text": "4,6",
    "stars": null,
    "number_of_reviews": null,
    "price_level": "",
    "open_hours": "",
    "extraction_timestamp": "2025-06-07T16:00:15.882Z",
    "source_name": "google",
    "source_query": "Irrigation Equipment",
    "source_country": "IT",
    "country": "Italy",
    "state": "Emilia-Romagna",
    "city": "Bologna"
  },
  {
    "source_id": "ChIJw3M1-gHTf0cR4Npr_n0P5Pg",
    "name": "Idraco s.r.l. Vendita ingrosso/dettaglio",
    "category": "Idraco s.r.l. Vendita ingrosso/dettaglio",
    "formatted_address": "4,8(27)",
    "phone_number": "+390510954480",
    "source_url": "https://www.google.com/maps/place/Idraco+s.r.l.+Vendita+ingrosso%2Fdettaglio/data=!4m7!3m6!1s0x477fd301fa3573c3:0xf8e40f7dfe6bdae0!8m2!3d44.5332442!4d11.3463793!16s%2Fg%2F11h045w95v!19sChIJw3M1-gHTf0cR4Npr_n0P5Pg?authuser=0&hl=tr&rclk=1",
    "website_url": "",
    "rating_text": "4,8",
    "stars": null,
    "number_of_reviews": null,
    "price_level": "",
    "open_hours": "",
    "extraction_timestamp": "2025-06-07T16:00:15.883Z",
    "source_name": "google",
    "source_query": "Irrigation Equipment",
    "source_country": "IT",
    "country": "Italy",
    "state": "Emilia-Romagna",
    "city": "Bologna"
  },
  {
    "source_id": "ChIJCXuseTHTf0cRzptQ0pGelFU",
    "name": "Alpe Hydraulic Systems Water Meters",
    "category": "Alpe Hydraulic Systems Water Meters",
    "formatted_address": "Su Hizmeti Sağlayıcısı · Via del Gomito, 23+39 051 326854",
    "phone_number": "+39051326854",
    "source_url": "https://www.google.com/maps/place/Alpe+Hydraulic+Systems+Water+Meters/data=!4m7!3m6!1s0x477fd33179ac7b09:0x55949e91d2509bce!8m2!3d44.531701!4d11.3753288!16s%2Fg%2F1tjt0slq!19sChIJCXuseTHTf0cRzptQ0pGelFU?authuser=0&hl=tr&rclk=1",
    "website_url": "",
    "rating_text": "",
    "stars": null,
    "number_of_reviews": null,
    "price_level": "",
    "open_hours": "",
    "extraction_timestamp": "2025-06-07T16:00:15.883Z",
    "source_name": "google",
    "source_query": "Irrigation Equipment",
    "source_country": "IT",
    "country": "Italy",
    "state": "Emilia-Romagna",
    "city": "Bologna"
  },
  {
    "source_id": "ChIJlzPN61jTf0cRZhfoBsWgS_o",
    "name": "Idraulica Emiliana S.p.A.",
    "category": "Idraulica Emiliana S.p.A.",
    "formatted_address": "4,3(30)",
    "phone_number": "+390516333548",
    "source_url": "https://www.google.com/maps/place/Idraulica+Emiliana+S.p.A./data=!4m7!3m6!1s0x477fd358ebcd3397:0xfa4ba0c506e81766!8m2!3d44.5092595!4d11.3571117!16s%2Fg%2F11g69g3sh_!19sChIJlzPN61jTf0cRZhfoBsWgS_o?authuser=0&hl=tr&rclk=1",
    "website_url": "",
    "rating_text": "4,3",
    "stars": null,
    "number_of_reviews": null,
    "price_level": "",
    "open_hours": "",
    "extraction_timestamp": "2025-06-07T16:00:15.884Z",
    "source_name": "google",
    "source_query": "Irrigation Equipment",
    "source_country": "IT",
    "country": "Italy",
    "state": "Emilia-Romagna",
    "city": "Bologna"
  },
  {
    "source_id": "ChIJm9jATGYrfkcRe0oR3ST9gW0",
    "name": "Idrotecno S.r.l. - Gruppo Termoacqua",
    "category": "Idrotecno S.r.l. - Gruppo Termoacqua",
    "formatted_address": "4,9(24)",
    "phone_number": "+39051533986",
    "source_url": "https://www.google.com/maps/place/Idrotecno+S.r.l.+-+Gruppo+Termoacqua/data=!4m7!3m6!1s0x477e2b664cc0d89b:0x6d81fd24dd114a7b!8m2!3d44.4961677!4d11.393858!16s%2Fg%2F1hc1q7jm6!19sChIJm9jATGYrfkcRe0oR3ST9gW0?authuser=0&hl=tr&rclk=1",
    "website_url": "",
    "rating_text": "4,9",
    "stars": null,
    "number_of_reviews": null,
    "price_level": "",
    "open_hours": "",
    "extraction_timestamp": "2025-06-07T16:00:15.886Z",
    "source_name": "google",
    "source_query": "Irrigation Equipment",
    "source_country": "IT",
    "country": "Italy",
    "state": "Emilia-Romagna",
    "city": "Bologna"
  },
  {
    "source_id": "ChIJnTMseWMrfkcROkZnl9Ut3MM",
    "name": "Supreme Compression Fittings Quapus Srl",
    "category": "Supreme Compression Fittings Quapus Srl",
    "formatted_address": "4,6(9)",
    "phone_number": "+390516053557",
    "source_url": "https://www.google.com/maps/place/Supreme+Compression+Fittings+Quapus+Srl/data=!4m7!3m6!1s0x477e2b63792c339d:0xc3dc2dd59767463a!8m2!3d44.4986604!4d11.4240626!16s%2Fg%2F1ptw88990!19sChIJnTMseWMrfkcROkZnl9Ut3MM?authuser=0&hl=tr&rclk=1",
    "website_url": "",
    "rating_text": "4,6",
    "stars": null,
    "number_of_reviews": null,
    "price_level": "",
    "open_hours": "",
    "extraction_timestamp": "2025-06-07T16:00:15.887Z",
    "source_name": "google",
    "source_query": "Irrigation Equipment",
    "source_country": "IT",
    "country": "Italy",
    "state": "Emilia-Romagna",
    "city": "Bologna"
  },
  {
    "source_id": "ChIJ68gBChArfkcRLQ0qRWLevE8",
    "name": "F.P. SpA Persici Magazzino Sede Bologna",
    "category": "F.P. SpA Persici Magazzino Sede Bologna",
    "formatted_address": "4,4(147)",
    "phone_number": "+39051454261",
    "source_url": "https://www.google.com/maps/place/F.P.+SpA+Persici+Magazzino+Sede+Bologna/data=!4m7!3m6!1s0x477e2b100a01c8eb:0x4fbcde62452a0d2d!8m2!3d44.4963444!4d11.4003934!16s%2Fg%2F12ht72y0v!19sChIJ68gBChArfkcRLQ0qRWLevE8?authuser=0&hl=tr&rclk=1",
    "website_url": "",
    "rating_text": "4,4",
    "stars": null,
    "number_of_reviews": null,
    "price_level": "",
    "open_hours": "",
    "extraction_timestamp": "2025-06-07T16:00:15.888Z",
    "source_name": "google",
    "source_query": "Irrigation Equipment",
    "source_country": "IT",
    "country": "Italy",
    "state": "Emilia-Romagna",
    "city": "Bologna"
  },
  {
    "source_id": "ChIJ7XDKj2HTf0cRxmbaBjcZlt8",
    "name": "Polyter Italia",
    "category": "Polyter Italia",
    "formatted_address": "Gübre Tedarikçisi · Via Giuseppe Massarenti, 46/MKapalı ⋅ Açılış zamanı: Pzt 09:00 · +39 051 468 4641",
    "phone_number": "+390514684641",
    "source_url": "https://www.google.com/maps/place/Polyter+Italia/data=!4m7!3m6!1s0x477fd3618fca70ed:0xdf96193706da66c6!8m2!3d44.4936904!4d11.3594386!16s%2Fg%2F11t3nlqk6f!19sChIJ7XDKj2HTf0cRxmbaBjcZlt8?authuser=0&hl=tr&rclk=1",
    "website_url": "",
    "rating_text": "",
    "stars": null,
    "number_of_reviews": null,
    "price_level": "",
    "open_hours": "",
    "extraction_timestamp": "2025-06-07T16:00:15.889Z",
    "source_name": "google",
    "source_query": "Irrigation Equipment",
    "source_country": "IT",
    "country": "Italy",
    "state": "Emilia-Romagna",
    "city": "Bologna"
  },
  {
    "source_id": "ChIJV5xKmB7Tf0cRYR95Fngc3V0",
    "name": "Idrocasa di Calanca Mirco",
    "category": "Idrocasa di Calanca Mirco",
    "formatted_address": "4,5(14)",
    "phone_number": "",
    "source_url": "https://www.google.com/maps/place/Idrocasa+di+Calanca+Mirco/data=!4m7!3m6!1s0x477fd31e984a9c57:0x5ddd1c7816791f61!8m2!3d44.4991361!4d11.3442002!16s%2Fg%2F1tdc_jgr!19sChIJV5xKmB7Tf0cRYR95Fngc3V0?authuser=0&hl=tr&rclk=1",
    "website_url": "",
    "rating_text": "4,5",
    "stars": null,
    "number_of_reviews": null,
    "price_level": "",
    "open_hours": "",
    "extraction_timestamp": "2025-06-07T16:00:15.890Z",
    "source_name": "google",
    "source_query": "Irrigation Equipment",
    "source_country": "IT",
    "country": "Italy",
    "state": "Emilia-Romagna",
    "city": "Bologna"
  },
  {
    "source_id": "ChIJa4TTganUf0cRKtWi8bMxJCk",
    "name": "Tematic S.p.A. Office and Warehouse",
    "category": "Tematic S.p.A. Office and Warehouse",
    "formatted_address": "4,2(52)",
    "phone_number": "+39051511379",
    "source_url": "https://www.google.com/maps/place/Tematic+S.p.A.+Office+and+Warehouse/data=!4m7!3m6!1s0x477fd4a981d3846b:0x292431b3f1a2d52a!8m2!3d44.5049885!4d11.3652568!16s%2Fg%2F1w6_mp2b!19sChIJa4TTganUf0cRKtWi8bMxJCk?authuser=0&hl=tr&rclk=1",
    "website_url": "",
    "rating_text": "4,2",
    "stars": null,
    "number_of_reviews": null,
    "price_level": "",
    "open_hours": "",
    "extraction_timestamp": "2025-06-07T16:00:15.891Z",
    "source_name": "google",
    "source_query": "Irrigation Equipment",
    "source_country": "IT",
    "country": "Italy",
    "state": "Emilia-Romagna",
    "city": "Bologna"
  },
  {
    "source_id": "ChIJoUdjxvcrfkcRNBRxZxbabWs",
    "name": "Roli D. macchine ed attrezzature per giardinaggio",
    "category": "Roli D. macchine ed attrezzature per giardinaggio",
    "formatted_address": "4,6(27)",
    "phone_number": "+390514842351",
    "source_url": "https://www.google.com/maps/place/Roli+D.+macchine+ed+attrezzature+per+giardinaggio/data=!4m7!3m6!1s0x477e2bf7c66347a1:0x6b6dda1667711434!8m2!3d44.5028239!4d11.4035209!16s%2Fg%2F11tj6kzpf8!19sChIJoUdjxvcrfkcRNBRxZxbabWs?authuser=0&hl=tr&rclk=1",
    "website_url": "",
    "rating_text": "4,6",
    "stars": null,
    "number_of_reviews": null,
    "price_level": "",
    "open_hours": "",
    "extraction_timestamp": "2025-06-07T16:00:15.891Z",
    "source_name": "google",
    "source_query": "Irrigation Equipment",
    "source_country": "IT",
    "country": "Italy",
    "state": "Emilia-Romagna",
    "city": "Bologna"
  },
  {
    "source_id": "ChIJJVCxnoHTf0cR8GQmay7SIQA",
    "name": "Saccaria Idrotermosanitari Bologna (Magazzino)",
    "category": "Saccaria Idrotermosanitari Bologna (Magazzino)",
    "formatted_address": "4,2(142)",
    "phone_number": "+390516352101",
    "source_url": "https://www.google.com/maps/place/Saccaria+Idrotermosanitari+Bologna+%28Magazzino%29/data=!4m7!3m6!1s0x477fd3819eb15025:0x21d22e6b2664f0!8m2!3d44.5151941!4d11.3250192!16s%2Fg%2F1tzghh1h!19sChIJJVCxnoHTf0cR8GQmay7SIQA?authuser=0&hl=tr&rclk=1",
    "website_url": "",
    "rating_text": "4,2",
    "stars": null,
    "number_of_reviews": null,
    "price_level": "",
    "open_hours": "",
    "extraction_timestamp": "2025-06-07T16:00:15.892Z",
    "source_name": "google",
    "source_query": "Irrigation Equipment",
    "source_country": "IT",
    "country": "Italy",
    "state": "Emilia-Romagna",
    "city": "Bologna"
  },
  {
    "source_id": "ChIJfRtZdMvUf0cRw4qmsOOrR8U",
    "name": "Drogheria Olimpia",
    "category": "Drogheria Olimpia",
    "formatted_address": "4,8(125)",
    "phone_number": "+390516142085",
    "source_url": "https://www.google.com/maps/place/Drogheria+Olimpia/data=!4m7!3m6!1s0x477fd4cb74591b7d:0xc547abe3b0a68ac3!8m2!3d44.495307!4d11.3236584!16s%2Fg%2F124yq5pm6!19sChIJfRtZdMvUf0cRw4qmsOOrR8U?authuser=0&hl=tr&rclk=1",
    "website_url": "",
    "rating_text": "4,8",
    "stars": null,
    "number_of_reviews": null,
    "price_level": "",
    "open_hours": "",
    "extraction_timestamp": "2025-06-07T16:00:15.893Z",
    "source_name": "google",
    "source_query": "Irrigation Equipment",
    "source_country": "IT",
    "country": "Italy",
    "state": "Emilia-Romagna",
    "city": "Bologna"
  },
  {
    "source_id": "ChIJJ6TMmYHUf0cRgV2DvwjxKHA",
    "name": "Cambielli S.p.A.",
    "category": "Cambielli S.p.A.",
    "formatted_address": "4,0(137)",
    "phone_number": "+390516356711",
    "source_url": "https://www.google.com/maps/place/Cambielli+S.p.A./data=!4m7!3m6!1s0x477fd48199cca427:0x7028f108bf835d81!8m2!3d44.5092405!4d11.3306192!16s%2Fg%2F1tc_2ypv!19sChIJJ6TMmYHUf0cRgV2DvwjxKHA?authuser=0&hl=tr&rclk=1",
    "website_url": "",
    "rating_text": "4,0",
    "stars": null,
    "number_of_reviews": null,
    "price_level": "",
    "open_hours": "",
    "extraction_timestamp": "2025-06-07T16:00:15.894Z",
    "source_name": "google",
    "source_query": "Irrigation Equipment",
    "source_country": "IT",
    "country": "Italy",
    "state": "Emilia-Romagna",
    "city": "Bologna"
  },
  {
    "source_id": "ChIJfYiTFXXTf0cRo7CV0R5NrsM",
    "name": "Sandri Srl - Hardware",
    "category": "Sandri Srl - Hardware",
    "formatted_address": "4,4(120)",
    "phone_number": "+390516343200",
    "source_url": "https://www.google.com/maps/place/Sandri+Srl+-+Hardware/data=!4m7!3m6!1s0x477fd3751593887d:0xc3ae4d1ed195b0a3!8m2!3d44.5279367!4d11.335829!16s%2Fg%2F1tn04n9h!19sChIJfYiTFXXTf0cRo7CV0R5NrsM?authuser=0&hl=tr&rclk=1",
    "website_url": "",
    "rating_text": "4,4",
    "stars": null,
    "number_of_reviews": null,
    "price_level": "",
    "open_hours": "",
    "extraction_timestamp": "2025-06-07T16:00:15.895Z",
    "source_name": "google",
    "source_query": "Irrigation Equipment",
    "source_country": "IT",
    "country": "Italy",
    "state": "Emilia-Romagna",
    "city": "Bologna"
  },
  {
    "source_id": "ChIJL1-mEBTTf0cRzEulEhP7cPc",
    "name": "Acquario Croce Coperta",
    "category": "Acquario Croce Coperta",
    "formatted_address": "4,6(339)",
    "phone_number": "+39051324791",
    "source_url": "https://www.google.com/maps/place/Acquario+Croce+Coperta/data=!4m7!3m6!1s0x477fd31410a65f2f:0xf770fb1312a54bcc!8m2!3d44.5312777!4d11.3533274!16s%2Fg%2F1tz94lh_!19sChIJL1-mEBTTf0cRzEulEhP7cPc?authuser=0&hl=tr&rclk=1",
    "website_url": "",
    "rating_text": "4,6",
    "stars": null,
    "number_of_reviews": null,
    "price_level": "",
    "open_hours": "",
    "extraction_timestamp": "2025-06-07T16:00:15.896Z",
    "source_name": "google",
    "source_query": "Irrigation Equipment",
    "source_country": "IT",
    "country": "Italy",
    "state": "Emilia-Romagna",
    "city": "Bologna"
  },
  {
    "source_id": "ChIJdbi1mvUlfkcRw_VX1yUWxp8",
    "name": "Hydro Italia srl - Trattamento e Depurazione Acque Industriali",
    "category": "Hydro Italia srl - Trattamento e Depurazione Acque Industriali",
    "formatted_address": "4,0(2)",
    "phone_number": "+39051856263",
    "source_url": "https://www.google.com/maps/place/Hydro+Italia+srl+-+Trattamento+e+Depurazione+Acque+Industriali/data=!4m7!3m6!1s0x477e25f59ab5b875:0x9fc61625d757f5c3!8m2!3d44.5025405!4d11.560667!16s%2Fg%2F1tdjp_4w!19sChIJdbi1mvUlfkcRw_VX1yUWxp8?authuser=0&hl=tr&rclk=1",
    "website_url": "",
    "rating_text": "4,0",
    "stars": null,
    "number_of_reviews": null,
    "price_level": "",
    "open_hours": "",
    "extraction_timestamp": "2025-06-07T16:00:15.897Z",
    "source_name": "google",
    "source_query": "Irrigation Equipment",
    "source_country": "IT",
    "country": "Italy",
    "state": "Emilia-Romagna",
    "city": "Bologna"
  },
  {
    "source_id": "ChIJRerYKJTUf0cRgVv-_-oHJNo",
    "name": "Hardware Boriani s.a.s.di S. Piancastelli & C.",
    "category": "Hardware Boriani s.a.s.di S. Piancastelli & C.",
    "formatted_address": "4,7(118)",
    "phone_number": "+39051225812",
    "source_url": "https://www.google.com/maps/place/Hardware+Boriani+s.a.s.di+S.+Piancastelli+%26+C./data=!4m7!3m6!1s0x477fd49428d8ea45:0xda2407eafffe5b81!8m2!3d44.4956402!4d11.3406184!16s%2Fg%2F1tsbkzv0!19sChIJRerYKJTUf0cRgVv-_-oHJNo?authuser=0&hl=tr&rclk=1",
    "website_url": "",
    "rating_text": "4,7",
    "stars": null,
    "number_of_reviews": null,
    "price_level": "",
    "open_hours": "",
    "extraction_timestamp": "2025-06-07T16:00:15.898Z",
    "source_name": "google",
    "source_query": "Irrigation Equipment",
    "source_country": "IT",
    "country": "Italy",
    "state": "Emilia-Romagna",
    "city": "Bologna"
  },
  {
    "source_id": "ChIJDRZLmY7Uf0cRoljnG6mk_BQ",
    "name": "Gestione Acque Canali Reno E Savena Srl",
    "category": "Gestione Acque Canali Reno E Savena Srl",
    "formatted_address": "5,0(2)",
    "phone_number": "+39051521025",
    "source_url": "https://www.google.com/maps/place/Gestione+Acque+Canali+Reno+E+Savena+Srl/data=!4m7!3m6!1s0x477fd48e994b160d:0x14fca4a91be758a2!8m2!3d44.4972339!4d11.3284416!16s%2Fg%2F1tj51fwk!19sChIJDRZLmY7Uf0cRoljnG6mk_BQ?authuser=0&hl=tr&rclk=1",
    "website_url": "",
    "rating_text": "5,0",
    "stars": null,
    "number_of_reviews": null,
    "price_level": "",
    "open_hours": "",
    "extraction_timestamp": "2025-06-07T16:00:15.899Z",
    "source_name": "google",
    "source_query": "Irrigation Equipment",
    "source_country": "IT",
    "country": "Italy",
    "state": "Emilia-Romagna",
    "city": "Bologna"
  },
  {
    "source_id": "ChIJPe8hJnfTf0cRTnOwdODKtok",
    "name": "Würth Store & MODYF Bologna",
    "category": "Würth Store & MODYF Bologna",
    "formatted_address": "4,6(20)",
    "phone_number": "+390471828007",
    "source_url": "https://www.google.com/maps/place/W%C3%BCrth+Store+%26+MODYF+Bologna/data=!4m7!3m6!1s0x477fd3772621ef3d:0x89b6cae074b0734e!8m2!3d44.5331739!4d11.3555431!16s%2Fg%2F11sv2d54kk!19sChIJPe8hJnfTf0cRTnOwdODKtok?authuser=0&hl=tr&rclk=1",
    "website_url": "",
    "rating_text": "4,6",
    "stars": null,
    "number_of_reviews": null,
    "price_level": "",
    "open_hours": "",
    "extraction_timestamp": "2025-06-07T16:00:15.900Z",
    "source_name": "google",
    "source_query": "Irrigation Equipment",
    "source_country": "IT",
    "country": "Italy",
    "state": "Emilia-Romagna",
    "city": "Bologna"
  },
  {
    "source_id": "ChIJXeweVrLWf0cRlbjuWk8kiHU",
    "name": "Würth Store & MODYF Bologna Borgo Panigale",
    "category": "Würth Store & MODYF Bologna Borgo Panigale",
    "formatted_address": "4,6(29)",
    "phone_number": "+390471828082",
    "source_url": "https://www.google.com/maps/place/W%C3%BCrth+Store+%26+MODYF+Bologna+Borgo+Panigale/data=!4m7!3m6!1s0x477fd6b2561eec5d:0x7588244f5aeeb895!8m2!3d44.5140953!4d11.2666041!16s%2Fg%2F11cjx9xjqn!19sChIJXeweVrLWf0cRlbjuWk8kiHU?authuser=0&hl=tr&rclk=1",
    "website_url": "",
    "rating_text": "4,6",
    "stars": null,
    "number_of_reviews": null,
    "price_level": "",
    "open_hours": "",
    "extraction_timestamp": "2025-06-07T16:00:15.901Z",
    "source_name": "google",
    "source_query": "Irrigation Equipment",
    "source_country": "IT",
    "country": "Italy",
    "state": "Emilia-Romagna",
    "city": "Bologna"
  },
  {
    "source_id": "ChIJR7jEQb_Uf0cRSHK5kN3HSeU",
    "name": "Ferramenta Tedeschi",
    "category": "Ferramenta Tedeschi",
    "formatted_address": "4,5(54)",
    "phone_number": "+39051225745",
    "source_url": "https://www.google.com/maps/place/Ferramenta+Tedeschi/data=!4m7!3m6!1s0x477fd4bf41c4b847:0xe549c7dd90b97248!8m2!3d44.491583!4d11.346718!16s%2Fg%2F1tcwdv16!19sChIJR7jEQb_Uf0cRSHK5kN3HSeU?authuser=0&hl=tr&rclk=1",
    "website_url": "",
    "rating_text": "4,5",
    "stars": null,
    "number_of_reviews": null,
    "price_level": "",
    "open_hours": "",
    "extraction_timestamp": "2025-06-07T16:00:15.902Z",
    "source_name": "google",
    "source_query": "Irrigation Equipment",
    "source_country": "IT",
    "country": "Italy",
    "state": "Emilia-Romagna",
    "city": "Bologna"
  }
]
