[
  {
    "source_id": "ChIJcQG6ul7df0cR3VxKiu5OPBs",
    "name": "Scova Impianti Srl",
    "category": "Scova Impianti Srl",
    "formatted_address": "4,5(64)",
    "phone_number": "+39059923202",
    "source_url": "https://www.google.com/maps/place/Scova+Impianti+Srl/data=!4m7!3m6!1s0x477fdd5ebaba0171:0x1b3c4eee8a4a5cdd!8m2!3d44.6018135!4d11.032294!16s%2Fg%2F1tfzwbfb!19sChIJcQG6ul7df0cR3VxKiu5OPBs?authuser=0&hl=tr&rclk=1",
    "website_url": "https://www.scovaimpianti.com/",
    "rating_text": "4,5",
    "stars": null,
    "number_of_reviews": null,
    "price_level": "",
    "open_hours": "",
    "extraction_timestamp": "2025-06-07T16:55:13.921Z",
    "source_name": "google",
    "source_query": "Irrigation Equipment",
    "source_country": "IT",
    "country": "Italy",
    "state": "Emilia-Romagna",
    "city": "Bomporto"
  },
  {
    "source_id": "ChIJYVTT-rPrf0cRM3subde2YhA",
    "name": "Idromec S.R.L.",
    "category": "Idromec S.R.L.",
    "formatted_address": "5,0(3)",
    "phone_number": "+39059909268",
    "source_url": "https://www.google.com/maps/place/Idromec+S.R.L./data=!4m7!3m6!1s0x477febb3fad35461:0x1062b6d76d2e7b33!8m2!3d44.690078!4d11.0057473!16s%2Fg%2F12hn3vy62!19sChIJYVTT-rPrf0cRM3subde2YhA?authuser=0&hl=tr&rclk=1",
    "website_url": "http://www.idromecsrl.it/",
    "rating_text": "5,0",
    "stars": null,
    "number_of_reviews": null,
    "price_level": "",
    "open_hours": "",
    "extraction_timestamp": "2025-06-07T16:55:13.922Z",
    "source_name": "google",
    "source_query": "Irrigation Equipment",
    "source_country": "IT",
    "country": "Italy",
    "state": "Emilia-Romagna",
    "city": "Bomporto"
  },
  {
    "source_id": "ChIJJ6V6lMDgf0cR1SpFsfjDuHg",
    "name": "Ocmis Irrigazione Spa",
    "category": "Ocmis Irrigazione Spa",
    "formatted_address": "3,5(31)",
    "phone_number": "+39059702150",
    "source_url": "https://www.google.com/maps/place/Ocmis+Irrigazione+Spa/data=!4m7!3m6!1s0x477fe0c0947aa527:0x78b8c3f8b1452ad5!8m2!3d44.530494!4d10.9794578!16s%2Fg%2F1vd3tn19!19sChIJJ6V6lMDgf0cR1SpFsfjDuHg?authuser=0&hl=tr&rclk=1",
    "website_url": "http://www.ocmis-irrigazione.it/",
    "rating_text": "3,5",
    "stars": null,
    "number_of_reviews": null,
    "price_level": "",
    "open_hours": "",
    "extraction_timestamp": "2025-06-07T16:55:13.923Z",
    "source_name": "google",
    "source_query": "Irrigation Equipment",
    "source_country": "IT",
    "country": "Italy",
    "state": "Emilia-Romagna",
    "city": "Bomporto"
  },
  {
    "source_id": "ChIJHQGz6dXof0cRPD2igQWHtxo",
    "name": "Hidrostar",
    "category": "Hidrostar",
    "formatted_address": "4,8(33)",
    "phone_number": "+39059251056",
    "source_url": "https://www.google.com/maps/place/Hidrostar/data=!4m7!3m6!1s0x477fe8d5e9b3011d:0x1ab7870581a23d3c!8m2!3d44.6584919!4d10.9641811!16s%2Fg%2F1tf9rp0c!19sChIJHQGz6dXof0cRPD2igQWHtxo?authuser=0&hl=tr&rclk=1",
    "website_url": "http://www.hidrostar.it/",
    "rating_text": "4,8",
    "stars": null,
    "number_of_reviews": null,
    "price_level": "",
    "open_hours": "",
    "extraction_timestamp": "2025-06-07T16:55:13.924Z",
    "source_name": "google",
    "source_query": "Irrigation Equipment",
    "source_country": "IT",
    "country": "Italy",
    "state": "Emilia-Romagna",
    "city": "Bomporto"
  },
  {
    "source_id": "ChIJEz21Bn3pf0cR3WUf4Kmr0t4",
    "name": "Tecnosald Emilia Srl",
    "category": "Tecnosald Emilia Srl",
    "formatted_address": "4,5(2)",
    "phone_number": "+39059909958",
    "source_url": "https://www.google.com/maps/place/Tecnosald+Emilia+Srl/data=!4m7!3m6!1s0x477fe97d06b53d13:0xded2aba9e01f65dd!8m2!3d44.690182!4d11.0099231!16s%2Fg%2F1tdwtjlj!19sChIJEz21Bn3pf0cR3WUf4Kmr0t4?authuser=0&hl=tr&rclk=1",
    "website_url": "http://www.tecnosald.com/",
    "rating_text": "4,5",
    "stars": null,
    "number_of_reviews": null,
    "price_level": "",
    "open_hours": "",
    "extraction_timestamp": "2025-06-07T16:55:13.925Z",
    "source_name": "google",
    "source_query": "Irrigation Equipment",
    "source_country": "IT",
    "country": "Italy",
    "state": "Emilia-Romagna",
    "city": "Bomporto"
  },
  {
    "source_id": "ChIJY25MnvGVf0cRX_FQ2kEjA40",
    "name": "Acqua Bidistillata",
    "category": "Acqua Bidistillata",
    "formatted_address": "",
    "phone_number": "+393382907101",
    "source_url": "https://www.google.com/maps/place/Acqua+Bidistillata/data=!4m7!3m6!1s0x477f95f19e4c6e63:0x8d032341da50f15f!8m2!3d44.5951496!4d10.9928672!16s%2Fg%2F11r36drcbm!19sChIJY25MnvGVf0cRX_FQ2kEjA40?authuser=0&hl=tr&rclk=1",
    "website_url": "",
    "rating_text": "",
    "stars": null,
    "number_of_reviews": null,
    "price_level": "",
    "open_hours": "",
    "extraction_timestamp": "2025-06-07T16:55:13.926Z",
    "source_name": "google",
    "source_query": "Irrigation Equipment",
    "source_country": "IT",
    "country": "Italy",
    "state": "Emilia-Romagna",
    "city": "Bomporto"
  },
  {
    "source_id": "ChIJdXbdoRzrf0cRTdZDdiB_aW4",
    "name": "Cerlini Imballaggi",
    "category": "Cerlini Imballaggi",
    "formatted_address": "4,3(14)",
    "phone_number": "+39059909519",
    "source_url": "https://www.google.com/maps/place/Cerlini+Imballaggi/data=!4m7!3m6!1s0x477feb1ca1dd7675:0x6e697f207643d64d!8m2!3d44.7380672!4d11.0321159!16s%2Fg%2F1thhjbzy!19sChIJdXbdoRzrf0cRTdZDdiB_aW4?authuser=0&hl=tr&rclk=1",
    "website_url": "https://www.imballaggicerlini.it/",
    "rating_text": "4,3",
    "stars": null,
    "number_of_reviews": null,
    "price_level": "",
    "open_hours": "",
    "extraction_timestamp": "2025-06-07T16:55:13.927Z",
    "source_name": "google",
    "source_query": "Irrigation Equipment",
    "source_country": "IT",
    "country": "Italy",
    "state": "Emilia-Romagna",
    "city": "Bomporto"
  },
  {
    "source_id": "ChIJn6L29Zjof0cRzkCm8WYZAS0",
    "name": "CAPRARA s.r.l.",
    "category": "CAPRARA s.r.l.",
    "formatted_address": "5,0(1)",
    "phone_number": "+39059284810",
    "source_url": "https://www.google.com/maps/place/CAPRARA+s.r.l./data=!4m7!3m6!1s0x477fe898f5f6a29f:0x2d011966f1a640ce!8m2!3d44.6281881!4d10.9732808!16s%2Fg%2F1hc636b9q!19sChIJn6L29Zjof0cRzkCm8WYZAS0?authuser=0&hl=tr&rclk=1",
    "website_url": "http://www.caprara.it/",
    "rating_text": "5,0",
    "stars": null,
    "number_of_reviews": null,
    "price_level": "",
    "open_hours": "",
    "extraction_timestamp": "2025-06-07T16:55:13.928Z",
    "source_name": "google",
    "source_query": "Irrigation Equipment",
    "source_country": "IT",
    "country": "Italy",
    "state": "Emilia-Romagna",
    "city": "Bomporto"
  },
  {
    "source_id": "ChIJV02TC0qNf0cRlaeibvnDnEw",
    "name": "TECMODENA Group srl: Guarnizioni piane - Espansi Termoisolanti - Interno Packaging - Waterjet, Taglio a getto d'acqua",
    "category": "TECMODENA Group srl: Guarnizioni piane - Espansi Termoisolanti - Interno Packaging - Waterjet, Taglio a getto d'acqua",
    "formatted_address": "TECMODENA Group srl: Guarnizioni piane - Espansi Termoisolanti - Interno Packaging - Waterjet, Taglio a getto d'acqua",
    "phone_number": "+39059566551",
    "source_url": "https://www.google.com/maps/place/TECMODENA+Group+srl:+Guarnizioni+piane+-+Espansi+Termoisolanti+-+Interno+Packaging+-+Waterjet,+Taglio+a+getto+d%27acqua/data=!4m7!3m6!1s0x477f8d4a0b934d57:0x4c9cc3f96ea2a795!8m2!3d44.7266063!4d10.9167357!16s%2Fg%2F1tf74cnn!19sChIJV02TC0qNf0cRlaeibvnDnEw?authuser=0&hl=tr&rclk=1",
    "website_url": "http://www.tecmodena.it/",
    "rating_text": "5,0",
    "stars": null,
    "number_of_reviews": null,
    "price_level": "",
    "open_hours": "",
    "extraction_timestamp": "2025-06-07T16:55:13.930Z",
    "source_name": "google",
    "source_query": "Irrigation Equipment",
    "source_country": "IT",
    "country": "Italy",
    "state": "Emilia-Romagna",
    "city": "Bomporto"
  },
  {
    "source_id": "ChIJyc7K5_Hvf0cRPs35y99PoGw",
    "name": "Commersald Spa",
    "category": "Commersald Spa",
    "formatted_address": "4,8(12)",
    "phone_number": "+39059348411",
    "source_url": "https://www.google.com/maps/place/Commersald+Spa/data=!4m7!3m6!1s0x477feff1e7cacec9:0x6ca04fdfcbf9cd3e!8m2!3d44.6393735!4d10.8744639!16s%2Fg%2F1vn_xtjp!19sChIJyc7K5_Hvf0cRPs35y99PoGw?authuser=0&hl=tr&rclk=1",
    "website_url": "https://www.commersald.com/",
    "rating_text": "4,8",
    "stars": null,
    "number_of_reviews": null,
    "price_level": "",
    "open_hours": "",
    "extraction_timestamp": "2025-06-07T16:55:13.930Z",
    "source_name": "google",
    "source_query": "Irrigation Equipment",
    "source_country": "IT",
    "country": "Italy",
    "state": "Emilia-Romagna",
    "city": "Bomporto"
  },
  {
    "source_id": "ChIJ-Z_RHvbnf0cRry0jCm7Q5GQ",
    "name": "Scova Impianti",
    "category": "Scova Impianti",
    "formatted_address": "4,0(4)",
    "phone_number": "+39059925910",
    "source_url": "https://www.google.com/maps/place/Scova+Impianti/data=!4m7!3m6!1s0x477fe7f61ed19ff9:0x64e4d06e0a232daf!8m2!3d44.6018937!4d11.0315223!16s%2Fg%2F1td6wznv!19sChIJ-Z_RHvbnf0cRry0jCm7Q5GQ?authuser=0&hl=tr&rclk=1",
    "website_url": "https://scovaimpianti.com/",
    "rating_text": "4,0",
    "stars": null,
    "number_of_reviews": null,
    "price_level": "",
    "open_hours": "",
    "extraction_timestamp": "2025-06-07T16:55:13.932Z",
    "source_name": "google",
    "source_query": "Irrigation Equipment",
    "source_country": "IT",
    "country": "Italy",
    "state": "Emilia-Romagna",
    "city": "Bomporto"
  },
  {
    "source_id": "ChIJhT-kpAXff0cRKJQqKYwIulA",
    "name": "Irrigo",
    "category": "Irrigo",
    "formatted_address": "4,7(36)",
    "phone_number": "+393473096499",
    "source_url": "https://www.google.com/maps/place/Irrigo/data=!4m7!3m6!1s0x477fdf05a4a43f85:0x50ba088c292a9428!8m2!3d44.5018172!4d11.005272!16s%2Fg%2F11hdjcp5pk!19sChIJhT-kpAXff0cRKJQqKYwIulA?authuser=0&hl=tr&rclk=1",
    "website_url": "https://www.irrigovignola.it/",
    "rating_text": "4,7",
    "stars": null,
    "number_of_reviews": null,
    "price_level": "",
    "open_hours": "",
    "extraction_timestamp": "2025-06-07T16:55:13.933Z",
    "source_name": "google",
    "source_query": "Irrigation Equipment",
    "source_country": "IT",
    "country": "Italy",
    "state": "Emilia-Romagna",
    "city": "Bomporto"
  },
  {
    "source_id": "ChIJJ6V6lMDgf0cRkL2jf5B3MwQ",
    "name": "Scova Engineering Spa",
    "category": "Scova Engineering Spa",
    "formatted_address": "5,0(2)",
    "phone_number": "+39059702012",
    "source_url": "https://www.google.com/maps/place/Scova+Engineering+Spa/data=!4m7!3m6!1s0x477fe0c0947aa527:0x43377907fa3bd90!8m2!3d44.5304758!4d10.9796265!16s%2Fg%2F1tql3mky!19sChIJJ6V6lMDgf0cRkL2jf5B3MwQ?authuser=0&hl=tr&rclk=1",
    "website_url": "https://www.scova-engineering.it/",
    "rating_text": "5,0",
    "stars": null,
    "number_of_reviews": null,
    "price_level": "",
    "open_hours": "",
    "extraction_timestamp": "2025-06-07T16:55:13.934Z",
    "source_name": "google",
    "source_query": "Irrigation Equipment",
    "source_country": "IT",
    "country": "Italy",
    "state": "Emilia-Romagna",
    "city": "Bomporto"
  },
  {
    "source_id": "ChIJAUxJ7j3df0cRV576jjhogAg",
    "name": "Aldrovandi Srl Sistemi Irrigazione",
    "category": "Aldrovandi Srl Sistemi Irrigazione",
    "formatted_address": "Sulama Ekipmanları Tedarikçisi · Via Giuseppe Verdi, 34Kalıcı olarak kapalı · +39 059 927676",
    "phone_number": "+39059927676",
    "source_url": "https://www.google.com/maps/place/Aldrovandi+Srl+Sistemi+Irrigazione/data=!4m7!3m6!1s0x477fdd3dee494c01:0x88068388efa9e57!8m2!3d44.59442!4d11.0592496!16s%2Fg%2F12hkr2kns!19sChIJAUxJ7j3df0cRV576jjhogAg?authuser=0&hl=tr&rclk=1",
    "website_url": "",
    "rating_text": "",
    "stars": null,
    "number_of_reviews": null,
    "price_level": "",
    "open_hours": "",
    "extraction_timestamp": "2025-06-07T16:55:13.934Z",
    "source_name": "google",
    "source_query": "Irrigation Equipment",
    "source_country": "IT",
    "country": "Italy",
    "state": "Emilia-Romagna",
    "city": "Bomporto"
  }
]
