[
  {
    "source_id": "ChIJXfxVNEeuf0cRmjfVi71_p-4",
    "name": "Bregoli Group srl - Vendita carrelli elevatori e macchine movimento terra",
    "category": "Bregoli Group srl - Vendita carrelli elevatori e macchine movimento terra",
    "formatted_address": "4,5(40)",
    "phone_number": "+390532896064",
    "source_url": "https://www.google.com/maps/place/Bregoli+Group+srl+-+Vendita+carrelli+elevatori+e+macchine+movimento+terra/data=!4m7!3m6!1s0x477fae473455fc5d:0xeea77fbd8bd5379a!8m2!3d44.8987281!4d11.4049319!16s%2Fg%2F1tffssm1!19sChIJXfxVNEeuf0cRmjfVi71_p-4?authuser=0&hl=tr&rclk=1",
    "website_url": "https://www.bregoligroup.com/",
    "rating_text": "4,5",
    "stars": null,
    "number_of_reviews": null,
    "price_level": "",
    "open_hours": "",
    "extraction_timestamp": "2025-06-07T16:46:22.307Z",
    "source_name": "google",
    "source_query": "Irrigation Equipment",
    "source_country": "IT",
    "country": "Italy",
    "state": "Emilia-Romagna",
    "city": "Bondeno"
  },
  {
    "source_id": "ChIJ-eLL5ShMfkcRkJZIiiw4RaU",
    "name": "P.M. di Peverati M. srl",
    "category": "P.M. di Peverati M. srl",
    "formatted_address": "4,7(50)",
    "phone_number": "+39053294452",
    "source_url": "https://www.google.com/maps/place/P.M.+di+Peverati+M.+srl/data=!4m7!3m6!1s0x477e4c28e5cbe2f9:0xa545382c8a489690!8m2!3d44.8147477!4d11.5887959!16s%2Fg%2F1thp6v8g!19sChIJ-eLL5ShMfkcRkJZIiiw4RaU?authuser=0&hl=tr&rclk=1",
    "website_url": "http://www.pmpeverati.it/",
    "rating_text": "4,7",
    "stars": null,
    "number_of_reviews": null,
    "price_level": "",
    "open_hours": "",
    "extraction_timestamp": "2025-06-07T16:46:22.309Z",
    "source_name": "google",
    "source_query": "Irrigation Equipment",
    "source_country": "IT",
    "country": "Italy",
    "state": "Emilia-Romagna",
    "city": "Bondeno"
  },
  {
    "source_id": "ChIJf7tWBm02fkcRKIfcRoWH9F4",
    "name": "Cesari",
    "category": "Cesari",
    "formatted_address": "4,4(8)",
    "phone_number": "+390532893472",
    "source_url": "https://www.google.com/maps/place/Cesari/data=!4m7!3m6!1s0x477e366d0656bb7f:0x5ef4878546dc8728!8m2!3d44.9021118!4d11.4038095!16s%2Fg%2F1tlw7xww!19sChIJf7tWBm02fkcRKIfcRoWH9F4?authuser=0&hl=tr&rclk=1",
    "website_url": "http://www.nuovacesarisrl.com/",
    "rating_text": "4,4",
    "stars": null,
    "number_of_reviews": null,
    "price_level": "",
    "open_hours": "",
    "extraction_timestamp": "2025-06-07T16:46:22.311Z",
    "source_name": "google",
    "source_query": "Irrigation Equipment",
    "source_country": "IT",
    "country": "Italy",
    "state": "Emilia-Romagna",
    "city": "Bondeno"
  },
  {
    "source_id": "ChIJM4wKYwiyf0cRp_THexmfSFw",
    "name": "Idromeccanica TC",
    "category": "Idromeccanica TC",
    "formatted_address": "4,6(11)",
    "phone_number": "+390532898096",
    "source_url": "https://www.google.com/maps/place/Idromeccanica+TC/data=!4m7!3m6!1s0x477fb208630a8c33:0x5c489f197bc7f4a7!8m2!3d44.8730713!4d11.4373717!16s%2Fg%2F11f4qycj4h!19sChIJM4wKYwiyf0cRp_THexmfSFw?authuser=0&hl=tr&rclk=1",
    "website_url": "https://www.tccleanprofessional.it/",
    "rating_text": "4,6",
    "stars": null,
    "number_of_reviews": null,
    "price_level": "",
    "open_hours": "",
    "extraction_timestamp": "2025-06-07T16:46:22.313Z",
    "source_name": "google",
    "source_query": "Irrigation Equipment",
    "source_country": "IT",
    "country": "Italy",
    "state": "Emilia-Romagna",
    "city": "Bondeno"
  },
  {
    "source_id": "ChIJ90M5rjikf0cRsV0md3bV2Ng",
    "name": "Guaresi Spa",
    "category": "Guaresi Spa",
    "formatted_address": "4,7(63)",
    "phone_number": "+390532883373",
    "source_url": "https://www.google.com/maps/place/Guaresi+Spa/data=!4m7!3m6!1s0x477fa438ae3943f7:0xd8d8d57677265db1!8m2!3d44.947486!4d11.2887767!16s%2Fg%2F1tzztbz3!19sChIJ90M5rjikf0cRsV0md3bV2Ng?authuser=0&hl=tr&rclk=1",
    "website_url": "http://guaresi.com/",
    "rating_text": "4,7",
    "stars": null,
    "number_of_reviews": null,
    "price_level": "",
    "open_hours": "",
    "extraction_timestamp": "2025-06-07T16:46:22.314Z",
    "source_name": "google",
    "source_query": "Irrigation Equipment",
    "source_country": "IT",
    "country": "Italy",
    "state": "Emilia-Romagna",
    "city": "Bondeno"
  },
  {
    "source_id": "ChIJTy0hExquf0cRfbsfnKPkCYI",
    "name": "Ferrocolor SRL",
    "category": "Ferrocolor SRL",
    "formatted_address": "4,4(163)",
    "phone_number": "+390532896011",
    "source_url": "https://www.google.com/maps/place/Ferrocolor+SRL/data=!4m7!3m6!1s0x477fae1a13212d4f:0x8209e4a39c1fbb7d!8m2!3d44.886422!4d11.4133616!16s%2Fg%2F1tfvx_fl!19sChIJTy0hExquf0cRfbsfnKPkCYI?authuser=0&hl=tr&rclk=1",
    "website_url": "http://www.ferrocolor.it/",
    "rating_text": "4,4",
    "stars": null,
    "number_of_reviews": null,
    "price_level": "",
    "open_hours": "",
    "extraction_timestamp": "2025-06-07T16:46:22.317Z",
    "source_name": "google",
    "source_query": "Irrigation Equipment",
    "source_country": "IT",
    "country": "Italy",
    "state": "Emilia-Romagna",
    "city": "Bondeno"
  },
  {
    "source_id": "ChIJV-vHBzCwf0cRnZzwuSoHa1E",
    "name": "RC RIPARAZIONE CALDAIE DI PINCELLI LUCA | ASSISTENZA CALDAIE | BONDENO",
    "category": "RC RIPARAZIONE CALDAIE DI PINCELLI LUCA | ASSISTENZA CALDAIE | BONDENO",
    "formatted_address": "5,0(2)",
    "phone_number": "+390532890354",
    "source_url": "https://www.google.com/maps/place/RC+RIPARAZIONE+CALDAIE+DI+PINCELLI+LUCA+%7C+ASSISTENZA+CALDAIE+%7C+BONDENO/data=!4m7!3m6!1s0x477fb03007c7eb57:0x516b072ab9f09c9d!8m2!3d45.2061309!4d11.1500206!16s%2Fg%2F11b6zplspt!19sChIJV-vHBzCwf0cRnZzwuSoHa1E?authuser=0&hl=tr&rclk=1",
    "website_url": "",
    "rating_text": "5,0",
    "stars": null,
    "number_of_reviews": null,
    "price_level": "",
    "open_hours": "",
    "extraction_timestamp": "2025-06-07T16:46:22.318Z",
    "source_name": "google",
    "source_query": "Irrigation Equipment",
    "source_country": "IT",
    "country": "Italy",
    "state": "Emilia-Romagna",
    "city": "Bondeno"
  },
  {
    "source_id": "ChIJR98HDUeuf0cRATNVgGliBEc",
    "name": "Profilplast",
    "category": "Profilplast",
    "formatted_address": "5,0(2)",
    "phone_number": "+390532897618",
    "source_url": "https://www.google.com/maps/place/Profilplast/data=!4m7!3m6!1s0x477fae470d07df47:0x4704626980553301!8m2!3d44.8992958!4d11.4029264!16s%2Fg%2F1tfpt37x!19sChIJR98HDUeuf0cRATNVgGliBEc?authuser=0&hl=tr&rclk=1",
    "website_url": "http://www.profilplast.net/",
    "rating_text": "5,0",
    "stars": null,
    "number_of_reviews": null,
    "price_level": "",
    "open_hours": "",
    "extraction_timestamp": "2025-06-07T16:46:22.320Z",
    "source_name": "google",
    "source_query": "Irrigation Equipment",
    "source_country": "IT",
    "country": "Italy",
    "state": "Emilia-Romagna",
    "city": "Bondeno"
  },
  {
    "source_id": "ChIJ4acZMxeuf0cRJ-plu5NOre8",
    "name": "La Futura Srl",
    "category": "La Futura Srl",
    "formatted_address": "4,8(233)",
    "phone_number": "+390532894350",
    "source_url": "https://www.google.com/maps/place/La+Futura+Srl/data=!4m7!3m6!1s0x477fae173319a7e1:0xefad4e93bb65ea27!8m2!3d44.8891918!4d11.4131677!16s%2Fg%2F1vvr51wt!19sChIJ4acZMxeuf0cRJ-plu5NOre8?authuser=0&hl=tr&rclk=1",
    "website_url": "https://www.lafuturasrl.it/",
    "rating_text": "4,8",
    "stars": null,
    "number_of_reviews": null,
    "price_level": "",
    "open_hours": "",
    "extraction_timestamp": "2025-06-07T16:46:22.321Z",
    "source_name": "google",
    "source_query": "Irrigation Equipment",
    "source_country": "IT",
    "country": "Italy",
    "state": "Emilia-Romagna",
    "city": "Bondeno"
  },
  {
    "source_id": "ChIJkSvxWz-uf0cR7l_jX9gUBjc",
    "name": "Utensileria Bondenese",
    "category": "Utensileria Bondenese",
    "formatted_address": "4,5(56)",
    "phone_number": "+390532893108",
    "source_url": "https://www.google.com/maps/place/Utensileria+Bondenese/data=!4m7!3m6!1s0x477fae3f5bf12b91:0x370614d85fe35fee!8m2!3d44.8974264!4d11.4049913!16s%2Fg%2F1tcyqp8h!19sChIJkSvxWz-uf0cR7l_jX9gUBjc?authuser=0&hl=tr&rclk=1",
    "website_url": "https://www.utensileriabondenese.it/",
    "rating_text": "4,5",
    "stars": null,
    "number_of_reviews": null,
    "price_level": "",
    "open_hours": "",
    "extraction_timestamp": "2025-06-07T16:46:22.323Z",
    "source_name": "google",
    "source_query": "Irrigation Equipment",
    "source_country": "IT",
    "country": "Italy",
    "state": "Emilia-Romagna",
    "city": "Bondeno"
  },
  {
    "source_id": "ChIJ808Fd8Gvf0cRiVLwgTlbiiU",
    "name": "Impianto idrovoro Pilastresi",
    "category": "Impianto idrovoro Pilastresi",
    "formatted_address": "5,0(13)",
    "phone_number": "",
    "source_url": "https://www.google.com/maps/place/Impianto+idrovoro+Pilastresi/data=!4m7!3m6!1s0x477fafc177054ff3:0x258a5b3981f05289!8m2!3d44.9360791!4d11.4129292!16s%2Fg%2F11hycy83c6!19sChIJ808Fd8Gvf0cRiVLwgTlbiiU?authuser=0&hl=tr&rclk=1",
    "website_url": "",
    "rating_text": "5,0",
    "stars": null,
    "number_of_reviews": null,
    "price_level": "",
    "open_hours": "",
    "extraction_timestamp": "2025-06-07T16:46:22.324Z",
    "source_name": "google",
    "source_query": "Irrigation Equipment",
    "source_country": "IT",
    "country": "Italy",
    "state": "Emilia-Romagna",
    "city": "Bondeno"
  },
  {
    "source_id": "ChIJs8LDZhCuf0cRZ0z2E5ytnM0",
    "name": "C.I.T. srl di Benea & Benassi dal 1964 Termoidraulica",
    "category": "C.I.T. srl di Benea & Benassi dal 1964 Termoidraulica",
    "formatted_address": "4,5(11)",
    "phone_number": "+390532892055",
    "source_url": "https://www.google.com/maps/place/C.I.T.+srl+di+Benea+%26+Benassi+dal+1964+Termoidraulica/data=!4m7!3m6!1s0x477fae1066c3c2b3:0xcd9cad9c13f64c67!8m2!3d44.888225!4d11.4159918!16s%2Fg%2F1tx8s12s!19sChIJs8LDZhCuf0cRZ0z2E5ytnM0?authuser=0&hl=tr&rclk=1",
    "website_url": "http://www.citimp.it/",
    "rating_text": "4,5",
    "stars": null,
    "number_of_reviews": null,
    "price_level": "",
    "open_hours": "",
    "extraction_timestamp": "2025-06-07T16:46:22.326Z",
    "source_name": "google",
    "source_query": "Irrigation Equipment",
    "source_country": "IT",
    "country": "Italy",
    "state": "Emilia-Romagna",
    "city": "Bondeno"
  },
  {
    "source_id": "ChIJcQG6ul7df0cR3VxKiu5OPBs",
    "name": "Scova Impianti Srl",
    "category": "Scova Impianti Srl",
    "formatted_address": "4,5(64)",
    "phone_number": "+39059923202",
    "source_url": "https://www.google.com/maps/place/Scova+Impianti+Srl/data=!4m7!3m6!1s0x477fdd5ebaba0171:0x1b3c4eee8a4a5cdd!8m2!3d44.6018135!4d11.032294!16s%2Fg%2F1tfzwbfb!19sChIJcQG6ul7df0cR3VxKiu5OPBs?authuser=0&hl=tr&rclk=1",
    "website_url": "https://www.scovaimpianti.com/",
    "rating_text": "4,5",
    "stars": null,
    "number_of_reviews": null,
    "price_level": "",
    "open_hours": "",
    "extraction_timestamp": "2025-06-07T16:46:22.328Z",
    "source_name": "google",
    "source_query": "Irrigation Equipment",
    "source_country": "IT",
    "country": "Italy",
    "state": "Emilia-Romagna",
    "city": "Bondeno"
  },
  {
    "source_id": "ChIJKRucKVuzf0cRG_jgEZFcnfI",
    "name": "Dog&Company by L'Isola dei Tesori",
    "category": "Dog&Company by L'Isola dei Tesori",
    "formatted_address": "4,5(33)",
    "phone_number": "+3905321913731",
    "source_url": "https://www.google.com/maps/place/Dog%26Company+by+L%27Isola+dei+Tesori/data=!4m7!3m6!1s0x477fb35b299c1b29:0xf29d5c9111e0f81b!8m2!3d44.874492!4d11.435533!16s%2Fg%2F11fs__p9ck!19sChIJKRucKVuzf0cRG_jgEZFcnfI?authuser=0&hl=tr&rclk=1",
    "website_url": "https://www.isoladeitesori.it/store/bondeno-fe-via-virgiliana-136-91418.html",
    "rating_text": "4,5",
    "stars": null,
    "number_of_reviews": null,
    "price_level": "",
    "open_hours": "",
    "extraction_timestamp": "2025-06-07T16:46:22.330Z",
    "source_name": "google",
    "source_query": "Irrigation Equipment",
    "source_country": "IT",
    "country": "Italy",
    "state": "Emilia-Romagna",
    "city": "Bondeno"
  },
  {
    "source_id": "ChIJBxUHogyyf0cRRdh8TlnlkGg",
    "name": "Migross Superstore Bondeno",
    "category": "Migross Superstore Bondeno",
    "formatted_address": "4,3(984)",
    "phone_number": "+390532898615",
    "source_url": "https://www.google.com/maps/place/Migross+Superstore+Bondeno/data=!4m7!3m6!1s0x477fb20ca2071507:0x6890e5594e7cd845!8m2!3d44.8718609!4d11.438395!16s%2Fg%2F1tfzl5hf!19sChIJBxUHogyyf0cRRdh8TlnlkGg?authuser=0&hl=tr&rclk=1",
    "website_url": "https://www.migross.it/?utm_source=google&utm_medium=GMBSitelink&utm_campaign=GMBSitelink_Bondeno_590",
    "rating_text": "4,3",
    "stars": null,
    "number_of_reviews": null,
    "price_level": "",
    "open_hours": "",
    "extraction_timestamp": "2025-06-07T16:46:22.331Z",
    "source_name": "google",
    "source_query": "Irrigation Equipment",
    "source_country": "IT",
    "country": "Italy",
    "state": "Emilia-Romagna",
    "city": "Bondeno"
  },
  {
    "source_id": "ChIJu27mhhGuf0cRe-pt7exawlA",
    "name": "Supermercato B2 - Brendolan alimentari srl",
    "category": "Supermercato B2 - Brendolan alimentari srl",
    "formatted_address": "4,0(195)",
    "phone_number": "+390532898478",
    "source_url": "https://www.google.com/maps/place/Supermercato+B2+-+Brendolan+alimentari+srl/data=!4m7!3m6!1s0x477fae1186e66ebb:0x50c25aeced6dea7b!8m2!3d44.8912197!4d11.4176526!16s%2Fg%2F11c0rnqlr0!19sChIJu27mhhGuf0cRe-pt7exawlA?authuser=0&hl=tr&rclk=1",
    "website_url": "http://www.brendolan.net/",
    "rating_text": "4,0",
    "stars": null,
    "number_of_reviews": null,
    "price_level": "",
    "open_hours": "",
    "extraction_timestamp": "2025-06-07T16:46:22.333Z",
    "source_name": "google",
    "source_query": "Irrigation Equipment",
    "source_country": "IT",
    "country": "Italy",
    "state": "Emilia-Romagna",
    "city": "Bondeno"
  },
  {
    "source_id": "ChIJ83hIICGtf0cRfUnFZRjaAds",
    "name": "Grossi Impianti Assistenza Caldaie e condizionatori",
    "category": "Grossi Impianti Assistenza Caldaie e condizionatori",
    "formatted_address": "Isıtma Sistemleri ·  · Via Alcide de Gasperi, 8+39 0532 453483",
    "phone_number": "+390532453483",
    "source_url": "https://www.google.com/maps/place/Grossi+Impianti+Assistenza+Caldaie+e+condizionatori/data=!4m7!3m6!1s0x477fad21204878f3:0xdb01da1865c5497d!8m2!3d44.879775!4d11.4285543!16s%2Fg%2F11t51531yn!19sChIJ83hIICGtf0cRfUnFZRjaAds?authuser=0&hl=tr&rclk=1",
    "website_url": "https://grossiimpianti.it/",
    "rating_text": "",
    "stars": null,
    "number_of_reviews": null,
    "price_level": "",
    "open_hours": "",
    "extraction_timestamp": "2025-06-07T16:46:22.334Z",
    "source_name": "google",
    "source_query": "Irrigation Equipment",
    "source_country": "IT",
    "country": "Italy",
    "state": "Emilia-Romagna",
    "city": "Bondeno"
  },
  {
    "source_id": "ChIJG78Y3Qeyf0cRKxzXIYSzcRw",
    "name": "Tigotà",
    "category": "Tigotà",
    "formatted_address": "4,5(270)",
    "phone_number": "+390532897613",
    "source_url": "https://www.google.com/maps/place/Tigot%C3%A0/data=!4m7!3m6!1s0x477fb207dd18bf1b:0x1c71b38421d71c2b!8m2!3d44.8739648!4d11.4362177!16s%2Fg%2F11jf9txcj1!19sChIJG78Y3Qeyf0cRKxzXIYSzcRw?authuser=0&hl=tr&rclk=1",
    "website_url": "https://www.tigota.it/negozi/026812?utm_source=google&utm_medium=GMBSitelink&utm_campaign=GMBSitelink_Ponte_Rodoni_26812",
    "rating_text": "4,5",
    "stars": null,
    "number_of_reviews": null,
    "price_level": "",
    "open_hours": "",
    "extraction_timestamp": "2025-06-07T16:46:22.336Z",
    "source_name": "google",
    "source_query": "Irrigation Equipment",
    "source_country": "IT",
    "country": "Italy",
    "state": "Emilia-Romagna",
    "city": "Bondeno"
  },
  {
    "source_id": "ChIJtdJC5j6Zf0cRmmVcuMyNEW0",
    "name": "Tadei | Impianti irrigazione | Robot tagliaerba | Barbecue | Outdoor",
    "category": "Tadei | Impianti irrigazione | Robot tagliaerba | Barbecue | Outdoor",
    "formatted_address": "4,6(69)",
    "phone_number": "+390386733460",
    "source_url": "https://www.google.com/maps/place/Tadei+%7C+Impianti+irrigazione+%7C+Robot+tagliaerba+%7C+Barbecue+%7C+Outdoor/data=!4m7!3m6!1s0x477f993ee642d2b5:0x6d118dccb85c659a!8m2!3d44.9680645!4d11.1076526!16s%2Fg%2F113dpgnd_!19sChIJtdJC5j6Zf0cRmmVcuMyNEW0?authuser=0&hl=tr&rclk=1",
    "website_url": "https://www.irrigazionetadei.it/",
    "rating_text": "4,6",
    "stars": null,
    "number_of_reviews": null,
    "price_level": "",
    "open_hours": "",
    "extraction_timestamp": "2025-06-07T16:46:22.337Z",
    "source_name": "google",
    "source_query": "Irrigation Equipment",
    "source_country": "IT",
    "country": "Italy",
    "state": "Emilia-Romagna",
    "city": "Bondeno"
  },
  {
    "source_id": "ChIJwzcm7hquf0cRp3FM4OzU_Zw",
    "name": "Quattro zampe",
    "category": "Quattro zampe",
    "formatted_address": "4,6(82)",
    "phone_number": "+390532897677",
    "source_url": "https://www.google.com/maps/place/Quattro+zampe/data=!4m7!3m6!1s0x477fae1aee2637c3:0x9cfdd4ece04c71a7!8m2!3d44.8853866!4d11.41524!16s%2Fg%2F11f10f15m_!19sChIJwzcm7hquf0cRp3FM4OzU_Zw?authuser=0&hl=tr&rclk=1",
    "website_url": "https://quattrozampestore.com/",
    "rating_text": "4,6",
    "stars": null,
    "number_of_reviews": null,
    "price_level": "",
    "open_hours": "",
    "extraction_timestamp": "2025-06-07T16:46:22.339Z",
    "source_name": "google",
    "source_query": "Irrigation Equipment",
    "source_country": "IT",
    "country": "Italy",
    "state": "Emilia-Romagna",
    "city": "Bondeno"
  },
  {
    "source_id": "ChIJ76CRX3FPfkcRYj0qmK22D-0",
    "name": "Idraco s.r.l. vendita ingrosso/dettaglio",
    "category": "Idraco s.r.l. vendita ingrosso/dettaglio",
    "formatted_address": "4,7(18)",
    "phone_number": "+3905321652010",
    "source_url": "https://www.google.com/maps/place/Idraco+s.r.l.+vendita+ingrosso%2Fdettaglio/data=!4m7!3m6!1s0x477e4f715f91a0ef:0xed0fb6ad982a3d62!8m2!3d44.8100471!4d11.5966584!16s%2Fg%2F11hmzx6m8x!19sChIJ76CRX3FPfkcRYj0qmK22D-0?authuser=0&hl=tr&rclk=1",
    "website_url": "http://www.idraco.it/",
    "rating_text": "4,7",
    "stars": null,
    "number_of_reviews": null,
    "price_level": "",
    "open_hours": "",
    "extraction_timestamp": "2025-06-07T16:46:22.341Z",
    "source_name": "google",
    "source_query": "Irrigation Equipment",
    "source_country": "IT",
    "country": "Italy",
    "state": "Emilia-Romagna",
    "city": "Bondeno"
  },
  {
    "source_id": "ChIJywYeExzdf0cRhfr55_LZC8w",
    "name": "Geocentro",
    "category": "Geocentro",
    "formatted_address": "3,8(5)",
    "phone_number": "+39059927676",
    "source_url": "https://www.google.com/maps/place/Geocentro/data=!4m7!3m6!1s0x477fdd1c131e06cb:0xcc0bd9f2e7f9fa85!8m2!3d44.5871226!4d11.0681616!16s%2Fg%2F11cn3pjh5j!19sChIJywYeExzdf0cRhfr55_LZC8w?authuser=0&hl=tr&rclk=1",
    "website_url": "https://www.geocentro.it/",
    "rating_text": "3,8",
    "stars": null,
    "number_of_reviews": null,
    "price_level": "",
    "open_hours": "",
    "extraction_timestamp": "2025-06-07T16:46:22.342Z",
    "source_name": "google",
    "source_query": "Irrigation Equipment",
    "source_country": "IT",
    "country": "Italy",
    "state": "Emilia-Romagna",
    "city": "Bondeno"
  },
  {
    "source_id": "ChIJAVr-Xvhgf0cR7OUJWuxhk10",
    "name": "Bonatti Irrigazioni",
    "category": "Bonatti Irrigazioni",
    "formatted_address": "4,9(56)",
    "phone_number": "+390456661486",
    "source_url": "https://www.google.com/maps/place/Bonatti+Irrigazioni/data=!4m7!3m6!1s0x477f60f85efe5a01:0x5d9361ec5a09e5ec!8m2!3d45.333756!4d10.988534!16s%2Fg%2F1v2yxqld!19sChIJAVr-Xvhgf0cR7OUJWuxhk10?authuser=0&hl=tr&rclk=1",
    "website_url": "https://www.bonattiirrigazioni.it/",
    "rating_text": "4,9",
    "stars": null,
    "number_of_reviews": null,
    "price_level": "",
    "open_hours": "",
    "extraction_timestamp": "2025-06-07T16:46:22.344Z",
    "source_name": "google",
    "source_query": "Irrigation Equipment",
    "source_country": "IT",
    "country": "Italy",
    "state": "Emilia-Romagna",
    "city": "Bondeno"
  },
  {
    "source_id": "ChIJ_SYf2IMsfkcRVw9xVhrnjyI",
    "name": "Irrigazione Bragaglia",
    "category": "Irrigazione Bragaglia",
    "formatted_address": "4,7(30)",
    "phone_number": "+39051534865",
    "source_url": "https://www.google.com/maps/place/Irrigazione+Bragaglia/data=!4m7!3m6!1s0x477e2c83d81f26fd:0x228fe71a56710f57!8m2!3d44.5053735!4d11.412403!16s%2Fg%2F1vp6z0gf!19sChIJ_SYf2IMsfkcRVw9xVhrnjyI?authuser=0&hl=tr&rclk=1",
    "website_url": "http://www.irrigazionebragaglia.it/",
    "rating_text": "4,7",
    "stars": null,
    "number_of_reviews": null,
    "price_level": "",
    "open_hours": "",
    "extraction_timestamp": "2025-06-07T16:46:22.345Z",
    "source_name": "google",
    "source_query": "Irrigation Equipment",
    "source_country": "IT",
    "country": "Italy",
    "state": "Emilia-Romagna",
    "city": "Bondeno"
  },
  {
    "source_id": "ChIJhQBF-GhIfkcRFZ34l9qDsN0",
    "name": "Baraldi Leonardo",
    "category": "Baraldi Leonardo",
    "formatted_address": "5,0(1)",
    "phone_number": "+390532722654",
    "source_url": "https://www.google.com/maps/place/Baraldi+Leonardo/data=!4m7!3m6!1s0x477e4868f8450085:0xddb083da97f89d15!8m2!3d44.73549!4d11.64391!16s%2Fg%2F1hc1pgtmd!19sChIJhQBF-GhIfkcRFZ34l9qDsN0?authuser=0&hl=tr&rclk=1",
    "website_url": "",
    "rating_text": "5,0",
    "stars": null,
    "number_of_reviews": null,
    "price_level": "",
    "open_hours": "",
    "extraction_timestamp": "2025-06-07T16:46:22.346Z",
    "source_name": "google",
    "source_query": "Irrigation Equipment",
    "source_country": "IT",
    "country": "Italy",
    "state": "Emilia-Romagna",
    "city": "Bondeno"
  },
  {
    "source_id": "ChIJYXOBPcP9fkcR03NFpaBZ3rE",
    "name": "AGRINTESE - AGRI360 srl",
    "category": "AGRINTESE - AGRI360 srl",
    "formatted_address": "4,9(8)",
    "phone_number": "+390425072180",
    "source_url": "https://www.google.com/maps/place/AGRINTESE+-+AGRI360+srl/data=!4m7!3m6!1s0x477efdc33d817361:0xb1de59a0a54573d3!8m2!3d45.0913326!4d11.6419838!16s%2Fg%2F11d_w5dh3r!19sChIJYXOBPcP9fkcR03NFpaBZ3rE?authuser=0&hl=tr&rclk=1",
    "website_url": "https://www.agrintese.it/",
    "rating_text": "4,9",
    "stars": null,
    "number_of_reviews": null,
    "price_level": "",
    "open_hours": "",
    "extraction_timestamp": "2025-06-07T16:46:22.347Z",
    "source_name": "google",
    "source_query": "Irrigation Equipment",
    "source_country": "IT",
    "country": "Italy",
    "state": "Emilia-Romagna",
    "city": "Bondeno"
  },
  {
    "source_id": "ChIJh3Nd8G0sfkcR_m7VewEmxXM",
    "name": "Irrigarden",
    "category": "Irrigarden",
    "formatted_address": "4,7(158)",
    "phone_number": "+39051782013",
    "source_url": "https://www.google.com/maps/place/Irrigarden/data=!4m7!3m6!1s0x477e2c6df05d7387:0x73c526017bd56efe!8m2!3d44.5096266!4d11.4390897!16s%2Fg%2F1vgw_l7w!19sChIJh3Nd8G0sfkcR_m7VewEmxXM?authuser=0&hl=tr&rclk=1",
    "website_url": "https://www.irrigarden-bo.it/",
    "rating_text": "4,7",
    "stars": null,
    "number_of_reviews": null,
    "price_level": "",
    "open_hours": "",
    "extraction_timestamp": "2025-06-07T16:46:22.349Z",
    "source_name": "google",
    "source_query": "Irrigation Equipment",
    "source_country": "IT",
    "country": "Italy",
    "state": "Emilia-Romagna",
    "city": "Bondeno"
  },
  {
    "source_id": "ChIJ0VNlJROXf0cRawSw3h0WMtU",
    "name": "Idromarket Srl",
    "category": "Idromarket Srl",
    "formatted_address": "4,5(132)",
    "phone_number": "+390535610490",
    "source_url": "https://www.google.com/maps/place/Idromarket+Srl/data=!4m7!3m6!1s0x477f9713256553d1:0xd532161ddeb0046b!8m2!3d44.8739092!4d11.0680834!16s%2Fg%2F1tql3mhn!19sChIJ0VNlJROXf0cRawSw3h0WMtU?authuser=0&hl=tr&rclk=1",
    "website_url": "https://idromarket.com/",
    "rating_text": "4,5",
    "stars": null,
    "number_of_reviews": null,
    "price_level": "",
    "open_hours": "",
    "extraction_timestamp": "2025-06-07T16:46:22.350Z",
    "source_name": "google",
    "source_query": "Irrigation Equipment",
    "source_country": "IT",
    "country": "Italy",
    "state": "Emilia-Romagna",
    "city": "Bondeno"
  },
  {
    "source_id": "ChIJ7-7BKN11f0cRqglw23UwSOQ",
    "name": "Cugola Green Center",
    "category": "Cugola Green Center",
    "formatted_address": "4,6(118)",
    "phone_number": "+390386802818",
    "source_url": "https://www.google.com/maps/place/Cugola+Green+Center/data=!4m7!3m6!1s0x477f75dd28c1eeef:0xe4483075db7009aa!8m2!3d45.0777293!4d11.1350466!16s%2Fg%2F1tdx7kdd!19sChIJ7-7BKN11f0cRqglw23UwSOQ?authuser=0&hl=tr&rclk=1",
    "website_url": "https://www.cugola.it/",
    "rating_text": "4,6",
    "stars": null,
    "number_of_reviews": null,
    "price_level": "",
    "open_hours": "",
    "extraction_timestamp": "2025-06-07T16:46:22.351Z",
    "source_name": "google",
    "source_query": "Irrigation Equipment",
    "source_country": "IT",
    "country": "Italy",
    "state": "Emilia-Romagna",
    "city": "Bondeno"
  },
  {
    "source_id": "ChIJ-Z_RHvbnf0cRry0jCm7Q5GQ",
    "name": "Scova Impianti",
    "category": "Scova Impianti",
    "formatted_address": "4,0(4)",
    "phone_number": "+39059925910",
    "source_url": "https://www.google.com/maps/place/Scova+Impianti/data=!4m7!3m6!1s0x477fe7f61ed19ff9:0x64e4d06e0a232daf!8m2!3d44.6018937!4d11.0315223!16s%2Fg%2F1td6wznv!19sChIJ-Z_RHvbnf0cRry0jCm7Q5GQ?authuser=0&hl=tr&rclk=1",
    "website_url": "https://scovaimpianti.com/",
    "rating_text": "4,0",
    "stars": null,
    "number_of_reviews": null,
    "price_level": "",
    "open_hours": "",
    "extraction_timestamp": "2025-06-07T16:46:22.353Z",
    "source_name": "google",
    "source_query": "Irrigation Equipment",
    "source_country": "IT",
    "country": "Italy",
    "state": "Emilia-Romagna",
    "city": "Bondeno"
  }
]
