[
  {
    "source_id": "ChIJy805WcDcgEcRtmGWlwosXQc",
    "name": "IRRIMEC SRL",
    "category": "IRRIMEC SRL",
    "formatted_address": "4,5(90)",
    "phone_number": "+390523760441",
    "source_url": "https://www.google.com/maps/place/IRRIMEC+SRL/data=!4m7!3m6!1s0x4780dcc05939cdcb:0x75d2c0a979661b6!8m2!3d45.0612353!4d9.630829!16s%2Fg%2F1tdgt7d_!19sChIJy805WcDcgEcRtmGWlwosXQc?authuser=0&hl=tr&rclk=1",
    "website_url": "http://www.irrimec.com/",
    "rating_text": "4,5",
    "stars": null,
    "number_of_reviews": null,
    "price_level": "",
    "open_hours": "",
    "extraction_timestamp": "2025-06-07T16:17:20.356Z",
    "source_name": "google",
    "source_query": "Irrigation Equipment",
    "source_country": "IT",
    "country": "Italy",
    "state": "Emilia-Romagna",
    "city": "Borgonovo Valtidone"
  },
  {
    "source_id": "ChIJ2zrv_vjOgEcR3Oh00IBvqa0",
    "name": "Rigeneral System Snc di Zambianchi Gianluca e Zambianchi Maria Carla",
    "category": "Rigeneral System Snc di Zambianchi Gianluca e Zambianchi Maria Carla",
    "formatted_address": "4,5(11)",
    "phone_number": "+390523862290",
    "source_url": "https://www.google.com/maps/place/Rigeneral+System+Snc+di+Zambianchi+Gianluca+e+Zambianchi+Maria+Carla/data=!4m7!3m6!1s0x4780cef8feef3adb:0xada96f80d074e8dc!8m2!3d45.0218049!4d9.4478855!16s%2Fg%2F11b6jgjhn2!19sChIJ2zrv_vjOgEcR3Oh00IBvqa0?authuser=0&hl=tr&rclk=1",
    "website_url": "http://www.rigeneralsystem.com/contatti",
    "rating_text": "4,5",
    "stars": null,
    "number_of_reviews": null,
    "price_level": "",
    "open_hours": "",
    "extraction_timestamp": "2025-06-07T16:17:20.358Z",
    "source_name": "google",
    "source_query": "Irrigation Equipment",
    "source_country": "IT",
    "country": "Italy",
    "state": "Emilia-Romagna",
    "city": "Borgonovo Valtidone"
  },
  {
    "source_id": "ChIJURNsXunRgEcRmae-SVNqONs",
    "name": "IDROPAVESE SAS DI VARESI GIAMPAOLO E VARESI MARA",
    "category": "IDROPAVESE SAS DI VARESI GIAMPAOLO E VARESI MARA",
    "formatted_address": "4,2(17)",
    "phone_number": "+390523882596",
    "source_url": "https://www.google.com/maps/place/IDROPAVESE+SAS+DI+VARESI+GIAMPAOLO+E+VARESI+MARA/data=!4m7!3m6!1s0x4780d1e95e6c1351:0xdb386a5349bea799!8m2!3d45.0733425!4d9.4455294!16s%2Fg%2F11b6hssh7j!19sChIJURNsXunRgEcRmae-SVNqONs?authuser=0&hl=tr&rclk=1",
    "website_url": "http://www.idropavese.it/",
    "rating_text": "4,2",
    "stars": null,
    "number_of_reviews": null,
    "price_level": "",
    "open_hours": "",
    "extraction_timestamp": "2025-06-07T16:17:20.360Z",
    "source_name": "google",
    "source_query": "Irrigation Equipment",
    "source_country": "IT",
    "country": "Italy",
    "state": "Emilia-Romagna",
    "city": "Borgonovo Valtidone"
  },
  {
    "source_id": "ChIJE3AvDOjOgEcRToEv-neRs6Y",
    "name": "Azienda Agricola Il Fucorè B&B",
    "category": "Azienda Agricola Il Fucorè B&B",
    "formatted_address": "4,7(41)",
    "phone_number": "+393471106764",
    "source_url": "https://www.google.com/maps/place/Azienda+Agricola+Il+Fucor%C3%A8+B%26B/data=!4m10!3m9!1s0x4780cee80c2f7013:0xa6b39177fa2f814e!5m2!4m1!1i2!8m2!3d45.0006561!4d9.4382288!16s%2Fg%2F11b72gc0wf!19sChIJE3AvDOjOgEcRToEv-neRs6Y?authuser=0&hl=tr&rclk=1",
    "website_url": "http://www.ilfucore.it/",
    "rating_text": "4,7",
    "stars": null,
    "number_of_reviews": null,
    "price_level": "",
    "open_hours": "",
    "extraction_timestamp": "2025-06-07T16:17:20.361Z",
    "source_name": "google",
    "source_query": "Irrigation Equipment",
    "source_country": "IT",
    "country": "Italy",
    "state": "Emilia-Romagna",
    "city": "Borgonovo Valtidone"
  },
  {
    "source_id": "ChIJe8ZImj3dgEcRAJzthUrz4ts",
    "name": "Maini Vending srl",
    "category": "Maini Vending srl",
    "formatted_address": "3,0(12)",
    "phone_number": "+390523862760",
    "source_url": "https://www.google.com/maps/place/Maini+Vending+srl/data=!4m7!3m6!1s0x4780dd3d9a48c67b:0xdbe2f34a85ed9c00!8m2!3d45.0137769!4d9.4407303!16s%2Fg%2F1td4cddj!19sChIJe8ZImj3dgEcRAJzthUrz4ts?authuser=0&hl=tr&rclk=1",
    "website_url": "",
    "rating_text": "3,0",
    "stars": null,
    "number_of_reviews": null,
    "price_level": "",
    "open_hours": "",
    "extraction_timestamp": "2025-06-07T16:17:20.362Z",
    "source_name": "google",
    "source_query": "Irrigation Equipment",
    "source_country": "IT",
    "country": "Italy",
    "state": "Emilia-Romagna",
    "city": "Borgonovo Valtidone"
  },
  {
    "source_id": "ChIJtYmdGdrRgEcR6nfxwUqLlw4",
    "name": "Hydro srl",
    "category": "Hydro srl",
    "formatted_address": "4,7(6)",
    "phone_number": "+390523340826",
    "source_url": "https://www.google.com/maps/place/Hydro+srl/data=!4m7!3m6!1s0x4780d1da199d89b5:0xe978b4ac1f177ea!8m2!3d44.9500474!4d9.407276!16s%2Fg%2F11f6y8w4j9!19sChIJtYmdGdrRgEcR6nfxwUqLlw4?authuser=0&hl=tr&rclk=1",
    "website_url": "http://www.hydrosrl.com/",
    "rating_text": "4,7",
    "stars": null,
    "number_of_reviews": null,
    "price_level": "",
    "open_hours": "",
    "extraction_timestamp": "2025-06-07T16:17:20.363Z",
    "source_name": "google",
    "source_query": "Irrigation Equipment",
    "source_country": "IT",
    "country": "Italy",
    "state": "Emilia-Romagna",
    "city": "Borgonovo Valtidone"
  },
  {
    "source_id": "ChIJnyyozzLFgEcRveCr7YkDeKI",
    "name": "Carella Sas di Carella Enrico Filippo e C.",
    "category": "Carella Sas di Carella Enrico Filippo e C.",
    "formatted_address": "4,7(46)",
    "phone_number": "+390523884055",
    "source_url": "https://www.google.com/maps/place/Carella+Sas+di+Carella+Enrico+Filippo+e+C./data=!4m7!3m6!1s0x4780c532cfa82c9f:0xa2780389edabe0bd!8m2!3d45.0555848!4d9.5038928!16s%2Fg%2F11jpkclgfy!19sChIJnyyozzLFgEcRveCr7YkDeKI?authuser=0&hl=tr&rclk=1",
    "website_url": "https://www.carellastore.it/",
    "rating_text": "4,7",
    "stars": null,
    "number_of_reviews": null,
    "price_level": "",
    "open_hours": "",
    "extraction_timestamp": "2025-06-07T16:17:20.365Z",
    "source_name": "google",
    "source_query": "Irrigation Equipment",
    "source_country": "IT",
    "country": "Italy",
    "state": "Emilia-Romagna",
    "city": "Borgonovo Valtidone"
  },
  {
    "source_id": "ChIJ4WnZNofogEcRcCSJgGupNXk",
    "name": "Irrigarden",
    "category": "Irrigarden",
    "formatted_address": "3,7(6)",
    "phone_number": "+390523592012",
    "source_url": "https://www.google.com/maps/place/Irrigarden/data=!4m7!3m6!1s0x4780e88736d969e1:0x7935a96b80892470!8m2!3d45.0288739!4d9.7384753!16s%2Fg%2F11g4d1r753!19sChIJ4WnZNofogEcRcCSJgGupNXk?authuser=0&hl=tr&rclk=1",
    "website_url": "https://www.irrigarden.com/",
    "rating_text": "3,7",
    "stars": null,
    "number_of_reviews": null,
    "price_level": "",
    "open_hours": "",
    "extraction_timestamp": "2025-06-07T16:17:20.366Z",
    "source_name": "google",
    "source_query": "Irrigation Equipment",
    "source_country": "IT",
    "country": "Italy",
    "state": "Emilia-Romagna",
    "city": "Borgonovo Valtidone"
  }
]
