[
  {
    "source_id": "ChIJtVDkNgRFgEcRqc6umwWIJuI",
    "name": "Rm Spa",
    "category": "Rm Spa",
    "formatted_address": "4,6(81)",
    "phone_number": "+390521872321",
    "source_url": "https://www.google.com/maps/place/Rm+Spa/data=!4m7!3m6!1s0x4780450436e450b5:0xe22688059baecea9!8m2!3d44.9105406!4d10.2583785!16s%2Fg%2F12hl93byl!19sChIJtVDkNgRFgEcRqc6umwWIJuI?authuser=0&hl=tr&rclk=1",
    "website_url": "",
    "rating_text": "4,6",
    "stars": null,
    "number_of_reviews": null,
    "price_level": "",
    "open_hours": "",
    "extraction_timestamp": "2025-06-07T16:18:51.145Z",
    "source_name": "google",
    "source_query": "Irrigation Equipment",
    "source_country": "IT",
    "country": "Italy",
    "state": "Emilia-Romagna",
    "city": "Borgo Val di Taro"
  },
  {
    "source_id": "ChIJncIVz23R1BIReJLZcKoI9vk",
    "name": "Ferramenta Franza Sergio - Agenzia SIAD S.p.A.",
    "category": "Ferramenta Franza Sergio - Agenzia SIAD S.p.A.",
    "formatted_address": "4,7(188)",
    "phone_number": "+39052590210",
    "source_url": "https://www.google.com/maps/place/Ferramenta+Franza+Sergio+-+Agenzia+SIAD+S.p.A./data=!4m7!3m6!1s0x12d4d16dcf15c29d:0xf9f608aa70d99278!8m2!3d44.4908667!4d9.7802672!16s%2Fg%2F11b6j81zzj!19sChIJncIVz23R1BIReJLZcKoI9vk?authuser=0&hl=tr&rclk=1",
    "website_url": "",
    "rating_text": "4,7",
    "stars": null,
    "number_of_reviews": null,
    "price_level": "",
    "open_hours": "",
    "extraction_timestamp": "2025-06-07T16:18:51.145Z",
    "source_name": "google",
    "source_query": "Irrigation Equipment",
    "source_country": "IT",
    "country": "Italy",
    "state": "Emilia-Romagna",
    "city": "Borgo Val di Taro"
  },
  {
    "source_id": "ChIJ48kdLg3R1BIRVwFEoIpchlU",
    "name": "Consorzio Agrario Provinciale",
    "category": "Consorzio Agrario Provinciale",
    "formatted_address": "4,2(117)",
    "phone_number": "+39052596442",
    "source_url": "https://www.google.com/maps/place/Consorzio+Agrario+Provinciale/data=!4m7!3m6!1s0x12d4d10d2e1dc9e3:0x55865c8aa0440157!8m2!3d44.48766!4d9.776977!16s%2Fg%2F1tjxzq71!19sChIJ48kdLg3R1BIRVwFEoIpchlU?authuser=0&hl=tr&rclk=1",
    "website_url": "",
    "rating_text": "4,2",
    "stars": null,
    "number_of_reviews": null,
    "price_level": "",
    "open_hours": "",
    "extraction_timestamp": "2025-06-07T16:18:51.146Z",
    "source_name": "google",
    "source_query": "Irrigation Equipment",
    "source_country": "IT",
    "country": "Italy",
    "state": "Emilia-Romagna",
    "city": "Borgo Val di Taro"
  },
  {
    "source_id": "ChIJy805WcDcgEcRtmGWlwosXQc",
    "name": "IRRIMEC SRL",
    "category": "IRRIMEC SRL",
    "formatted_address": "4,5(90)",
    "phone_number": "+390523760441",
    "source_url": "https://www.google.com/maps/place/IRRIMEC+SRL/data=!4m7!3m6!1s0x4780dcc05939cdcb:0x75d2c0a979661b6!8m2!3d45.0612353!4d9.630829!16s%2Fg%2F1tdgt7d_!19sChIJy805WcDcgEcRtmGWlwosXQc?authuser=0&hl=tr&rclk=1",
    "website_url": "",
    "rating_text": "4,5",
    "stars": null,
    "number_of_reviews": null,
    "price_level": "",
    "open_hours": "",
    "extraction_timestamp": "2025-06-07T16:18:51.146Z",
    "source_name": "google",
    "source_query": "Irrigation Equipment",
    "source_country": "IT",
    "country": "Italy",
    "state": "Emilia-Romagna",
    "city": "Borgo Val di Taro"
  },
  {
    "source_id": "ChIJ6fDnfW3R1BIRUIC79iD6yh8",
    "name": "Ferr. Baudassi La Rumana snc - Husqvarna",
    "category": "Ferr. Baudassi La Rumana snc - Husqvarna",
    "formatted_address": "4,5(142)",
    "phone_number": "+39052597644",
    "source_url": "https://www.google.com/maps/place/Ferr.+Baudassi+La+Rumana+snc+-+Husqvarna/data=!4m7!3m6!1s0x12d4d16d7de7f0e9:0x1fcafa20f6bb8050!8m2!3d44.489006!4d9.7795524!16s%2Fg%2F11gzrydxl!19sChIJ6fDnfW3R1BIRUIC79iD6yh8?authuser=0&hl=tr&rclk=1",
    "website_url": "",
    "rating_text": "4,5",
    "stars": null,
    "number_of_reviews": null,
    "price_level": "",
    "open_hours": "",
    "extraction_timestamp": "2025-06-07T16:18:51.148Z",
    "source_name": "google",
    "source_query": "Irrigation Equipment",
    "source_country": "IT",
    "country": "Italy",
    "state": "Emilia-Romagna",
    "city": "Borgo Val di Taro"
  },
  {
    "source_id": "ChIJ67n5aNDR1BIRvW5yTYEFZsM",
    "name": "Brico Ok - Borgo Val di Taro",
    "category": "Brico Ok - Borgo Val di Taro",
    "formatted_address": "4,0(342)",
    "phone_number": "+3905251975838",
    "source_url": "https://www.google.com/maps/place/Brico+Ok+-+Borgo+Val+di+Taro/data=!4m7!3m6!1s0x12d4d1d068f9b9eb:0xc36605814d726ebd!8m2!3d44.4917275!4d9.7807077!16s%2Fg%2F11sq50cbqj!19sChIJ67n5aNDR1BIRvW5yTYEFZsM?authuser=0&hl=tr&rclk=1",
    "website_url": "",
    "rating_text": "4,0",
    "stars": null,
    "number_of_reviews": null,
    "price_level": "",
    "open_hours": "",
    "extraction_timestamp": "2025-06-07T16:18:51.149Z",
    "source_name": "google",
    "source_query": "Irrigation Equipment",
    "source_country": "IT",
    "country": "Italy",
    "state": "Emilia-Romagna",
    "city": "Borgo Val di Taro"
  },
  {
    "source_id": "ChIJdQAjZ3XR1BIRrNu7MoW8ZP4",
    "name": "Idraulico Leporati Pier Luigi - Installazione Caldaie - Bedonia - Tornolo - Berceto - Valmozzola",
    "category": "Idraulico Leporati Pier Luigi - Installazione Caldaie - Bedonia - Tornolo - Berceto - Valmozzola",
    "formatted_address": "3,5(2)",
    "phone_number": "+393356231282",
    "source_url": "https://www.google.com/maps/place/Idraulico+Leporati+Pier+Luigi+-+Installazione+Caldaie+-+Bedonia+-+Tornolo+-+Berceto+-+Valmozzola/data=!4m7!3m6!1s0x12d4d17567230075:0xfe64bc8532bbdbac!8m2!3d44.4895847!4d9.7682931!16s%2Fg%2F11d_9j0x66!19sChIJdQAjZ3XR1BIRrNu7MoW8ZP4?authuser=0&hl=tr&rclk=1",
    "website_url": "",
    "rating_text": "3,5",
    "stars": null,
    "number_of_reviews": null,
    "price_level": "",
    "open_hours": "",
    "extraction_timestamp": "2025-06-07T16:18:51.150Z",
    "source_name": "google",
    "source_query": "Irrigation Equipment",
    "source_country": "IT",
    "country": "Italy",
    "state": "Emilia-Romagna",
    "city": "Borgo Val di Taro"
  },
  {
    "source_id": "ChIJF4LNbN_R1BIRP100uoxzFT0",
    "name": "tuttoGIARDINO Borgo Val di Taro",
    "category": "tuttoGIARDINO Borgo Val di Taro",
    "formatted_address": "Peyzaj Malzemeleri Satıcısı ·  · Via Ungheria, 11Kapanmak üzere ⋅ 19:00 ⋅ Açılış zamanı: Pzt 08:30 · +39 0525 96442",
    "phone_number": "+39052596442",
    "source_url": "https://www.google.com/maps/place/tuttoGIARDINO+Borgo+Val+di+Taro/data=!4m7!3m6!1s0x12d4d1df6ccd8217:0x3d15738cba345d3f!8m2!3d44.4871614!4d9.7769681!16s%2Fg%2F11j53j046f!19sChIJF4LNbN_R1BIRP100uoxzFT0?authuser=0&hl=tr&rclk=1",
    "website_url": "",
    "rating_text": "",
    "stars": null,
    "number_of_reviews": null,
    "price_level": "",
    "open_hours": "",
    "extraction_timestamp": "2025-06-07T16:18:51.152Z",
    "source_name": "google",
    "source_query": "Irrigation Equipment",
    "source_country": "IT",
    "country": "Italy",
    "state": "Emilia-Romagna",
    "city": "Borgo Val di Taro"
  }
]
