[
  {
    "source_id": "ChIJKSAKBwKegkcRQVqgEIgSoFc",
    "name": "Raintec Irrigation S.r.l.",
    "category": "Raintec Irrigation S.r.l.",
    "formatted_address": "4,7(20)",
    "phone_number": "+390471300359",
    "source_url": "https://www.google.com/maps/place/Raintec+Irrigation+S.r.l./data=!4m7!3m6!1s0x47829e02070a2029:0x57a0128810a05a41!8m2!3d46.4922434!4d11.4000084!16s%2Fg%2F1tgy_f_h!19sChIJKSAKBwKegkcRQVqgEIgSoFc?authuser=0&hl=tr&rclk=1",
    "website_url": "https://raintec.bz/",
    "rating_text": "4,7",
    "stars": null,
    "number_of_reviews": null,
    "price_level": "",
    "open_hours": "",
    "extraction_timestamp": "2025-06-07T16:33:51.820Z",
    "source_name": "google",
    "source_query": "Irrigation Equipment",
    "source_country": "IT",
    "country": "Italy",
    "state": "Emilia-Romagna",
    "city": "Borzano"
  },
  {
    "source_id": "ChIJgzYicgMFeEcRzl4EsDeYI2A",
    "name": "Bega Plast GmbH",
    "category": "Bega Plast GmbH",
    "formatted_address": "4,5(8)",
    "phone_number": "+390472835699",
    "source_url": "https://www.google.com/maps/place/Bega+Plast+GmbH/data=!4m7!3m6!1s0x4778050372223683:0x60239837b0045ece!8m2!3d46.7624469!4d11.6416805!16s%2Fg%2F1v3klxcs!19sChIJgzYicgMFeEcRzl4EsDeYI2A?authuser=0&hl=tr&rclk=1",
    "website_url": "http://www.begaplast.it/",
    "rating_text": "4,5",
    "stars": null,
    "number_of_reviews": null,
    "price_level": "",
    "open_hours": "",
    "extraction_timestamp": "2025-06-07T16:33:51.822Z",
    "source_name": "google",
    "source_query": "Irrigation Equipment",
    "source_country": "IT",
    "country": "Italy",
    "state": "Emilia-Romagna",
    "city": "Borzano"
  },
  {
    "source_id": "ChIJKSAKBwKegkcRAqDgUt1hOJ4",
    "name": "Agrocenter Bozen",
    "category": "Agrocenter Bozen",
    "formatted_address": "4,3(107)",
    "phone_number": "+390471981471",
    "source_url": "https://www.google.com/maps/place/Agrocenter+Bozen/data=!4m7!3m6!1s0x47829e02070a2029:0x9e3861dd52e0a002!8m2!3d46.4923328!4d11.4009354!16s%2Fg%2F1tpljlm0!19sChIJKSAKBwKegkcRAqDgUt1hOJ4?authuser=0&hl=tr&rclk=1",
    "website_url": "http://www.agrocenter.it/",
    "rating_text": "4,3",
    "stars": null,
    "number_of_reviews": null,
    "price_level": "",
    "open_hours": "",
    "extraction_timestamp": "2025-06-07T16:33:51.824Z",
    "source_name": "google",
    "source_query": "Irrigation Equipment",
    "source_country": "IT",
    "country": "Italy",
    "state": "Emilia-Romagna",
    "city": "Borzano"
  },
  {
    "source_id": "ChIJCdWBzUWBgkcRrKabzRWEdQU",
    "name": "VISSMARK sas di Pomella Richard e Hugo",
    "category": "VISSMARK sas di Pomella Richard e Hugo",
    "formatted_address": "4,8(4)",
    "phone_number": "+390471863204",
    "source_url": "https://www.google.com/maps/place/VISSMARK+sas+di+Pomella+Richard+e+Hugo/data=!4m7!3m6!1s0x47828145cd81d509:0x5758415cd9ba6ac!8m2!3d46.3344847!4d11.2448978!16s%2Fg%2F11cs0rn07p!19sChIJCdWBzUWBgkcRrKabzRWEdQU?authuser=0&hl=tr&rclk=1",
    "website_url": "http://www.vissmark.com/",
    "rating_text": "4,8",
    "stars": null,
    "number_of_reviews": null,
    "price_level": "",
    "open_hours": "",
    "extraction_timestamp": "2025-06-07T16:33:51.825Z",
    "source_name": "google",
    "source_query": "Irrigation Equipment",
    "source_country": "IT",
    "country": "Italy",
    "state": "Emilia-Romagna",
    "city": "Borzano"
  },
  {
    "source_id": "ChIJh3Nd8G0sfkcR_m7VewEmxXM",
    "name": "Irrigarden",
    "category": "Irrigarden",
    "formatted_address": "4,7(158)",
    "phone_number": "+39051782013",
    "source_url": "https://www.google.com/maps/place/Irrigarden/data=!4m7!3m6!1s0x477e2c6df05d7387:0x73c526017bd56efe!8m2!3d44.5096266!4d11.4390897!16s%2Fg%2F1vgw_l7w!19sChIJh3Nd8G0sfkcR_m7VewEmxXM?authuser=0&hl=tr&rclk=1",
    "website_url": "https://www.irrigarden-bo.it/",
    "rating_text": "4,7",
    "stars": null,
    "number_of_reviews": null,
    "price_level": "",
    "open_hours": "",
    "extraction_timestamp": "2025-06-07T16:33:51.826Z",
    "source_name": "google",
    "source_query": "Irrigation Equipment",
    "source_country": "IT",
    "country": "Italy",
    "state": "Emilia-Romagna",
    "city": "Borzano"
  },
  {
    "source_id": "ChIJJ6V6lMDgf0cR1SpFsfjDuHg",
    "name": "Ocmis Irrigazione Spa",
    "category": "Ocmis Irrigazione Spa",
    "formatted_address": "3,5(31)",
    "phone_number": "+39059702150",
    "source_url": "https://www.google.com/maps/place/Ocmis+Irrigazione+Spa/data=!4m7!3m6!1s0x477fe0c0947aa527:0x78b8c3f8b1452ad5!8m2!3d44.530494!4d10.9794578!16s%2Fg%2F1vd3tn19!19sChIJJ6V6lMDgf0cR1SpFsfjDuHg?authuser=0&hl=tr&rclk=1",
    "website_url": "http://www.ocmis-irrigazione.it/",
    "rating_text": "3,5",
    "stars": null,
    "number_of_reviews": null,
    "price_level": "",
    "open_hours": "",
    "extraction_timestamp": "2025-06-07T16:33:51.828Z",
    "source_name": "google",
    "source_query": "Irrigation Equipment",
    "source_country": "IT",
    "country": "Italy",
    "state": "Emilia-Romagna",
    "city": "Borzano"
  },
  {
    "source_id": "ChIJKwYQD3CegkcRXpKdKY3wBzE",
    "name": "Acquaspar - Filtri Anti Legionella",
    "category": "Acquaspar - Filtri Anti Legionella",
    "formatted_address": "5,0(8)",
    "phone_number": "+393286719778",
    "source_url": "https://www.google.com/maps/place/Acquaspar+-+Filtri+Anti+Legionella/data=!4m7!3m6!1s0x47829e700f10062b:0x3107f08d299d925e!8m2!3d46.5017116!4d11.3593808!16s%2Fg%2F1tnhx5x_!19sChIJKwYQD3CegkcRXpKdKY3wBzE?authuser=0&hl=tr&rclk=1",
    "website_url": "https://www.acquaspar.it/",
    "rating_text": "5,0",
    "stars": null,
    "number_of_reviews": null,
    "price_level": "",
    "open_hours": "",
    "extraction_timestamp": "2025-06-07T16:33:51.829Z",
    "source_name": "google",
    "source_query": "Irrigation Equipment",
    "source_country": "IT",
    "country": "Italy",
    "state": "Emilia-Romagna",
    "city": "Borzano"
  },
  {
    "source_id": "ChIJOVoYwcXvf0cRi3QVtRk6KRU",
    "name": "Caprari",
    "category": "Caprari",
    "formatted_address": "4,4(40)",
    "phone_number": "+39059897611",
    "source_url": "https://www.google.com/maps/place/Caprari/data=!4m7!3m6!1s0x477fefc5c1185a39:0x15293a19b515748b!8m2!3d44.6573831!4d10.880122!16s%2Fg%2F11b6zr3r2w!19sChIJOVoYwcXvf0cRi3QVtRk6KRU?authuser=0&hl=tr&rclk=1",
    "website_url": "http://www.caprari.it/",
    "rating_text": "4,4",
    "stars": null,
    "number_of_reviews": null,
    "price_level": "",
    "open_hours": "",
    "extraction_timestamp": "2025-06-07T16:33:51.830Z",
    "source_name": "google",
    "source_query": "Irrigation Equipment",
    "source_country": "IT",
    "country": "Italy",
    "state": "Emilia-Romagna",
    "city": "Borzano"
  },
  {
    "source_id": "ChIJ43Kz1ROdgkcR4-wAkDGAnrU",
    "name": "Hydraulic Nord Waterjet",
    "category": "Hydraulic Nord Waterjet",
    "formatted_address": "4,8(6)",
    "phone_number": "+390471911169",
    "source_url": "https://www.google.com/maps/place/Hydraulic+Nord+Waterjet/data=!4m7!3m6!1s0x47829d13d5b372e3:0xb59e80319000ece3!8m2!3d46.4729296!4d11.3307254!16s%2Fg%2F11tp6p8j71!19sChIJ43Kz1ROdgkcR4-wAkDGAnrU?authuser=0&hl=tr&rclk=1",
    "website_url": "http://www.hyno.it/",
    "rating_text": "4,8",
    "stars": null,
    "number_of_reviews": null,
    "price_level": "",
    "open_hours": "",
    "extraction_timestamp": "2025-06-07T16:33:51.832Z",
    "source_name": "google",
    "source_query": "Irrigation Equipment",
    "source_country": "IT",
    "country": "Italy",
    "state": "Emilia-Romagna",
    "city": "Borzano"
  },
  {
    "source_id": "ChIJP1gxk2NI0xIRszhUSevBmEE",
    "name": "Siroflex Srl",
    "category": "Siroflex Srl",
    "formatted_address": "5,0(22)",
    "phone_number": "+39010780307",
    "source_url": "https://www.google.com/maps/place/Siroflex+Srl/data=!4m7!3m6!1s0x12d348639331583f:0x4198c1eb495438b3!8m2!3d44.517765!4d8.8760576!16s%2Fg%2F12jvylp8m!19sChIJP1gxk2NI0xIRszhUSevBmEE?authuser=0&hl=tr&rclk=1",
    "website_url": "https://www.siroflex.it/",
    "rating_text": "5,0",
    "stars": null,
    "number_of_reviews": null,
    "price_level": "",
    "open_hours": "",
    "extraction_timestamp": "2025-06-07T16:33:51.833Z",
    "source_name": "google",
    "source_query": "Irrigation Equipment",
    "source_country": "IT",
    "country": "Italy",
    "state": "Emilia-Romagna",
    "city": "Borzano"
  },
  {
    "source_id": "ChIJISlyN8fVfkcRP1ghb3uyg-o",
    "name": "Import Irrigation Systems S.R.L.",
    "category": "Import Irrigation Systems S.R.L.",
    "formatted_address": "Üretici ·  · Via Salvo d'Acquisto, 5Kapalı ⋅ Açılış zamanı: Pzt 08:30 · +39 049 559 1020",
    "phone_number": "+390495591020",
    "source_url": "https://www.google.com/maps/place/Import+Irrigation+Systems+S.R.L./data=!4m7!3m6!1s0x477ed5c737722921:0xea83b27b6f21583f!8m2!3d45.5362842!4d11.825368!16s%2Fg%2F1tsjchn3!19sChIJISlyN8fVfkcRP1ghb3uyg-o?authuser=0&hl=tr&rclk=1",
    "website_url": "http://www.importirrigation.com/",
    "rating_text": "",
    "stars": null,
    "number_of_reviews": null,
    "price_level": "",
    "open_hours": "",
    "extraction_timestamp": "2025-06-07T16:33:51.834Z",
    "source_name": "google",
    "source_query": "Irrigation Equipment",
    "source_country": "IT",
    "country": "Italy",
    "state": "Emilia-Romagna",
    "city": "Borzano"
  },
  {
    "source_id": "ChIJEWUl-6gyf0cRHNmq5kjI9e8",
    "name": "Galvan Center",
    "category": "Galvan Center",
    "formatted_address": "4,5(271)",
    "phone_number": "+390444350061",
    "source_url": "https://www.google.com/maps/place/Galvan+Center/data=!4m7!3m6!1s0x477f32a8fb256511:0xeff5c848e6aad91c!8m2!3d45.6108692!4d11.624356!16s%2Fg%2F1tdf05rg!19sChIJEWUl-6gyf0cRHNmq5kjI9e8?authuser=0&hl=tr&rclk=1",
    "website_url": "http://www.galvancenter.it/",
    "rating_text": "4,5",
    "stars": null,
    "number_of_reviews": null,
    "price_level": "",
    "open_hours": "",
    "extraction_timestamp": "2025-06-07T16:33:51.835Z",
    "source_name": "google",
    "source_query": "Irrigation Equipment",
    "source_country": "IT",
    "country": "Italy",
    "state": "Emilia-Romagna",
    "city": "Borzano"
  },
  {
    "source_id": "ChIJyXgg68QrfkcRAaJCOMJ3PxY",
    "name": "hidrisistem",
    "category": "hidrisistem",
    "formatted_address": "5,0(1)",
    "phone_number": "+39366448310824",
    "source_url": "https://www.google.com/maps/place/hidrisistem/data=!4m7!3m6!1s0x477e2bc4eb2078c9:0x163f77c23842a201!8m2!3d44.496029!4d11.402638!16s%2Fg%2F11w_zjhjy3!19sChIJyXgg68QrfkcRAaJCOMJ3PxY?authuser=0&hl=tr&rclk=1",
    "website_url": "",
    "rating_text": "5,0",
    "stars": null,
    "number_of_reviews": null,
    "price_level": "",
    "open_hours": "",
    "extraction_timestamp": "2025-06-07T16:33:51.837Z",
    "source_name": "google",
    "source_query": "Irrigation Equipment",
    "source_country": "IT",
    "country": "Italy",
    "state": "Emilia-Romagna",
    "city": "Borzano"
  },
  {
    "source_id": "ChIJP7UJkmyXf0cRVW34e66bU2I",
    "name": "S. I. R. I. A. Spa",
    "category": "S. I. R. I. A. Spa",
    "formatted_address": "4,7(15)",
    "phone_number": "+39053521907",
    "source_url": "https://www.google.com/maps/place/S.+I.+R.+I.+A.+Spa/data=!4m7!3m6!1s0x477f976c9209b53f:0x62539bae7bf86d55!8m2!3d44.8938563!4d11.0818842!16s%2Fg%2F1t_hxv98!19sChIJP7UJkmyXf0cRVW34e66bU2I?authuser=0&hl=tr&rclk=1",
    "website_url": "http://www.siriapiscine.it/",
    "rating_text": "4,7",
    "stars": null,
    "number_of_reviews": null,
    "price_level": "",
    "open_hours": "",
    "extraction_timestamp": "2025-06-07T16:33:51.838Z",
    "source_name": "google",
    "source_query": "Irrigation Equipment",
    "source_country": "IT",
    "country": "Italy",
    "state": "Emilia-Romagna",
    "city": "Borzano"
  },
  {
    "source_id": "ChIJw1KYydSCLBMRaJIlKuxvBA8",
    "name": "Drill Geosystem Srl - Consolidamento Fondazioni",
    "category": "Drill Geosystem Srl - Consolidamento Fondazioni",
    "formatted_address": "5,0(2)",
    "phone_number": "+390547698013",
    "source_url": "https://www.google.com/maps/place/Drill+Geosystem+Srl+-+Consolidamento+Fondazioni/data=!4m7!3m6!1s0x132c82d4c99852c3:0xf046fec2a259268!8m2!3d43.905006!4d12.1133968!16s%2Fg%2F11h9x2vv99!19sChIJw1KYydSCLBMRaJIlKuxvBA8?authuser=0&hl=tr&rclk=1",
    "website_url": "https://www.drillgeosystem.it/",
    "rating_text": "5,0",
    "stars": null,
    "number_of_reviews": null,
    "price_level": "",
    "open_hours": "",
    "extraction_timestamp": "2025-06-07T16:33:51.839Z",
    "source_name": "google",
    "source_query": "Irrigation Equipment",
    "source_country": "IT",
    "country": "Italy",
    "state": "Emilia-Romagna",
    "city": "Borzano"
  },
  {
    "source_id": "ChIJi_l8ljecgkcRgNBOkCF-_YQ",
    "name": "Atzwanger S.p.A.",
    "category": "Atzwanger S.p.A.",
    "formatted_address": "4,4(32)",
    "phone_number": "+390471243811",
    "source_url": "https://www.google.com/maps/place/Atzwanger+S.p.A./data=!4m7!3m6!1s0x47829c37967cf98b:0x84fd7e21904ed080!8m2!3d46.4785314!4d11.3248329!16s%2Fg%2F12hnmskrs!19sChIJi_l8ljecgkcRgNBOkCF-_YQ?authuser=0&hl=tr&rclk=1",
    "website_url": "https://www.atzwanger.net/",
    "rating_text": "4,4",
    "stars": null,
    "number_of_reviews": null,
    "price_level": "",
    "open_hours": "",
    "extraction_timestamp": "2025-06-07T16:33:51.840Z",
    "source_name": "google",
    "source_query": "Irrigation Equipment",
    "source_country": "IT",
    "country": "Italy",
    "state": "Emilia-Romagna",
    "city": "Borzano"
  },
  {
    "source_id": "ChIJnXUgLyWcgkcRg89QU_9OrJc",
    "name": "Calor",
    "category": "Calor",
    "formatted_address": "3,5(15)",
    "phone_number": "+390471931595",
    "source_url": "https://www.google.com/maps/place/Calor/data=!4m7!3m6!1s0x47829c252f20759d:0x97ac4eff5350cf83!8m2!3d46.4864499!4d11.3253251!16s%2Fg%2F1tjwgly2!19sChIJnXUgLyWcgkcRg89QU_9OrJc?authuser=0&hl=tr&rclk=1",
    "website_url": "https://www.calorbattistata.com/",
    "rating_text": "3,5",
    "stars": null,
    "number_of_reviews": null,
    "price_level": "",
    "open_hours": "",
    "extraction_timestamp": "2025-06-07T16:33:51.842Z",
    "source_name": "google",
    "source_query": "Irrigation Equipment",
    "source_country": "IT",
    "country": "Italy",
    "state": "Emilia-Romagna",
    "city": "Borzano"
  },
  {
    "source_id": "ChIJvW5gIzmfgkcRJpTl3PDHV7E",
    "name": "IDRA.BZ di Gianluca Mattea - Idraulica Specializzata",
    "category": "IDRA.BZ di Gianluca Mattea - Idraulica Specializzata",
    "formatted_address": "4,8(107)",
    "phone_number": "+393382342252",
    "source_url": "https://www.google.com/maps/place/IDRA.BZ+di+Gianluca+Mattea+-+Idraulica+Specializzata/data=!4m7!3m6!1s0x47829f3923606ebd:0xb157c7f0dce59426!8m2!3d46.5006453!4d11.3602004!16s%2Fg%2F11jgntd77f!19sChIJvW5gIzmfgkcRJpTl3PDHV7E?authuser=0&hl=tr&rclk=1",
    "website_url": "",
    "rating_text": "4,8",
    "stars": null,
    "number_of_reviews": null,
    "price_level": "",
    "open_hours": "",
    "extraction_timestamp": "2025-06-07T16:33:51.843Z",
    "source_name": "google",
    "source_query": "Irrigation Equipment",
    "source_country": "IT",
    "country": "Italy",
    "state": "Emilia-Romagna",
    "city": "Borzano"
  },
  {
    "source_id": "ChIJlV8lykicgkcRLct2811h6h4",
    "name": "IPERCERAMICA Bolzano",
    "category": "IPERCERAMICA Bolzano",
    "formatted_address": "4,2(117)",
    "phone_number": "+393491701506",
    "source_url": "https://www.google.com/maps/place/IPERCERAMICA+Bolzano/data=!4m7!3m6!1s0x47829c48ca255f95:0x1eea615df376cb2d!8m2!3d46.472227!4d11.3246222!16s%2Fg%2F1tl0w60b!19sChIJlV8lykicgkcRLct2811h6h4?authuser=0&hl=tr&rclk=1",
    "website_url": "https://www.iperceramica.it/it/ita/negozi/pavimenti-parquet-arredo-bagno-sanitari-bolzano?utm_content=IPERCERAMICA+Bolzano&utm_source=google&utm_campaign=SERP+Local+Pack+o+Google+Maps&utm_medium=localrecord",
    "rating_text": "4,2",
    "stars": null,
    "number_of_reviews": null,
    "price_level": "",
    "open_hours": "",
    "extraction_timestamp": "2025-06-07T16:33:51.844Z",
    "source_name": "google",
    "source_query": "Irrigation Equipment",
    "source_country": "IT",
    "country": "Italy",
    "state": "Emilia-Romagna",
    "city": "Borzano"
  },
  {
    "source_id": "ChIJl1DtLvIagEcRB7oC6fRm17w",
    "name": "Agrostar Srl",
    "category": "Agrostar Srl",
    "formatted_address": "4,6(13)",
    "phone_number": "+390522577741",
    "source_url": "https://www.google.com/maps/place/Agrostar+Srl/data=!4m7!3m6!1s0x47801af22eed5097:0xbcd766f4e902ba07!8m2!3d44.663296!4d10.489464!16s%2Fg%2F1v9ghvj3!19sChIJl1DtLvIagEcRB7oC6fRm17w?authuser=0&hl=tr&rclk=1",
    "website_url": "http://www.agrostar.it/",
    "rating_text": "4,6",
    "stars": null,
    "number_of_reviews": null,
    "price_level": "",
    "open_hours": "",
    "extraction_timestamp": "2025-06-07T16:33:51.846Z",
    "source_name": "google",
    "source_query": "Irrigation Equipment",
    "source_country": "IT",
    "country": "Italy",
    "state": "Emilia-Romagna",
    "city": "Borzano"
  },
  {
    "source_id": "ChIJQ8fJol1SKxMRShirn3slxH4",
    "name": "Tecnir",
    "category": "Tecnir",
    "formatted_address": "4,4(17)",
    "phone_number": "+390546641026",
    "source_url": "https://www.google.com/maps/place/Tecnir/data=!4m7!3m6!1s0x132b525da2c9c743:0x7ec4257b9fab184a!8m2!3d44.363732!4d11.935557!16s%2Fg%2F1vfps_3m!19sChIJQ8fJol1SKxMRShirn3slxH4?authuser=0&hl=tr&rclk=1",
    "website_url": "https://www.tecnirirrigazione.it/",
    "rating_text": "4,4",
    "stars": null,
    "number_of_reviews": null,
    "price_level": "",
    "open_hours": "",
    "extraction_timestamp": "2025-06-07T16:33:51.846Z",
    "source_name": "google",
    "source_query": "Irrigation Equipment",
    "source_country": "IT",
    "country": "Italy",
    "state": "Emilia-Romagna",
    "city": "Borzano"
  },
  {
    "source_id": "ChIJhT-kpAXff0cRKJQqKYwIulA",
    "name": "Irrigo",
    "category": "Irrigo",
    "formatted_address": "4,7(36)",
    "phone_number": "+393473096499",
    "source_url": "https://www.google.com/maps/place/Irrigo/data=!4m7!3m6!1s0x477fdf05a4a43f85:0x50ba088c292a9428!8m2!3d44.5018172!4d11.005272!16s%2Fg%2F11hdjcp5pk!19sChIJhT-kpAXff0cRKJQqKYwIulA?authuser=0&hl=tr&rclk=1",
    "website_url": "https://www.irrigovignola.it/",
    "rating_text": "4,7",
    "stars": null,
    "number_of_reviews": null,
    "price_level": "",
    "open_hours": "",
    "extraction_timestamp": "2025-06-07T16:33:51.847Z",
    "source_name": "google",
    "source_query": "Irrigation Equipment",
    "source_country": "IT",
    "country": "Italy",
    "state": "Emilia-Romagna",
    "city": "Borzano"
  },
  {
    "source_id": "ChIJna7HjaQcgEcR2wnTD8_e_HY",
    "name": "Hydrocontrol S.R.L.",
    "category": "Hydrocontrol S.R.L.",
    "formatted_address": "4,4(7)",
    "phone_number": "+390522330315",
    "source_url": "https://www.google.com/maps/place/Hydrocontrol+S.R.L./data=!4m7!3m6!1s0x47801ca48dc7ae9d:0x76fcdecf0fd309db!8m2!3d44.669783!4d10.597142!16s%2Fg%2F12hmcfzzg!19sChIJna7HjaQcgEcR2wnTD8_e_HY?authuser=0&hl=tr&rclk=1",
    "website_url": "https://www.hydrocontrol.it/",
    "rating_text": "4,4",
    "stars": null,
    "number_of_reviews": null,
    "price_level": "",
    "open_hours": "",
    "extraction_timestamp": "2025-06-07T16:33:51.849Z",
    "source_name": "google",
    "source_query": "Irrigation Equipment",
    "source_country": "IT",
    "country": "Italy",
    "state": "Emilia-Romagna",
    "city": "Borzano"
  },
  {
    "source_id": "ChIJX-0HrXYcgEcRPiaDZKdV6iw",
    "name": "Idromeccanica Bertolini S.p.a.",
    "category": "Idromeccanica Bertolini S.p.a.",
    "formatted_address": "3,7(20)",
    "phone_number": "+390522306641",
    "source_url": "https://www.google.com/maps/place/Idromeccanica+Bertolini+S.p.a./data=!4m7!3m6!1s0x47801c76ad07ed5f:0x2cea55a76483263e!8m2!3d44.7131562!4d10.5953009!16s%2Fg%2F11b6j1nfcw!19sChIJX-0HrXYcgEcRPiaDZKdV6iw?authuser=0&hl=tr&rclk=1",
    "website_url": "http://www.bertolinipumps.com/",
    "rating_text": "3,7",
    "stars": null,
    "number_of_reviews": null,
    "price_level": "",
    "open_hours": "",
    "extraction_timestamp": "2025-06-07T16:33:51.850Z",
    "source_name": "google",
    "source_query": "Irrigation Equipment",
    "source_country": "IT",
    "country": "Italy",
    "state": "Emilia-Romagna",
    "city": "Borzano"
  },
  {
    "source_id": "ChIJa8flob_wf0cRa7XVBodnL2I",
    "name": "Arag Srl",
    "category": "Arag Srl",
    "formatted_address": "4,6(141)",
    "phone_number": "+390522622011",
    "source_url": "https://www.google.com/maps/place/Arag+Srl/data=!4m7!3m6!1s0x477ff0bfa1e5c76b:0x622f678706d5b56b!8m2!3d44.6556162!4d10.7922409!16s%2Fg%2F1tdnd2vb!19sChIJa8flob_wf0cRa7XVBodnL2I?authuser=0&hl=tr&rclk=1",
    "website_url": "http://www.aragnet.com/",
    "rating_text": "4,6",
    "stars": null,
    "number_of_reviews": null,
    "price_level": "",
    "open_hours": "",
    "extraction_timestamp": "2025-06-07T16:33:51.851Z",
    "source_name": "google",
    "source_query": "Irrigation Equipment",
    "source_country": "IT",
    "country": "Italy",
    "state": "Emilia-Romagna",
    "city": "Borzano"
  },
  {
    "source_id": "ChIJ-arxwdPWgUcRmXWoftdyjYg",
    "name": "Pioggia Carnevali",
    "category": "Pioggia Carnevali",
    "formatted_address": "4,8(22)",
    "phone_number": "+390376398151",
    "source_url": "https://www.google.com/maps/place/Pioggia+Carnevali/data=!4m7!3m6!1s0x4781d6d3c1f1aaf9:0x888d72d77ea87599!8m2!3d45.1985116!4d10.7916482!16s%2Fg%2F1hc1z5fv1!19sChIJ-arxwdPWgUcRmXWoftdyjYg?authuser=0&hl=tr&rclk=1",
    "website_url": "http://www.pioggiacarnevali.com/",
    "rating_text": "4,8",
    "stars": null,
    "number_of_reviews": null,
    "price_level": "",
    "open_hours": "",
    "extraction_timestamp": "2025-06-07T16:33:51.852Z",
    "source_name": "google",
    "source_query": "Irrigation Equipment",
    "source_country": "IT",
    "country": "Italy",
    "state": "Emilia-Romagna",
    "city": "Borzano"
  },
  {
    "source_id": "ChIJR0cLXhQkgEcRi9oI9GALzlg",
    "name": "IRRILAND",
    "category": "IRRILAND",
    "formatted_address": "4,0(4)",
    "phone_number": "+390522831544",
    "source_url": "https://www.google.com/maps/place/IRRILAND/data=!4m7!3m6!1s0x478024145e0b4747:0x58ce0b60f408da8b!8m2!3d44.891987!4d10.650983!16s%2Fg%2F1tczjb0h!19sChIJR0cLXhQkgEcRi9oI9GALzlg?authuser=0&hl=tr&rclk=1",
    "website_url": "http://www.irriland.it/",
    "rating_text": "4,0",
    "stars": null,
    "number_of_reviews": null,
    "price_level": "",
    "open_hours": "",
    "extraction_timestamp": "2025-06-07T16:33:51.853Z",
    "source_name": "google",
    "source_query": "Irrigation Equipment",
    "source_country": "IT",
    "country": "Italy",
    "state": "Emilia-Romagna",
    "city": "Borzano"
  },
  {
    "source_id": "ChIJJ6V6lMDgf0cRkL2jf5B3MwQ",
    "name": "Scova Engineering Spa",
    "category": "Scova Engineering Spa",
    "formatted_address": "5,0(2)",
    "phone_number": "+39059702012",
    "source_url": "https://www.google.com/maps/place/Scova+Engineering+Spa/data=!4m7!3m6!1s0x477fe0c0947aa527:0x43377907fa3bd90!8m2!3d44.5304758!4d10.9796265!16s%2Fg%2F1tql3mky!19sChIJJ6V6lMDgf0cRkL2jf5B3MwQ?authuser=0&hl=tr&rclk=1",
    "website_url": "https://www.scova-engineering.it/",
    "rating_text": "5,0",
    "stars": null,
    "number_of_reviews": null,
    "price_level": "",
    "open_hours": "",
    "extraction_timestamp": "2025-06-07T16:33:51.854Z",
    "source_name": "google",
    "source_query": "Irrigation Equipment",
    "source_country": "IT",
    "country": "Italy",
    "state": "Emilia-Romagna",
    "city": "Borzano"
  },
  {
    "source_id": "ChIJi4SteyvBgUcRWJDLSb2DZBM",
    "name": "Aqua Verde Srl",
    "category": "Aqua Verde Srl",
    "formatted_address": "5,0(11)",
    "phone_number": "+390376804122",
    "source_url": "https://www.google.com/maps/place/Aqua+Verde+Srl/data=!4m7!3m6!1s0x4781c12b7bad848b:0x136483bd49cb9058!8m2!3d45.3361772!4d10.6060539!16s%2Fg%2F1tdhcwh_!19sChIJi4SteyvBgUcRWJDLSb2DZBM?authuser=0&hl=tr&rclk=1",
    "website_url": "http://www.aquaverde.it/",
    "rating_text": "5,0",
    "stars": null,
    "number_of_reviews": null,
    "price_level": "",
    "open_hours": "",
    "extraction_timestamp": "2025-06-07T16:33:51.855Z",
    "source_name": "google",
    "source_query": "Irrigation Equipment",
    "source_country": "IT",
    "country": "Italy",
    "state": "Emilia-Romagna",
    "city": "Borzano"
  },
  {
    "source_id": "ChIJy4AVn9C-LBMRn6nsnuZl82A",
    "name": "Ramilli Irrigazioni S.R.L.",
    "category": "Ramilli Irrigazioni S.R.L.",
    "formatted_address": "4,3(52)",
    "phone_number": "+390541945335",
    "source_url": "https://www.google.com/maps/place/Ramilli+Irrigazioni+S.R.L./data=!4m7!3m6!1s0x132cbed09f1580cb:0x60f365e69eeca99f!8m2!3d44.0923156!4d12.3843691!16s%2Fg%2F1ts2ls1r!19sChIJy4AVn9C-LBMRn6nsnuZl82A?authuser=0&hl=tr&rclk=1",
    "website_url": "https://www.ramilli.it/",
    "rating_text": "4,3",
    "stars": null,
    "number_of_reviews": null,
    "price_level": "",
    "open_hours": "",
    "extraction_timestamp": "2025-06-07T16:33:51.856Z",
    "source_name": "google",
    "source_query": "Irrigation Equipment",
    "source_country": "IT",
    "country": "Italy",
    "state": "Emilia-Romagna",
    "city": "Borzano"
  },
  {
    "source_id": "ChIJAdruoW0cgEcR3Gg91KmmNQw",
    "name": "Kramp Italia",
    "category": "Kramp Italia",
    "formatted_address": "4,7(18)",
    "phone_number": "+3905221712630",
    "source_url": "https://www.google.com/maps/place/Kramp+Italia/data=!4m7!3m6!1s0x47801c6da1eeda01:0xc35a6a9d43d68dc!8m2!3d44.711173!4d10.7080676!16s%2Fg%2F1hc4fppvw!19sChIJAdruoW0cgEcR3Gg91KmmNQw?authuser=0&hl=tr&rclk=1",
    "website_url": "https://www.kramp.com/shop-it/it?utm_source=google&utm_medium=organic&utm_campaign=gmb&utm_content=website",
    "rating_text": "4,7",
    "stars": null,
    "number_of_reviews": null,
    "price_level": "",
    "open_hours": "",
    "extraction_timestamp": "2025-06-07T16:33:51.857Z",
    "source_name": "google",
    "source_query": "Irrigation Equipment",
    "source_country": "IT",
    "country": "Italy",
    "state": "Emilia-Romagna",
    "city": "Borzano"
  },
  {
    "source_id": "ChIJ-Z_RHvbnf0cRry0jCm7Q5GQ",
    "name": "Scova Impianti",
    "category": "Scova Impianti",
    "formatted_address": "4,0(4)",
    "phone_number": "+39059925910",
    "source_url": "https://www.google.com/maps/place/Scova+Impianti/data=!4m7!3m6!1s0x477fe7f61ed19ff9:0x64e4d06e0a232daf!8m2!3d44.6018937!4d11.0315223!16s%2Fg%2F1td6wznv!19sChIJ-Z_RHvbnf0cRry0jCm7Q5GQ?authuser=0&hl=tr&rclk=1",
    "website_url": "https://scovaimpianti.com/",
    "rating_text": "4,0",
    "stars": null,
    "number_of_reviews": null,
    "price_level": "",
    "open_hours": "",
    "extraction_timestamp": "2025-06-07T16:33:51.858Z",
    "source_name": "google",
    "source_query": "Irrigation Equipment",
    "source_country": "IT",
    "country": "Italy",
    "state": "Emilia-Romagna",
    "city": "Borzano"
  },
  {
    "source_id": "ChIJ36EFbM_vf0cRQVPDXPOyqi8",
    "name": "Caprari",
    "category": "Caprari",
    "formatted_address": "4,2(22)",
    "phone_number": "",
    "source_url": "https://www.google.com/maps/place/Caprari/data=!4m7!3m6!1s0x477fefcf6c05a1df:0x2faab2f35cc35341!8m2!3d44.6582946!4d10.8809223!16s%2Fg%2F11f4wjg43c!19sChIJ36EFbM_vf0cRQVPDXPOyqi8?authuser=0&hl=tr&rclk=1",
    "website_url": "http://www.caprari.it/",
    "rating_text": "4,2",
    "stars": null,
    "number_of_reviews": null,
    "price_level": "",
    "open_hours": "",
    "extraction_timestamp": "2025-06-07T16:33:51.859Z",
    "source_name": "google",
    "source_query": "Irrigation Equipment",
    "source_country": "IT",
    "country": "Italy",
    "state": "Emilia-Romagna",
    "city": "Borzano"
  },
  {
    "source_id": "ChIJZa4nbJAegEcREqQVLyDrIik",
    "name": "Bell S.r.l.",
    "category": "Bell S.r.l.",
    "formatted_address": "4,1(8)",
    "phone_number": "+390522505911",
    "source_url": "https://www.google.com/maps/place/Bell+S.r.l./data=!4m7!3m6!1s0x47801e906c27ae65:0x2922eb202f15a412!8m2!3d44.7372115!4d10.6465257!16s%2Fg%2F1vl9qbfm!19sChIJZa4nbJAegEcREqQVLyDrIik?authuser=0&hl=tr&rclk=1",
    "website_url": "https://bell.it/",
    "rating_text": "4,1",
    "stars": null,
    "number_of_reviews": null,
    "price_level": "",
    "open_hours": "",
    "extraction_timestamp": "2025-06-07T16:33:51.861Z",
    "source_name": "google",
    "source_query": "Irrigation Equipment",
    "source_country": "IT",
    "country": "Italy",
    "state": "Emilia-Romagna",
    "city": "Borzano"
  }
]
