[
  {
    "source_id": "ChIJh3Nd8G0sfkcR_m7VewEmxXM",
    "name": "Irrigarden",
    "category": "Irrigarden",
    "formatted_address": "4,7(158)",
    "phone_number": "+39051782013",
    "source_url": "https://www.google.com/maps/place/Irrigarden/data=!4m7!3m6!1s0x477e2c6df05d7387:0x73c526017bd56efe!8m2!3d44.5096266!4d11.4390897!16s%2Fg%2F1vgw_l7w!19sChIJh3Nd8G0sfkcR_m7VewEmxXM?authuser=0&hl=tr&rclk=1",
    "website_url": "https://www.irrigarden-bo.it/",
    "rating_text": "4,7",
    "stars": null,
    "number_of_reviews": null,
    "price_level": "",
    "open_hours": "",
    "extraction_timestamp": "2025-06-07T17:04:23.949Z",
    "source_name": "google",
    "source_query": "Irrigation Equipment",
    "source_country": "IT",
    "country": "Italy",
    "state": "Emilia-Romagna",
    "city": "Bosco Mesola"
  },
  {
    "source_id": "ChIJK4uY_RJ9fkcRun74x3ymFH0",
    "name": "Essegiardini",
    "category": "Essegiardini",
    "formatted_address": "5,0(1)",
    "phone_number": "+393470406258",
    "source_url": "https://www.google.com/maps/place/Essegiardini/data=!4m7!3m6!1s0x477e7d12fd988b2b:0x7d14a67cc7f87eba!8m2!3d44.9216426!4d12.1704875!16s%2Fg%2F11x0h04mqf!19sChIJK4uY_RJ9fkcRun74x3ymFH0?authuser=0&hl=tr&rclk=1",
    "website_url": "http://www.essegiardini.it/",
    "rating_text": "5,0",
    "stars": null,
    "number_of_reviews": null,
    "price_level": "",
    "open_hours": "",
    "extraction_timestamp": "2025-06-07T17:04:23.951Z",
    "source_name": "google",
    "source_query": "Irrigation Equipment",
    "source_country": "IT",
    "country": "Italy",
    "state": "Emilia-Romagna",
    "city": "Bosco Mesola"
  },
  {
    "source_id": "ChIJISlyN8fVfkcRP1ghb3uyg-o",
    "name": "Import Irrigation Systems S.R.L.",
    "category": "Import Irrigation Systems S.R.L.",
    "formatted_address": "Üretici ·  · Via Salvo d'Acquisto, 5Kapalı ⋅ Açılış zamanı: Pzt 08:30 · +39 049 559 1020",
    "phone_number": "+390495591020",
    "source_url": "https://www.google.com/maps/place/Import+Irrigation+Systems+S.R.L./data=!4m7!3m6!1s0x477ed5c737722921:0xea83b27b6f21583f!8m2!3d45.5362842!4d11.825368!16s%2Fg%2F1tsjchn3!19sChIJISlyN8fVfkcRP1ghb3uyg-o?authuser=0&hl=tr&rclk=1",
    "website_url": "http://www.importirrigation.com/",
    "rating_text": "",
    "stars": null,
    "number_of_reviews": null,
    "price_level": "",
    "open_hours": "",
    "extraction_timestamp": "2025-06-07T17:04:23.953Z",
    "source_name": "google",
    "source_query": "Irrigation Equipment",
    "source_country": "IT",
    "country": "Italy",
    "state": "Emilia-Romagna",
    "city": "Bosco Mesola"
  },
  {
    "source_id": "ChIJiQcxEXh_fkcRW1-2DFJaJpg",
    "name": "IMPIANTO IDROVORO BRASAVOLA",
    "category": "IMPIANTO IDROVORO BRASAVOLA",
    "formatted_address": "3,0(2)",
    "phone_number": "+390532218111",
    "source_url": "https://www.google.com/maps/place/IMPIANTO+IDROVORO+BRASAVOLA/data=!4m7!3m6!1s0x477e7f7811310789:0x98265a520cb65f5b!8m2!3d44.8840789!4d12.239354!16s%2Fg%2F11h_4_l9zz!19sChIJiQcxEXh_fkcRW1-2DFJaJpg?authuser=0&hl=tr&rclk=1",
    "website_url": "http://www.bonificaferrara.it/",
    "rating_text": "3,0",
    "stars": null,
    "number_of_reviews": null,
    "price_level": "",
    "open_hours": "",
    "extraction_timestamp": "2025-06-07T17:04:23.955Z",
    "source_name": "google",
    "source_query": "Irrigation Equipment",
    "source_country": "IT",
    "country": "Italy",
    "state": "Emilia-Romagna",
    "city": "Bosco Mesola"
  },
  {
    "source_id": "ChIJJddIIMQof0cRpzpXRqpwRSY",
    "name": "My4Garden",
    "category": "My4Garden",
    "formatted_address": "My4Garden",
    "phone_number": "+390495591020",
    "source_url": "https://www.google.com/maps/place/My4Garden/data=!4m7!3m6!1s0x477f28c42048d725:0x264570aa46573aa7!8m2!3d45.5360043!4d11.8251398!16s%2Fg%2F1td6lhkv!19sChIJJddIIMQof0cRpzpXRqpwRSY?authuser=0&hl=tr&rclk=1",
    "website_url": "https://www.my4garden.com/",
    "rating_text": "4,6",
    "stars": null,
    "number_of_reviews": null,
    "price_level": "",
    "open_hours": "",
    "extraction_timestamp": "2025-06-07T17:04:23.956Z",
    "source_name": "google",
    "source_query": "Irrigation Equipment",
    "source_country": "IT",
    "country": "Italy",
    "state": "Emilia-Romagna",
    "city": "Bosco Mesola"
  },
  {
    "source_id": "ChIJw_nNf21-fkcRzWsa-ob5xQQ",
    "name": "Elettronica Marittima Srl",
    "category": "Elettronica Marittima Srl",
    "formatted_address": "5,0(4)",
    "phone_number": "+390533995552",
    "source_url": "https://www.google.com/maps/place/Elettronica+Marittima+Srl/data=!4m7!3m6!1s0x477e7e6d7fcdf9c3:0x4c5f986fa1a6bcd!8m2!3d44.884857!4d12.2171324!16s%2Fg%2F1wfvlhhl!19sChIJw_nNf21-fkcRzWsa-ob5xQQ?authuser=0&hl=tr&rclk=1",
    "website_url": "http://www.elettronicamarittima.it/",
    "rating_text": "5,0",
    "stars": null,
    "number_of_reviews": null,
    "price_level": "",
    "open_hours": "",
    "extraction_timestamp": "2025-06-07T17:04:23.958Z",
    "source_name": "google",
    "source_query": "Irrigation Equipment",
    "source_country": "IT",
    "country": "Italy",
    "state": "Emilia-Romagna",
    "city": "Bosco Mesola"
  },
  {
    "source_id": "ChIJcQG6ul7df0cR3VxKiu5OPBs",
    "name": "Scova Impianti Srl",
    "category": "Scova Impianti Srl",
    "formatted_address": "4,5(64)",
    "phone_number": "+39059923202",
    "source_url": "https://www.google.com/maps/place/Scova+Impianti+Srl/data=!4m7!3m6!1s0x477fdd5ebaba0171:0x1b3c4eee8a4a5cdd!8m2!3d44.6018135!4d11.032294!16s%2Fg%2F1tfzwbfb!19sChIJcQG6ul7df0cR3VxKiu5OPBs?authuser=0&hl=tr&rclk=1",
    "website_url": "https://www.scovaimpianti.com/",
    "rating_text": "4,5",
    "stars": null,
    "number_of_reviews": null,
    "price_level": "",
    "open_hours": "",
    "extraction_timestamp": "2025-06-07T17:04:23.959Z",
    "source_name": "google",
    "source_query": "Irrigation Equipment",
    "source_country": "IT",
    "country": "Italy",
    "state": "Emilia-Romagna",
    "city": "Bosco Mesola"
  },
  {
    "source_id": "ChIJZ00iodpZfkcRFDnySThEBLo",
    "name": "GRILLANDA ALDO IDROMINERARIA di Marcello Grillanda e C. s.a.s.",
    "category": "GRILLANDA ALDO IDROMINERARIA di Marcello Grillanda e C. s.a.s.",
    "formatted_address": "4,2(12)",
    "phone_number": "+390532868114",
    "source_url": "https://www.google.com/maps/place/GRILLANDA+ALDO+IDROMINERARIA+di+Marcello+Grillanda+e+C.+s.a.s./data=!4m7!3m6!1s0x477e59daa1224d67:0xba04443849f23914!8m2!3d44.9462679!4d11.7532187!16s%2Fg%2F1tj20crb!19sChIJZ00iodpZfkcRFDnySThEBLo?authuser=0&hl=tr&rclk=1",
    "website_url": "http://www.idromineraria.it/",
    "rating_text": "4,2",
    "stars": null,
    "number_of_reviews": null,
    "price_level": "",
    "open_hours": "",
    "extraction_timestamp": "2025-06-07T17:04:23.961Z",
    "source_name": "google",
    "source_query": "Irrigation Equipment",
    "source_country": "IT",
    "country": "Italy",
    "state": "Emilia-Romagna",
    "city": "Bosco Mesola"
  },
  {
    "source_id": "ChIJi2h1PM9-fkcRRXqYdjrDJAU",
    "name": "La Nuova Ferramenta di Dario Ciufd",
    "category": "La Nuova Ferramenta di Dario Ciufd",
    "formatted_address": "4,1(16)",
    "phone_number": "+390533794515",
    "source_url": "https://www.google.com/maps/place/La+Nuova+Ferramenta+di+Dario+Ciufd/data=!4m7!3m6!1s0x477e7ecf3c75688b:0x524c33a76987a45!8m2!3d44.8751754!4d12.228879!16s%2Fg%2F1vyn2q52!19sChIJi2h1PM9-fkcRRXqYdjrDJAU?authuser=0&hl=tr&rclk=1",
    "website_url": "",
    "rating_text": "4,1",
    "stars": null,
    "number_of_reviews": null,
    "price_level": "",
    "open_hours": "",
    "extraction_timestamp": "2025-06-07T17:04:23.962Z",
    "source_name": "google",
    "source_query": "Irrigation Equipment",
    "source_country": "IT",
    "country": "Italy",
    "state": "Emilia-Romagna",
    "city": "Bosco Mesola"
  },
  {
    "source_id": "ChIJJZ-DwdV_fkcRIhpyVSke4p4",
    "name": "Zampetta Shop",
    "category": "Zampetta Shop",
    "formatted_address": "4,6(10)",
    "phone_number": "+393476699740",
    "source_url": "https://www.google.com/maps/place/Zampetta+Shop/data=!4m7!3m6!1s0x477e7fd5c1839f25:0x9ee21e2955721a22!8m2!3d44.8768835!4d12.2288918!16s%2Fg%2F11j8wbmhcp!19sChIJJZ-DwdV_fkcRIhpyVSke4p4?authuser=0&hl=tr&rclk=1",
    "website_url": "https://www.facebook.com/zampettashop19/",
    "rating_text": "4,6",
    "stars": null,
    "number_of_reviews": null,
    "price_level": "",
    "open_hours": "",
    "extraction_timestamp": "2025-06-07T17:04:23.964Z",
    "source_name": "google",
    "source_query": "Irrigation Equipment",
    "source_country": "IT",
    "country": "Italy",
    "state": "Emilia-Romagna",
    "city": "Bosco Mesola"
  }
]
