[
  {
    "source_id": "ChIJcQG6ul7df0cR3VxKiu5OPBs",
    "name": "Scova Impianti Srl",
    "category": "Scova Impianti Srl",
    "formatted_address": "4,5(64)",
    "phone_number": "+39059923202",
    "source_url": "https://www.google.com/maps/place/Scova+Impianti+Srl/data=!4m7!3m6!1s0x477fdd5ebaba0171:0x1b3c4eee8a4a5cdd!8m2!3d44.6018135!4d11.032294!16s%2Fg%2F1tfzwbfb!19sChIJcQG6ul7df0cR3VxKiu5OPBs?authuser=0&hl=tr&rclk=1",
    "website_url": "https://www.scovaimpianti.com/",
    "rating_text": "4,5",
    "stars": null,
    "number_of_reviews": null,
    "price_level": "",
    "open_hours": "",
    "extraction_timestamp": "2025-06-07T15:46:26.401Z",
    "source_name": "google",
    "source_query": "Irrigation Equipment",
    "source_country": "IT",
    "country": "Italy",
    "state": "Emilia-Romagna",
    "city": "Brescello"
  },
  {
    "source_id": "ChIJtzLXV34mgEcR9sDfnfgzOxg",
    "name": "Sime Idromeccanica S.R.L.",
    "category": "Sime Idromeccanica S.R.L.",
    "formatted_address": "4,8(22)",
    "phone_number": "+390522824724",
    "source_url": "https://www.google.com/maps/place/Sime+Idromeccanica+S.R.L./data=!4m7!3m6!1s0x4780267e57d732b7:0x183b33f89ddfc0f6!8m2!3d44.8931121!4d10.6571392!16s%2Fg%2F1tx1s13m!19sChIJtzLXV34mgEcR9sDfnfgzOxg?authuser=0&hl=tr&rclk=1",
    "website_url": "",
    "rating_text": "4,8",
    "stars": null,
    "number_of_reviews": null,
    "price_level": "",
    "open_hours": "",
    "extraction_timestamp": "2025-06-07T15:46:26.402Z",
    "source_name": "google",
    "source_query": "Irrigation Equipment",
    "source_country": "IT",
    "country": "Italy",
    "state": "Emilia-Romagna",
    "city": "Brescello"
  },
  {
    "source_id": "ChIJtVDkNgRFgEcRqc6umwWIJuI",
    "name": "Rm Spa",
    "category": "Rm Spa",
    "formatted_address": "4,6(81)",
    "phone_number": "+390521872321",
    "source_url": "https://www.google.com/maps/place/Rm+Spa/data=!4m7!3m6!1s0x4780450436e450b5:0xe22688059baecea9!8m2!3d44.9105406!4d10.2583785!16s%2Fg%2F12hl93byl!19sChIJtVDkNgRFgEcRqc6umwWIJuI?authuser=0&hl=tr&rclk=1",
    "website_url": "http://www.rmirrigation.com/",
    "rating_text": "4,6",
    "stars": null,
    "number_of_reviews": null,
    "price_level": "",
    "open_hours": "",
    "extraction_timestamp": "2025-06-07T15:46:26.404Z",
    "source_name": "google",
    "source_query": "Irrigation Equipment",
    "source_country": "IT",
    "country": "Italy",
    "state": "Emilia-Romagna",
    "city": "Brescello"
  },
  {
    "source_id": "ChIJ53CHI447gEcRb_uGQkCF9IU",
    "name": "Zanichelli Federico",
    "category": "Zanichelli Federico",
    "formatted_address": "4,8(33)",
    "phone_number": "+390522687182",
    "source_url": "https://www.google.com/maps/place/Zanichelli+Federico/data=!4m7!3m6!1s0x47803b8e238770e7:0x85f485404286fb6f!8m2!3d44.8983533!4d10.5165261!16s%2Fg%2F1hc3lt2nb!19sChIJ53CHI447gEcRb_uGQkCF9IU?authuser=0&hl=tr&rclk=1",
    "website_url": "",
    "rating_text": "4,8",
    "stars": null,
    "number_of_reviews": null,
    "price_level": "",
    "open_hours": "",
    "extraction_timestamp": "2025-06-07T15:46:26.405Z",
    "source_name": "google",
    "source_query": "Irrigation Equipment",
    "source_country": "IT",
    "country": "Italy",
    "state": "Emilia-Romagna",
    "city": "Brescello"
  },
  {
    "source_id": "ChIJR0cLXhQkgEcRi9oI9GALzlg",
    "name": "IRRILAND",
    "category": "IRRILAND",
    "formatted_address": "4,0(4)",
    "phone_number": "+390522831544",
    "source_url": "https://www.google.com/maps/place/IRRILAND/data=!4m7!3m6!1s0x478024145e0b4747:0x58ce0b60f408da8b!8m2!3d44.891987!4d10.650983!16s%2Fg%2F1tczjb0h!19sChIJR0cLXhQkgEcRi9oI9GALzlg?authuser=0&hl=tr&rclk=1",
    "website_url": "http://www.irriland.it/",
    "rating_text": "4,0",
    "stars": null,
    "number_of_reviews": null,
    "price_level": "",
    "open_hours": "",
    "extraction_timestamp": "2025-06-07T15:46:26.406Z",
    "source_name": "google",
    "source_query": "Irrigation Equipment",
    "source_country": "IT",
    "country": "Italy",
    "state": "Emilia-Romagna",
    "city": "Brescello"
  },
  {
    "source_id": "ChIJbbJSLMTUgUcR4B5SnyIb8jI",
    "name": "Centroacqua Srl Impianti Irrigazione",
    "category": "Centroacqua Srl Impianti Irrigazione",
    "formatted_address": "4,7(97)",
    "phone_number": "+390376448285",
    "source_url": "https://www.google.com/maps/place/Centroacqua+Srl+Impianti+Irrigazione/data=!4m7!3m6!1s0x4781d4c42c52b26d:0x32f21b229f521ee0!8m2!3d45.0673733!4d10.5844569!16s%2Fg%2F1tdg6njv!19sChIJbbJSLMTUgUcR4B5SnyIb8jI?authuser=0&hl=tr&rclk=1",
    "website_url": "https://www.centroacquasrl.it/",
    "rating_text": "4,7",
    "stars": null,
    "number_of_reviews": null,
    "price_level": "",
    "open_hours": "",
    "extraction_timestamp": "2025-06-07T15:46:26.407Z",
    "source_name": "google",
    "source_query": "Irrigation Equipment",
    "source_country": "IT",
    "country": "Italy",
    "state": "Emilia-Romagna",
    "city": "Brescello"
  },
  {
    "source_id": "ChIJCSPKTpQ8gEcR5v3MgofNtYc",
    "name": "Rainbow Irrigazione",
    "category": "Rainbow Irrigazione",
    "formatted_address": "3,8(5)",
    "phone_number": "+390522969903",
    "source_url": "https://www.google.com/maps/place/Rainbow+Irrigazione/data=!4m7!3m6!1s0x47803c944eca2309:0x87b5cd8782ccfde6!8m2!3d44.8714903!4d10.5420231!16s%2Fg%2F1tk9pmd5!19sChIJCSPKTpQ8gEcR5v3MgofNtYc?authuser=0&hl=tr&rclk=1",
    "website_url": "",
    "rating_text": "3,8",
    "stars": null,
    "number_of_reviews": null,
    "price_level": "",
    "open_hours": "",
    "extraction_timestamp": "2025-06-07T15:46:26.407Z",
    "source_name": "google",
    "source_query": "Irrigation Equipment",
    "source_country": "IT",
    "country": "Italy",
    "state": "Emilia-Romagna",
    "city": "Brescello"
  },
  {
    "source_id": "ChIJ52NmYBU7gEcRblBH9-Fpo9g",
    "name": "Carbogreen Di Carboni Renzo",
    "category": "Carbogreen Di Carboni Renzo",
    "formatted_address": "Tarımsal Ekipman Tedarikçisi ·  · Viale Umberto I, 78Kapalı ⋅ Açılış zamanı: Pzt 09:00 · +39 0522 964261",
    "phone_number": "+390522964261",
    "source_url": "https://www.google.com/maps/place/Carbogreen+Di+Carboni+Renzo/data=!4m7!3m6!1s0x47803b15606663e7:0xd8a369e1f747506e!8m2!3d44.9053102!4d10.5579024!16s%2Fg%2F1tjxdhvy!19sChIJ52NmYBU7gEcRblBH9-Fpo9g?authuser=0&hl=tr&rclk=1",
    "website_url": "http://www.carbogreen.it/",
    "rating_text": "",
    "stars": null,
    "number_of_reviews": null,
    "price_level": "",
    "open_hours": "",
    "extraction_timestamp": "2025-06-07T15:46:26.408Z",
    "source_name": "google",
    "source_query": "Irrigation Equipment",
    "source_country": "IT",
    "country": "Italy",
    "state": "Emilia-Romagna",
    "city": "Brescello"
  },
  {
    "source_id": "ChIJqwrsAo87gEcRvt_EPKfZ-MY",
    "name": "Vecchi Fausto Caldaie A Gas",
    "category": "Vecchi Fausto Caldaie A Gas",
    "formatted_address": "4,5(35)",
    "phone_number": "+390522680884",
    "source_url": "https://www.google.com/maps/place/Vecchi+Fausto+Caldaie+A+Gas/data=!4m7!3m6!1s0x47803b8f02ec0aab:0xc6f8d9a73cc4dfbe!8m2!3d44.8922793!4d10.5168313!16s%2Fg%2F12hklchrh!19sChIJqwrsAo87gEcRvt_EPKfZ-MY?authuser=0&hl=tr&rclk=1",
    "website_url": "http://www.vecchifausto.it/",
    "rating_text": "4,5",
    "stars": null,
    "number_of_reviews": null,
    "price_level": "",
    "open_hours": "",
    "extraction_timestamp": "2025-06-07T15:46:26.409Z",
    "source_name": "google",
    "source_query": "Irrigation Equipment",
    "source_country": "IT",
    "country": "Italy",
    "state": "Emilia-Romagna",
    "city": "Brescello"
  },
  {
    "source_id": "ChIJX0gEe5E7gEcR_rm44AIhPbE",
    "name": "Benatti Ferramenta (S.A.S.)",
    "category": "Benatti Ferramenta (S.A.S.)",
    "formatted_address": "4,5(24)",
    "phone_number": "+390522687320",
    "source_url": "https://www.google.com/maps/place/Benatti+Ferramenta+%28S.A.S.%29/data=!4m7!3m6!1s0x47803b917b04485f:0xb13d2102e0b8b9fe!8m2!3d44.9013665!4d10.5164602!16s%2Fg%2F1hc3mdyd5!19sChIJX0gEe5E7gEcR_rm44AIhPbE?authuser=0&hl=tr&rclk=1",
    "website_url": "",
    "rating_text": "4,5",
    "stars": null,
    "number_of_reviews": null,
    "price_level": "",
    "open_hours": "",
    "extraction_timestamp": "2025-06-07T15:46:26.410Z",
    "source_name": "google",
    "source_query": "Irrigation Equipment",
    "source_country": "IT",
    "country": "Italy",
    "state": "Emilia-Romagna",
    "city": "Brescello"
  },
  {
    "source_id": "ChIJ8S_H450fgEcRen1BwvkupIc",
    "name": "Agro-system Snc di Bassoli - Piscine e Macchine giardino - Reggio Emilia",
    "category": "Agro-system Snc di Bassoli - Piscine e Macchine giardino - Reggio Emilia",
    "formatted_address": "4,6(88)",
    "phone_number": "+390522954100",
    "source_url": "https://www.google.com/maps/place/Agro-system+Snc+di+Bassoli+-+Piscine+e+Macchine+giardino+-+Reggio+Emilia/data=!4m7!3m6!1s0x47801f9de3c72ff1:0x87a42ef9c2417d7a!8m2!3d44.797091!4d10.686568!16s%2Fg%2F1tfb5f45!19sChIJ8S_H450fgEcRen1BwvkupIc?authuser=0&hl=tr&rclk=1",
    "website_url": "https://agrosystem.info/",
    "rating_text": "4,6",
    "stars": null,
    "number_of_reviews": null,
    "price_level": "",
    "open_hours": "",
    "extraction_timestamp": "2025-06-07T15:46:26.411Z",
    "source_name": "google",
    "source_query": "Irrigation Equipment",
    "source_country": "IT",
    "country": "Italy",
    "state": "Emilia-Romagna",
    "city": "Brescello"
  },
  {
    "source_id": "ChIJ90762m6rgUcRrOpHkQtN0qE",
    "name": "ACQUAFERT",
    "category": "ACQUAFERT",
    "formatted_address": "4,8(13)",
    "phone_number": "+390372835672",
    "source_url": "https://www.google.com/maps/place/ACQUAFERT/data=!4m7!3m6!1s0x4781ab6edafa4ef7:0xa1d24d0b9147eaac!8m2!3d45.1695663!4d10.1916537!16s%2Fg%2F11c1ny5b5r!19sChIJ90762m6rgUcRrOpHkQtN0qE?authuser=0&hl=tr&rclk=1",
    "website_url": "https://www.acquafertagri.it/",
    "rating_text": "4,8",
    "stars": null,
    "number_of_reviews": null,
    "price_level": "",
    "open_hours": "",
    "extraction_timestamp": "2025-06-07T15:46:26.412Z",
    "source_name": "google",
    "source_query": "Irrigation Equipment",
    "source_country": "IT",
    "country": "Italy",
    "state": "Emilia-Romagna",
    "city": "Brescello"
  },
  {
    "source_id": "ChIJ47vrYT09gEcRh8jIUNjKoyQ",
    "name": "Rainbow Irrigazione Srl",
    "category": "Rainbow Irrigazione Srl",
    "formatted_address": "Tarım Makineleri İmalatçısı ·  · Via Grande, 69+39 0522 969903",
    "phone_number": "+390522969903",
    "source_url": "https://www.google.com/maps/place/Rainbow+Irrigazione+Srl/data=!4m7!3m6!1s0x47803d3d61ebbbe3:0x24a3cad850c8c887!8m2!3d44.8592119!4d10.5548889!16s%2Fg%2F11n8tt08yf!19sChIJ47vrYT09gEcRh8jIUNjKoyQ?authuser=0&hl=tr&rclk=1",
    "website_url": "",
    "rating_text": "",
    "stars": null,
    "number_of_reviews": null,
    "price_level": "",
    "open_hours": "",
    "extraction_timestamp": "2025-06-07T15:46:26.413Z",
    "source_name": "google",
    "source_query": "Irrigation Equipment",
    "source_country": "IT",
    "country": "Italy",
    "state": "Emilia-Romagna",
    "city": "Brescello"
  },
  {
    "source_id": "ChIJnxupP5E7gEcRy83AEwXYeRs",
    "name": "Foster",
    "category": "Foster",
    "formatted_address": "3,9(52)",
    "phone_number": "+390522687425",
    "source_url": "https://www.google.com/maps/place/Foster/data=!4m7!3m6!1s0x47803b913fa91b9f:0x1b79d80513c0cdcb!8m2!3d44.9022722!4d10.5187425!16s%2Fg%2F1tmxvfsd!19sChIJnxupP5E7gEcRy83AEwXYeRs?authuser=0&hl=tr&rclk=1",
    "website_url": "https://www.fosterspa.com/",
    "rating_text": "3,9",
    "stars": null,
    "number_of_reviews": null,
    "price_level": "",
    "open_hours": "",
    "extraction_timestamp": "2025-06-07T15:46:26.413Z",
    "source_name": "google",
    "source_query": "Irrigation Equipment",
    "source_country": "IT",
    "country": "Italy",
    "state": "Emilia-Romagna",
    "city": "Brescello"
  },
  {
    "source_id": "ChIJJ6V6lMDgf0cR1SpFsfjDuHg",
    "name": "Ocmis Irrigazione Spa",
    "category": "Ocmis Irrigazione Spa",
    "formatted_address": "3,5(31)",
    "phone_number": "+39059702150",
    "source_url": "https://www.google.com/maps/place/Ocmis+Irrigazione+Spa/data=!4m7!3m6!1s0x477fe0c0947aa527:0x78b8c3f8b1452ad5!8m2!3d44.530494!4d10.9794578!16s%2Fg%2F1vd3tn19!19sChIJJ6V6lMDgf0cR1SpFsfjDuHg?authuser=0&hl=tr&rclk=1",
    "website_url": "http://www.ocmis-irrigazione.it/",
    "rating_text": "3,5",
    "stars": null,
    "number_of_reviews": null,
    "price_level": "",
    "open_hours": "",
    "extraction_timestamp": "2025-06-07T15:46:26.414Z",
    "source_name": "google",
    "source_query": "Irrigation Equipment",
    "source_country": "IT",
    "country": "Italy",
    "state": "Emilia-Romagna",
    "city": "Brescello"
  },
  {
    "source_id": "ChIJf7K7J70igEcRcuy1LHej7q8",
    "name": "Ferroni Srl",
    "category": "Ferroni Srl",
    "formatted_address": "3,7(6)",
    "phone_number": "+390522682484",
    "source_url": "https://www.google.com/maps/place/Ferroni+Srl/data=!4m7!3m6!1s0x478022bd27bbb27f:0xafeea3772cb5ec72!8m2!3d44.8189133!4d10.5704138!16s%2Fg%2F1tfqk72n!19sChIJf7K7J70igEcRcuy1LHej7q8?authuser=0&hl=tr&rclk=1",
    "website_url": "https://www.ferroni-srl.com/",
    "rating_text": "3,7",
    "stars": null,
    "number_of_reviews": null,
    "price_level": "",
    "open_hours": "",
    "extraction_timestamp": "2025-06-07T15:46:26.415Z",
    "source_name": "google",
    "source_query": "Irrigation Equipment",
    "source_country": "IT",
    "country": "Italy",
    "state": "Emilia-Romagna",
    "city": "Brescello"
  },
  {
    "source_id": "ChIJtdJC5j6Zf0cRmmVcuMyNEW0",
    "name": "Tadei | Impianti irrigazione | Robot tagliaerba | Barbecue | Outdoor",
    "category": "Tadei | Impianti irrigazione | Robot tagliaerba | Barbecue | Outdoor",
    "formatted_address": "4,6(69)",
    "phone_number": "+390386733460",
    "source_url": "https://www.google.com/maps/place/Tadei+%7C+Impianti+irrigazione+%7C+Robot+tagliaerba+%7C+Barbecue+%7C+Outdoor/data=!4m7!3m6!1s0x477f993ee642d2b5:0x6d118dccb85c659a!8m2!3d44.9680645!4d11.1076526!16s%2Fg%2F113dpgnd_!19sChIJtdJC5j6Zf0cRmmVcuMyNEW0?authuser=0&hl=tr&rclk=1",
    "website_url": "https://www.irrigazionetadei.it/",
    "rating_text": "4,6",
    "stars": null,
    "number_of_reviews": null,
    "price_level": "",
    "open_hours": "",
    "extraction_timestamp": "2025-06-07T15:46:26.416Z",
    "source_name": "google",
    "source_query": "Irrigation Equipment",
    "source_country": "IT",
    "country": "Italy",
    "state": "Emilia-Romagna",
    "city": "Brescello"
  },
  {
    "source_id": "ChIJQyDw8N_0f0cRhE_m36C06SU",
    "name": "Irrigreen",
    "category": "Irrigreen",
    "formatted_address": "4,3(3)",
    "phone_number": "+390522642318",
    "source_url": "https://www.google.com/maps/place/Irrigreen/data=!4m7!3m6!1s0x477ff4dff0f02043:0x25e9b4a0dfe64f84!8m2!3d45.1836109!4d10.6267461!16s%2Fg%2F1tddwm9t!19sChIJQyDw8N_0f0cRhE_m36C06SU?authuser=0&hl=tr&rclk=1",
    "website_url": "http://www.irrigreen.it/",
    "rating_text": "4,3",
    "stars": null,
    "number_of_reviews": null,
    "price_level": "",
    "open_hours": "",
    "extraction_timestamp": "2025-06-07T15:46:26.417Z",
    "source_name": "google",
    "source_query": "Irrigation Equipment",
    "source_country": "IT",
    "country": "Italy",
    "state": "Emilia-Romagna",
    "city": "Brescello"
  },
  {
    "source_id": "ChIJmzYw7tlIgEcRsB1a9bbhlpI",
    "name": "Buoli Attilio Di Remagni S. & C. (S.N.C.)",
    "category": "Buoli Attilio Di Remagni S. & C. (S.N.C.)",
    "formatted_address": "4,9(9)",
    "phone_number": "+390375260028",
    "source_url": "https://www.google.com/maps/place/Buoli+Attilio+Di+Remagni+S.+%26+C.+%28S.N.C.%29/data=!4m7!3m6!1s0x478048d9ee30369b:0x9296e1b6f55a1db0!8m2!3d45.0130205!4d10.3521144!16s%2Fg%2F1tfzfm5r!19sChIJmzYw7tlIgEcRsB1a9bbhlpI?authuser=0&hl=tr&rclk=1",
    "website_url": "http://www.buoliattiliosnc.it/",
    "rating_text": "4,9",
    "stars": null,
    "number_of_reviews": null,
    "price_level": "",
    "open_hours": "",
    "extraction_timestamp": "2025-06-07T15:46:26.418Z",
    "source_name": "google",
    "source_query": "Irrigation Equipment",
    "source_country": "IT",
    "country": "Italy",
    "state": "Emilia-Romagna",
    "city": "Brescello"
  },
  {
    "source_id": "ChIJJ6V6lMDgf0cRkL2jf5B3MwQ",
    "name": "Scova Engineering Spa",
    "category": "Scova Engineering Spa",
    "formatted_address": "5,0(2)",
    "phone_number": "+39059702012",
    "source_url": "https://www.google.com/maps/place/Scova+Engineering+Spa/data=!4m7!3m6!1s0x477fe0c0947aa527:0x43377907fa3bd90!8m2!3d44.5304758!4d10.9796265!16s%2Fg%2F1tql3mky!19sChIJJ6V6lMDgf0cRkL2jf5B3MwQ?authuser=0&hl=tr&rclk=1",
    "website_url": "https://www.scova-engineering.it/",
    "rating_text": "5,0",
    "stars": null,
    "number_of_reviews": null,
    "price_level": "",
    "open_hours": "",
    "extraction_timestamp": "2025-06-07T15:46:26.419Z",
    "source_name": "google",
    "source_query": "Irrigation Equipment",
    "source_country": "IT",
    "country": "Italy",
    "state": "Emilia-Romagna",
    "city": "Brescello"
  }
]
