[
  {
    "source_id": "ChIJE_3jOnMtfkcRkxtTFj3Ym9E",
    "name": "Irrigation Scarabelli Srl",
    "category": "Irrigation Scarabelli Srl",
    "formatted_address": "4,5(23)",
    "phone_number": "+39051763363",
    "source_url": "https://www.google.com/maps/place/Irrigation+Scarabelli+Srl/data=!4m7!3m6!1s0x477e2d733ae3fd13:0xd19bd83d16531b93!8m2!3d44.5426053!4d11.4189136!16s%2Fg%2F11gzdz6vf!19sChIJE_3jOnMtfkcRkxtTFj3Ym9E?authuser=0&hl=tr&rclk=1",
    "website_url": "",
    "rating_text": "4,5",
    "stars": null,
    "number_of_reviews": null,
    "price_level": "",
    "open_hours": "",
    "extraction_timestamp": "2025-06-07T17:08:10.900Z",
    "source_name": "google",
    "source_query": "Irrigation Equipment",
    "source_country": "IT",
    "country": "Italy",
    "state": "Emilia-Romagna",
    "city": "Budrio"
  },
  {
    "source_id": "ChIJl8lRLeAufkcRgIDYj_FiRDc",
    "name": "Chiesa - attrezzature zootecniche",
    "category": "Chiesa - attrezzature zootecniche",
    "formatted_address": "4,6(7)",
    "phone_number": "+39051801559",
    "source_url": "https://www.google.com/maps/place/Chiesa+-+attrezzature+zootecniche/data=!4m7!3m6!1s0x477e2ee02d51c997:0x374462f18fd88080!8m2!3d44.5146216!4d11.5167138!16s%2Fg%2F1vq73ppn!19sChIJl8lRLeAufkcRgIDYj_FiRDc?authuser=0&hl=tr&rclk=1",
    "website_url": "http://www.chiesasnc.it/",
    "rating_text": "4,6",
    "stars": null,
    "number_of_reviews": null,
    "price_level": "",
    "open_hours": "",
    "extraction_timestamp": "2025-06-07T17:08:10.902Z",
    "source_name": "google",
    "source_query": "Irrigation Equipment",
    "source_country": "IT",
    "country": "Italy",
    "state": "Emilia-Romagna",
    "city": "Budrio"
  },
  {
    "source_id": "ChIJ_SYf2IMsfkcRVw9xVhrnjyI",
    "name": "Irrigazione Bragaglia",
    "category": "Irrigazione Bragaglia",
    "formatted_address": "4,7(30)",
    "phone_number": "+39051534865",
    "source_url": "https://www.google.com/maps/place/Irrigazione+Bragaglia/data=!4m7!3m6!1s0x477e2c83d81f26fd:0x228fe71a56710f57!8m2!3d44.5053735!4d11.412403!16s%2Fg%2F1vp6z0gf!19sChIJ_SYf2IMsfkcRVw9xVhrnjyI?authuser=0&hl=tr&rclk=1",
    "website_url": "http://www.irrigazionebragaglia.it/",
    "rating_text": "4,7",
    "stars": null,
    "number_of_reviews": null,
    "price_level": "",
    "open_hours": "",
    "extraction_timestamp": "2025-06-07T17:08:10.904Z",
    "source_name": "google",
    "source_query": "Irrigation Equipment",
    "source_country": "IT",
    "country": "Italy",
    "state": "Emilia-Romagna",
    "city": "Budrio"
  },
  {
    "source_id": "ChIJyXgg68QrfkcRAaJCOMJ3PxY",
    "name": "hidrisistem",
    "category": "hidrisistem",
    "formatted_address": "5,0(1)",
    "phone_number": "+39366448310824",
    "source_url": "https://www.google.com/maps/place/hidrisistem/data=!4m7!3m6!1s0x477e2bc4eb2078c9:0x163f77c23842a201!8m2!3d44.496029!4d11.402638!16s%2Fg%2F11w_zjhjy3!19sChIJyXgg68QrfkcRAaJCOMJ3PxY?authuser=0&hl=tr&rclk=1",
    "website_url": "",
    "rating_text": "5,0",
    "stars": null,
    "number_of_reviews": null,
    "price_level": "",
    "open_hours": "",
    "extraction_timestamp": "2025-06-07T17:08:10.905Z",
    "source_name": "google",
    "source_query": "Irrigation Equipment",
    "source_country": "IT",
    "country": "Italy",
    "state": "Emilia-Romagna",
    "city": "Budrio"
  },
  {
    "source_id": "ChIJEysr548vfkcR-3wTRgUufYk",
    "name": "AgriBudrio società agricola",
    "category": "AgriBudrio società agricola",
    "formatted_address": "4,8(4)",
    "phone_number": "+393383231431",
    "source_url": "https://www.google.com/maps/place/AgriBudrio+societ%C3%A0+agricola/data=!4m7!3m6!1s0x477e2f8fe72b2b13:0x897d2e0546137cfb!8m2!3d44.5350669!4d11.5617615!16s%2Fg%2F1x6q0lvx!19sChIJEysr548vfkcR-3wTRgUufYk?authuser=0&hl=tr&rclk=1",
    "website_url": "http://agribudrio.com/",
    "rating_text": "4,8",
    "stars": null,
    "number_of_reviews": null,
    "price_level": "",
    "open_hours": "",
    "extraction_timestamp": "2025-06-07T17:08:10.906Z",
    "source_name": "google",
    "source_query": "Irrigation Equipment",
    "source_country": "IT",
    "country": "Italy",
    "state": "Emilia-Romagna",
    "city": "Budrio"
  },
  {
    "source_id": "ChIJx0yAB7EvfkcRCrUnahmlmZw",
    "name": "Ferramenta Moreschini",
    "category": "Ferramenta Moreschini",
    "formatted_address": "4,7(99)",
    "phone_number": "+39051801327",
    "source_url": "https://www.google.com/maps/place/Ferramenta+Moreschini/data=!4m7!3m6!1s0x477e2fb107804cc7:0x9c99a5196a27b50a!8m2!3d44.5392096!4d11.5357405!16s%2Fg%2F11c2pm887t!19sChIJx0yAB7EvfkcRCrUnahmlmZw?authuser=0&hl=tr&rclk=1",
    "website_url": "http://www.moreschini.net/",
    "rating_text": "4,7",
    "stars": null,
    "number_of_reviews": null,
    "price_level": "",
    "open_hours": "",
    "extraction_timestamp": "2025-06-07T17:08:10.908Z",
    "source_name": "google",
    "source_query": "Irrigation Equipment",
    "source_country": "IT",
    "country": "Italy",
    "state": "Emilia-Romagna",
    "city": "Budrio"
  },
  {
    "source_id": "ChIJWazKcDkufkcRogYba0QYE_A",
    "name": "S.I.E. Servizi Idraulici ed Elettrici",
    "category": "S.I.E. Servizi Idraulici ed Elettrici",
    "formatted_address": "4,5(4)",
    "phone_number": "+39051805650",
    "source_url": "https://www.google.com/maps/place/S.I.E.+Servizi+Idraulici+ed+Elettrici/data=!4m7!3m6!1s0x477e2e3970caac59:0xf01318446b1b06a2!8m2!3d44.5540314!4d11.5263003!16s%2Fg%2F11b6jh6nk8!19sChIJWazKcDkufkcRogYba0QYE_A?authuser=0&hl=tr&rclk=1",
    "website_url": "https://www.sieserviziidraulicielettrici.it/",
    "rating_text": "4,5",
    "stars": null,
    "number_of_reviews": null,
    "price_level": "",
    "open_hours": "",
    "extraction_timestamp": "2025-06-07T17:08:10.909Z",
    "source_name": "google",
    "source_query": "Irrigation Equipment",
    "source_country": "IT",
    "country": "Italy",
    "state": "Emilia-Romagna",
    "city": "Budrio"
  },
  {
    "source_id": "ChIJSTix7wMvfkcRQE8Rcdo31Kg",
    "name": "SALVAR s.r.l.",
    "category": "SALVAR s.r.l.",
    "formatted_address": "3,8(32)",
    "phone_number": "+39051780761",
    "source_url": "https://www.google.com/maps/place/SALVAR+s.r.l./data=!4m7!3m6!1s0x477e2f03efb13849:0xa8d437da71114f40!8m2!3d44.524038!4d11.525705!16s%2Fg%2F1hc3k00f2!19sChIJSTix7wMvfkcRQE8Rcdo31Kg?authuser=0&hl=tr&rclk=1",
    "website_url": "https://www.salvar.it/",
    "rating_text": "3,8",
    "stars": null,
    "number_of_reviews": null,
    "price_level": "",
    "open_hours": "",
    "extraction_timestamp": "2025-06-07T17:08:10.911Z",
    "source_name": "google",
    "source_query": "Irrigation Equipment",
    "source_country": "IT",
    "country": "Italy",
    "state": "Emilia-Romagna",
    "city": "Budrio"
  },
  {
    "source_id": "ChIJC4R5TgEvfkcRXHLix1zSaT4",
    "name": "Checchi & Magli Srl",
    "category": "Checchi & Magli Srl",
    "formatted_address": "4,6(28)",
    "phone_number": "+39051800253",
    "source_url": "https://www.google.com/maps/place/Checchi+%26+Magli+Srl/data=!4m7!3m6!1s0x477e2f014e79840b:0x3e69d25cc7e2725c!8m2!3d44.5235225!4d11.5277769!16s%2Fg%2F1tdj317h!19sChIJC4R5TgEvfkcRXHLix1zSaT4?authuser=0&hl=tr&rclk=1",
    "website_url": "http://www.checchiemagli.com/",
    "rating_text": "4,6",
    "stars": null,
    "number_of_reviews": null,
    "price_level": "",
    "open_hours": "",
    "extraction_timestamp": "2025-06-07T17:08:10.912Z",
    "source_name": "google",
    "source_query": "Irrigation Equipment",
    "source_country": "IT",
    "country": "Italy",
    "state": "Emilia-Romagna",
    "city": "Budrio"
  },
  {
    "source_id": "ChIJh3Nd8G0sfkcR_m7VewEmxXM",
    "name": "Irrigarden",
    "category": "Irrigarden",
    "formatted_address": "4,7(158)",
    "phone_number": "+39051782013",
    "source_url": "https://www.google.com/maps/place/Irrigarden/data=!4m7!3m6!1s0x477e2c6df05d7387:0x73c526017bd56efe!8m2!3d44.5096266!4d11.4390897!16s%2Fg%2F1vgw_l7w!19sChIJh3Nd8G0sfkcR_m7VewEmxXM?authuser=0&hl=tr&rclk=1",
    "website_url": "https://www.irrigarden-bo.it/",
    "rating_text": "4,7",
    "stars": null,
    "number_of_reviews": null,
    "price_level": "",
    "open_hours": "",
    "extraction_timestamp": "2025-06-07T17:08:10.913Z",
    "source_name": "google",
    "source_query": "Irrigation Equipment",
    "source_country": "IT",
    "country": "Italy",
    "state": "Emilia-Romagna",
    "city": "Budrio"
  },
  {
    "source_id": "ChIJdbi1mvUlfkcRw_VX1yUWxp8",
    "name": "Hydro Italia srl - Trattamento e Depurazione Acque Industriali",
    "category": "Hydro Italia srl - Trattamento e Depurazione Acque Industriali",
    "formatted_address": "4,0(2)",
    "phone_number": "+39051856263",
    "source_url": "https://www.google.com/maps/place/Hydro+Italia+srl+-+Trattamento+e+Depurazione+Acque+Industriali/data=!4m7!3m6!1s0x477e25f59ab5b875:0x9fc61625d757f5c3!8m2!3d44.5025405!4d11.560667!16s%2Fg%2F1tdjp_4w!19sChIJdbi1mvUlfkcRw_VX1yUWxp8?authuser=0&hl=tr&rclk=1",
    "website_url": "https://www.hydroitalia.com/?utm_source=google&utm_medium=mybusiness&utm_campaign=url-sito",
    "rating_text": "4,0",
    "stars": null,
    "number_of_reviews": null,
    "price_level": "",
    "open_hours": "",
    "extraction_timestamp": "2025-06-07T17:08:10.915Z",
    "source_name": "google",
    "source_query": "Irrigation Equipment",
    "source_country": "IT",
    "country": "Italy",
    "state": "Emilia-Romagna",
    "city": "Budrio"
  },
  {
    "source_id": "ChIJFW3XPJejLBMRDpQWGwmYqU4",
    "name": "Raggini Irrigazioni e Robot Tosaerba",
    "category": "Raggini Irrigazioni e Robot Tosaerba",
    "formatted_address": "5,0(1)",
    "phone_number": "+393926808947",
    "source_url": "https://www.google.com/maps/place/Raggini+Irrigazioni+e+Robot+Tosaerba/data=!4m7!3m6!1s0x132ca3973cd76d15:0x4ea998091b16940e!8m2!3d44.36369!4d11.8460774!16s%2Fg%2F11dz0bbs9t!19sChIJFW3XPJejLBMRDpQWGwmYqU4?authuser=0&hl=tr&rclk=1",
    "website_url": "",
    "rating_text": "5,0",
    "stars": null,
    "number_of_reviews": null,
    "price_level": "",
    "open_hours": "",
    "extraction_timestamp": "2025-06-07T17:08:10.916Z",
    "source_name": "google",
    "source_query": "Irrigation Equipment",
    "source_country": "IT",
    "country": "Italy",
    "state": "Emilia-Romagna",
    "city": "Budrio"
  },
  {
    "source_id": "ChIJp2R3w7_Qf0cRHlt9J4ovm_o",
    "name": "Irritec S.p.A. - Stabilimento F",
    "category": "Irritec S.p.A. - Stabilimento F",
    "formatted_address": "5,0(2)",
    "phone_number": "+390516508020",
    "source_url": "https://www.google.com/maps/place/Irritec+S.p.A.+-+Stabilimento+F/data=!4m7!3m6!1s0x477fd0bfc37764a7:0xfa9b2f8a277d5b1e!8m2!3d44.6210254!4d11.3703614!16s%2Fg%2F1xpwhmq4!19sChIJp2R3w7_Qf0cRHlt9J4ovm_o?authuser=0&hl=tr&rclk=1",
    "website_url": "http://www.irritec.com/",
    "rating_text": "5,0",
    "stars": null,
    "number_of_reviews": null,
    "price_level": "",
    "open_hours": "",
    "extraction_timestamp": "2025-06-07T17:08:10.917Z",
    "source_name": "google",
    "source_query": "Irrigation Equipment",
    "source_country": "IT",
    "country": "Italy",
    "state": "Emilia-Romagna",
    "city": "Budrio"
  },
  {
    "source_id": "ChIJSSMzGN4pfkcRxNrEMhpqts8",
    "name": "Hydro Ware srl",
    "category": "Hydro Ware srl",
    "formatted_address": "4,5(2)",
    "phone_number": "+390510404329",
    "source_url": "https://www.google.com/maps/place/Hydro+Ware+srl/data=!4m7!3m6!1s0x477e29de18332349:0xcfb66a1a32c4dac4!8m2!3d44.4442053!4d11.4850842!16s%2Fg%2F11h55y8w7d!19sChIJSSMzGN4pfkcRxNrEMhpqts8?authuser=0&hl=tr&rclk=1",
    "website_url": "http://www.hydroware.it/it/",
    "rating_text": "4,5",
    "stars": null,
    "number_of_reviews": null,
    "price_level": "",
    "open_hours": "",
    "extraction_timestamp": "2025-06-07T17:08:10.918Z",
    "source_name": "google",
    "source_query": "Irrigation Equipment",
    "source_country": "IT",
    "country": "Italy",
    "state": "Emilia-Romagna",
    "city": "Budrio"
  },
  {
    "source_id": "ChIJNy-boQIkfkcR_RwrgbxTm7Q",
    "name": "Dal Pozzo Verricelli Srl",
    "category": "Dal Pozzo Verricelli Srl",
    "formatted_address": "5,0(1)",
    "phone_number": "+390516970020",
    "source_url": "https://www.google.com/maps/place/Dal+Pozzo+Verricelli+Srl/data=!4m7!3m6!1s0x477e2402a19b2f37:0xb49b53bc812b1cfd!8m2!3d44.5236504!4d11.5250368!16s%2Fg%2F1tdn7hzg!19sChIJNy-boQIkfkcR_RwrgbxTm7Q?authuser=0&hl=tr&rclk=1",
    "website_url": "http://www.dpverricelli.com/",
    "rating_text": "5,0",
    "stars": null,
    "number_of_reviews": null,
    "price_level": "",
    "open_hours": "",
    "extraction_timestamp": "2025-06-07T17:08:10.920Z",
    "source_name": "google",
    "source_query": "Irrigation Equipment",
    "source_country": "IT",
    "country": "Italy",
    "state": "Emilia-Romagna",
    "city": "Budrio"
  },
  {
    "source_id": "ChIJG8DOYKYtfkcRGa0xz1GgEJA",
    "name": "ETERNOO",
    "category": "ETERNOO",
    "formatted_address": "4,2(41)",
    "phone_number": "+390516920936",
    "source_url": "https://www.google.com/maps/place/ETERNOO/data=!4m7!3m6!1s0x477e2da660cec01b:0x9010a051cf31ad19!8m2!3d44.542264!4d11.5490607!16s%2Fg%2F1xgrlsh_!19sChIJG8DOYKYtfkcRGa0xz1GgEJA?authuser=0&hl=tr&rclk=1",
    "website_url": "http://www.eternoo.it/",
    "rating_text": "4,2",
    "stars": null,
    "number_of_reviews": null,
    "price_level": "",
    "open_hours": "",
    "extraction_timestamp": "2025-06-07T17:08:10.921Z",
    "source_name": "google",
    "source_query": "Irrigation Equipment",
    "source_country": "IT",
    "country": "Italy",
    "state": "Emilia-Romagna",
    "city": "Budrio"
  },
  {
    "source_id": "ChIJqRImLawvfkcR_hbGOYbyYhk",
    "name": "Ferramenta Lodi di Lodi Giovanni & C. (Snc)",
    "category": "Ferramenta Lodi di Lodi Giovanni & C. (Snc)",
    "formatted_address": "4,6(207)",
    "phone_number": "+39051801149",
    "source_url": "https://www.google.com/maps/place/Ferramenta+Lodi+di+Lodi+Giovanni+%26+C.+%28Snc%29/data=!4m7!3m6!1s0x477e2fac2d2612a9:0x1962f28639c616fe!8m2!3d44.5355673!4d11.5317707!16s%2Fg%2F1x6q0lvy!19sChIJqRImLawvfkcR_hbGOYbyYhk?authuser=0&hl=tr&rclk=1",
    "website_url": "http://www.ferramentalodi.com/",
    "rating_text": "4,6",
    "stars": null,
    "number_of_reviews": null,
    "price_level": "",
    "open_hours": "",
    "extraction_timestamp": "2025-06-07T17:08:10.923Z",
    "source_name": "google",
    "source_query": "Irrigation Equipment",
    "source_country": "IT",
    "country": "Italy",
    "state": "Emilia-Romagna",
    "city": "Budrio"
  },
  {
    "source_id": "ChIJzVEjsEQwfkcRsAaagKfKq6s",
    "name": "General Service assistenza depurazione acqua BWT Cillichemie",
    "category": "General Service assistenza depurazione acqua BWT Cillichemie",
    "formatted_address": "2,4(8)",
    "phone_number": "+39051805900",
    "source_url": "https://www.google.com/maps/place/General+Service+assistenza+depurazione+acqua+BWT+Cillichemie/data=!4m7!3m6!1s0x477e3044b02351cd:0xababcaa7809a06b0!8m2!3d44.5875982!4d11.5696276!16s%2Fg%2F1vjdnxgp!19sChIJzVEjsEQwfkcRsAaagKfKq6s?authuser=0&hl=tr&rclk=1",
    "website_url": "http://www.mpgeneralservice.it/",
    "rating_text": "2,4",
    "stars": null,
    "number_of_reviews": null,
    "price_level": "",
    "open_hours": "",
    "extraction_timestamp": "2025-06-07T17:08:10.924Z",
    "source_name": "google",
    "source_query": "Irrigation Equipment",
    "source_country": "IT",
    "country": "Italy",
    "state": "Emilia-Romagna",
    "city": "Budrio"
  },
  {
    "source_id": "ChIJJ6V6lMDgf0cR1SpFsfjDuHg",
    "name": "Ocmis Irrigazione Spa",
    "category": "Ocmis Irrigazione Spa",
    "formatted_address": "3,5(31)",
    "phone_number": "+39059702150",
    "source_url": "https://www.google.com/maps/place/Ocmis+Irrigazione+Spa/data=!4m7!3m6!1s0x477fe0c0947aa527:0x78b8c3f8b1452ad5!8m2!3d44.530494!4d10.9794578!16s%2Fg%2F1vd3tn19!19sChIJJ6V6lMDgf0cR1SpFsfjDuHg?authuser=0&hl=tr&rclk=1",
    "website_url": "http://www.ocmis-irrigazione.it/",
    "rating_text": "3,5",
    "stars": null,
    "number_of_reviews": null,
    "price_level": "",
    "open_hours": "",
    "extraction_timestamp": "2025-06-07T17:08:10.925Z",
    "source_name": "google",
    "source_query": "Irrigation Equipment",
    "source_country": "IT",
    "country": "Italy",
    "state": "Emilia-Romagna",
    "city": "Budrio"
  },
  {
    "source_id": "ChIJj6lqi20sfkcRzOHfxextuA0",
    "name": "La Pioggia",
    "category": "La Pioggia",
    "formatted_address": "4,6(54)",
    "phone_number": "+39051781194",
    "source_url": "https://www.google.com/maps/place/La+Pioggia/data=!4m7!3m6!1s0x477e2c6d8b6aa98f:0xdb86decc5dfe1cc!8m2!3d44.5092215!4d11.4394615!16s%2Fg%2F1tffc0h0!19sChIJj6lqi20sfkcRzOHfxextuA0?authuser=0&hl=tr&rclk=1",
    "website_url": "http://www.lapioggia.it/",
    "rating_text": "4,6",
    "stars": null,
    "number_of_reviews": null,
    "price_level": "",
    "open_hours": "",
    "extraction_timestamp": "2025-06-07T17:08:10.926Z",
    "source_name": "google",
    "source_query": "Irrigation Equipment",
    "source_country": "IT",
    "country": "Italy",
    "state": "Emilia-Romagna",
    "city": "Budrio"
  },
  {
    "source_id": "ChIJu07AB0rif0cRnS0vXUM4l0M",
    "name": "IDROPLAST",
    "category": "IDROPLAST",
    "formatted_address": "4,1(66)",
    "phone_number": "+390536946864",
    "source_url": "https://www.google.com/maps/place/IDROPLAST/data=!4m7!3m6!1s0x477fe24a07c04ebb:0x439738435d2f2d9d!8m2!3d44.5278928!4d10.8902028!16s%2Fg%2F11b6jh694_!19sChIJu07AB0rif0cRnS0vXUM4l0M?authuser=0&hl=tr&rclk=1",
    "website_url": "",
    "rating_text": "4,1",
    "stars": null,
    "number_of_reviews": null,
    "price_level": "",
    "open_hours": "",
    "extraction_timestamp": "2025-06-07T17:08:10.928Z",
    "source_name": "google",
    "source_query": "Irrigation Equipment",
    "source_country": "IT",
    "country": "Italy",
    "state": "Emilia-Romagna",
    "city": "Budrio"
  },
  {
    "source_id": "ChIJhQBF-GhIfkcRFZ34l9qDsN0",
    "name": "Baraldi Leonardo",
    "category": "Baraldi Leonardo",
    "formatted_address": "5,0(1)",
    "phone_number": "+390532722654",
    "source_url": "https://www.google.com/maps/place/Baraldi+Leonardo/data=!4m7!3m6!1s0x477e4868f8450085:0xddb083da97f89d15!8m2!3d44.73549!4d11.64391!16s%2Fg%2F1hc1pgtmd!19sChIJhQBF-GhIfkcRFZ34l9qDsN0?authuser=0&hl=tr&rclk=1",
    "website_url": "",
    "rating_text": "5,0",
    "stars": null,
    "number_of_reviews": null,
    "price_level": "",
    "open_hours": "",
    "extraction_timestamp": "2025-06-07T17:08:10.928Z",
    "source_name": "google",
    "source_query": "Irrigation Equipment",
    "source_country": "IT",
    "country": "Italy",
    "state": "Emilia-Romagna",
    "city": "Budrio"
  },
  {
    "source_id": "ChIJ68gBChArfkcRLQ0qRWLevE8",
    "name": "F.P. SpA Persici Magazzino Sede Bologna",
    "category": "F.P. SpA Persici Magazzino Sede Bologna",
    "formatted_address": "4,4(147)",
    "phone_number": "+39051454261",
    "source_url": "https://www.google.com/maps/place/F.P.+SpA+Persici+Magazzino+Sede+Bologna/data=!4m7!3m6!1s0x477e2b100a01c8eb:0x4fbcde62452a0d2d!8m2!3d44.4963444!4d11.4003934!16s%2Fg%2F12ht72y0v!19sChIJ68gBChArfkcRLQ0qRWLevE8?authuser=0&hl=tr&rclk=1",
    "website_url": "http://www.persici.it/",
    "rating_text": "4,4",
    "stars": null,
    "number_of_reviews": null,
    "price_level": "",
    "open_hours": "",
    "extraction_timestamp": "2025-06-07T17:08:10.930Z",
    "source_name": "google",
    "source_query": "Irrigation Equipment",
    "source_country": "IT",
    "country": "Italy",
    "state": "Emilia-Romagna",
    "city": "Budrio"
  },
  {
    "source_id": "ChIJj7p79zMzKxMRxzB_tpcRXKE",
    "name": "F.lli Farne' Srl",
    "category": "F.lli Farne' Srl",
    "formatted_address": "4,7(97)",
    "phone_number": "+39051941145",
    "source_url": "https://www.google.com/maps/place/F.lli+Farne%27+Srl/data=!4m7!3m6!1s0x132b3333f77bba8f:0xa15c1197b67f30c7!8m2!3d44.4060269!4d11.5874732!16s%2Fg%2F1vx88btc!19sChIJj7p79zMzKxMRxzB_tpcRXKE?authuser=0&hl=tr&rclk=1",
    "website_url": "https://fratellifarnesrl.it/",
    "rating_text": "4,7",
    "stars": null,
    "number_of_reviews": null,
    "price_level": "",
    "open_hours": "",
    "extraction_timestamp": "2025-06-07T17:08:10.931Z",
    "source_name": "google",
    "source_query": "Irrigation Equipment",
    "source_country": "IT",
    "country": "Italy",
    "state": "Emilia-Romagna",
    "city": "Budrio"
  },
  {
    "source_id": "ChIJlzPN61jTf0cRZhfoBsWgS_o",
    "name": "Idraulica Emiliana S.p.A.",
    "category": "Idraulica Emiliana S.p.A.",
    "formatted_address": "4,3(30)",
    "phone_number": "+390516333548",
    "source_url": "https://www.google.com/maps/place/Idraulica+Emiliana+S.p.A./data=!4m7!3m6!1s0x477fd358ebcd3397:0xfa4ba0c506e81766!8m2!3d44.5092595!4d11.3571117!16s%2Fg%2F11g69g3sh_!19sChIJlzPN61jTf0cRZhfoBsWgS_o?authuser=0&hl=tr&rclk=1",
    "website_url": "http://www.idraulicaemiliana.com/",
    "rating_text": "4,3",
    "stars": null,
    "number_of_reviews": null,
    "price_level": "",
    "open_hours": "",
    "extraction_timestamp": "2025-06-07T17:08:10.932Z",
    "source_name": "google",
    "source_query": "Irrigation Equipment",
    "source_country": "IT",
    "country": "Italy",
    "state": "Emilia-Romagna",
    "city": "Budrio"
  },
  {
    "source_id": "ChIJnTMseWMrfkcROkZnl9Ut3MM",
    "name": "Supreme Compression Fittings Quapus Srl",
    "category": "Supreme Compression Fittings Quapus Srl",
    "formatted_address": "4,6(9)",
    "phone_number": "+390516053557",
    "source_url": "https://www.google.com/maps/place/Supreme+Compression+Fittings+Quapus+Srl/data=!4m7!3m6!1s0x477e2b63792c339d:0xc3dc2dd59767463a!8m2!3d44.4986604!4d11.4240626!16s%2Fg%2F1ptw88990!19sChIJnTMseWMrfkcROkZnl9Ut3MM?authuser=0&hl=tr&rclk=1",
    "website_url": "https://www.supreme-systems.net/",
    "rating_text": "4,6",
    "stars": null,
    "number_of_reviews": null,
    "price_level": "",
    "open_hours": "",
    "extraction_timestamp": "2025-06-07T17:08:10.933Z",
    "source_name": "google",
    "source_query": "Irrigation Equipment",
    "source_country": "IT",
    "country": "Italy",
    "state": "Emilia-Romagna",
    "city": "Budrio"
  },
  {
    "source_id": "ChIJ8cMqg2otfkcRI5BqbS2Sn_w",
    "name": "Gsgi Gruppo Solo Grossisti Idrotermosanitari",
    "category": "Gsgi Gruppo Solo Grossisti Idrotermosanitari",
    "formatted_address": "5,0(1)",
    "phone_number": "+39051503012",
    "source_url": "https://www.google.com/maps/place/Gsgi+Gruppo+Solo+Grossisti+Idrotermosanitari/data=!4m7!3m6!1s0x477e2d6a832ac3f1:0xfc9f922d6d6a9023!8m2!3d44.5127708!4d11.411996!16s%2Fg%2F11t312l0pl!19sChIJ8cMqg2otfkcRI5BqbS2Sn_w?authuser=0&hl=tr&rclk=1",
    "website_url": "https://grupposgi.net/",
    "rating_text": "5,0",
    "stars": null,
    "number_of_reviews": null,
    "price_level": "",
    "open_hours": "",
    "extraction_timestamp": "2025-06-07T17:08:10.934Z",
    "source_name": "google",
    "source_query": "Irrigation Equipment",
    "source_country": "IT",
    "country": "Italy",
    "state": "Emilia-Romagna",
    "city": "Budrio"
  },
  {
    "source_id": "ChIJK1ZcisRRKxMRDRMZE8O_llo",
    "name": "Aquatech srl",
    "category": "Aquatech srl",
    "formatted_address": "Sulama Ekipmanları Tedarikçisi · Via Soldata, 1Kapalı ⋅ Açılış zamanı: Pzt 08:00 · +39 0546 30489",
    "phone_number": "+39054630489",
    "source_url": "https://www.google.com/maps/place/Aquatech+srl/data=!4m7!3m6!1s0x132b51c48a5c562b:0x5a96bfc31319130d!8m2!3d44.2783055!4d11.9146886!16s%2Fg%2F11h3g3tcsl!19sChIJK1ZcisRRKxMRDRMZE8O_llo?authuser=0&hl=tr&rclk=1",
    "website_url": "",
    "rating_text": "",
    "stars": null,
    "number_of_reviews": null,
    "price_level": "",
    "open_hours": "",
    "extraction_timestamp": "2025-06-07T17:08:10.935Z",
    "source_name": "google",
    "source_query": "Irrigation Equipment",
    "source_country": "IT",
    "country": "Italy",
    "state": "Emilia-Romagna",
    "city": "Budrio"
  },
  {
    "source_id": "ChIJK8usq8U7fkcR7ELsdaXhXUk",
    "name": "Argnani S.A.S. Termosanitari & Arredo Bagno",
    "category": "Argnani S.A.S. Termosanitari & Arredo Bagno",
    "formatted_address": "4,1(61)",
    "phone_number": "+39051887589",
    "source_url": "https://www.google.com/maps/place/Argnani+S.A.S.+Termosanitari+%26+Arredo+Bagno/data=!4m7!3m6!1s0x477e3bc5abaccb2b:0x495de1a575ec42ec!8m2!3d44.6144936!4d11.6679888!16s%2Fg%2F1w6_mntt!19sChIJK8usq8U7fkcR7ELsdaXhXUk?authuser=0&hl=tr&rclk=1",
    "website_url": "http://www.argnanimolinella.it/",
    "rating_text": "4,1",
    "stars": null,
    "number_of_reviews": null,
    "price_level": "",
    "open_hours": "",
    "extraction_timestamp": "2025-06-07T17:08:10.936Z",
    "source_name": "google",
    "source_query": "Irrigation Equipment",
    "source_country": "IT",
    "country": "Italy",
    "state": "Emilia-Romagna",
    "city": "Budrio"
  },
  {
    "source_id": "ChIJkzfApunUf0cRsUbK9d6Ur7I",
    "name": "Climequipe",
    "category": "Climequipe",
    "formatted_address": "4,9(52)",
    "phone_number": "+393489043191",
    "source_url": "https://www.google.com/maps/place/Climequipe/data=!4m7!3m6!1s0x477fd4e9a6c03793:0xb2af94def5ca46b1!8m2!3d44.4853096!4d11.3370209!16s%2Fg%2F11g0wglr1z!19sChIJkzfApunUf0cRsUbK9d6Ur7I?authuser=0&hl=tr&rclk=1",
    "website_url": "http://www.climequipe.it/",
    "rating_text": "4,9",
    "stars": null,
    "number_of_reviews": null,
    "price_level": "",
    "open_hours": "",
    "extraction_timestamp": "2025-06-07T17:08:10.937Z",
    "source_name": "google",
    "source_query": "Irrigation Equipment",
    "source_country": "IT",
    "country": "Italy",
    "state": "Emilia-Romagna",
    "city": "Budrio"
  },
  {
    "source_id": "ChIJKYQCSG1OKxMR1ASS3fbT3nU",
    "name": "Cila Ciicai Magazzino Faenza",
    "category": "Cila Ciicai Magazzino Faenza",
    "formatted_address": "4,1(119)",
    "phone_number": "+390546643711",
    "source_url": "https://www.google.com/maps/place/Cila+Ciicai+Magazzino+Faenza/data=!4m7!3m6!1s0x132b4e6d48028429:0x75ded3f6dd9204d4!8m2!3d44.2958374!4d11.8662968!16s%2Fg%2F1vd3xy0g!19sChIJKYQCSG1OKxMR1ASS3fbT3nU?authuser=0&hl=tr&rclk=1",
    "website_url": "https://www.cilaciicai.it/",
    "rating_text": "4,1",
    "stars": null,
    "number_of_reviews": null,
    "price_level": "",
    "open_hours": "",
    "extraction_timestamp": "2025-06-07T17:08:10.938Z",
    "source_name": "google",
    "source_query": "Irrigation Equipment",
    "source_country": "IT",
    "country": "Italy",
    "state": "Emilia-Romagna",
    "city": "Budrio"
  }
]
