[
  {
    "source_id": "ChIJbXaiiT4ZgEcR2BdjcCxvKJg",
    "name": "For Green",
    "category": "For Green",
    "formatted_address": "4,8(76)",
    "phone_number": "+390522919698",
    "source_url": "https://www.google.com/maps/place/For+Green/data=!4m7!3m6!1s0x4780193e89a2766d:0x98286f2c706317d8!8m2!3d44.7540982!4d10.5983401!16s%2Fg%2F1pt_1cr6l!19sChIJbXaiiT4ZgEcR2BdjcCxvKJg?authuser=0&hl=tr&rclk=1",
    "website_url": "http://www.for-green.it/",
    "rating_text": "4,8",
    "stars": null,
    "number_of_reviews": null,
    "price_level": "",
    "open_hours": "",
    "extraction_timestamp": "2025-06-07T16:30:11.096Z",
    "source_name": "google",
    "source_query": "Irrigation Equipment",
    "source_country": "IT",
    "country": "Italy",
    "state": "Emilia-Romagna",
    "city": "Cadelbosco di Sopra"
  },
  {
    "source_id": "ChIJzWyZEf8dgEcRM0sVtbJE3TI",
    "name": "Impiantistica LAVONE",
    "category": "Impiantistica LAVONE",
    "formatted_address": "5,0(3)",
    "phone_number": "+393514759408",
    "source_url": "https://www.google.com/maps/place/Impiantistica+LAVONE/data=!4m7!3m6!1s0x47801dff11996ccd:0x32dd44b2b5154b33!8m2!3d44.7120611!4d10.6241549!16s%2Fg%2F11lp1gdrnd!19sChIJzWyZEf8dgEcRM0sVtbJE3TI?authuser=0&hl=tr&rclk=1",
    "website_url": "",
    "rating_text": "5,0",
    "stars": null,
    "number_of_reviews": null,
    "price_level": "",
    "open_hours": "",
    "extraction_timestamp": "2025-06-07T16:30:11.098Z",
    "source_name": "google",
    "source_query": "Irrigation Equipment",
    "source_country": "IT",
    "country": "Italy",
    "state": "Emilia-Romagna",
    "city": "Cadelbosco di Sopra"
  },
  {
    "source_id": "ChIJPU3Kg54XgEcRRH9cIT6-ZQ8",
    "name": "Sae Tecnology S.R.L. Soluzioni Trattamento Acque",
    "category": "Sae Tecnology S.R.L. Soluzioni Trattamento Acque",
    "formatted_address": "4,9(173)",
    "phone_number": "+390522676796",
    "source_url": "https://www.google.com/maps/place/Sae+Tecnology+S.R.L.+Soluzioni+Trattamento+Acque/data=!4m7!3m6!1s0x4780179e83ca4d3d:0xf65be3e215c7f44!8m2!3d44.775246!4d10.5151594!16s%2Fg%2F11b6hy9gf1!19sChIJPU3Kg54XgEcRRH9cIT6-ZQ8?authuser=0&hl=tr&rclk=1",
    "website_url": "https://www.saedepuratori.it/",
    "rating_text": "4,9",
    "stars": null,
    "number_of_reviews": null,
    "price_level": "",
    "open_hours": "",
    "extraction_timestamp": "2025-06-07T16:30:11.100Z",
    "source_name": "google",
    "source_query": "Irrigation Equipment",
    "source_country": "IT",
    "country": "Italy",
    "state": "Emilia-Romagna",
    "city": "Cadelbosco di Sopra"
  },
  {
    "source_id": "ChIJ8S_H450fgEcRen1BwvkupIc",
    "name": "Agro-system Snc di Bassoli - Piscine e Macchine giardino - Reggio Emilia",
    "category": "Agro-system Snc di Bassoli - Piscine e Macchine giardino - Reggio Emilia",
    "formatted_address": "4,6(88)",
    "phone_number": "+390522954100",
    "source_url": "https://www.google.com/maps/place/Agro-system+Snc+di+Bassoli+-+Piscine+e+Macchine+giardino+-+Reggio+Emilia/data=!4m7!3m6!1s0x47801f9de3c72ff1:0x87a42ef9c2417d7a!8m2!3d44.797091!4d10.686568!16s%2Fg%2F1tfb5f45!19sChIJ8S_H450fgEcRen1BwvkupIc?authuser=0&hl=tr&rclk=1",
    "website_url": "https://agrosystem.info/",
    "rating_text": "4,6",
    "stars": null,
    "number_of_reviews": null,
    "price_level": "",
    "open_hours": "",
    "extraction_timestamp": "2025-06-07T16:30:11.102Z",
    "source_name": "google",
    "source_query": "Irrigation Equipment",
    "source_country": "IT",
    "country": "Italy",
    "state": "Emilia-Romagna",
    "city": "Cadelbosco di Sopra"
  },
  {
    "source_id": "ChIJna7HjaQcgEcR2wnTD8_e_HY",
    "name": "Hydrocontrol S.R.L.",
    "category": "Hydrocontrol S.R.L.",
    "formatted_address": "4,4(7)",
    "phone_number": "+390522330315",
    "source_url": "https://www.google.com/maps/place/Hydrocontrol+S.R.L./data=!4m7!3m6!1s0x47801ca48dc7ae9d:0x76fcdecf0fd309db!8m2!3d44.669783!4d10.597142!16s%2Fg%2F12hmcfzzg!19sChIJna7HjaQcgEcR2wnTD8_e_HY?authuser=0&hl=tr&rclk=1",
    "website_url": "https://www.hydrocontrol.it/",
    "rating_text": "4,4",
    "stars": null,
    "number_of_reviews": null,
    "price_level": "",
    "open_hours": "",
    "extraction_timestamp": "2025-06-07T16:30:11.104Z",
    "source_name": "google",
    "source_query": "Irrigation Equipment",
    "source_country": "IT",
    "country": "Italy",
    "state": "Emilia-Romagna",
    "city": "Cadelbosco di Sopra"
  },
  {
    "source_id": "ChIJcQG6ul7df0cR3VxKiu5OPBs",
    "name": "Scova Impianti Srl",
    "category": "Scova Impianti Srl",
    "formatted_address": "4,5(64)",
    "phone_number": "+39059923202",
    "source_url": "https://www.google.com/maps/place/Scova+Impianti+Srl/data=!4m7!3m6!1s0x477fdd5ebaba0171:0x1b3c4eee8a4a5cdd!8m2!3d44.6018135!4d11.032294!16s%2Fg%2F1tfzwbfb!19sChIJcQG6ul7df0cR3VxKiu5OPBs?authuser=0&hl=tr&rclk=1",
    "website_url": "https://www.scovaimpianti.com/",
    "rating_text": "4,5",
    "stars": null,
    "number_of_reviews": null,
    "price_level": "",
    "open_hours": "",
    "extraction_timestamp": "2025-06-07T16:30:11.105Z",
    "source_name": "google",
    "source_query": "Irrigation Equipment",
    "source_country": "IT",
    "country": "Italy",
    "state": "Emilia-Romagna",
    "city": "Cadelbosco di Sopra"
  },
  {
    "source_id": "ChIJA0Ey7sIYgEcR1LYUyz1MuEk",
    "name": "Agri Hobby Davide Di Salsi Roberto",
    "category": "Agri Hobby Davide Di Salsi Roberto",
    "formatted_address": "4,5(24)",
    "phone_number": "+390522917417",
    "source_url": "https://www.google.com/maps/place/Agri+Hobby+Davide+Di+Salsi+Roberto/data=!4m7!3m6!1s0x478018c2ee324103:0x49b84c3dcb14b6d4!8m2!3d44.780655!4d10.608212!16s%2Fg%2F1wc46v26!19sChIJA0Ey7sIYgEcR1LYUyz1MuEk?authuser=0&hl=tr&rclk=1",
    "website_url": "",
    "rating_text": "4,5",
    "stars": null,
    "number_of_reviews": null,
    "price_level": "",
    "open_hours": "",
    "extraction_timestamp": "2025-06-07T16:30:11.107Z",
    "source_name": "google",
    "source_query": "Irrigation Equipment",
    "source_country": "IT",
    "country": "Italy",
    "state": "Emilia-Romagna",
    "city": "Cadelbosco di Sopra"
  },
  {
    "source_id": "ChIJiVSvsQIdgEcR0PUcMFDq-Yg",
    "name": "Idrotim",
    "category": "Idrotim",
    "formatted_address": "5,0(5)",
    "phone_number": "+393387675768",
    "source_url": "https://www.google.com/maps/place/Idrotim/data=!4m7!3m6!1s0x47801d02b1af5489:0x88f9ea50301cf5d0!8m2!3d44.642221!4d10.671266!16s%2Fg%2F1tnhx5lh!19sChIJiVSvsQIdgEcR0PUcMFDq-Yg?authuser=0&hl=tr&rclk=1",
    "website_url": "http://www.idrotim.it/",
    "rating_text": "5,0",
    "stars": null,
    "number_of_reviews": null,
    "price_level": "",
    "open_hours": "",
    "extraction_timestamp": "2025-06-07T16:30:11.109Z",
    "source_name": "google",
    "source_query": "Irrigation Equipment",
    "source_country": "IT",
    "country": "Italy",
    "state": "Emilia-Romagna",
    "city": "Cadelbosco di Sopra"
  },
  {
    "source_id": "ChIJQyDw8N_0f0cRhE_m36C06SU",
    "name": "Irrigreen",
    "category": "Irrigreen",
    "formatted_address": "4,3(3)",
    "phone_number": "+390522642318",
    "source_url": "https://www.google.com/maps/place/Irrigreen/data=!4m7!3m6!1s0x477ff4dff0f02043:0x25e9b4a0dfe64f84!8m2!3d45.1836109!4d10.6267461!16s%2Fg%2F1tddwm9t!19sChIJQyDw8N_0f0cRhE_m36C06SU?authuser=0&hl=tr&rclk=1",
    "website_url": "http://www.irrigreen.it/",
    "rating_text": "4,3",
    "stars": null,
    "number_of_reviews": null,
    "price_level": "",
    "open_hours": "",
    "extraction_timestamp": "2025-06-07T16:30:11.110Z",
    "source_name": "google",
    "source_query": "Irrigation Equipment",
    "source_country": "IT",
    "country": "Italy",
    "state": "Emilia-Romagna",
    "city": "Cadelbosco di Sopra"
  },
  {
    "source_id": "ChIJT6T0BhUZgEcRQ-Xq1QFhxj4",
    "name": "Fertec snc",
    "category": "Fertec snc",
    "formatted_address": "4,4(187)",
    "phone_number": "+390522917044",
    "source_url": "https://www.google.com/maps/place/Fertec+snc/data=!4m7!3m6!1s0x4780191506f4a44f:0x3ec66101d5eae543!8m2!3d44.7529666!4d10.5931112!16s%2Fg%2F1hhkpf0gs!19sChIJT6T0BhUZgEcRQ-Xq1QFhxj4?authuser=0&hl=tr&rclk=1",
    "website_url": "http://www.fertecsnc.com/",
    "rating_text": "4,4",
    "stars": null,
    "number_of_reviews": null,
    "price_level": "",
    "open_hours": "",
    "extraction_timestamp": "2025-06-07T16:30:11.111Z",
    "source_name": "google",
    "source_query": "Irrigation Equipment",
    "source_country": "IT",
    "country": "Italy",
    "state": "Emilia-Romagna",
    "city": "Cadelbosco di Sopra"
  },
  {
    "source_id": "ChIJvxs07hUZgEcRktePShKcw7Y",
    "name": "Oleoweb S.R.L.",
    "category": "Oleoweb S.R.L.",
    "formatted_address": "5,0(3)",
    "phone_number": "+390522917679",
    "source_url": "https://www.google.com/maps/place/Oleoweb+S.R.L./data=!4m7!3m6!1s0x47801915ee341bbf:0xb6c39c124a8fd792!8m2!3d44.754315!4d10.5977729!16s%2Fg%2F1tg5sxkp!19sChIJvxs07hUZgEcRktePShKcw7Y?authuser=0&hl=tr&rclk=1",
    "website_url": "http://www.oleoweb.com/",
    "rating_text": "5,0",
    "stars": null,
    "number_of_reviews": null,
    "price_level": "",
    "open_hours": "",
    "extraction_timestamp": "2025-06-07T16:30:11.113Z",
    "source_name": "google",
    "source_query": "Irrigation Equipment",
    "source_country": "IT",
    "country": "Italy",
    "state": "Emilia-Romagna",
    "city": "Cadelbosco di Sopra"
  },
  {
    "source_id": "ChIJqcfhMJYYgEcRZMjnKsZ4m94",
    "name": "Ferr Beca Ferramenta",
    "category": "Ferr Beca Ferramenta",
    "formatted_address": "4,7(58)",
    "phone_number": "+390522911180",
    "source_url": "https://www.google.com/maps/place/Ferr+Beca+Ferramenta/data=!4m7!3m6!1s0x4780189630e1c7a9:0xde9b78c62ae7c864!8m2!3d44.7929077!4d10.6102561!16s%2Fg%2F11b6lkfxw1!19sChIJqcfhMJYYgEcRZMjnKsZ4m94?authuser=0&hl=tr&rclk=1",
    "website_url": "https://www.ferrbeca.it/",
    "rating_text": "4,7",
    "stars": null,
    "number_of_reviews": null,
    "price_level": "",
    "open_hours": "",
    "extraction_timestamp": "2025-06-07T16:30:11.115Z",
    "source_name": "google",
    "source_query": "Irrigation Equipment",
    "source_country": "IT",
    "country": "Italy",
    "state": "Emilia-Romagna",
    "city": "Cadelbosco di Sopra"
  },
  {
    "source_id": "ChIJZQCcKj4ZgEcRm58ef77tKjs",
    "name": "Acqua & Co. S.r.l.",
    "category": "Acqua & Co. S.r.l.",
    "formatted_address": "4,5(2)",
    "phone_number": "+390522918701",
    "source_url": "https://www.google.com/maps/place/Acqua+%26+Co.+S.r.l./data=!4m7!3m6!1s0x4780193e2a9c0065:0x3b2aedbe7f1e9f9b!8m2!3d44.7533874!4d10.5957832!16s%2Fg%2F1tg9gdbj!19sChIJZQCcKj4ZgEcRm58ef77tKjs?authuser=0&hl=tr&rclk=1",
    "website_url": "https://www.acquaeco.com/",
    "rating_text": "4,5",
    "stars": null,
    "number_of_reviews": null,
    "price_level": "",
    "open_hours": "",
    "extraction_timestamp": "2025-06-07T16:30:11.116Z",
    "source_name": "google",
    "source_query": "Irrigation Equipment",
    "source_country": "IT",
    "country": "Italy",
    "state": "Emilia-Romagna",
    "city": "Cadelbosco di Sopra"
  },
  {
    "source_id": "ChIJX-0HrXYcgEcRPiaDZKdV6iw",
    "name": "Idromeccanica Bertolini S.p.a.",
    "category": "Idromeccanica Bertolini S.p.a.",
    "formatted_address": "3,7(20)",
    "phone_number": "+390522306641",
    "source_url": "https://www.google.com/maps/place/Idromeccanica+Bertolini+S.p.a./data=!4m7!3m6!1s0x47801c76ad07ed5f:0x2cea55a76483263e!8m2!3d44.7131562!4d10.5953009!16s%2Fg%2F11b6j1nfcw!19sChIJX-0HrXYcgEcRPiaDZKdV6iw?authuser=0&hl=tr&rclk=1",
    "website_url": "http://www.bertolinipumps.com/",
    "rating_text": "3,7",
    "stars": null,
    "number_of_reviews": null,
    "price_level": "",
    "open_hours": "",
    "extraction_timestamp": "2025-06-07T16:30:11.118Z",
    "source_name": "google",
    "source_query": "Irrigation Equipment",
    "source_country": "IT",
    "country": "Italy",
    "state": "Emilia-Romagna",
    "city": "Cadelbosco di Sopra"
  },
  {
    "source_id": "ChIJwbFrw9wdgEcRUkQQWLvaJmc",
    "name": "Depurtecnica Trattamento Acque",
    "category": "Depurtecnica Trattamento Acque",
    "formatted_address": "4,7(19)",
    "phone_number": "+390522215085",
    "source_url": "https://www.google.com/maps/place/Depurtecnica+Trattamento+Acque/data=!4m7!3m6!1s0x47801ddcc36bb1c1:0x6726dabb58104452!8m2!3d44.7154811!4d10.6721644!16s%2Fg%2F11b75gdbf2!19sChIJwbFrw9wdgEcRUkQQWLvaJmc?authuser=0&hl=tr&rclk=1",
    "website_url": "https://depurtecnica.com/",
    "rating_text": "4,7",
    "stars": null,
    "number_of_reviews": null,
    "price_level": "",
    "open_hours": "",
    "extraction_timestamp": "2025-06-07T16:30:11.119Z",
    "source_name": "google",
    "source_query": "Irrigation Equipment",
    "source_country": "IT",
    "country": "Italy",
    "state": "Emilia-Romagna",
    "city": "Cadelbosco di Sopra"
  },
  {
    "source_id": "ChIJpVXhPQ0cgEcRE8_9M6siopU",
    "name": "Agriservice (Div. di RAMA S.p.A.)",
    "category": "Agriservice (Div. di RAMA S.p.A.)",
    "formatted_address": "4,3(236)",
    "phone_number": "+3905221723760",
    "source_url": "https://www.google.com/maps/place/Agriservice+%28Div.+di+RAMA+S.p.A.%29/data=!4m7!3m6!1s0x47801c0d3de155a5:0x95a222ab33fdcf13!8m2!3d44.7173748!4d10.6444488!16s%2Fg%2F12hpr37fh!19sChIJpVXhPQ0cgEcRE8_9M6siopU?authuser=0&hl=tr&rclk=1",
    "website_url": "http://www.agriservice.rama.it/",
    "rating_text": "4,3",
    "stars": null,
    "number_of_reviews": null,
    "price_level": "",
    "open_hours": "",
    "extraction_timestamp": "2025-06-07T16:30:11.121Z",
    "source_name": "google",
    "source_query": "Irrigation Equipment",
    "source_country": "IT",
    "country": "Italy",
    "state": "Emilia-Romagna",
    "city": "Cadelbosco di Sopra"
  },
  {
    "source_id": "ChIJISlyN8fVfkcRP1ghb3uyg-o",
    "name": "Import Irrigation Systems S.R.L.",
    "category": "Import Irrigation Systems S.R.L.",
    "formatted_address": "Üretici ·  · Via Salvo d'Acquisto, 5Kapalı ⋅ Açılış zamanı: Pzt 08:30 · +39 049 559 1020",
    "phone_number": "+390495591020",
    "source_url": "https://www.google.com/maps/place/Import+Irrigation+Systems+S.R.L./data=!4m7!3m6!1s0x477ed5c737722921:0xea83b27b6f21583f!8m2!3d45.5362842!4d11.825368!16s%2Fg%2F1tsjchn3!19sChIJISlyN8fVfkcRP1ghb3uyg-o?authuser=0&hl=tr&rclk=1",
    "website_url": "http://www.importirrigation.com/",
    "rating_text": "",
    "stars": null,
    "number_of_reviews": null,
    "price_level": "",
    "open_hours": "",
    "extraction_timestamp": "2025-06-07T16:30:11.122Z",
    "source_name": "google",
    "source_query": "Irrigation Equipment",
    "source_country": "IT",
    "country": "Italy",
    "state": "Emilia-Romagna",
    "city": "Cadelbosco di Sopra"
  },
  {
    "source_id": "ChIJCTGlAjEfgEcRbIpkLUBo4sk",
    "name": "Quality Components Di Iotti Lanfranco & Gianpaolo Snc",
    "category": "Quality Components Di Iotti Lanfranco & Gianpaolo Snc",
    "formatted_address": "4,8(4)",
    "phone_number": "+390522911381",
    "source_url": "https://www.google.com/maps/place/Quality+Components+Di+Iotti+Lanfranco+%26+Gianpaolo+Snc/data=!4m7!3m6!1s0x47801f3102a53109:0xc9e268402d648a6c!8m2!3d44.7779655!4d10.63665!16s%2Fg%2F1ptwh7_lg!19sChIJCTGlAjEfgEcRbIpkLUBo4sk?authuser=0&hl=tr&rclk=1",
    "website_url": "http://www.qualitycomponents.it/",
    "rating_text": "4,8",
    "stars": null,
    "number_of_reviews": null,
    "price_level": "",
    "open_hours": "",
    "extraction_timestamp": "2025-06-07T16:30:11.123Z",
    "source_name": "google",
    "source_query": "Irrigation Equipment",
    "source_country": "IT",
    "country": "Italy",
    "state": "Emilia-Romagna",
    "city": "Cadelbosco di Sopra"
  },
  {
    "source_id": "ChIJE_3jOnMtfkcRkxtTFj3Ym9E",
    "name": "Irrigation Scarabelli Srl",
    "category": "Irrigation Scarabelli Srl",
    "formatted_address": "4,5(23)",
    "phone_number": "+39051763363",
    "source_url": "https://www.google.com/maps/place/Irrigation+Scarabelli+Srl/data=!4m7!3m6!1s0x477e2d733ae3fd13:0xd19bd83d16531b93!8m2!3d44.5426053!4d11.4189136!16s%2Fg%2F11gzdz6vf!19sChIJE_3jOnMtfkcRkxtTFj3Ym9E?authuser=0&hl=tr&rclk=1",
    "website_url": "",
    "rating_text": "4,5",
    "stars": null,
    "number_of_reviews": null,
    "price_level": "",
    "open_hours": "",
    "extraction_timestamp": "2025-06-07T16:30:11.125Z",
    "source_name": "google",
    "source_query": "Irrigation Equipment",
    "source_country": "IT",
    "country": "Italy",
    "state": "Emilia-Romagna",
    "city": "Cadelbosco di Sopra"
  },
  {
    "source_id": "ChIJJwNa1ZJfQYIRvq_DTazdqQQ",
    "name": "Ricerca perdite acqua Reggio Emilia",
    "category": "Ricerca perdite acqua Reggio Emilia",
    "formatted_address": "",
    "phone_number": "+3905221750430",
    "source_url": "https://www.google.com/maps/place/Ricerca+perdite+acqua+Reggio+Emilia/data=!4m7!3m6!1s0x82415f92d55a0327:0x4a9ddac4dc3afbe!8m2!3d44.6090405!4d10.5200128!16s%2Fg%2F11nmmhndrd!19sChIJJwNa1ZJfQYIRvq_DTazdqQQ?authuser=0&hl=tr&rclk=1",
    "website_url": "https://www.ricercaperditeacqua24.it/ricerca-perdite-acqua-reggio-emilia/",
    "rating_text": "",
    "stars": null,
    "number_of_reviews": null,
    "price_level": "",
    "open_hours": "",
    "extraction_timestamp": "2025-06-07T16:30:11.126Z",
    "source_name": "google",
    "source_query": "Irrigation Equipment",
    "source_country": "IT",
    "country": "Italy",
    "state": "Emilia-Romagna",
    "city": "Cadelbosco di Sopra"
  },
  {
    "source_id": "ChIJh5ntU4UegEcRhIP4fbjkHS8",
    "name": "Attrezzature zootecniche - Nuova Cagi",
    "category": "Attrezzature zootecniche - Nuova Cagi",
    "formatted_address": "5,0(4)",
    "phone_number": "+390522517651",
    "source_url": "https://www.google.com/maps/place/Attrezzature+zootecniche+-+Nuova+Cagi/data=!4m7!3m6!1s0x47801e8553ed9987:0x2f1de4b87df88384!8m2!3d44.7357516!4d10.647524!16s%2Fg%2F1tf34tbn!19sChIJh5ntU4UegEcRhIP4fbjkHS8?authuser=0&hl=tr&rclk=1",
    "website_url": "https://nuovacagi.com/",
    "rating_text": "5,0",
    "stars": null,
    "number_of_reviews": null,
    "price_level": "",
    "open_hours": "",
    "extraction_timestamp": "2025-06-07T16:30:11.128Z",
    "source_name": "google",
    "source_query": "Irrigation Equipment",
    "source_country": "IT",
    "country": "Italy",
    "state": "Emilia-Romagna",
    "city": "Cadelbosco di Sopra"
  },
  {
    "source_id": "ChIJXQIqLg0sgUcRg3Y6gpNOTVg",
    "name": "Novazzi Srl",
    "category": "Novazzi Srl",
    "formatted_address": "4,6(328)",
    "phone_number": "+39037169537",
    "source_url": "https://www.google.com/maps/place/Novazzi+Srl/data=!4m7!3m6!1s0x47812c0d2e2a025d:0x584d4e93823a7683!8m2!3d45.2892664!4d9.4771459!16s%2Fg%2F1pv2v0tvv!19sChIJXQIqLg0sgUcRg3Y6gpNOTVg?authuser=0&hl=tr&rclk=1",
    "website_url": "http://www.novazzi.it/",
    "rating_text": "4,6",
    "stars": null,
    "number_of_reviews": null,
    "price_level": "",
    "open_hours": "",
    "extraction_timestamp": "2025-06-07T16:30:11.129Z",
    "source_name": "google",
    "source_query": "Irrigation Equipment",
    "source_country": "IT",
    "country": "Italy",
    "state": "Emilia-Romagna",
    "city": "Cadelbosco di Sopra"
  },
  {
    "source_id": "ChIJ6Su--XKZgUcR6gfs_3GoVeI",
    "name": "Grond Plast F1 - Tubi Pe Pvc Irrigazione Idraulica Raccorderia Pompe Cisterne Stufe",
    "category": "Grond Plast F1 - Tubi Pe Pvc Irrigazione Idraulica Raccorderia Pompe Cisterne Stufe",
    "formatted_address": "Grond Plast F1 - Tubi Pe Pvc Irrigazione Idraulica Raccorderia Pompe Cisterne Stufe",
    "phone_number": "+390302620310",
    "source_url": "https://www.google.com/maps/place/Grond+Plast+F1+-+Tubi+Pe+Pvc+Irrigazione+Idraulica+Raccorderia+Pompe+Cisterne+Stufe/data=!4m7!3m6!1s0x47819972f9be2be9:0xe255a871ffec07ea!8m2!3d45.4928601!4d10.3622469!16s%2Fg%2F1thq44gd!19sChIJ6Su--XKZgUcR6gfs_3GoVeI?authuser=0&hl=tr&rclk=1",
    "website_url": "https://www.grondplast.com/",
    "rating_text": "4,6",
    "stars": null,
    "number_of_reviews": null,
    "price_level": "",
    "open_hours": "",
    "extraction_timestamp": "2025-06-07T16:30:11.131Z",
    "source_name": "google",
    "source_query": "Irrigation Equipment",
    "source_country": "IT",
    "country": "Italy",
    "state": "Emilia-Romagna",
    "city": "Cadelbosco di Sopra"
  },
  {
    "source_id": "ChIJaVFIS10cgEcRe5TuDW6cGmM",
    "name": "Catellani Elettroferramenta",
    "category": "Catellani Elettroferramenta",
    "formatted_address": "4,6(138)",
    "phone_number": "+390522439692",
    "source_url": "https://www.google.com/maps/place/Catellani+Elettroferramenta/data=!4m7!3m6!1s0x47801c5d4b485169:0x631a9c6e0dee947b!8m2!3d44.7008701!4d10.6241718!16s%2Fg%2F11b6bwpk89!19sChIJaVFIS10cgEcRe5TuDW6cGmM?authuser=0&hl=tr&rclk=1",
    "website_url": "",
    "rating_text": "4,6",
    "stars": null,
    "number_of_reviews": null,
    "price_level": "",
    "open_hours": "",
    "extraction_timestamp": "2025-06-07T16:30:11.132Z",
    "source_name": "google",
    "source_query": "Irrigation Equipment",
    "source_country": "IT",
    "country": "Italy",
    "state": "Emilia-Romagna",
    "city": "Cadelbosco di Sopra"
  },
  {
    "source_id": "ChIJu07AB0rif0cRnS0vXUM4l0M",
    "name": "IDROPLAST",
    "category": "IDROPLAST",
    "formatted_address": "4,1(66)",
    "phone_number": "+390536946864",
    "source_url": "https://www.google.com/maps/place/IDROPLAST/data=!4m7!3m6!1s0x477fe24a07c04ebb:0x439738435d2f2d9d!8m2!3d44.5278928!4d10.8902028!16s%2Fg%2F11b6jh694_!19sChIJu07AB0rif0cRnS0vXUM4l0M?authuser=0&hl=tr&rclk=1",
    "website_url": "",
    "rating_text": "4,1",
    "stars": null,
    "number_of_reviews": null,
    "price_level": "",
    "open_hours": "",
    "extraction_timestamp": "2025-06-07T16:30:11.134Z",
    "source_name": "google",
    "source_query": "Irrigation Equipment",
    "source_country": "IT",
    "country": "Italy",
    "state": "Emilia-Romagna",
    "city": "Cadelbosco di Sopra"
  },
  {
    "source_id": "ChIJbb3dfU5RgUcRBwVFWc02rjA",
    "name": "Vivai Ghezzi",
    "category": "Vivai Ghezzi",
    "formatted_address": "4,7(155)",
    "phone_number": "+39035575749",
    "source_url": "https://www.google.com/maps/place/Vivai+Ghezzi/data=!4m7!3m6!1s0x4781514e7dddbd6d:0x30ae36cd59450507!8m2!3d45.7191061!4d9.6579622!16s%2Fg%2F1w111149!19sChIJbb3dfU5RgUcRBwVFWc02rjA?authuser=0&hl=tr&rclk=1",
    "website_url": "",
    "rating_text": "4,7",
    "stars": null,
    "number_of_reviews": null,
    "price_level": "",
    "open_hours": "",
    "extraction_timestamp": "2025-06-07T16:30:11.135Z",
    "source_name": "google",
    "source_query": "Irrigation Equipment",
    "source_country": "IT",
    "country": "Italy",
    "state": "Emilia-Romagna",
    "city": "Cadelbosco di Sopra"
  },
  {
    "source_id": "ChIJtbN9A-8rgEcRVZtaRSESNOU",
    "name": "Perazzi Irrigatori",
    "category": "Perazzi Irrigatori",
    "formatted_address": "5,0(1)",
    "phone_number": "+390376535952",
    "source_url": "https://www.google.com/maps/place/Perazzi+Irrigatori/data=!4m7!3m6!1s0x47802bef037db3b5:0xe5341221455a9b55!8m2!3d44.9841775!4d10.7699573!16s%2Fg%2F1vd74s01!19sChIJtbN9A-8rgEcRVZtaRSESNOU?authuser=0&hl=tr&rclk=1",
    "website_url": "http://www.gedanken-italia.com/",
    "rating_text": "5,0",
    "stars": null,
    "number_of_reviews": null,
    "price_level": "",
    "open_hours": "",
    "extraction_timestamp": "2025-06-07T16:30:11.137Z",
    "source_name": "google",
    "source_query": "Irrigation Equipment",
    "source_country": "IT",
    "country": "Italy",
    "state": "Emilia-Romagna",
    "city": "Cadelbosco di Sopra"
  },
  {
    "source_id": "ChIJNawoHzXHgUcRTu7tnyXPk-8",
    "name": "VE.CA.FER di Pernumian Luciana e F.lli",
    "category": "VE.CA.FER di Pernumian Luciana e F.lli",
    "formatted_address": "4,4(73)",
    "phone_number": "+390376838708",
    "source_url": "https://www.google.com/maps/place/VE.CA.FER+di+Pernumian+Luciana+e+F.lli/data=!4m7!3m6!1s0x4781c7351f28ac35:0xef93cf259fedee4e!8m2!3d45.3195241!4d10.6316772!16s%2Fg%2F11h6k61xg1!19sChIJNawoHzXHgUcRTu7tnyXPk-8?authuser=0&hl=tr&rclk=1",
    "website_url": "",
    "rating_text": "4,4",
    "stars": null,
    "number_of_reviews": null,
    "price_level": "",
    "open_hours": "",
    "extraction_timestamp": "2025-06-07T16:30:11.138Z",
    "source_name": "google",
    "source_query": "Irrigation Equipment",
    "source_country": "IT",
    "country": "Italy",
    "state": "Emilia-Romagna",
    "city": "Cadelbosco di Sopra"
  },
  {
    "source_id": "ChIJ10pYHawYgEcRCfpj_vjNwM8",
    "name": "IGEA Srl manufatti in cemento",
    "category": "IGEA Srl manufatti in cemento",
    "formatted_address": "4,6(7)",
    "phone_number": "+390522912138",
    "source_url": "https://www.google.com/maps/place/IGEA+Srl+manufatti+in+cemento/data=!4m7!3m6!1s0x478018ac1d584ad7:0xcfc0cdf8fe63fa09!8m2!3d44.7970008!4d10.6315002!16s%2Fg%2F1thbvh_5!19sChIJ10pYHawYgEcRCfpj_vjNwM8?authuser=0&hl=tr&rclk=1",
    "website_url": "http://www.igeasas.com/",
    "rating_text": "4,6",
    "stars": null,
    "number_of_reviews": null,
    "price_level": "",
    "open_hours": "",
    "extraction_timestamp": "2025-06-07T16:30:11.139Z",
    "source_name": "google",
    "source_query": "Irrigation Equipment",
    "source_country": "IT",
    "country": "Italy",
    "state": "Emilia-Romagna",
    "city": "Cadelbosco di Sopra"
  },
  {
    "source_id": "ChIJtVDkNgRFgEcRqc6umwWIJuI",
    "name": "Rm Spa",
    "category": "Rm Spa",
    "formatted_address": "4,6(81)",
    "phone_number": "+390521872321",
    "source_url": "https://www.google.com/maps/place/Rm+Spa/data=!4m7!3m6!1s0x4780450436e450b5:0xe22688059baecea9!8m2!3d44.9105406!4d10.2583785!16s%2Fg%2F12hl93byl!19sChIJtVDkNgRFgEcRqc6umwWIJuI?authuser=0&hl=tr&rclk=1",
    "website_url": "http://www.rmirrigation.com/",
    "rating_text": "4,6",
    "stars": null,
    "number_of_reviews": null,
    "price_level": "",
    "open_hours": "",
    "extraction_timestamp": "2025-06-07T16:30:11.140Z",
    "source_name": "google",
    "source_query": "Irrigation Equipment",
    "source_country": "IT",
    "country": "Italy",
    "state": "Emilia-Romagna",
    "city": "Cadelbosco di Sopra"
  },
  {
    "source_id": "ChIJQWHVfm4cgEcRfBrfE3BfA8s",
    "name": "Oleodinamica Reva",
    "category": "Oleodinamica Reva",
    "formatted_address": "5,0(2)",
    "phone_number": "+390522381830",
    "source_url": "https://www.google.com/maps/place/Oleodinamica+Reva/data=!4m7!3m6!1s0x47801c6e7ed56141:0xcb035f7013df1a7c!8m2!3d44.7063354!4d10.6160711!16s%2Fg%2F1td4cdbg!19sChIJQWHVfm4cgEcRfBrfE3BfA8s?authuser=0&hl=tr&rclk=1",
    "website_url": "http://www.oleodinamicareva.com/",
    "rating_text": "5,0",
    "stars": null,
    "number_of_reviews": null,
    "price_level": "",
    "open_hours": "",
    "extraction_timestamp": "2025-06-07T16:30:11.142Z",
    "source_name": "google",
    "source_query": "Irrigation Equipment",
    "source_country": "IT",
    "country": "Italy",
    "state": "Emilia-Romagna",
    "city": "Cadelbosco di Sopra"
  },
  {
    "source_id": "ChIJG5IVdjwuf0cRuiuvDB912EI",
    "name": "Irrigazione Veneta (S.R.L.)",
    "category": "Irrigazione Veneta (S.R.L.)",
    "formatted_address": "4,3(55)",
    "phone_number": "+390444581098",
    "source_url": "https://www.google.com/maps/place/Irrigazione+Veneta+%28S.R.L.%29/data=!4m7!3m6!1s0x477f2e3c7615921b:0x42d8751f0caf2bba!8m2!3d45.5172457!4d11.6066912!16s%2Fg%2F1tfj203m!19sChIJG5IVdjwuf0cRuiuvDB912EI?authuser=0&hl=tr&rclk=1",
    "website_url": "http://www.irrigazioneveneta.com/",
    "rating_text": "4,3",
    "stars": null,
    "number_of_reviews": null,
    "price_level": "",
    "open_hours": "",
    "extraction_timestamp": "2025-06-07T16:30:11.143Z",
    "source_name": "google",
    "source_query": "Irrigation Equipment",
    "source_country": "IT",
    "country": "Italy",
    "state": "Emilia-Romagna",
    "city": "Cadelbosco di Sopra"
  },
  {
    "source_id": "ChIJjYOazLXTgUcRKTf0VhcGM5M",
    "name": "Bricocenter",
    "category": "Bricocenter",
    "formatted_address": "4,1(2.437)",
    "phone_number": "+3903761762540",
    "source_url": "https://www.google.com/maps/place/Bricocenter/data=!4m7!3m6!1s0x4781d3b5cc9a838d:0x9333061756f43729!8m2!3d45.1502058!4d10.7263041!16s%2Fg%2F11b6d5jsb1!19sChIJjYOazLXTgUcRKTf0VhcGM5M?authuser=0&hl=tr&rclk=1",
    "website_url": "https://www.bricocenter.it/mantova-curtatone/",
    "rating_text": "4,1",
    "stars": null,
    "number_of_reviews": null,
    "price_level": "",
    "open_hours": "",
    "extraction_timestamp": "2025-06-07T16:30:11.146Z",
    "source_name": "google",
    "source_query": "Irrigation Equipment",
    "source_country": "IT",
    "country": "Italy",
    "state": "Emilia-Romagna",
    "city": "Cadelbosco di Sopra"
  },
  {
    "source_id": "ChIJ_fqpfYGegUcRxC01KIHe9mw",
    "name": "Green Pool srl",
    "category": "Green Pool srl",
    "formatted_address": "4,8(19)",
    "phone_number": "+390303364626",
    "source_url": "https://www.google.com/maps/place/Green+Pool+srl/data=!4m7!3m6!1s0x47819e817da9fafd:0x6cf6de8128352dc4!8m2!3d45.5128917!4d10.2900648!16s%2Fg%2F1vn_xtv9!19sChIJ_fqpfYGegUcRxC01KIHe9mw?authuser=0&hl=tr&rclk=1",
    "website_url": "http://www.greenpoolsrl.it/",
    "rating_text": "4,8",
    "stars": null,
    "number_of_reviews": null,
    "price_level": "",
    "open_hours": "",
    "extraction_timestamp": "2025-06-07T16:30:11.147Z",
    "source_name": "google",
    "source_query": "Irrigation Equipment",
    "source_country": "IT",
    "country": "Italy",
    "state": "Emilia-Romagna",
    "city": "Cadelbosco di Sopra"
  },
  {
    "source_id": "ChIJ0VNlJROXf0cRawSw3h0WMtU",
    "name": "Idromarket Srl",
    "category": "Idromarket Srl",
    "formatted_address": "4,5(132)",
    "phone_number": "+390535610490",
    "source_url": "https://www.google.com/maps/place/Idromarket+Srl/data=!4m7!3m6!1s0x477f9713256553d1:0xd532161ddeb0046b!8m2!3d44.8739092!4d11.0680834!16s%2Fg%2F1tql3mhn!19sChIJ0VNlJROXf0cRawSw3h0WMtU?authuser=0&hl=tr&rclk=1",
    "website_url": "https://idromarket.com/",
    "rating_text": "4,5",
    "stars": null,
    "number_of_reviews": null,
    "price_level": "",
    "open_hours": "",
    "extraction_timestamp": "2025-06-07T16:30:11.148Z",
    "source_name": "google",
    "source_query": "Irrigation Equipment",
    "source_country": "IT",
    "country": "Italy",
    "state": "Emilia-Romagna",
    "city": "Cadelbosco di Sopra"
  }
]
