[
  {
    "source_id": "ChIJzWyZEf8dgEcRM0sVtbJE3TI",
    "name": "Impiantistica LAVONE",
    "category": "Impiantistica LAVONE",
    "formatted_address": "5,0(3)",
    "phone_number": "+393514759408",
    "source_url": "https://www.google.com/maps/place/Impiantistica+LAVONE/data=!4m7!3m6!1s0x47801dff11996ccd:0x32dd44b2b5154b33!8m2!3d44.7120611!4d10.6241549!16s%2Fg%2F11lp1gdrnd!19sChIJzWyZEf8dgEcRM0sVtbJE3TI?authuser=0&hl=tr&rclk=1",
    "website_url": "",
    "rating_text": "5,0",
    "stars": null,
    "number_of_reviews": null,
    "price_level": "",
    "open_hours": "",
    "extraction_timestamp": "2025-06-07T16:24:23.141Z",
    "source_name": "google",
    "source_query": "Irrigation Equipment",
    "source_country": "IT",
    "country": "Italy",
    "state": "Emilia-Romagna",
    "city": "Cadelbosco di Sotto"
  },
  {
    "source_id": "ChIJqcfhMJYYgEcRZMjnKsZ4m94",
    "name": "Ferr Beca Ferramenta",
    "category": "Ferr Beca Ferramenta",
    "formatted_address": "4,7(58)",
    "phone_number": "+390522911180",
    "source_url": "https://www.google.com/maps/place/Ferr+Beca+Ferramenta/data=!4m7!3m6!1s0x4780189630e1c7a9:0xde9b78c62ae7c864!8m2!3d44.7929077!4d10.6102561!16s%2Fg%2F11b6lkfxw1!19sChIJqcfhMJYYgEcRZMjnKsZ4m94?authuser=0&hl=tr&rclk=1",
    "website_url": "https://www.ferrbeca.it/",
    "rating_text": "4,7",
    "stars": null,
    "number_of_reviews": null,
    "price_level": "",
    "open_hours": "",
    "extraction_timestamp": "2025-06-07T16:24:23.143Z",
    "source_name": "google",
    "source_query": "Irrigation Equipment",
    "source_country": "IT",
    "country": "Italy",
    "state": "Emilia-Romagna",
    "city": "Cadelbosco di Sotto"
  },
  {
    "source_id": "ChIJbXaiiT4ZgEcR2BdjcCxvKJg",
    "name": "For Green",
    "category": "For Green",
    "formatted_address": "4,8(76)",
    "phone_number": "+390522919698",
    "source_url": "https://www.google.com/maps/place/For+Green/data=!4m7!3m6!1s0x4780193e89a2766d:0x98286f2c706317d8!8m2!3d44.7540982!4d10.5983401!16s%2Fg%2F1pt_1cr6l!19sChIJbXaiiT4ZgEcR2BdjcCxvKJg?authuser=0&hl=tr&rclk=1",
    "website_url": "http://www.for-green.it/",
    "rating_text": "4,8",
    "stars": null,
    "number_of_reviews": null,
    "price_level": "",
    "open_hours": "",
    "extraction_timestamp": "2025-06-07T16:24:23.145Z",
    "source_name": "google",
    "source_query": "Irrigation Equipment",
    "source_country": "IT",
    "country": "Italy",
    "state": "Emilia-Romagna",
    "city": "Cadelbosco di Sotto"
  },
  {
    "source_id": "ChIJ8S_H450fgEcRen1BwvkupIc",
    "name": "Agro-system Snc di Bassoli - Piscine e Macchine giardino - Reggio Emilia",
    "category": "Agro-system Snc di Bassoli - Piscine e Macchine giardino - Reggio Emilia",
    "formatted_address": "4,6(88)",
    "phone_number": "+390522954100",
    "source_url": "https://www.google.com/maps/place/Agro-system+Snc+di+Bassoli+-+Piscine+e+Macchine+giardino+-+Reggio+Emilia/data=!4m7!3m6!1s0x47801f9de3c72ff1:0x87a42ef9c2417d7a!8m2!3d44.797091!4d10.686568!16s%2Fg%2F1tfb5f45!19sChIJ8S_H450fgEcRen1BwvkupIc?authuser=0&hl=tr&rclk=1",
    "website_url": "https://agrosystem.info/",
    "rating_text": "4,6",
    "stars": null,
    "number_of_reviews": null,
    "price_level": "",
    "open_hours": "",
    "extraction_timestamp": "2025-06-07T16:24:23.146Z",
    "source_name": "google",
    "source_query": "Irrigation Equipment",
    "source_country": "IT",
    "country": "Italy",
    "state": "Emilia-Romagna",
    "city": "Cadelbosco di Sotto"
  },
  {
    "source_id": "ChIJA0Ey7sIYgEcR1LYUyz1MuEk",
    "name": "Agri Hobby Davide Di Salsi Roberto",
    "category": "Agri Hobby Davide Di Salsi Roberto",
    "formatted_address": "4,5(24)",
    "phone_number": "+390522917417",
    "source_url": "https://www.google.com/maps/place/Agri+Hobby+Davide+Di+Salsi+Roberto/data=!4m7!3m6!1s0x478018c2ee324103:0x49b84c3dcb14b6d4!8m2!3d44.780655!4d10.608212!16s%2Fg%2F1wc46v26!19sChIJA0Ey7sIYgEcR1LYUyz1MuEk?authuser=0&hl=tr&rclk=1",
    "website_url": "",
    "rating_text": "4,5",
    "stars": null,
    "number_of_reviews": null,
    "price_level": "",
    "open_hours": "",
    "extraction_timestamp": "2025-06-07T16:24:23.148Z",
    "source_name": "google",
    "source_query": "Irrigation Equipment",
    "source_country": "IT",
    "country": "Italy",
    "state": "Emilia-Romagna",
    "city": "Cadelbosco di Sotto"
  },
  {
    "source_id": "ChIJPU3Kg54XgEcRRH9cIT6-ZQ8",
    "name": "Sae Tecnology S.R.L. Soluzioni Trattamento Acque",
    "category": "Sae Tecnology S.R.L. Soluzioni Trattamento Acque",
    "formatted_address": "4,9(173)",
    "phone_number": "+390522676796",
    "source_url": "https://www.google.com/maps/place/Sae+Tecnology+S.R.L.+Soluzioni+Trattamento+Acque/data=!4m7!3m6!1s0x4780179e83ca4d3d:0xf65be3e215c7f44!8m2!3d44.775246!4d10.5151594!16s%2Fg%2F11b6hy9gf1!19sChIJPU3Kg54XgEcRRH9cIT6-ZQ8?authuser=0&hl=tr&rclk=1",
    "website_url": "https://www.saedepuratori.it/",
    "rating_text": "4,9",
    "stars": null,
    "number_of_reviews": null,
    "price_level": "",
    "open_hours": "",
    "extraction_timestamp": "2025-06-07T16:24:23.149Z",
    "source_name": "google",
    "source_query": "Irrigation Equipment",
    "source_country": "IT",
    "country": "Italy",
    "state": "Emilia-Romagna",
    "city": "Cadelbosco di Sotto"
  },
  {
    "source_id": "ChIJcQG6ul7df0cR3VxKiu5OPBs",
    "name": "Scova Impianti Srl",
    "category": "Scova Impianti Srl",
    "formatted_address": "4,5(64)",
    "phone_number": "+39059923202",
    "source_url": "https://www.google.com/maps/place/Scova+Impianti+Srl/data=!4m7!3m6!1s0x477fdd5ebaba0171:0x1b3c4eee8a4a5cdd!8m2!3d44.6018135!4d11.032294!16s%2Fg%2F1tfzwbfb!19sChIJcQG6ul7df0cR3VxKiu5OPBs?authuser=0&hl=tr&rclk=1",
    "website_url": "https://www.scovaimpianti.com/",
    "rating_text": "4,5",
    "stars": null,
    "number_of_reviews": null,
    "price_level": "",
    "open_hours": "",
    "extraction_timestamp": "2025-06-07T16:24:23.151Z",
    "source_name": "google",
    "source_query": "Irrigation Equipment",
    "source_country": "IT",
    "country": "Italy",
    "state": "Emilia-Romagna",
    "city": "Cadelbosco di Sotto"
  },
  {
    "source_id": "ChIJ10pYHawYgEcRCfpj_vjNwM8",
    "name": "IGEA Srl manufatti in cemento",
    "category": "IGEA Srl manufatti in cemento",
    "formatted_address": "4,6(7)",
    "phone_number": "+390522912138",
    "source_url": "https://www.google.com/maps/place/IGEA+Srl+manufatti+in+cemento/data=!4m7!3m6!1s0x478018ac1d584ad7:0xcfc0cdf8fe63fa09!8m2!3d44.7970008!4d10.6315002!16s%2Fg%2F1thbvh_5!19sChIJ10pYHawYgEcRCfpj_vjNwM8?authuser=0&hl=tr&rclk=1",
    "website_url": "http://www.igeasas.com/",
    "rating_text": "4,6",
    "stars": null,
    "number_of_reviews": null,
    "price_level": "",
    "open_hours": "",
    "extraction_timestamp": "2025-06-07T16:24:23.152Z",
    "source_name": "google",
    "source_query": "Irrigation Equipment",
    "source_country": "IT",
    "country": "Italy",
    "state": "Emilia-Romagna",
    "city": "Cadelbosco di Sotto"
  },
  {
    "source_id": "ChIJX-0HrXYcgEcRPiaDZKdV6iw",
    "name": "Idromeccanica Bertolini S.p.a.",
    "category": "Idromeccanica Bertolini S.p.a.",
    "formatted_address": "3,7(20)",
    "phone_number": "+390522306641",
    "source_url": "https://www.google.com/maps/place/Idromeccanica+Bertolini+S.p.a./data=!4m7!3m6!1s0x47801c76ad07ed5f:0x2cea55a76483263e!8m2!3d44.7131562!4d10.5953009!16s%2Fg%2F11b6j1nfcw!19sChIJX-0HrXYcgEcRPiaDZKdV6iw?authuser=0&hl=tr&rclk=1",
    "website_url": "http://www.bertolinipumps.com/",
    "rating_text": "3,7",
    "stars": null,
    "number_of_reviews": null,
    "price_level": "",
    "open_hours": "",
    "extraction_timestamp": "2025-06-07T16:24:23.154Z",
    "source_name": "google",
    "source_query": "Irrigation Equipment",
    "source_country": "IT",
    "country": "Italy",
    "state": "Emilia-Romagna",
    "city": "Cadelbosco di Sotto"
  },
  {
    "source_id": "ChIJwbFrw9wdgEcRUkQQWLvaJmc",
    "name": "Depurtecnica Trattamento Acque",
    "category": "Depurtecnica Trattamento Acque",
    "formatted_address": "4,7(19)",
    "phone_number": "+390522215085",
    "source_url": "https://www.google.com/maps/place/Depurtecnica+Trattamento+Acque/data=!4m7!3m6!1s0x47801ddcc36bb1c1:0x6726dabb58104452!8m2!3d44.7154811!4d10.6721644!16s%2Fg%2F11b75gdbf2!19sChIJwbFrw9wdgEcRUkQQWLvaJmc?authuser=0&hl=tr&rclk=1",
    "website_url": "https://depurtecnica.com/",
    "rating_text": "4,7",
    "stars": null,
    "number_of_reviews": null,
    "price_level": "",
    "open_hours": "",
    "extraction_timestamp": "2025-06-07T16:24:23.155Z",
    "source_name": "google",
    "source_query": "Irrigation Equipment",
    "source_country": "IT",
    "country": "Italy",
    "state": "Emilia-Romagna",
    "city": "Cadelbosco di Sotto"
  },
  {
    "source_id": "ChIJpVXhPQ0cgEcRE8_9M6siopU",
    "name": "Agriservice (Div. di RAMA S.p.A.)",
    "category": "Agriservice (Div. di RAMA S.p.A.)",
    "formatted_address": "4,3(236)",
    "phone_number": "+3905221723760",
    "source_url": "https://www.google.com/maps/place/Agriservice+%28Div.+di+RAMA+S.p.A.%29/data=!4m7!3m6!1s0x47801c0d3de155a5:0x95a222ab33fdcf13!8m2!3d44.7173748!4d10.6444488!16s%2Fg%2F12hpr37fh!19sChIJpVXhPQ0cgEcRE8_9M6siopU?authuser=0&hl=tr&rclk=1",
    "website_url": "http://www.agriservice.rama.it/",
    "rating_text": "4,3",
    "stars": null,
    "number_of_reviews": null,
    "price_level": "",
    "open_hours": "",
    "extraction_timestamp": "2025-06-07T16:24:23.157Z",
    "source_name": "google",
    "source_query": "Irrigation Equipment",
    "source_country": "IT",
    "country": "Italy",
    "state": "Emilia-Romagna",
    "city": "Cadelbosco di Sotto"
  },
  {
    "source_id": "ChIJt-J7OZAZgEcRWY0lHdCzFCs",
    "name": "Acquavelo di Luca Lasagni",
    "category": "Acquavelo di Luca Lasagni",
    "formatted_address": "Kimya Tesisi · Via C. Colombo, 98Kapalı ⋅ Açılış zamanı: Pzt 08:30 · +39 0522 202878",
    "phone_number": "+390522202878",
    "source_url": "https://www.google.com/maps/place/Acquavelo+di+Luca+Lasagni/data=!4m7!3m6!1s0x47801990397be2b7:0x2b14b3d01d258d59!8m2!3d44.7765118!4d10.6070034!16s%2Fg%2F11wjkq916d!19sChIJt-J7OZAZgEcRWY0lHdCzFCs?authuser=0&hl=tr&rclk=1",
    "website_url": "https://www.h2obeltrami.it/",
    "rating_text": "",
    "stars": null,
    "number_of_reviews": null,
    "price_level": "",
    "open_hours": "",
    "extraction_timestamp": "2025-06-07T16:24:23.158Z",
    "source_name": "google",
    "source_query": "Irrigation Equipment",
    "source_country": "IT",
    "country": "Italy",
    "state": "Emilia-Romagna",
    "city": "Cadelbosco di Sotto"
  },
  {
    "source_id": "ChIJiUj9VG0YgEcRNq5AYCKgJQk",
    "name": "Tecno.mec S.r.l.",
    "category": "Tecno.mec S.r.l.",
    "formatted_address": "5,0(1)",
    "phone_number": "+390522688038",
    "source_url": "https://www.google.com/maps/place/Tecno.mec+S.r.l./data=!4m7!3m6!1s0x4780186d54fd4889:0x925a0226040ae36!8m2!3d44.7996615!4d10.5670301!16s%2Fg%2F1tf3077f!19sChIJiUj9VG0YgEcRNq5AYCKgJQk?authuser=0&hl=tr&rclk=1",
    "website_url": "http://www.tecnomec.com/",
    "rating_text": "5,0",
    "stars": null,
    "number_of_reviews": null,
    "price_level": "",
    "open_hours": "",
    "extraction_timestamp": "2025-06-07T16:24:23.159Z",
    "source_name": "google",
    "source_query": "Irrigation Equipment",
    "source_country": "IT",
    "country": "Italy",
    "state": "Emilia-Romagna",
    "city": "Cadelbosco di Sotto"
  },
  {
    "source_id": "ChIJ_d0-86UigEcRaileQkA2Xvk",
    "name": "Idrostar Sas",
    "category": "Idrostar Sas",
    "formatted_address": "4,8(49)",
    "phone_number": "+393471604393",
    "source_url": "https://www.google.com/maps/place/Idrostar+Sas/data=!4m7!3m6!1s0x478022a5f33eddfd:0xf95e3640425e296a!8m2!3d44.8156625!4d10.560921!16s%2Fg%2F11bc7sxrlg!19sChIJ_d0-86UigEcRaileQkA2Xvk?authuser=0&hl=tr&rclk=1",
    "website_url": "https://www.idrostardepuratori.it/",
    "rating_text": "4,8",
    "stars": null,
    "number_of_reviews": null,
    "price_level": "",
    "open_hours": "",
    "extraction_timestamp": "2025-06-07T16:24:23.160Z",
    "source_name": "google",
    "source_query": "Irrigation Equipment",
    "source_country": "IT",
    "country": "Italy",
    "state": "Emilia-Romagna",
    "city": "Cadelbosco di Sotto"
  },
  {
    "source_id": "ChIJCTGlAjEfgEcRbIpkLUBo4sk",
    "name": "Quality Components Di Iotti Lanfranco & Gianpaolo Snc",
    "category": "Quality Components Di Iotti Lanfranco & Gianpaolo Snc",
    "formatted_address": "4,8(4)",
    "phone_number": "+390522911381",
    "source_url": "https://www.google.com/maps/place/Quality+Components+Di+Iotti+Lanfranco+%26+Gianpaolo+Snc/data=!4m7!3m6!1s0x47801f3102a53109:0xc9e268402d648a6c!8m2!3d44.7779655!4d10.63665!16s%2Fg%2F1ptwh7_lg!19sChIJCTGlAjEfgEcRbIpkLUBo4sk?authuser=0&hl=tr&rclk=1",
    "website_url": "http://www.qualitycomponents.it/",
    "rating_text": "4,8",
    "stars": null,
    "number_of_reviews": null,
    "price_level": "",
    "open_hours": "",
    "extraction_timestamp": "2025-06-07T16:24:23.161Z",
    "source_name": "google",
    "source_query": "Irrigation Equipment",
    "source_country": "IT",
    "country": "Italy",
    "state": "Emilia-Romagna",
    "city": "Cadelbosco di Sotto"
  },
  {
    "source_id": "ChIJ92_dOrU7gEcReBl9RwrRL6s",
    "name": "SISTEMA",
    "category": "SISTEMA",
    "formatted_address": "3,6(5)",
    "phone_number": "+3905221750007",
    "source_url": "https://www.google.com/maps/place/SISTEMA/data=!4m7!3m6!1s0x47803bb53add6ff7:0xab2fd10a477d1978!8m2!3d44.7990606!4d10.5653558!16s%2Fg%2F11r2hbkl1w!19sChIJ92_dOrU7gEcReBl9RwrRL6s?authuser=0&hl=tr&rclk=1",
    "website_url": "https://sistema.it/",
    "rating_text": "3,6",
    "stars": null,
    "number_of_reviews": null,
    "price_level": "",
    "open_hours": "",
    "extraction_timestamp": "2025-06-07T16:24:23.163Z",
    "source_name": "google",
    "source_query": "Irrigation Equipment",
    "source_country": "IT",
    "country": "Italy",
    "state": "Emilia-Romagna",
    "city": "Cadelbosco di Sotto"
  },
  {
    "source_id": "ChIJna7HjaQcgEcR2wnTD8_e_HY",
    "name": "Hydrocontrol S.R.L.",
    "category": "Hydrocontrol S.R.L.",
    "formatted_address": "4,4(7)",
    "phone_number": "+390522330315",
    "source_url": "https://www.google.com/maps/place/Hydrocontrol+S.R.L./data=!4m7!3m6!1s0x47801ca48dc7ae9d:0x76fcdecf0fd309db!8m2!3d44.669783!4d10.597142!16s%2Fg%2F12hmcfzzg!19sChIJna7HjaQcgEcR2wnTD8_e_HY?authuser=0&hl=tr&rclk=1",
    "website_url": "https://www.hydrocontrol.it/",
    "rating_text": "4,4",
    "stars": null,
    "number_of_reviews": null,
    "price_level": "",
    "open_hours": "",
    "extraction_timestamp": "2025-06-07T16:24:23.164Z",
    "source_name": "google",
    "source_query": "Irrigation Equipment",
    "source_country": "IT",
    "country": "Italy",
    "state": "Emilia-Romagna",
    "city": "Cadelbosco di Sotto"
  },
  {
    "source_id": "ChIJf7K7J70igEcRcuy1LHej7q8",
    "name": "Ferroni Srl",
    "category": "Ferroni Srl",
    "formatted_address": "3,7(6)",
    "phone_number": "+390522682484",
    "source_url": "https://www.google.com/maps/place/Ferroni+Srl/data=!4m7!3m6!1s0x478022bd27bbb27f:0xafeea3772cb5ec72!8m2!3d44.8189133!4d10.5704138!16s%2Fg%2F1tfqk72n!19sChIJf7K7J70igEcRcuy1LHej7q8?authuser=0&hl=tr&rclk=1",
    "website_url": "https://www.ferroni-srl.com/",
    "rating_text": "3,7",
    "stars": null,
    "number_of_reviews": null,
    "price_level": "",
    "open_hours": "",
    "extraction_timestamp": "2025-06-07T16:24:23.165Z",
    "source_name": "google",
    "source_query": "Irrigation Equipment",
    "source_country": "IT",
    "country": "Italy",
    "state": "Emilia-Romagna",
    "city": "Cadelbosco di Sotto"
  },
  {
    "source_id": "ChIJtVDkNgRFgEcRqc6umwWIJuI",
    "name": "Rm Spa",
    "category": "Rm Spa",
    "formatted_address": "4,6(81)",
    "phone_number": "+390521872321",
    "source_url": "https://www.google.com/maps/place/Rm+Spa/data=!4m7!3m6!1s0x4780450436e450b5:0xe22688059baecea9!8m2!3d44.9105406!4d10.2583785!16s%2Fg%2F12hl93byl!19sChIJtVDkNgRFgEcRqc6umwWIJuI?authuser=0&hl=tr&rclk=1",
    "website_url": "http://www.rmirrigation.com/",
    "rating_text": "4,6",
    "stars": null,
    "number_of_reviews": null,
    "price_level": "",
    "open_hours": "",
    "extraction_timestamp": "2025-06-07T16:24:23.166Z",
    "source_name": "google",
    "source_query": "Irrigation Equipment",
    "source_country": "IT",
    "country": "Italy",
    "state": "Emilia-Romagna",
    "city": "Cadelbosco di Sotto"
  },
  {
    "source_id": "ChIJJxS0kBIcgEcRSv5jSkkGAtI",
    "name": "Rama Motori Spa",
    "category": "Rama Motori Spa",
    "formatted_address": "4,7(20)",
    "phone_number": "+390522930711",
    "source_url": "https://www.google.com/maps/place/Rama+Motori+Spa/data=!4m7!3m6!1s0x47801c1290b41427:0xd20206494a63fe4a!8m2!3d44.7124856!4d10.6164255!16s%2Fg%2F1w4f6z1t!19sChIJJxS0kBIcgEcRSv5jSkkGAtI?authuser=0&hl=tr&rclk=1",
    "website_url": "https://www.ramamotori.it/",
    "rating_text": "4,7",
    "stars": null,
    "number_of_reviews": null,
    "price_level": "",
    "open_hours": "",
    "extraction_timestamp": "2025-06-07T16:24:23.167Z",
    "source_name": "google",
    "source_query": "Irrigation Equipment",
    "source_country": "IT",
    "country": "Italy",
    "state": "Emilia-Romagna",
    "city": "Cadelbosco di Sotto"
  },
  {
    "source_id": "ChIJNxmt4A6Lf0cR3eziXSHrUGA",
    "name": "Fert-Company",
    "category": "Fert-Company",
    "formatted_address": "4,2(13)",
    "phone_number": "+390522649280",
    "source_url": "https://www.google.com/maps/place/Fert-Company/data=!4m7!3m6!1s0x477f8b0ee0ad1937:0x6050eb215de2ecdd!8m2!3d44.8182065!4d10.8057437!16s%2Fg%2F11h1r3rfn!19sChIJNxmt4A6Lf0cR3eziXSHrUGA?authuser=0&hl=tr&rclk=1",
    "website_url": "",
    "rating_text": "4,2",
    "stars": null,
    "number_of_reviews": null,
    "price_level": "",
    "open_hours": "",
    "extraction_timestamp": "2025-06-07T16:24:23.168Z",
    "source_name": "google",
    "source_query": "Irrigation Equipment",
    "source_country": "IT",
    "country": "Italy",
    "state": "Emilia-Romagna",
    "city": "Cadelbosco di Sotto"
  },
  {
    "source_id": "ChIJqdtsqMTaf0cRFSqvzNBB5Tw",
    "name": "Ricchetti Irrigazione Snc Di Alberghini Paolo E C.",
    "category": "Ricchetti Irrigazione Snc Di Alberghini Paolo E C.",
    "formatted_address": "4,9(31)",
    "phone_number": "+39051950115",
    "source_url": "https://www.google.com/maps/place/Ricchetti+Irrigazione+Snc+Di+Alberghini+Paolo+E+C./data=!4m7!3m6!1s0x477fdac4a86cdba9:0x3ce541d0ccaf2a15!8m2!3d44.5883369!4d11.1803569!16s%2Fg%2F1vfn5hgh!19sChIJqdtsqMTaf0cRFSqvzNBB5Tw?authuser=0&hl=tr&rclk=1",
    "website_url": "http://www.ricchetti-irrigatori.it/",
    "rating_text": "4,9",
    "stars": null,
    "number_of_reviews": null,
    "price_level": "",
    "open_hours": "",
    "extraction_timestamp": "2025-06-07T16:24:23.170Z",
    "source_name": "google",
    "source_query": "Irrigation Equipment",
    "source_country": "IT",
    "country": "Italy",
    "state": "Emilia-Romagna",
    "city": "Cadelbosco di Sotto"
  },
  {
    "source_id": "ChIJa8flob_wf0cRa7XVBodnL2I",
    "name": "Arag Srl",
    "category": "Arag Srl",
    "formatted_address": "4,6(141)",
    "phone_number": "+390522622011",
    "source_url": "https://www.google.com/maps/place/Arag+Srl/data=!4m7!3m6!1s0x477ff0bfa1e5c76b:0x622f678706d5b56b!8m2!3d44.6556162!4d10.7922409!16s%2Fg%2F1tdnd2vb!19sChIJa8flob_wf0cRa7XVBodnL2I?authuser=0&hl=tr&rclk=1",
    "website_url": "http://www.aragnet.com/",
    "rating_text": "4,6",
    "stars": null,
    "number_of_reviews": null,
    "price_level": "",
    "open_hours": "",
    "extraction_timestamp": "2025-06-07T16:24:23.171Z",
    "source_name": "google",
    "source_query": "Irrigation Equipment",
    "source_country": "IT",
    "country": "Italy",
    "state": "Emilia-Romagna",
    "city": "Cadelbosco di Sotto"
  },
  {
    "source_id": "ChIJveAeFroEgEcRZfa9xqlB6vM",
    "name": "Morelli Irrigazioni",
    "category": "Morelli Irrigazioni",
    "formatted_address": "1,0(1)",
    "phone_number": "+393480042122",
    "source_url": "https://www.google.com/maps/place/Morelli+Irrigazioni/data=!4m7!3m6!1s0x478004ba161ee0bd:0xf3ea41a9c6bdf665!8m2!3d44.649256!4d10.5636837!16s%2Fg%2F11gy01p0bd!19sChIJveAeFroEgEcRZfa9xqlB6vM?authuser=0&hl=tr&rclk=1",
    "website_url": "http://irrigazionimorelli.it/",
    "rating_text": "1,0",
    "stars": null,
    "number_of_reviews": null,
    "price_level": "",
    "open_hours": "",
    "extraction_timestamp": "2025-06-07T16:24:23.172Z",
    "source_name": "google",
    "source_query": "Irrigation Equipment",
    "source_country": "IT",
    "country": "Italy",
    "state": "Emilia-Romagna",
    "city": "Cadelbosco di Sotto"
  },
  {
    "source_id": "ChIJu07AB0rif0cRnS0vXUM4l0M",
    "name": "IDROPLAST",
    "category": "IDROPLAST",
    "formatted_address": "4,1(66)",
    "phone_number": "+390536946864",
    "source_url": "https://www.google.com/maps/place/IDROPLAST/data=!4m7!3m6!1s0x477fe24a07c04ebb:0x439738435d2f2d9d!8m2!3d44.5278928!4d10.8902028!16s%2Fg%2F11b6jh694_!19sChIJu07AB0rif0cRnS0vXUM4l0M?authuser=0&hl=tr&rclk=1",
    "website_url": "",
    "rating_text": "4,1",
    "stars": null,
    "number_of_reviews": null,
    "price_level": "",
    "open_hours": "",
    "extraction_timestamp": "2025-06-07T16:24:23.173Z",
    "source_name": "google",
    "source_query": "Irrigation Equipment",
    "source_country": "IT",
    "country": "Italy",
    "state": "Emilia-Romagna",
    "city": "Cadelbosco di Sotto"
  },
  {
    "source_id": "ChIJywYeExzdf0cRhfr55_LZC8w",
    "name": "Geocentro",
    "category": "Geocentro",
    "formatted_address": "3,8(5)",
    "phone_number": "+39059927676",
    "source_url": "https://www.google.com/maps/place/Geocentro/data=!4m7!3m6!1s0x477fdd1c131e06cb:0xcc0bd9f2e7f9fa85!8m2!3d44.5871226!4d11.0681616!16s%2Fg%2F11cn3pjh5j!19sChIJywYeExzdf0cRhfr55_LZC8w?authuser=0&hl=tr&rclk=1",
    "website_url": "https://www.geocentro.it/",
    "rating_text": "3,8",
    "stars": null,
    "number_of_reviews": null,
    "price_level": "",
    "open_hours": "",
    "extraction_timestamp": "2025-06-07T16:24:23.174Z",
    "source_name": "google",
    "source_query": "Irrigation Equipment",
    "source_country": "IT",
    "country": "Italy",
    "state": "Emilia-Romagna",
    "city": "Cadelbosco di Sotto"
  },
  {
    "source_id": "ChIJNUxmUXGJf0cRSCx0_feqVX4",
    "name": "Rovatti Pompe (SPA)",
    "category": "Rovatti Pompe (SPA)",
    "formatted_address": "4,2(10)",
    "phone_number": "+390522665000",
    "source_url": "https://www.google.com/maps/place/Rovatti+Pompe+%28SPA%29/data=!4m7!3m6!1s0x477f897151664c35:0x7e55aaf7fd742c48!8m2!3d44.8738517!4d10.8130664!16s%2Fg%2F1tn4x002!19sChIJNUxmUXGJf0cRSCx0_feqVX4?authuser=0&hl=tr&rclk=1",
    "website_url": "https://www.rovatti.it/",
    "rating_text": "4,2",
    "stars": null,
    "number_of_reviews": null,
    "price_level": "",
    "open_hours": "",
    "extraction_timestamp": "2025-06-07T16:24:23.175Z",
    "source_name": "google",
    "source_query": "Irrigation Equipment",
    "source_country": "IT",
    "country": "Italy",
    "state": "Emilia-Romagna",
    "city": "Cadelbosco di Sotto"
  },
  {
    "source_id": "ChIJtdJC5j6Zf0cRmmVcuMyNEW0",
    "name": "Tadei | Impianti irrigazione | Robot tagliaerba | Barbecue | Outdoor",
    "category": "Tadei | Impianti irrigazione | Robot tagliaerba | Barbecue | Outdoor",
    "formatted_address": "4,6(69)",
    "phone_number": "+390386733460",
    "source_url": "https://www.google.com/maps/place/Tadei+%7C+Impianti+irrigazione+%7C+Robot+tagliaerba+%7C+Barbecue+%7C+Outdoor/data=!4m7!3m6!1s0x477f993ee642d2b5:0x6d118dccb85c659a!8m2!3d44.9680645!4d11.1076526!16s%2Fg%2F113dpgnd_!19sChIJtdJC5j6Zf0cRmmVcuMyNEW0?authuser=0&hl=tr&rclk=1",
    "website_url": "https://www.irrigazionetadei.it/",
    "rating_text": "4,6",
    "stars": null,
    "number_of_reviews": null,
    "price_level": "",
    "open_hours": "",
    "extraction_timestamp": "2025-06-07T16:24:23.176Z",
    "source_name": "google",
    "source_query": "Irrigation Equipment",
    "source_country": "IT",
    "country": "Italy",
    "state": "Emilia-Romagna",
    "city": "Cadelbosco di Sotto"
  },
  {
    "source_id": "ChIJT6T0BhUZgEcRQ-Xq1QFhxj4",
    "name": "Fertec snc",
    "category": "Fertec snc",
    "formatted_address": "4,4(187)",
    "phone_number": "+390522917044",
    "source_url": "https://www.google.com/maps/place/Fertec+snc/data=!4m7!3m6!1s0x4780191506f4a44f:0x3ec66101d5eae543!8m2!3d44.7529666!4d10.5931112!16s%2Fg%2F1hhkpf0gs!19sChIJT6T0BhUZgEcRQ-Xq1QFhxj4?authuser=0&hl=tr&rclk=1",
    "website_url": "http://www.fertecsnc.com/",
    "rating_text": "4,4",
    "stars": null,
    "number_of_reviews": null,
    "price_level": "",
    "open_hours": "",
    "extraction_timestamp": "2025-06-07T16:24:23.177Z",
    "source_name": "google",
    "source_query": "Irrigation Equipment",
    "source_country": "IT",
    "country": "Italy",
    "state": "Emilia-Romagna",
    "city": "Cadelbosco di Sotto"
  },
  {
    "source_id": "ChIJ-eLL5ShMfkcRkJZIiiw4RaU",
    "name": "P.M. di Peverati M. srl",
    "category": "P.M. di Peverati M. srl",
    "formatted_address": "4,7(50)",
    "phone_number": "+39053294452",
    "source_url": "https://www.google.com/maps/place/P.M.+di+Peverati+M.+srl/data=!4m7!3m6!1s0x477e4c28e5cbe2f9:0xa545382c8a489690!8m2!3d44.8147477!4d11.5887959!16s%2Fg%2F1thp6v8g!19sChIJ-eLL5ShMfkcRkJZIiiw4RaU?authuser=0&hl=tr&rclk=1",
    "website_url": "http://www.pmpeverati.it/",
    "rating_text": "4,7",
    "stars": null,
    "number_of_reviews": null,
    "price_level": "",
    "open_hours": "",
    "extraction_timestamp": "2025-06-07T16:24:23.178Z",
    "source_name": "google",
    "source_query": "Irrigation Equipment",
    "source_country": "IT",
    "country": "Italy",
    "state": "Emilia-Romagna",
    "city": "Cadelbosco di Sotto"
  },
  {
    "source_id": "ChIJc_FRC6Ltf0cRdOFGl6sEcxM",
    "name": "Emmebi Agrotecnica",
    "category": "Emmebi Agrotecnica",
    "formatted_address": "4,5(123)",
    "phone_number": "+39059566838",
    "source_url": "https://www.google.com/maps/place/Emmebi+Agrotecnica/data=!4m7!3m6!1s0x477feda20b51f173:0x137304ab9746e174!8m2!3d44.7330703!4d10.9184999!16s%2Fg%2F1q62bql9t!19sChIJc_FRC6Ltf0cRdOFGl6sEcxM?authuser=0&hl=tr&rclk=1",
    "website_url": "https://www.gogoverde.it/",
    "rating_text": "4,5",
    "stars": null,
    "number_of_reviews": null,
    "price_level": "",
    "open_hours": "",
    "extraction_timestamp": "2025-06-07T16:24:23.179Z",
    "source_name": "google",
    "source_query": "Irrigation Equipment",
    "source_country": "IT",
    "country": "Italy",
    "state": "Emilia-Romagna",
    "city": "Cadelbosco di Sotto"
  }
]
