[
  {
    "source_id": "ChIJh3Nd8G0sfkcR_m7VewEmxXM",
    "name": "Irrigarden",
    "category": "Irrigarden",
    "formatted_address": "4,7(158)",
    "phone_number": "+39051782013",
    "source_url": "https://www.google.com/maps/place/Irrigarden/data=!4m7!3m6!1s0x477e2c6df05d7387:0x73c526017bd56efe!8m2!3d44.5096266!4d11.4390897!16s%2Fg%2F1vgw_l7w!19sChIJh3Nd8G0sfkcR_m7VewEmxXM?authuser=0&hl=tr&rclk=1",
    "website_url": "https://www.irrigarden-bo.it/",
    "rating_text": "4,7",
    "stars": null,
    "number_of_reviews": null,
    "price_level": "",
    "open_hours": "",
    "extraction_timestamp": "2025-06-07T15:47:41.980Z",
    "source_name": "google",
    "source_query": "Irrigation Equipment",
    "source_country": "IT",
    "country": "Italy",
    "state": "Emilia-Romagna",
    "city": "Calderara di Reno"
  },
  {
    "source_id": "ChIJE_3jOnMtfkcRkxtTFj3Ym9E",
    "name": "Irrigation Scarabelli Srl",
    "category": "Irrigation Scarabelli Srl",
    "formatted_address": "4,5(23)",
    "phone_number": "+39051763363",
    "source_url": "https://www.google.com/maps/place/Irrigation+Scarabelli+Srl/data=!4m7!3m6!1s0x477e2d733ae3fd13:0xd19bd83d16531b93!8m2!3d44.5426053!4d11.4189136!16s%2Fg%2F11gzdz6vf!19sChIJE_3jOnMtfkcRkxtTFj3Ym9E?authuser=0&hl=tr&rclk=1",
    "website_url": "",
    "rating_text": "4,5",
    "stars": null,
    "number_of_reviews": null,
    "price_level": "",
    "open_hours": "",
    "extraction_timestamp": "2025-06-07T15:47:41.982Z",
    "source_name": "google",
    "source_query": "Irrigation Equipment",
    "source_country": "IT",
    "country": "Italy",
    "state": "Emilia-Romagna",
    "city": "Calderara di Reno"
  },
  {
    "source_id": "ChIJyXgg68QrfkcRAaJCOMJ3PxY",
    "name": "hidrisistem",
    "category": "hidrisistem",
    "formatted_address": "5,0(1)",
    "phone_number": "+39366448310824",
    "source_url": "https://www.google.com/maps/place/hidrisistem/data=!4m7!3m6!1s0x477e2bc4eb2078c9:0x163f77c23842a201!8m2!3d44.496029!4d11.402638!16s%2Fg%2F11w_zjhjy3!19sChIJyXgg68QrfkcRAaJCOMJ3PxY?authuser=0&hl=tr&rclk=1",
    "website_url": "",
    "rating_text": "5,0",
    "stars": null,
    "number_of_reviews": null,
    "price_level": "",
    "open_hours": "",
    "extraction_timestamp": "2025-06-07T15:47:41.983Z",
    "source_name": "google",
    "source_query": "Irrigation Equipment",
    "source_country": "IT",
    "country": "Italy",
    "state": "Emilia-Romagna",
    "city": "Calderara di Reno"
  },
  {
    "source_id": "ChIJ_SYf2IMsfkcRVw9xVhrnjyI",
    "name": "Irrigazione Bragaglia",
    "category": "Irrigazione Bragaglia",
    "formatted_address": "4,7(30)",
    "phone_number": "+39051534865",
    "source_url": "https://www.google.com/maps/place/Irrigazione+Bragaglia/data=!4m7!3m6!1s0x477e2c83d81f26fd:0x228fe71a56710f57!8m2!3d44.5053735!4d11.412403!16s%2Fg%2F1vp6z0gf!19sChIJ_SYf2IMsfkcRVw9xVhrnjyI?authuser=0&hl=tr&rclk=1",
    "website_url": "http://www.irrigazionebragaglia.it/",
    "rating_text": "4,7",
    "stars": null,
    "number_of_reviews": null,
    "price_level": "",
    "open_hours": "",
    "extraction_timestamp": "2025-06-07T15:47:41.984Z",
    "source_name": "google",
    "source_query": "Irrigation Equipment",
    "source_country": "IT",
    "country": "Italy",
    "state": "Emilia-Romagna",
    "city": "Calderara di Reno"
  },
  {
    "source_id": "ChIJqdtsqMTaf0cRFSqvzNBB5Tw",
    "name": "Ricchetti Irrigazione Snc Di Alberghini Paolo E C.",
    "category": "Ricchetti Irrigazione Snc Di Alberghini Paolo E C.",
    "formatted_address": "4,9(31)",
    "phone_number": "+39051950115",
    "source_url": "https://www.google.com/maps/place/Ricchetti+Irrigazione+Snc+Di+Alberghini+Paolo+E+C./data=!4m7!3m6!1s0x477fdac4a86cdba9:0x3ce541d0ccaf2a15!8m2!3d44.5883369!4d11.1803569!16s%2Fg%2F1vfn5hgh!19sChIJqdtsqMTaf0cRFSqvzNBB5Tw?authuser=0&hl=tr&rclk=1",
    "website_url": "http://www.ricchetti-irrigatori.it/",
    "rating_text": "4,9",
    "stars": null,
    "number_of_reviews": null,
    "price_level": "",
    "open_hours": "",
    "extraction_timestamp": "2025-06-07T15:47:41.985Z",
    "source_name": "google",
    "source_query": "Irrigation Equipment",
    "source_country": "IT",
    "country": "Italy",
    "state": "Emilia-Romagna",
    "city": "Calderara di Reno"
  },
  {
    "source_id": "ChIJ1Xu_E2vRf0cRost6pHSCWlA",
    "name": "G.E.I. Energia Srl - Costruzione, Vendita, Noleggio e Manutenzione Gruppi Elettrogeni",
    "category": "G.E.I. Energia Srl - Costruzione, Vendita, Noleggio e Manutenzione Gruppi Elettrogeni",
    "formatted_address": "G.E.I. Energia Srl - Costruzione, Vendita, Noleggio e Manutenzione Gruppi Elettrogeni",
    "phone_number": "+393939139232",
    "source_url": "https://www.google.com/maps/place/G.E.I.+Energia+Srl+-+Costruzione,+Vendita,+Noleggio+e+Manutenzione+Gruppi+Elettrogeni/data=!4m7!3m6!1s0x477fd16b13bf7bd5:0x505a8274a47acba2!8m2!3d44.5389027!4d11.2684322!16s%2Fg%2F1tgnw1t7!19sChIJ1Xu_E2vRf0cRost6pHSCWlA?authuser=0&hl=tr&rclk=1",
    "website_url": "http://www.geienergia.it/",
    "rating_text": "5,0",
    "stars": null,
    "number_of_reviews": null,
    "price_level": "",
    "open_hours": "",
    "extraction_timestamp": "2025-06-07T15:47:41.987Z",
    "source_name": "google",
    "source_query": "Irrigation Equipment",
    "source_country": "IT",
    "country": "Italy",
    "state": "Emilia-Romagna",
    "city": "Calderara di Reno"
  },
  {
    "source_id": "ChIJA34G9j_Qf0cRlK7dWTovUo4",
    "name": "Interpump Hydraulics Spa",
    "category": "Interpump Hydraulics Spa",
    "formatted_address": "4,7(20)",
    "phone_number": "+390516460511",
    "source_url": "https://www.google.com/maps/place/Interpump+Hydraulics+Spa/data=!4m7!3m6!1s0x477fd03ff6067e03:0x8e522f3a59ddae94!8m2!3d44.535085!4d11.2694634!16s%2Fg%2F1hc4tq6kl!19sChIJA34G9j_Qf0cRlK7dWTovUo4?authuser=0&hl=tr&rclk=1",
    "website_url": "https://iph.it/",
    "rating_text": "4,7",
    "stars": null,
    "number_of_reviews": null,
    "price_level": "",
    "open_hours": "",
    "extraction_timestamp": "2025-06-07T15:47:41.989Z",
    "source_name": "google",
    "source_query": "Irrigation Equipment",
    "source_country": "IT",
    "country": "Italy",
    "state": "Emilia-Romagna",
    "city": "Calderara di Reno"
  },
  {
    "source_id": "ChIJi3eEC9vRf0cR9kMtj9G6EwE",
    "name": "Geovita S.r.l. Calderara di Reno",
    "category": "Geovita S.r.l. Calderara di Reno",
    "formatted_address": "4,1(50)",
    "phone_number": "+39051722121",
    "source_url": "https://www.google.com/maps/place/Geovita+S.r.l.+Calderara+di+Reno/data=!4m7!3m6!1s0x477fd1db0b84778b:0x113bad18f2d43f6!8m2!3d44.5837631!4d11.2767353!16s%2Fg%2F11fj10rmj5!19sChIJi3eEC9vRf0cR9kMtj9G6EwE?authuser=0&hl=tr&rclk=1",
    "website_url": "",
    "rating_text": "4,1",
    "stars": null,
    "number_of_reviews": null,
    "price_level": "",
    "open_hours": "",
    "extraction_timestamp": "2025-06-07T15:47:41.990Z",
    "source_name": "google",
    "source_query": "Irrigation Equipment",
    "source_country": "IT",
    "country": "Italy",
    "state": "Emilia-Romagna",
    "city": "Calderara di Reno"
  },
  {
    "source_id": "ChIJBcSLxUzRf0cRYWGOqF1w_IQ",
    "name": "C.P.A s.r.l - BOLOGNA",
    "category": "C.P.A s.r.l - BOLOGNA",
    "formatted_address": "5,0(2)",
    "phone_number": "+390510910601",
    "source_url": "https://www.google.com/maps/place/C.P.A+s.r.l+-+BOLOGNA/data=!4m7!3m6!1s0x477fd14cc58bc405:0x84fc705da88e6161!8m2!3d44.5572667!4d11.2802991!16s%2Fg%2F11sk3pvnw4!19sChIJBcSLxUzRf0cRYWGOqF1w_IQ?authuser=0&hl=tr&rclk=1",
    "website_url": "http://www.cpa-piscine.com/",
    "rating_text": "5,0",
    "stars": null,
    "number_of_reviews": null,
    "price_level": "",
    "open_hours": "",
    "extraction_timestamp": "2025-06-07T15:47:41.991Z",
    "source_name": "google",
    "source_query": "Irrigation Equipment",
    "source_country": "IT",
    "country": "Italy",
    "state": "Emilia-Romagna",
    "city": "Calderara di Reno"
  },
  {
    "source_id": "ChIJj6lqi20sfkcRzOHfxextuA0",
    "name": "La Pioggia",
    "category": "La Pioggia",
    "formatted_address": "4,6(54)",
    "phone_number": "+39051781194",
    "source_url": "https://www.google.com/maps/place/La+Pioggia/data=!4m7!3m6!1s0x477e2c6d8b6aa98f:0xdb86decc5dfe1cc!8m2!3d44.5092215!4d11.4394615!16s%2Fg%2F1tffc0h0!19sChIJj6lqi20sfkcRzOHfxextuA0?authuser=0&hl=tr&rclk=1",
    "website_url": "http://www.lapioggia.it/",
    "rating_text": "4,6",
    "stars": null,
    "number_of_reviews": null,
    "price_level": "",
    "open_hours": "",
    "extraction_timestamp": "2025-06-07T15:47:41.992Z",
    "source_name": "google",
    "source_query": "Irrigation Equipment",
    "source_country": "IT",
    "country": "Italy",
    "state": "Emilia-Romagna",
    "city": "Calderara di Reno"
  },
  {
    "source_id": "ChIJtVDkNgRFgEcRqc6umwWIJuI",
    "name": "Rm Spa",
    "category": "Rm Spa",
    "formatted_address": "4,6(81)",
    "phone_number": "+390521872321",
    "source_url": "https://www.google.com/maps/place/Rm+Spa/data=!4m7!3m6!1s0x4780450436e450b5:0xe22688059baecea9!8m2!3d44.9105406!4d10.2583785!16s%2Fg%2F12hl93byl!19sChIJtVDkNgRFgEcRqc6umwWIJuI?authuser=0&hl=tr&rclk=1",
    "website_url": "http://www.rmirrigation.com/",
    "rating_text": "4,6",
    "stars": null,
    "number_of_reviews": null,
    "price_level": "",
    "open_hours": "",
    "extraction_timestamp": "2025-06-07T15:47:41.994Z",
    "source_name": "google",
    "source_query": "Irrigation Equipment",
    "source_country": "IT",
    "country": "Italy",
    "state": "Emilia-Romagna",
    "city": "Calderara di Reno"
  },
  {
    "source_id": "ChIJ4f0MXkHRf0cRt8XT-F86zk4",
    "name": "Draintech s.r.l. Gruppo Transtecno Interpump",
    "category": "Draintech s.r.l. Gruppo Transtecno Interpump",
    "formatted_address": "4,4(5)",
    "phone_number": "+39051727447",
    "source_url": "https://www.google.com/maps/place/Draintech+s.r.l.+Gruppo+Transtecno+Interpump/data=!4m7!3m6!1s0x477fd1415e0cfde1:0x4ece3a5ff8d3c5b7!8m2!3d44.5355338!4d11.219571!16s%2Fg%2F11b6j8bd0w!19sChIJ4f0MXkHRf0cRt8XT-F86zk4?authuser=0&hl=tr&rclk=1",
    "website_url": "http://www.draintech.it/",
    "rating_text": "4,4",
    "stars": null,
    "number_of_reviews": null,
    "price_level": "",
    "open_hours": "",
    "extraction_timestamp": "2025-06-07T15:47:41.995Z",
    "source_name": "google",
    "source_query": "Irrigation Equipment",
    "source_country": "IT",
    "country": "Italy",
    "state": "Emilia-Romagna",
    "city": "Calderara di Reno"
  },
  {
    "source_id": "ChIJMZRnRJbRf0cRrjbVuGWv3fw",
    "name": "EMCAVI SPA",
    "category": "EMCAVI SPA",
    "formatted_address": "3,0(3)",
    "phone_number": "+39051722012",
    "source_url": "https://www.google.com/maps/place/EMCAVI+SPA/data=!4m7!3m6!1s0x477fd19644679431:0xfcddaf65b8d536ae!8m2!3d44.5657791!4d11.2794027!16s%2Fg%2F1vbl6f9n!19sChIJMZRnRJbRf0cRrjbVuGWv3fw?authuser=0&hl=tr&rclk=1",
    "website_url": "",
    "rating_text": "3,0",
    "stars": null,
    "number_of_reviews": null,
    "price_level": "",
    "open_hours": "",
    "extraction_timestamp": "2025-06-07T15:47:41.996Z",
    "source_name": "google",
    "source_query": "Irrigation Equipment",
    "source_country": "IT",
    "country": "Italy",
    "state": "Emilia-Romagna",
    "city": "Calderara di Reno"
  },
  {
    "source_id": "ChIJQ8fJol1SKxMRShirn3slxH4",
    "name": "Tecnir",
    "category": "Tecnir",
    "formatted_address": "4,4(17)",
    "phone_number": "+390546641026",
    "source_url": "https://www.google.com/maps/place/Tecnir/data=!4m7!3m6!1s0x132b525da2c9c743:0x7ec4257b9fab184a!8m2!3d44.363732!4d11.935557!16s%2Fg%2F1vfps_3m!19sChIJQ8fJol1SKxMRShirn3slxH4?authuser=0&hl=tr&rclk=1",
    "website_url": "https://www.tecnirirrigazione.it/",
    "rating_text": "4,4",
    "stars": null,
    "number_of_reviews": null,
    "price_level": "",
    "open_hours": "",
    "extraction_timestamp": "2025-06-07T15:47:41.996Z",
    "source_name": "google",
    "source_query": "Irrigation Equipment",
    "source_country": "IT",
    "country": "Italy",
    "state": "Emilia-Romagna",
    "city": "Calderara di Reno"
  },
  {
    "source_id": "ChIJ9wMJV3IlfkcRWRdzdhVtwlQ",
    "name": "Bilacchi Irrigazione S.A.S. di Bilacchi Simone & C.",
    "category": "Bilacchi Irrigazione S.A.S. di Bilacchi Simone & C.",
    "formatted_address": "4,0(7)",
    "phone_number": "+393397998443",
    "source_url": "https://www.google.com/maps/place/Bilacchi+Irrigazione+S.A.S.+di+Bilacchi+Simone+%26+C./data=!4m7!3m6!1s0x477e2572570903f7:0x54c26d1576731759!8m2!3d44.4799432!4d11.6323261!16s%2Fg%2F11rk4fchy5!19sChIJ9wMJV3IlfkcRWRdzdhVtwlQ?authuser=0&hl=tr&rclk=1",
    "website_url": "https://irrigazionebilacchi.it/",
    "rating_text": "4,0",
    "stars": null,
    "number_of_reviews": null,
    "price_level": "",
    "open_hours": "",
    "extraction_timestamp": "2025-06-07T15:47:41.998Z",
    "source_name": "google",
    "source_query": "Irrigation Equipment",
    "source_country": "IT",
    "country": "Italy",
    "state": "Emilia-Romagna",
    "city": "Calderara di Reno"
  },
  {
    "source_id": "ChIJp2R3w7_Qf0cRHlt9J4ovm_o",
    "name": "Irritec S.p.A. - Stabilimento F",
    "category": "Irritec S.p.A. - Stabilimento F",
    "formatted_address": "5,0(2)",
    "phone_number": "+390516508020",
    "source_url": "https://www.google.com/maps/place/Irritec+S.p.A.+-+Stabilimento+F/data=!4m7!3m6!1s0x477fd0bfc37764a7:0xfa9b2f8a277d5b1e!8m2!3d44.6210254!4d11.3703614!16s%2Fg%2F1xpwhmq4!19sChIJp2R3w7_Qf0cRHlt9J4ovm_o?authuser=0&hl=tr&rclk=1",
    "website_url": "http://www.irritec.com/",
    "rating_text": "5,0",
    "stars": null,
    "number_of_reviews": null,
    "price_level": "",
    "open_hours": "",
    "extraction_timestamp": "2025-06-07T15:47:42.013Z",
    "source_name": "google",
    "source_query": "Irrigation Equipment",
    "source_country": "IT",
    "country": "Italy",
    "state": "Emilia-Romagna",
    "city": "Calderara di Reno"
  },
  {
    "source_id": "ChIJcbaPh73Rf0cRjVaDXO13UTU",
    "name": "Nuova Otes",
    "category": "Nuova Otes",
    "formatted_address": "4,0(2)",
    "phone_number": "+39051722801",
    "source_url": "https://www.google.com/maps/place/Nuova+Otes/data=!4m7!3m6!1s0x477fd1bd878fb671:0x355177ed5c83568d!8m2!3d44.5660136!4d11.2772926!16s%2Fg%2F11bc7sqyxh!19sChIJcbaPh73Rf0cRjVaDXO13UTU?authuser=0&hl=tr&rclk=1",
    "website_url": "https://www.nuovaotes.com/",
    "rating_text": "4,0",
    "stars": null,
    "number_of_reviews": null,
    "price_level": "",
    "open_hours": "",
    "extraction_timestamp": "2025-06-07T15:47:42.014Z",
    "source_name": "google",
    "source_query": "Irrigation Equipment",
    "source_country": "IT",
    "country": "Italy",
    "state": "Emilia-Romagna",
    "city": "Calderara di Reno"
  },
  {
    "source_id": "ChIJCXuseTHTf0cRzptQ0pGelFU",
    "name": "Alpe Hydraulic Systems Water Meters",
    "category": "Alpe Hydraulic Systems Water Meters",
    "formatted_address": "Su Hizmeti Sağlayıcısı · Via del Gomito, 23+39 051 326854",
    "phone_number": "+39051326854",
    "source_url": "https://www.google.com/maps/place/Alpe+Hydraulic+Systems+Water+Meters/data=!4m7!3m6!1s0x477fd33179ac7b09:0x55949e91d2509bce!8m2!3d44.531701!4d11.3753288!16s%2Fg%2F1tjt0slq!19sChIJCXuseTHTf0cRzptQ0pGelFU?authuser=0&hl=tr&rclk=1",
    "website_url": "http://www.ahs.it/",
    "rating_text": "",
    "stars": null,
    "number_of_reviews": null,
    "price_level": "",
    "open_hours": "",
    "extraction_timestamp": "2025-06-07T15:47:42.014Z",
    "source_name": "google",
    "source_query": "Irrigation Equipment",
    "source_country": "IT",
    "country": "Italy",
    "state": "Emilia-Romagna",
    "city": "Calderara di Reno"
  },
  {
    "source_id": "ChIJdbi1mvUlfkcRw_VX1yUWxp8",
    "name": "Hydro Italia srl - Trattamento e Depurazione Acque Industriali",
    "category": "Hydro Italia srl - Trattamento e Depurazione Acque Industriali",
    "formatted_address": "4,0(2)",
    "phone_number": "+39051856263",
    "source_url": "https://www.google.com/maps/place/Hydro+Italia+srl+-+Trattamento+e+Depurazione+Acque+Industriali/data=!4m7!3m6!1s0x477e25f59ab5b875:0x9fc61625d757f5c3!8m2!3d44.5025405!4d11.560667!16s%2Fg%2F1tdjp_4w!19sChIJdbi1mvUlfkcRw_VX1yUWxp8?authuser=0&hl=tr&rclk=1",
    "website_url": "https://www.hydroitalia.com/?utm_source=google&utm_medium=mybusiness&utm_campaign=url-sito",
    "rating_text": "4,0",
    "stars": null,
    "number_of_reviews": null,
    "price_level": "",
    "open_hours": "",
    "extraction_timestamp": "2025-06-07T15:47:42.015Z",
    "source_name": "google",
    "source_query": "Irrigation Equipment",
    "source_country": "IT",
    "country": "Italy",
    "state": "Emilia-Romagna",
    "city": "Calderara di Reno"
  },
  {
    "source_id": "ChIJJ6V6lMDgf0cR1SpFsfjDuHg",
    "name": "Ocmis Irrigazione Spa",
    "category": "Ocmis Irrigazione Spa",
    "formatted_address": "3,5(31)",
    "phone_number": "+39059702150",
    "source_url": "https://www.google.com/maps/place/Ocmis+Irrigazione+Spa/data=!4m7!3m6!1s0x477fe0c0947aa527:0x78b8c3f8b1452ad5!8m2!3d44.530494!4d10.9794578!16s%2Fg%2F1vd3tn19!19sChIJJ6V6lMDgf0cR1SpFsfjDuHg?authuser=0&hl=tr&rclk=1",
    "website_url": "http://www.ocmis-irrigazione.it/",
    "rating_text": "3,5",
    "stars": null,
    "number_of_reviews": null,
    "price_level": "",
    "open_hours": "",
    "extraction_timestamp": "2025-06-07T15:47:42.016Z",
    "source_name": "google",
    "source_query": "Irrigation Equipment",
    "source_country": "IT",
    "country": "Italy",
    "state": "Emilia-Romagna",
    "city": "Calderara di Reno"
  },
  {
    "source_id": "ChIJfRtZdMvUf0cRw4qmsOOrR8U",
    "name": "Drogheria Olimpia",
    "category": "Drogheria Olimpia",
    "formatted_address": "4,8(125)",
    "phone_number": "+390516142085",
    "source_url": "https://www.google.com/maps/place/Drogheria+Olimpia/data=!4m7!3m6!1s0x477fd4cb74591b7d:0xc547abe3b0a68ac3!8m2!3d44.495307!4d11.3236584!16s%2Fg%2F124yq5pm6!19sChIJfRtZdMvUf0cRw4qmsOOrR8U?authuser=0&hl=tr&rclk=1",
    "website_url": "https://www.drogheriaolimpia.com/",
    "rating_text": "4,8",
    "stars": null,
    "number_of_reviews": null,
    "price_level": "",
    "open_hours": "",
    "extraction_timestamp": "2025-06-07T15:47:42.017Z",
    "source_name": "google",
    "source_query": "Irrigation Equipment",
    "source_country": "IT",
    "country": "Italy",
    "state": "Emilia-Romagna",
    "city": "Calderara di Reno"
  },
  {
    "source_id": "ChIJi0lw4Rvdf0cRFQ8TJ8Oj1b4",
    "name": "Noah's Ark",
    "category": "Noah's Ark",
    "formatted_address": "4,4(378)",
    "phone_number": "+39059920586",
    "source_url": "https://www.google.com/maps/place/Noah%27s+Ark/data=!4m7!3m6!1s0x477fdd1be170498b:0xbed5a3c327130f15!8m2!3d44.5881165!4d11.066547!16s%2Fg%2F11c743ys9d!19sChIJi0lw4Rvdf0cRFQ8TJ8Oj1b4?authuser=0&hl=tr&rclk=1",
    "website_url": "https://www.larcadinoepetshop.it/",
    "rating_text": "4,4",
    "stars": null,
    "number_of_reviews": null,
    "price_level": "",
    "open_hours": "",
    "extraction_timestamp": "2025-06-07T15:47:42.018Z",
    "source_name": "google",
    "source_query": "Irrigation Equipment",
    "source_country": "IT",
    "country": "Italy",
    "state": "Emilia-Romagna",
    "city": "Calderara di Reno"
  },
  {
    "source_id": "ChIJ4QGh9bjUKhMRDRq03sajDzM",
    "name": "AERBOLOGNA Srl",
    "category": "AERBOLOGNA Srl",
    "formatted_address": "4,8(22)",
    "phone_number": "+390516784203",
    "source_url": "https://www.google.com/maps/place/AERBOLOGNA+Srl/data=!4m7!3m6!1s0x132ad4b8f5a101e1:0x330fa3c6deb41a0d!8m2!3d44.5422483!4d11.2057804!16s%2Fg%2F11g9gq0jp3!19sChIJ4QGh9bjUKhMRDRq03sajDzM?authuser=0&hl=tr&rclk=1",
    "website_url": "http://www.aerbologna.it/",
    "rating_text": "4,8",
    "stars": null,
    "number_of_reviews": null,
    "price_level": "",
    "open_hours": "",
    "extraction_timestamp": "2025-06-07T15:47:42.019Z",
    "source_name": "google",
    "source_query": "Irrigation Equipment",
    "source_country": "IT",
    "country": "Italy",
    "state": "Emilia-Romagna",
    "city": "Calderara di Reno"
  },
  {
    "source_id": "ChIJcQG6ul7df0cR3VxKiu5OPBs",
    "name": "Scova Impianti Srl",
    "category": "Scova Impianti Srl",
    "formatted_address": "4,5(64)",
    "phone_number": "+39059923202",
    "source_url": "https://www.google.com/maps/place/Scova+Impianti+Srl/data=!4m7!3m6!1s0x477fdd5ebaba0171:0x1b3c4eee8a4a5cdd!8m2!3d44.6018135!4d11.032294!16s%2Fg%2F1tfzwbfb!19sChIJcQG6ul7df0cR3VxKiu5OPBs?authuser=0&hl=tr&rclk=1",
    "website_url": "https://www.scovaimpianti.com/",
    "rating_text": "4,5",
    "stars": null,
    "number_of_reviews": null,
    "price_level": "",
    "open_hours": "",
    "extraction_timestamp": "2025-06-07T15:47:42.020Z",
    "source_name": "google",
    "source_query": "Irrigation Equipment",
    "source_country": "IT",
    "country": "Italy",
    "state": "Emilia-Romagna",
    "city": "Calderara di Reno"
  },
  {
    "source_id": "ChIJVVK_h23Rf0cRvKffiQC1wFQ",
    "name": "Gruppo Ciicai - magazzino di Calderara di Reno",
    "category": "Gruppo Ciicai - magazzino di Calderara di Reno",
    "formatted_address": "4,4(66)",
    "phone_number": "+390516464711",
    "source_url": "https://www.google.com/maps/place/Gruppo+Ciicai+-+magazzino+di+Calderara+di+Reno/data=!4m7!3m6!1s0x477fd16d87bf5255:0x54c0b50089dfa7bc!8m2!3d44.5373306!4d11.2707033!16s%2Fg%2F11f7q_s__b!19sChIJVVK_h23Rf0cRvKffiQC1wFQ?authuser=0&hl=tr&rclk=1",
    "website_url": "http://www.ciicai.com/",
    "rating_text": "4,4",
    "stars": null,
    "number_of_reviews": null,
    "price_level": "",
    "open_hours": "",
    "extraction_timestamp": "2025-06-07T15:47:42.022Z",
    "source_name": "google",
    "source_query": "Irrigation Equipment",
    "source_country": "IT",
    "country": "Italy",
    "state": "Emilia-Romagna",
    "city": "Calderara di Reno"
  },
  {
    "source_id": "ChIJRerYKJTUf0cRgVv-_-oHJNo",
    "name": "Hardware Boriani s.a.s.di S. Piancastelli & C.",
    "category": "Hardware Boriani s.a.s.di S. Piancastelli & C.",
    "formatted_address": "4,7(118)",
    "phone_number": "+39051225812",
    "source_url": "https://www.google.com/maps/place/Hardware+Boriani+s.a.s.di+S.+Piancastelli+%26+C./data=!4m7!3m6!1s0x477fd49428d8ea45:0xda2407eafffe5b81!8m2!3d44.4956402!4d11.3406184!16s%2Fg%2F1tsbkzv0!19sChIJRerYKJTUf0cRgVv-_-oHJNo?authuser=0&hl=tr&rclk=1",
    "website_url": "https://www.ferramentaboriani.com/",
    "rating_text": "4,7",
    "stars": null,
    "number_of_reviews": null,
    "price_level": "",
    "open_hours": "",
    "extraction_timestamp": "2025-06-07T15:47:42.023Z",
    "source_name": "google",
    "source_query": "Irrigation Equipment",
    "source_country": "IT",
    "country": "Italy",
    "state": "Emilia-Romagna",
    "city": "Calderara di Reno"
  },
  {
    "source_id": "ChIJnTMseWMrfkcROkZnl9Ut3MM",
    "name": "Supreme Compression Fittings Quapus Srl",
    "category": "Supreme Compression Fittings Quapus Srl",
    "formatted_address": "4,6(9)",
    "phone_number": "+390516053557",
    "source_url": "https://www.google.com/maps/place/Supreme+Compression+Fittings+Quapus+Srl/data=!4m7!3m6!1s0x477e2b63792c339d:0xc3dc2dd59767463a!8m2!3d44.4986604!4d11.4240626!16s%2Fg%2F1ptw88990!19sChIJnTMseWMrfkcROkZnl9Ut3MM?authuser=0&hl=tr&rclk=1",
    "website_url": "https://www.supreme-systems.net/",
    "rating_text": "4,6",
    "stars": null,
    "number_of_reviews": null,
    "price_level": "",
    "open_hours": "",
    "extraction_timestamp": "2025-06-07T15:47:42.024Z",
    "source_name": "google",
    "source_query": "Irrigation Equipment",
    "source_country": "IT",
    "country": "Italy",
    "state": "Emilia-Romagna",
    "city": "Calderara di Reno"
  },
  {
    "source_id": "ChIJCf5GXp9ywgwRjOaHi3EuOyk",
    "name": "T.R.I. italia srl irrigazione",
    "category": "T.R.I. italia srl irrigazione",
    "formatted_address": "",
    "phone_number": "+393492227322",
    "source_url": "https://www.google.com/maps/place/T.R.I.+italia+srl+irrigazione/data=!4m7!3m6!1s0xcc2729f5e46fe09:0x293b2e718b87e68c!8m2!3d41.29085!4d12.71216!16s%2Fg%2F11wqp9bx1c!19sChIJCf5GXp9ywgwRjOaHi3EuOyk?authuser=0&hl=tr&rclk=1",
    "website_url": "",
    "rating_text": "",
    "stars": null,
    "number_of_reviews": null,
    "price_level": "",
    "open_hours": "",
    "extraction_timestamp": "2025-06-07T15:47:42.026Z",
    "source_name": "google",
    "source_query": "Irrigation Equipment",
    "source_country": "IT",
    "country": "Italy",
    "state": "Emilia-Romagna",
    "city": "Calderara di Reno"
  },
  {
    "source_id": "ChIJ9UosqzHbASoR02d0Tw_sUAk",
    "name": "TRI italia srl",
    "category": "TRI italia srl",
    "formatted_address": "",
    "phone_number": "+393492227322",
    "source_url": "https://www.google.com/maps/place/TRI+italia+srl/data=!4m7!3m6!1s0x2a01db31ab2c4af5:0x950ec0f4f7467d3!8m2!3d41.29085!4d12.71216!16s%2Fg%2F11wqp8w6f4!19sChIJ9UosqzHbASoR02d0Tw_sUAk?authuser=0&hl=tr&rclk=1",
    "website_url": "",
    "rating_text": "",
    "stars": null,
    "number_of_reviews": null,
    "price_level": "",
    "open_hours": "",
    "extraction_timestamp": "2025-06-07T15:47:42.027Z",
    "source_name": "google",
    "source_query": "Irrigation Equipment",
    "source_country": "IT",
    "country": "Italy",
    "state": "Emilia-Romagna",
    "city": "Calderara di Reno"
  },
  {
    "source_id": "ChIJk3KQ08bQf0cRV2CGLA_Mr68",
    "name": "Globalforniture S.R.L.",
    "category": "Globalforniture S.R.L.",
    "formatted_address": "4,0(3)",
    "phone_number": "+39051736936",
    "source_url": "https://www.google.com/maps/place/Globalforniture+S.R.L./data=!4m7!3m6!1s0x477fd0c6d3907293:0xafafcc0f2c866057!8m2!3d44.5352006!4d11.2216546!16s%2Fg%2F11b6jh7m6t!19sChIJk3KQ08bQf0cRV2CGLA_Mr68?authuser=0&hl=tr&rclk=1",
    "website_url": "http://www.globalforniture.it/",
    "rating_text": "4,0",
    "stars": null,
    "number_of_reviews": null,
    "price_level": "",
    "open_hours": "",
    "extraction_timestamp": "2025-06-07T15:47:42.028Z",
    "source_name": "google",
    "source_query": "Irrigation Equipment",
    "source_country": "IT",
    "country": "Italy",
    "state": "Emilia-Romagna",
    "city": "Calderara di Reno"
  },
  {
    "source_id": "ChIJJ6V6lMDgf0cRkL2jf5B3MwQ",
    "name": "Scova Engineering Spa",
    "category": "Scova Engineering Spa",
    "formatted_address": "5,0(2)",
    "phone_number": "+39059702012",
    "source_url": "https://www.google.com/maps/place/Scova+Engineering+Spa/data=!4m7!3m6!1s0x477fe0c0947aa527:0x43377907fa3bd90!8m2!3d44.5304758!4d10.9796265!16s%2Fg%2F1tql3mky!19sChIJJ6V6lMDgf0cRkL2jf5B3MwQ?authuser=0&hl=tr&rclk=1",
    "website_url": "https://www.scova-engineering.it/",
    "rating_text": "5,0",
    "stars": null,
    "number_of_reviews": null,
    "price_level": "",
    "open_hours": "",
    "extraction_timestamp": "2025-06-07T15:47:42.029Z",
    "source_name": "google",
    "source_query": "Irrigation Equipment",
    "source_country": "IT",
    "country": "Italy",
    "state": "Emilia-Romagna",
    "city": "Calderara di Reno"
  },
  {
    "source_id": "ChIJVZAdl6fUf0cRJAtHtHkc5aU",
    "name": "Elettromania emporio usato elettronico e laboratorio",
    "category": "Elettromania emporio usato elettronico e laboratorio",
    "formatted_address": "4,5(344)",
    "phone_number": "+39051371001",
    "source_url": "https://www.google.com/maps/place/Elettromania+emporio+usato+elettronico+e+laboratorio/data=!4m7!3m6!1s0x477fd4a7971d9055:0xa5e51c79b4470b24!8m2!3d44.5071013!4d11.3583033!16s%2Fg%2F1tjz26k1!19sChIJVZAdl6fUf0cRJAtHtHkc5aU?authuser=0&hl=tr&rclk=1",
    "website_url": "http://www.elettromania.com/",
    "rating_text": "4,5",
    "stars": null,
    "number_of_reviews": null,
    "price_level": "",
    "open_hours": "",
    "extraction_timestamp": "2025-06-07T15:47:42.030Z",
    "source_name": "google",
    "source_query": "Irrigation Equipment",
    "source_country": "IT",
    "country": "Italy",
    "state": "Emilia-Romagna",
    "city": "Calderara di Reno"
  },
  {
    "source_id": "ChIJw3M1-gHTf0cR4Npr_n0P5Pg",
    "name": "Idraco s.r.l. Vendita ingrosso/dettaglio",
    "category": "Idraco s.r.l. Vendita ingrosso/dettaglio",
    "formatted_address": "4,8(27)",
    "phone_number": "+390510954480",
    "source_url": "https://www.google.com/maps/place/Idraco+s.r.l.+Vendita+ingrosso%2Fdettaglio/data=!4m7!3m6!1s0x477fd301fa3573c3:0xf8e40f7dfe6bdae0!8m2!3d44.5332442!4d11.3463793!16s%2Fg%2F11h045w95v!19sChIJw3M1-gHTf0cR4Npr_n0P5Pg?authuser=0&hl=tr&rclk=1",
    "website_url": "http://www.idraco.it/",
    "rating_text": "4,8",
    "stars": null,
    "number_of_reviews": null,
    "price_level": "",
    "open_hours": "",
    "extraction_timestamp": "2025-06-07T15:47:42.031Z",
    "source_name": "google",
    "source_query": "Irrigation Equipment",
    "source_country": "IT",
    "country": "Italy",
    "state": "Emilia-Romagna",
    "city": "Calderara di Reno"
  }
]
