[
  {
    "source_id": "ChIJa30wiigXgEcRs_I6dZm5x4o",
    "name": "Interpump Group S.p.A.",
    "category": "Interpump Group S.p.A.",
    "formatted_address": "4,0(13)",
    "phone_number": "+390522904311",
    "source_url": "https://www.google.com/maps/place/Interpump+Group+S.p.A./data=!4m7!3m6!1s0x478017288a307d6b:0x8ac7b999753af2b3!8m2!3d44.7510122!4d10.4807515!16s%2Fg%2F1v6l6bq9!19sChIJa30wiigXgEcRs_I6dZm5x4o?authuser=0&hl=tr&rclk=1",
    "website_url": "http://www.interpumpgroup.it/",
    "rating_text": "4,0",
    "stars": null,
    "number_of_reviews": null,
    "price_level": "",
    "open_hours": "",
    "extraction_timestamp": "2025-06-07T15:42:21.956Z",
    "source_name": "google",
    "source_query": "Irrigation Equipment",
    "source_country": "IT",
    "country": "Italy",
    "state": "Emilia-Romagna",
    "city": "Calerno"
  },
  {
    "source_id": "ChIJm1vhKTIXgEcRRwcaLRxtWq4",
    "name": "Bertani S.p.a. - Magazzino di Calerno",
    "category": "Bertani S.p.a. - Magazzino di Calerno",
    "formatted_address": "4,4(7)",
    "phone_number": "+390522474016",
    "source_url": "https://www.google.com/maps/place/Bertani+S.p.a.+-+Magazzino+di+Calerno/data=!4m7!3m6!1s0x4780173229e15b9b:0xae5a6d1c2d1a0747!8m2!3d44.75403!4d10.4762242!16s%2Fg%2F119tr5lkp!19sChIJm1vhKTIXgEcRRwcaLRxtWq4?authuser=0&hl=tr&rclk=1",
    "website_url": "https://www.bertani.it/it_IT/punti-vendita/magazzino-calerno",
    "rating_text": "4,4",
    "stars": null,
    "number_of_reviews": null,
    "price_level": "",
    "open_hours": "",
    "extraction_timestamp": "2025-06-07T15:42:21.979Z",
    "source_name": "google",
    "source_query": "Irrigation Equipment",
    "source_country": "IT",
    "country": "Italy",
    "state": "Emilia-Romagna",
    "city": "Calerno"
  },
  {
    "source_id": "ChIJcQG6ul7df0cR3VxKiu5OPBs",
    "name": "Scova Impianti Srl",
    "category": "Scova Impianti Srl",
    "formatted_address": "4,5(64)",
    "phone_number": "+39059923202",
    "source_url": "https://www.google.com/maps/place/Scova+Impianti+Srl/data=!4m7!3m6!1s0x477fdd5ebaba0171:0x1b3c4eee8a4a5cdd!8m2!3d44.6018135!4d11.032294!16s%2Fg%2F1tfzwbfb!19sChIJcQG6ul7df0cR3VxKiu5OPBs?authuser=0&hl=tr&rclk=1",
    "website_url": "https://www.scovaimpianti.com/",
    "rating_text": "4,5",
    "stars": null,
    "number_of_reviews": null,
    "price_level": "",
    "open_hours": "",
    "extraction_timestamp": "2025-06-07T15:42:21.981Z",
    "source_name": "google",
    "source_query": "Irrigation Equipment",
    "source_country": "IT",
    "country": "Italy",
    "state": "Emilia-Romagna",
    "city": "Calerno"
  },
  {
    "source_id": "ChIJtVDkNgRFgEcRqc6umwWIJuI",
    "name": "Rm Spa",
    "category": "Rm Spa",
    "formatted_address": "4,6(81)",
    "phone_number": "+390521872321",
    "source_url": "https://www.google.com/maps/place/Rm+Spa/data=!4m7!3m6!1s0x4780450436e450b5:0xe22688059baecea9!8m2!3d44.9105406!4d10.2583785!16s%2Fg%2F12hl93byl!19sChIJtVDkNgRFgEcRqc6umwWIJuI?authuser=0&hl=tr&rclk=1",
    "website_url": "http://www.rmirrigation.com/",
    "rating_text": "4,6",
    "stars": null,
    "number_of_reviews": null,
    "price_level": "",
    "open_hours": "",
    "extraction_timestamp": "2025-06-07T15:42:21.984Z",
    "source_name": "google",
    "source_query": "Irrigation Equipment",
    "source_country": "IT",
    "country": "Italy",
    "state": "Emilia-Romagna",
    "city": "Calerno"
  },
  {
    "source_id": "ChIJtzLXV34mgEcR9sDfnfgzOxg",
    "name": "Sime Idromeccanica S.R.L.",
    "category": "Sime Idromeccanica S.R.L.",
    "formatted_address": "4,8(22)",
    "phone_number": "+390522824724",
    "source_url": "https://www.google.com/maps/place/Sime+Idromeccanica+S.R.L./data=!4m7!3m6!1s0x4780267e57d732b7:0x183b33f89ddfc0f6!8m2!3d44.8931121!4d10.6571392!16s%2Fg%2F1tx1s13m!19sChIJtzLXV34mgEcR9sDfnfgzOxg?authuser=0&hl=tr&rclk=1",
    "website_url": "",
    "rating_text": "4,8",
    "stars": null,
    "number_of_reviews": null,
    "price_level": "",
    "open_hours": "",
    "extraction_timestamp": "2025-06-07T15:42:21.986Z",
    "source_name": "google",
    "source_query": "Irrigation Equipment",
    "source_country": "IT",
    "country": "Italy",
    "state": "Emilia-Romagna",
    "city": "Calerno"
  },
  {
    "source_id": "ChIJq5e6TTv0f0cRe0lfkBwyQVE",
    "name": "Aqua Industrial Group",
    "category": "Aqua Industrial Group",
    "formatted_address": "3,5(10)",
    "phone_number": "+390522695805",
    "source_url": "https://www.google.com/maps/place/Aqua+Industrial+Group/data=!4m7!3m6!1s0x477ff43b4dba97ab:0x5141321c905f497b!8m2!3d44.7252141!4d10.7656823!16s%2Fg%2F1hc61vd63!19sChIJq5e6TTv0f0cRe0lfkBwyQVE?authuser=0&hl=tr&rclk=1",
    "website_url": "http://www.aqua.it/",
    "rating_text": "3,5",
    "stars": null,
    "number_of_reviews": null,
    "price_level": "",
    "open_hours": "",
    "extraction_timestamp": "2025-06-07T15:42:21.988Z",
    "source_name": "google",
    "source_query": "Irrigation Equipment",
    "source_country": "IT",
    "country": "Italy",
    "state": "Emilia-Romagna",
    "city": "Calerno"
  },
  {
    "source_id": "ChIJR0cLXhQkgEcRi9oI9GALzlg",
    "name": "IRRILAND",
    "category": "IRRILAND",
    "formatted_address": "4,0(4)",
    "phone_number": "+390522831544",
    "source_url": "https://www.google.com/maps/place/IRRILAND/data=!4m7!3m6!1s0x478024145e0b4747:0x58ce0b60f408da8b!8m2!3d44.891987!4d10.650983!16s%2Fg%2F1tczjb0h!19sChIJR0cLXhQkgEcRi9oI9GALzlg?authuser=0&hl=tr&rclk=1",
    "website_url": "http://www.irriland.it/",
    "rating_text": "4,0",
    "stars": null,
    "number_of_reviews": null,
    "price_level": "",
    "open_hours": "",
    "extraction_timestamp": "2025-06-07T15:42:21.989Z",
    "source_name": "google",
    "source_query": "Irrigation Equipment",
    "source_country": "IT",
    "country": "Italy",
    "state": "Emilia-Romagna",
    "city": "Calerno"
  },
  {
    "source_id": "ChIJveAeFroEgEcRZfa9xqlB6vM",
    "name": "Morelli Irrigazioni",
    "category": "Morelli Irrigazioni",
    "formatted_address": "1,0(1)",
    "phone_number": "+393480042122",
    "source_url": "https://www.google.com/maps/place/Morelli+Irrigazioni/data=!4m7!3m6!1s0x478004ba161ee0bd:0xf3ea41a9c6bdf665!8m2!3d44.649256!4d10.5636837!16s%2Fg%2F11gy01p0bd!19sChIJveAeFroEgEcRZfa9xqlB6vM?authuser=0&hl=tr&rclk=1",
    "website_url": "http://irrigazionimorelli.it/",
    "rating_text": "1,0",
    "stars": null,
    "number_of_reviews": null,
    "price_level": "",
    "open_hours": "",
    "extraction_timestamp": "2025-06-07T15:42:21.991Z",
    "source_name": "google",
    "source_query": "Irrigation Equipment",
    "source_country": "IT",
    "country": "Italy",
    "state": "Emilia-Romagna",
    "city": "Calerno"
  }
]
