[
  {
    "source_id": "ChIJy805WcDcgEcRtmGWlwosXQc",
    "name": "IRRIMEC SRL",
    "category": "IRRIMEC SRL",
    "formatted_address": "4,5(90)",
    "phone_number": "+390523760441",
    "source_url": "https://www.google.com/maps/place/IRRIMEC+SRL/data=!4m7!3m6!1s0x4780dcc05939cdcb:0x75d2c0a979661b6!8m2!3d45.0612353!4d9.630829!16s%2Fg%2F1tdgt7d_!19sChIJy805WcDcgEcRtmGWlwosXQc?authuser=0&hl=tr&rclk=1",
    "website_url": "http://www.irrimec.com/",
    "rating_text": "4,5",
    "stars": null,
    "number_of_reviews": null,
    "price_level": "",
    "open_hours": "",
    "extraction_timestamp": "2025-06-07T17:05:50.518Z",
    "source_name": "google",
    "source_query": "Irrigation Equipment",
    "source_country": "IT",
    "country": "Italy",
    "state": "Emilia-Romagna",
    "city": "Calendasco"
  },
  {
    "source_id": "ChIJCdwQIfbNgEcRtWOzhvtW0iA",
    "name": "Agrimil Tech Srl",
    "category": "Agrimil Tech Srl",
    "formatted_address": "4,8(9)",
    "phone_number": "+390523849679",
    "source_url": "https://www.google.com/maps/place/Agrimil+Tech+Srl/data=!4m7!3m6!1s0x4780cdf62110dc09:0x20d256fb86b363b5!8m2!3d45.0556557!4d9.5030905!16s%2Fg%2F1tdf9z93!19sChIJCdwQIfbNgEcRtWOzhvtW0iA?authuser=0&hl=tr&rclk=1",
    "website_url": "http://www.agrimil.it/",
    "rating_text": "4,8",
    "stars": null,
    "number_of_reviews": null,
    "price_level": "",
    "open_hours": "",
    "extraction_timestamp": "2025-06-07T17:05:50.518Z",
    "source_name": "google",
    "source_query": "Irrigation Equipment",
    "source_country": "IT",
    "country": "Italy",
    "state": "Emilia-Romagna",
    "city": "Calendasco"
  },
  {
    "source_id": "ChIJp1upZxzCgEcR5-WAarrDTpg",
    "name": "Oleodinamica Marchesini",
    "category": "Oleodinamica Marchesini",
    "formatted_address": "3,0(2)",
    "phone_number": "+390523523231",
    "source_url": "https://www.google.com/maps/place/Oleodinamica+Marchesini/data=!4m7!3m6!1s0x4780c21c67a95ba7:0x984ec3ba6a80e5e7!8m2!3d44.9923286!4d9.6916713!16s%2Fg%2F1vl5fmrx!19sChIJp1upZxzCgEcR5-WAarrDTpg?authuser=0&hl=tr&rclk=1",
    "website_url": "https://www.groupmarchesini.com/",
    "rating_text": "3,0",
    "stars": null,
    "number_of_reviews": null,
    "price_level": "",
    "open_hours": "",
    "extraction_timestamp": "2025-06-07T17:05:50.519Z",
    "source_name": "google",
    "source_query": "Irrigation Equipment",
    "source_country": "IT",
    "country": "Italy",
    "state": "Emilia-Romagna",
    "city": "Calendasco"
  },
  {
    "source_id": "ChIJN1atg4npgEcRZvz-ElSIojc",
    "name": "Ecotek srl",
    "category": "Ecotek srl",
    "formatted_address": "4,7(15)",
    "phone_number": "+390523593386",
    "source_url": "https://www.google.com/maps/place/Ecotek+srl/data=!4m7!3m6!1s0x4780e98983ad5637:0x37a2885412fefc66!8m2!3d45.0368303!4d9.704905!16s%2Fg%2F11f70_71yz!19sChIJN1atg4npgEcRZvz-ElSIojc?authuser=0&hl=tr&rclk=1",
    "website_url": "http://www.ecotekpiacenza.it/",
    "rating_text": "4,7",
    "stars": null,
    "number_of_reviews": null,
    "price_level": "",
    "open_hours": "",
    "extraction_timestamp": "2025-06-07T17:05:50.519Z",
    "source_name": "google",
    "source_query": "Irrigation Equipment",
    "source_country": "IT",
    "country": "Italy",
    "state": "Emilia-Romagna",
    "city": "Calendasco"
  },
  {
    "source_id": "ChIJkYmJKarcgEcRypXKQgrMaDs",
    "name": "Errebi Idropulitrici",
    "category": "Errebi Idropulitrici",
    "formatted_address": "5,0(5)",
    "phone_number": "+390523769257",
    "source_url": "https://www.google.com/maps/place/Errebi+Idropulitrici/data=!4m7!3m6!1s0x4780dcaa29898991:0x3b68cc0a42ca95ca!8m2!3d45.0495714!4d9.6069156!16s%2Fg%2F11cjpc_lx4!19sChIJkYmJKarcgEcRypXKQgrMaDs?authuser=0&hl=tr&rclk=1",
    "website_url": "",
    "rating_text": "5,0",
    "stars": null,
    "number_of_reviews": null,
    "price_level": "",
    "open_hours": "",
    "extraction_timestamp": "2025-06-07T17:05:50.520Z",
    "source_name": "google",
    "source_query": "Irrigation Equipment",
    "source_country": "IT",
    "country": "Italy",
    "state": "Emilia-Romagna",
    "city": "Calendasco"
  },
  {
    "source_id": "ChIJC0LYzsXngEcR8g_5HSSzAko",
    "name": "Pulitecno",
    "category": "Pulitecno",
    "formatted_address": "5,0(5)",
    "phone_number": "+390523577811",
    "source_url": "https://www.google.com/maps/place/Pulitecno/data=!4m7!3m6!1s0x4780e7c5ced8420b:0x4a02b3241df90ff2!8m2!3d45.0483093!4d9.7294483!16s%2Fg%2F11fxwb60cv!19sChIJC0LYzsXngEcR8g_5HSSzAko?authuser=0&hl=tr&rclk=1",
    "website_url": "http://www.pulitecnosrl.it/",
    "rating_text": "5,0",
    "stars": null,
    "number_of_reviews": null,
    "price_level": "",
    "open_hours": "",
    "extraction_timestamp": "2025-06-07T17:05:50.520Z",
    "source_name": "google",
    "source_query": "Irrigation Equipment",
    "source_country": "IT",
    "country": "Italy",
    "state": "Emilia-Romagna",
    "city": "Calendasco"
  },
  {
    "source_id": "ChIJURNsXunRgEcRmae-SVNqONs",
    "name": "IDROPAVESE SAS DI VARESI GIAMPAOLO E VARESI MARA",
    "category": "IDROPAVESE SAS DI VARESI GIAMPAOLO E VARESI MARA",
    "formatted_address": "4,2(17)",
    "phone_number": "+390523882596",
    "source_url": "https://www.google.com/maps/place/IDROPAVESE+SAS+DI+VARESI+GIAMPAOLO+E+VARESI+MARA/data=!4m7!3m6!1s0x4780d1e95e6c1351:0xdb386a5349bea799!8m2!3d45.0733425!4d9.4455294!16s%2Fg%2F11b6hssh7j!19sChIJURNsXunRgEcRmae-SVNqONs?authuser=0&hl=tr&rclk=1",
    "website_url": "http://www.idropavese.it/",
    "rating_text": "4,2",
    "stars": null,
    "number_of_reviews": null,
    "price_level": "",
    "open_hours": "",
    "extraction_timestamp": "2025-06-07T17:05:50.520Z",
    "source_name": "google",
    "source_query": "Irrigation Equipment",
    "source_country": "IT",
    "country": "Italy",
    "state": "Emilia-Romagna",
    "city": "Calendasco"
  },
  {
    "source_id": "ChIJtVDkNgRFgEcRqc6umwWIJuI",
    "name": "Rm Spa",
    "category": "Rm Spa",
    "formatted_address": "4,6(81)",
    "phone_number": "+390521872321",
    "source_url": "https://www.google.com/maps/place/Rm+Spa/data=!4m7!3m6!1s0x4780450436e450b5:0xe22688059baecea9!8m2!3d44.9105406!4d10.2583785!16s%2Fg%2F12hl93byl!19sChIJtVDkNgRFgEcRqc6umwWIJuI?authuser=0&hl=tr&rclk=1",
    "website_url": "http://www.rmirrigation.com/",
    "rating_text": "4,6",
    "stars": null,
    "number_of_reviews": null,
    "price_level": "",
    "open_hours": "",
    "extraction_timestamp": "2025-06-07T17:05:50.521Z",
    "source_name": "google",
    "source_query": "Irrigation Equipment",
    "source_country": "IT",
    "country": "Italy",
    "state": "Emilia-Romagna",
    "city": "Calendasco"
  },
  {
    "source_id": "ChIJS5MUhybdgEcR5VM0wd-wyo4",
    "name": "Assistenza impianti trattamento acqua Piacenza",
    "category": "Assistenza impianti trattamento acqua Piacenza",
    "formatted_address": "",
    "phone_number": "+393247707944",
    "source_url": "https://www.google.com/maps/place/Assistenza+impianti+trattamento+acqua+Piacenza/data=!4m7!3m6!1s0x4780dd268714934b:0x8ecab0dfc13453e5!8m2!3d45.0422201!4d9.6981487!16s%2Fg%2F11j4p_1f6m!19sChIJS5MUhybdgEcR5VM0wd-wyo4?authuser=0&hl=tr&rclk=1",
    "website_url": "",
    "rating_text": "",
    "stars": null,
    "number_of_reviews": null,
    "price_level": "",
    "open_hours": "",
    "extraction_timestamp": "2025-06-07T17:05:50.521Z",
    "source_name": "google",
    "source_query": "Irrigation Equipment",
    "source_country": "IT",
    "country": "Italy",
    "state": "Emilia-Romagna",
    "city": "Calendasco"
  }
]
