[
  {
    "source_id": "ChIJPU3Kg54XgEcRRH9cIT6-ZQ8",
    "name": "Sae Tecnology S.R.L. Soluzioni Trattamento Acque",
    "category": "Sae Tecnology S.R.L. Soluzioni Trattamento Acque",
    "formatted_address": "4,9(173)",
    "phone_number": "+390522676796",
    "source_url": "https://www.google.com/maps/place/Sae+Tecnology+S.R.L.+Soluzioni+Trattamento+Acque/data=!4m7!3m6!1s0x4780179e83ca4d3d:0xf65be3e215c7f44!8m2!3d44.775246!4d10.5151594!16s%2Fg%2F11b6hy9gf1!19sChIJPU3Kg54XgEcRRH9cIT6-ZQ8?authuser=0&hl=tr&rclk=1",
    "website_url": "https://www.saedepuratori.it/",
    "rating_text": "4,9",
    "stars": null,
    "number_of_reviews": null,
    "price_level": "",
    "open_hours": "",
    "extraction_timestamp": "2025-06-07T16:51:20.048Z",
    "source_name": "google",
    "source_query": "Irrigation Equipment",
    "source_country": "IT",
    "country": "Italy",
    "state": "Emilia-Romagna",
    "city": "Campegine"
  },
  {
    "source_id": "ChIJzWyZEf8dgEcRM0sVtbJE3TI",
    "name": "Impiantistica LAVONE",
    "category": "Impiantistica LAVONE",
    "formatted_address": "5,0(3)",
    "phone_number": "+393514759408",
    "source_url": "https://www.google.com/maps/place/Impiantistica+LAVONE/data=!4m7!3m6!1s0x47801dff11996ccd:0x32dd44b2b5154b33!8m2!3d44.7120611!4d10.6241549!16s%2Fg%2F11lp1gdrnd!19sChIJzWyZEf8dgEcRM0sVtbJE3TI?authuser=0&hl=tr&rclk=1",
    "website_url": "",
    "rating_text": "5,0",
    "stars": null,
    "number_of_reviews": null,
    "price_level": "",
    "open_hours": "",
    "extraction_timestamp": "2025-06-07T16:51:20.050Z",
    "source_name": "google",
    "source_query": "Irrigation Equipment",
    "source_country": "IT",
    "country": "Italy",
    "state": "Emilia-Romagna",
    "city": "Campegine"
  },
  {
    "source_id": "ChIJJw8zDgsYgEcRb4fhCyV5QXo",
    "name": "Speroni S.p.A. - Water Pumps",
    "category": "Speroni S.p.A. - Water Pumps",
    "formatted_address": "4,6(135)",
    "phone_number": "+390522487011",
    "source_url": "https://www.google.com/maps/place/Speroni+S.p.A.+-+Water+Pumps/data=!4m7!3m6!1s0x4780180b0e330f27:0x7a4179250be1876f!8m2!3d44.7991725!4d10.5714246!16s%2Fg%2F1tr9m89z!19sChIJJw8zDgsYgEcRb4fhCyV5QXo?authuser=0&hl=tr&rclk=1",
    "website_url": "https://www.speroni.it/",
    "rating_text": "4,6",
    "stars": null,
    "number_of_reviews": null,
    "price_level": "",
    "open_hours": "",
    "extraction_timestamp": "2025-06-07T16:51:20.052Z",
    "source_name": "google",
    "source_query": "Irrigation Equipment",
    "source_country": "IT",
    "country": "Italy",
    "state": "Emilia-Romagna",
    "city": "Campegine"
  },
  {
    "source_id": "ChIJa30wiigXgEcRs_I6dZm5x4o",
    "name": "Interpump Group S.p.A.",
    "category": "Interpump Group S.p.A.",
    "formatted_address": "4,0(13)",
    "phone_number": "+390522904311",
    "source_url": "https://www.google.com/maps/place/Interpump+Group+S.p.A./data=!4m7!3m6!1s0x478017288a307d6b:0x8ac7b999753af2b3!8m2!3d44.7510122!4d10.4807515!16s%2Fg%2F1v6l6bq9!19sChIJa30wiigXgEcRs_I6dZm5x4o?authuser=0&hl=tr&rclk=1",
    "website_url": "http://www.interpumpgroup.it/",
    "rating_text": "4,0",
    "stars": null,
    "number_of_reviews": null,
    "price_level": "",
    "open_hours": "",
    "extraction_timestamp": "2025-06-07T16:51:20.054Z",
    "source_name": "google",
    "source_query": "Irrigation Equipment",
    "source_country": "IT",
    "country": "Italy",
    "state": "Emilia-Romagna",
    "city": "Campegine"
  },
  {
    "source_id": "ChIJtVDkNgRFgEcRqc6umwWIJuI",
    "name": "Rm Spa",
    "category": "Rm Spa",
    "formatted_address": "4,6(81)",
    "phone_number": "+390521872321",
    "source_url": "https://www.google.com/maps/place/Rm+Spa/data=!4m7!3m6!1s0x4780450436e450b5:0xe22688059baecea9!8m2!3d44.9105406!4d10.2583785!16s%2Fg%2F12hl93byl!19sChIJtVDkNgRFgEcRqc6umwWIJuI?authuser=0&hl=tr&rclk=1",
    "website_url": "http://www.rmirrigation.com/",
    "rating_text": "4,6",
    "stars": null,
    "number_of_reviews": null,
    "price_level": "",
    "open_hours": "",
    "extraction_timestamp": "2025-06-07T16:51:20.055Z",
    "source_name": "google",
    "source_query": "Irrigation Equipment",
    "source_country": "IT",
    "country": "Italy",
    "state": "Emilia-Romagna",
    "city": "Campegine"
  }
]
