[
  {
    "source_id": "ChIJhXQdA5Hxf0cRVu3Bp5B52D8",
    "name": "Modena Impianti Srl",
    "category": "Modena Impianti Srl",
    "formatted_address": "4,8(119)",
    "phone_number": "+39059525563",
    "source_url": "https://www.google.com/maps/place/Modena+Impianti+Srl/data=!4m7!3m6!1s0x477ff191031d7485:0x3fd87990a7c1ed56!8m2!3d44.6956675!4d10.8473379!16s%2Fg%2F11clhq8wcy!19sChIJhXQdA5Hxf0cRVu3Bp5B52D8?authuser=0&hl=tr&rclk=1",
    "website_url": "https://www.modenaimpianti.it/",
    "rating_text": "4,8",
    "stars": null,
    "number_of_reviews": null,
    "price_level": "",
    "open_hours": "",
    "extraction_timestamp": "2025-06-07T16:16:14.980Z",
    "source_name": "google",
    "source_query": "Irrigation Equipment",
    "source_country": "IT",
    "country": "Italy",
    "state": "Emilia-Romagna",
    "city": "Campogalliano"
  },
  {
    "source_id": "ChIJS-eB-Znof0cR40n1NTRjrvI",
    "name": "Emiliana Serbatoi Srl",
    "category": "Emiliana Serbatoi Srl",
    "formatted_address": "3,6(46)",
    "phone_number": "+39059521911",
    "source_url": "https://www.google.com/maps/place/Emiliana+Serbatoi+Srl/data=!4m7!3m6!1s0x477fe899f981e74b:0xf2ae633435f549e3!8m2!3d44.6797801!4d10.8503014!16s%2Fg%2F1tmptv4k!19sChIJS-eB-Znof0cR40n1NTRjrvI?authuser=0&hl=tr&rclk=1",
    "website_url": "http://www.emilianaserbatoi.com/",
    "rating_text": "3,6",
    "stars": null,
    "number_of_reviews": null,
    "price_level": "",
    "open_hours": "",
    "extraction_timestamp": "2025-06-07T16:16:14.981Z",
    "source_name": "google",
    "source_query": "Irrigation Equipment",
    "source_country": "IT",
    "country": "Italy",
    "state": "Emilia-Romagna",
    "city": "Campogalliano"
  },
  {
    "source_id": "ChIJcQG6ul7df0cR3VxKiu5OPBs",
    "name": "Scova Impianti Srl",
    "category": "Scova Impianti Srl",
    "formatted_address": "4,5(64)",
    "phone_number": "+39059923202",
    "source_url": "https://www.google.com/maps/place/Scova+Impianti+Srl/data=!4m7!3m6!1s0x477fdd5ebaba0171:0x1b3c4eee8a4a5cdd!8m2!3d44.6018135!4d11.032294!16s%2Fg%2F1tfzwbfb!19sChIJcQG6ul7df0cR3VxKiu5OPBs?authuser=0&hl=tr&rclk=1",
    "website_url": "https://www.scovaimpianti.com/",
    "rating_text": "4,5",
    "stars": null,
    "number_of_reviews": null,
    "price_level": "",
    "open_hours": "",
    "extraction_timestamp": "2025-06-07T16:16:14.982Z",
    "source_name": "google",
    "source_query": "Irrigation Equipment",
    "source_country": "IT",
    "country": "Italy",
    "state": "Emilia-Romagna",
    "city": "Campogalliano"
  },
  {
    "source_id": "ChIJgTqbMpjxf0cR9iyyGuYQrmk",
    "name": "Incaricotech Srl",
    "category": "Incaricotech Srl",
    "formatted_address": "5,0(4)",
    "phone_number": "+39059521183",
    "source_url": "https://www.google.com/maps/place/Incaricotech+Srl/data=!4m7!3m6!1s0x477ff198329b3a81:0x69ae10e61ab22cf6!8m2!3d44.6920699!4d10.8418885!16s%2Fg%2F1ptymr4q0!19sChIJgTqbMpjxf0cR9iyyGuYQrmk?authuser=0&hl=tr&rclk=1",
    "website_url": "http://www.incaricotech.com/",
    "rating_text": "5,0",
    "stars": null,
    "number_of_reviews": null,
    "price_level": "",
    "open_hours": "",
    "extraction_timestamp": "2025-06-07T16:16:14.983Z",
    "source_name": "google",
    "source_query": "Irrigation Equipment",
    "source_country": "IT",
    "country": "Italy",
    "state": "Emilia-Romagna",
    "city": "Campogalliano"
  },
  {
    "source_id": "ChIJJ6V6lMDgf0cR1SpFsfjDuHg",
    "name": "Ocmis Irrigazione Spa",
    "category": "Ocmis Irrigazione Spa",
    "formatted_address": "3,5(31)",
    "phone_number": "+39059702150",
    "source_url": "https://www.google.com/maps/place/Ocmis+Irrigazione+Spa/data=!4m7!3m6!1s0x477fe0c0947aa527:0x78b8c3f8b1452ad5!8m2!3d44.530494!4d10.9794578!16s%2Fg%2F1vd3tn19!19sChIJJ6V6lMDgf0cR1SpFsfjDuHg?authuser=0&hl=tr&rclk=1",
    "website_url": "http://www.ocmis-irrigazione.it/",
    "rating_text": "3,5",
    "stars": null,
    "number_of_reviews": null,
    "price_level": "",
    "open_hours": "",
    "extraction_timestamp": "2025-06-07T16:16:14.984Z",
    "source_name": "google",
    "source_query": "Irrigation Equipment",
    "source_country": "IT",
    "country": "Italy",
    "state": "Emilia-Romagna",
    "city": "Campogalliano"
  },
  {
    "source_id": "ChIJe07uaJjxf0cRHVlAi9r4F2o",
    "name": "Emilia Impianti - Condizionatori Mitsubishi",
    "category": "Emilia Impianti - Condizionatori Mitsubishi",
    "formatted_address": "4,9(505)",
    "phone_number": "+39059526393",
    "source_url": "https://www.google.com/maps/place/Emilia+Impianti+-+Condizionatori+Mitsubishi/data=!4m7!3m6!1s0x477ff19868ee4e7b:0x6a17f8da8b40591d!8m2!3d44.6908621!4d10.8401324!16s%2Fg%2F11b6hy0h_v!19sChIJe07uaJjxf0cRHVlAi9r4F2o?authuser=0&hl=tr&rclk=1",
    "website_url": "https://www.emiliaimpianti.it/",
    "rating_text": "4,9",
    "stars": null,
    "number_of_reviews": null,
    "price_level": "",
    "open_hours": "",
    "extraction_timestamp": "2025-06-07T16:16:14.985Z",
    "source_name": "google",
    "source_query": "Irrigation Equipment",
    "source_country": "IT",
    "country": "Italy",
    "state": "Emilia-Romagna",
    "city": "Campogalliano"
  },
  {
    "source_id": "ChIJHQGz6dXof0cRPD2igQWHtxo",
    "name": "Hidrostar",
    "category": "Hidrostar",
    "formatted_address": "4,8(33)",
    "phone_number": "+39059251056",
    "source_url": "https://www.google.com/maps/place/Hidrostar/data=!4m7!3m6!1s0x477fe8d5e9b3011d:0x1ab7870581a23d3c!8m2!3d44.6584919!4d10.9641811!16s%2Fg%2F1tf9rp0c!19sChIJHQGz6dXof0cRPD2igQWHtxo?authuser=0&hl=tr&rclk=1",
    "website_url": "http://www.hidrostar.it/",
    "rating_text": "4,8",
    "stars": null,
    "number_of_reviews": null,
    "price_level": "",
    "open_hours": "",
    "extraction_timestamp": "2025-06-07T16:16:14.985Z",
    "source_name": "google",
    "source_query": "Irrigation Equipment",
    "source_country": "IT",
    "country": "Italy",
    "state": "Emilia-Romagna",
    "city": "Campogalliano"
  },
  {
    "source_id": "ChIJCz_FHb7xf0cRJJlLVBlpug0",
    "name": "IDRO-GEO di Nora Geom. Marco",
    "category": "IDRO-GEO di Nora Geom. Marco",
    "formatted_address": "Su Yumuşatma Ekipmanları Tedarikçisi · Via J.F. Kennedy, 20/22/24+39 059 851269",
    "phone_number": "+39059851269",
    "source_url": "https://www.google.com/maps/place/IDRO-GEO+di+Nora+Geom.+Marco/data=!4m7!3m6!1s0x477ff1be1dc53f0b:0xdba6919544b9924!8m2!3d44.6892548!4d10.8485658!16s%2Fg%2F1tjz26lj!19sChIJCz_FHb7xf0cRJJlLVBlpug0?authuser=0&hl=tr&rclk=1",
    "website_url": "http://www.idro-geo.it/",
    "rating_text": "",
    "stars": null,
    "number_of_reviews": null,
    "price_level": "",
    "open_hours": "",
    "extraction_timestamp": "2025-06-07T16:16:14.986Z",
    "source_name": "google",
    "source_query": "Irrigation Equipment",
    "source_country": "IT",
    "country": "Italy",
    "state": "Emilia-Romagna",
    "city": "Campogalliano"
  },
  {
    "source_id": "ChIJrfVru7fxf0cRjfDsMeWnYpI",
    "name": "Idrocentro magazzino",
    "category": "Idrocentro magazzino",
    "formatted_address": "Su Tesisatı Malzemeleri Satıcısı · Via Magnagallo Ovest, 5Kapalı ⋅ Açılış zamanı: Pzt 07:30 · +39 059 528285",
    "phone_number": "+39059528285",
    "source_url": "https://www.google.com/maps/place/Idrocentro+magazzino/data=!4m7!3m6!1s0x477ff1b7bb6bf5ad:0x9262a7e531ecf08d!8m2!3d44.6791255!4d10.8460137!16s%2Fg%2F11vwyrcvwp!19sChIJrfVru7fxf0cRjfDsMeWnYpI?authuser=0&hl=tr&rclk=1",
    "website_url": "https://www.unimetal.net/",
    "rating_text": "",
    "stars": null,
    "number_of_reviews": null,
    "price_level": "",
    "open_hours": "",
    "extraction_timestamp": "2025-06-07T16:16:14.987Z",
    "source_name": "google",
    "source_query": "Irrigation Equipment",
    "source_country": "IT",
    "country": "Italy",
    "state": "Emilia-Romagna",
    "city": "Campogalliano"
  },
  {
    "source_id": "ChIJV02TC0qNf0cRlaeibvnDnEw",
    "name": "TECMODENA Group srl: Guarnizioni piane - Espansi Termoisolanti - Interno Packaging - Waterjet, Taglio a getto d'acqua",
    "category": "TECMODENA Group srl: Guarnizioni piane - Espansi Termoisolanti - Interno Packaging - Waterjet, Taglio a getto d'acqua",
    "formatted_address": "TECMODENA Group srl: Guarnizioni piane - Espansi Termoisolanti - Interno Packaging - Waterjet, Taglio a getto d'acqua",
    "phone_number": "+39059566551",
    "source_url": "https://www.google.com/maps/place/TECMODENA+Group+srl:+Guarnizioni+piane+-+Espansi+Termoisolanti+-+Interno+Packaging+-+Waterjet,+Taglio+a+getto+d%27acqua/data=!4m7!3m6!1s0x477f8d4a0b934d57:0x4c9cc3f96ea2a795!8m2!3d44.7266063!4d10.9167357!16s%2Fg%2F1tf74cnn!19sChIJV02TC0qNf0cRlaeibvnDnEw?authuser=0&hl=tr&rclk=1",
    "website_url": "http://www.tecmodena.it/",
    "rating_text": "5,0",
    "stars": null,
    "number_of_reviews": null,
    "price_level": "",
    "open_hours": "",
    "extraction_timestamp": "2025-06-07T16:16:14.988Z",
    "source_name": "google",
    "source_query": "Irrigation Equipment",
    "source_country": "IT",
    "country": "Italy",
    "state": "Emilia-Romagna",
    "city": "Campogalliano"
  },
  {
    "source_id": "ChIJPx1pyurxf0cRkjpDiMeig0A",
    "name": "F.I.R. FABBRICA ITALIANA RADIATORI SRL",
    "category": "F.I.R. FABBRICA ITALIANA RADIATORI SRL",
    "formatted_address": "3,0(4)",
    "phone_number": "+39059525661",
    "source_url": "https://www.google.com/maps/place/F.I.R.+FABBRICA+ITALIANA+RADIATORI+SRL/data=!4m7!3m6!1s0x477ff1eaca691d3f:0x4083a2c788433a92!8m2!3d44.6864476!4d10.8632255!16s%2Fg%2F12hmsm3nl!19sChIJPx1pyurxf0cRkjpDiMeig0A?authuser=0&hl=tr&rclk=1",
    "website_url": "http://www.siraindustrie.it/",
    "rating_text": "3,0",
    "stars": null,
    "number_of_reviews": null,
    "price_level": "",
    "open_hours": "",
    "extraction_timestamp": "2025-06-07T16:16:14.988Z",
    "source_name": "google",
    "source_query": "Irrigation Equipment",
    "source_country": "IT",
    "country": "Italy",
    "state": "Emilia-Romagna",
    "city": "Campogalliano"
  },
  {
    "source_id": "ChIJyc7K5_Hvf0cRPs35y99PoGw",
    "name": "Commersald Spa",
    "category": "Commersald Spa",
    "formatted_address": "4,8(12)",
    "phone_number": "+39059348411",
    "source_url": "https://www.google.com/maps/place/Commersald+Spa/data=!4m7!3m6!1s0x477feff1e7cacec9:0x6ca04fdfcbf9cd3e!8m2!3d44.6393735!4d10.8744639!16s%2Fg%2F1vn_xtjp!19sChIJyc7K5_Hvf0cRPs35y99PoGw?authuser=0&hl=tr&rclk=1",
    "website_url": "https://www.commersald.com/",
    "rating_text": "4,8",
    "stars": null,
    "number_of_reviews": null,
    "price_level": "",
    "open_hours": "",
    "extraction_timestamp": "2025-06-07T16:16:14.989Z",
    "source_name": "google",
    "source_query": "Irrigation Equipment",
    "source_country": "IT",
    "country": "Italy",
    "state": "Emilia-Romagna",
    "city": "Campogalliano"
  },
  {
    "source_id": "ChIJq5e6TTv0f0cRe0lfkBwyQVE",
    "name": "Aqua Industrial Group",
    "category": "Aqua Industrial Group",
    "formatted_address": "3,5(10)",
    "phone_number": "+390522695805",
    "source_url": "https://www.google.com/maps/place/Aqua+Industrial+Group/data=!4m7!3m6!1s0x477ff43b4dba97ab:0x5141321c905f497b!8m2!3d44.7252141!4d10.7656823!16s%2Fg%2F1hc61vd63!19sChIJq5e6TTv0f0cRe0lfkBwyQVE?authuser=0&hl=tr&rclk=1",
    "website_url": "http://www.aqua.it/",
    "rating_text": "3,5",
    "stars": null,
    "number_of_reviews": null,
    "price_level": "",
    "open_hours": "",
    "extraction_timestamp": "2025-06-07T16:16:14.990Z",
    "source_name": "google",
    "source_query": "Irrigation Equipment",
    "source_country": "IT",
    "country": "Italy",
    "state": "Emilia-Romagna",
    "city": "Campogalliano"
  },
  {
    "source_id": "ChIJhT-kpAXff0cRKJQqKYwIulA",
    "name": "Irrigo",
    "category": "Irrigo",
    "formatted_address": "4,7(36)",
    "phone_number": "+393473096499",
    "source_url": "https://www.google.com/maps/place/Irrigo/data=!4m7!3m6!1s0x477fdf05a4a43f85:0x50ba088c292a9428!8m2!3d44.5018172!4d11.005272!16s%2Fg%2F11hdjcp5pk!19sChIJhT-kpAXff0cRKJQqKYwIulA?authuser=0&hl=tr&rclk=1",
    "website_url": "https://www.irrigovignola.it/",
    "rating_text": "4,7",
    "stars": null,
    "number_of_reviews": null,
    "price_level": "",
    "open_hours": "",
    "extraction_timestamp": "2025-06-07T16:16:14.991Z",
    "source_name": "google",
    "source_query": "Irrigation Equipment",
    "source_country": "IT",
    "country": "Italy",
    "state": "Emilia-Romagna",
    "city": "Campogalliano"
  },
  {
    "source_id": "ChIJKzxKXpjxf0cRxQe1Pl0vNZA",
    "name": "Ferramenta Morandi Snc Di Rizzo Matteo E C.",
    "category": "Ferramenta Morandi Snc Di Rizzo Matteo E C.",
    "formatted_address": "4,6(83)",
    "phone_number": "+39059525257",
    "source_url": "https://www.google.com/maps/place/Ferramenta+Morandi+Snc+Di+Rizzo+Matteo+E+C./data=!4m7!3m6!1s0x477ff1985e4a3c2b:0x90352f5d3eb507c5!8m2!3d44.6955863!4d10.8439152!16s%2Fg%2F1tdrd6m1!19sChIJKzxKXpjxf0cRxQe1Pl0vNZA?authuser=0&hl=tr&rclk=1",
    "website_url": "https://www.ferramentamorandi.com/",
    "rating_text": "4,6",
    "stars": null,
    "number_of_reviews": null,
    "price_level": "",
    "open_hours": "",
    "extraction_timestamp": "2025-06-07T16:16:14.992Z",
    "source_name": "google",
    "source_query": "Irrigation Equipment",
    "source_country": "IT",
    "country": "Italy",
    "state": "Emilia-Romagna",
    "city": "Campogalliano"
  },
  {
    "source_id": "ChIJn6L29Zjof0cRzkCm8WYZAS0",
    "name": "CAPRARA s.r.l.",
    "category": "CAPRARA s.r.l.",
    "formatted_address": "5,0(1)",
    "phone_number": "+39059284810",
    "source_url": "https://www.google.com/maps/place/CAPRARA+s.r.l./data=!4m7!3m6!1s0x477fe898f5f6a29f:0x2d011966f1a640ce!8m2!3d44.6281881!4d10.9732808!16s%2Fg%2F1hc636b9q!19sChIJn6L29Zjof0cRzkCm8WYZAS0?authuser=0&hl=tr&rclk=1",
    "website_url": "http://www.caprara.it/",
    "rating_text": "5,0",
    "stars": null,
    "number_of_reviews": null,
    "price_level": "",
    "open_hours": "",
    "extraction_timestamp": "2025-06-07T16:16:14.993Z",
    "source_name": "google",
    "source_query": "Irrigation Equipment",
    "source_country": "IT",
    "country": "Italy",
    "state": "Emilia-Romagna",
    "city": "Campogalliano"
  },
  {
    "source_id": "ChIJ-Z_RHvbnf0cRry0jCm7Q5GQ",
    "name": "Scova Impianti",
    "category": "Scova Impianti",
    "formatted_address": "4,0(4)",
    "phone_number": "+39059925910",
    "source_url": "https://www.google.com/maps/place/Scova+Impianti/data=!4m7!3m6!1s0x477fe7f61ed19ff9:0x64e4d06e0a232daf!8m2!3d44.6018937!4d11.0315223!16s%2Fg%2F1td6wznv!19sChIJ-Z_RHvbnf0cRry0jCm7Q5GQ?authuser=0&hl=tr&rclk=1",
    "website_url": "https://scovaimpianti.com/",
    "rating_text": "4,0",
    "stars": null,
    "number_of_reviews": null,
    "price_level": "",
    "open_hours": "",
    "extraction_timestamp": "2025-06-07T16:16:14.994Z",
    "source_name": "google",
    "source_query": "Irrigation Equipment",
    "source_country": "IT",
    "country": "Italy",
    "state": "Emilia-Romagna",
    "city": "Campogalliano"
  },
  {
    "source_id": "ChIJ1_K9Dpnxf0cRkB7SCUQmUeE",
    "name": "Ferramenta Diesse Di Dallari Giulio E C.",
    "category": "Ferramenta Diesse Di Dallari Giulio E C.",
    "formatted_address": "4,4(67)",
    "phone_number": "+39059525163",
    "source_url": "https://www.google.com/maps/place/Ferramenta+Diesse+Di+Dallari+Giulio+E+C./data=!4m7!3m6!1s0x477ff1990ebdf2d7:0xe151264409d21e90!8m2!3d44.6928484!4d10.8399663!16s%2Fg%2F1tg2cbmk!19sChIJ1_K9Dpnxf0cRkB7SCUQmUeE?authuser=0&hl=tr&rclk=1",
    "website_url": "",
    "rating_text": "4,4",
    "stars": null,
    "number_of_reviews": null,
    "price_level": "",
    "open_hours": "",
    "extraction_timestamp": "2025-06-07T16:16:14.995Z",
    "source_name": "google",
    "source_query": "Irrigation Equipment",
    "source_country": "IT",
    "country": "Italy",
    "state": "Emilia-Romagna",
    "city": "Campogalliano"
  },
  {
    "source_id": "ChIJQyDw8N_0f0cRhE_m36C06SU",
    "name": "Irrigreen",
    "category": "Irrigreen",
    "formatted_address": "4,3(3)",
    "phone_number": "+390522642318",
    "source_url": "https://www.google.com/maps/place/Irrigreen/data=!4m7!3m6!1s0x477ff4dff0f02043:0x25e9b4a0dfe64f84!8m2!3d45.1836109!4d10.6267461!16s%2Fg%2F1tddwm9t!19sChIJQyDw8N_0f0cRhE_m36C06SU?authuser=0&hl=tr&rclk=1",
    "website_url": "http://www.irrigreen.it/",
    "rating_text": "4,3",
    "stars": null,
    "number_of_reviews": null,
    "price_level": "",
    "open_hours": "",
    "extraction_timestamp": "2025-06-07T16:16:14.995Z",
    "source_name": "google",
    "source_query": "Irrigation Equipment",
    "source_country": "IT",
    "country": "Italy",
    "state": "Emilia-Romagna",
    "city": "Campogalliano"
  }
]
