[
  {
    "source_id": "ChIJy805WcDcgEcRtmGWlwosXQc",
    "name": "IRRIMEC SRL",
    "category": "IRRIMEC SRL",
    "formatted_address": "4,5(90)",
    "phone_number": "+390523760441",
    "source_url": "https://www.google.com/maps/place/IRRIMEC+SRL/data=!4m7!3m6!1s0x4780dcc05939cdcb:0x75d2c0a979661b6!8m2!3d45.0612353!4d9.630829!16s%2Fg%2F1tdgt7d_!19sChIJy805WcDcgEcRtmGWlwosXQc?authuser=0&hl=tr&rclk=1",
    "website_url": "http://www.irrimec.com/",
    "rating_text": "4,5",
    "stars": null,
    "number_of_reviews": null,
    "price_level": "",
    "open_hours": "",
    "extraction_timestamp": "2025-06-07T16:58:28.848Z",
    "source_name": "google",
    "source_query": "Irrigation Equipment",
    "source_country": "IT",
    "country": "Italy",
    "state": "Emilia-Romagna",
    "city": "Caorso"
  },
  {
    "source_id": "ChIJWZiTWDDlgEcR7HEUSBVilcA",
    "name": "Bicalor",
    "category": "Bicalor",
    "formatted_address": "5,0(10)",
    "phone_number": "+390523814251",
    "source_url": "https://www.google.com/maps/place/Bicalor/data=!4m7!3m6!1s0x4780e53058939859:0xc0956215481471ec!8m2!3d45.0485681!4d9.8732745!16s%2Fg%2F1tykt6z_!19sChIJWZiTWDDlgEcR7HEUSBVilcA?authuser=0&hl=tr&rclk=1",
    "website_url": "http://www.bicalor.it/",
    "rating_text": "5,0",
    "stars": null,
    "number_of_reviews": null,
    "price_level": "",
    "open_hours": "",
    "extraction_timestamp": "2025-06-07T16:58:28.849Z",
    "source_name": "google",
    "source_query": "Irrigation Equipment",
    "source_country": "IT",
    "country": "Italy",
    "state": "Emilia-Romagna",
    "city": "Caorso"
  },
  {
    "source_id": "ChIJH7wOmjDlgEcRSM64aMNsteA",
    "name": "S.A.T.A.C.I. snc",
    "category": "S.A.T.A.C.I. snc",
    "formatted_address": "5,0(2)",
    "phone_number": "+390523814084",
    "source_url": "https://www.google.com/maps/place/S.A.T.A.C.I.+snc/data=!4m7!3m6!1s0x4780e5309a0ebc1f:0xe0b56cc368b8ce48!8m2!3d45.0414619!4d9.8463983!16s%2Fg%2F1thxznfl!19sChIJH7wOmjDlgEcRSM64aMNsteA?authuser=0&hl=tr&rclk=1",
    "website_url": "http://www.sataci.it/",
    "rating_text": "5,0",
    "stars": null,
    "number_of_reviews": null,
    "price_level": "",
    "open_hours": "",
    "extraction_timestamp": "2025-06-07T16:58:28.851Z",
    "source_name": "google",
    "source_query": "Irrigation Equipment",
    "source_country": "IT",
    "country": "Italy",
    "state": "Emilia-Romagna",
    "city": "Caorso"
  },
  {
    "source_id": "ChIJyWYH1jDlgEcRbYNM0m65F1o",
    "name": "Edilferramenta Pier Antonio Di Boveri",
    "category": "Edilferramenta Pier Antonio Di Boveri",
    "formatted_address": "4,5(94)",
    "phone_number": "+390523821083",
    "source_url": "https://www.google.com/maps/place/Edilferramenta+Pier+Antonio+Di+Boveri/data=!4m7!3m6!1s0x4780e530d60766c9:0x5a17b96ed24c836d!8m2!3d45.0447502!4d9.8737077!16s%2Fg%2F1tj_42p1!19sChIJyWYH1jDlgEcRbYNM0m65F1o?authuser=0&hl=tr&rclk=1",
    "website_url": "",
    "rating_text": "4,5",
    "stars": null,
    "number_of_reviews": null,
    "price_level": "",
    "open_hours": "",
    "extraction_timestamp": "2025-06-07T16:58:28.852Z",
    "source_name": "google",
    "source_query": "Irrigation Equipment",
    "source_country": "IT",
    "country": "Italy",
    "state": "Emilia-Romagna",
    "city": "Caorso"
  },
  {
    "source_id": "ChIJlYf_RGDmgEcRLzdq0QENdTo",
    "name": "Agrosistemi Srl",
    "category": "Agrosistemi Srl",
    "formatted_address": "5,0(2)",
    "phone_number": "+390523490772",
    "source_url": "https://www.google.com/maps/place/Agrosistemi+Srl/data=!4m7!3m6!1s0x4780e66044ff8795:0x3a750d01d16a372f!8m2!3d45.0666972!4d9.775301!16s%2Fg%2F11c0q0q0f4!19sChIJlYf_RGDmgEcRLzdq0QENdTo?authuser=0&hl=tr&rclk=1",
    "website_url": "http://www.agrosistemi.it/",
    "rating_text": "5,0",
    "stars": null,
    "number_of_reviews": null,
    "price_level": "",
    "open_hours": "",
    "extraction_timestamp": "2025-06-07T16:58:28.853Z",
    "source_name": "google",
    "source_query": "Irrigation Equipment",
    "source_country": "IT",
    "country": "Italy",
    "state": "Emilia-Romagna",
    "city": "Caorso"
  },
  {
    "source_id": "ChIJP-CISQ3-gEcRXwl1yi9NW2Q",
    "name": "SIIP - Società Impianti di irrigazione a pioggia",
    "category": "SIIP - Società Impianti di irrigazione a pioggia",
    "formatted_address": "5,0(2)",
    "phone_number": "+393356863605",
    "source_url": "https://www.google.com/maps/place/SIIP+-+Societ%C3%A0+Impianti+di+irrigazione+a+pioggia/data=!4m7!3m6!1s0x4780fe0d4988e03f:0x645b4d2fca75095f!8m2!3d45.1417827!4d10.0200624!16s%2Fg%2F1vqtfn9y!19sChIJP-CISQ3-gEcRXwl1yi9NW2Q?authuser=0&hl=tr&rclk=1",
    "website_url": "https://www.impiantiirrigazionicremona.com/",
    "rating_text": "5,0",
    "stars": null,
    "number_of_reviews": null,
    "price_level": "",
    "open_hours": "",
    "extraction_timestamp": "2025-06-07T16:58:28.855Z",
    "source_name": "google",
    "source_query": "Irrigation Equipment",
    "source_country": "IT",
    "country": "Italy",
    "state": "Emilia-Romagna",
    "city": "Caorso"
  },
  {
    "source_id": "ChIJ90762m6rgUcRrOpHkQtN0qE",
    "name": "ACQUAFERT",
    "category": "ACQUAFERT",
    "formatted_address": "4,8(13)",
    "phone_number": "+390372835672",
    "source_url": "https://www.google.com/maps/place/ACQUAFERT/data=!4m7!3m6!1s0x4781ab6edafa4ef7:0xa1d24d0b9147eaac!8m2!3d45.1695663!4d10.1916537!16s%2Fg%2F11c1ny5b5r!19sChIJ90762m6rgUcRrOpHkQtN0qE?authuser=0&hl=tr&rclk=1",
    "website_url": "https://www.acquafertagri.it/",
    "rating_text": "4,8",
    "stars": null,
    "number_of_reviews": null,
    "price_level": "",
    "open_hours": "",
    "extraction_timestamp": "2025-06-07T16:58:28.856Z",
    "source_name": "google",
    "source_query": "Irrigation Equipment",
    "source_country": "IT",
    "country": "Italy",
    "state": "Emilia-Romagna",
    "city": "Caorso"
  },
  {
    "source_id": "ChIJK1RNYVXsgEcR1miRztfmQNs",
    "name": "Idro Piacenza Srl",
    "category": "Idro Piacenza Srl",
    "formatted_address": "4,3(7)",
    "phone_number": "+390523853180",
    "source_url": "https://www.google.com/maps/place/Idro+Piacenza+Srl/data=!4m7!3m6!1s0x4780ec55614d542b:0xdb40e6d7ce9168d6!8m2!3d44.9125754!4d9.7729865!16s%2Fg%2F1thmjvv8!19sChIJK1RNYVXsgEcR1miRztfmQNs?authuser=0&hl=tr&rclk=1",
    "website_url": "https://www.idropiacenza.com/",
    "rating_text": "4,3",
    "stars": null,
    "number_of_reviews": null,
    "price_level": "",
    "open_hours": "",
    "extraction_timestamp": "2025-06-07T16:58:28.857Z",
    "source_name": "google",
    "source_query": "Irrigation Equipment",
    "source_country": "IT",
    "country": "Italy",
    "state": "Emilia-Romagna",
    "city": "Caorso"
  },
  {
    "source_id": "ChIJtVDkNgRFgEcRqc6umwWIJuI",
    "name": "Rm Spa",
    "category": "Rm Spa",
    "formatted_address": "4,6(81)",
    "phone_number": "+390521872321",
    "source_url": "https://www.google.com/maps/place/Rm+Spa/data=!4m7!3m6!1s0x4780450436e450b5:0xe22688059baecea9!8m2!3d44.9105406!4d10.2583785!16s%2Fg%2F12hl93byl!19sChIJtVDkNgRFgEcRqc6umwWIJuI?authuser=0&hl=tr&rclk=1",
    "website_url": "http://www.rmirrigation.com/",
    "rating_text": "4,6",
    "stars": null,
    "number_of_reviews": null,
    "price_level": "",
    "open_hours": "",
    "extraction_timestamp": "2025-06-07T16:58:28.859Z",
    "source_name": "google",
    "source_query": "Irrigation Equipment",
    "source_country": "IT",
    "country": "Italy",
    "state": "Emilia-Romagna",
    "city": "Caorso"
  },
  {
    "source_id": "ChIJGVuRBn7ogEcRGBzIo3J6pT0",
    "name": "Hydra Water",
    "category": "Hydra Water",
    "formatted_address": "3,0(2)",
    "phone_number": "+390523497185",
    "source_url": "https://www.google.com/maps/place/Hydra+Water/data=!4m7!3m6!1s0x4780e87e06915b19:0x3da57a72a3c81c18!8m2!3d45.0303299!4d9.7363131!16s%2Fg%2F12hnfyhf1!19sChIJGVuRBn7ogEcRGBzIo3J6pT0?authuser=0&hl=tr&rclk=1",
    "website_url": "http://www.hydrawater.it/",
    "rating_text": "3,0",
    "stars": null,
    "number_of_reviews": null,
    "price_level": "",
    "open_hours": "",
    "extraction_timestamp": "2025-06-07T16:58:28.860Z",
    "source_name": "google",
    "source_query": "Irrigation Equipment",
    "source_country": "IT",
    "country": "Italy",
    "state": "Emilia-Romagna",
    "city": "Caorso"
  },
  {
    "source_id": "ChIJF7r46AXOQAwRJLXyaTne9oY",
    "name": "GA. ANTINCENDIO",
    "category": "GA. ANTINCENDIO",
    "formatted_address": "",
    "phone_number": "+393738370789",
    "source_url": "https://www.google.com/maps/place/GA.+ANTINCENDIO/data=!4m7!3m6!1s0xc40ce05e8f8ba17:0x86f6de3969f2b524!8m2!3d45.0422201!4d9.6981487!16s%2Fg%2F11l5q1k0c0!19sChIJF7r46AXOQAwRJLXyaTne9oY?authuser=0&hl=tr&rclk=1",
    "website_url": "",
    "rating_text": "",
    "stars": null,
    "number_of_reviews": null,
    "price_level": "",
    "open_hours": "",
    "extraction_timestamp": "2025-06-07T16:58:28.861Z",
    "source_name": "google",
    "source_query": "Irrigation Equipment",
    "source_country": "IT",
    "country": "Italy",
    "state": "Emilia-Romagna",
    "city": "Caorso"
  }
]
