[
  {
    "source_id": "ChIJPzARJO7sgEcRiLa8c2yngpg",
    "name": "Casella Macchine Agricole Srl",
    "category": "Casella Macchine Agricole Srl",
    "formatted_address": "4,6(290)",
    "phone_number": "+390523853911",
    "source_url": "https://www.google.com/maps/place/Casella+Macchine+Agricole+Srl/data=!4m7!3m6!1s0x4780ecee2411303f:0x9882a76c73bcb688!8m2!3d44.9181761!4d9.7741966!16s%2Fg%2F1tfghp4p!19sChIJPzARJO7sgEcRiLa8c2yngpg?authuser=0&hl=tr&rclk=1",
    "website_url": "http://www.casella.it/",
    "rating_text": "4,6",
    "stars": null,
    "number_of_reviews": null,
    "price_level": "",
    "open_hours": "",
    "extraction_timestamp": "2025-06-07T16:29:23.964Z",
    "source_name": "google",
    "source_query": "Irrigation Equipment",
    "source_country": "IT",
    "country": "Italy",
    "state": "Emilia-Romagna",
    "city": "Carpaneto Piacentino"
  },
  {
    "source_id": "ChIJy805WcDcgEcRtmGWlwosXQc",
    "name": "IRRIMEC SRL",
    "category": "IRRIMEC SRL",
    "formatted_address": "4,5(90)",
    "phone_number": "+390523760441",
    "source_url": "https://www.google.com/maps/place/IRRIMEC+SRL/data=!4m7!3m6!1s0x4780dcc05939cdcb:0x75d2c0a979661b6!8m2!3d45.0612353!4d9.630829!16s%2Fg%2F1tdgt7d_!19sChIJy805WcDcgEcRtmGWlwosXQc?authuser=0&hl=tr&rclk=1",
    "website_url": "http://www.irrimec.com/",
    "rating_text": "4,5",
    "stars": null,
    "number_of_reviews": null,
    "price_level": "",
    "open_hours": "",
    "extraction_timestamp": "2025-06-07T16:29:23.966Z",
    "source_name": "google",
    "source_query": "Irrigation Equipment",
    "source_country": "IT",
    "country": "Italy",
    "state": "Emilia-Romagna",
    "city": "Carpaneto Piacentino"
  },
  {
    "source_id": "ChIJK1RNYVXsgEcR1miRztfmQNs",
    "name": "Idro Piacenza Srl",
    "category": "Idro Piacenza Srl",
    "formatted_address": "4,3(7)",
    "phone_number": "+390523853180",
    "source_url": "https://www.google.com/maps/place/Idro+Piacenza+Srl/data=!4m7!3m6!1s0x4780ec55614d542b:0xdb40e6d7ce9168d6!8m2!3d44.9125754!4d9.7729865!16s%2Fg%2F1thmjvv8!19sChIJK1RNYVXsgEcR1miRztfmQNs?authuser=0&hl=tr&rclk=1",
    "website_url": "https://www.idropiacenza.com/",
    "rating_text": "4,3",
    "stars": null,
    "number_of_reviews": null,
    "price_level": "",
    "open_hours": "",
    "extraction_timestamp": "2025-06-07T16:29:23.969Z",
    "source_name": "google",
    "source_query": "Irrigation Equipment",
    "source_country": "IT",
    "country": "Italy",
    "state": "Emilia-Romagna",
    "city": "Carpaneto Piacentino"
  },
  {
    "source_id": "ChIJYbWmFpPsgEcRz1z6dgtmGO0",
    "name": "Eredi Fiorani Snc",
    "category": "Eredi Fiorani Snc",
    "formatted_address": "5,0(3)",
    "phone_number": "+390523852149",
    "source_url": "https://www.google.com/maps/place/Eredi+Fiorani+Snc/data=!4m7!3m6!1s0x4780ec9316a6b561:0xed18660b76fa5ccf!8m2!3d44.906479!4d9.7624584!16s%2Fg%2F11b6jh4s6p!19sChIJYbWmFpPsgEcRz1z6dgtmGO0?authuser=0&hl=tr&rclk=1",
    "website_url": "",
    "rating_text": "5,0",
    "stars": null,
    "number_of_reviews": null,
    "price_level": "",
    "open_hours": "",
    "extraction_timestamp": "2025-06-07T16:29:23.970Z",
    "source_name": "google",
    "source_query": "Irrigation Equipment",
    "source_country": "IT",
    "country": "Italy",
    "state": "Emilia-Romagna",
    "city": "Carpaneto Piacentino"
  },
  {
    "source_id": "ChIJPzARJO7sgEcREQA5Oh0iAXg",
    "name": "B.C. Erre S.R.L. International Plant & Equipement Services",
    "category": "B.C. Erre S.R.L. International Plant & Equipement Services",
    "formatted_address": "4,2(17)",
    "phone_number": "+390523850216",
    "source_url": "https://www.google.com/maps/place/B.C.+Erre+S.R.L.+International+Plant+%26+Equipement+Services/data=!4m7!3m6!1s0x4780ecee2411303f:0x7801221d3a390011!8m2!3d44.9141769!4d9.7755079!16s%2Fg%2F1tgprgpc!19sChIJPzARJO7sgEcREQA5Oh0iAXg?authuser=0&hl=tr&rclk=1",
    "website_url": "http://www.bcerre.it/",
    "rating_text": "4,2",
    "stars": null,
    "number_of_reviews": null,
    "price_level": "",
    "open_hours": "",
    "extraction_timestamp": "2025-06-07T16:29:23.972Z",
    "source_name": "google",
    "source_query": "Irrigation Equipment",
    "source_country": "IT",
    "country": "Italy",
    "state": "Emilia-Romagna",
    "city": "Carpaneto Piacentino"
  },
  {
    "source_id": "ChIJYUm-bf_sgEcRcywrooMHXHU",
    "name": "FERRAMENTA BONINI GIOVANNI & C. SNC",
    "category": "FERRAMENTA BONINI GIOVANNI & C. SNC",
    "formatted_address": "4,6(46)",
    "phone_number": "+390523852108",
    "source_url": "https://www.google.com/maps/place/FERRAMENTA+BONINI+GIOVANNI+%26+C.+SNC/data=!4m7!3m6!1s0x4780ecff6dbe4961:0x755c0783a22b2c73!8m2!3d44.915988!4d9.7870425!16s%2Fg%2F11gbtzn2h3!19sChIJYUm-bf_sgEcRcywrooMHXHU?authuser=0&hl=tr&rclk=1",
    "website_url": "",
    "rating_text": "4,6",
    "stars": null,
    "number_of_reviews": null,
    "price_level": "",
    "open_hours": "",
    "extraction_timestamp": "2025-06-07T16:29:23.974Z",
    "source_name": "google",
    "source_query": "Irrigation Equipment",
    "source_country": "IT",
    "country": "Italy",
    "state": "Emilia-Romagna",
    "city": "Carpaneto Piacentino"
  },
  {
    "source_id": "ChIJ4WnZNofogEcRcCSJgGupNXk",
    "name": "Irrigarden",
    "category": "Irrigarden",
    "formatted_address": "3,7(6)",
    "phone_number": "+390523592012",
    "source_url": "https://www.google.com/maps/place/Irrigarden/data=!4m7!3m6!1s0x4780e88736d969e1:0x7935a96b80892470!8m2!3d45.0288739!4d9.7384753!16s%2Fg%2F11g4d1r753!19sChIJ4WnZNofogEcRcCSJgGupNXk?authuser=0&hl=tr&rclk=1",
    "website_url": "https://www.irrigarden.com/",
    "rating_text": "3,7",
    "stars": null,
    "number_of_reviews": null,
    "price_level": "",
    "open_hours": "",
    "extraction_timestamp": "2025-06-07T16:29:23.976Z",
    "source_name": "google",
    "source_query": "Irrigation Equipment",
    "source_country": "IT",
    "country": "Italy",
    "state": "Emilia-Romagna",
    "city": "Carpaneto Piacentino"
  },
  {
    "source_id": "ChIJowY_3N7ngEcRTiAvwcqeGUI",
    "name": "Paesaggistica Piacentina Srl",
    "category": "Paesaggistica Piacentina Srl",
    "formatted_address": "5,0(1)",
    "phone_number": "+390523618154",
    "source_url": "https://www.google.com/maps/place/Paesaggistica+Piacentina+Srl/data=!4m7!3m6!1s0x4780e7dedc3f06a3:0x42199ecac12f204e!8m2!3d44.9922856!4d9.6929373!16s%2Fg%2F11b6j2cgrt!19sChIJowY_3N7ngEcRTiAvwcqeGUI?authuser=0&hl=tr&rclk=1",
    "website_url": "https://www.paesaggisticapiacentina.com/",
    "rating_text": "5,0",
    "stars": null,
    "number_of_reviews": null,
    "price_level": "",
    "open_hours": "",
    "extraction_timestamp": "2025-06-07T16:29:23.978Z",
    "source_name": "google",
    "source_query": "Irrigation Equipment",
    "source_country": "IT",
    "country": "Italy",
    "state": "Emilia-Romagna",
    "city": "Carpaneto Piacentino"
  }
]
