[
  {
    "source_id": "ChIJvZJ0LtLyf0cRz2aYXzO1hTg",
    "name": "Maccaferri Srl",
    "category": "Maccaferri Srl",
    "formatted_address": "5,0(339)",
    "phone_number": "+39059697449",
    "source_url": "https://www.google.com/maps/place/Maccaferri+Srl/data=!4m7!3m6!1s0x477ff2d22e7492bd:0x3885b5335f9866cf!8m2!3d44.7721393!4d10.8592592!16s%2Fg%2F1tdqmhmz!19sChIJvZJ0LtLyf0cRz2aYXzO1hTg?authuser=0&hl=tr&rclk=1",
    "website_url": "",
    "rating_text": "5,0",
    "stars": null,
    "number_of_reviews": null,
    "price_level": "",
    "open_hours": "",
    "extraction_timestamp": "2025-06-07T15:56:03.189Z",
    "source_name": "google",
    "source_query": "Irrigation Equipment",
    "source_country": "IT",
    "country": "Italy",
    "state": "Emilia-Romagna",
    "city": "Carpi Centro"
  },
  {
    "source_id": "ChIJsQ8qItOMf0cRg-cPQUxzNeY",
    "name": "Geo Verde Srl",
    "category": "Geo Verde Srl",
    "formatted_address": "4,5(83)",
    "phone_number": "+39059664547",
    "source_url": "https://www.google.com/maps/place/Geo+Verde+Srl/data=!4m7!3m6!1s0x477f8cd3222a0fb1:0xe635734c410fe783!8m2!3d44.7831118!4d10.8574125!16s%2Fg%2F11bc7rzz2b!19sChIJsQ8qItOMf0cRg-cPQUxzNeY?authuser=0&hl=tr&rclk=1",
    "website_url": "",
    "rating_text": "4,5",
    "stars": null,
    "number_of_reviews": null,
    "price_level": "",
    "open_hours": "",
    "extraction_timestamp": "2025-06-07T15:56:03.190Z",
    "source_name": "google",
    "source_query": "Irrigation Equipment",
    "source_country": "IT",
    "country": "Italy",
    "state": "Emilia-Romagna",
    "city": "Carpi Centro"
  },
  {
    "source_id": "ChIJL9U-iTaNf0cRT0byzQ2__-k",
    "name": "Bricofer Carpi",
    "category": "Bricofer Carpi",
    "formatted_address": "3,7(1.268)",
    "phone_number": "+390597129199",
    "source_url": "https://www.google.com/maps/place/Bricofer+Carpi/data=!4m7!3m6!1s0x477f8d36893ed52f:0xe9ffbf0dcdf2464f!8m2!3d44.7839027!4d10.8592188!16s%2Fg%2F11h0y6xj49!19sChIJL9U-iTaNf0cRT0byzQ2__-k?authuser=0&hl=tr&rclk=1",
    "website_url": "",
    "rating_text": "3,7",
    "stars": null,
    "number_of_reviews": null,
    "price_level": "",
    "open_hours": "",
    "extraction_timestamp": "2025-06-07T15:56:03.192Z",
    "source_name": "google",
    "source_query": "Irrigation Equipment",
    "source_country": "IT",
    "country": "Italy",
    "state": "Emilia-Romagna",
    "city": "Carpi Centro"
  },
  {
    "source_id": "ChIJlza9GMTyf0cRO_e-I3BiD-Y",
    "name": "Bertani S.p.a. - Magazzino di Carpi",
    "category": "Bertani S.p.a. - Magazzino di Carpi",
    "formatted_address": "4,7(13)",
    "phone_number": "+39059644180",
    "source_url": "https://www.google.com/maps/place/Bertani+S.p.a.+-+Magazzino+di+Carpi/data=!4m7!3m6!1s0x477ff2c418bd3697:0xe60f627023bef73b!8m2!3d44.767323!4d10.877187!16s%2Fg%2F11b6t28svw!19sChIJlza9GMTyf0cRO_e-I3BiD-Y?authuser=0&hl=tr&rclk=1",
    "website_url": "",
    "rating_text": "4,7",
    "stars": null,
    "number_of_reviews": null,
    "price_level": "",
    "open_hours": "",
    "extraction_timestamp": "2025-06-07T15:56:03.193Z",
    "source_name": "google",
    "source_query": "Irrigation Equipment",
    "source_country": "IT",
    "country": "Italy",
    "state": "Emilia-Romagna",
    "city": "Carpi Centro"
  },
  {
    "source_id": "ChIJveJ33r7yf0cRCXaiELFB8oY",
    "name": "Nuova Sirt",
    "category": "Nuova Sirt",
    "formatted_address": "4,4(99)",
    "phone_number": "+39059645900",
    "source_url": "https://www.google.com/maps/place/Nuova+Sirt/data=!4m7!3m6!1s0x477ff2bede77e2bd:0x86f241b110a27609!8m2!3d44.7641266!4d10.8858893!16s%2Fg%2F1v3_1jbl!19sChIJveJ33r7yf0cRCXaiELFB8oY?authuser=0&hl=tr&rclk=1",
    "website_url": "",
    "rating_text": "4,4",
    "stars": null,
    "number_of_reviews": null,
    "price_level": "",
    "open_hours": "",
    "extraction_timestamp": "2025-06-07T15:56:03.193Z",
    "source_name": "google",
    "source_query": "Irrigation Equipment",
    "source_country": "IT",
    "country": "Italy",
    "state": "Emilia-Romagna",
    "city": "Carpi Centro"
  },
  {
    "source_id": "ChIJGZA2mCTzf0cRlRO5Yfi49CY",
    "name": "OBI",
    "category": "OBI",
    "formatted_address": "3,9(1.387)",
    "phone_number": "+39059625891",
    "source_url": "https://www.google.com/maps/place/OBI/data=!4m7!3m6!1s0x477ff32498369019:0x26f4b8f861b91395!8m2!3d44.780246!4d10.8597533!16s%2Fg%2F1tdnd2vf!19sChIJGZA2mCTzf0cRlRO5Yfi49CY?authuser=0&hl=tr&rclk=1",
    "website_url": "",
    "rating_text": "3,9",
    "stars": null,
    "number_of_reviews": null,
    "price_level": "",
    "open_hours": "",
    "extraction_timestamp": "2025-06-07T15:56:03.195Z",
    "source_name": "google",
    "source_query": "Irrigation Equipment",
    "source_country": "IT",
    "country": "Italy",
    "state": "Emilia-Romagna",
    "city": "Carpi Centro"
  },
  {
    "source_id": "ChIJm3zokwONf0cR4R-aiqrkjQ0",
    "name": "GIS SRL |Compressori industriali e accessori per l’aria compressa |Modena |Carpi",
    "category": "GIS SRL |Compressori industriali e accessori per l’aria compressa |Modena |Carpi",
    "formatted_address": "4,3(30)",
    "phone_number": "+39059657018",
    "source_url": "https://www.google.com/maps/place/GIS+SRL+%7CCompressori+industriali+e+accessori+per+l%E2%80%99aria+compressa+%7CModena+%7CCarpi/data=!4m7!3m6!1s0x477f8d0393e87c9b:0xd8de4aa8a9a1fe1!8m2!3d44.8097491!4d10.8805687!16s%2Fg%2F1tdc8n59!19sChIJm3zokwONf0cR4R-aiqrkjQ0?authuser=0&hl=tr&rclk=1",
    "website_url": "",
    "rating_text": "4,3",
    "stars": null,
    "number_of_reviews": null,
    "price_level": "",
    "open_hours": "",
    "extraction_timestamp": "2025-06-07T15:56:03.196Z",
    "source_name": "google",
    "source_query": "Irrigation Equipment",
    "source_country": "IT",
    "country": "Italy",
    "state": "Emilia-Romagna",
    "city": "Carpi Centro"
  },
  {
    "source_id": "ChIJ78AGAtHyf0cRFX3l4xploIg",
    "name": "Turbogas 2 Ferramenta || Bombole Gas GPL || Chiavi e Serrature || Tuttofare Carpi - Modena",
    "category": "Turbogas 2 Ferramenta || Bombole Gas GPL || Chiavi e Serrature || Tuttofare Carpi - Modena",
    "formatted_address": "4,2(5)",
    "phone_number": "+39059690093",
    "source_url": "https://www.google.com/maps/place/Turbogas+2+Ferramenta+%7C%7C+Bombole+Gas+GPL+%7C%7C+Chiavi+e+Serrature+%7C%7C+Tuttofare+Carpi+-+Modena/data=!4m7!3m6!1s0x477ff2d10206c0ef:0x88a0651ae3e57d15!8m2!3d44.7733177!4d10.8705385!16s%2Fg%2F11g6l_0tsf!19sChIJ78AGAtHyf0cRFX3l4xploIg?authuser=0&hl=tr&rclk=1",
    "website_url": "",
    "rating_text": "4,2",
    "stars": null,
    "number_of_reviews": null,
    "price_level": "",
    "open_hours": "",
    "extraction_timestamp": "2025-06-07T15:56:03.196Z",
    "source_name": "google",
    "source_query": "Irrigation Equipment",
    "source_country": "IT",
    "country": "Italy",
    "state": "Emilia-Romagna",
    "city": "Carpi Centro"
  },
  {
    "source_id": "ChIJ7RRPJhjzf0cRhj_xoCCaFxs",
    "name": "Centro Verde",
    "category": "Centro Verde",
    "formatted_address": "4,5(4)",
    "phone_number": "+39059664206",
    "source_url": "https://www.google.com/maps/place/Centro+Verde/data=!4m7!3m6!1s0x477ff318264f14ed:0x1b179a20a0f13f86!8m2!3d44.7677806!4d10.8511244!16s%2Fg%2F1tj4fxcy!19sChIJ7RRPJhjzf0cRhj_xoCCaFxs?authuser=0&hl=tr&rclk=1",
    "website_url": "",
    "rating_text": "4,5",
    "stars": null,
    "number_of_reviews": null,
    "price_level": "",
    "open_hours": "",
    "extraction_timestamp": "2025-06-07T15:56:03.197Z",
    "source_name": "google",
    "source_query": "Irrigation Equipment",
    "source_country": "IT",
    "country": "Italy",
    "state": "Emilia-Romagna",
    "city": "Carpi Centro"
  },
  {
    "source_id": "ChIJ7UCi1n-Nf0cR0xL6i11ec5Y",
    "name": "Pignatti Erasmo Pemag",
    "category": "Pignatti Erasmo Pemag",
    "formatted_address": "4,2(17)",
    "phone_number": "+39059687074",
    "source_url": "https://www.google.com/maps/place/Pignatti+Erasmo+Pemag/data=!4m7!3m6!1s0x477f8d7fd6a240ed:0x96735e5d8bfa12d3!8m2!3d44.8094686!4d10.9205088!16s%2Fg%2F1tx146q3!19sChIJ7UCi1n-Nf0cR0xL6i11ec5Y?authuser=0&hl=tr&rclk=1",
    "website_url": "",
    "rating_text": "4,2",
    "stars": null,
    "number_of_reviews": null,
    "price_level": "",
    "open_hours": "",
    "extraction_timestamp": "2025-06-07T15:56:03.198Z",
    "source_name": "google",
    "source_query": "Irrigation Equipment",
    "source_country": "IT",
    "country": "Italy",
    "state": "Emilia-Romagna",
    "city": "Carpi Centro"
  },
  {
    "source_id": "ChIJW4kO2EmNf0cRe-DzgBVUTpc",
    "name": "Fatis Forniture termoidrauliche e arredo bagno",
    "category": "Fatis Forniture termoidrauliche e arredo bagno",
    "formatted_address": "4,2(97)",
    "phone_number": "+39059682020",
    "source_url": "https://www.google.com/maps/place/Fatis+Forniture+termoidrauliche+e+arredo+bagno/data=!4m7!3m6!1s0x477f8d49d80e895b:0x974e541580f3e07b!8m2!3d44.781171!4d10.8567829!16s%2Fg%2F1v3klxxj!19sChIJW4kO2EmNf0cRe-DzgBVUTpc?authuser=0&hl=tr&rclk=1",
    "website_url": "",
    "rating_text": "4,2",
    "stars": null,
    "number_of_reviews": null,
    "price_level": "",
    "open_hours": "",
    "extraction_timestamp": "2025-06-07T15:56:03.198Z",
    "source_name": "google",
    "source_query": "Irrigation Equipment",
    "source_country": "IT",
    "country": "Italy",
    "state": "Emilia-Romagna",
    "city": "Carpi Centro"
  },
  {
    "source_id": "ChIJ8fBs9lrzf0cRnBflr4wCMVA",
    "name": "IDRO-GEO Trattamento Acque",
    "category": "IDRO-GEO Trattamento Acque",
    "formatted_address": "Su Yumuşatma Ekipmanları Tedarikçisi ·  · Via Due Ponti, 52/52A+39 059 851269",
    "phone_number": "+39059851269",
    "source_url": "https://www.google.com/maps/place/IDRO-GEO+Trattamento+Acque/data=!4m7!3m6!1s0x477ff35af66cf0f1:0x5031028cafe5179c!8m2!3d44.7778941!4d10.8974585!16s%2Fg%2F11fpj5tvm0!19sChIJ8fBs9lrzf0cRnBflr4wCMVA?authuser=0&hl=tr&rclk=1",
    "website_url": "",
    "rating_text": "",
    "stars": null,
    "number_of_reviews": null,
    "price_level": "",
    "open_hours": "",
    "extraction_timestamp": "2025-06-07T15:56:03.199Z",
    "source_name": "google",
    "source_query": "Irrigation Equipment",
    "source_country": "IT",
    "country": "Italy",
    "state": "Emilia-Romagna",
    "city": "Carpi Centro"
  },
  {
    "source_id": "ChIJ51fvfa2Nf0cREdF9OkLlH-8",
    "name": "Control Calor - Assistenza e manutenzione Immergas",
    "category": "Control Calor - Assistenza e manutenzione Immergas",
    "formatted_address": "4,2(9)",
    "phone_number": "+390595967667",
    "source_url": "https://www.google.com/maps/place/Control+Calor+-+Assistenza+e+manutenzione+Immergas/data=!4m7!3m6!1s0x477f8dad7def57e7:0xef1fe5423a7dd111!8m2!3d44.8053521!4d10.8816371!16s%2Fg%2F11ffm1xdcr!19sChIJ51fvfa2Nf0cREdF9OkLlH-8?authuser=0&hl=tr&rclk=1",
    "website_url": "",
    "rating_text": "4,2",
    "stars": null,
    "number_of_reviews": null,
    "price_level": "",
    "open_hours": "",
    "extraction_timestamp": "2025-06-07T15:56:03.200Z",
    "source_name": "google",
    "source_query": "Irrigation Equipment",
    "source_country": "IT",
    "country": "Italy",
    "state": "Emilia-Romagna",
    "city": "Carpi Centro"
  },
  {
    "source_id": "ChIJyZdf9RuNf0cRXF9tIIx8eKs",
    "name": "Special Gas di Andrea Specchia | Termoidraulica e Condizionamento",
    "category": "Special Gas di Andrea Specchia | Termoidraulica e Condizionamento",
    "formatted_address": "4,7(3)",
    "phone_number": "+393534169021",
    "source_url": "https://www.google.com/maps/place/Special+Gas+di+Andrea+Specchia+%7C+Termoidraulica+e+Condizionamento/data=!4m7!3m6!1s0x477f8d1bf55f97c9:0xab787c8c206d5f5c!8m2!3d44.7917244!4d10.8975224!16s%2Fg%2F11h0jlwsv5!19sChIJyZdf9RuNf0cRXF9tIIx8eKs?authuser=0&hl=tr&rclk=1",
    "website_url": "",
    "rating_text": "4,7",
    "stars": null,
    "number_of_reviews": null,
    "price_level": "",
    "open_hours": "",
    "extraction_timestamp": "2025-06-07T15:56:03.200Z",
    "source_name": "google",
    "source_query": "Irrigation Equipment",
    "source_country": "IT",
    "country": "Italy",
    "state": "Emilia-Romagna",
    "city": "Carpi Centro"
  },
  {
    "source_id": "ChIJI8FOuz6Nf0cRrSUbxniEI7M",
    "name": "NUOVA COLOR FER DI PERPIGLIA GIOVANNI",
    "category": "NUOVA COLOR FER DI PERPIGLIA GIOVANNI",
    "formatted_address": "4,7(55)",
    "phone_number": "+39059685970",
    "source_url": "https://www.google.com/maps/place/NUOVA+COLOR+FER+DI+PERPIGLIA+GIOVANNI/data=!4m7!3m6!1s0x477f8d3ebb4ec123:0xb3238478c61b25ad!8m2!3d44.7938649!4d10.8885551!16s%2Fg%2F1tv3mjjz!19sChIJI8FOuz6Nf0cRrSUbxniEI7M?authuser=0&hl=tr&rclk=1",
    "website_url": "",
    "rating_text": "4,7",
    "stars": null,
    "number_of_reviews": null,
    "price_level": "",
    "open_hours": "",
    "extraction_timestamp": "2025-06-07T15:56:03.201Z",
    "source_name": "google",
    "source_query": "Irrigation Equipment",
    "source_country": "IT",
    "country": "Italy",
    "state": "Emilia-Romagna",
    "city": "Carpi Centro"
  },
  {
    "source_id": "ChIJAWjwvifzf0cR6DmXPiPWwL4",
    "name": "Rinnai Italia Srl",
    "category": "Rinnai Italia Srl",
    "formatted_address": "3,1(49)",
    "phone_number": "+390596229248",
    "source_url": "https://www.google.com/maps/place/Rinnai+Italia+Srl/data=!4m7!3m6!1s0x477ff327bef06801:0xbec0d6233e9739e8!8m2!3d44.7645281!4d10.8848922!16s%2Fg%2F11b6ntyxjl!19sChIJAWjwvifzf0cR6DmXPiPWwL4?authuser=0&hl=tr&rclk=1",
    "website_url": "",
    "rating_text": "3,1",
    "stars": null,
    "number_of_reviews": null,
    "price_level": "",
    "open_hours": "",
    "extraction_timestamp": "2025-06-07T15:56:03.202Z",
    "source_name": "google",
    "source_query": "Irrigation Equipment",
    "source_country": "IT",
    "country": "Italy",
    "state": "Emilia-Romagna",
    "city": "Carpi Centro"
  },
  {
    "source_id": "ChIJcQG6ul7df0cR3VxKiu5OPBs",
    "name": "Scova Impianti Srl",
    "category": "Scova Impianti Srl",
    "formatted_address": "4,5(64)",
    "phone_number": "+39059923202",
    "source_url": "https://www.google.com/maps/place/Scova+Impianti+Srl/data=!4m7!3m6!1s0x477fdd5ebaba0171:0x1b3c4eee8a4a5cdd!8m2!3d44.6018135!4d11.032294!16s%2Fg%2F1tfzwbfb!19sChIJcQG6ul7df0cR3VxKiu5OPBs?authuser=0&hl=tr&rclk=1",
    "website_url": "",
    "rating_text": "4,5",
    "stars": null,
    "number_of_reviews": null,
    "price_level": "",
    "open_hours": "",
    "extraction_timestamp": "2025-06-07T15:56:03.202Z",
    "source_name": "google",
    "source_query": "Irrigation Equipment",
    "source_country": "IT",
    "country": "Italy",
    "state": "Emilia-Romagna",
    "city": "Carpi Centro"
  },
  {
    "source_id": "ChIJ9YE2ZM7yf0cRgPqA5d8iQdw",
    "name": "A Tutto Di Corradi Massimo Field",
    "category": "A Tutto Di Corradi Massimo Field",
    "formatted_address": "4,4(161)",
    "phone_number": "+390596229547",
    "source_url": "https://www.google.com/maps/place/A+Tutto+Di+Corradi+Massimo+Field/data=!4m7!3m6!1s0x477ff2ce643681f5:0xdc4122dfe580fa80!8m2!3d44.774413!4d10.8766351!16s%2Fg%2F1tgfc6kd!19sChIJ9YE2ZM7yf0cRgPqA5d8iQdw?authuser=0&hl=tr&rclk=1",
    "website_url": "",
    "rating_text": "4,4",
    "stars": null,
    "number_of_reviews": null,
    "price_level": "",
    "open_hours": "",
    "extraction_timestamp": "2025-06-07T15:56:03.203Z",
    "source_name": "google",
    "source_query": "Irrigation Equipment",
    "source_country": "IT",
    "country": "Italy",
    "state": "Emilia-Romagna",
    "city": "Carpi Centro"
  },
  {
    "source_id": "ChIJe1Hx0tOMf0cR9ZFcvR-bKpw",
    "name": "SILVESTRI IMPIANTI snc",
    "category": "SILVESTRI IMPIANTI snc",
    "formatted_address": "4,7(3)",
    "phone_number": "+39059641863",
    "source_url": "https://www.google.com/maps/place/SILVESTRI+IMPIANTI+snc/data=!4m7!3m6!1s0x477f8cd3d2f1517b:0x9c2a9b1fbd5c91f5!8m2!3d44.786045!4d10.858333!16s%2Fg%2F1tq6cblr!19sChIJe1Hx0tOMf0cR9ZFcvR-bKpw?authuser=0&hl=tr&rclk=1",
    "website_url": "",
    "rating_text": "4,7",
    "stars": null,
    "number_of_reviews": null,
    "price_level": "",
    "open_hours": "",
    "extraction_timestamp": "2025-06-07T15:56:03.203Z",
    "source_name": "google",
    "source_query": "Irrigation Equipment",
    "source_country": "IT",
    "country": "Italy",
    "state": "Emilia-Romagna",
    "city": "Carpi Centro"
  },
  {
    "source_id": "ChIJI26K5KmNf0cR5LphBqaiO8g",
    "name": "Idrogas Service Srl",
    "category": "Idrogas Service Srl",
    "formatted_address": "4,9(15)",
    "phone_number": "+39059660107",
    "source_url": "https://www.google.com/maps/place/Idrogas+Service+Srl/data=!4m7!3m6!1s0x477f8da9e48a6e23:0xc83ba2a60661bae4!8m2!3d44.7727744!4d10.8595131!16s%2Fg%2F1pty4_bzp!19sChIJI26K5KmNf0cR5LphBqaiO8g?authuser=0&hl=tr&rclk=1",
    "website_url": "",
    "rating_text": "4,9",
    "stars": null,
    "number_of_reviews": null,
    "price_level": "",
    "open_hours": "",
    "extraction_timestamp": "2025-06-07T15:56:03.204Z",
    "source_name": "google",
    "source_query": "Irrigation Equipment",
    "source_country": "IT",
    "country": "Italy",
    "state": "Emilia-Romagna",
    "city": "Carpi Centro"
  },
  {
    "source_id": "ChIJRTdNxTuNf0cRpctSaQmMGOg",
    "name": "Nuova Siria",
    "category": "Nuova Siria",
    "formatted_address": "4,7(3)",
    "phone_number": "+39059686589",
    "source_url": "https://www.google.com/maps/place/Nuova+Siria/data=!4m7!3m6!1s0x477f8d3bc54d3745:0xe8188c096952cba5!8m2!3d44.7916051!4d10.886347!16s%2Fg%2F1tf7ldnh!19sChIJRTdNxTuNf0cRpctSaQmMGOg?authuser=0&hl=tr&rclk=1",
    "website_url": "",
    "rating_text": "4,7",
    "stars": null,
    "number_of_reviews": null,
    "price_level": "",
    "open_hours": "",
    "extraction_timestamp": "2025-06-07T15:56:03.205Z",
    "source_name": "google",
    "source_query": "Irrigation Equipment",
    "source_country": "IT",
    "country": "Italy",
    "state": "Emilia-Romagna",
    "city": "Carpi Centro"
  },
  {
    "source_id": "ChIJA48bp-zuf0cR5X_1epiGBsI",
    "name": "Usco Spa",
    "category": "Usco Spa",
    "formatted_address": "4,1(292)",
    "phone_number": "+390599780111",
    "source_url": "https://www.google.com/maps/place/Usco+Spa/data=!4m7!3m6!1s0x477feeeca71b8f03:0xc20686987af57fe5!8m2!3d44.6796173!4d10.9388601!16s%2Fg%2F1tfpnk4c!19sChIJA48bp-zuf0cR5X_1epiGBsI?authuser=0&hl=tr&rclk=1",
    "website_url": "",
    "rating_text": "4,1",
    "stars": null,
    "number_of_reviews": null,
    "price_level": "",
    "open_hours": "",
    "extraction_timestamp": "2025-06-07T15:56:03.205Z",
    "source_name": "google",
    "source_query": "Irrigation Equipment",
    "source_country": "IT",
    "country": "Italy",
    "state": "Emilia-Romagna",
    "city": "Carpi Centro"
  },
  {
    "source_id": "ChIJN7GAlk-Jf0cRUw3Ah4cFO-o",
    "name": "Elettromeccanica Calzolari Srl",
    "category": "Elettromeccanica Calzolari Srl",
    "formatted_address": "4,5(108)",
    "phone_number": "+390522665507",
    "source_url": "https://www.google.com/maps/place/Elettromeccanica+Calzolari+Srl/data=!4m7!3m6!1s0x477f894f9680b137:0xea3b058787c00d53!8m2!3d44.869564!4d10.8407936!16s%2Fg%2F1tdn_9j9!19sChIJN7GAlk-Jf0cRUw3Ah4cFO-o?authuser=0&hl=tr&rclk=1",
    "website_url": "",
    "rating_text": "4,5",
    "stars": null,
    "number_of_reviews": null,
    "price_level": "",
    "open_hours": "",
    "extraction_timestamp": "2025-06-07T15:56:03.206Z",
    "source_name": "google",
    "source_query": "Irrigation Equipment",
    "source_country": "IT",
    "country": "Italy",
    "state": "Emilia-Romagna",
    "city": "Carpi Centro"
  },
  {
    "source_id": "ChIJt5o2mCTzf0cReZb1m358hBA",
    "name": "Game7Athletics",
    "category": "Game7Athletics",
    "formatted_address": "4,1(438)",
    "phone_number": "+39059644106",
    "source_url": "https://www.google.com/maps/place/Game7Athletics/data=!4m7!3m6!1s0x477ff32498369ab7:0x10847c7e9bf59679!8m2!3d44.7806283!4d10.8601784!16s%2Fg%2F1vcq6g4d!19sChIJt5o2mCTzf0cReZb1m358hBA?authuser=0&hl=tr&rclk=1",
    "website_url": "",
    "rating_text": "4,1",
    "stars": null,
    "number_of_reviews": null,
    "price_level": "",
    "open_hours": "",
    "extraction_timestamp": "2025-06-07T15:56:03.207Z",
    "source_name": "google",
    "source_query": "Irrigation Equipment",
    "source_country": "IT",
    "country": "Italy",
    "state": "Emilia-Romagna",
    "city": "Carpi Centro"
  },
  {
    "source_id": "ChIJE_3jOnMtfkcRkxtTFj3Ym9E",
    "name": "Irrigation Scarabelli Srl",
    "category": "Irrigation Scarabelli Srl",
    "formatted_address": "4,5(23)",
    "phone_number": "+39051763363",
    "source_url": "https://www.google.com/maps/place/Irrigation+Scarabelli+Srl/data=!4m7!3m6!1s0x477e2d733ae3fd13:0xd19bd83d16531b93!8m2!3d44.5426053!4d11.4189136!16s%2Fg%2F11gzdz6vf!19sChIJE_3jOnMtfkcRkxtTFj3Ym9E?authuser=0&hl=tr&rclk=1",
    "website_url": "",
    "rating_text": "4,5",
    "stars": null,
    "number_of_reviews": null,
    "price_level": "",
    "open_hours": "",
    "extraction_timestamp": "2025-06-07T15:56:03.207Z",
    "source_name": "google",
    "source_query": "Irrigation Equipment",
    "source_country": "IT",
    "country": "Italy",
    "state": "Emilia-Romagna",
    "city": "Carpi Centro"
  },
  {
    "source_id": "ChIJJ6V6lMDgf0cRkL2jf5B3MwQ",
    "name": "Scova Engineering Spa",
    "category": "Scova Engineering Spa",
    "formatted_address": "5,0(2)",
    "phone_number": "+39059702012",
    "source_url": "https://www.google.com/maps/place/Scova+Engineering+Spa/data=!4m7!3m6!1s0x477fe0c0947aa527:0x43377907fa3bd90!8m2!3d44.5304758!4d10.9796265!16s%2Fg%2F1tql3mky!19sChIJJ6V6lMDgf0cRkL2jf5B3MwQ?authuser=0&hl=tr&rclk=1",
    "website_url": "",
    "rating_text": "5,0",
    "stars": null,
    "number_of_reviews": null,
    "price_level": "",
    "open_hours": "",
    "extraction_timestamp": "2025-06-07T15:56:03.208Z",
    "source_name": "google",
    "source_query": "Irrigation Equipment",
    "source_country": "IT",
    "country": "Italy",
    "state": "Emilia-Romagna",
    "city": "Carpi Centro"
  },
  {
    "source_id": "ChIJsw5ysECNf0cR6Ew9p2a8g0M",
    "name": "Ferramenta",
    "category": "Ferramenta",
    "formatted_address": "4,5(64)",
    "phone_number": "+39059688023",
    "source_url": "https://www.google.com/maps/place/Ferramenta/data=!4m7!3m6!1s0x477f8d40b0720eb3:0x4383bc66a73d4ce8!8m2!3d44.7930226!4d10.8942317!16s%2Fg%2F11bzs6f8h1!19sChIJsw5ysECNf0cR6Ew9p2a8g0M?authuser=0&hl=tr&rclk=1",
    "website_url": "",
    "rating_text": "4,5",
    "stars": null,
    "number_of_reviews": null,
    "price_level": "",
    "open_hours": "",
    "extraction_timestamp": "2025-06-07T15:56:03.208Z",
    "source_name": "google",
    "source_query": "Irrigation Equipment",
    "source_country": "IT",
    "country": "Italy",
    "state": "Emilia-Romagna",
    "city": "Carpi Centro"
  },
  {
    "source_id": "ChIJkatKHDyNf0cRU_cpchN0Bog",
    "name": "C.a.p.e.r.e. Gianluca Di Righi",
    "category": "C.a.p.e.r.e. Gianluca Di Righi",
    "formatted_address": "4,0(116)",
    "phone_number": "+39059684399",
    "source_url": "https://www.google.com/maps/place/C.a.p.e.r.e.+Gianluca+Di+Righi/data=!4m7!3m6!1s0x477f8d3c1c4aab91:0x880674137229f753!8m2!3d44.794137!4d10.8871965!16s%2Fg%2F1tfzqryc!19sChIJkatKHDyNf0cRU_cpchN0Bog?authuser=0&hl=tr&rclk=1",
    "website_url": "",
    "rating_text": "4,0",
    "stars": null,
    "number_of_reviews": null,
    "price_level": "",
    "open_hours": "",
    "extraction_timestamp": "2025-06-07T15:56:03.209Z",
    "source_name": "google",
    "source_query": "Irrigation Equipment",
    "source_country": "IT",
    "country": "Italy",
    "state": "Emilia-Romagna",
    "city": "Carpi Centro"
  },
  {
    "source_id": "ChIJJ6V6lMDgf0cR1SpFsfjDuHg",
    "name": "Ocmis Irrigazione Spa",
    "category": "Ocmis Irrigazione Spa",
    "formatted_address": "3,5(31)",
    "phone_number": "+39059702150",
    "source_url": "https://www.google.com/maps/place/Ocmis+Irrigazione+Spa/data=!4m7!3m6!1s0x477fe0c0947aa527:0x78b8c3f8b1452ad5!8m2!3d44.530494!4d10.9794578!16s%2Fg%2F1vd3tn19!19sChIJJ6V6lMDgf0cR1SpFsfjDuHg?authuser=0&hl=tr&rclk=1",
    "website_url": "",
    "rating_text": "3,5",
    "stars": null,
    "number_of_reviews": null,
    "price_level": "",
    "open_hours": "",
    "extraction_timestamp": "2025-06-07T15:56:03.210Z",
    "source_name": "google",
    "source_query": "Irrigation Equipment",
    "source_country": "IT",
    "country": "Italy",
    "state": "Emilia-Romagna",
    "city": "Carpi Centro"
  },
  {
    "source_id": "ChIJgVjbdx7df0cRsMjOLRKEzBA",
    "name": "Geocentro",
    "category": "Geocentro",
    "formatted_address": "4,4(87)",
    "phone_number": "+39059926168",
    "source_url": "https://www.google.com/maps/place/Geocentro/data=!4m7!3m6!1s0x477fdd1e77db5881:0x10cc84122dcec8b0!8m2!3d44.5868616!4d11.070717!16s%2Fg%2F11cn3ph0_q!19sChIJgVjbdx7df0cRsMjOLRKEzBA?authuser=0&hl=tr&rclk=1",
    "website_url": "",
    "rating_text": "4,4",
    "stars": null,
    "number_of_reviews": null,
    "price_level": "",
    "open_hours": "",
    "extraction_timestamp": "2025-06-07T15:56:03.211Z",
    "source_name": "google",
    "source_query": "Irrigation Equipment",
    "source_country": "IT",
    "country": "Italy",
    "state": "Emilia-Romagna",
    "city": "Carpi Centro"
  }
]
