[
  {
    "source_id": "ChIJcQG6ul7df0cR3VxKiu5OPBs",
    "name": "Scova Impianti Srl",
    "category": "Scova Impianti Srl",
    "formatted_address": "4,5(64)",
    "phone_number": "+39059923202",
    "source_url": "https://www.google.com/maps/place/Scova+Impianti+Srl/data=!4m7!3m6!1s0x477fdd5ebaba0171:0x1b3c4eee8a4a5cdd!8m2!3d44.6018135!4d11.032294!16s%2Fg%2F1tfzwbfb!19sChIJcQG6ul7df0cR3VxKiu5OPBs?authuser=0&hl=tr&rclk=1",
    "website_url": "https://www.scovaimpianti.com/",
    "rating_text": "4,5",
    "stars": null,
    "number_of_reviews": null,
    "price_level": "",
    "open_hours": "",
    "extraction_timestamp": "2025-06-07T15:54:00.491Z",
    "source_name": "google",
    "source_query": "Irrigation Equipment",
    "source_country": "IT",
    "country": "Italy",
    "state": "Emilia-Romagna",
    "city": "Carpineti"
  },
  {
    "source_id": "ChIJEzjtTulT1RIRZKErD_val8k",
    "name": "Sigma di Carpineti San Prospero",
    "category": "Sigma di Carpineti San Prospero",
    "formatted_address": "4,1(112)",
    "phone_number": "+3905221717137",
    "source_url": "https://www.google.com/maps/place/Sigma+di+Carpineti+San+Prospero/data=!4m7!3m6!1s0x12d553e94eed3813:0xc997dafb0f2ba164!8m2!3d44.4592074!4d10.5204464!16s%2Fg%2F1tyh4l50!19sChIJEzjtTulT1RIRZKErD_val8k?authuser=0&hl=tr&rclk=1",
    "website_url": "https://www.supersigma.com/pdv/realc_re_4487",
    "rating_text": "4,1",
    "stars": null,
    "number_of_reviews": null,
    "price_level": "",
    "open_hours": "",
    "extraction_timestamp": "2025-06-07T15:54:00.491Z",
    "source_name": "google",
    "source_query": "Irrigation Equipment",
    "source_country": "IT",
    "country": "Italy",
    "state": "Emilia-Romagna",
    "city": "Carpineti"
  },
  {
    "source_id": "ChIJveAeFroEgEcRZfa9xqlB6vM",
    "name": "Morelli Irrigazioni",
    "category": "Morelli Irrigazioni",
    "formatted_address": "1,0(1)",
    "phone_number": "+393480042122",
    "source_url": "https://www.google.com/maps/place/Morelli+Irrigazioni/data=!4m7!3m6!1s0x478004ba161ee0bd:0xf3ea41a9c6bdf665!8m2!3d44.649256!4d10.5636837!16s%2Fg%2F11gy01p0bd!19sChIJveAeFroEgEcRZfa9xqlB6vM?authuser=0&hl=tr&rclk=1",
    "website_url": "http://irrigazionimorelli.it/",
    "rating_text": "1,0",
    "stars": null,
    "number_of_reviews": null,
    "price_level": "",
    "open_hours": "",
    "extraction_timestamp": "2025-06-07T15:54:00.491Z",
    "source_name": "google",
    "source_query": "Irrigation Equipment",
    "source_country": "IT",
    "country": "Italy",
    "state": "Emilia-Romagna",
    "city": "Carpineti"
  },
  {
    "source_id": "ChIJR0cLXhQkgEcRi9oI9GALzlg",
    "name": "IRRILAND",
    "category": "IRRILAND",
    "formatted_address": "4,0(4)",
    "phone_number": "+390522831544",
    "source_url": "https://www.google.com/maps/place/IRRILAND/data=!4m7!3m6!1s0x478024145e0b4747:0x58ce0b60f408da8b!8m2!3d44.891987!4d10.650983!16s%2Fg%2F1tczjb0h!19sChIJR0cLXhQkgEcRi9oI9GALzlg?authuser=0&hl=tr&rclk=1",
    "website_url": "http://www.irriland.it/",
    "rating_text": "4,0",
    "stars": null,
    "number_of_reviews": null,
    "price_level": "",
    "open_hours": "",
    "extraction_timestamp": "2025-06-07T15:54:00.492Z",
    "source_name": "google",
    "source_query": "Irrigation Equipment",
    "source_country": "IT",
    "country": "Italy",
    "state": "Emilia-Romagna",
    "city": "Carpineti"
  },
  {
    "source_id": "ChIJiVSvsQIdgEcR0PUcMFDq-Yg",
    "name": "Idrotim",
    "category": "Idrotim",
    "formatted_address": "5,0(5)",
    "phone_number": "+393387675768",
    "source_url": "https://www.google.com/maps/place/Idrotim/data=!4m7!3m6!1s0x47801d02b1af5489:0x88f9ea50301cf5d0!8m2!3d44.642221!4d10.671266!16s%2Fg%2F1tnhx5lh!19sChIJiVSvsQIdgEcR0PUcMFDq-Yg?authuser=0&hl=tr&rclk=1",
    "website_url": "http://www.idrotim.it/",
    "rating_text": "5,0",
    "stars": null,
    "number_of_reviews": null,
    "price_level": "",
    "open_hours": "",
    "extraction_timestamp": "2025-06-07T15:54:00.492Z",
    "source_name": "google",
    "source_query": "Irrigation Equipment",
    "source_country": "IT",
    "country": "Italy",
    "state": "Emilia-Romagna",
    "city": "Carpineti"
  },
  {
    "source_id": "ChIJSTY5zrFV1RIRZWJw6RiDzg8",
    "name": "ECU Carpineti",
    "category": "ECU Carpineti",
    "formatted_address": "4,3(9)",
    "phone_number": "+3905221717407",
    "source_url": "https://www.google.com/maps/place/ECU+Carpineti/data=!4m7!3m6!1s0x12d555b1ce393649:0xfce8318e9706265!8m2!3d44.4547478!4d10.5214538!16s%2Fg%2F11kr8ww903!19sChIJSTY5zrFV1RIRZWJw6RiDzg8?authuser=0&hl=tr&rclk=1",
    "website_url": "",
    "rating_text": "4,3",
    "stars": null,
    "number_of_reviews": null,
    "price_level": "",
    "open_hours": "",
    "extraction_timestamp": "2025-06-07T15:54:00.492Z",
    "source_name": "google",
    "source_query": "Irrigation Equipment",
    "source_country": "IT",
    "country": "Italy",
    "state": "Emilia-Romagna",
    "city": "Carpineti"
  },
  {
    "source_id": "ChIJ8S_H450fgEcRen1BwvkupIc",
    "name": "Agro-system Snc di Bassoli - Piscine e Macchine giardino - Reggio Emilia",
    "category": "Agro-system Snc di Bassoli - Piscine e Macchine giardino - Reggio Emilia",
    "formatted_address": "4,6(88)",
    "phone_number": "+390522954100",
    "source_url": "https://www.google.com/maps/place/Agro-system+Snc+di+Bassoli+-+Piscine+e+Macchine+giardino+-+Reggio+Emilia/data=!4m7!3m6!1s0x47801f9de3c72ff1:0x87a42ef9c2417d7a!8m2!3d44.797091!4d10.686568!16s%2Fg%2F1tfb5f45!19sChIJ8S_H450fgEcRen1BwvkupIc?authuser=0&hl=tr&rclk=1",
    "website_url": "https://agrosystem.info/",
    "rating_text": "4,6",
    "stars": null,
    "number_of_reviews": null,
    "price_level": "",
    "open_hours": "",
    "extraction_timestamp": "2025-06-07T15:54:00.504Z",
    "source_name": "google",
    "source_query": "Irrigation Equipment",
    "source_country": "IT",
    "country": "Italy",
    "state": "Emilia-Romagna",
    "city": "Carpineti"
  },
  {
    "source_id": "ChIJtVDkNgRFgEcRqc6umwWIJuI",
    "name": "Rm Spa",
    "category": "Rm Spa",
    "formatted_address": "4,6(81)",
    "phone_number": "+390521872321",
    "source_url": "https://www.google.com/maps/place/Rm+Spa/data=!4m7!3m6!1s0x4780450436e450b5:0xe22688059baecea9!8m2!3d44.9105406!4d10.2583785!16s%2Fg%2F12hl93byl!19sChIJtVDkNgRFgEcRqc6umwWIJuI?authuser=0&hl=tr&rclk=1",
    "website_url": "http://www.rmirrigation.com/",
    "rating_text": "4,6",
    "stars": null,
    "number_of_reviews": null,
    "price_level": "",
    "open_hours": "",
    "extraction_timestamp": "2025-06-07T15:54:00.504Z",
    "source_name": "google",
    "source_query": "Irrigation Equipment",
    "source_country": "IT",
    "country": "Italy",
    "state": "Emilia-Romagna",
    "city": "Carpineti"
  }
]
