[
  {
    "source_id": "ChIJKfPYoSA3KxMR9PvCFVrcnNk",
    "name": "Agrimola S.P.A.",
    "category": "Agrimola S.P.A.",
    "formatted_address": "3,9(120)",
    "phone_number": "+390542666072",
    "source_url": "https://www.google.com/maps/place/Agrimola+S.P.A./data=!4m7!3m6!1s0x132b3720a1d8f329:0xd99cdc5a15c2fbf4!8m2!3d44.293219!4d11.6338949!16s%2Fg%2F1tf17_jw!19sChIJKfPYoSA3KxMR9PvCFVrcnNk?authuser=0&hl=tr&rclk=1",
    "website_url": "http://www.agrimola.it/",
    "rating_text": "3,9",
    "stars": null,
    "number_of_reviews": null,
    "price_level": "",
    "open_hours": "",
    "extraction_timestamp": "2025-06-07T15:52:23.405Z",
    "source_name": "google",
    "source_query": "Irrigation Equipment",
    "source_country": "IT",
    "country": "Italy",
    "state": "Emilia-Romagna",
    "city": "Casalfiumanese"
  },
  {
    "source_id": "ChIJhZ6VmoA2KxMRihahY_0X8jQ",
    "name": "C.T.A. Benini Srl",
    "category": "C.T.A. Benini Srl",
    "formatted_address": "4,5(31)",
    "phone_number": "+390542690494",
    "source_url": "https://www.google.com/maps/place/C.T.A.+Benini+Srl/data=!4m7!3m6!1s0x132b36809a959e85:0x34f217fd63a1168a!8m2!3d44.3279038!4d11.6655518!16s%2Fg%2F1tfy4mx5!19sChIJhZ6VmoA2KxMRihahY_0X8jQ?authuser=0&hl=tr&rclk=1",
    "website_url": "http://www.depurazioneacquaimola.com/",
    "rating_text": "4,5",
    "stars": null,
    "number_of_reviews": null,
    "price_level": "",
    "open_hours": "",
    "extraction_timestamp": "2025-06-07T15:52:23.406Z",
    "source_name": "google",
    "source_query": "Irrigation Equipment",
    "source_country": "IT",
    "country": "Italy",
    "state": "Emilia-Romagna",
    "city": "Casalfiumanese"
  },
  {
    "source_id": "ChIJJZ6bnCYgfkcRAJlIqmbsRJ0",
    "name": "O.R.M.A. S.r.l.",
    "category": "O.R.M.A. S.r.l.",
    "formatted_address": "4,3(16)",
    "phone_number": "+39054255095",
    "source_url": "https://www.google.com/maps/place/O.R.M.A.+S.r.l./data=!4m7!3m6!1s0x477e20269c9b9e25:0x9d44ec66aa489900!8m2!3d44.4221829!4d11.7101008!16s%2Fg%2F1tjl4rb7!19sChIJJZ6bnCYgfkcRAJlIqmbsRJ0?authuser=0&hl=tr&rclk=1",
    "website_url": "http://www.ormasrl.info/",
    "rating_text": "4,3",
    "stars": null,
    "number_of_reviews": null,
    "price_level": "",
    "open_hours": "",
    "extraction_timestamp": "2025-06-07T15:52:23.407Z",
    "source_name": "google",
    "source_query": "Irrigation Equipment",
    "source_country": "IT",
    "country": "Italy",
    "state": "Emilia-Romagna",
    "city": "Casalfiumanese"
  },
  {
    "source_id": "ChIJUYEistc2KxMRR5665qay7RU",
    "name": "Orma Verde - Prodotti Per Animali",
    "category": "Orma Verde - Prodotti Per Animali",
    "formatted_address": "4,8(50)",
    "phone_number": "+390542666849",
    "source_url": "https://www.google.com/maps/place/Orma+Verde+-+Prodotti+Per+Animali/data=!4m7!3m6!1s0x132b36d7b2228151:0x15edb2a6e6ba9e47!8m2!3d44.2956674!4d11.6248374!16s%2Fg%2F1tf8h9yc!19sChIJUYEistc2KxMRR5665qay7RU?authuser=0&hl=tr&rclk=1",
    "website_url": "",
    "rating_text": "4,8",
    "stars": null,
    "number_of_reviews": null,
    "price_level": "",
    "open_hours": "",
    "extraction_timestamp": "2025-06-07T15:52:23.408Z",
    "source_name": "google",
    "source_query": "Irrigation Equipment",
    "source_country": "IT",
    "country": "Italy",
    "state": "Emilia-Romagna",
    "city": "Casalfiumanese"
  },
  {
    "source_id": "ChIJD5eUz5NKKxMRiXFKArkq8n8",
    "name": "S.I.G.E.A. di Bittini Vittorio e C. snc - irrigazione, giardinaggio, agricoltura, fontane",
    "category": "S.I.G.E.A. di Bittini Vittorio e C. snc - irrigazione, giardinaggio, agricoltura, fontane",
    "formatted_address": "S.I.G.E.A. di Bittini Vittorio e C. snc - irrigazione, giardinaggio, agricoltura, fontane",
    "phone_number": "+390542642326",
    "source_url": "https://www.google.com/maps/place/S.I.G.E.A.+di+Bittini+Vittorio+e+C.+snc+-+irrigazione,+giardinaggio,+agricoltura,+fontane/data=!4m7!3m6!1s0x132b4a93cf94970f:0x7ff22ab9024a7189!8m2!3d44.3736772!4d11.7277152!16s%2Fg%2F1tdlqxq3!19sChIJD5eUz5NKKxMRiXFKArkq8n8?authuser=0&hl=tr&rclk=1",
    "website_url": "",
    "rating_text": "4,7",
    "stars": null,
    "number_of_reviews": null,
    "price_level": "",
    "open_hours": "",
    "extraction_timestamp": "2025-06-07T15:52:23.409Z",
    "source_name": "google",
    "source_query": "Irrigation Equipment",
    "source_country": "IT",
    "country": "Italy",
    "state": "Emilia-Romagna",
    "city": "Casalfiumanese"
  },
  {
    "source_id": "ChIJT-zGC9c2KxMRdGIEbvO5GFU",
    "name": "RIGHINI ANGELA CASALINGHI VERNICI DETERSIVI ARTICOLI DA REGALO",
    "category": "RIGHINI ANGELA CASALINGHI VERNICI DETERSIVI ARTICOLI DA REGALO",
    "formatted_address": "4,7(119)",
    "phone_number": "+390542666157",
    "source_url": "https://www.google.com/maps/place/RIGHINI+ANGELA+CASALINGHI+VERNICI+DETERSIVI+ARTICOLI+DA+REGALO/data=!4m7!3m6!1s0x132b36d70bc6ec4f:0x5518b9f36e046274!8m2!3d44.2967835!4d11.6253601!16s%2Fg%2F11c32dy27y!19sChIJT-zGC9c2KxMRdGIEbvO5GFU?authuser=0&hl=tr&rclk=1",
    "website_url": "",
    "rating_text": "4,7",
    "stars": null,
    "number_of_reviews": null,
    "price_level": "",
    "open_hours": "",
    "extraction_timestamp": "2025-06-07T15:52:23.410Z",
    "source_name": "google",
    "source_query": "Irrigation Equipment",
    "source_country": "IT",
    "country": "Italy",
    "state": "Emilia-Romagna",
    "city": "Casalfiumanese"
  },
  {
    "source_id": "ChIJX_hA-jdLKxMRIVTiwkz2Lqc",
    "name": "Romagna Impianti S.R.L.",
    "category": "Romagna Impianti S.R.L.",
    "formatted_address": "4,4(33)",
    "phone_number": "+390542735211",
    "source_url": "https://www.google.com/maps/place/Romagna+Impianti+S.R.L./data=!4m7!3m6!1s0x132b4b37fa40f85f:0xa72ef64cc2e25421!8m2!3d44.3876043!4d11.7444613!16s%2Fg%2F11k8lywqyc!19sChIJX_hA-jdLKxMRIVTiwkz2Lqc?authuser=0&hl=tr&rclk=1",
    "website_url": "https://www.romagnaimpianti.net/",
    "rating_text": "4,4",
    "stars": null,
    "number_of_reviews": null,
    "price_level": "",
    "open_hours": "",
    "extraction_timestamp": "2025-06-07T15:52:23.411Z",
    "source_name": "google",
    "source_query": "Irrigation Equipment",
    "source_country": "IT",
    "country": "Italy",
    "state": "Emilia-Romagna",
    "city": "Casalfiumanese"
  },
  {
    "source_id": "ChIJ7eRFVpZKKxMRoa-GB8plGL8",
    "name": "STS SISTEMI - Aria Compressa e Impianti Verniciatura",
    "category": "STS SISTEMI - Aria Compressa e Impianti Verniciatura",
    "formatted_address": "5,0(5)",
    "phone_number": "+390542641113",
    "source_url": "https://www.google.com/maps/place/STS+SISTEMI+-+Aria+Compressa+e+Impianti+Verniciatura/data=!4m7!3m6!1s0x132b4a965645e4ed:0xbf1865ca0786afa1!8m2!3d44.376825!4d11.7211954!16s%2Fg%2F1tl6mfnj!19sChIJ7eRFVpZKKxMRoa-GB8plGL8?authuser=0&hl=tr&rclk=1",
    "website_url": "http://www.stssistemi.it/",
    "rating_text": "5,0",
    "stars": null,
    "number_of_reviews": null,
    "price_level": "",
    "open_hours": "",
    "extraction_timestamp": "2025-06-07T15:52:23.412Z",
    "source_name": "google",
    "source_query": "Irrigation Equipment",
    "source_country": "IT",
    "country": "Italy",
    "state": "Emilia-Romagna",
    "city": "Casalfiumanese"
  },
  {
    "source_id": "ChIJ_SYf2IMsfkcRVw9xVhrnjyI",
    "name": "Irrigazione Bragaglia",
    "category": "Irrigazione Bragaglia",
    "formatted_address": "4,7(30)",
    "phone_number": "+39051534865",
    "source_url": "https://www.google.com/maps/place/Irrigazione+Bragaglia/data=!4m7!3m6!1s0x477e2c83d81f26fd:0x228fe71a56710f57!8m2!3d44.5053735!4d11.412403!16s%2Fg%2F1vp6z0gf!19sChIJ_SYf2IMsfkcRVw9xVhrnjyI?authuser=0&hl=tr&rclk=1",
    "website_url": "http://www.irrigazionebragaglia.it/",
    "rating_text": "4,7",
    "stars": null,
    "number_of_reviews": null,
    "price_level": "",
    "open_hours": "",
    "extraction_timestamp": "2025-06-07T15:52:23.413Z",
    "source_name": "google",
    "source_query": "Irrigation Equipment",
    "source_country": "IT",
    "country": "Italy",
    "state": "Emilia-Romagna",
    "city": "Casalfiumanese"
  },
  {
    "source_id": "ChIJZdn-2ts2KxMRydSRW9yAP8Y",
    "name": "Officina Elettrauto - Centro Ausili per Disabili e Sanitaria di Barbieri Romeo",
    "category": "Officina Elettrauto - Centro Ausili per Disabili e Sanitaria di Barbieri Romeo",
    "formatted_address": "4,1(11)",
    "phone_number": "+390542666118",
    "source_url": "https://www.google.com/maps/place/Officina+Elettrauto+-+Centro+Ausili+per+Disabili+e+Sanitaria+di+Barbieri+Romeo/data=!4m7!3m6!1s0x132b36dbdafed965:0xc63f80dc5b91d4c9!8m2!3d44.2985917!4d11.630741!16s%2Fg%2F1th2n8pk!19sChIJZdn-2ts2KxMRydSRW9yAP8Y?authuser=0&hl=tr&rclk=1",
    "website_url": "http://www.officinasanitariabarbieri.it/",
    "rating_text": "4,1",
    "stars": null,
    "number_of_reviews": null,
    "price_level": "",
    "open_hours": "",
    "extraction_timestamp": "2025-06-07T15:52:23.414Z",
    "source_name": "google",
    "source_query": "Irrigation Equipment",
    "source_country": "IT",
    "country": "Italy",
    "state": "Emilia-Romagna",
    "city": "Casalfiumanese"
  },
  {
    "source_id": "ChIJh3Nd8G0sfkcR_m7VewEmxXM",
    "name": "Irrigarden",
    "category": "Irrigarden",
    "formatted_address": "4,7(158)",
    "phone_number": "+39051782013",
    "source_url": "https://www.google.com/maps/place/Irrigarden/data=!4m7!3m6!1s0x477e2c6df05d7387:0x73c526017bd56efe!8m2!3d44.5096266!4d11.4390897!16s%2Fg%2F1vgw_l7w!19sChIJh3Nd8G0sfkcR_m7VewEmxXM?authuser=0&hl=tr&rclk=1",
    "website_url": "https://www.irrigarden-bo.it/",
    "rating_text": "4,7",
    "stars": null,
    "number_of_reviews": null,
    "price_level": "",
    "open_hours": "",
    "extraction_timestamp": "2025-06-07T15:52:23.415Z",
    "source_name": "google",
    "source_query": "Irrigation Equipment",
    "source_country": "IT",
    "country": "Italy",
    "state": "Emilia-Romagna",
    "city": "Casalfiumanese"
  },
  {
    "source_id": "ChIJcQG6ul7df0cR3VxKiu5OPBs",
    "name": "Scova Impianti Srl",
    "category": "Scova Impianti Srl",
    "formatted_address": "4,5(64)",
    "phone_number": "+39059923202",
    "source_url": "https://www.google.com/maps/place/Scova+Impianti+Srl/data=!4m7!3m6!1s0x477fdd5ebaba0171:0x1b3c4eee8a4a5cdd!8m2!3d44.6018135!4d11.032294!16s%2Fg%2F1tfzwbfb!19sChIJcQG6ul7df0cR3VxKiu5OPBs?authuser=0&hl=tr&rclk=1",
    "website_url": "https://www.scovaimpianti.com/",
    "rating_text": "4,5",
    "stars": null,
    "number_of_reviews": null,
    "price_level": "",
    "open_hours": "",
    "extraction_timestamp": "2025-06-07T15:52:23.416Z",
    "source_name": "google",
    "source_query": "Irrigation Equipment",
    "source_country": "IT",
    "country": "Italy",
    "state": "Emilia-Romagna",
    "city": "Casalfiumanese"
  },
  {
    "source_id": "ChIJyXgg68QrfkcRAaJCOMJ3PxY",
    "name": "hidrisistem",
    "category": "hidrisistem",
    "formatted_address": "5,0(1)",
    "phone_number": "+39366448310824",
    "source_url": "https://www.google.com/maps/place/hidrisistem/data=!4m7!3m6!1s0x477e2bc4eb2078c9:0x163f77c23842a201!8m2!3d44.496029!4d11.402638!16s%2Fg%2F11w_zjhjy3!19sChIJyXgg68QrfkcRAaJCOMJ3PxY?authuser=0&hl=tr&rclk=1",
    "website_url": "",
    "rating_text": "5,0",
    "stars": null,
    "number_of_reviews": null,
    "price_level": "",
    "open_hours": "",
    "extraction_timestamp": "2025-06-07T15:52:23.417Z",
    "source_name": "google",
    "source_query": "Irrigation Equipment",
    "source_country": "IT",
    "country": "Italy",
    "state": "Emilia-Romagna",
    "city": "Casalfiumanese"
  },
  {
    "source_id": "ChIJ9wMJV3IlfkcRWRdzdhVtwlQ",
    "name": "Bilacchi Irrigazione S.A.S. di Bilacchi Simone & C.",
    "category": "Bilacchi Irrigazione S.A.S. di Bilacchi Simone & C.",
    "formatted_address": "4,0(7)",
    "phone_number": "+393397998443",
    "source_url": "https://www.google.com/maps/place/Bilacchi+Irrigazione+S.A.S.+di+Bilacchi+Simone+%26+C./data=!4m7!3m6!1s0x477e2572570903f7:0x54c26d1576731759!8m2!3d44.4799432!4d11.6323261!16s%2Fg%2F11rk4fchy5!19sChIJ9wMJV3IlfkcRWRdzdhVtwlQ?authuser=0&hl=tr&rclk=1",
    "website_url": "https://irrigazionebilacchi.it/",
    "rating_text": "4,0",
    "stars": null,
    "number_of_reviews": null,
    "price_level": "",
    "open_hours": "",
    "extraction_timestamp": "2025-06-07T15:52:23.418Z",
    "source_name": "google",
    "source_query": "Irrigation Equipment",
    "source_country": "IT",
    "country": "Italy",
    "state": "Emilia-Romagna",
    "city": "Casalfiumanese"
  },
  {
    "source_id": "ChIJZVXPVFI3KxMRjqsNLUr1T8g",
    "name": "IMPIANTI TERMOIDRAULICI VITIELLO VINCENZO",
    "category": "IMPIANTI TERMOIDRAULICI VITIELLO VINCENZO",
    "formatted_address": "",
    "phone_number": "+393474727961",
    "source_url": "https://www.google.com/maps/place/IMPIANTI+TERMOIDRAULICI+VITIELLO+VINCENZO/data=!4m7!3m6!1s0x132b375254cf5565:0xc84ff54a2d0dab8e!8m2!3d44.2911991!4d11.6229009!16s%2Fg%2F11lc_tpl_z!19sChIJZVXPVFI3KxMRjqsNLUr1T8g?authuser=0&hl=tr&rclk=1",
    "website_url": "https://www.facebook.com/enzo.vitiello68",
    "rating_text": "",
    "stars": null,
    "number_of_reviews": null,
    "price_level": "",
    "open_hours": "",
    "extraction_timestamp": "2025-06-07T15:52:23.419Z",
    "source_name": "google",
    "source_query": "Irrigation Equipment",
    "source_country": "IT",
    "country": "Italy",
    "state": "Emilia-Romagna",
    "city": "Casalfiumanese"
  }
]
