[
  {
    "source_id": "ChIJdzKbNmf5f0cR6-dSsw6n2Ek",
    "name": "Consorzi Agrari D’ Italia S.p.a.",
    "category": "Consorzi Agrari D’ Italia S.p.a.",
    "formatted_address": "4,5(78)",
    "phone_number": "+390522846131",
    "source_url": "https://www.google.com/maps/place/Consorzi+Agrari+D%E2%80%99+Italia+S.p.a./data=!4m7!3m6!1s0x477ff967369b3277:0x49d8a70eb352e7eb!8m2!3d44.5885261!4d10.738399!16s%2Fg%2F11c6dm3ggs!19sChIJdzKbNmf5f0cR6-dSsw6n2Ek?authuser=0&hl=tr&rclk=1",
    "website_url": "",
    "rating_text": "4,5",
    "stars": null,
    "number_of_reviews": null,
    "price_level": "",
    "open_hours": "",
    "extraction_timestamp": "2025-06-07T16:06:24.554Z",
    "source_name": "google",
    "source_query": "Irrigation Equipment",
    "source_country": "IT",
    "country": "Italy",
    "state": "Emilia-Romagna",
    "city": "Casalgrande"
  },
  {
    "source_id": "ChIJw1MGTg3uSUERaHHQLNkR9lU",
    "name": "FP Filter",
    "category": "FP Filter",
    "formatted_address": "5,0(2)",
    "phone_number": "+393351812964",
    "source_url": "https://www.google.com/maps/place/FP+Filter/data=!4m7!3m6!1s0x4149ee0d4e0653c3:0x55f611d92cd07168!8m2!3d44.5882245!4d10.7382229!16s%2Fg%2F11yc0x9h87!19sChIJw1MGTg3uSUERaHHQLNkR9lU?authuser=0&hl=tr&rclk=1",
    "website_url": "",
    "rating_text": "5,0",
    "stars": null,
    "number_of_reviews": null,
    "price_level": "",
    "open_hours": "",
    "extraction_timestamp": "2025-06-07T16:06:24.554Z",
    "source_name": "google",
    "source_query": "Irrigation Equipment",
    "source_country": "IT",
    "country": "Italy",
    "state": "Emilia-Romagna",
    "city": "Casalgrande"
  },
  {
    "source_id": "ChIJEfgJzOv7f0cRrO6GMr_vP8o",
    "name": "L.N.R. Di Valestri Gian Paolo sas",
    "category": "L.N.R. Di Valestri Gian Paolo sas",
    "formatted_address": "3,9(7)",
    "phone_number": "+3905221486525",
    "source_url": "https://www.google.com/maps/place/L.N.R.+Di+Valestri+Gian+Paolo+sas/data=!4m7!3m6!1s0x477ffbebcc09f811:0xca3fefbf3286eeac!8m2!3d44.5828404!4d10.7614381!16s%2Fg%2F1tm8cvc7!19sChIJEfgJzOv7f0cRrO6GMr_vP8o?authuser=0&hl=tr&rclk=1",
    "website_url": "",
    "rating_text": "3,9",
    "stars": null,
    "number_of_reviews": null,
    "price_level": "",
    "open_hours": "",
    "extraction_timestamp": "2025-06-07T16:06:24.555Z",
    "source_name": "google",
    "source_query": "Irrigation Equipment",
    "source_country": "IT",
    "country": "Italy",
    "state": "Emilia-Romagna",
    "city": "Casalgrande"
  },
  {
    "source_id": "ChIJJ6V6lMDgf0cR1SpFsfjDuHg",
    "name": "Ocmis Irrigazione Spa",
    "category": "Ocmis Irrigazione Spa",
    "formatted_address": "3,5(31)",
    "phone_number": "+39059702150",
    "source_url": "https://www.google.com/maps/place/Ocmis+Irrigazione+Spa/data=!4m7!3m6!1s0x477fe0c0947aa527:0x78b8c3f8b1452ad5!8m2!3d44.530494!4d10.9794578!16s%2Fg%2F1vd3tn19!19sChIJJ6V6lMDgf0cR1SpFsfjDuHg?authuser=0&hl=tr&rclk=1",
    "website_url": "",
    "rating_text": "3,5",
    "stars": null,
    "number_of_reviews": null,
    "price_level": "",
    "open_hours": "",
    "extraction_timestamp": "2025-06-07T16:06:24.555Z",
    "source_name": "google",
    "source_query": "Irrigation Equipment",
    "source_country": "IT",
    "country": "Italy",
    "state": "Emilia-Romagna",
    "city": "Casalgrande"
  },
  {
    "source_id": "ChIJcQG6ul7df0cR3VxKiu5OPBs",
    "name": "Scova Impianti Srl",
    "category": "Scova Impianti Srl",
    "formatted_address": "4,5(64)",
    "phone_number": "+39059923202",
    "source_url": "https://www.google.com/maps/place/Scova+Impianti+Srl/data=!4m7!3m6!1s0x477fdd5ebaba0171:0x1b3c4eee8a4a5cdd!8m2!3d44.6018135!4d11.032294!16s%2Fg%2F1tfzwbfb!19sChIJcQG6ul7df0cR3VxKiu5OPBs?authuser=0&hl=tr&rclk=1",
    "website_url": "",
    "rating_text": "4,5",
    "stars": null,
    "number_of_reviews": null,
    "price_level": "",
    "open_hours": "",
    "extraction_timestamp": "2025-06-07T16:06:24.555Z",
    "source_name": "google",
    "source_query": "Irrigation Equipment",
    "source_country": "IT",
    "country": "Italy",
    "state": "Emilia-Romagna",
    "city": "Casalgrande"
  },
  {
    "source_id": "ChIJXT1oF_T5f0cRBBJTDVB4NyY",
    "name": "FPfilter",
    "category": "FPfilter",
    "formatted_address": "Endüstriyel Ekipman Tedarikçisi · Via Giuseppe Mazzini, 2/bKapalı ⋅ Açılış zamanı: Pzt 09:00 · +39 335 181 2964",
    "phone_number": "+393351812964",
    "source_url": "https://www.google.com/maps/place/FPfilter/data=!4m7!3m6!1s0x477ff9f417683d5d:0x263778500d531204!8m2!3d44.5882245!4d10.7382229!16s%2Fg%2F11x27l9l8y!19sChIJXT1oF_T5f0cRBBJTDVB4NyY?authuser=0&hl=tr&rclk=1",
    "website_url": "",
    "rating_text": "",
    "stars": null,
    "number_of_reviews": null,
    "price_level": "",
    "open_hours": "",
    "extraction_timestamp": "2025-06-07T16:06:24.556Z",
    "source_name": "google",
    "source_query": "Irrigation Equipment",
    "source_country": "IT",
    "country": "Italy",
    "state": "Emilia-Romagna",
    "city": "Casalgrande"
  },
  {
    "source_id": "ChIJp6-R8Yr7f0cRevmGILwcQUM",
    "name": "Ruini - Attrezzature per il verde - di Ruini Andrea",
    "category": "Ruini - Attrezzature per il verde - di Ruini Andrea",
    "formatted_address": "4,6(59)",
    "phone_number": "+390522841100",
    "source_url": "https://www.google.com/maps/place/Ruini+-+Attrezzature+per+il+verde+-+di+Ruini+Andrea/data=!4m7!3m6!1s0x477ffb8af191afa7:0x43411cbc2086f97a!8m2!3d44.5687785!4d10.7626682!16s%2Fg%2F1hc2hkgmx!19sChIJp6-R8Yr7f0cRevmGILwcQUM?authuser=0&hl=tr&rclk=1",
    "website_url": "",
    "rating_text": "4,6",
    "stars": null,
    "number_of_reviews": null,
    "price_level": "",
    "open_hours": "",
    "extraction_timestamp": "2025-06-07T16:06:24.556Z",
    "source_name": "google",
    "source_query": "Irrigation Equipment",
    "source_country": "IT",
    "country": "Italy",
    "state": "Emilia-Romagna",
    "city": "Casalgrande"
  },
  {
    "source_id": "ChIJS5dnX1z5f0cRdQ7CR3kMezI",
    "name": "Ferramenta Bedeschi",
    "category": "Ferramenta Bedeschi",
    "formatted_address": "4,4(39)",
    "phone_number": "+390522846193",
    "source_url": "https://www.google.com/maps/place/Ferramenta+Bedeschi/data=!4m7!3m6!1s0x477ff95c5f67974b:0x327b0c7947c20e75!8m2!3d44.5843478!4d10.7342667!16s%2Fg%2F1tj5j_k2!19sChIJS5dnX1z5f0cRdQ7CR3kMezI?authuser=0&hl=tr&rclk=1",
    "website_url": "",
    "rating_text": "4,4",
    "stars": null,
    "number_of_reviews": null,
    "price_level": "",
    "open_hours": "",
    "extraction_timestamp": "2025-06-07T16:06:24.556Z",
    "source_name": "google",
    "source_query": "Irrigation Equipment",
    "source_country": "IT",
    "country": "Italy",
    "state": "Emilia-Romagna",
    "city": "Casalgrande"
  },
  {
    "source_id": "ChIJx28Pw1z5f0cR2tYYrcwRILg",
    "name": "MACCHIONI DI MACCHIONI ARMANDO E MELIGA GABRIELLA S.N.C.",
    "category": "MACCHIONI DI MACCHIONI ARMANDO E MELIGA GABRIELLA S.N.C.",
    "formatted_address": "4,2(503)",
    "phone_number": "+390522846266",
    "source_url": "https://www.google.com/maps/place/MACCHIONI+DI+MACCHIONI+ARMANDO+E+MELIGA+GABRIELLA+S.N.C./data=!4m7!3m6!1s0x477ff95cc30f6fc7:0xb82011ccad18d6da!8m2!3d44.5848917!4d10.7327775!16s%2Fg%2F11cm0br5kf!19sChIJx28Pw1z5f0cR2tYYrcwRILg?authuser=0&hl=tr&rclk=1",
    "website_url": "",
    "rating_text": "4,2",
    "stars": null,
    "number_of_reviews": null,
    "price_level": "",
    "open_hours": "",
    "extraction_timestamp": "2025-06-07T16:06:24.557Z",
    "source_name": "google",
    "source_query": "Irrigation Equipment",
    "source_country": "IT",
    "country": "Italy",
    "state": "Emilia-Romagna",
    "city": "Casalgrande"
  },
  {
    "source_id": "ChIJUR7JI_j7f0cRBJvbO5ShBhI",
    "name": "BRICOLIN",
    "category": "BRICOLIN",
    "formatted_address": "3,8(819)",
    "phone_number": "+390522841958",
    "source_url": "https://www.google.com/maps/place/BRICOLIN/data=!4m7!3m6!1s0x477ffbf823c91e51:0x1206a1943bdb9b04!8m2!3d44.5688591!4d10.7478971!16s%2Fg%2F11g8wy9g9d!19sChIJUR7JI_j7f0cRBJvbO5ShBhI?authuser=0&hl=tr&rclk=1",
    "website_url": "",
    "rating_text": "3,8",
    "stars": null,
    "number_of_reviews": null,
    "price_level": "",
    "open_hours": "",
    "extraction_timestamp": "2025-06-07T16:06:24.557Z",
    "source_name": "google",
    "source_query": "Irrigation Equipment",
    "source_country": "IT",
    "country": "Italy",
    "state": "Emilia-Romagna",
    "city": "Casalgrande"
  },
  {
    "source_id": "ChIJ8S_H450fgEcRen1BwvkupIc",
    "name": "Agro-system Snc di Bassoli - Piscine e Macchine giardino - Reggio Emilia",
    "category": "Agro-system Snc di Bassoli - Piscine e Macchine giardino - Reggio Emilia",
    "formatted_address": "4,6(88)",
    "phone_number": "+390522954100",
    "source_url": "https://www.google.com/maps/place/Agro-system+Snc+di+Bassoli+-+Piscine+e+Macchine+giardino+-+Reggio+Emilia/data=!4m7!3m6!1s0x47801f9de3c72ff1:0x87a42ef9c2417d7a!8m2!3d44.797091!4d10.686568!16s%2Fg%2F1tfb5f45!19sChIJ8S_H450fgEcRen1BwvkupIc?authuser=0&hl=tr&rclk=1",
    "website_url": "",
    "rating_text": "4,6",
    "stars": null,
    "number_of_reviews": null,
    "price_level": "",
    "open_hours": "",
    "extraction_timestamp": "2025-06-07T16:06:24.557Z",
    "source_name": "google",
    "source_query": "Irrigation Equipment",
    "source_country": "IT",
    "country": "Italy",
    "state": "Emilia-Romagna",
    "city": "Casalgrande"
  },
  {
    "source_id": "ChIJtVDkNgRFgEcRqc6umwWIJuI",
    "name": "Rm Spa",
    "category": "Rm Spa",
    "formatted_address": "4,6(81)",
    "phone_number": "+390521872321",
    "source_url": "https://www.google.com/maps/place/Rm+Spa/data=!4m7!3m6!1s0x4780450436e450b5:0xe22688059baecea9!8m2!3d44.9105406!4d10.2583785!16s%2Fg%2F12hl93byl!19sChIJtVDkNgRFgEcRqc6umwWIJuI?authuser=0&hl=tr&rclk=1",
    "website_url": "",
    "rating_text": "4,6",
    "stars": null,
    "number_of_reviews": null,
    "price_level": "",
    "open_hours": "",
    "extraction_timestamp": "2025-06-07T16:06:24.557Z",
    "source_name": "google",
    "source_query": "Irrigation Equipment",
    "source_country": "IT",
    "country": "Italy",
    "state": "Emilia-Romagna",
    "city": "Casalgrande"
  },
  {
    "source_id": "ChIJSbT-kVz5f0cRibbBufVrsr4",
    "name": "L'Isola dei Tesori",
    "category": "L'Isola dei Tesori",
    "formatted_address": "4,6(171)",
    "phone_number": "+390522849637",
    "source_url": "https://www.google.com/maps/place/L%27Isola+dei+Tesori/data=!4m7!3m6!1s0x477ff95c91feb449:0xbeb26bf5b9c1b689!8m2!3d44.5879102!4d10.7275379!16s%2Fg%2F11btnn6xdj!19sChIJSbT-kVz5f0cRibbBufVrsr4?authuser=0&hl=tr&rclk=1",
    "website_url": "",
    "rating_text": "4,6",
    "stars": null,
    "number_of_reviews": null,
    "price_level": "",
    "open_hours": "",
    "extraction_timestamp": "2025-06-07T16:06:24.558Z",
    "source_name": "google",
    "source_query": "Irrigation Equipment",
    "source_country": "IT",
    "country": "Italy",
    "state": "Emilia-Romagna",
    "city": "Casalgrande"
  },
  {
    "source_id": "ChIJR0cLXhQkgEcRi9oI9GALzlg",
    "name": "IRRILAND",
    "category": "IRRILAND",
    "formatted_address": "4,0(4)",
    "phone_number": "+390522831544",
    "source_url": "https://www.google.com/maps/place/IRRILAND/data=!4m7!3m6!1s0x478024145e0b4747:0x58ce0b60f408da8b!8m2!3d44.891987!4d10.650983!16s%2Fg%2F1tczjb0h!19sChIJR0cLXhQkgEcRi9oI9GALzlg?authuser=0&hl=tr&rclk=1",
    "website_url": "",
    "rating_text": "4,0",
    "stars": null,
    "number_of_reviews": null,
    "price_level": "",
    "open_hours": "",
    "extraction_timestamp": "2025-06-07T16:06:24.558Z",
    "source_name": "google",
    "source_query": "Irrigation Equipment",
    "source_country": "IT",
    "country": "Italy",
    "state": "Emilia-Romagna",
    "city": "Casalgrande"
  },
  {
    "source_id": "ChIJN1SHR-n7f0cRakNNcZApKJY",
    "name": "Depuratore iren casalgrande(salvaterra)",
    "category": "Depuratore iren casalgrande(salvaterra)",
    "formatted_address": "Su Arıtma Tesisi ·  · Via Mellini, 45a",
    "phone_number": "",
    "source_url": "https://www.google.com/maps/place/Depuratore+iren+casalgrande%28salvaterra%29/data=!4m7!3m6!1s0x477ffbe947875437:0x96282990714d436a!8m2!3d44.6080856!4d10.7704877!16s%2Fg%2F11q1glmyd5!19sChIJN1SHR-n7f0cRakNNcZApKJY?authuser=0&hl=tr&rclk=1",
    "website_url": "",
    "rating_text": "",
    "stars": null,
    "number_of_reviews": null,
    "price_level": "",
    "open_hours": "",
    "extraction_timestamp": "2025-06-07T16:06:24.558Z",
    "source_name": "google",
    "source_query": "Irrigation Equipment",
    "source_country": "IT",
    "country": "Italy",
    "state": "Emilia-Romagna",
    "city": "Casalgrande"
  }
]
