[
  {
    "source_id": "ChIJlQcN_o3Wf0cRpqdNYRv-TRE",
    "name": "Nuova Lippi A. e Manferdini G. Srl",
    "category": "Nuova Lippi A. e Manferdini G. Srl",
    "formatted_address": "4,1(60)",
    "phone_number": "+39051402122",
    "source_url": "https://www.google.com/maps/place/Nuova+Lippi+A.+e+Manferdini+G.+Srl/data=!4m7!3m6!1s0x477fd68dfe0d0795:0x114dfe1b614da7a6!8m2!3d44.4907041!4d11.2524802!16s%2Fg%2F1v1tlyh0!19sChIJlQcN_o3Wf0cRpqdNYRv-TRE?authuser=0&hl=tr&rclk=1",
    "website_url": "",
    "rating_text": "4,1",
    "stars": null,
    "number_of_reviews": null,
    "price_level": "",
    "open_hours": "",
    "extraction_timestamp": "2025-06-07T16:22:07.903Z",
    "source_name": "google",
    "source_query": "Irrigation Equipment",
    "source_country": "IT",
    "country": "Italy",
    "state": "Emilia-Romagna",
    "city": "Casalecchio di Reno"
  },
  {
    "source_id": "ChIJE_3jOnMtfkcRkxtTFj3Ym9E",
    "name": "Irrigation Scarabelli Srl",
    "category": "Irrigation Scarabelli Srl",
    "formatted_address": "4,5(23)",
    "phone_number": "+39051763363",
    "source_url": "https://www.google.com/maps/place/Irrigation+Scarabelli+Srl/data=!4m7!3m6!1s0x477e2d733ae3fd13:0xd19bd83d16531b93!8m2!3d44.5426053!4d11.4189136!16s%2Fg%2F11gzdz6vf!19sChIJE_3jOnMtfkcRkxtTFj3Ym9E?authuser=0&hl=tr&rclk=1",
    "website_url": "",
    "rating_text": "4,5",
    "stars": null,
    "number_of_reviews": null,
    "price_level": "",
    "open_hours": "",
    "extraction_timestamp": "2025-06-07T16:22:07.904Z",
    "source_name": "google",
    "source_query": "Irrigation Equipment",
    "source_country": "IT",
    "country": "Italy",
    "state": "Emilia-Romagna",
    "city": "Casalecchio di Reno"
  },
  {
    "source_id": "ChIJ_SYf2IMsfkcRVw9xVhrnjyI",
    "name": "Irrigazione Bragaglia",
    "category": "Irrigazione Bragaglia",
    "formatted_address": "4,7(30)",
    "phone_number": "+39051534865",
    "source_url": "https://www.google.com/maps/place/Irrigazione+Bragaglia/data=!4m7!3m6!1s0x477e2c83d81f26fd:0x228fe71a56710f57!8m2!3d44.5053735!4d11.412403!16s%2Fg%2F1vp6z0gf!19sChIJ_SYf2IMsfkcRVw9xVhrnjyI?authuser=0&hl=tr&rclk=1",
    "website_url": "",
    "rating_text": "4,7",
    "stars": null,
    "number_of_reviews": null,
    "price_level": "",
    "open_hours": "",
    "extraction_timestamp": "2025-06-07T16:22:07.905Z",
    "source_name": "google",
    "source_query": "Irrigation Equipment",
    "source_country": "IT",
    "country": "Italy",
    "state": "Emilia-Romagna",
    "city": "Casalecchio di Reno"
  },
  {
    "source_id": "ChIJHQ3wh4zWf0cRohPJgwotims",
    "name": "Leroy Merlin",
    "category": "Leroy Merlin",
    "formatted_address": "4,0(7.190)",
    "phone_number": "+390510567270",
    "source_url": "https://www.google.com/maps/place/Leroy+Merlin/data=!4m7!3m6!1s0x477fd68c87f00d1d:0x6b8a2d0a83c913a2!8m2!3d44.4864654!4d11.2527384!16s%2Fg%2F1tj7cxb3!19sChIJHQ3wh4zWf0cRohPJgwotims?authuser=0&hl=tr&rclk=1",
    "website_url": "",
    "rating_text": "4,0",
    "stars": null,
    "number_of_reviews": null,
    "price_level": "",
    "open_hours": "",
    "extraction_timestamp": "2025-06-07T16:22:07.909Z",
    "source_name": "google",
    "source_query": "Irrigation Equipment",
    "source_country": "IT",
    "country": "Italy",
    "state": "Emilia-Romagna",
    "city": "Casalecchio di Reno"
  },
  {
    "source_id": "ChIJu8i3Oi3Xf0cRbG0KCsa3niM",
    "name": "Cila Ciicai Magazzino Casalecchio di Reno",
    "category": "Cila Ciicai Magazzino Casalecchio di Reno",
    "formatted_address": "5,0(2)",
    "phone_number": "+39051920635",
    "source_url": "https://www.google.com/maps/place/Cila+Ciicai+Magazzino+Casalecchio+di+Reno/data=!4m7!3m6!1s0x477fd72d3ab7c8bb:0x239eb7c60a0a6d6c!8m2!3d44.4880205!4d11.2578413!16s%2Fg%2F11tc06_p7b!19sChIJu8i3Oi3Xf0cRbG0KCsa3niM?authuser=0&hl=tr&rclk=1",
    "website_url": "",
    "rating_text": "5,0",
    "stars": null,
    "number_of_reviews": null,
    "price_level": "",
    "open_hours": "",
    "extraction_timestamp": "2025-06-07T16:22:07.910Z",
    "source_name": "google",
    "source_query": "Irrigation Equipment",
    "source_country": "IT",
    "country": "Italy",
    "state": "Emilia-Romagna",
    "city": "Casalecchio di Reno"
  },
  {
    "source_id": "ChIJgwBIUoTWf0cRQ6NzznYycvY",
    "name": "F.P. SpA Persici Magazzino Casalecchio di Reno BO",
    "category": "F.P. SpA Persici Magazzino Casalecchio di Reno BO",
    "formatted_address": "4,7(17)",
    "phone_number": "+39051578947",
    "source_url": "https://www.google.com/maps/place/F.P.+SpA+Persici+Magazzino+Casalecchio+di+Reno+BO/data=!4m7!3m6!1s0x477fd68452480083:0xf6723276ce73a343!8m2!3d44.48676!4d11.260805!16s%2Fg%2F11dxrvcn0g!19sChIJgwBIUoTWf0cRQ6NzznYycvY?authuser=0&hl=tr&rclk=1",
    "website_url": "",
    "rating_text": "4,7",
    "stars": null,
    "number_of_reviews": null,
    "price_level": "",
    "open_hours": "",
    "extraction_timestamp": "2025-06-07T16:22:07.911Z",
    "source_name": "google",
    "source_query": "Irrigation Equipment",
    "source_country": "IT",
    "country": "Italy",
    "state": "Emilia-Romagna",
    "city": "Casalecchio di Reno"
  },
  {
    "source_id": "ChIJh3Nd8G0sfkcR_m7VewEmxXM",
    "name": "Irrigarden",
    "category": "Irrigarden",
    "formatted_address": "4,7(158)",
    "phone_number": "+39051782013",
    "source_url": "https://www.google.com/maps/place/Irrigarden/data=!4m7!3m6!1s0x477e2c6df05d7387:0x73c526017bd56efe!8m2!3d44.5096266!4d11.4390897!16s%2Fg%2F1vgw_l7w!19sChIJh3Nd8G0sfkcR_m7VewEmxXM?authuser=0&hl=tr&rclk=1",
    "website_url": "",
    "rating_text": "4,7",
    "stars": null,
    "number_of_reviews": null,
    "price_level": "",
    "open_hours": "",
    "extraction_timestamp": "2025-06-07T16:22:07.912Z",
    "source_name": "google",
    "source_query": "Irrigation Equipment",
    "source_country": "IT",
    "country": "Italy",
    "state": "Emilia-Romagna",
    "city": "Casalecchio di Reno"
  },
  {
    "source_id": "ChIJyXgg68QrfkcRAaJCOMJ3PxY",
    "name": "hidrisistem",
    "category": "hidrisistem",
    "formatted_address": "5,0(1)",
    "phone_number": "+39366448310824",
    "source_url": "https://www.google.com/maps/place/hidrisistem/data=!4m7!3m6!1s0x477e2bc4eb2078c9:0x163f77c23842a201!8m2!3d44.496029!4d11.402638!16s%2Fg%2F11w_zjhjy3!19sChIJyXgg68QrfkcRAaJCOMJ3PxY?authuser=0&hl=tr&rclk=1",
    "website_url": "",
    "rating_text": "5,0",
    "stars": null,
    "number_of_reviews": null,
    "price_level": "",
    "open_hours": "",
    "extraction_timestamp": "2025-06-07T16:22:07.913Z",
    "source_name": "google",
    "source_query": "Irrigation Equipment",
    "source_country": "IT",
    "country": "Italy",
    "state": "Emilia-Romagna",
    "city": "Casalecchio di Reno"
  },
  {
    "source_id": "ChIJ0U9thMzVf0cRtuqENMsCtmE",
    "name": "Sarti Sport Srl",
    "category": "Sarti Sport Srl",
    "formatted_address": "4,5(168)",
    "phone_number": "+39051576069",
    "source_url": "https://www.google.com/maps/place/Sarti+Sport+Srl/data=!4m7!3m6!1s0x477fd5cc846d4fd1:0x61b602cb3484eab6!8m2!3d44.4761502!4d11.2824212!16s%2Fg%2F1tdwjb_b!19sChIJ0U9thMzVf0cRtuqENMsCtmE?authuser=0&hl=tr&rclk=1",
    "website_url": "",
    "rating_text": "4,5",
    "stars": null,
    "number_of_reviews": null,
    "price_level": "",
    "open_hours": "",
    "extraction_timestamp": "2025-06-07T16:22:07.914Z",
    "source_name": "google",
    "source_query": "Irrigation Equipment",
    "source_country": "IT",
    "country": "Italy",
    "state": "Emilia-Romagna",
    "city": "Casalecchio di Reno"
  },
  {
    "source_id": "ChIJD_tLnm_Uf0cRSxNY3Z188Ts",
    "name": "Centro Gas - Idraulica Milito Giacomo",
    "category": "Centro Gas - Idraulica Milito Giacomo",
    "formatted_address": "3,8(13)",
    "phone_number": "+39051568100",
    "source_url": "https://www.google.com/maps/place/Centro+Gas+-+Idraulica+Milito+Giacomo/data=!4m7!3m6!1s0x477fd46f9e4bfb0f:0x3bf17c9ddd58134b!8m2!3d44.4868691!4d11.2896023!16s%2Fg%2F1hc9spt3s!19sChIJD_tLnm_Uf0cRSxNY3Z188Ts?authuser=0&hl=tr&rclk=1",
    "website_url": "",
    "rating_text": "3,8",
    "stars": null,
    "number_of_reviews": null,
    "price_level": "",
    "open_hours": "",
    "extraction_timestamp": "2025-06-07T16:22:07.915Z",
    "source_name": "google",
    "source_query": "Irrigation Equipment",
    "source_country": "IT",
    "country": "Italy",
    "state": "Emilia-Romagna",
    "city": "Casalecchio di Reno"
  },
  {
    "source_id": "ChIJc0cPxTbUf0cRM3gt6Krjio8",
    "name": "Ora et Labora di Lappi Roberto",
    "category": "Ora et Labora di Lappi Roberto",
    "formatted_address": "5,0(49)",
    "phone_number": "+393487909144",
    "source_url": "https://www.google.com/maps/place/Ora+et+Labora+di+Lappi+Roberto/data=!4m7!3m6!1s0x477fd436c50f4773:0x8f8ae3aae82d7833!8m2!3d44.4842958!4d11.2869499!16s%2Fg%2F11cn5nzgpr!19sChIJc0cPxTbUf0cRM3gt6Krjio8?authuser=0&hl=tr&rclk=1",
    "website_url": "",
    "rating_text": "5,0",
    "stars": null,
    "number_of_reviews": null,
    "price_level": "",
    "open_hours": "",
    "extraction_timestamp": "2025-06-07T16:22:07.916Z",
    "source_name": "google",
    "source_query": "Irrigation Equipment",
    "source_country": "IT",
    "country": "Italy",
    "state": "Emilia-Romagna",
    "city": "Casalecchio di Reno"
  },
  {
    "source_id": "ChIJaT1c1dTVf0cRXUSQAZFnYcc",
    "name": "euro.vit",
    "category": "euro.vit",
    "formatted_address": "4,6(192)",
    "phone_number": "+39051576248",
    "source_url": "https://www.google.com/maps/place/euro.vit/data=!4m7!3m6!1s0x477fd5d4d55c3d69:0xc76167910190445d!8m2!3d44.4794633!4d11.2694658!16s%2Fg%2F1vfzd08d!19sChIJaT1c1dTVf0cRXUSQAZFnYcc?authuser=0&hl=tr&rclk=1",
    "website_url": "",
    "rating_text": "4,6",
    "stars": null,
    "number_of_reviews": null,
    "price_level": "",
    "open_hours": "",
    "extraction_timestamp": "2025-06-07T16:22:07.917Z",
    "source_name": "google",
    "source_query": "Irrigation Equipment",
    "source_country": "IT",
    "country": "Italy",
    "state": "Emilia-Romagna",
    "city": "Casalecchio di Reno"
  },
  {
    "source_id": "ChIJN4ycx4jTKhMRp06v5OEj0Ew",
    "name": "biciscout.it",
    "category": "biciscout.it",
    "formatted_address": "4,8(198)",
    "phone_number": "+390510828456",
    "source_url": "https://www.google.com/maps/place/biciscout.it/data=!4m7!3m6!1s0x132ad388c79c8c37:0x4cd023e1e4af4ea7!8m2!3d44.4815851!4d11.2593853!16s%2Fg%2F11b_1n125h!19sChIJN4ycx4jTKhMRp06v5OEj0Ew?authuser=0&hl=tr&rclk=1",
    "website_url": "",
    "rating_text": "4,8",
    "stars": null,
    "number_of_reviews": null,
    "price_level": "",
    "open_hours": "",
    "extraction_timestamp": "2025-06-07T16:22:07.918Z",
    "source_name": "google",
    "source_query": "Irrigation Equipment",
    "source_country": "IT",
    "country": "Italy",
    "state": "Emilia-Romagna",
    "city": "Casalecchio di Reno"
  },
  {
    "source_id": "ChIJqdtsqMTaf0cRFSqvzNBB5Tw",
    "name": "Ricchetti Irrigazione Snc Di Alberghini Paolo E C.",
    "category": "Ricchetti Irrigazione Snc Di Alberghini Paolo E C.",
    "formatted_address": "4,9(31)",
    "phone_number": "+39051950115",
    "source_url": "https://www.google.com/maps/place/Ricchetti+Irrigazione+Snc+Di+Alberghini+Paolo+E+C./data=!4m7!3m6!1s0x477fdac4a86cdba9:0x3ce541d0ccaf2a15!8m2!3d44.5883369!4d11.1803569!16s%2Fg%2F1vfn5hgh!19sChIJqdtsqMTaf0cRFSqvzNBB5Tw?authuser=0&hl=tr&rclk=1",
    "website_url": "",
    "rating_text": "4,9",
    "stars": null,
    "number_of_reviews": null,
    "price_level": "",
    "open_hours": "",
    "extraction_timestamp": "2025-06-07T16:22:07.919Z",
    "source_name": "google",
    "source_query": "Irrigation Equipment",
    "source_country": "IT",
    "country": "Italy",
    "state": "Emilia-Romagna",
    "city": "Casalecchio di Reno"
  },
  {
    "source_id": "ChIJj6lqi20sfkcRzOHfxextuA0",
    "name": "La Pioggia",
    "category": "La Pioggia",
    "formatted_address": "4,6(54)",
    "phone_number": "+39051781194",
    "source_url": "https://www.google.com/maps/place/La+Pioggia/data=!4m7!3m6!1s0x477e2c6d8b6aa98f:0xdb86decc5dfe1cc!8m2!3d44.5092215!4d11.4394615!16s%2Fg%2F1tffc0h0!19sChIJj6lqi20sfkcRzOHfxextuA0?authuser=0&hl=tr&rclk=1",
    "website_url": "",
    "rating_text": "4,6",
    "stars": null,
    "number_of_reviews": null,
    "price_level": "",
    "open_hours": "",
    "extraction_timestamp": "2025-06-07T16:22:07.920Z",
    "source_name": "google",
    "source_query": "Irrigation Equipment",
    "source_country": "IT",
    "country": "Italy",
    "state": "Emilia-Romagna",
    "city": "Casalecchio di Reno"
  },
  {
    "source_id": "ChIJBWPmsAPVf0cRI5K2dPraxRA",
    "name": "MCG Interventi Servizio Di Riparazioni Idrauliche",
    "category": "MCG Interventi Servizio Di Riparazioni Idrauliche",
    "formatted_address": "1,0(2)",
    "phone_number": "+39327479609524",
    "source_url": "https://www.google.com/maps/place/MCG+Interventi+Servizio+Di+Riparazioni+Idrauliche/data=!4m7!3m6!1s0x477fd503b0e66305:0x10c5dafa74b69223!8m2!3d44.4672004!4d11.2685434!16s%2Fg%2F11jft69mj9!19sChIJBWPmsAPVf0cRI5K2dPraxRA?authuser=0&hl=tr&rclk=1",
    "website_url": "",
    "rating_text": "1,0",
    "stars": null,
    "number_of_reviews": null,
    "price_level": "",
    "open_hours": "",
    "extraction_timestamp": "2025-06-07T16:22:07.921Z",
    "source_name": "google",
    "source_query": "Irrigation Equipment",
    "source_country": "IT",
    "country": "Italy",
    "state": "Emilia-Romagna",
    "city": "Casalecchio di Reno"
  },
  {
    "source_id": "ChIJZZjsY2LUf0cRd3TIm7QkB9s",
    "name": "Lolli Raffaele Impianti srl",
    "category": "Lolli Raffaele Impianti srl",
    "formatted_address": "4,5(13)",
    "phone_number": "+39051573292",
    "source_url": "https://www.google.com/maps/place/Lolli+Raffaele+Impianti+srl/data=!4m7!3m6!1s0x477fd46263ec9865:0xdb0724b49bc87477!8m2!3d44.4895178!4d11.2577436!16s%2Fg%2F1thk7lj3!19sChIJZZjsY2LUf0cRd3TIm7QkB9s?authuser=0&hl=tr&rclk=1",
    "website_url": "",
    "rating_text": "4,5",
    "stars": null,
    "number_of_reviews": null,
    "price_level": "",
    "open_hours": "",
    "extraction_timestamp": "2025-06-07T16:22:07.922Z",
    "source_name": "google",
    "source_query": "Irrigation Equipment",
    "source_country": "IT",
    "country": "Italy",
    "state": "Emilia-Romagna",
    "city": "Casalecchio di Reno"
  },
  {
    "source_id": "ChIJafcp9yXUf0cRzyJkvtG0pYQ",
    "name": "Zoo Garden",
    "category": "Zoo Garden",
    "formatted_address": "4,1(3.079)",
    "phone_number": "+390516111711",
    "source_url": "https://www.google.com/maps/place/Zoo+Garden/data=!4m7!3m6!1s0x477fd425f729f769:0x84a5b4d1be6422cf!8m2!3d44.4887788!4d11.2767919!16s%2Fg%2F11bzq2vfvt!19sChIJafcp9yXUf0cRzyJkvtG0pYQ?authuser=0&hl=tr&rclk=1",
    "website_url": "",
    "rating_text": "4,1",
    "stars": null,
    "number_of_reviews": null,
    "price_level": "",
    "open_hours": "",
    "extraction_timestamp": "2025-06-07T16:22:07.924Z",
    "source_name": "google",
    "source_query": "Irrigation Equipment",
    "source_country": "IT",
    "country": "Italy",
    "state": "Emilia-Romagna",
    "city": "Casalecchio di Reno"
  },
  {
    "source_id": "ChIJ-RwChsLVf0cRmsnN7ixpdYQ",
    "name": "GLG",
    "category": "GLG",
    "formatted_address": "4,2(15)",
    "phone_number": "+39051593919",
    "source_url": "https://www.google.com/maps/place/GLG/data=!4m7!3m6!1s0x477fd5c286021cf9:0x8475692ceecdc99a!8m2!3d44.4610996!4d11.2735917!16s%2Fg%2F11fb0pkkzg!19sChIJ-RwChsLVf0cRmsnN7ixpdYQ?authuser=0&hl=tr&rclk=1",
    "website_url": "",
    "rating_text": "4,2",
    "stars": null,
    "number_of_reviews": null,
    "price_level": "",
    "open_hours": "",
    "extraction_timestamp": "2025-06-07T16:22:07.925Z",
    "source_name": "google",
    "source_query": "Irrigation Equipment",
    "source_country": "IT",
    "country": "Italy",
    "state": "Emilia-Romagna",
    "city": "Casalecchio di Reno"
  },
  {
    "source_id": "ChIJoV2Ft8HVf0cRpHjQqWo435Q",
    "name": "Vivaio Menzani",
    "category": "Vivaio Menzani",
    "formatted_address": "4,5(42)",
    "phone_number": "+393478532878",
    "source_url": "https://www.google.com/maps/place/Vivaio+Menzani/data=!4m7!3m6!1s0x477fd5c1b7855da1:0x94df386aa9d078a4!8m2!3d44.461081!4d11.279153!16s%2Fg%2F1tfl8hqs!19sChIJoV2Ft8HVf0cRpHjQqWo435Q?authuser=0&hl=tr&rclk=1",
    "website_url": "",
    "rating_text": "4,5",
    "stars": null,
    "number_of_reviews": null,
    "price_level": "",
    "open_hours": "",
    "extraction_timestamp": "2025-06-07T16:22:07.926Z",
    "source_name": "google",
    "source_query": "Irrigation Equipment",
    "source_country": "IT",
    "country": "Italy",
    "state": "Emilia-Romagna",
    "city": "Casalecchio di Reno"
  },
  {
    "source_id": "ChIJQWS_stLVf0cR1D1Id7INuS0",
    "name": "Ferramenta B.C.M. SNC",
    "category": "Ferramenta B.C.M. SNC",
    "formatted_address": "4,4(324)",
    "phone_number": "+39051571082",
    "source_url": "https://www.google.com/maps/place/Ferramenta+B.C.M.+SNC/data=!4m7!3m6!1s0x477fd5d2b2bf6441:0x2db90db277483dd4!8m2!3d44.4788364!4d11.277208!16s%2Fg%2F1vbnn7jb!19sChIJQWS_stLVf0cR1D1Id7INuS0?authuser=0&hl=tr&rclk=1",
    "website_url": "",
    "rating_text": "4,4",
    "stars": null,
    "number_of_reviews": null,
    "price_level": "",
    "open_hours": "",
    "extraction_timestamp": "2025-06-07T16:22:07.927Z",
    "source_name": "google",
    "source_query": "Irrigation Equipment",
    "source_country": "IT",
    "country": "Italy",
    "state": "Emilia-Romagna",
    "city": "Casalecchio di Reno"
  },
  {
    "source_id": "ChIJN0w0CjrUf0cRgEBjFWqqu-A",
    "name": "Parco del fiume",
    "category": "Parco del fiume",
    "formatted_address": "4,4(201)",
    "phone_number": "",
    "source_url": "https://www.google.com/maps/place/Parco+del+fiume/data=!4m7!3m6!1s0x477fd43a0a344c37:0xe0bbaa6a15634080!8m2!3d44.4873887!4d11.2861897!16s%2Fg%2F11c4_ksns1!19sChIJN0w0CjrUf0cRgEBjFWqqu-A?authuser=0&hl=tr&rclk=1",
    "website_url": "",
    "rating_text": "4,4",
    "stars": null,
    "number_of_reviews": null,
    "price_level": "",
    "open_hours": "",
    "extraction_timestamp": "2025-06-07T16:22:07.928Z",
    "source_name": "google",
    "source_query": "Irrigation Equipment",
    "source_country": "IT",
    "country": "Italy",
    "state": "Emilia-Romagna",
    "city": "Casalecchio di Reno"
  },
  {
    "source_id": "ChIJD7WBmGnaf0cR-U628W-egio",
    "name": "Euroequipe Srl",
    "category": "Euroequipe Srl",
    "formatted_address": "4,4(20)",
    "phone_number": "+39051734808",
    "source_url": "https://www.google.com/maps/place/Euroequipe+Srl/data=!4m7!3m6!1s0x477fda699881b50f:0x2a829e6ff1b64ef9!8m2!3d44.5504658!4d11.1791057!16s%2Fg%2F1hc0wtx5b!19sChIJD7WBmGnaf0cR-U628W-egio?authuser=0&hl=tr&rclk=1",
    "website_url": "",
    "rating_text": "4,4",
    "stars": null,
    "number_of_reviews": null,
    "price_level": "",
    "open_hours": "",
    "extraction_timestamp": "2025-06-07T16:22:07.929Z",
    "source_name": "google",
    "source_query": "Irrigation Equipment",
    "source_country": "IT",
    "country": "Italy",
    "state": "Emilia-Romagna",
    "city": "Casalecchio di Reno"
  },
  {
    "source_id": "ChIJL8ySsivUf0cRWdOGr_KEHds",
    "name": "Game 7 Athletics",
    "category": "Game 7 Athletics",
    "formatted_address": "4,1(527)",
    "phone_number": "+390516132835",
    "source_url": "https://www.google.com/maps/place/Game+7+Athletics/data=!4m7!3m6!1s0x477fd42bb292cc2f:0xdb1d84f2af86d359!8m2!3d44.4829786!4d11.270432!16s%2Fg%2F1tdk407y!19sChIJL8ySsivUf0cRWdOGr_KEHds?authuser=0&hl=tr&rclk=1",
    "website_url": "",
    "rating_text": "4,1",
    "stars": null,
    "number_of_reviews": null,
    "price_level": "",
    "open_hours": "",
    "extraction_timestamp": "2025-06-07T16:22:07.930Z",
    "source_name": "google",
    "source_query": "Irrigation Equipment",
    "source_country": "IT",
    "country": "Italy",
    "state": "Emilia-Romagna",
    "city": "Casalecchio di Reno"
  },
  {
    "source_id": "ChIJa4TTganUf0cRKtWi8bMxJCk",
    "name": "Tematic S.p.A. Office and Warehouse",
    "category": "Tematic S.p.A. Office and Warehouse",
    "formatted_address": "4,2(52)",
    "phone_number": "+39051511379",
    "source_url": "https://www.google.com/maps/place/Tematic+S.p.A.+Office+and+Warehouse/data=!4m7!3m6!1s0x477fd4a981d3846b:0x292431b3f1a2d52a!8m2!3d44.5049885!4d11.3652568!16s%2Fg%2F1w6_mp2b!19sChIJa4TTganUf0cRKtWi8bMxJCk?authuser=0&hl=tr&rclk=1",
    "website_url": "",
    "rating_text": "4,2",
    "stars": null,
    "number_of_reviews": null,
    "price_level": "",
    "open_hours": "",
    "extraction_timestamp": "2025-06-07T16:22:07.931Z",
    "source_name": "google",
    "source_query": "Irrigation Equipment",
    "source_country": "IT",
    "country": "Italy",
    "state": "Emilia-Romagna",
    "city": "Casalecchio di Reno"
  },
  {
    "source_id": "ChIJGYlKv1jTf0cRpysPCvXNBoc",
    "name": "IPERCERAMICA Bologna",
    "category": "IPERCERAMICA Bologna",
    "formatted_address": "4,0(425)",
    "phone_number": "+393453910985",
    "source_url": "https://www.google.com/maps/place/IPERCERAMICA+Bologna/data=!4m7!3m6!1s0x477fd358bf4a8919:0x8706cdf50a0f2ba7!8m2!3d44.5089474!4d11.3565136!16s%2Fg%2F1yg4d0sgt!19sChIJGYlKv1jTf0cRpysPCvXNBoc?authuser=0&hl=tr&rclk=1",
    "website_url": "",
    "rating_text": "4,0",
    "stars": null,
    "number_of_reviews": null,
    "price_level": "",
    "open_hours": "",
    "extraction_timestamp": "2025-06-07T16:22:07.950Z",
    "source_name": "google",
    "source_query": "Irrigation Equipment",
    "source_country": "IT",
    "country": "Italy",
    "state": "Emilia-Romagna",
    "city": "Casalecchio di Reno"
  },
  {
    "source_id": "ChIJlzPN61jTf0cRZhfoBsWgS_o",
    "name": "Idraulica Emiliana S.p.A.",
    "category": "Idraulica Emiliana S.p.A.",
    "formatted_address": "4,3(30)",
    "phone_number": "+390516333548",
    "source_url": "https://www.google.com/maps/place/Idraulica+Emiliana+S.p.A./data=!4m7!3m6!1s0x477fd358ebcd3397:0xfa4ba0c506e81766!8m2!3d44.5092595!4d11.3571117!16s%2Fg%2F11g69g3sh_!19sChIJlzPN61jTf0cRZhfoBsWgS_o?authuser=0&hl=tr&rclk=1",
    "website_url": "",
    "rating_text": "4,3",
    "stars": null,
    "number_of_reviews": null,
    "price_level": "",
    "open_hours": "",
    "extraction_timestamp": "2025-06-07T16:22:07.951Z",
    "source_name": "google",
    "source_query": "Irrigation Equipment",
    "source_country": "IT",
    "country": "Italy",
    "state": "Emilia-Romagna",
    "city": "Casalecchio di Reno"
  },
  {
    "source_id": "ChIJ3xJAwzPUf0cRxu2PiOv19HM",
    "name": "Spazio Eco",
    "category": "Spazio Eco",
    "formatted_address": "4,1(426)",
    "phone_number": "",
    "source_url": "https://www.google.com/maps/place/Spazio+Eco/data=!4m7!3m6!1s0x477fd433c34012df:0x73f4f5eb888fedc6!8m2!3d44.4817322!4d11.2833237!16s%2Fg%2F1v6wn4n9!19sChIJ3xJAwzPUf0cRxu2PiOv19HM?authuser=0&hl=tr&rclk=1",
    "website_url": "",
    "rating_text": "4,1",
    "stars": null,
    "number_of_reviews": null,
    "price_level": "",
    "open_hours": "",
    "extraction_timestamp": "2025-06-07T16:22:07.952Z",
    "source_name": "google",
    "source_query": "Irrigation Equipment",
    "source_country": "IT",
    "country": "Italy",
    "state": "Emilia-Romagna",
    "city": "Casalecchio di Reno"
  },
  {
    "source_id": "ChIJWavO3AbUf0cRLWbzFRe-IdA",
    "name": "omniacque LTD Water treatment - swimming pool construction",
    "category": "omniacque LTD Water treatment - swimming pool construction",
    "formatted_address": "3,0(29)",
    "phone_number": "+39051564464",
    "source_url": "https://www.google.com/maps/place/omniacque+LTD+Water+treatment+-+swimming+pool+construction/data=!4m7!3m6!1s0x477fd406dcceab59:0xd021be1715f3662d!8m2!3d44.5114651!4d11.281012!16s%2Fg%2F1yh4g8rnk!19sChIJWavO3AbUf0cRLWbzFRe-IdA?authuser=0&hl=tr&rclk=1",
    "website_url": "",
    "rating_text": "3,0",
    "stars": null,
    "number_of_reviews": null,
    "price_level": "",
    "open_hours": "",
    "extraction_timestamp": "2025-06-07T16:22:07.953Z",
    "source_name": "google",
    "source_query": "Irrigation Equipment",
    "source_country": "IT",
    "country": "Italy",
    "state": "Emilia-Romagna",
    "city": "Casalecchio di Reno"
  },
  {
    "source_id": "ChIJE4sCqOzWf0cRJ4EPJFivW_k",
    "name": "Cambielli S.p.A.",
    "category": "Cambielli S.p.A.",
    "formatted_address": "4,6(32)",
    "phone_number": "+39051758111",
    "source_url": "https://www.google.com/maps/place/Cambielli+S.p.A./data=!4m7!3m6!1s0x477fd6eca8028b13:0xf95baf58240f8127!8m2!3d44.4959172!4d11.248636!16s%2Fg%2F1tfd5tmf!19sChIJE4sCqOzWf0cRJ4EPJFivW_k?authuser=0&hl=tr&rclk=1",
    "website_url": "",
    "rating_text": "4,6",
    "stars": null,
    "number_of_reviews": null,
    "price_level": "",
    "open_hours": "",
    "extraction_timestamp": "2025-06-07T16:22:07.954Z",
    "source_name": "google",
    "source_query": "Irrigation Equipment",
    "source_country": "IT",
    "country": "Italy",
    "state": "Emilia-Romagna",
    "city": "Casalecchio di Reno"
  },
  {
    "source_id": "ChIJCXuseTHTf0cRzptQ0pGelFU",
    "name": "Alpe Hydraulic Systems Water Meters",
    "category": "Alpe Hydraulic Systems Water Meters",
    "formatted_address": "Su Hizmeti Sağlayıcısı · Via del Gomito, 23+39 051 326854",
    "phone_number": "+39051326854",
    "source_url": "https://www.google.com/maps/place/Alpe+Hydraulic+Systems+Water+Meters/data=!4m7!3m6!1s0x477fd33179ac7b09:0x55949e91d2509bce!8m2!3d44.531701!4d11.3753288!16s%2Fg%2F1tjt0slq!19sChIJCXuseTHTf0cRzptQ0pGelFU?authuser=0&hl=tr&rclk=1",
    "website_url": "",
    "rating_text": "",
    "stars": null,
    "number_of_reviews": null,
    "price_level": "",
    "open_hours": "",
    "extraction_timestamp": "2025-06-07T16:22:07.955Z",
    "source_name": "google",
    "source_query": "Irrigation Equipment",
    "source_country": "IT",
    "country": "Italy",
    "state": "Emilia-Romagna",
    "city": "Casalecchio di Reno"
  }
]
