[
  {
    "source_id": "ChIJy805WcDcgEcRtmGWlwosXQc",
    "name": "IRRIMEC SRL",
    "category": "IRRIMEC SRL",
    "formatted_address": "4,5(90)",
    "phone_number": "+390523760441",
    "source_url": "https://www.google.com/maps/place/IRRIMEC+SRL/data=!4m7!3m6!1s0x4780dcc05939cdcb:0x75d2c0a979661b6!8m2!3d45.0612353!4d9.630829!16s%2Fg%2F1tdgt7d_!19sChIJy805WcDcgEcRtmGWlwosXQc?authuser=0&hl=tr&rclk=1",
    "website_url": "http://www.irrimec.com/",
    "rating_text": "4,5",
    "stars": null,
    "number_of_reviews": null,
    "price_level": "",
    "open_hours": "",
    "extraction_timestamp": "2025-06-07T16:54:46.717Z",
    "source_name": "google",
    "source_query": "Irrigation Equipment",
    "source_country": "IT",
    "country": "Italy",
    "state": "Emilia-Romagna",
    "city": "Castelvetro Piacentino"
  },
  {
    "source_id": "ChIJP-CISQ3-gEcRXwl1yi9NW2Q",
    "name": "SIIP - Società Impianti di irrigazione a pioggia",
    "category": "SIIP - Società Impianti di irrigazione a pioggia",
    "formatted_address": "5,0(2)",
    "phone_number": "+393356863605",
    "source_url": "https://www.google.com/maps/place/SIIP+-+Societ%C3%A0+Impianti+di+irrigazione+a+pioggia/data=!4m7!3m6!1s0x4780fe0d4988e03f:0x645b4d2fca75095f!8m2!3d45.1417827!4d10.0200624!16s%2Fg%2F1vqtfn9y!19sChIJP-CISQ3-gEcRXwl1yi9NW2Q?authuser=0&hl=tr&rclk=1",
    "website_url": "https://www.impiantiirrigazionicremona.com/",
    "rating_text": "5,0",
    "stars": null,
    "number_of_reviews": null,
    "price_level": "",
    "open_hours": "",
    "extraction_timestamp": "2025-06-07T16:54:46.718Z",
    "source_name": "google",
    "source_query": "Irrigation Equipment",
    "source_country": "IT",
    "country": "Italy",
    "state": "Emilia-Romagna",
    "city": "Castelvetro Piacentino"
  },
  {
    "source_id": "ChIJJ6V6lMDgf0cR1SpFsfjDuHg",
    "name": "Ocmis Irrigazione Spa",
    "category": "Ocmis Irrigazione Spa",
    "formatted_address": "3,5(31)",
    "phone_number": "+39059702150",
    "source_url": "https://www.google.com/maps/place/Ocmis+Irrigazione+Spa/data=!4m7!3m6!1s0x477fe0c0947aa527:0x78b8c3f8b1452ad5!8m2!3d44.530494!4d10.9794578!16s%2Fg%2F1vd3tn19!19sChIJJ6V6lMDgf0cR1SpFsfjDuHg?authuser=0&hl=tr&rclk=1",
    "website_url": "http://www.ocmis-irrigazione.it/",
    "rating_text": "3,5",
    "stars": null,
    "number_of_reviews": null,
    "price_level": "",
    "open_hours": "",
    "extraction_timestamp": "2025-06-07T16:54:46.718Z",
    "source_name": "google",
    "source_query": "Irrigation Equipment",
    "source_country": "IT",
    "country": "Italy",
    "state": "Emilia-Romagna",
    "city": "Castelvetro Piacentino"
  },
  {
    "source_id": "ChIJv8EaHwz8gEcRuL5VWwfd_nE",
    "name": "Brico Ok",
    "category": "Brico Ok",
    "formatted_address": "4,0(306)",
    "phone_number": "+390523825093",
    "source_url": "https://www.google.com/maps/place/Brico+Ok/data=!4m7!3m6!1s0x4780fc0c1f1ac1bf:0x71fedd075b55beb8!8m2!3d45.0947263!4d9.9750986!16s%2Fg%2F11c58qfs7d!19sChIJv8EaHwz8gEcRuL5VWwfd_nE?authuser=0&hl=tr&rclk=1",
    "website_url": "http://www.bricook.it/",
    "rating_text": "4,0",
    "stars": null,
    "number_of_reviews": null,
    "price_level": "",
    "open_hours": "",
    "extraction_timestamp": "2025-06-07T16:54:46.718Z",
    "source_name": "google",
    "source_query": "Irrigation Equipment",
    "source_country": "IT",
    "country": "Italy",
    "state": "Emilia-Romagna",
    "city": "Castelvetro Piacentino"
  },
  {
    "source_id": "ChIJcQG6ul7df0cR3VxKiu5OPBs",
    "name": "Scova Impianti Srl",
    "category": "Scova Impianti Srl",
    "formatted_address": "4,5(64)",
    "phone_number": "+39059923202",
    "source_url": "https://www.google.com/maps/place/Scova+Impianti+Srl/data=!4m7!3m6!1s0x477fdd5ebaba0171:0x1b3c4eee8a4a5cdd!8m2!3d44.6018135!4d11.032294!16s%2Fg%2F1tfzwbfb!19sChIJcQG6ul7df0cR3VxKiu5OPBs?authuser=0&hl=tr&rclk=1",
    "website_url": "https://www.scovaimpianti.com/",
    "rating_text": "4,5",
    "stars": null,
    "number_of_reviews": null,
    "price_level": "",
    "open_hours": "",
    "extraction_timestamp": "2025-06-07T16:54:46.719Z",
    "source_name": "google",
    "source_query": "Irrigation Equipment",
    "source_country": "IT",
    "country": "Italy",
    "state": "Emilia-Romagna",
    "city": "Castelvetro Piacentino"
  },
  {
    "source_id": "ChIJ90762m6rgUcRrOpHkQtN0qE",
    "name": "ACQUAFERT",
    "category": "ACQUAFERT",
    "formatted_address": "4,8(13)",
    "phone_number": "+390372835672",
    "source_url": "https://www.google.com/maps/place/ACQUAFERT/data=!4m7!3m6!1s0x4781ab6edafa4ef7:0xa1d24d0b9147eaac!8m2!3d45.1695663!4d10.1916537!16s%2Fg%2F11c1ny5b5r!19sChIJ90762m6rgUcRrOpHkQtN0qE?authuser=0&hl=tr&rclk=1",
    "website_url": "https://www.acquafertagri.it/",
    "rating_text": "4,8",
    "stars": null,
    "number_of_reviews": null,
    "price_level": "",
    "open_hours": "",
    "extraction_timestamp": "2025-06-07T16:54:46.719Z",
    "source_name": "google",
    "source_query": "Irrigation Equipment",
    "source_country": "IT",
    "country": "Italy",
    "state": "Emilia-Romagna",
    "city": "Castelvetro Piacentino"
  },
  {
    "source_id": "ChIJX_AK2CX8gEcR7nCcz-uMg1Y",
    "name": "Veneziani Giuseppe",
    "category": "Veneziani Giuseppe",
    "formatted_address": "5,0(8)",
    "phone_number": "+390523824540",
    "source_url": "https://www.google.com/maps/place/Veneziani+Giuseppe/data=!4m7!3m6!1s0x4780fc25d80af05f:0x56838cebcf9c70ee!8m2!3d45.0941601!4d9.9757555!16s%2Fg%2F1hc6jgvh6!19sChIJX_AK2CX8gEcR7nCcz-uMg1Y?authuser=0&hl=tr&rclk=1",
    "website_url": "http://www.venezianidepuratori.com/",
    "rating_text": "5,0",
    "stars": null,
    "number_of_reviews": null,
    "price_level": "",
    "open_hours": "",
    "extraction_timestamp": "2025-06-07T16:54:46.719Z",
    "source_name": "google",
    "source_query": "Irrigation Equipment",
    "source_country": "IT",
    "country": "Italy",
    "state": "Emilia-Romagna",
    "city": "Castelvetro Piacentino"
  },
  {
    "source_id": "ChIJ2Y79SH_9gEcRdrB3wHb849w",
    "name": "TECNOBILANCE S.r.l.",
    "category": "TECNOBILANCE S.r.l.",
    "formatted_address": "Endüstriyel Ekipman Tedarikçisi · Via R. Lombardi, 8Kapalı ⋅ Açılış zamanı: Pzt 08:30 · +39 0523 183 7006",
    "phone_number": "+3905231837006",
    "source_url": "https://www.google.com/maps/place/TECNOBILANCE+S.r.l./data=!4m7!3m6!1s0x4780fd7f48fd8ed9:0xdce3fc76c077b076!8m2!3d45.0950307!4d9.9789676!16s%2Fg%2F11l_33vgm0!19sChIJ2Y79SH_9gEcRdrB3wHb849w?authuser=0&hl=tr&rclk=1",
    "website_url": "https://www.tecnobilance.com/",
    "rating_text": "",
    "stars": null,
    "number_of_reviews": null,
    "price_level": "",
    "open_hours": "",
    "extraction_timestamp": "2025-06-07T16:54:46.719Z",
    "source_name": "google",
    "source_query": "Irrigation Equipment",
    "source_country": "IT",
    "country": "Italy",
    "state": "Emilia-Romagna",
    "city": "Castelvetro Piacentino"
  },
  {
    "source_id": "ChIJJ6V6lMDgf0cRkL2jf5B3MwQ",
    "name": "Scova Engineering Spa",
    "category": "Scova Engineering Spa",
    "formatted_address": "5,0(2)",
    "phone_number": "+39059702012",
    "source_url": "https://www.google.com/maps/place/Scova+Engineering+Spa/data=!4m7!3m6!1s0x477fe0c0947aa527:0x43377907fa3bd90!8m2!3d44.5304758!4d10.9796265!16s%2Fg%2F1tql3mky!19sChIJJ6V6lMDgf0cRkL2jf5B3MwQ?authuser=0&hl=tr&rclk=1",
    "website_url": "https://www.scova-engineering.it/",
    "rating_text": "5,0",
    "stars": null,
    "number_of_reviews": null,
    "price_level": "",
    "open_hours": "",
    "extraction_timestamp": "2025-06-07T16:54:46.720Z",
    "source_name": "google",
    "source_query": "Irrigation Equipment",
    "source_country": "IT",
    "country": "Italy",
    "state": "Emilia-Romagna",
    "city": "Castelvetro Piacentino"
  }
]
