[
  {
    "source_id": "ChIJpVMV0wbSgEcRNPyQD6Q2uWY",
    "name": "Tectubi Fittings S.p.A.",
    "category": "Tectubi Fittings S.p.A.",
    "formatted_address": "4,5(34)",
    "phone_number": "",
    "source_url": "https://www.google.com/maps/place/Tectubi+Fittings+S.p.A./data=!4m7!3m6!1s0x4780d206d31553a5:0x66b936a40f90fc34!8m2!3d45.0638314!4d9.4179648!16s%2Fg%2F11g7zf1nzq!19sChIJpVMV0wbSgEcRNPyQD6Q2uWY?authuser=0&hl=tr&rclk=1",
    "website_url": "",
    "rating_text": "4,5",
    "stars": null,
    "number_of_reviews": null,
    "price_level": "",
    "open_hours": "",
    "extraction_timestamp": "2025-06-07T17:01:27.918Z",
    "source_name": "google",
    "source_query": "Irrigation Equipment",
    "source_country": "IT",
    "country": "Italy",
    "state": "Emilia-Romagna",
    "city": "Castel San Giovanni"
  },
  {
    "source_id": "ChIJURNsXunRgEcRmae-SVNqONs",
    "name": "IDROPAVESE SAS DI VARESI GIAMPAOLO E VARESI MARA",
    "category": "IDROPAVESE SAS DI VARESI GIAMPAOLO E VARESI MARA",
    "formatted_address": "4,2(17)",
    "phone_number": "+390523882596",
    "source_url": "https://www.google.com/maps/place/IDROPAVESE+SAS+DI+VARESI+GIAMPAOLO+E+VARESI+MARA/data=!4m7!3m6!1s0x4780d1e95e6c1351:0xdb386a5349bea799!8m2!3d45.0733425!4d9.4455294!16s%2Fg%2F11b6hssh7j!19sChIJURNsXunRgEcRmae-SVNqONs?authuser=0&hl=tr&rclk=1",
    "website_url": "",
    "rating_text": "4,2",
    "stars": null,
    "number_of_reviews": null,
    "price_level": "",
    "open_hours": "",
    "extraction_timestamp": "2025-06-07T17:01:27.922Z",
    "source_name": "google",
    "source_query": "Irrigation Equipment",
    "source_country": "IT",
    "country": "Italy",
    "state": "Emilia-Romagna",
    "city": "Castel San Giovanni"
  },
  {
    "source_id": "ChIJ2Zg8vS8-zGERmxeK8teJvNU",
    "name": "Acqua Center di Bongiorni Cristiano - Assistenza e vendita impianti trattamento acqua",
    "category": "Acqua Center di Bongiorni Cristiano - Assistenza e vendita impianti trattamento acqua",
    "formatted_address": "5,0(2)",
    "phone_number": "+393288299987",
    "source_url": "https://www.google.com/maps/place/Acqua+Center+di+Bongiorni+Cristiano+-+Assistenza+e+vendita+impianti+trattamento+acqua/data=!4m7!3m6!1s0x61cc3e2fbd3c98d9:0xd5bc89d7f28a179b!8m2!3d45.0564781!4d9.4229733!16s%2Fg%2F11kqlq0hj4!19sChIJ2Zg8vS8-zGERmxeK8teJvNU?authuser=0&hl=tr&rclk=1",
    "website_url": "",
    "rating_text": "5,0",
    "stars": null,
    "number_of_reviews": null,
    "price_level": "",
    "open_hours": "",
    "extraction_timestamp": "2025-06-07T17:01:27.924Z",
    "source_name": "google",
    "source_query": "Irrigation Equipment",
    "source_country": "IT",
    "country": "Italy",
    "state": "Emilia-Romagna",
    "city": "Castel San Giovanni"
  },
  {
    "source_id": "ChIJqRqgWiDOgEcRSaQ1N2RchfU",
    "name": "Brico Ok - Castel San Giovanni",
    "category": "Brico Ok - Castel San Giovanni",
    "formatted_address": "4,0(512)",
    "phone_number": "+390523849302",
    "source_url": "https://www.google.com/maps/place/Brico+Ok+-+Castel+San+Giovanni/data=!4m7!3m6!1s0x4780ce205aa01aa9:0xf5855c643735a449!8m2!3d45.0567059!4d9.4468748!16s%2Fg%2F11c1wxcy0_!19sChIJqRqgWiDOgEcRSaQ1N2RchfU?authuser=0&hl=tr&rclk=1",
    "website_url": "",
    "rating_text": "4,0",
    "stars": null,
    "number_of_reviews": null,
    "price_level": "",
    "open_hours": "",
    "extraction_timestamp": "2025-06-07T17:01:27.926Z",
    "source_name": "google",
    "source_query": "Irrigation Equipment",
    "source_country": "IT",
    "country": "Italy",
    "state": "Emilia-Romagna",
    "city": "Castel San Giovanni"
  },
  {
    "source_id": "ChIJfxwLLHLPgEcRzw_ofMembJA",
    "name": "Dritan SULKO",
    "category": "Dritan SULKO",
    "formatted_address": "1,0(1)",
    "phone_number": "+393298121371",
    "source_url": "https://www.google.com/maps/place/Dritan+SULKO/data=!4m7!3m6!1s0x4780cf722c0b1c7f:0x906ca6c77ce80fcf!8m2!3d45.05456!4d9.4217296!16s%2Fg%2F11qy7wxbz_!19sChIJfxwLLHLPgEcRzw_ofMembJA?authuser=0&hl=tr&rclk=1",
    "website_url": "",
    "rating_text": "1,0",
    "stars": null,
    "number_of_reviews": null,
    "price_level": "",
    "open_hours": "",
    "extraction_timestamp": "2025-06-07T17:01:27.928Z",
    "source_name": "google",
    "source_query": "Irrigation Equipment",
    "source_country": "IT",
    "country": "Italy",
    "state": "Emilia-Romagna",
    "city": "Castel San Giovanni"
  },
  {
    "source_id": "ChIJLxXVWf3RgEcRyrWXEYtsy6I",
    "name": "Acqualife di Fabio Pozzi",
    "category": "Acqualife di Fabio Pozzi",
    "formatted_address": "4,7(3)",
    "phone_number": "+393388081917",
    "source_url": "https://www.google.com/maps/place/Acqualife+di+Fabio+Pozzi/data=!4m7!3m6!1s0x4780d1fd59d5152f:0xa2cb6c8b1197b5ca!8m2!3d45.0599553!4d9.4333696!16s%2Fg%2F11cn7gxtzc!19sChIJLxXVWf3RgEcRyrWXEYtsy6I?authuser=0&hl=tr&rclk=1",
    "website_url": "",
    "rating_text": "4,7",
    "stars": null,
    "number_of_reviews": null,
    "price_level": "",
    "open_hours": "",
    "extraction_timestamp": "2025-06-07T17:01:27.942Z",
    "source_name": "google",
    "source_query": "Irrigation Equipment",
    "source_country": "IT",
    "country": "Italy",
    "state": "Emilia-Romagna",
    "city": "Castel San Giovanni"
  },
  {
    "source_id": "ChIJiXH5yhXPgEcRAvApyOyXdFY",
    "name": "Mori Pozzi e Pompe di Mori Domenico Elettropompe per acqua",
    "category": "Mori Pozzi e Pompe di Mori Domenico Elettropompe per acqua",
    "formatted_address": "5,0(3)",
    "phone_number": "+393388035232",
    "source_url": "https://www.google.com/maps/place/Mori+Pozzi+e+Pompe+di+Mori+Domenico+Elettropompe+per+acqua/data=!4m7!3m6!1s0x4780cf15caf97189:0x567497ecc829f002!8m2!3d45.1718128!4d9.432825!16s%2Fg%2F11lg7qsf15!19sChIJiXH5yhXPgEcRAvApyOyXdFY?authuser=0&hl=tr&rclk=1",
    "website_url": "",
    "rating_text": "5,0",
    "stars": null,
    "number_of_reviews": null,
    "price_level": "",
    "open_hours": "",
    "extraction_timestamp": "2025-06-07T17:01:27.944Z",
    "source_name": "google",
    "source_query": "Irrigation Equipment",
    "source_country": "IT",
    "country": "Italy",
    "state": "Emilia-Romagna",
    "city": "Castel San Giovanni"
  },
  {
    "source_id": "ChIJR0jl0_zRgEcRJsUYWn9cDUs",
    "name": "Olivieri Ferramenta",
    "category": "Olivieri Ferramenta",
    "formatted_address": "4,6(60)",
    "phone_number": "+390523882541",
    "source_url": "https://www.google.com/maps/place/Olivieri+Ferramenta/data=!4m7!3m6!1s0x4780d1fcd3e54847:0x4b0d5c7f5a18c526!8m2!3d45.0621454!4d9.4340336!16s%2Fg%2F1tgh6dyt!19sChIJR0jl0_zRgEcRJsUYWn9cDUs?authuser=0&hl=tr&rclk=1",
    "website_url": "",
    "rating_text": "4,6",
    "stars": null,
    "number_of_reviews": null,
    "price_level": "",
    "open_hours": "",
    "extraction_timestamp": "2025-06-07T17:01:27.946Z",
    "source_name": "google",
    "source_query": "Irrigation Equipment",
    "source_country": "IT",
    "country": "Italy",
    "state": "Emilia-Romagna",
    "city": "Castel San Giovanni"
  },
  {
    "source_id": "ChIJtYhpvQLOgEcRvqnZnpBXa78",
    "name": "Calegari Marco Ferramenta - Cessionario Olivieri F.lli",
    "category": "Calegari Marco Ferramenta - Cessionario Olivieri F.lli",
    "formatted_address": "4,7(89)",
    "phone_number": "+390523882512",
    "source_url": "https://www.google.com/maps/place/Calegari+Marco+Ferramenta+-+Cessionario+Olivieri+F.lli/data=!4m7!3m6!1s0x4780ce02bd6988b5:0xbf6b57909ed9a9be!8m2!3d45.0591676!4d9.4324219!16s%2Fg%2F1tjcn97s!19sChIJtYhpvQLOgEcRvqnZnpBXa78?authuser=0&hl=tr&rclk=1",
    "website_url": "",
    "rating_text": "4,7",
    "stars": null,
    "number_of_reviews": null,
    "price_level": "",
    "open_hours": "",
    "extraction_timestamp": "2025-06-07T17:01:27.947Z",
    "source_name": "google",
    "source_query": "Irrigation Equipment",
    "source_country": "IT",
    "country": "Italy",
    "state": "Emilia-Romagna",
    "city": "Castel San Giovanni"
  },
  {
    "source_id": "ChIJLy92BP7RgEcRlzi0bkHsK2g",
    "name": "Shun Wang Mercatone Sas",
    "category": "Shun Wang Mercatone Sas",
    "formatted_address": "4,1(117)",
    "phone_number": "",
    "source_url": "https://www.google.com/maps/place/Shun+Wang+Mercatone+Sas/data=!4m7!3m6!1s0x4780d1fe04762f2f:0x682bec416eb43897!8m2!3d45.0602942!4d9.4277408!16s%2Fg%2F1hc1p04w7!19sChIJLy92BP7RgEcRlzi0bkHsK2g?authuser=0&hl=tr&rclk=1",
    "website_url": "",
    "rating_text": "4,1",
    "stars": null,
    "number_of_reviews": null,
    "price_level": "",
    "open_hours": "",
    "extraction_timestamp": "2025-06-07T17:01:27.948Z",
    "source_name": "google",
    "source_query": "Irrigation Equipment",
    "source_country": "IT",
    "country": "Italy",
    "state": "Emilia-Romagna",
    "city": "Castel San Giovanni"
  },
  {
    "source_id": "ChIJnyyozzLFgEcRveCr7YkDeKI",
    "name": "Carella Sas di Carella Enrico Filippo e C.",
    "category": "Carella Sas di Carella Enrico Filippo e C.",
    "formatted_address": "4,7(46)",
    "phone_number": "+390523884055",
    "source_url": "https://www.google.com/maps/place/Carella+Sas+di+Carella+Enrico+Filippo+e+C./data=!4m7!3m6!1s0x4780c532cfa82c9f:0xa2780389edabe0bd!8m2!3d45.0555848!4d9.5038928!16s%2Fg%2F11jpkclgfy!19sChIJnyyozzLFgEcRveCr7YkDeKI?authuser=0&hl=tr&rclk=1",
    "website_url": "",
    "rating_text": "4,7",
    "stars": null,
    "number_of_reviews": null,
    "price_level": "",
    "open_hours": "",
    "extraction_timestamp": "2025-06-07T17:01:27.950Z",
    "source_name": "google",
    "source_query": "Irrigation Equipment",
    "source_country": "IT",
    "country": "Italy",
    "state": "Emilia-Romagna",
    "city": "Castel San Giovanni"
  },
  {
    "source_id": "ChIJtVDkNgRFgEcRqc6umwWIJuI",
    "name": "Rm Spa",
    "category": "Rm Spa",
    "formatted_address": "4,6(81)",
    "phone_number": "+390521872321",
    "source_url": "https://www.google.com/maps/place/Rm+Spa/data=!4m7!3m6!1s0x4780450436e450b5:0xe22688059baecea9!8m2!3d44.9105406!4d10.2583785!16s%2Fg%2F12hl93byl!19sChIJtVDkNgRFgEcRqc6umwWIJuI?authuser=0&hl=tr&rclk=1",
    "website_url": "",
    "rating_text": "4,6",
    "stars": null,
    "number_of_reviews": null,
    "price_level": "",
    "open_hours": "",
    "extraction_timestamp": "2025-06-07T17:01:27.951Z",
    "source_name": "google",
    "source_query": "Irrigation Equipment",
    "source_country": "IT",
    "country": "Italy",
    "state": "Emilia-Romagna",
    "city": "Castel San Giovanni"
  },
  {
    "source_id": "ChIJ4WnZNofogEcRcCSJgGupNXk",
    "name": "Irrigarden",
    "category": "Irrigarden",
    "formatted_address": "3,7(6)",
    "phone_number": "+390523592012",
    "source_url": "https://www.google.com/maps/place/Irrigarden/data=!4m7!3m6!1s0x4780e88736d969e1:0x7935a96b80892470!8m2!3d45.0288739!4d9.7384753!16s%2Fg%2F11g4d1r753!19sChIJ4WnZNofogEcRcCSJgGupNXk?authuser=0&hl=tr&rclk=1",
    "website_url": "",
    "rating_text": "3,7",
    "stars": null,
    "number_of_reviews": null,
    "price_level": "",
    "open_hours": "",
    "extraction_timestamp": "2025-06-07T17:01:27.952Z",
    "source_name": "google",
    "source_query": "Irrigation Equipment",
    "source_country": "IT",
    "country": "Italy",
    "state": "Emilia-Romagna",
    "city": "Castel San Giovanni"
  },
  {
    "source_id": "ChIJ-dB8vALOgEcRS8DVP7gqdkw",
    "name": "Halonis Srl Hair & Beauty",
    "category": "Halonis Srl Hair & Beauty",
    "formatted_address": "4,6(66)",
    "phone_number": "+390523882251",
    "source_url": "https://www.google.com/maps/place/Halonis+Srl+Hair+%26+Beauty/data=!4m7!3m6!1s0x4780ce02bc7cd0f9:0x4c762ab83fd5c04b!8m2!3d45.0592109!4d9.429525!16s%2Fg%2F1v8h_8n8!19sChIJ-dB8vALOgEcRS8DVP7gqdkw?authuser=0&hl=tr&rclk=1",
    "website_url": "",
    "rating_text": "4,6",
    "stars": null,
    "number_of_reviews": null,
    "price_level": "",
    "open_hours": "",
    "extraction_timestamp": "2025-06-07T17:01:27.954Z",
    "source_name": "google",
    "source_query": "Irrigation Equipment",
    "source_country": "IT",
    "country": "Italy",
    "state": "Emilia-Romagna",
    "city": "Castel San Giovanni"
  }
]
