[
  {
    "source_id": "ChIJJw8zDgsYgEcRb4fhCyV5QXo",
    "name": "Speroni S.p.A. - Water Pumps",
    "category": "Speroni S.p.A. - Water Pumps",
    "formatted_address": "4,6(135)",
    "phone_number": "+390522487011",
    "source_url": "https://www.google.com/maps/place/Speroni+S.p.A.+-+Water+Pumps/data=!4m7!3m6!1s0x4780180b0e330f27:0x7a4179250be1876f!8m2!3d44.7991725!4d10.5714246!16s%2Fg%2F1tr9m89z!19sChIJJw8zDgsYgEcRb4fhCyV5QXo?authuser=0&hl=tr&rclk=1",
    "website_url": "https://www.speroni.it/",
    "rating_text": "4,6",
    "stars": null,
    "number_of_reviews": null,
    "price_level": "",
    "open_hours": "",
    "extraction_timestamp": "2025-06-07T16:08:12.716Z",
    "source_name": "google",
    "source_query": "Irrigation Equipment",
    "source_country": "IT",
    "country": "Italy",
    "state": "Emilia-Romagna",
    "city": "Castelnovo di Sotto"
  },
  {
    "source_id": "ChIJf7K7J70igEcRcuy1LHej7q8",
    "name": "Ferroni Srl",
    "category": "Ferroni Srl",
    "formatted_address": "3,7(6)",
    "phone_number": "+390522682484",
    "source_url": "https://www.google.com/maps/place/Ferroni+Srl/data=!4m7!3m6!1s0x478022bd27bbb27f:0xafeea3772cb5ec72!8m2!3d44.8189133!4d10.5704138!16s%2Fg%2F1tfqk72n!19sChIJf7K7J70igEcRcuy1LHej7q8?authuser=0&hl=tr&rclk=1",
    "website_url": "https://www.ferroni-srl.com/",
    "rating_text": "3,7",
    "stars": null,
    "number_of_reviews": null,
    "price_level": "",
    "open_hours": "",
    "extraction_timestamp": "2025-06-07T16:08:12.717Z",
    "source_name": "google",
    "source_query": "Irrigation Equipment",
    "source_country": "IT",
    "country": "Italy",
    "state": "Emilia-Romagna",
    "city": "Castelnovo di Sotto"
  },
  {
    "source_id": "ChIJ92_dOrU7gEcReBl9RwrRL6s",
    "name": "SISTEMA",
    "category": "SISTEMA",
    "formatted_address": "3,6(5)",
    "phone_number": "+3905221750007",
    "source_url": "https://www.google.com/maps/place/SISTEMA/data=!4m7!3m6!1s0x47803bb53add6ff7:0xab2fd10a477d1978!8m2!3d44.7990606!4d10.5653558!16s%2Fg%2F11r2hbkl1w!19sChIJ92_dOrU7gEcReBl9RwrRL6s?authuser=0&hl=tr&rclk=1",
    "website_url": "https://sistema.it/",
    "rating_text": "3,6",
    "stars": null,
    "number_of_reviews": null,
    "price_level": "",
    "open_hours": "",
    "extraction_timestamp": "2025-06-07T16:08:12.718Z",
    "source_name": "google",
    "source_query": "Irrigation Equipment",
    "source_country": "IT",
    "country": "Italy",
    "state": "Emilia-Romagna",
    "city": "Castelnovo di Sotto"
  },
  {
    "source_id": "ChIJbf6QZm0YgEcROPvsFuPF86U",
    "name": "Verdi S.p.A.",
    "category": "Verdi S.p.A.",
    "formatted_address": "5,0(7)",
    "phone_number": "+390522683899",
    "source_url": "https://www.google.com/maps/place/Verdi+S.p.A./data=!4m7!3m6!1s0x4780186d6690fe6d:0xa5f3c5e316ecfb38!8m2!3d44.7992019!4d10.5684194!16s%2Fg%2F1tqf_5c5!19sChIJbf6QZm0YgEcROPvsFuPF86U?authuser=0&hl=tr&rclk=1",
    "website_url": "http://www.verdispa.com/",
    "rating_text": "5,0",
    "stars": null,
    "number_of_reviews": null,
    "price_level": "",
    "open_hours": "",
    "extraction_timestamp": "2025-06-07T16:08:12.720Z",
    "source_name": "google",
    "source_query": "Irrigation Equipment",
    "source_country": "IT",
    "country": "Italy",
    "state": "Emilia-Romagna",
    "city": "Castelnovo di Sotto"
  },
  {
    "source_id": "ChIJrTah5aUigEcRaEQexCMIV_k",
    "name": "Leader Garden",
    "category": "Leader Garden",
    "formatted_address": "4,2(40)",
    "phone_number": "+390522688492",
    "source_url": "https://www.google.com/maps/place/Leader+Garden/data=!4m7!3m6!1s0x478022a5e5a136ad:0xf9570823c41e4468!8m2!3d44.8276596!4d10.5526696!16s%2Fg%2F1tfc0wby!19sChIJrTah5aUigEcRaEQexCMIV_k?authuser=0&hl=tr&rclk=1",
    "website_url": "https://www.instagram.com/",
    "rating_text": "4,2",
    "stars": null,
    "number_of_reviews": null,
    "price_level": "",
    "open_hours": "",
    "extraction_timestamp": "2025-06-07T16:08:12.721Z",
    "source_name": "google",
    "source_query": "Irrigation Equipment",
    "source_country": "IT",
    "country": "Italy",
    "state": "Emilia-Romagna",
    "city": "Castelnovo di Sotto"
  },
  {
    "source_id": "ChIJzWyZEf8dgEcRM0sVtbJE3TI",
    "name": "Impiantistica LAVONE",
    "category": "Impiantistica LAVONE",
    "formatted_address": "5,0(3)",
    "phone_number": "+393514759408",
    "source_url": "https://www.google.com/maps/place/Impiantistica+LAVONE/data=!4m7!3m6!1s0x47801dff11996ccd:0x32dd44b2b5154b33!8m2!3d44.7120611!4d10.6241549!16s%2Fg%2F11lp1gdrnd!19sChIJzWyZEf8dgEcRM0sVtbJE3TI?authuser=0&hl=tr&rclk=1",
    "website_url": "",
    "rating_text": "5,0",
    "stars": null,
    "number_of_reviews": null,
    "price_level": "",
    "open_hours": "",
    "extraction_timestamp": "2025-06-07T16:08:12.722Z",
    "source_name": "google",
    "source_query": "Irrigation Equipment",
    "source_country": "IT",
    "country": "Italy",
    "state": "Emilia-Romagna",
    "city": "Castelnovo di Sotto"
  },
  {
    "source_id": "ChIJcQG6ul7df0cR3VxKiu5OPBs",
    "name": "Scova Impianti Srl",
    "category": "Scova Impianti Srl",
    "formatted_address": "4,5(64)",
    "phone_number": "+39059923202",
    "source_url": "https://www.google.com/maps/place/Scova+Impianti+Srl/data=!4m7!3m6!1s0x477fdd5ebaba0171:0x1b3c4eee8a4a5cdd!8m2!3d44.6018135!4d11.032294!16s%2Fg%2F1tfzwbfb!19sChIJcQG6ul7df0cR3VxKiu5OPBs?authuser=0&hl=tr&rclk=1",
    "website_url": "https://www.scovaimpianti.com/",
    "rating_text": "4,5",
    "stars": null,
    "number_of_reviews": null,
    "price_level": "",
    "open_hours": "",
    "extraction_timestamp": "2025-06-07T16:08:12.723Z",
    "source_name": "google",
    "source_query": "Irrigation Equipment",
    "source_country": "IT",
    "country": "Italy",
    "state": "Emilia-Romagna",
    "city": "Castelnovo di Sotto"
  },
  {
    "source_id": "ChIJ8S_H450fgEcRen1BwvkupIc",
    "name": "Agro-system Snc di Bassoli - Piscine e Macchine giardino - Reggio Emilia",
    "category": "Agro-system Snc di Bassoli - Piscine e Macchine giardino - Reggio Emilia",
    "formatted_address": "4,6(88)",
    "phone_number": "+390522954100",
    "source_url": "https://www.google.com/maps/place/Agro-system+Snc+di+Bassoli+-+Piscine+e+Macchine+giardino+-+Reggio+Emilia/data=!4m7!3m6!1s0x47801f9de3c72ff1:0x87a42ef9c2417d7a!8m2!3d44.797091!4d10.686568!16s%2Fg%2F1tfb5f45!19sChIJ8S_H450fgEcRen1BwvkupIc?authuser=0&hl=tr&rclk=1",
    "website_url": "https://agrosystem.info/",
    "rating_text": "4,6",
    "stars": null,
    "number_of_reviews": null,
    "price_level": "",
    "open_hours": "",
    "extraction_timestamp": "2025-06-07T16:08:12.725Z",
    "source_name": "google",
    "source_query": "Irrigation Equipment",
    "source_country": "IT",
    "country": "Italy",
    "state": "Emilia-Romagna",
    "city": "Castelnovo di Sotto"
  },
  {
    "source_id": "ChIJ_d0-86UigEcRaileQkA2Xvk",
    "name": "Idrostar Sas",
    "category": "Idrostar Sas",
    "formatted_address": "4,8(49)",
    "phone_number": "+393471604393",
    "source_url": "https://www.google.com/maps/place/Idrostar+Sas/data=!4m7!3m6!1s0x478022a5f33eddfd:0xf95e3640425e296a!8m2!3d44.8156625!4d10.560921!16s%2Fg%2F11bc7sxrlg!19sChIJ_d0-86UigEcRaileQkA2Xvk?authuser=0&hl=tr&rclk=1",
    "website_url": "https://www.idrostardepuratori.it/",
    "rating_text": "4,8",
    "stars": null,
    "number_of_reviews": null,
    "price_level": "",
    "open_hours": "",
    "extraction_timestamp": "2025-06-07T16:08:12.726Z",
    "source_name": "google",
    "source_query": "Irrigation Equipment",
    "source_country": "IT",
    "country": "Italy",
    "state": "Emilia-Romagna",
    "city": "Castelnovo di Sotto"
  },
  {
    "source_id": "ChIJh3Nd8G0sfkcR_m7VewEmxXM",
    "name": "Irrigarden",
    "category": "Irrigarden",
    "formatted_address": "4,7(158)",
    "phone_number": "+39051782013",
    "source_url": "https://www.google.com/maps/place/Irrigarden/data=!4m7!3m6!1s0x477e2c6df05d7387:0x73c526017bd56efe!8m2!3d44.5096266!4d11.4390897!16s%2Fg%2F1vgw_l7w!19sChIJh3Nd8G0sfkcR_m7VewEmxXM?authuser=0&hl=tr&rclk=1",
    "website_url": "https://www.irrigarden-bo.it/",
    "rating_text": "4,7",
    "stars": null,
    "number_of_reviews": null,
    "price_level": "",
    "open_hours": "",
    "extraction_timestamp": "2025-06-07T16:08:12.727Z",
    "source_name": "google",
    "source_query": "Irrigation Equipment",
    "source_country": "IT",
    "country": "Italy",
    "state": "Emilia-Romagna",
    "city": "Castelnovo di Sotto"
  },
  {
    "source_id": "ChIJtVDkNgRFgEcRqc6umwWIJuI",
    "name": "Rm Spa",
    "category": "Rm Spa",
    "formatted_address": "4,6(81)",
    "phone_number": "+390521872321",
    "source_url": "https://www.google.com/maps/place/Rm+Spa/data=!4m7!3m6!1s0x4780450436e450b5:0xe22688059baecea9!8m2!3d44.9105406!4d10.2583785!16s%2Fg%2F12hl93byl!19sChIJtVDkNgRFgEcRqc6umwWIJuI?authuser=0&hl=tr&rclk=1",
    "website_url": "http://www.rmirrigation.com/",
    "rating_text": "4,6",
    "stars": null,
    "number_of_reviews": null,
    "price_level": "",
    "open_hours": "",
    "extraction_timestamp": "2025-06-07T16:08:12.727Z",
    "source_name": "google",
    "source_query": "Irrigation Equipment",
    "source_country": "IT",
    "country": "Italy",
    "state": "Emilia-Romagna",
    "city": "Castelnovo di Sotto"
  },
  {
    "source_id": "ChIJiUj9VG0YgEcRNq5AYCKgJQk",
    "name": "Tecno.mec S.r.l.",
    "category": "Tecno.mec S.r.l.",
    "formatted_address": "5,0(1)",
    "phone_number": "+390522688038",
    "source_url": "https://www.google.com/maps/place/Tecno.mec+S.r.l./data=!4m7!3m6!1s0x4780186d54fd4889:0x925a0226040ae36!8m2!3d44.7996615!4d10.5670301!16s%2Fg%2F1tf3077f!19sChIJiUj9VG0YgEcRNq5AYCKgJQk?authuser=0&hl=tr&rclk=1",
    "website_url": "http://www.tecnomec.com/",
    "rating_text": "5,0",
    "stars": null,
    "number_of_reviews": null,
    "price_level": "",
    "open_hours": "",
    "extraction_timestamp": "2025-06-07T16:08:12.729Z",
    "source_name": "google",
    "source_query": "Irrigation Equipment",
    "source_country": "IT",
    "country": "Italy",
    "state": "Emilia-Romagna",
    "city": "Castelnovo di Sotto"
  },
  {
    "source_id": "ChIJR0cLXhQkgEcRi9oI9GALzlg",
    "name": "IRRILAND",
    "category": "IRRILAND",
    "formatted_address": "4,0(4)",
    "phone_number": "+390522831544",
    "source_url": "https://www.google.com/maps/place/IRRILAND/data=!4m7!3m6!1s0x478024145e0b4747:0x58ce0b60f408da8b!8m2!3d44.891987!4d10.650983!16s%2Fg%2F1tczjb0h!19sChIJR0cLXhQkgEcRi9oI9GALzlg?authuser=0&hl=tr&rclk=1",
    "website_url": "http://www.irriland.it/",
    "rating_text": "4,0",
    "stars": null,
    "number_of_reviews": null,
    "price_level": "",
    "open_hours": "",
    "extraction_timestamp": "2025-06-07T16:08:12.730Z",
    "source_name": "google",
    "source_query": "Irrigation Equipment",
    "source_country": "IT",
    "country": "Italy",
    "state": "Emilia-Romagna",
    "city": "Castelnovo di Sotto"
  },
  {
    "source_id": "ChIJbS5dwF9O1RIRibzxYEi1gyw",
    "name": "Scaruffi di Davide Scaruffi",
    "category": "Scaruffi di Davide Scaruffi",
    "formatted_address": "4,5(59)",
    "phone_number": "+390522810100",
    "source_url": "https://www.google.com/maps/place/Scaruffi+di+Davide+Scaruffi/data=!4m7!3m6!1s0x12d54e5fc05d2e6d:0x2c83b54860f1bc89!8m2!3d44.4295694!4d10.3930506!16s%2Fg%2F11hbc4ljvl!19sChIJbS5dwF9O1RIRibzxYEi1gyw?authuser=0&hl=tr&rclk=1",
    "website_url": "",
    "rating_text": "4,5",
    "stars": null,
    "number_of_reviews": null,
    "price_level": "",
    "open_hours": "",
    "extraction_timestamp": "2025-06-07T16:08:12.731Z",
    "source_name": "google",
    "source_query": "Irrigation Equipment",
    "source_country": "IT",
    "country": "Italy",
    "state": "Emilia-Romagna",
    "city": "Castelnovo di Sotto"
  },
  {
    "source_id": "ChIJ69PdR1EvgEcRzaszzDo7sjQ",
    "name": "Nodolini s.n.c.",
    "category": "Nodolini s.n.c.",
    "formatted_address": "5,0(8)",
    "phone_number": "+390522977491",
    "source_url": "https://www.google.com/maps/place/Nodolini+s.n.c./data=!4m7!3m6!1s0x47802f5147ddd3eb:0x34b23b3acc33abcd!8m2!3d44.9541974!4d10.6879499!16s%2Fg%2F11b6j0n4vm!19sChIJ69PdR1EvgEcRzaszzDo7sjQ?authuser=0&hl=tr&rclk=1",
    "website_url": "http://www.nodolini.com/",
    "rating_text": "5,0",
    "stars": null,
    "number_of_reviews": null,
    "price_level": "",
    "open_hours": "",
    "extraction_timestamp": "2025-06-07T16:08:12.732Z",
    "source_name": "google",
    "source_query": "Irrigation Equipment",
    "source_country": "IT",
    "country": "Italy",
    "state": "Emilia-Romagna",
    "city": "Castelnovo di Sotto"
  },
  {
    "source_id": "ChIJiVSvsQIdgEcR0PUcMFDq-Yg",
    "name": "Idrotim",
    "category": "Idrotim",
    "formatted_address": "5,0(5)",
    "phone_number": "+393387675768",
    "source_url": "https://www.google.com/maps/place/Idrotim/data=!4m7!3m6!1s0x47801d02b1af5489:0x88f9ea50301cf5d0!8m2!3d44.642221!4d10.671266!16s%2Fg%2F1tnhx5lh!19sChIJiVSvsQIdgEcR0PUcMFDq-Yg?authuser=0&hl=tr&rclk=1",
    "website_url": "http://www.idrotim.it/",
    "rating_text": "5,0",
    "stars": null,
    "number_of_reviews": null,
    "price_level": "",
    "open_hours": "",
    "extraction_timestamp": "2025-06-07T16:08:12.734Z",
    "source_name": "google",
    "source_query": "Irrigation Equipment",
    "source_country": "IT",
    "country": "Italy",
    "state": "Emilia-Romagna",
    "city": "Castelnovo di Sotto"
  },
  {
    "source_id": "ChIJoUl-Q6cigEcRyKdfPgNiGFE",
    "name": "Pellacani Eredi",
    "category": "Pellacani Eredi",
    "formatted_address": "4,6(17)",
    "phone_number": "+390522709847",
    "source_url": "https://www.google.com/maps/place/Pellacani+Eredi/data=!4m7!3m6!1s0x478022a7437e49a1:0x511862033e5fa7c8!8m2!3d44.8116822!4d10.5612584!16s%2Fg%2F1tf6w60l!19sChIJoUl-Q6cigEcRyKdfPgNiGFE?authuser=0&hl=tr&rclk=1",
    "website_url": "",
    "rating_text": "4,6",
    "stars": null,
    "number_of_reviews": null,
    "price_level": "",
    "open_hours": "",
    "extraction_timestamp": "2025-06-07T16:08:12.735Z",
    "source_name": "google",
    "source_query": "Irrigation Equipment",
    "source_country": "IT",
    "country": "Italy",
    "state": "Emilia-Romagna",
    "city": "Castelnovo di Sotto"
  },
  {
    "source_id": "ChIJ26U7KQ0YgEcRKAaUfHhJc_w",
    "name": "AXO GROUP S.r.l.",
    "category": "AXO GROUP S.r.l.",
    "formatted_address": "5,0(4)",
    "phone_number": "+390522688175",
    "source_url": "https://www.google.com/maps/place/AXO+GROUP+S.r.l./data=!4m7!3m6!1s0x4780180d293ba5db:0xfc7349787c940628!8m2!3d44.8003643!4d10.5642983!16s%2Fg%2F1q6452qs6!19sChIJ26U7KQ0YgEcRKAaUfHhJc_w?authuser=0&hl=tr&rclk=1",
    "website_url": "",
    "rating_text": "5,0",
    "stars": null,
    "number_of_reviews": null,
    "price_level": "",
    "open_hours": "",
    "extraction_timestamp": "2025-06-07T16:08:12.736Z",
    "source_name": "google",
    "source_query": "Irrigation Equipment",
    "source_country": "IT",
    "country": "Italy",
    "state": "Emilia-Romagna",
    "city": "Castelnovo di Sotto"
  },
  {
    "source_id": "ChIJCSPKTpQ8gEcR5v3MgofNtYc",
    "name": "Rainbow Irrigazione",
    "category": "Rainbow Irrigazione",
    "formatted_address": "3,8(5)",
    "phone_number": "+390522969903",
    "source_url": "https://www.google.com/maps/place/Rainbow+Irrigazione/data=!4m7!3m6!1s0x47803c944eca2309:0x87b5cd8782ccfde6!8m2!3d44.8714903!4d10.5420231!16s%2Fg%2F1tk9pmd5!19sChIJCSPKTpQ8gEcR5v3MgofNtYc?authuser=0&hl=tr&rclk=1",
    "website_url": "",
    "rating_text": "3,8",
    "stars": null,
    "number_of_reviews": null,
    "price_level": "",
    "open_hours": "",
    "extraction_timestamp": "2025-06-07T16:08:12.737Z",
    "source_name": "google",
    "source_query": "Irrigation Equipment",
    "source_country": "IT",
    "country": "Italy",
    "state": "Emilia-Romagna",
    "city": "Castelnovo di Sotto"
  },
  {
    "source_id": "ChIJQyDw8N_0f0cRhE_m36C06SU",
    "name": "Irrigreen",
    "category": "Irrigreen",
    "formatted_address": "4,3(3)",
    "phone_number": "+390522642318",
    "source_url": "https://www.google.com/maps/place/Irrigreen/data=!4m7!3m6!1s0x477ff4dff0f02043:0x25e9b4a0dfe64f84!8m2!3d45.1836109!4d10.6267461!16s%2Fg%2F1tddwm9t!19sChIJQyDw8N_0f0cRhE_m36C06SU?authuser=0&hl=tr&rclk=1",
    "website_url": "http://www.irrigreen.it/",
    "rating_text": "4,3",
    "stars": null,
    "number_of_reviews": null,
    "price_level": "",
    "open_hours": "",
    "extraction_timestamp": "2025-06-07T16:08:12.738Z",
    "source_name": "google",
    "source_query": "Irrigation Equipment",
    "source_country": "IT",
    "country": "Italy",
    "state": "Emilia-Romagna",
    "city": "Castelnovo di Sotto"
  },
  {
    "source_id": "ChIJh5ntU4UegEcRhIP4fbjkHS8",
    "name": "Attrezzature zootecniche - Nuova Cagi",
    "category": "Attrezzature zootecniche - Nuova Cagi",
    "formatted_address": "5,0(4)",
    "phone_number": "+390522517651",
    "source_url": "https://www.google.com/maps/place/Attrezzature+zootecniche+-+Nuova+Cagi/data=!4m7!3m6!1s0x47801e8553ed9987:0x2f1de4b87df88384!8m2!3d44.7357516!4d10.647524!16s%2Fg%2F1tf34tbn!19sChIJh5ntU4UegEcRhIP4fbjkHS8?authuser=0&hl=tr&rclk=1",
    "website_url": "https://nuovacagi.com/",
    "rating_text": "5,0",
    "stars": null,
    "number_of_reviews": null,
    "price_level": "",
    "open_hours": "",
    "extraction_timestamp": "2025-06-07T16:08:12.739Z",
    "source_name": "google",
    "source_query": "Irrigation Equipment",
    "source_country": "IT",
    "country": "Italy",
    "state": "Emilia-Romagna",
    "city": "Castelnovo di Sotto"
  },
  {
    "source_id": "ChIJ6Su--XKZgUcR6gfs_3GoVeI",
    "name": "Grond Plast F1 - Tubi Pe Pvc Irrigazione Idraulica Raccorderia Pompe Cisterne Stufe",
    "category": "Grond Plast F1 - Tubi Pe Pvc Irrigazione Idraulica Raccorderia Pompe Cisterne Stufe",
    "formatted_address": "Grond Plast F1 - Tubi Pe Pvc Irrigazione Idraulica Raccorderia Pompe Cisterne Stufe",
    "phone_number": "+390302620310",
    "source_url": "https://www.google.com/maps/place/Grond+Plast+F1+-+Tubi+Pe+Pvc+Irrigazione+Idraulica+Raccorderia+Pompe+Cisterne+Stufe/data=!4m7!3m6!1s0x47819972f9be2be9:0xe255a871ffec07ea!8m2!3d45.4928601!4d10.3622469!16s%2Fg%2F1thq44gd!19sChIJ6Su--XKZgUcR6gfs_3GoVeI?authuser=0&hl=tr&rclk=1",
    "website_url": "https://www.grondplast.com/",
    "rating_text": "4,6",
    "stars": null,
    "number_of_reviews": null,
    "price_level": "",
    "open_hours": "",
    "extraction_timestamp": "2025-06-07T16:08:12.740Z",
    "source_name": "google",
    "source_query": "Irrigation Equipment",
    "source_country": "IT",
    "country": "Italy",
    "state": "Emilia-Romagna",
    "city": "Castelnovo di Sotto"
  },
  {
    "source_id": "ChIJywYeExzdf0cRhfr55_LZC8w",
    "name": "Geocentro",
    "category": "Geocentro",
    "formatted_address": "3,8(5)",
    "phone_number": "+39059927676",
    "source_url": "https://www.google.com/maps/place/Geocentro/data=!4m7!3m6!1s0x477fdd1c131e06cb:0xcc0bd9f2e7f9fa85!8m2!3d44.5871226!4d11.0681616!16s%2Fg%2F11cn3pjh5j!19sChIJywYeExzdf0cRhfr55_LZC8w?authuser=0&hl=tr&rclk=1",
    "website_url": "https://www.geocentro.it/",
    "rating_text": "3,8",
    "stars": null,
    "number_of_reviews": null,
    "price_level": "",
    "open_hours": "",
    "extraction_timestamp": "2025-06-07T16:08:12.741Z",
    "source_name": "google",
    "source_query": "Irrigation Equipment",
    "source_country": "IT",
    "country": "Italy",
    "state": "Emilia-Romagna",
    "city": "Castelnovo di Sotto"
  },
  {
    "source_id": "ChIJtbN9A-8rgEcRVZtaRSESNOU",
    "name": "Perazzi Irrigatori",
    "category": "Perazzi Irrigatori",
    "formatted_address": "5,0(1)",
    "phone_number": "+390376535952",
    "source_url": "https://www.google.com/maps/place/Perazzi+Irrigatori/data=!4m7!3m6!1s0x47802bef037db3b5:0xe5341221455a9b55!8m2!3d44.9841775!4d10.7699573!16s%2Fg%2F1vd74s01!19sChIJtbN9A-8rgEcRVZtaRSESNOU?authuser=0&hl=tr&rclk=1",
    "website_url": "http://www.gedanken-italia.com/",
    "rating_text": "5,0",
    "stars": null,
    "number_of_reviews": null,
    "price_level": "",
    "open_hours": "",
    "extraction_timestamp": "2025-06-07T16:08:12.742Z",
    "source_name": "google",
    "source_query": "Irrigation Equipment",
    "source_country": "IT",
    "country": "Italy",
    "state": "Emilia-Romagna",
    "city": "Castelnovo di Sotto"
  },
  {
    "source_id": "ChIJu07AB0rif0cRnS0vXUM4l0M",
    "name": "IDROPLAST",
    "category": "IDROPLAST",
    "formatted_address": "4,1(66)",
    "phone_number": "+390536946864",
    "source_url": "https://www.google.com/maps/place/IDROPLAST/data=!4m7!3m6!1s0x477fe24a07c04ebb:0x439738435d2f2d9d!8m2!3d44.5278928!4d10.8902028!16s%2Fg%2F11b6jh694_!19sChIJu07AB0rif0cRnS0vXUM4l0M?authuser=0&hl=tr&rclk=1",
    "website_url": "",
    "rating_text": "4,1",
    "stars": null,
    "number_of_reviews": null,
    "price_level": "",
    "open_hours": "",
    "extraction_timestamp": "2025-06-07T16:08:12.743Z",
    "source_name": "google",
    "source_query": "Irrigation Equipment",
    "source_country": "IT",
    "country": "Italy",
    "state": "Emilia-Romagna",
    "city": "Castelnovo di Sotto"
  },
  {
    "source_id": "ChIJbb3dfU5RgUcRBwVFWc02rjA",
    "name": "Vivai Ghezzi",
    "category": "Vivai Ghezzi",
    "formatted_address": "4,7(155)",
    "phone_number": "+39035575749",
    "source_url": "https://www.google.com/maps/place/Vivai+Ghezzi/data=!4m7!3m6!1s0x4781514e7dddbd6d:0x30ae36cd59450507!8m2!3d45.7191061!4d9.6579622!16s%2Fg%2F1w111149!19sChIJbb3dfU5RgUcRBwVFWc02rjA?authuser=0&hl=tr&rclk=1",
    "website_url": "",
    "rating_text": "4,7",
    "stars": null,
    "number_of_reviews": null,
    "price_level": "",
    "open_hours": "",
    "extraction_timestamp": "2025-06-07T16:08:12.744Z",
    "source_name": "google",
    "source_query": "Irrigation Equipment",
    "source_country": "IT",
    "country": "Italy",
    "state": "Emilia-Romagna",
    "city": "Castelnovo di Sotto"
  },
  {
    "source_id": "ChIJc_FRC6Ltf0cRdOFGl6sEcxM",
    "name": "Emmebi Agrotecnica",
    "category": "Emmebi Agrotecnica",
    "formatted_address": "4,5(123)",
    "phone_number": "+39059566838",
    "source_url": "https://www.google.com/maps/place/Emmebi+Agrotecnica/data=!4m7!3m6!1s0x477feda20b51f173:0x137304ab9746e174!8m2!3d44.7330703!4d10.9184999!16s%2Fg%2F1q62bql9t!19sChIJc_FRC6Ltf0cRdOFGl6sEcxM?authuser=0&hl=tr&rclk=1",
    "website_url": "https://www.gogoverde.it/",
    "rating_text": "4,5",
    "stars": null,
    "number_of_reviews": null,
    "price_level": "",
    "open_hours": "",
    "extraction_timestamp": "2025-06-07T16:08:12.745Z",
    "source_name": "google",
    "source_query": "Irrigation Equipment",
    "source_country": "IT",
    "country": "Italy",
    "state": "Emilia-Romagna",
    "city": "Castelnovo di Sotto"
  },
  {
    "source_id": "ChIJjYOazLXTgUcRKTf0VhcGM5M",
    "name": "Bricocenter",
    "category": "Bricocenter",
    "formatted_address": "4,1(2.437)",
    "phone_number": "+3903761762540",
    "source_url": "https://www.google.com/maps/place/Bricocenter/data=!4m7!3m6!1s0x4781d3b5cc9a838d:0x9333061756f43729!8m2!3d45.1502058!4d10.7263041!16s%2Fg%2F11b6d5jsb1!19sChIJjYOazLXTgUcRKTf0VhcGM5M?authuser=0&hl=tr&rclk=1",
    "website_url": "https://www.bricocenter.it/mantova-curtatone/",
    "rating_text": "4,1",
    "stars": null,
    "number_of_reviews": null,
    "price_level": "",
    "open_hours": "",
    "extraction_timestamp": "2025-06-07T16:08:12.747Z",
    "source_name": "google",
    "source_query": "Irrigation Equipment",
    "source_country": "IT",
    "country": "Italy",
    "state": "Emilia-Romagna",
    "city": "Castelnovo di Sotto"
  },
  {
    "source_id": "ChIJ47vrYT09gEcRh8jIUNjKoyQ",
    "name": "Rainbow Irrigazione Srl",
    "category": "Rainbow Irrigazione Srl",
    "formatted_address": "Tarım Makineleri İmalatçısı ·  · Via Grande, 69+39 0522 969903",
    "phone_number": "+390522969903",
    "source_url": "https://www.google.com/maps/place/Rainbow+Irrigazione+Srl/data=!4m7!3m6!1s0x47803d3d61ebbbe3:0x24a3cad850c8c887!8m2!3d44.8592119!4d10.5548889!16s%2Fg%2F11n8tt08yf!19sChIJ47vrYT09gEcRh8jIUNjKoyQ?authuser=0&hl=tr&rclk=1",
    "website_url": "",
    "rating_text": "",
    "stars": null,
    "number_of_reviews": null,
    "price_level": "",
    "open_hours": "",
    "extraction_timestamp": "2025-06-07T16:08:12.748Z",
    "source_name": "google",
    "source_query": "Irrigation Equipment",
    "source_country": "IT",
    "country": "Italy",
    "state": "Emilia-Romagna",
    "city": "Castelnovo di Sotto"
  },
  {
    "source_id": "ChIJp17JVXojgEcRSw5dfGX2-BU",
    "name": "Ferramenta della Rocca",
    "category": "Ferramenta della Rocca",
    "formatted_address": "5,0(6)",
    "phone_number": "+390522709070",
    "source_url": "https://www.google.com/maps/place/Ferramenta+della+Rocca/data=!4m7!3m6!1s0x4780237a55c95ea7:0x15f8f6657c5d0e4b!8m2!3d44.810727!4d10.5627134!16s%2Fg%2F11rwrv6n45!19sChIJp17JVXojgEcRSw5dfGX2-BU?authuser=0&hl=tr&rclk=1",
    "website_url": "https://www.cercatrovaonlineshopping.com/venditore/127_ferramenta-della-rocca/",
    "rating_text": "5,0",
    "stars": null,
    "number_of_reviews": null,
    "price_level": "",
    "open_hours": "",
    "extraction_timestamp": "2025-06-07T16:08:12.749Z",
    "source_name": "google",
    "source_query": "Irrigation Equipment",
    "source_country": "IT",
    "country": "Italy",
    "state": "Emilia-Romagna",
    "city": "Castelnovo di Sotto"
  },
  {
    "source_id": "ChIJM1YDrdvQf0cR04ugW7FgB5o",
    "name": "Green Blue Italia srl",
    "category": "Green Blue Italia srl",
    "formatted_address": "4,7(17)",
    "phone_number": "+390510492100",
    "source_url": "https://www.google.com/maps/place/Green+Blue+Italia+srl/data=!4m7!3m6!1s0x477fd0dbad035633:0x9a0760b15ba08bd3!8m2!3d44.5324593!4d11.2320285!16s%2Fg%2F11gr3cvb1v!19sChIJM1YDrdvQf0cR04ugW7FgB5o?authuser=0&hl=tr&rclk=1",
    "website_url": "",
    "rating_text": "4,7",
    "stars": null,
    "number_of_reviews": null,
    "price_level": "",
    "open_hours": "",
    "extraction_timestamp": "2025-06-07T16:08:12.750Z",
    "source_name": "google",
    "source_query": "Irrigation Equipment",
    "source_country": "IT",
    "country": "Italy",
    "state": "Emilia-Romagna",
    "city": "Castelnovo di Sotto"
  },
  {
    "source_id": "ChIJQwuA7P4PgEcRdbXi6m4Avkw",
    "name": "I.S.A. DEL RIO",
    "category": "I.S.A. DEL RIO",
    "formatted_address": "Endüstriyel Ekipman Tedarikçisi ·  · Via Fratelli Corradini, 50/B+39 0522 882306",
    "phone_number": "+390522882306",
    "source_url": "https://www.google.com/maps/place/I.S.A.+DEL+RIO/data=!4m7!3m6!1s0x47800ffeec800b43:0x4cbe006eeae2b575!8m2!3d44.6626104!4d10.4870282!16s%2Fg%2F11h6nnfxss!19sChIJQwuA7P4PgEcRdbXi6m4Avkw?authuser=0&hl=tr&rclk=1",
    "website_url": "http://www.isadelrio.it/",
    "rating_text": "",
    "stars": null,
    "number_of_reviews": null,
    "price_level": "",
    "open_hours": "",
    "extraction_timestamp": "2025-06-07T16:08:12.751Z",
    "source_name": "google",
    "source_query": "Irrigation Equipment",
    "source_country": "IT",
    "country": "Italy",
    "state": "Emilia-Romagna",
    "city": "Castelnovo di Sotto"
  },
  {
    "source_id": "ChIJ-arxwdPWgUcRmXWoftdyjYg",
    "name": "Pioggia Carnevali",
    "category": "Pioggia Carnevali",
    "formatted_address": "4,8(22)",
    "phone_number": "+390376398151",
    "source_url": "https://www.google.com/maps/place/Pioggia+Carnevali/data=!4m7!3m6!1s0x4781d6d3c1f1aaf9:0x888d72d77ea87599!8m2!3d45.1985116!4d10.7916482!16s%2Fg%2F1hc1z5fv1!19sChIJ-arxwdPWgUcRmXWoftdyjYg?authuser=0&hl=tr&rclk=1",
    "website_url": "http://www.pioggiacarnevali.com/",
    "rating_text": "4,8",
    "stars": null,
    "number_of_reviews": null,
    "price_level": "",
    "open_hours": "",
    "extraction_timestamp": "2025-06-07T16:08:12.752Z",
    "source_name": "google",
    "source_query": "Irrigation Equipment",
    "source_country": "IT",
    "country": "Italy",
    "state": "Emilia-Romagna",
    "city": "Castelnovo di Sotto"
  }
]
