[
  {
    "source_id": "ChIJE_3jOnMtfkcRkxtTFj3Ym9E",
    "name": "Irrigation Scarabelli Srl",
    "category": "Irrigation Scarabelli Srl",
    "formatted_address": "4,5(23)",
    "phone_number": "+39051763363",
    "source_url": "https://www.google.com/maps/place/Irrigation+Scarabelli+Srl/data=!4m7!3m6!1s0x477e2d733ae3fd13:0xd19bd83d16531b93!8m2!3d44.5426053!4d11.4189136!16s%2Fg%2F11gzdz6vf!19sChIJE_3jOnMtfkcRkxtTFj3Ym9E?authuser=0&hl=tr&rclk=1",
    "website_url": "",
    "rating_text": "4,5",
    "stars": null,
    "number_of_reviews": null,
    "price_level": "",
    "open_hours": "",
    "extraction_timestamp": "2025-06-07T16:31:33.287Z",
    "source_name": "google",
    "source_query": "Irrigation Equipment",
    "source_country": "IT",
    "country": "Italy",
    "state": "Emilia-Romagna",
    "city": "Castenaso"
  },
  {
    "source_id": "ChIJh3Nd8G0sfkcR_m7VewEmxXM",
    "name": "Irrigarden",
    "category": "Irrigarden",
    "formatted_address": "4,7(158)",
    "phone_number": "+39051782013",
    "source_url": "https://www.google.com/maps/place/Irrigarden/data=!4m7!3m6!1s0x477e2c6df05d7387:0x73c526017bd56efe!8m2!3d44.5096266!4d11.4390897!16s%2Fg%2F1vgw_l7w!19sChIJh3Nd8G0sfkcR_m7VewEmxXM?authuser=0&hl=tr&rclk=1",
    "website_url": "https://www.irrigarden-bo.it/",
    "rating_text": "4,7",
    "stars": null,
    "number_of_reviews": null,
    "price_level": "",
    "open_hours": "",
    "extraction_timestamp": "2025-06-07T16:31:33.288Z",
    "source_name": "google",
    "source_query": "Irrigation Equipment",
    "source_country": "IT",
    "country": "Italy",
    "state": "Emilia-Romagna",
    "city": "Castenaso"
  },
  {
    "source_id": "ChIJj6lqi20sfkcRzOHfxextuA0",
    "name": "La Pioggia",
    "category": "La Pioggia",
    "formatted_address": "4,6(54)",
    "phone_number": "+39051781194",
    "source_url": "https://www.google.com/maps/place/La+Pioggia/data=!4m7!3m6!1s0x477e2c6d8b6aa98f:0xdb86decc5dfe1cc!8m2!3d44.5092215!4d11.4394615!16s%2Fg%2F1tffc0h0!19sChIJj6lqi20sfkcRzOHfxextuA0?authuser=0&hl=tr&rclk=1",
    "website_url": "http://www.lapioggia.it/",
    "rating_text": "4,6",
    "stars": null,
    "number_of_reviews": null,
    "price_level": "",
    "open_hours": "",
    "extraction_timestamp": "2025-06-07T16:31:33.289Z",
    "source_name": "google",
    "source_query": "Irrigation Equipment",
    "source_country": "IT",
    "country": "Italy",
    "state": "Emilia-Romagna",
    "city": "Castenaso"
  },
  {
    "source_id": "ChIJ_SYf2IMsfkcRVw9xVhrnjyI",
    "name": "Irrigazione Bragaglia",
    "category": "Irrigazione Bragaglia",
    "formatted_address": "4,7(30)",
    "phone_number": "+39051534865",
    "source_url": "https://www.google.com/maps/place/Irrigazione+Bragaglia/data=!4m7!3m6!1s0x477e2c83d81f26fd:0x228fe71a56710f57!8m2!3d44.5053735!4d11.412403!16s%2Fg%2F1vp6z0gf!19sChIJ_SYf2IMsfkcRVw9xVhrnjyI?authuser=0&hl=tr&rclk=1",
    "website_url": "http://www.irrigazionebragaglia.it/",
    "rating_text": "4,7",
    "stars": null,
    "number_of_reviews": null,
    "price_level": "",
    "open_hours": "",
    "extraction_timestamp": "2025-06-07T16:31:33.291Z",
    "source_name": "google",
    "source_query": "Irrigation Equipment",
    "source_country": "IT",
    "country": "Italy",
    "state": "Emilia-Romagna",
    "city": "Castenaso"
  },
  {
    "source_id": "ChIJyXgg68QrfkcRAaJCOMJ3PxY",
    "name": "hidrisistem",
    "category": "hidrisistem",
    "formatted_address": "5,0(1)",
    "phone_number": "+39366448310824",
    "source_url": "https://www.google.com/maps/place/hidrisistem/data=!4m7!3m6!1s0x477e2bc4eb2078c9:0x163f77c23842a201!8m2!3d44.496029!4d11.402638!16s%2Fg%2F11w_zjhjy3!19sChIJyXgg68QrfkcRAaJCOMJ3PxY?authuser=0&hl=tr&rclk=1",
    "website_url": "",
    "rating_text": "5,0",
    "stars": null,
    "number_of_reviews": null,
    "price_level": "",
    "open_hours": "",
    "extraction_timestamp": "2025-06-07T16:31:33.292Z",
    "source_name": "google",
    "source_query": "Irrigation Equipment",
    "source_country": "IT",
    "country": "Italy",
    "state": "Emilia-Romagna",
    "city": "Castenaso"
  },
  {
    "source_id": "ChIJE-G-xrYufkcRxogxctCwWFA",
    "name": "Pianeta Verde Di Monducci Ivano & C. Snc",
    "category": "Pianeta Verde Di Monducci Ivano & C. Snc",
    "formatted_address": "4,4(102)",
    "phone_number": "+390516052225",
    "source_url": "https://www.google.com/maps/place/Pianeta+Verde+Di+Monducci+Ivano+%26+C.+Snc/data=!4m7!3m6!1s0x477e2eb6c6bee113:0x5058b0d0723188c6!8m2!3d44.5015046!4d11.4832783!16s%2Fg%2F1ptxgrpk4!19sChIJE-G-xrYufkcRxogxctCwWFA?authuser=0&hl=tr&rclk=1",
    "website_url": "http://www.pianetaverde.org/",
    "rating_text": "4,4",
    "stars": null,
    "number_of_reviews": null,
    "price_level": "",
    "open_hours": "",
    "extraction_timestamp": "2025-06-07T16:31:33.293Z",
    "source_name": "google",
    "source_query": "Irrigation Equipment",
    "source_country": "IT",
    "country": "Italy",
    "state": "Emilia-Romagna",
    "city": "Castenaso"
  },
  {
    "source_id": "ChIJZ1VptRwsfkcRUrn0Pa8GDZQ",
    "name": "Service Recinzioni E Impianti",
    "category": "Service Recinzioni E Impianti",
    "formatted_address": "5,0(1)",
    "phone_number": "",
    "source_url": "https://www.google.com/maps/place/Service+Recinzioni+E+Impianti/data=!4m7!3m6!1s0x477e2c1cb5695567:0x940d06af3df4b952!8m2!3d44.5069838!4d11.4623032!16s%2Fg%2F11fmz2lms2!19sChIJZ1VptRwsfkcRUrn0Pa8GDZQ?authuser=0&hl=tr&rclk=1",
    "website_url": "",
    "rating_text": "5,0",
    "stars": null,
    "number_of_reviews": null,
    "price_level": "",
    "open_hours": "",
    "extraction_timestamp": "2025-06-07T16:31:33.294Z",
    "source_name": "google",
    "source_query": "Irrigation Equipment",
    "source_country": "IT",
    "country": "Italy",
    "state": "Emilia-Romagna",
    "city": "Castenaso"
  },
  {
    "source_id": "ChIJOfxMB3YsfkcRSdpRLh4-8uI",
    "name": "2 EFFE Garden snc - Husqvarna Professional",
    "category": "2 EFFE Garden snc - Husqvarna Professional",
    "formatted_address": "2 EFFE Garden snc - Husqvarna Professional",
    "phone_number": "+39051781624",
    "source_url": "https://www.google.com/maps/place/2+EFFE+Garden+snc+-+Husqvarna+Professional/data=!4m7!3m6!1s0x477e2c76074cfc39:0xe2f23e1e2e51da49!8m2!3d44.4974509!4d11.4219085!16s%2Fg%2F11c594f8z4!19sChIJOfxMB3YsfkcRSdpRLh4-8uI?authuser=0&hl=tr&rclk=1",
    "website_url": "https://www.macchinegiardinaggio.com/",
    "rating_text": "4,3",
    "stars": null,
    "number_of_reviews": null,
    "price_level": "",
    "open_hours": "",
    "extraction_timestamp": "2025-06-07T16:31:33.295Z",
    "source_name": "google",
    "source_query": "Irrigation Equipment",
    "source_country": "IT",
    "country": "Italy",
    "state": "Emilia-Romagna",
    "city": "Castenaso"
  },
  {
    "source_id": "ChIJcQG6ul7df0cR3VxKiu5OPBs",
    "name": "Scova Impianti Srl",
    "category": "Scova Impianti Srl",
    "formatted_address": "4,5(64)",
    "phone_number": "+39059923202",
    "source_url": "https://www.google.com/maps/place/Scova+Impianti+Srl/data=!4m7!3m6!1s0x477fdd5ebaba0171:0x1b3c4eee8a4a5cdd!8m2!3d44.6018135!4d11.032294!16s%2Fg%2F1tfzwbfb!19sChIJcQG6ul7df0cR3VxKiu5OPBs?authuser=0&hl=tr&rclk=1",
    "website_url": "https://www.scovaimpianti.com/",
    "rating_text": "4,5",
    "stars": null,
    "number_of_reviews": null,
    "price_level": "",
    "open_hours": "",
    "extraction_timestamp": "2025-06-07T16:31:33.296Z",
    "source_name": "google",
    "source_query": "Irrigation Equipment",
    "source_country": "IT",
    "country": "Italy",
    "state": "Emilia-Romagna",
    "city": "Castenaso"
  },
  {
    "source_id": "ChIJ0xFpGHQsfkcRXgzjTv40RRI",
    "name": "Fiorentini Welding Spa",
    "category": "Fiorentini Welding Spa",
    "formatted_address": "4,7(9)",
    "phone_number": "+39051782000",
    "source_url": "https://www.google.com/maps/place/Fiorentini+Welding+Spa/data=!4m7!3m6!1s0x477e2c74186911d3:0x124534fe4ee30c5e!8m2!3d44.5035373!4d11.4365664!16s%2Fg%2F1thvrjkm!19sChIJ0xFpGHQsfkcRXgzjTv40RRI?authuser=0&hl=tr&rclk=1",
    "website_url": "https://www.fiorentiniwelding.it/",
    "rating_text": "4,7",
    "stars": null,
    "number_of_reviews": null,
    "price_level": "",
    "open_hours": "",
    "extraction_timestamp": "2025-06-07T16:31:33.297Z",
    "source_name": "google",
    "source_query": "Irrigation Equipment",
    "source_country": "IT",
    "country": "Italy",
    "state": "Emilia-Romagna",
    "city": "Castenaso"
  },
  {
    "source_id": "ChIJoUdjxvcrfkcRNBRxZxbabWs",
    "name": "Roli D. macchine ed attrezzature per giardinaggio",
    "category": "Roli D. macchine ed attrezzature per giardinaggio",
    "formatted_address": "4,6(27)",
    "phone_number": "+390514842351",
    "source_url": "https://www.google.com/maps/place/Roli+D.+macchine+ed+attrezzature+per+giardinaggio/data=!4m7!3m6!1s0x477e2bf7c66347a1:0x6b6dda1667711434!8m2!3d44.5028239!4d11.4035209!16s%2Fg%2F11tj6kzpf8!19sChIJoUdjxvcrfkcRNBRxZxbabWs?authuser=0&hl=tr&rclk=1",
    "website_url": "http://www.rolid.it/",
    "rating_text": "4,6",
    "stars": null,
    "number_of_reviews": null,
    "price_level": "",
    "open_hours": "",
    "extraction_timestamp": "2025-06-07T16:31:33.299Z",
    "source_name": "google",
    "source_query": "Irrigation Equipment",
    "source_country": "IT",
    "country": "Italy",
    "state": "Emilia-Romagna",
    "city": "Castenaso"
  },
  {
    "source_id": "ChIJNy-boQIkfkcR_RwrgbxTm7Q",
    "name": "Dal Pozzo Verricelli Srl",
    "category": "Dal Pozzo Verricelli Srl",
    "formatted_address": "5,0(1)",
    "phone_number": "+390516970020",
    "source_url": "https://www.google.com/maps/place/Dal+Pozzo+Verricelli+Srl/data=!4m7!3m6!1s0x477e2402a19b2f37:0xb49b53bc812b1cfd!8m2!3d44.5236504!4d11.5250368!16s%2Fg%2F1tdn7hzg!19sChIJNy-boQIkfkcR_RwrgbxTm7Q?authuser=0&hl=tr&rclk=1",
    "website_url": "http://www.dpverricelli.com/",
    "rating_text": "5,0",
    "stars": null,
    "number_of_reviews": null,
    "price_level": "",
    "open_hours": "",
    "extraction_timestamp": "2025-06-07T16:31:33.300Z",
    "source_name": "google",
    "source_query": "Irrigation Equipment",
    "source_country": "IT",
    "country": "Italy",
    "state": "Emilia-Romagna",
    "city": "Castenaso"
  },
  {
    "source_id": "ChIJCXuseTHTf0cRzptQ0pGelFU",
    "name": "Alpe Hydraulic Systems Water Meters",
    "category": "Alpe Hydraulic Systems Water Meters",
    "formatted_address": "Su Hizmeti Sağlayıcısı · Via del Gomito, 23+39 051 326854",
    "phone_number": "+39051326854",
    "source_url": "https://www.google.com/maps/place/Alpe+Hydraulic+Systems+Water+Meters/data=!4m7!3m6!1s0x477fd33179ac7b09:0x55949e91d2509bce!8m2!3d44.531701!4d11.3753288!16s%2Fg%2F1tjt0slq!19sChIJCXuseTHTf0cRzptQ0pGelFU?authuser=0&hl=tr&rclk=1",
    "website_url": "http://www.ahs.it/",
    "rating_text": "",
    "stars": null,
    "number_of_reviews": null,
    "price_level": "",
    "open_hours": "",
    "extraction_timestamp": "2025-06-07T16:31:33.301Z",
    "source_name": "google",
    "source_query": "Irrigation Equipment",
    "source_country": "IT",
    "country": "Italy",
    "state": "Emilia-Romagna",
    "city": "Castenaso"
  },
  {
    "source_id": "ChIJJ3T-r64ufkcRar_7yGRfQAw",
    "name": "Termoidraulica Galloni Luciano",
    "category": "Termoidraulica Galloni Luciano",
    "formatted_address": "4,4(22)",
    "phone_number": "+39051789400",
    "source_url": "https://www.google.com/maps/place/Termoidraulica+Galloni+Luciano/data=!4m7!3m6!1s0x477e2eaeaffe7427:0xc405f64c8fbbf6a!8m2!3d44.501616!4d11.4716113!16s%2Fg%2F1th7lr5p!19sChIJJ3T-r64ufkcRar_7yGRfQAw?authuser=0&hl=tr&rclk=1",
    "website_url": "https://www.termoidraulicasnc.it/",
    "rating_text": "4,4",
    "stars": null,
    "number_of_reviews": null,
    "price_level": "",
    "open_hours": "",
    "extraction_timestamp": "2025-06-07T16:31:33.302Z",
    "source_name": "google",
    "source_query": "Irrigation Equipment",
    "source_country": "IT",
    "country": "Italy",
    "state": "Emilia-Romagna",
    "city": "Castenaso"
  },
  {
    "source_id": "ChIJ02FRNqYufkcRuOghPu_TXmw",
    "name": "Nuova Ferramenta Vacchi di Cristofori Denis",
    "category": "Nuova Ferramenta Vacchi di Cristofori Denis",
    "formatted_address": "4,7(71)",
    "phone_number": "+390513548842",
    "source_url": "https://www.google.com/maps/place/Nuova+Ferramenta+Vacchi+di+Cristofori+Denis/data=!4m7!3m6!1s0x477e2ea6365161d3:0x6c5ed3ef3e21e8b8!8m2!3d44.507167!4d11.4705745!16s%2Fg%2F1tdd8pd3!19sChIJ02FRNqYufkcRuOghPu_TXmw?authuser=0&hl=tr&rclk=1",
    "website_url": "",
    "rating_text": "4,7",
    "stars": null,
    "number_of_reviews": null,
    "price_level": "",
    "open_hours": "",
    "extraction_timestamp": "2025-06-07T16:31:33.303Z",
    "source_name": "google",
    "source_query": "Irrigation Equipment",
    "source_country": "IT",
    "country": "Italy",
    "state": "Emilia-Romagna",
    "city": "Castenaso"
  },
  {
    "source_id": "ChIJ9cFZDwYtfkcRoHb-sUryWVU",
    "name": "Termoidraulica Bernardo",
    "category": "Termoidraulica Bernardo",
    "formatted_address": "5,0(2)",
    "phone_number": "+393939359889",
    "source_url": "https://www.google.com/maps/place/Termoidraulica+Bernardo/data=!4m7!3m6!1s0x477e2d060f59c1f5:0x5559f24ab1fe76a0!8m2!3d44.5097259!4d11.4668822!16s%2Fg%2F11vhx52m0m!19sChIJ9cFZDwYtfkcRoHb-sUryWVU?authuser=0&hl=tr&rclk=1",
    "website_url": "https://www.termoidraulicabernardo.com/index.php",
    "rating_text": "5,0",
    "stars": null,
    "number_of_reviews": null,
    "price_level": "",
    "open_hours": "",
    "extraction_timestamp": "2025-06-07T16:31:33.305Z",
    "source_name": "google",
    "source_query": "Irrigation Equipment",
    "source_country": "IT",
    "country": "Italy",
    "state": "Emilia-Romagna",
    "city": "Castenaso"
  },
  {
    "source_id": "ChIJSSMzGN4pfkcRxNrEMhpqts8",
    "name": "Hydro Ware srl",
    "category": "Hydro Ware srl",
    "formatted_address": "4,5(2)",
    "phone_number": "+390510404329",
    "source_url": "https://www.google.com/maps/place/Hydro+Ware+srl/data=!4m7!3m6!1s0x477e29de18332349:0xcfb66a1a32c4dac4!8m2!3d44.4442053!4d11.4850842!16s%2Fg%2F11h55y8w7d!19sChIJSSMzGN4pfkcRxNrEMhpqts8?authuser=0&hl=tr&rclk=1",
    "website_url": "http://www.hydroware.it/it/",
    "rating_text": "4,5",
    "stars": null,
    "number_of_reviews": null,
    "price_level": "",
    "open_hours": "",
    "extraction_timestamp": "2025-06-07T16:31:33.306Z",
    "source_name": "google",
    "source_query": "Irrigation Equipment",
    "source_country": "IT",
    "country": "Italy",
    "state": "Emilia-Romagna",
    "city": "Castenaso"
  },
  {
    "source_id": "ChIJp2R3w7_Qf0cRHlt9J4ovm_o",
    "name": "Irritec S.p.A. - Stabilimento F",
    "category": "Irritec S.p.A. - Stabilimento F",
    "formatted_address": "5,0(2)",
    "phone_number": "+390516508020",
    "source_url": "https://www.google.com/maps/place/Irritec+S.p.A.+-+Stabilimento+F/data=!4m7!3m6!1s0x477fd0bfc37764a7:0xfa9b2f8a277d5b1e!8m2!3d44.6210254!4d11.3703614!16s%2Fg%2F1xpwhmq4!19sChIJp2R3w7_Qf0cRHlt9J4ovm_o?authuser=0&hl=tr&rclk=1",
    "website_url": "http://www.irritec.com/",
    "rating_text": "5,0",
    "stars": null,
    "number_of_reviews": null,
    "price_level": "",
    "open_hours": "",
    "extraction_timestamp": "2025-06-07T16:31:33.307Z",
    "source_name": "google",
    "source_query": "Irrigation Equipment",
    "source_country": "IT",
    "country": "Italy",
    "state": "Emilia-Romagna",
    "city": "Castenaso"
  },
  {
    "source_id": "ChIJtd8rMBcrfkcR1WXwOEQBS1M",
    "name": "Fratelli Zerbini",
    "category": "Fratelli Zerbini",
    "formatted_address": "4,2(25)",
    "phone_number": "+39051544202",
    "source_url": "https://www.google.com/maps/place/Fratelli+Zerbini/data=!4m7!3m6!1s0x477e2b17302bdfb5:0x534b014438f065d5!8m2!3d44.4778998!4d11.3896301!16s%2Fg%2F12hm299lk!19sChIJtd8rMBcrfkcR1WXwOEQBS1M?authuser=0&hl=tr&rclk=1",
    "website_url": "",
    "rating_text": "4,2",
    "stars": null,
    "number_of_reviews": null,
    "price_level": "",
    "open_hours": "",
    "extraction_timestamp": "2025-06-07T16:31:33.308Z",
    "source_name": "google",
    "source_query": "Irrigation Equipment",
    "source_country": "IT",
    "country": "Italy",
    "state": "Emilia-Romagna",
    "city": "Castenaso"
  },
  {
    "source_id": "ChIJJ6V6lMDgf0cR1SpFsfjDuHg",
    "name": "Ocmis Irrigazione Spa",
    "category": "Ocmis Irrigazione Spa",
    "formatted_address": "3,5(31)",
    "phone_number": "+39059702150",
    "source_url": "https://www.google.com/maps/place/Ocmis+Irrigazione+Spa/data=!4m7!3m6!1s0x477fe0c0947aa527:0x78b8c3f8b1452ad5!8m2!3d44.530494!4d10.9794578!16s%2Fg%2F1vd3tn19!19sChIJJ6V6lMDgf0cR1SpFsfjDuHg?authuser=0&hl=tr&rclk=1",
    "website_url": "http://www.ocmis-irrigazione.it/",
    "rating_text": "3,5",
    "stars": null,
    "number_of_reviews": null,
    "price_level": "",
    "open_hours": "",
    "extraction_timestamp": "2025-06-07T16:31:33.309Z",
    "source_name": "google",
    "source_query": "Irrigation Equipment",
    "source_country": "IT",
    "country": "Italy",
    "state": "Emilia-Romagna",
    "city": "Castenaso"
  },
  {
    "source_id": "ChIJYxEyCycrfkcR4iZdj6CUwQQ",
    "name": "Larm S.p.a.",
    "category": "Larm S.p.a.",
    "formatted_address": "4,0(4)",
    "phone_number": "+390516053020",
    "source_url": "https://www.google.com/maps/place/Larm+S.p.a./data=!4m7!3m6!1s0x477e2b270b321163:0x4c194a08f5d26e2!8m2!3d44.5056456!4d11.4390485!16s%2Fg%2F1tlwdh16!19sChIJYxEyCycrfkcR4iZdj6CUwQQ?authuser=0&hl=tr&rclk=1",
    "website_url": "",
    "rating_text": "4,0",
    "stars": null,
    "number_of_reviews": null,
    "price_level": "",
    "open_hours": "",
    "extraction_timestamp": "2025-06-07T16:31:33.310Z",
    "source_name": "google",
    "source_query": "Irrigation Equipment",
    "source_country": "IT",
    "country": "Italy",
    "state": "Emilia-Romagna",
    "city": "Castenaso"
  },
  {
    "source_id": "ChIJj7p79zMzKxMRxzB_tpcRXKE",
    "name": "F.lli Farne' Srl",
    "category": "F.lli Farne' Srl",
    "formatted_address": "4,7(97)",
    "phone_number": "+39051941145",
    "source_url": "https://www.google.com/maps/place/F.lli+Farne%27+Srl/data=!4m7!3m6!1s0x132b3333f77bba8f:0xa15c1197b67f30c7!8m2!3d44.4060269!4d11.5874732!16s%2Fg%2F1vx88btc!19sChIJj7p79zMzKxMRxzB_tpcRXKE?authuser=0&hl=tr&rclk=1",
    "website_url": "https://fratellifarnesrl.it/",
    "rating_text": "4,7",
    "stars": null,
    "number_of_reviews": null,
    "price_level": "",
    "open_hours": "",
    "extraction_timestamp": "2025-06-07T16:31:33.311Z",
    "source_name": "google",
    "source_query": "Irrigation Equipment",
    "source_country": "IT",
    "country": "Italy",
    "state": "Emilia-Romagna",
    "city": "Castenaso"
  },
  {
    "source_id": "ChIJQ5lR64stfkcRLoL3Vq79xBc",
    "name": "Cila Ciicai Magazzino Villanova di Castenaso",
    "category": "Cila Ciicai Magazzino Villanova di Castenaso",
    "formatted_address": "4,1(8)",
    "phone_number": "+39051780979",
    "source_url": "https://www.google.com/maps/place/Cila+Ciicai+Magazzino+Villanova+di+Castenaso/data=!4m7!3m6!1s0x477e2d8beb519943:0x17c4fdae56f7822e!8m2!3d44.5060457!4d11.4396706!16s%2Fg%2F11h0byskw1!19sChIJQ5lR64stfkcRLoL3Vq79xBc?authuser=0&hl=tr&rclk=1",
    "website_url": "https://www.cilaciicai.it/",
    "rating_text": "4,1",
    "stars": null,
    "number_of_reviews": null,
    "price_level": "",
    "open_hours": "",
    "extraction_timestamp": "2025-06-07T16:31:33.312Z",
    "source_name": "google",
    "source_query": "Irrigation Equipment",
    "source_country": "IT",
    "country": "Italy",
    "state": "Emilia-Romagna",
    "city": "Castenaso"
  },
  {
    "source_id": "ChIJw3M1-gHTf0cR4Npr_n0P5Pg",
    "name": "Idraco s.r.l. Vendita ingrosso/dettaglio",
    "category": "Idraco s.r.l. Vendita ingrosso/dettaglio",
    "formatted_address": "4,8(27)",
    "phone_number": "+390510954480",
    "source_url": "https://www.google.com/maps/place/Idraco+s.r.l.+Vendita+ingrosso%2Fdettaglio/data=!4m7!3m6!1s0x477fd301fa3573c3:0xf8e40f7dfe6bdae0!8m2!3d44.5332442!4d11.3463793!16s%2Fg%2F11h045w95v!19sChIJw3M1-gHTf0cR4Npr_n0P5Pg?authuser=0&hl=tr&rclk=1",
    "website_url": "http://www.idraco.it/",
    "rating_text": "4,8",
    "stars": null,
    "number_of_reviews": null,
    "price_level": "",
    "open_hours": "",
    "extraction_timestamp": "2025-06-07T16:31:33.313Z",
    "source_name": "google",
    "source_query": "Irrigation Equipment",
    "source_country": "IT",
    "country": "Italy",
    "state": "Emilia-Romagna",
    "city": "Castenaso"
  },
  {
    "source_id": "ChIJlzPN61jTf0cRZhfoBsWgS_o",
    "name": "Idraulica Emiliana S.p.A.",
    "category": "Idraulica Emiliana S.p.A.",
    "formatted_address": "4,3(30)",
    "phone_number": "+390516333548",
    "source_url": "https://www.google.com/maps/place/Idraulica+Emiliana+S.p.A./data=!4m7!3m6!1s0x477fd358ebcd3397:0xfa4ba0c506e81766!8m2!3d44.5092595!4d11.3571117!16s%2Fg%2F11g69g3sh_!19sChIJlzPN61jTf0cRZhfoBsWgS_o?authuser=0&hl=tr&rclk=1",
    "website_url": "http://www.idraulicaemiliana.com/",
    "rating_text": "4,3",
    "stars": null,
    "number_of_reviews": null,
    "price_level": "",
    "open_hours": "",
    "extraction_timestamp": "2025-06-07T16:31:33.314Z",
    "source_name": "google",
    "source_query": "Irrigation Equipment",
    "source_country": "IT",
    "country": "Italy",
    "state": "Emilia-Romagna",
    "city": "Castenaso"
  },
  {
    "source_id": "ChIJ8cMqg2otfkcRI5BqbS2Sn_w",
    "name": "Gsgi Gruppo Solo Grossisti Idrotermosanitari",
    "category": "Gsgi Gruppo Solo Grossisti Idrotermosanitari",
    "formatted_address": "5,0(1)",
    "phone_number": "+39051503012",
    "source_url": "https://www.google.com/maps/place/Gsgi+Gruppo+Solo+Grossisti+Idrotermosanitari/data=!4m7!3m6!1s0x477e2d6a832ac3f1:0xfc9f922d6d6a9023!8m2!3d44.5127708!4d11.411996!16s%2Fg%2F11t312l0pl!19sChIJ8cMqg2otfkcRI5BqbS2Sn_w?authuser=0&hl=tr&rclk=1",
    "website_url": "https://grupposgi.net/",
    "rating_text": "5,0",
    "stars": null,
    "number_of_reviews": null,
    "price_level": "",
    "open_hours": "",
    "extraction_timestamp": "2025-06-07T16:31:33.315Z",
    "source_name": "google",
    "source_query": "Irrigation Equipment",
    "source_country": "IT",
    "country": "Italy",
    "state": "Emilia-Romagna",
    "city": "Castenaso"
  },
  {
    "source_id": "ChIJywYeExzdf0cRhfr55_LZC8w",
    "name": "Geocentro",
    "category": "Geocentro",
    "formatted_address": "3,8(5)",
    "phone_number": "+39059927676",
    "source_url": "https://www.google.com/maps/place/Geocentro/data=!4m7!3m6!1s0x477fdd1c131e06cb:0xcc0bd9f2e7f9fa85!8m2!3d44.5871226!4d11.0681616!16s%2Fg%2F11cn3pjh5j!19sChIJywYeExzdf0cRhfr55_LZC8w?authuser=0&hl=tr&rclk=1",
    "website_url": "https://www.geocentro.it/",
    "rating_text": "3,8",
    "stars": null,
    "number_of_reviews": null,
    "price_level": "",
    "open_hours": "",
    "extraction_timestamp": "2025-06-07T16:31:33.330Z",
    "source_name": "google",
    "source_query": "Irrigation Equipment",
    "source_country": "IT",
    "country": "Italy",
    "state": "Emilia-Romagna",
    "city": "Castenaso"
  },
  {
    "source_id": "ChIJJVCxnoHTf0cR8GQmay7SIQA",
    "name": "Saccaria Idrotermosanitari Bologna (Magazzino)",
    "category": "Saccaria Idrotermosanitari Bologna (Magazzino)",
    "formatted_address": "4,2(142)",
    "phone_number": "+390516352101",
    "source_url": "https://www.google.com/maps/place/Saccaria+Idrotermosanitari+Bologna+%28Magazzino%29/data=!4m7!3m6!1s0x477fd3819eb15025:0x21d22e6b2664f0!8m2!3d44.5151941!4d11.3250192!16s%2Fg%2F1tzghh1h!19sChIJJVCxnoHTf0cR8GQmay7SIQA?authuser=0&hl=tr&rclk=1",
    "website_url": "https://www.saccaria.com/?utm_campaign=gmb-listing&utm_medium=organic&utm_source=google&utm_term=bologna",
    "rating_text": "4,2",
    "stars": null,
    "number_of_reviews": null,
    "price_level": "",
    "open_hours": "",
    "extraction_timestamp": "2025-06-07T16:31:33.331Z",
    "source_name": "google",
    "source_query": "Irrigation Equipment",
    "source_country": "IT",
    "country": "Italy",
    "state": "Emilia-Romagna",
    "city": "Castenaso"
  }
]
