[
  {
    "source_id": "ChIJbS5dwF9O1RIRibzxYEi1gyw",
    "name": "Scaruffi di Davide Scaruffi",
    "category": "Scaruffi di Davide Scaruffi",
    "formatted_address": "4,5(59)",
    "phone_number": "+390522810100",
    "source_url": "https://www.google.com/maps/place/Scaruffi+di+Davide+Scaruffi/data=!4m7!3m6!1s0x12d54e5fc05d2e6d:0x2c83b54860f1bc89!8m2!3d44.4295694!4d10.3930506!16s%2Fg%2F11hbc4ljvl!19sChIJbS5dwF9O1RIRibzxYEi1gyw?authuser=0&hl=tr&rclk=1",
    "website_url": "",
    "rating_text": "4,5",
    "stars": null,
    "number_of_reviews": null,
    "price_level": "",
    "open_hours": "",
    "extraction_timestamp": "2025-06-07T16:42:14.047Z",
    "source_name": "google",
    "source_query": "Irrigation Equipment",
    "source_country": "IT",
    "country": "Italy",
    "state": "Emilia-Romagna",
    "city": "Castelnovo ne'Monti"
  },
  {
    "source_id": "ChIJJfzqsvhR1RIRRib5H1Lu6CE",
    "name": "Forest & Garden",
    "category": "Forest & Garden",
    "formatted_address": "4,8(93)",
    "phone_number": "+390522717035",
    "source_url": "https://www.google.com/maps/place/Forest+%26+Garden/data=!4m7!3m6!1s0x12d551f8b2eafc25:0x21e8ee521ff92646!8m2!3d44.4452209!4d10.4447746!16s%2Fg%2F1tl6mdps!19sChIJJfzqsvhR1RIRRib5H1Lu6CE?authuser=0&hl=tr&rclk=1",
    "website_url": "",
    "rating_text": "4,8",
    "stars": null,
    "number_of_reviews": null,
    "price_level": "",
    "open_hours": "",
    "extraction_timestamp": "2025-06-07T16:42:14.049Z",
    "source_name": "google",
    "source_query": "Irrigation Equipment",
    "source_country": "IT",
    "country": "Italy",
    "state": "Emilia-Romagna",
    "city": "Castelnovo ne'Monti"
  },
  {
    "source_id": "ChIJAfpnxf5R1RIRvytdn0h7FF0",
    "name": "Pavisystem| Showroom pavimenti e rivestimenti, arredo bagno, tendaggi, biancheria| Reggio Emilia| Castelnuovo Ne’ Monti",
    "category": "Pavisystem| Showroom pavimenti e rivestimenti, arredo bagno, tendaggi, biancheria| Reggio Emilia| Castelnuovo Ne’ Monti",
    "formatted_address": "Pavisystem| Showroom pavimenti e rivestimenti, arredo bagno, tendaggi, biancheria| Reggio Emilia| Castelnuovo Ne’ Monti",
    "phone_number": "+390522811378",
    "source_url": "https://www.google.com/maps/place/Pavisystem%7C+Showroom+pavimenti+e+rivestimenti,+arredo+bagno,+tendaggi,+biancheria%7C+Reggio+Emilia%7C+Castelnuovo+Ne%E2%80%99+Monti/data=!4m7!3m6!1s0x12d551fec567fa01:0x5d147b489f5d2bbf!8m2!3d44.4439789!4d10.4446017!16s%2Fg%2F1tsvw2ph!19sChIJAfpnxf5R1RIRvytdn0h7FF0?authuser=0&hl=tr&rclk=1",
    "website_url": "https://www.pavisystem.com/",
    "rating_text": "4,7",
    "stars": null,
    "number_of_reviews": null,
    "price_level": "",
    "open_hours": "",
    "extraction_timestamp": "2025-06-07T16:42:14.051Z",
    "source_name": "google",
    "source_query": "Irrigation Equipment",
    "source_country": "IT",
    "country": "Italy",
    "state": "Emilia-Romagna",
    "city": "Castelnovo ne'Monti"
  },
  {
    "source_id": "ChIJcQG6ul7df0cR3VxKiu5OPBs",
    "name": "Scova Impianti Srl",
    "category": "Scova Impianti Srl",
    "formatted_address": "4,5(64)",
    "phone_number": "+39059923202",
    "source_url": "https://www.google.com/maps/place/Scova+Impianti+Srl/data=!4m7!3m6!1s0x477fdd5ebaba0171:0x1b3c4eee8a4a5cdd!8m2!3d44.6018135!4d11.032294!16s%2Fg%2F1tfzwbfb!19sChIJcQG6ul7df0cR3VxKiu5OPBs?authuser=0&hl=tr&rclk=1",
    "website_url": "https://www.scovaimpianti.com/",
    "rating_text": "4,5",
    "stars": null,
    "number_of_reviews": null,
    "price_level": "",
    "open_hours": "",
    "extraction_timestamp": "2025-06-07T16:42:14.052Z",
    "source_name": "google",
    "source_query": "Irrigation Equipment",
    "source_country": "IT",
    "country": "Italy",
    "state": "Emilia-Romagna",
    "city": "Castelnovo ne'Monti"
  },
  {
    "source_id": "ChIJzWyZEf8dgEcRM0sVtbJE3TI",
    "name": "Impiantistica LAVONE",
    "category": "Impiantistica LAVONE",
    "formatted_address": "5,0(3)",
    "phone_number": "+393514759408",
    "source_url": "https://www.google.com/maps/place/Impiantistica+LAVONE/data=!4m7!3m6!1s0x47801dff11996ccd:0x32dd44b2b5154b33!8m2!3d44.7120611!4d10.6241549!16s%2Fg%2F11lp1gdrnd!19sChIJzWyZEf8dgEcRM0sVtbJE3TI?authuser=0&hl=tr&rclk=1",
    "website_url": "",
    "rating_text": "5,0",
    "stars": null,
    "number_of_reviews": null,
    "price_level": "",
    "open_hours": "",
    "extraction_timestamp": "2025-06-07T16:42:14.054Z",
    "source_name": "google",
    "source_query": "Irrigation Equipment",
    "source_country": "IT",
    "country": "Italy",
    "state": "Emilia-Romagna",
    "city": "Castelnovo ne'Monti"
  },
  {
    "source_id": "ChIJfRxiX2FO1RIR9DikAWeT_J0",
    "name": "Ferramenta Colombari S.N.C.",
    "category": "Ferramenta Colombari S.N.C.",
    "formatted_address": "4,6(68)",
    "phone_number": "+390522812072",
    "source_url": "https://www.google.com/maps/place/Ferramenta+Colombari+S.N.C./data=!4m7!3m6!1s0x12d54e615f621c7d:0x9dfc936701a438f4!8m2!3d44.4370843!4d10.3991121!16s%2Fg%2F1tlr1vff!19sChIJfRxiX2FO1RIR9DikAWeT_J0?authuser=0&hl=tr&rclk=1",
    "website_url": "",
    "rating_text": "4,6",
    "stars": null,
    "number_of_reviews": null,
    "price_level": "",
    "open_hours": "",
    "extraction_timestamp": "2025-06-07T16:42:14.055Z",
    "source_name": "google",
    "source_query": "Irrigation Equipment",
    "source_country": "IT",
    "country": "Italy",
    "state": "Emilia-Romagna",
    "city": "Castelnovo ne'Monti"
  },
  {
    "source_id": "ChIJJw8zDgsYgEcRb4fhCyV5QXo",
    "name": "Speroni S.p.A. - Water Pumps",
    "category": "Speroni S.p.A. - Water Pumps",
    "formatted_address": "4,6(135)",
    "phone_number": "+390522487011",
    "source_url": "https://www.google.com/maps/place/Speroni+S.p.A.+-+Water+Pumps/data=!4m7!3m6!1s0x4780180b0e330f27:0x7a4179250be1876f!8m2!3d44.7991725!4d10.5714246!16s%2Fg%2F1tr9m89z!19sChIJJw8zDgsYgEcRb4fhCyV5QXo?authuser=0&hl=tr&rclk=1",
    "website_url": "https://www.speroni.it/",
    "rating_text": "4,6",
    "stars": null,
    "number_of_reviews": null,
    "price_level": "",
    "open_hours": "",
    "extraction_timestamp": "2025-06-07T16:42:14.057Z",
    "source_name": "google",
    "source_query": "Irrigation Equipment",
    "source_country": "IT",
    "country": "Italy",
    "state": "Emilia-Romagna",
    "city": "Castelnovo ne'Monti"
  },
  {
    "source_id": "ChIJ-wZadb9P1RIRzsN9nfjwR0A",
    "name": "Ferramenta Rossi",
    "category": "Ferramenta Rossi",
    "formatted_address": "4,8(62)",
    "phone_number": "+390522812388",
    "source_url": "https://www.google.com/maps/place/Ferramenta+Rossi/data=!4m7!3m6!1s0x12d54fbf755a06fb:0x4047f0f89d7dc3ce!8m2!3d44.4337647!4d10.4002462!16s%2Fg%2F11gyb0bm5m!19sChIJ-wZadb9P1RIRzsN9nfjwR0A?authuser=0&hl=tr&rclk=1",
    "website_url": "",
    "rating_text": "4,8",
    "stars": null,
    "number_of_reviews": null,
    "price_level": "",
    "open_hours": "",
    "extraction_timestamp": "2025-06-07T16:42:14.059Z",
    "source_name": "google",
    "source_query": "Irrigation Equipment",
    "source_country": "IT",
    "country": "Italy",
    "state": "Emilia-Romagna",
    "city": "Castelnovo ne'Monti"
  },
  {
    "source_id": "ChIJveAeFroEgEcRZfa9xqlB6vM",
    "name": "Morelli Irrigazioni",
    "category": "Morelli Irrigazioni",
    "formatted_address": "1,0(1)",
    "phone_number": "+393480042122",
    "source_url": "https://www.google.com/maps/place/Morelli+Irrigazioni/data=!4m7!3m6!1s0x478004ba161ee0bd:0xf3ea41a9c6bdf665!8m2!3d44.649256!4d10.5636837!16s%2Fg%2F11gy01p0bd!19sChIJveAeFroEgEcRZfa9xqlB6vM?authuser=0&hl=tr&rclk=1",
    "website_url": "http://irrigazionimorelli.it/",
    "rating_text": "1,0",
    "stars": null,
    "number_of_reviews": null,
    "price_level": "",
    "open_hours": "",
    "extraction_timestamp": "2025-06-07T16:42:14.060Z",
    "source_name": "google",
    "source_query": "Irrigation Equipment",
    "source_country": "IT",
    "country": "Italy",
    "state": "Emilia-Romagna",
    "city": "Castelnovo ne'Monti"
  }
]
