[
  {
    "source_id": "ChIJJ6V6lMDgf0cR1SpFsfjDuHg",
    "name": "Ocmis Irrigazione Spa",
    "category": "Ocmis Irrigazione Spa",
    "formatted_address": "3,5(31)",
    "phone_number": "+39059702150",
    "source_url": "https://www.google.com/maps/place/Ocmis+Irrigazione+Spa/data=!4m7!3m6!1s0x477fe0c0947aa527:0x78b8c3f8b1452ad5!8m2!3d44.530494!4d10.9794578!16s%2Fg%2F1vd3tn19!19sChIJJ6V6lMDgf0cR1SpFsfjDuHg?authuser=0&hl=tr&rclk=1",
    "website_url": "http://www.ocmis-irrigazione.it/",
    "rating_text": "3,5",
    "stars": null,
    "number_of_reviews": null,
    "price_level": "",
    "open_hours": "",
    "extraction_timestamp": "2025-06-07T16:07:17.444Z",
    "source_name": "google",
    "source_query": "Irrigation Equipment",
    "source_country": "IT",
    "country": "Italy",
    "state": "Emilia-Romagna",
    "city": "Castelnuovo Rangone"
  },
  {
    "source_id": "ChIJcQG6ul7df0cR3VxKiu5OPBs",
    "name": "Scova Impianti Srl",
    "category": "Scova Impianti Srl",
    "formatted_address": "4,5(64)",
    "phone_number": "+39059923202",
    "source_url": "https://www.google.com/maps/place/Scova+Impianti+Srl/data=!4m7!3m6!1s0x477fdd5ebaba0171:0x1b3c4eee8a4a5cdd!8m2!3d44.6018135!4d11.032294!16s%2Fg%2F1tfzwbfb!19sChIJcQG6ul7df0cR3VxKiu5OPBs?authuser=0&hl=tr&rclk=1",
    "website_url": "https://www.scovaimpianti.com/",
    "rating_text": "4,5",
    "stars": null,
    "number_of_reviews": null,
    "price_level": "",
    "open_hours": "",
    "extraction_timestamp": "2025-06-07T16:07:17.447Z",
    "source_name": "google",
    "source_query": "Irrigation Equipment",
    "source_country": "IT",
    "country": "Italy",
    "state": "Emilia-Romagna",
    "city": "Castelnuovo Rangone"
  },
  {
    "source_id": "ChIJyWHAcq3mf0cRx3AAR1OgOzs",
    "name": "Officina Se.r.co.m. S.r.l. - Macchine Movimento Terra",
    "category": "Officina Se.r.co.m. S.r.l. - Macchine Movimento Terra",
    "formatted_address": "4,8(33)",
    "phone_number": "+39059538666",
    "source_url": "https://www.google.com/maps/place/Officina+Se.r.co.m.+S.r.l.+-+Macchine+Movimento+Terra/data=!4m7!3m6!1s0x477fe6ad72c061c9:0x3b3ba053470070c7!8m2!3d44.5514792!4d10.9277887!16s%2Fg%2F1tdmtgkr!19sChIJyWHAcq3mf0cRx3AAR1OgOzs?authuser=0&hl=tr&rclk=1",
    "website_url": "https://www.officinasercom.it/",
    "rating_text": "4,8",
    "stars": null,
    "number_of_reviews": null,
    "price_level": "",
    "open_hours": "",
    "extraction_timestamp": "2025-06-07T16:07:17.449Z",
    "source_name": "google",
    "source_query": "Irrigation Equipment",
    "source_country": "IT",
    "country": "Italy",
    "state": "Emilia-Romagna",
    "city": "Castelnuovo Rangone"
  },
  {
    "source_id": "ChIJJ6V6lMDgf0cRkL2jf5B3MwQ",
    "name": "Scova Engineering Spa",
    "category": "Scova Engineering Spa",
    "formatted_address": "5,0(2)",
    "phone_number": "+39059702012",
    "source_url": "https://www.google.com/maps/place/Scova+Engineering+Spa/data=!4m7!3m6!1s0x477fe0c0947aa527:0x43377907fa3bd90!8m2!3d44.5304758!4d10.9796265!16s%2Fg%2F1tql3mky!19sChIJJ6V6lMDgf0cRkL2jf5B3MwQ?authuser=0&hl=tr&rclk=1",
    "website_url": "https://www.scova-engineering.it/",
    "rating_text": "5,0",
    "stars": null,
    "number_of_reviews": null,
    "price_level": "",
    "open_hours": "",
    "extraction_timestamp": "2025-06-07T16:07:17.451Z",
    "source_name": "google",
    "source_query": "Irrigation Equipment",
    "source_country": "IT",
    "country": "Italy",
    "state": "Emilia-Romagna",
    "city": "Castelnuovo Rangone"
  },
  {
    "source_id": "ChIJ4db-L87mf0cR6R9Pz20UQ00",
    "name": "I.G. Incerti Plast S.r.l.",
    "category": "I.G. Incerti Plast S.r.l.",
    "formatted_address": "3,0(5)",
    "phone_number": "+39059535454",
    "source_url": "https://www.google.com/maps/place/I.G.+Incerti+Plast+S.r.l./data=!4m7!3m6!1s0x477fe6ce2ffed6e1:0x4d43146dcf4f1fe9!8m2!3d44.5539264!4d10.9483955!16s%2Fg%2F1tf1mp2w!19sChIJ4db-L87mf0cR6R9Pz20UQ00?authuser=0&hl=tr&rclk=1",
    "website_url": "http://www.igincertiplast.it/",
    "rating_text": "3,0",
    "stars": null,
    "number_of_reviews": null,
    "price_level": "",
    "open_hours": "",
    "extraction_timestamp": "2025-06-07T16:07:17.453Z",
    "source_name": "google",
    "source_query": "Irrigation Equipment",
    "source_country": "IT",
    "country": "Italy",
    "state": "Emilia-Romagna",
    "city": "Castelnuovo Rangone"
  },
  {
    "source_id": "ChIJo35coqrhf0cRTLWyfHFEKxU",
    "name": "Irtec (S.R.L.)",
    "category": "Irtec (S.R.L.)",
    "formatted_address": "4,5(2)",
    "phone_number": "+39059702150",
    "source_url": "https://www.google.com/maps/place/Irtec+%28S.R.L.%29/data=!4m7!3m6!1s0x477fe1aaa25c7ea3:0x152b44717cb2b54c!8m2!3d44.5304847!4d10.9796055!16s%2Fg%2F1tgn8gft!19sChIJo35coqrhf0cRTLWyfHFEKxU?authuser=0&hl=tr&rclk=1",
    "website_url": "",
    "rating_text": "4,5",
    "stars": null,
    "number_of_reviews": null,
    "price_level": "",
    "open_hours": "",
    "extraction_timestamp": "2025-06-07T16:07:17.456Z",
    "source_name": "google",
    "source_query": "Irrigation Equipment",
    "source_country": "IT",
    "country": "Italy",
    "state": "Emilia-Romagna",
    "city": "Castelnuovo Rangone"
  },
  {
    "source_id": "ChIJHQGz6dXof0cRPD2igQWHtxo",
    "name": "Hidrostar",
    "category": "Hidrostar",
    "formatted_address": "4,8(33)",
    "phone_number": "+39059251056",
    "source_url": "https://www.google.com/maps/place/Hidrostar/data=!4m7!3m6!1s0x477fe8d5e9b3011d:0x1ab7870581a23d3c!8m2!3d44.6584919!4d10.9641811!16s%2Fg%2F1tf9rp0c!19sChIJHQGz6dXof0cRPD2igQWHtxo?authuser=0&hl=tr&rclk=1",
    "website_url": "http://www.hidrostar.it/",
    "rating_text": "4,8",
    "stars": null,
    "number_of_reviews": null,
    "price_level": "",
    "open_hours": "",
    "extraction_timestamp": "2025-06-07T16:07:17.469Z",
    "source_name": "google",
    "source_query": "Irrigation Equipment",
    "source_country": "IT",
    "country": "Italy",
    "state": "Emilia-Romagna",
    "city": "Castelnuovo Rangone"
  },
  {
    "source_id": "ChIJb-zAglLhf0cR-5fFjwHIfjQ",
    "name": "Cavani giardini - Giardiniere e progettazione giardini - Modena",
    "category": "Cavani giardini - Giardiniere e progettazione giardini - Modena",
    "formatted_address": "4,9(7)",
    "phone_number": "+393349604516",
    "source_url": "https://www.google.com/maps/place/Cavani+giardini+-+Giardiniere+e+progettazione+giardini+-+Modena/data=!4m7!3m6!1s0x477fe15282c0ec6f:0x347ec8018fc597fb!8m2!3d44.5536613!4d10.937428!16s%2Fg%2F11bx1zf2mr!19sChIJb-zAglLhf0cR-5fFjwHIfjQ?authuser=0&hl=tr&rclk=1",
    "website_url": "http://giardiniere-modena.it/",
    "rating_text": "4,9",
    "stars": null,
    "number_of_reviews": null,
    "price_level": "",
    "open_hours": "",
    "extraction_timestamp": "2025-06-07T16:07:17.471Z",
    "source_name": "google",
    "source_query": "Irrigation Equipment",
    "source_country": "IT",
    "country": "Italy",
    "state": "Emilia-Romagna",
    "city": "Castelnuovo Rangone"
  },
  {
    "source_id": "ChIJhT-kpAXff0cRKJQqKYwIulA",
    "name": "Irrigo",
    "category": "Irrigo",
    "formatted_address": "4,7(36)",
    "phone_number": "+393473096499",
    "source_url": "https://www.google.com/maps/place/Irrigo/data=!4m7!3m6!1s0x477fdf05a4a43f85:0x50ba088c292a9428!8m2!3d44.5018172!4d11.005272!16s%2Fg%2F11hdjcp5pk!19sChIJhT-kpAXff0cRKJQqKYwIulA?authuser=0&hl=tr&rclk=1",
    "website_url": "https://www.irrigovignola.it/",
    "rating_text": "4,7",
    "stars": null,
    "number_of_reviews": null,
    "price_level": "",
    "open_hours": "",
    "extraction_timestamp": "2025-06-07T16:07:17.472Z",
    "source_name": "google",
    "source_query": "Irrigation Equipment",
    "source_country": "IT",
    "country": "Italy",
    "state": "Emilia-Romagna",
    "city": "Castelnuovo Rangone"
  },
  {
    "source_id": "ChIJPcpQWknhf0cRBtDZhGQ4Tpw",
    "name": "Castelli Andrea",
    "category": "Castelli Andrea",
    "formatted_address": "4,0(4)",
    "phone_number": "+393355422417",
    "source_url": "https://www.google.com/maps/place/Castelli+Andrea/data=!4m7!3m6!1s0x477fe1495a50ca3d:0x9c4e386484d9d006!8m2!3d44.5439066!4d10.9335915!16s%2Fg%2F1tfx3rjr!19sChIJPcpQWknhf0cRBtDZhGQ4Tpw?authuser=0&hl=tr&rclk=1",
    "website_url": "https://castelliandrea.com/",
    "rating_text": "4,0",
    "stars": null,
    "number_of_reviews": null,
    "price_level": "",
    "open_hours": "",
    "extraction_timestamp": "2025-06-07T16:07:17.473Z",
    "source_name": "google",
    "source_query": "Irrigation Equipment",
    "source_country": "IT",
    "country": "Italy",
    "state": "Emilia-Romagna",
    "city": "Castelnuovo Rangone"
  },
  {
    "source_id": "ChIJfbXsoa3mf0cRIXzmR0sry0w",
    "name": "Tema S.p.a. - Elettronica avanzata per l'industria",
    "category": "Tema S.p.a. - Elettronica avanzata per l'industria",
    "formatted_address": "5,0(3)",
    "phone_number": "+39059534011",
    "source_url": "https://www.google.com/maps/place/Tema+S.p.a.+-+Elettronica+avanzata+per+l%27industria/data=!4m7!3m6!1s0x477fe6ada1ecb57d:0x4ccb2b4b47e67c21!8m2!3d44.5537519!4d10.9270947!16s%2Fg%2F1tfb9_nx!19sChIJfbXsoa3mf0cRIXzmR0sry0w?authuser=0&hl=tr&rclk=1",
    "website_url": "https://temaelettronica.com/",
    "rating_text": "5,0",
    "stars": null,
    "number_of_reviews": null,
    "price_level": "",
    "open_hours": "",
    "extraction_timestamp": "2025-06-07T16:07:17.474Z",
    "source_name": "google",
    "source_query": "Irrigation Equipment",
    "source_country": "IT",
    "country": "Italy",
    "state": "Emilia-Romagna",
    "city": "Castelnuovo Rangone"
  },
  {
    "source_id": "ChIJgVjbdx7df0cRsMjOLRKEzBA",
    "name": "Geocentro",
    "category": "Geocentro",
    "formatted_address": "4,4(87)",
    "phone_number": "+39059926168",
    "source_url": "https://www.google.com/maps/place/Geocentro/data=!4m7!3m6!1s0x477fdd1e77db5881:0x10cc84122dcec8b0!8m2!3d44.5868616!4d11.070717!16s%2Fg%2F11cn3ph0_q!19sChIJgVjbdx7df0cRsMjOLRKEzBA?authuser=0&hl=tr&rclk=1",
    "website_url": "https://www.geocentrosrl.it/",
    "rating_text": "4,4",
    "stars": null,
    "number_of_reviews": null,
    "price_level": "",
    "open_hours": "",
    "extraction_timestamp": "2025-06-07T16:07:17.476Z",
    "source_name": "google",
    "source_query": "Irrigation Equipment",
    "source_country": "IT",
    "country": "Italy",
    "state": "Emilia-Romagna",
    "city": "Castelnuovo Rangone"
  },
  {
    "source_id": "ChIJfz5pvlLhf0cRSJoL6Ki0Znc",
    "name": "TEMA spa",
    "category": "TEMA spa",
    "formatted_address": "Elektronik Üreticisi ·  · Via Montanara, 20",
    "phone_number": "",
    "source_url": "https://www.google.com/maps/place/TEMA+spa/data=!4m7!3m6!1s0x477fe152be693e7f:0x7766b4a8e80b9a48!8m2!3d44.5494141!4d10.927843!16s%2Fg%2F11c2r0z9h1!19sChIJfz5pvlLhf0cRSJoL6Ki0Znc?authuser=0&hl=tr&rclk=1",
    "website_url": "http://www.temaweb.it/",
    "rating_text": "",
    "stars": null,
    "number_of_reviews": null,
    "price_level": "",
    "open_hours": "",
    "extraction_timestamp": "2025-06-07T16:07:17.477Z",
    "source_name": "google",
    "source_query": "Irrigation Equipment",
    "source_country": "IT",
    "country": "Italy",
    "state": "Emilia-Romagna",
    "city": "Castelnuovo Rangone"
  },
  {
    "source_id": "ChIJn6L29Zjof0cRzkCm8WYZAS0",
    "name": "CAPRARA s.r.l.",
    "category": "CAPRARA s.r.l.",
    "formatted_address": "5,0(1)",
    "phone_number": "+39059284810",
    "source_url": "https://www.google.com/maps/place/CAPRARA+s.r.l./data=!4m7!3m6!1s0x477fe898f5f6a29f:0x2d011966f1a640ce!8m2!3d44.6281881!4d10.9732808!16s%2Fg%2F1hc636b9q!19sChIJn6L29Zjof0cRzkCm8WYZAS0?authuser=0&hl=tr&rclk=1",
    "website_url": "http://www.caprara.it/",
    "rating_text": "5,0",
    "stars": null,
    "number_of_reviews": null,
    "price_level": "",
    "open_hours": "",
    "extraction_timestamp": "2025-06-07T16:07:17.478Z",
    "source_name": "google",
    "source_query": "Irrigation Equipment",
    "source_country": "IT",
    "country": "Italy",
    "state": "Emilia-Romagna",
    "city": "Castelnuovo Rangone"
  },
  {
    "source_id": "ChIJ-Z_RHvbnf0cRry0jCm7Q5GQ",
    "name": "Scova Impianti",
    "category": "Scova Impianti",
    "formatted_address": "4,0(4)",
    "phone_number": "+39059925910",
    "source_url": "https://www.google.com/maps/place/Scova+Impianti/data=!4m7!3m6!1s0x477fe7f61ed19ff9:0x64e4d06e0a232daf!8m2!3d44.6018937!4d11.0315223!16s%2Fg%2F1td6wznv!19sChIJ-Z_RHvbnf0cRry0jCm7Q5GQ?authuser=0&hl=tr&rclk=1",
    "website_url": "https://scovaimpianti.com/",
    "rating_text": "4,0",
    "stars": null,
    "number_of_reviews": null,
    "price_level": "",
    "open_hours": "",
    "extraction_timestamp": "2025-06-07T16:07:17.479Z",
    "source_name": "google",
    "source_query": "Irrigation Equipment",
    "source_country": "IT",
    "country": "Italy",
    "state": "Emilia-Romagna",
    "city": "Castelnuovo Rangone"
  },
  {
    "source_id": "ChIJAUxJ7j3df0cRV576jjhogAg",
    "name": "Aldrovandi Srl Sistemi Irrigazione",
    "category": "Aldrovandi Srl Sistemi Irrigazione",
    "formatted_address": "Sulama Ekipmanları Tedarikçisi · Via Giuseppe Verdi, 34Kalıcı olarak kapalı · +39 059 927676",
    "phone_number": "+39059927676",
    "source_url": "https://www.google.com/maps/place/Aldrovandi+Srl+Sistemi+Irrigazione/data=!4m7!3m6!1s0x477fdd3dee494c01:0x88068388efa9e57!8m2!3d44.59442!4d11.0592496!16s%2Fg%2F12hkr2kns!19sChIJAUxJ7j3df0cRV576jjhogAg?authuser=0&hl=tr&rclk=1",
    "website_url": "",
    "rating_text": "",
    "stars": null,
    "number_of_reviews": null,
    "price_level": "",
    "open_hours": "",
    "extraction_timestamp": "2025-06-07T16:07:17.480Z",
    "source_name": "google",
    "source_query": "Irrigation Equipment",
    "source_country": "IT",
    "country": "Italy",
    "state": "Emilia-Romagna",
    "city": "Castelnuovo Rangone"
  }
]
