[
  {
    "source_id": "ChIJj7p79zMzKxMRxzB_tpcRXKE",
    "name": "F.lli Farne' Srl",
    "category": "F.lli Farne' Srl",
    "formatted_address": "4,7(97)",
    "phone_number": "+39051941145",
    "source_url": "https://www.google.com/maps/place/F.lli+Farne%27+Srl/data=!4m7!3m6!1s0x132b3333f77bba8f:0xa15c1197b67f30c7!8m2!3d44.4060269!4d11.5874732!16s%2Fg%2F1vx88btc!19sChIJj7p79zMzKxMRxzB_tpcRXKE?authuser=0&hl=tr&rclk=1",
    "website_url": "https://fratellifarnesrl.it/",
    "rating_text": "4,7",
    "stars": null,
    "number_of_reviews": null,
    "price_level": "",
    "open_hours": "",
    "extraction_timestamp": "2025-06-07T16:50:07.859Z",
    "source_name": "google",
    "source_query": "Irrigation Equipment",
    "source_country": "IT",
    "country": "Italy",
    "state": "Emilia-Romagna",
    "city": "Castel San Pietro Terme"
  },
  {
    "source_id": "ChIJHffq5C8zKxMRWeuna7XQFRk",
    "name": "Gruppo Ciicai - magazzino di Castel San Pietro Terme",
    "category": "Gruppo Ciicai - magazzino di Castel San Pietro Terme",
    "formatted_address": "4,7(22)",
    "phone_number": "+390516951331",
    "source_url": "https://www.google.com/maps/place/Gruppo+Ciicai+-+magazzino+di+Castel+San+Pietro+Terme/data=!4m7!3m6!1s0x132b332fe4eaf71d:0x1915d0b56ba7eb59!8m2!3d44.4017404!4d11.5807563!16s%2Fg%2F1tk09vwg!19sChIJHffq5C8zKxMRWeuna7XQFRk?authuser=0&hl=tr&rclk=1",
    "website_url": "https://www.ciicai.com/magazzini/castel-san-pietro-terme?utm_source=google&utm_medium=gmb&utm_campaign=m_castel-san-pietro-terme",
    "rating_text": "4,7",
    "stars": null,
    "number_of_reviews": null,
    "price_level": "",
    "open_hours": "",
    "extraction_timestamp": "2025-06-07T16:50:07.860Z",
    "source_name": "google",
    "source_query": "Irrigation Equipment",
    "source_country": "IT",
    "country": "Italy",
    "state": "Emilia-Romagna",
    "city": "Castel San Pietro Terme"
  },
  {
    "source_id": "ChIJi7C7bZIzKxMRq7s5-_rr1uw",
    "name": "Cila Magazzino Termoidraulica",
    "category": "Cila Magazzino Termoidraulica",
    "formatted_address": "5,0(1)",
    "phone_number": "+390516942134",
    "source_url": "https://www.google.com/maps/place/Cila+Magazzino+Termoidraulica/data=!4m7!3m6!1s0x132b33926dbbb08b:0xecd6ebfafb39bbab!8m2!3d44.4014412!4d11.5936441!16s%2Fg%2F11tcwcrnv4!19sChIJi7C7bZIzKxMRq7s5-_rr1uw?authuser=0&hl=tr&rclk=1",
    "website_url": "https://www.cilaciicai.it/",
    "rating_text": "5,0",
    "stars": null,
    "number_of_reviews": null,
    "price_level": "",
    "open_hours": "",
    "extraction_timestamp": "2025-06-07T16:50:07.860Z",
    "source_name": "google",
    "source_query": "Irrigation Equipment",
    "source_country": "IT",
    "country": "Italy",
    "state": "Emilia-Romagna",
    "city": "Castel San Pietro Terme"
  },
  {
    "source_id": "ChIJBYvnkhcnfkcRM2NCCoOndz4",
    "name": "R2 Rinaldi.Srl",
    "category": "R2 Rinaldi.Srl",
    "formatted_address": "5,0(11)",
    "phone_number": "+39051943042",
    "source_url": "https://www.google.com/maps/place/R2+Rinaldi.Srl/data=!4m7!3m6!1s0x477e271792e78b05:0x3e77a7830a426333!8m2!3d44.4349589!4d11.6043094!16s%2Fg%2F1thd5j7t!19sChIJBYvnkhcnfkcRM2NCCoOndz4?authuser=0&hl=tr&rclk=1",
    "website_url": "https://r2rinaldi.com/",
    "rating_text": "5,0",
    "stars": null,
    "number_of_reviews": null,
    "price_level": "",
    "open_hours": "",
    "extraction_timestamp": "2025-06-07T16:50:07.861Z",
    "source_name": "google",
    "source_query": "Irrigation Equipment",
    "source_country": "IT",
    "country": "Italy",
    "state": "Emilia-Romagna",
    "city": "Castel San Pietro Terme"
  },
  {
    "source_id": "ChIJcQG6ul7df0cR3VxKiu5OPBs",
    "name": "Scova Impianti Srl",
    "category": "Scova Impianti Srl",
    "formatted_address": "4,5(64)",
    "phone_number": "+39059923202",
    "source_url": "https://www.google.com/maps/place/Scova+Impianti+Srl/data=!4m7!3m6!1s0x477fdd5ebaba0171:0x1b3c4eee8a4a5cdd!8m2!3d44.6018135!4d11.032294!16s%2Fg%2F1tfzwbfb!19sChIJcQG6ul7df0cR3VxKiu5OPBs?authuser=0&hl=tr&rclk=1",
    "website_url": "https://www.scovaimpianti.com/",
    "rating_text": "4,5",
    "stars": null,
    "number_of_reviews": null,
    "price_level": "",
    "open_hours": "",
    "extraction_timestamp": "2025-06-07T16:50:07.862Z",
    "source_name": "google",
    "source_query": "Irrigation Equipment",
    "source_country": "IT",
    "country": "Italy",
    "state": "Emilia-Romagna",
    "city": "Castel San Pietro Terme"
  },
  {
    "source_id": "ChIJFZYtwTczKxMRw8U9AZQ9DQs",
    "name": "Centro Ausili per Disabili e Sanitaria di Romeo Barbieri",
    "category": "Centro Ausili per Disabili e Sanitaria di Romeo Barbieri",
    "formatted_address": "4,6(5)",
    "phone_number": "+39051941506",
    "source_url": "https://www.google.com/maps/place/Centro+Ausili+per+Disabili+e+Sanitaria+di+Romeo+Barbieri/data=!4m7!3m6!1s0x132b3337c12d9615:0xb0d3d94013dc5c3!8m2!3d44.4016508!4d11.5919357!16s%2Fg%2F11b6h_7zdr!19sChIJFZYtwTczKxMRw8U9AZQ9DQs?authuser=0&hl=tr&rclk=1",
    "website_url": "http://www.officinasanitariabarbieri.it/",
    "rating_text": "4,6",
    "stars": null,
    "number_of_reviews": null,
    "price_level": "",
    "open_hours": "",
    "extraction_timestamp": "2025-06-07T16:50:07.862Z",
    "source_name": "google",
    "source_query": "Irrigation Equipment",
    "source_country": "IT",
    "country": "Italy",
    "state": "Emilia-Romagna",
    "city": "Castel San Pietro Terme"
  },
  {
    "source_id": "ChIJU73J4TAzKxMR7EWA9k5I03E",
    "name": "Cila Ciicai Showroom Castel San Pietro Terme",
    "category": "Cila Ciicai Showroom Castel San Pietro Terme",
    "formatted_address": "4,5(36)",
    "phone_number": "+39051948881",
    "source_url": "https://www.google.com/maps/place/Cila+Ciicai+Showroom+Castel+San+Pietro+Terme/data=!4m7!3m6!1s0x132b3330e1c9bd53:0x71d3484ef68045ec!8m2!3d44.4017426!4d11.5927839!16s%2Fg%2F1tfx_fyc!19sChIJU73J4TAzKxMR7EWA9k5I03E?authuser=0&hl=tr&rclk=1",
    "website_url": "https://www.cilaciicai.it/",
    "rating_text": "4,5",
    "stars": null,
    "number_of_reviews": null,
    "price_level": "",
    "open_hours": "",
    "extraction_timestamp": "2025-06-07T16:50:07.863Z",
    "source_name": "google",
    "source_query": "Irrigation Equipment",
    "source_country": "IT",
    "country": "Italy",
    "state": "Emilia-Romagna",
    "city": "Castel San Pietro Terme"
  },
  {
    "source_id": "ChIJP4XDOjgzKxMRe94rRUjsnq4",
    "name": "F.Lli Reggiani Di Conti Luca",
    "category": "F.Lli Reggiani Di Conti Luca",
    "formatted_address": "4,5(2)",
    "phone_number": "+39051941221",
    "source_url": "https://www.google.com/maps/place/F.Lli+Reggiani+Di+Conti+Luca/data=!4m7!3m6!1s0x132b33383ac3853f:0xae9eec48452bde7b!8m2!3d44.4079005!4d11.5861188!16s%2Fg%2F1tf5gx00!19sChIJP4XDOjgzKxMRe94rRUjsnq4?authuser=0&hl=tr&rclk=1",
    "website_url": "",
    "rating_text": "4,5",
    "stars": null,
    "number_of_reviews": null,
    "price_level": "",
    "open_hours": "",
    "extraction_timestamp": "2025-06-07T16:50:07.863Z",
    "source_name": "google",
    "source_query": "Irrigation Equipment",
    "source_country": "IT",
    "country": "Italy",
    "state": "Emilia-Romagna",
    "city": "Castel San Pietro Terme"
  },
  {
    "source_id": "ChIJKWLLUTEzKxMREZOkfZlgMTA",
    "name": "Ava Clima Srl",
    "category": "Ava Clima Srl",
    "formatted_address": "2,7(50)",
    "phone_number": "+390516951594",
    "source_url": "https://www.google.com/maps/place/Ava+Clima+Srl/data=!4m7!3m6!1s0x132b333151cb6229:0x303160997da49311!8m2!3d44.4038482!4d11.5806065!16s%2Fg%2F11cn2_73nd!19sChIJKWLLUTEzKxMREZOkfZlgMTA?authuser=0&hl=tr&rclk=1",
    "website_url": "http://www.avaclima.it/",
    "rating_text": "2,7",
    "stars": null,
    "number_of_reviews": null,
    "price_level": "",
    "open_hours": "",
    "extraction_timestamp": "2025-06-07T16:50:07.866Z",
    "source_name": "google",
    "source_query": "Irrigation Equipment",
    "source_country": "IT",
    "country": "Italy",
    "state": "Emilia-Romagna",
    "city": "Castel San Pietro Terme"
  },
  {
    "source_id": "ChIJMc_BCf8zKxMR7hTTKPN8nTo",
    "name": "SEL Impianti",
    "category": "SEL Impianti",
    "formatted_address": "4,1(9)",
    "phone_number": "+390510084184",
    "source_url": "https://www.google.com/maps/place/SEL+Impianti/data=!4m7!3m6!1s0x132b33ff09c1cf31:0x3a9d7cf328d314ee!8m2!3d44.406267!4d11.5868179!16s%2Fg%2F11gzn1cwf5!19sChIJMc_BCf8zKxMR7hTTKPN8nTo?authuser=0&hl=tr&rclk=1",
    "website_url": "https://www.selimpianti.it/",
    "rating_text": "4,1",
    "stars": null,
    "number_of_reviews": null,
    "price_level": "",
    "open_hours": "",
    "extraction_timestamp": "2025-06-07T16:50:07.866Z",
    "source_name": "google",
    "source_query": "Irrigation Equipment",
    "source_country": "IT",
    "country": "Italy",
    "state": "Emilia-Romagna",
    "city": "Castel San Pietro Terme"
  },
  {
    "source_id": "ChIJtX91XrAzKxMRG_zB-hK-bKU",
    "name": "BG assistenza di Bertagia Gianluca",
    "category": "BG assistenza di Bertagia Gianluca",
    "formatted_address": "5,0(3)",
    "phone_number": "+393475465765",
    "source_url": "https://www.google.com/maps/place/BG+assistenza+di+Bertagia+Gianluca/data=!4m7!3m6!1s0x132b33b05e757fb5:0xa56cbe12fac1fc1b!8m2!3d44.4016063!4d11.5840338!16s%2Fg%2F11q1jr4h24!19sChIJtX91XrAzKxMRG_zB-hK-bKU?authuser=0&hl=tr&rclk=1",
    "website_url": "http://www.bgassistenza.it/",
    "rating_text": "5,0",
    "stars": null,
    "number_of_reviews": null,
    "price_level": "",
    "open_hours": "",
    "extraction_timestamp": "2025-06-07T16:50:07.867Z",
    "source_name": "google",
    "source_query": "Irrigation Equipment",
    "source_country": "IT",
    "country": "Italy",
    "state": "Emilia-Romagna",
    "city": "Castel San Pietro Terme"
  },
  {
    "source_id": "ChIJOdId0z4zKxMRk_LXMLzU0w4",
    "name": "Parafarmacia Misiani - Sanitaria",
    "category": "Parafarmacia Misiani - Sanitaria",
    "formatted_address": "4,9(72)",
    "phone_number": "+390516942131",
    "source_url": "https://www.google.com/maps/place/Parafarmacia+Misiani+-+Sanitaria/data=!4m7!3m6!1s0x132b333ed31dd239:0xed3d4bc30d7f293!8m2!3d44.3960511!4d11.5896869!16s%2Fg%2F1vntxssr!19sChIJOdId0z4zKxMRk_LXMLzU0w4?authuser=0&hl=tr&rclk=1",
    "website_url": "https://www.facebook.com/parafarmaciamisiani/",
    "rating_text": "4,9",
    "stars": null,
    "number_of_reviews": null,
    "price_level": "",
    "open_hours": "",
    "extraction_timestamp": "2025-06-07T16:50:07.867Z",
    "source_name": "google",
    "source_query": "Irrigation Equipment",
    "source_country": "IT",
    "country": "Italy",
    "state": "Emilia-Romagna",
    "city": "Castel San Pietro Terme"
  },
  {
    "source_id": "ChIJ21PEjDAzKxMRZz_-McoJ7vo",
    "name": "I.t.s Impianti S.r.l.",
    "category": "I.t.s Impianti S.r.l.",
    "formatted_address": "4,7(12)",
    "phone_number": "+39051942296",
    "source_url": "https://www.google.com/maps/place/I.t.s+Impianti+S.r.l./data=!4m7!3m6!1s0x132b33308cc453db:0xfaee09ca31fe3f67!8m2!3d44.4030542!4d11.5854021!16s%2Fg%2F12hnq9ghc!19sChIJ21PEjDAzKxMRZz_-McoJ7vo?authuser=0&hl=tr&rclk=1",
    "website_url": "",
    "rating_text": "4,7",
    "stars": null,
    "number_of_reviews": null,
    "price_level": "",
    "open_hours": "",
    "extraction_timestamp": "2025-06-07T16:50:07.868Z",
    "source_name": "google",
    "source_query": "Irrigation Equipment",
    "source_country": "IT",
    "country": "Italy",
    "state": "Emilia-Romagna",
    "city": "Castel San Pietro Terme"
  },
  {
    "source_id": "ChIJ4bO__TMzKxMRXI74eFIQFYw",
    "name": "Pedroni",
    "category": "Pedroni",
    "formatted_address": "4,9(8)",
    "phone_number": "+39051940081",
    "source_url": "https://www.google.com/maps/place/Pedroni/data=!4m7!3m6!1s0x132b3333fdbfb3e1:0x8c15105278f88e5c!8m2!3d44.4057391!4d11.5872411!16s%2Fg%2F1wf4qn_q!19sChIJ4bO__TMzKxMRXI74eFIQFYw?authuser=0&hl=tr&rclk=1",
    "website_url": "https://www.pedronisrl.com/",
    "rating_text": "4,9",
    "stars": null,
    "number_of_reviews": null,
    "price_level": "",
    "open_hours": "",
    "extraction_timestamp": "2025-06-07T16:50:07.868Z",
    "source_name": "google",
    "source_query": "Irrigation Equipment",
    "source_country": "IT",
    "country": "Italy",
    "state": "Emilia-Romagna",
    "city": "Castel San Pietro Terme"
  },
  {
    "source_id": "ChIJh3Nd8G0sfkcR_m7VewEmxXM",
    "name": "Irrigarden",
    "category": "Irrigarden",
    "formatted_address": "4,7(158)",
    "phone_number": "+39051782013",
    "source_url": "https://www.google.com/maps/place/Irrigarden/data=!4m7!3m6!1s0x477e2c6df05d7387:0x73c526017bd56efe!8m2!3d44.5096266!4d11.4390897!16s%2Fg%2F1vgw_l7w!19sChIJh3Nd8G0sfkcR_m7VewEmxXM?authuser=0&hl=tr&rclk=1",
    "website_url": "https://www.irrigarden-bo.it/",
    "rating_text": "4,7",
    "stars": null,
    "number_of_reviews": null,
    "price_level": "",
    "open_hours": "",
    "extraction_timestamp": "2025-06-07T16:50:07.870Z",
    "source_name": "google",
    "source_query": "Irrigation Equipment",
    "source_country": "IT",
    "country": "Italy",
    "state": "Emilia-Romagna",
    "city": "Castel San Pietro Terme"
  },
  {
    "source_id": "ChIJd6WvpTkzKxMR2lKxbuIYk_8",
    "name": "Ferramenta Nello Di Baldazzi Stefano E C. Snc",
    "category": "Ferramenta Nello Di Baldazzi Stefano E C. Snc",
    "formatted_address": "4,5(136)",
    "phone_number": "+39051941362",
    "source_url": "https://www.google.com/maps/place/Ferramenta+Nello+Di+Baldazzi+Stefano+E+C.+Snc/data=!4m7!3m6!1s0x132b3339a5afa577:0xff9318e26eb152da!8m2!3d44.3986959!4d11.5892532!16s%2Fg%2F1tf8h9y8!19sChIJd6WvpTkzKxMR2lKxbuIYk_8?authuser=0&hl=tr&rclk=1",
    "website_url": "",
    "rating_text": "4,5",
    "stars": null,
    "number_of_reviews": null,
    "price_level": "",
    "open_hours": "",
    "extraction_timestamp": "2025-06-07T16:50:07.871Z",
    "source_name": "google",
    "source_query": "Irrigation Equipment",
    "source_country": "IT",
    "country": "Italy",
    "state": "Emilia-Romagna",
    "city": "Castel San Pietro Terme"
  },
  {
    "source_id": "ChIJ468FNzgzKxMR-JKD9405qcM",
    "name": "Ferramenta Parenti",
    "category": "Ferramenta Parenti",
    "formatted_address": "4,7(79)",
    "phone_number": "+39051941182",
    "source_url": "https://www.google.com/maps/place/Ferramenta+Parenti/data=!4m7!3m6!1s0x132b33383705afe3:0xc3a9398df78392f8!8m2!3d44.399692!4d11.5908768!16s%2Fg%2F1td0k7h0!19sChIJ468FNzgzKxMR-JKD9405qcM?authuser=0&hl=tr&rclk=1",
    "website_url": "https://antonioparenti.it/",
    "rating_text": "4,7",
    "stars": null,
    "number_of_reviews": null,
    "price_level": "",
    "open_hours": "",
    "extraction_timestamp": "2025-06-07T16:50:07.871Z",
    "source_name": "google",
    "source_query": "Irrigation Equipment",
    "source_country": "IT",
    "country": "Italy",
    "state": "Emilia-Romagna",
    "city": "Castel San Pietro Terme"
  },
  {
    "source_id": "ChIJJ6V6lMDgf0cR1SpFsfjDuHg",
    "name": "Ocmis Irrigazione Spa",
    "category": "Ocmis Irrigazione Spa",
    "formatted_address": "3,5(31)",
    "phone_number": "+39059702150",
    "source_url": "https://www.google.com/maps/place/Ocmis+Irrigazione+Spa/data=!4m7!3m6!1s0x477fe0c0947aa527:0x78b8c3f8b1452ad5!8m2!3d44.530494!4d10.9794578!16s%2Fg%2F1vd3tn19!19sChIJJ6V6lMDgf0cR1SpFsfjDuHg?authuser=0&hl=tr&rclk=1",
    "website_url": "http://www.ocmis-irrigazione.it/",
    "rating_text": "3,5",
    "stars": null,
    "number_of_reviews": null,
    "price_level": "",
    "open_hours": "",
    "extraction_timestamp": "2025-06-07T16:50:07.871Z",
    "source_name": "google",
    "source_query": "Irrigation Equipment",
    "source_country": "IT",
    "country": "Italy",
    "state": "Emilia-Romagna",
    "city": "Castel San Pietro Terme"
  },
  {
    "source_id": "ChIJ7cFnnh8_pWAR8AZXwrYSm8I",
    "name": "Cinzia Fiacconi | Vendita di depuratori e purificatori d'acqua ad osmosi inversa e acqua idrogenata",
    "category": "Cinzia Fiacconi | Vendita di depuratori e purificatori d'acqua ad osmosi inversa e acqua idrogenata",
    "formatted_address": "5,0(1)",
    "phone_number": "+393288082448",
    "source_url": "https://www.google.com/maps/place/Cinzia+Fiacconi+%7C+Vendita+di+depuratori+e+purificatori+d%27acqua+ad+osmosi+inversa+e+acqua+idrogenata/data=!4m7!3m6!1s0x60a53f1f9e67c1ed:0xc29b12b6c25706f0!8m2!3d44.4701678!4d11.7319354!16s%2Fg%2F11vy9rg4b8!19sChIJ7cFnnh8_pWAR8AZXwrYSm8I?authuser=0&hl=tr&rclk=1",
    "website_url": "https://depurazioneidrogenata.it/",
    "rating_text": "5,0",
    "stars": null,
    "number_of_reviews": null,
    "price_level": "",
    "open_hours": "",
    "extraction_timestamp": "2025-06-07T16:50:07.872Z",
    "source_name": "google",
    "source_query": "Irrigation Equipment",
    "source_country": "IT",
    "country": "Italy",
    "state": "Emilia-Romagna",
    "city": "Castel San Pietro Terme"
  },
  {
    "source_id": "ChIJlTPsBbzDAosRwgcwlQ_WQqI",
    "name": "C.E IMPIANTI TRATTAMENTO ACQUA",
    "category": "C.E IMPIANTI TRATTAMENTO ACQUA",
    "formatted_address": "",
    "phone_number": "+393930556914",
    "source_url": "https://www.google.com/maps/place/C.E+IMPIANTI+TRATTAMENTO+ACQUA/data=!4m7!3m6!1s0x8b02c3bc05ec3395:0xa242d60f953007c2!8m2!3d44.4335054!4d11.3228686!16s%2Fg%2F11vj6181w4!19sChIJlTPsBbzDAosRwgcwlQ_WQqI?authuser=0&hl=tr&rclk=1",
    "website_url": "",
    "rating_text": "",
    "stars": null,
    "number_of_reviews": null,
    "price_level": "",
    "open_hours": "",
    "extraction_timestamp": "2025-06-07T16:50:07.872Z",
    "source_name": "google",
    "source_query": "Irrigation Equipment",
    "source_country": "IT",
    "country": "Italy",
    "state": "Emilia-Romagna",
    "city": "Castel San Pietro Terme"
  }
]
