[
  {
    "source_id": "ChIJE_3jOnMtfkcRkxtTFj3Ym9E",
    "name": "Irrigation Scarabelli Srl",
    "category": "Irrigation Scarabelli Srl",
    "formatted_address": "4,5(23)",
    "phone_number": "+39051763363",
    "source_url": "https://www.google.com/maps/place/Irrigation+Scarabelli+Srl/data=!4m7!3m6!1s0x477e2d733ae3fd13:0xd19bd83d16531b93!8m2!3d44.5426053!4d11.4189136!16s%2Fg%2F11gzdz6vf!19sChIJE_3jOnMtfkcRkxtTFj3Ym9E?authuser=0&hl=tr&rclk=1",
    "website_url": "",
    "rating_text": "4,5",
    "stars": null,
    "number_of_reviews": null,
    "price_level": "",
    "open_hours": "",
    "extraction_timestamp": "2025-06-07T15:44:19.154Z",
    "source_name": "google",
    "source_query": "Irrigation Equipment",
    "source_country": "IT",
    "country": "Italy",
    "state": "Emilia-Romagna",
    "city": "Castello d'Argile"
  },
  {
    "source_id": "ChIJp1HPEd7If0cR_HellL0rysY",
    "name": "Resca s.r.l.",
    "category": "Resca s.r.l.",
    "formatted_address": "4,9(33)",
    "phone_number": "+39051976996",
    "source_url": "https://www.google.com/maps/place/Resca+s.r.l./data=!4m7!3m6!1s0x477fc8de11cf51a7:0xc6ca2bbd94a577fc!8m2!3d44.6836366!4d11.2966566!16s%2Fg%2F12hp6_5qy!19sChIJp1HPEd7If0cR_HellL0rysY?authuser=0&hl=tr&rclk=1",
    "website_url": "http://www.rescasrl.it/",
    "rating_text": "4,9",
    "stars": null,
    "number_of_reviews": null,
    "price_level": "",
    "open_hours": "",
    "extraction_timestamp": "2025-06-07T15:44:19.156Z",
    "source_name": "google",
    "source_query": "Irrigation Equipment",
    "source_country": "IT",
    "country": "Italy",
    "state": "Emilia-Romagna",
    "city": "Castello d'Argile"
  },
  {
    "source_id": "ChIJAzbMxAPJf0cRXLf74uWIPys",
    "name": "Borghi Impianti Oleodinamici s.p.a.",
    "category": "Borghi Impianti Oleodinamici s.p.a.",
    "formatted_address": "4,4(12)",
    "phone_number": "+390516868611",
    "source_url": "https://www.google.com/maps/place/Borghi+Impianti+Oleodinamici+s.p.a./data=!4m7!3m6!1s0x477fc903c4cc3603:0x2b3f88e5e2fbb75c!8m2!3d44.6948769!4d11.3090526!16s%2Fg%2F1pv043syv!19sChIJAzbMxAPJf0cRXLf74uWIPys?authuser=0&hl=tr&rclk=1",
    "website_url": "http://www.borghi-impianti.com/",
    "rating_text": "4,4",
    "stars": null,
    "number_of_reviews": null,
    "price_level": "",
    "open_hours": "",
    "extraction_timestamp": "2025-06-07T15:44:19.159Z",
    "source_name": "google",
    "source_query": "Irrigation Equipment",
    "source_country": "IT",
    "country": "Italy",
    "state": "Emilia-Romagna",
    "city": "Castello d'Argile"
  },
  {
    "source_id": "ChIJcQG6ul7df0cR3VxKiu5OPBs",
    "name": "Scova Impianti Srl",
    "category": "Scova Impianti Srl",
    "formatted_address": "4,5(64)",
    "phone_number": "+39059923202",
    "source_url": "https://www.google.com/maps/place/Scova+Impianti+Srl/data=!4m7!3m6!1s0x477fdd5ebaba0171:0x1b3c4eee8a4a5cdd!8m2!3d44.6018135!4d11.032294!16s%2Fg%2F1tfzwbfb!19sChIJcQG6ul7df0cR3VxKiu5OPBs?authuser=0&hl=tr&rclk=1",
    "website_url": "https://www.scovaimpianti.com/",
    "rating_text": "4,5",
    "stars": null,
    "number_of_reviews": null,
    "price_level": "",
    "open_hours": "",
    "extraction_timestamp": "2025-06-07T15:44:19.161Z",
    "source_name": "google",
    "source_query": "Irrigation Equipment",
    "source_country": "IT",
    "country": "Italy",
    "state": "Emilia-Romagna",
    "city": "Castello d'Argile"
  },
  {
    "source_id": "ChIJXzSwqdjIf0cR4P0DeFRTvc0",
    "name": "Collari s.n.c. - agricultural machines and coil winders",
    "category": "Collari s.n.c. - agricultural machines and coil winders",
    "formatted_address": "5,0(4)",
    "phone_number": "+39051977022",
    "source_url": "https://www.google.com/maps/place/Collari+s.n.c.+-+agricultural+machines+and+coil+winders/data=!4m7!3m6!1s0x477fc8d8a9b0345f:0xcdbd53547803fde0!8m2!3d44.6774419!4d11.2978108!16s%2Fg%2F1wf37f_3!19sChIJXzSwqdjIf0cR4P0DeFRTvc0?authuser=0&hl=tr&rclk=1",
    "website_url": "https://collarimacchine.it/",
    "rating_text": "5,0",
    "stars": null,
    "number_of_reviews": null,
    "price_level": "",
    "open_hours": "",
    "extraction_timestamp": "2025-06-07T15:44:19.162Z",
    "source_name": "google",
    "source_query": "Irrigation Equipment",
    "source_country": "IT",
    "country": "Italy",
    "state": "Emilia-Romagna",
    "city": "Castello d'Argile"
  },
  {
    "source_id": "ChIJV3M0DwLJf0cRosWY0OUhZc0",
    "name": "Hydro Holding S.P.A. (F.B. Hydraulic Plant)",
    "category": "Hydro Holding S.P.A. (F.B. Hydraulic Plant)",
    "formatted_address": "4,7(18)",
    "phone_number": "+39051976635",
    "source_url": "https://www.google.com/maps/place/Hydro+Holding+S.P.A.+%28F.B.+Hydraulic+Plant%29/data=!4m7!3m6!1s0x477fc9020f347357:0xcd6521e5d098c5a2!8m2!3d44.6960788!4d11.3051459!16s%2Fg%2F1tmpcsfk!19sChIJV3M0DwLJf0cRosWY0OUhZc0?authuser=0&hl=tr&rclk=1",
    "website_url": "http://www.fb-channel.net/",
    "rating_text": "4,7",
    "stars": null,
    "number_of_reviews": null,
    "price_level": "",
    "open_hours": "",
    "extraction_timestamp": "2025-06-07T15:44:19.164Z",
    "source_name": "google",
    "source_query": "Irrigation Equipment",
    "source_country": "IT",
    "country": "Italy",
    "state": "Emilia-Romagna",
    "city": "Castello d'Argile"
  },
  {
    "source_id": "ChIJ5VC0kojJf0cR39mTAp4rcDA",
    "name": "IDRAJET",
    "category": "IDRAJET",
    "formatted_address": "Su Jetiyle Kesim Hizmeti ·  · Via Prati, 7/cKapalı ⋅ Açılış zamanı: Pzt 08:30 · +39 051 093 9610",
    "phone_number": "+390510939610",
    "source_url": "https://www.google.com/maps/place/IDRAJET/data=!4m7!3m6!1s0x477fc98892b450e5:0x30702b9e0293d9df!8m2!3d44.690041!4d11.3072052!16s%2Fg%2F11ghrbx4_8!19sChIJ5VC0kojJf0cR39mTAp4rcDA?authuser=0&hl=tr&rclk=1",
    "website_url": "",
    "rating_text": "",
    "stars": null,
    "number_of_reviews": null,
    "price_level": "",
    "open_hours": "",
    "extraction_timestamp": "2025-06-07T15:44:19.182Z",
    "source_name": "google",
    "source_query": "Irrigation Equipment",
    "source_country": "IT",
    "country": "Italy",
    "state": "Emilia-Romagna",
    "city": "Castello d'Argile"
  }
]
