[
  {
    "source_id": "ChIJtVDkNgRFgEcRqc6umwWIJuI",
    "name": "Rm Spa",
    "category": "Rm Spa",
    "formatted_address": "4,6(81)",
    "phone_number": "+390521872321",
    "source_url": "https://www.google.com/maps/place/Rm+Spa/data=!4m7!3m6!1s0x4780450436e450b5:0xe22688059baecea9!8m2!3d44.9105406!4d10.2583785!16s%2Fg%2F12hl93byl!19sChIJtVDkNgRFgEcRqc6umwWIJuI?authuser=0&hl=tr&rclk=1",
    "website_url": "http://www.rmirrigation.com/",
    "rating_text": "4,6",
    "stars": null,
    "number_of_reviews": null,
    "price_level": "",
    "open_hours": "",
    "extraction_timestamp": "2025-06-07T15:58:01.670Z",
    "source_name": "google",
    "source_query": "Irrigation Equipment",
    "source_country": "IT",
    "country": "Italy",
    "state": "Emilia-Romagna",
    "city": "Castell'Arquato"
  },
  {
    "source_id": "ChIJp65ZEfz0gEcROZp4Wq2Uisw",
    "name": "Tecnotubi Srl | Tubi e strumenti per l'oleodinamica e idraulica",
    "category": "Tecnotubi Srl | Tubi e strumenti per l'oleodinamica e idraulica",
    "formatted_address": "4,8(29)",
    "phone_number": "+390523949293",
    "source_url": "https://www.google.com/maps/place/Tecnotubi+Srl+%7C+Tubi+e+strumenti+per+l%27oleodinamica+e+idraulica/data=!4m7!3m6!1s0x4780f4fc1159aea7:0xcc8a94ad5a789a39!8m2!3d44.9009882!4d9.9612158!16s%2Fg%2F1tfvg1vc!19sChIJp65ZEfz0gEcROZp4Wq2Uisw?authuser=0&hl=tr&rclk=1",
    "website_url": "https://www.tecnotubialseno.it/",
    "rating_text": "4,8",
    "stars": null,
    "number_of_reviews": null,
    "price_level": "",
    "open_hours": "",
    "extraction_timestamp": "2025-06-07T15:58:01.670Z",
    "source_name": "google",
    "source_query": "Irrigation Equipment",
    "source_country": "IT",
    "country": "Italy",
    "state": "Emilia-Romagna",
    "city": "Castell'Arquato"
  },
  {
    "source_id": "ChIJ90762m6rgUcRrOpHkQtN0qE",
    "name": "ACQUAFERT",
    "category": "ACQUAFERT",
    "formatted_address": "4,8(13)",
    "phone_number": "+390372835672",
    "source_url": "https://www.google.com/maps/place/ACQUAFERT/data=!4m7!3m6!1s0x4781ab6edafa4ef7:0xa1d24d0b9147eaac!8m2!3d45.1695663!4d10.1916537!16s%2Fg%2F11c1ny5b5r!19sChIJ90762m6rgUcRrOpHkQtN0qE?authuser=0&hl=tr&rclk=1",
    "website_url": "https://www.acquafertagri.it/",
    "rating_text": "4,8",
    "stars": null,
    "number_of_reviews": null,
    "price_level": "",
    "open_hours": "",
    "extraction_timestamp": "2025-06-07T15:58:01.671Z",
    "source_name": "google",
    "source_query": "Irrigation Equipment",
    "source_country": "IT",
    "country": "Italy",
    "state": "Emilia-Romagna",
    "city": "Castell'Arquato"
  },
  {
    "source_id": "ChIJN3McatqOhkcRd1Bzz5AHqlY",
    "name": "Ag Plast Irrigation Srl",
    "category": "Ag Plast Irrigation Srl",
    "formatted_address": "5,0(3)",
    "phone_number": "+390331611846",
    "source_url": "https://www.google.com/maps/place/Ag+Plast+Irrigation+Srl/data=!4m7!3m6!1s0x47868eda6a1c7337:0x56aa0790cf735077!8m2!3d45.6666828!4d8.8878019!16s%2Fg%2F12jm3wfjk!19sChIJN3McatqOhkcRd1Bzz5AHqlY?authuser=0&hl=tr&rclk=1",
    "website_url": "http://agplastirrigation.it/",
    "rating_text": "5,0",
    "stars": null,
    "number_of_reviews": null,
    "price_level": "",
    "open_hours": "",
    "extraction_timestamp": "2025-06-07T15:58:01.671Z",
    "source_name": "google",
    "source_query": "Irrigation Equipment",
    "source_country": "IT",
    "country": "Italy",
    "state": "Emilia-Romagna",
    "city": "Castell'Arquato"
  },
  {
    "source_id": "ChIJC0LYzsXngEcR8g_5HSSzAko",
    "name": "Pulitecno",
    "category": "Pulitecno",
    "formatted_address": "5,0(5)",
    "phone_number": "+390523577811",
    "source_url": "https://www.google.com/maps/place/Pulitecno/data=!4m7!3m6!1s0x4780e7c5ced8420b:0x4a02b3241df90ff2!8m2!3d45.0483093!4d9.7294483!16s%2Fg%2F11fxwb60cv!19sChIJC0LYzsXngEcR8g_5HSSzAko?authuser=0&hl=tr&rclk=1",
    "website_url": "http://www.pulitecnosrl.it/",
    "rating_text": "5,0",
    "stars": null,
    "number_of_reviews": null,
    "price_level": "",
    "open_hours": "",
    "extraction_timestamp": "2025-06-07T15:58:01.672Z",
    "source_name": "google",
    "source_query": "Irrigation Equipment",
    "source_country": "IT",
    "country": "Italy",
    "state": "Emilia-Romagna",
    "city": "Castell'Arquato"
  },
  {
    "source_id": "ChIJ9V7VUGIbEQ4Rd0H8gwcDqwk",
    "name": "Mannino Sistemi Trattamento Acqua",
    "category": "Mannino Sistemi Trattamento Acqua",
    "formatted_address": "3,7(3)",
    "phone_number": "+393505784936",
    "source_url": "https://www.google.com/maps/place/Mannino+Sistemi+Trattamento+Acqua/data=!4m7!3m6!1s0xe111b6250d55ef5:0x9ab030783fc4177!8m2!3d45.0422201!4d9.6981487!16s%2Fg%2F11s33q_spp!19sChIJ9V7VUGIbEQ4Rd0H8gwcDqwk?authuser=0&hl=tr&rclk=1",
    "website_url": "http://www.manninodepurazione.it/",
    "rating_text": "3,7",
    "stars": null,
    "number_of_reviews": null,
    "price_level": "",
    "open_hours": "",
    "extraction_timestamp": "2025-06-07T15:58:01.672Z",
    "source_name": "google",
    "source_query": "Irrigation Equipment",
    "source_country": "IT",
    "country": "Italy",
    "state": "Emilia-Romagna",
    "city": "Castell'Arquato"
  },
  {
    "source_id": "ChIJcQG6ul7df0cR3VxKiu5OPBs",
    "name": "Scova Impianti Srl",
    "category": "Scova Impianti Srl",
    "formatted_address": "4,5(64)",
    "phone_number": "+39059923202",
    "source_url": "https://www.google.com/maps/place/Scova+Impianti+Srl/data=!4m7!3m6!1s0x477fdd5ebaba0171:0x1b3c4eee8a4a5cdd!8m2!3d44.6018135!4d11.032294!16s%2Fg%2F1tfzwbfb!19sChIJcQG6ul7df0cR3VxKiu5OPBs?authuser=0&hl=tr&rclk=1",
    "website_url": "https://www.scovaimpianti.com/",
    "rating_text": "4,5",
    "stars": null,
    "number_of_reviews": null,
    "price_level": "",
    "open_hours": "",
    "extraction_timestamp": "2025-06-07T15:58:01.672Z",
    "source_name": "google",
    "source_query": "Irrigation Equipment",
    "source_country": "IT",
    "country": "Italy",
    "state": "Emilia-Romagna",
    "city": "Castell'Arquato"
  },
  {
    "source_id": "ChIJJ6V6lMDgf0cR1SpFsfjDuHg",
    "name": "Ocmis Irrigazione Spa",
    "category": "Ocmis Irrigazione Spa",
    "formatted_address": "3,5(31)",
    "phone_number": "+39059702150",
    "source_url": "https://www.google.com/maps/place/Ocmis+Irrigazione+Spa/data=!4m7!3m6!1s0x477fe0c0947aa527:0x78b8c3f8b1452ad5!8m2!3d44.530494!4d10.9794578!16s%2Fg%2F1vd3tn19!19sChIJJ6V6lMDgf0cR1SpFsfjDuHg?authuser=0&hl=tr&rclk=1",
    "website_url": "http://www.ocmis-irrigazione.it/",
    "rating_text": "3,5",
    "stars": null,
    "number_of_reviews": null,
    "price_level": "",
    "open_hours": "",
    "extraction_timestamp": "2025-06-07T15:58:01.673Z",
    "source_name": "google",
    "source_query": "Irrigation Equipment",
    "source_country": "IT",
    "country": "Italy",
    "state": "Emilia-Romagna",
    "city": "Castell'Arquato"
  },
  {
    "source_id": "ChIJ-wPcHKnpgEcRYErDfUksad8",
    "name": "IRRIGARDEN PISCINE S.r.l.s.",
    "category": "IRRIGARDEN PISCINE S.r.l.s.",
    "formatted_address": "Yüzme Havuzu İşleri Yüklenicisi · Via Emilia Parmense, 148/HKapalı ⋅ Açılış zamanı: Pzt 08:30 · +39 335 716 6435",
    "phone_number": "+393357166435",
    "source_url": "https://www.google.com/maps/place/IRRIGARDEN+PISCINE+S.r.l.s./data=!4m7!3m6!1s0x4780e9a91cdc03fb:0xdf692c497dc34a60!8m2!3d45.0288519!4d9.7385134!16s%2Fg%2F11r9fb1llm!19sChIJ-wPcHKnpgEcRYErDfUksad8?authuser=0&hl=tr&rclk=1",
    "website_url": "https://www.irrigardenpiscine.it/",
    "rating_text": "",
    "stars": null,
    "number_of_reviews": null,
    "price_level": "",
    "open_hours": "",
    "extraction_timestamp": "2025-06-07T15:58:01.673Z",
    "source_name": "google",
    "source_query": "Irrigation Equipment",
    "source_country": "IT",
    "country": "Italy",
    "state": "Emilia-Romagna",
    "city": "Castell'Arquato"
  },
  {
    "source_id": "ChIJISlyN8fVfkcRP1ghb3uyg-o",
    "name": "Import Irrigation Systems S.R.L.",
    "category": "Import Irrigation Systems S.R.L.",
    "formatted_address": "Üretici ·  · Via Salvo d'Acquisto, 5Kapalı ⋅ Açılış zamanı: Pzt 08:30 · +39 049 559 1020",
    "phone_number": "+390495591020",
    "source_url": "https://www.google.com/maps/place/Import+Irrigation+Systems+S.R.L./data=!4m7!3m6!1s0x477ed5c737722921:0xea83b27b6f21583f!8m2!3d45.5362842!4d11.825368!16s%2Fg%2F1tsjchn3!19sChIJISlyN8fVfkcRP1ghb3uyg-o?authuser=0&hl=tr&rclk=1",
    "website_url": "http://www.importirrigation.com/",
    "rating_text": "",
    "stars": null,
    "number_of_reviews": null,
    "price_level": "",
    "open_hours": "",
    "extraction_timestamp": "2025-06-07T15:58:01.673Z",
    "source_name": "google",
    "source_query": "Irrigation Equipment",
    "source_country": "IT",
    "country": "Italy",
    "state": "Emilia-Romagna",
    "city": "Castell'Arquato"
  },
  {
    "source_id": "ChIJGVuRBn7ogEcRGBzIo3J6pT0",
    "name": "Hydra Water",
    "category": "Hydra Water",
    "formatted_address": "3,0(2)",
    "phone_number": "+390523497185",
    "source_url": "https://www.google.com/maps/place/Hydra+Water/data=!4m7!3m6!1s0x4780e87e06915b19:0x3da57a72a3c81c18!8m2!3d45.0303299!4d9.7363131!16s%2Fg%2F12hnfyhf1!19sChIJGVuRBn7ogEcRGBzIo3J6pT0?authuser=0&hl=tr&rclk=1",
    "website_url": "http://www.hydrawater.it/",
    "rating_text": "3,0",
    "stars": null,
    "number_of_reviews": null,
    "price_level": "",
    "open_hours": "",
    "extraction_timestamp": "2025-06-07T15:58:01.674Z",
    "source_name": "google",
    "source_query": "Irrigation Equipment",
    "source_country": "IT",
    "country": "Italy",
    "state": "Emilia-Romagna",
    "city": "Castell'Arquato"
  },
  {
    "source_id": "ChIJlUpit6XDgEcRmkVUxsETAUE",
    "name": "Conad Superstore - Supermarket",
    "category": "Conad Superstore - Supermarket",
    "formatted_address": "4,2(556)",
    "phone_number": "+390523806130",
    "source_url": "https://www.google.com/maps/place/Conad+Superstore+-+Supermarket/data=!4m7!3m6!1s0x4780c3a5b7624a95:0x410113c1c654459a!8m2!3d44.8596767!4d9.8835683!16s%2Fg%2F1vbl6fgj!19sChIJlUpit6XDgEcRmkVUxsETAUE?authuser=0&hl=tr&rclk=1",
    "website_url": "https://www.conad.it/ricerca-negozi/conad-superstore-via-castellana-snc-29014-castellarquato--006372",
    "rating_text": "4,2",
    "stars": null,
    "number_of_reviews": null,
    "price_level": "",
    "open_hours": "",
    "extraction_timestamp": "2025-06-07T15:58:01.674Z",
    "source_name": "google",
    "source_query": "Irrigation Equipment",
    "source_country": "IT",
    "country": "Italy",
    "state": "Emilia-Romagna",
    "city": "Castell'Arquato"
  },
  {
    "source_id": "ChIJkYmJKarcgEcRypXKQgrMaDs",
    "name": "Errebi Idropulitrici",
    "category": "Errebi Idropulitrici",
    "formatted_address": "5,0(5)",
    "phone_number": "+390523769257",
    "source_url": "https://www.google.com/maps/place/Errebi+Idropulitrici/data=!4m7!3m6!1s0x4780dcaa29898991:0x3b68cc0a42ca95ca!8m2!3d45.0495714!4d9.6069156!16s%2Fg%2F11cjpc_lx4!19sChIJkYmJKarcgEcRypXKQgrMaDs?authuser=0&hl=tr&rclk=1",
    "website_url": "",
    "rating_text": "5,0",
    "stars": null,
    "number_of_reviews": null,
    "price_level": "",
    "open_hours": "",
    "extraction_timestamp": "2025-06-07T15:58:01.674Z",
    "source_name": "google",
    "source_query": "Irrigation Equipment",
    "source_country": "IT",
    "country": "Italy",
    "state": "Emilia-Romagna",
    "city": "Castell'Arquato"
  },
  {
    "source_id": "ChIJURNsXunRgEcRmae-SVNqONs",
    "name": "IDROPAVESE SAS DI VARESI GIAMPAOLO E VARESI MARA",
    "category": "IDROPAVESE SAS DI VARESI GIAMPAOLO E VARESI MARA",
    "formatted_address": "4,2(17)",
    "phone_number": "+390523882596",
    "source_url": "https://www.google.com/maps/place/IDROPAVESE+SAS+DI+VARESI+GIAMPAOLO+E+VARESI+MARA/data=!4m7!3m6!1s0x4780d1e95e6c1351:0xdb386a5349bea799!8m2!3d45.0733425!4d9.4455294!16s%2Fg%2F11b6hssh7j!19sChIJURNsXunRgEcRmae-SVNqONs?authuser=0&hl=tr&rclk=1",
    "website_url": "http://www.idropavese.it/",
    "rating_text": "4,2",
    "stars": null,
    "number_of_reviews": null,
    "price_level": "",
    "open_hours": "",
    "extraction_timestamp": "2025-06-07T15:58:01.675Z",
    "source_name": "google",
    "source_query": "Irrigation Equipment",
    "source_country": "IT",
    "country": "Italy",
    "state": "Emilia-Romagna",
    "city": "Castell'Arquato"
  },
  {
    "source_id": "ChIJ8S_H450fgEcRen1BwvkupIc",
    "name": "Agro-system Snc di Bassoli - Piscine e Macchine giardino - Reggio Emilia",
    "category": "Agro-system Snc di Bassoli - Piscine e Macchine giardino - Reggio Emilia",
    "formatted_address": "4,6(88)",
    "phone_number": "+390522954100",
    "source_url": "https://www.google.com/maps/place/Agro-system+Snc+di+Bassoli+-+Piscine+e+Macchine+giardino+-+Reggio+Emilia/data=!4m7!3m6!1s0x47801f9de3c72ff1:0x87a42ef9c2417d7a!8m2!3d44.797091!4d10.686568!16s%2Fg%2F1tfb5f45!19sChIJ8S_H450fgEcRen1BwvkupIc?authuser=0&hl=tr&rclk=1",
    "website_url": "https://agrosystem.info/",
    "rating_text": "4,6",
    "stars": null,
    "number_of_reviews": null,
    "price_level": "",
    "open_hours": "",
    "extraction_timestamp": "2025-06-07T15:58:01.675Z",
    "source_name": "google",
    "source_query": "Irrigation Equipment",
    "source_country": "IT",
    "country": "Italy",
    "state": "Emilia-Romagna",
    "city": "Castell'Arquato"
  },
  {
    "source_id": "ChIJg8vqFtuMgEcRGtPiEc3idCQ",
    "name": "MD S.p.A.",
    "category": "MD S.p.A.",
    "formatted_address": "4,1(353)",
    "phone_number": "+393207861025",
    "source_url": "https://www.google.com/maps/place/MD+S.p.A./data=!4m7!3m6!1s0x47808cdb16eacb83:0x2474e2cd11e2d31a!8m2!3d44.8579026!4d9.8731212!16s%2Fg%2F12ll1bb91!19sChIJg8vqFtuMgEcRGtPiEc3idCQ?authuser=0&hl=tr&rclk=1",
    "website_url": "https://www.mdspa.it/punti-vendita/Emilia-Romagna/PC-Piacenza/11-CASTELL-ARQUATO",
    "rating_text": "4,1",
    "stars": null,
    "number_of_reviews": null,
    "price_level": "",
    "open_hours": "",
    "extraction_timestamp": "2025-06-07T15:58:01.675Z",
    "source_name": "google",
    "source_query": "Irrigation Equipment",
    "source_country": "IT",
    "country": "Italy",
    "state": "Emilia-Romagna",
    "city": "Castell'Arquato"
  },
  {
    "source_id": "ChIJS5MUhybdgEcR5VM0wd-wyo4",
    "name": "Assistenza impianti trattamento acqua Piacenza",
    "category": "Assistenza impianti trattamento acqua Piacenza",
    "formatted_address": "",
    "phone_number": "+393247707944",
    "source_url": "https://www.google.com/maps/place/Assistenza+impianti+trattamento+acqua+Piacenza/data=!4m7!3m6!1s0x4780dd268714934b:0x8ecab0dfc13453e5!8m2!3d45.0422201!4d9.6981487!16s%2Fg%2F11j4p_1f6m!19sChIJS5MUhybdgEcR5VM0wd-wyo4?authuser=0&hl=tr&rclk=1",
    "website_url": "",
    "rating_text": "",
    "stars": null,
    "number_of_reviews": null,
    "price_level": "",
    "open_hours": "",
    "extraction_timestamp": "2025-06-07T15:58:01.676Z",
    "source_name": "google",
    "source_query": "Irrigation Equipment",
    "source_country": "IT",
    "country": "Italy",
    "state": "Emilia-Romagna",
    "city": "Castell'Arquato"
  },
  {
    "source_id": "ChIJkZNIBCPdgEcR8lGWPEt6YFI",
    "name": "Eli",
    "category": "Eli",
    "formatted_address": "4,6(15)",
    "phone_number": "+390523489862",
    "source_url": "https://www.google.com/maps/place/Eli/data=!4m7!3m6!1s0x4780dd2304489391:0x52607a4b3c9651f2!8m2!3d45.0568157!4d9.6615652!16s%2Fg%2F1pty1hzpt!19sChIJkZNIBCPdgEcR8lGWPEt6YFI?authuser=0&hl=tr&rclk=1",
    "website_url": "https://www.eliprodottiindustriali.com/",
    "rating_text": "4,6",
    "stars": null,
    "number_of_reviews": null,
    "price_level": "",
    "open_hours": "",
    "extraction_timestamp": "2025-06-07T15:58:01.676Z",
    "source_name": "google",
    "source_query": "Irrigation Equipment",
    "source_country": "IT",
    "country": "Italy",
    "state": "Emilia-Romagna",
    "city": "Castell'Arquato"
  },
  {
    "source_id": "ChIJ-Z_RHvbnf0cRry0jCm7Q5GQ",
    "name": "Scova Impianti",
    "category": "Scova Impianti",
    "formatted_address": "4,0(4)",
    "phone_number": "+39059925910",
    "source_url": "https://www.google.com/maps/place/Scova+Impianti/data=!4m7!3m6!1s0x477fe7f61ed19ff9:0x64e4d06e0a232daf!8m2!3d44.6018937!4d11.0315223!16s%2Fg%2F1td6wznv!19sChIJ-Z_RHvbnf0cRry0jCm7Q5GQ?authuser=0&hl=tr&rclk=1",
    "website_url": "https://scovaimpianti.com/",
    "rating_text": "4,0",
    "stars": null,
    "number_of_reviews": null,
    "price_level": "",
    "open_hours": "",
    "extraction_timestamp": "2025-06-07T15:58:01.676Z",
    "source_name": "google",
    "source_query": "Irrigation Equipment",
    "source_country": "IT",
    "country": "Italy",
    "state": "Emilia-Romagna",
    "city": "Castell'Arquato"
  }
]
