[
  {
    "source_id": "ChIJzcwu6cXgLBMRTq6p_64Coac",
    "name": "Cambielli S.p.A.",
    "category": "Cambielli S.p.A.",
    "formatted_address": "4,8(9)",
    "phone_number": "+390541831711",
    "source_url": "https://www.google.com/maps/place/Cambielli+S.p.A./data=!4m7!3m6!1s0x132ce0c5e92ecccd:0xa7a102aeffa9ae4e!8m2!3d43.9636766!4d12.7172452!16s%2Fg%2F11b6jh19bc!19sChIJzcwu6cXgLBMRTq6p_64Coac?authuser=0&hl=tr&rclk=1",
    "website_url": "",
    "rating_text": "4,8",
    "stars": null,
    "number_of_reviews": null,
    "price_level": "",
    "open_hours": "",
    "extraction_timestamp": "2025-06-07T15:58:55.396Z",
    "source_name": "google",
    "source_query": "Irrigation Equipment",
    "source_country": "IT",
    "country": "Italy",
    "state": "Emilia-Romagna",
    "city": "Cattolica"
  },
  {
    "source_id": "ChIJa_gbLo3gLBMRoe0EyWZDrNw",
    "name": "Bernabè Group Srl",
    "category": "Bernabè Group Srl",
    "formatted_address": "3,9(40)",
    "phone_number": "+390541962915",
    "source_url": "https://www.google.com/maps/place/Bernab%C3%A8+Group+Srl/data=!4m7!3m6!1s0x132ce08d2e1bf86b:0xdcac4366c904eda1!8m2!3d43.9651008!4d12.7189378!16s%2Fg%2F1hc2l3_nh!19sChIJa_gbLo3gLBMRoe0EyWZDrNw?authuser=0&hl=tr&rclk=1",
    "website_url": "",
    "rating_text": "3,9",
    "stars": null,
    "number_of_reviews": null,
    "price_level": "",
    "open_hours": "",
    "extraction_timestamp": "2025-06-07T15:58:55.398Z",
    "source_name": "google",
    "source_query": "Irrigation Equipment",
    "source_country": "IT",
    "country": "Italy",
    "state": "Emilia-Romagna",
    "city": "Cattolica"
  },
  {
    "source_id": "ChIJ1z1SlS3hLBMRvMocWLfQnyk",
    "name": "TDM Vernici Ferramenta e Tutto per la Nautica",
    "category": "TDM Vernici Ferramenta e Tutto per la Nautica",
    "formatted_address": "4,7(90)",
    "phone_number": "+390541207875",
    "source_url": "https://www.google.com/maps/place/TDM+Vernici+Ferramenta+e+Tutto+per+la+Nautica/data=!4m7!3m6!1s0x132ce12d95523dd7:0x299fd0b7581ccabc!8m2!3d43.9627813!4d12.7409905!16s%2Fg%2F11fv4n2629!19sChIJ1z1SlS3hLBMRvMocWLfQnyk?authuser=0&hl=tr&rclk=1",
    "website_url": "",
    "rating_text": "4,7",
    "stars": null,
    "number_of_reviews": null,
    "price_level": "",
    "open_hours": "",
    "extraction_timestamp": "2025-06-07T15:58:55.400Z",
    "source_name": "google",
    "source_query": "Irrigation Equipment",
    "source_country": "IT",
    "country": "Italy",
    "state": "Emilia-Romagna",
    "city": "Cattolica"
  },
  {
    "source_id": "ChIJ9X_DI6LDLBMR84MeChQNUCU",
    "name": "Irriverde - Il Paesaggio S.r.l.",
    "category": "Irriverde - Il Paesaggio S.r.l.",
    "formatted_address": "4,8(15)",
    "phone_number": "+393939275801",
    "source_url": "https://www.google.com/maps/place/Irriverde+-+Il+Paesaggio+S.r.l./data=!4m7!3m6!1s0x132cc3a223c37ff5:0x25500d140a1e83f3!8m2!3d43.982224!4d12.5281091!16s%2Fg%2F1ptz65rjr!19sChIJ9X_DI6LDLBMR84MeChQNUCU?authuser=0&hl=tr&rclk=1",
    "website_url": "",
    "rating_text": "4,8",
    "stars": null,
    "number_of_reviews": null,
    "price_level": "",
    "open_hours": "",
    "extraction_timestamp": "2025-06-07T15:58:55.401Z",
    "source_name": "google",
    "source_query": "Irrigation Equipment",
    "source_country": "IT",
    "country": "Italy",
    "state": "Emilia-Romagna",
    "city": "Cattolica"
  },
  {
    "source_id": "ChIJx76jUe7gLBMRvgQMARaO3Us",
    "name": "Arturo Mancini - Showroom Arredo Bagno Cattolica",
    "category": "Arturo Mancini - Showroom Arredo Bagno Cattolica",
    "formatted_address": "4,3(8)",
    "phone_number": "+390541834962",
    "source_url": "https://www.google.com/maps/place/Arturo+Mancini+-+Showroom+Arredo+Bagno+Cattolica/data=!4m7!3m6!1s0x132ce0ee51a3bec7:0x4bdd8e16010c04be!8m2!3d43.9606446!4d12.7456914!16s%2Fg%2F11clkvpzpg!19sChIJx76jUe7gLBMRvgQMARaO3Us?authuser=0&hl=tr&rclk=1",
    "website_url": "",
    "rating_text": "4,3",
    "stars": null,
    "number_of_reviews": null,
    "price_level": "",
    "open_hours": "",
    "extraction_timestamp": "2025-06-07T15:58:55.403Z",
    "source_name": "google",
    "source_query": "Irrigation Equipment",
    "source_country": "IT",
    "country": "Italy",
    "state": "Emilia-Romagna",
    "city": "Cattolica"
  },
  {
    "source_id": "ChIJO2MmnMrgLBMRLPL9cXpv1vk",
    "name": "MTO Nautica - Vendita Attrezzature e Articoli per la Nautica",
    "category": "MTO Nautica - Vendita Attrezzature e Articoli per la Nautica",
    "formatted_address": "4,7(82)",
    "phone_number": "+390541613760",
    "source_url": "https://www.google.com/maps/place/MTO+Nautica+-+Vendita+Attrezzature+e+Articoli+per+la+Nautica/data=!4m7!3m6!1s0x132ce0ca9c26633b:0xf9d66f7a71fdf22c!8m2!3d43.9484802!4d12.7406182!16s%2Fg%2F1q62h6k9s!19sChIJO2MmnMrgLBMRLPL9cXpv1vk?authuser=0&hl=tr&rclk=1",
    "website_url": "",
    "rating_text": "4,7",
    "stars": null,
    "number_of_reviews": null,
    "price_level": "",
    "open_hours": "",
    "extraction_timestamp": "2025-06-07T15:58:55.404Z",
    "source_name": "google",
    "source_query": "Irrigation Equipment",
    "source_country": "IT",
    "country": "Italy",
    "state": "Emilia-Romagna",
    "city": "Cattolica"
  },
  {
    "source_id": "ChIJeemH-uHgLBMRJKMw6W-TAwQ",
    "name": "Cicai Arcobaleno Magazzino Cattolica",
    "category": "Cicai Arcobaleno Magazzino Cattolica",
    "formatted_address": "4,2(12)",
    "phone_number": "+390541950619",
    "source_url": "https://www.google.com/maps/place/Cicai+Arcobaleno+Magazzino+Cattolica/data=!4m7!3m6!1s0x132ce0e1fa87e979:0x403936fe930a324!8m2!3d43.949602!4d12.7418312!16s%2Fg%2F11g3ytyjrj!19sChIJeemH-uHgLBMRJKMw6W-TAwQ?authuser=0&hl=tr&rclk=1",
    "website_url": "",
    "rating_text": "4,2",
    "stars": null,
    "number_of_reviews": null,
    "price_level": "",
    "open_hours": "",
    "extraction_timestamp": "2025-06-07T15:58:55.406Z",
    "source_name": "google",
    "source_query": "Irrigation Equipment",
    "source_country": "IT",
    "country": "Italy",
    "state": "Emilia-Romagna",
    "city": "Cattolica"
  },
  {
    "source_id": "ChIJs5y_0evgLBMR7k_vU8M67sQ",
    "name": "Spinnaker The Sport Of Tombari Rosanna",
    "category": "Spinnaker The Sport Of Tombari Rosanna",
    "formatted_address": "4,6(137)",
    "phone_number": "+390541968338",
    "source_url": "https://www.google.com/maps/place/Spinnaker+The+Sport+Of+Tombari+Rosanna/data=!4m7!3m6!1s0x132ce0ebd1bf9cb3:0xc4ee3ac353ef4fee!8m2!3d43.963594!4d12.7394498!16s%2Fg%2F1tdv96mb!19sChIJs5y_0evgLBMR7k_vU8M67sQ?authuser=0&hl=tr&rclk=1",
    "website_url": "",
    "rating_text": "4,6",
    "stars": null,
    "number_of_reviews": null,
    "price_level": "",
    "open_hours": "",
    "extraction_timestamp": "2025-06-07T15:58:55.407Z",
    "source_name": "google",
    "source_query": "Irrigation Equipment",
    "source_country": "IT",
    "country": "Italy",
    "state": "Emilia-Romagna",
    "city": "Cattolica"
  },
  {
    "source_id": "ChIJ6Sr8LSfhLBMRfEMyumrFJa4",
    "name": "Water And Wind Di Roberto Fabbri",
    "category": "Water And Wind Di Roberto Fabbri",
    "formatted_address": "4,7(15)",
    "phone_number": "+393389914066",
    "source_url": "https://www.google.com/maps/place/Water+And+Wind+Di+Roberto+Fabbri/data=!4m7!3m6!1s0x132ce1272dfc2ae9:0xae25c56aba32437c!8m2!3d43.949533!4d12.7312155!16s%2Fg%2F1tjbbfb6!19sChIJ6Sr8LSfhLBMRfEMyumrFJa4?authuser=0&hl=tr&rclk=1",
    "website_url": "",
    "rating_text": "4,7",
    "stars": null,
    "number_of_reviews": null,
    "price_level": "",
    "open_hours": "",
    "extraction_timestamp": "2025-06-07T15:58:55.409Z",
    "source_name": "google",
    "source_query": "Irrigation Equipment",
    "source_country": "IT",
    "country": "Italy",
    "state": "Emilia-Romagna",
    "city": "Cattolica"
  },
  {
    "source_id": "ChIJkfrcYungLBMRoOcIVjOxTn8",
    "name": "Ferramenta Venturini",
    "category": "Ferramenta Venturini",
    "formatted_address": "4,3(70)",
    "phone_number": "+390541960906",
    "source_url": "https://www.google.com/maps/place/Ferramenta+Venturini/data=!4m7!3m6!1s0x132ce0e962dcfa91:0x7f4eb1335608e7a0!8m2!3d43.9631102!4d12.740171!16s%2Fg%2F11cjj13n2d!19sChIJkfrcYungLBMRoOcIVjOxTn8?authuser=0&hl=tr&rclk=1",
    "website_url": "",
    "rating_text": "4,3",
    "stars": null,
    "number_of_reviews": null,
    "price_level": "",
    "open_hours": "",
    "extraction_timestamp": "2025-06-07T15:58:55.410Z",
    "source_name": "google",
    "source_query": "Irrigation Equipment",
    "source_country": "IT",
    "country": "Italy",
    "state": "Emilia-Romagna",
    "city": "Cattolica"
  },
  {
    "source_id": "ChIJfQaL4vXgLBMRPCnmgz2MxS4",
    "name": "Idrotermica Malatestiana Srl",
    "category": "Idrotermica Malatestiana Srl",
    "formatted_address": "4,1(9)",
    "phone_number": "+3905411731015",
    "source_url": "https://www.google.com/maps/place/Idrotermica+Malatestiana+Srl/data=!4m7!3m6!1s0x132ce0f5e28b067d:0x2ec58c3d83e6293c!8m2!3d43.9611886!4d12.7583833!16s%2Fg%2F11b7w6953n!19sChIJfQaL4vXgLBMRPCnmgz2MxS4?authuser=0&hl=tr&rclk=1",
    "website_url": "",
    "rating_text": "4,1",
    "stars": null,
    "number_of_reviews": null,
    "price_level": "",
    "open_hours": "",
    "extraction_timestamp": "2025-06-07T15:58:55.412Z",
    "source_name": "google",
    "source_query": "Irrigation Equipment",
    "source_country": "IT",
    "country": "Italy",
    "state": "Emilia-Romagna",
    "city": "Cattolica"
  },
  {
    "source_id": "ChIJUfge4C3hLBMRZKqP7kVybkg",
    "name": "Tansport - Football Specialist San Giovanni in Marignano (RN)",
    "category": "Tansport - Football Specialist San Giovanni in Marignano (RN)",
    "formatted_address": "4,7(150)",
    "phone_number": "+390541956654",
    "source_url": "https://www.google.com/maps/place/Tansport+-+Football+Specialist+San+Giovanni+in+Marignano+%28RN%29/data=!4m7!3m6!1s0x132ce12de01ef851:0x486e7245ee8faa64!8m2!3d43.9432287!4d12.7180192!16s%2Fg%2F1tvdxpst!19sChIJUfge4C3hLBMRZKqP7kVybkg?authuser=0&hl=tr&rclk=1",
    "website_url": "",
    "rating_text": "4,7",
    "stars": null,
    "number_of_reviews": null,
    "price_level": "",
    "open_hours": "",
    "extraction_timestamp": "2025-06-07T15:58:55.414Z",
    "source_name": "google",
    "source_query": "Irrigation Equipment",
    "source_country": "IT",
    "country": "Italy",
    "state": "Emilia-Romagna",
    "city": "Cattolica"
  },
  {
    "source_id": "ChIJr7MwqIHhLBMRBA8xrCI7Fk4",
    "name": "Idrotech snc \"Termoidraulica e condizionamento\"",
    "category": "Idrotech snc \"Termoidraulica e condizionamento\"",
    "formatted_address": "Tesisatçı · Via Emilia Romagna, 178Kapalı ⋅ Açılış zamanı: Pzt 08:00 · +39 333 281 1644",
    "phone_number": "+393332811644",
    "source_url": "https://www.google.com/maps/place/Idrotech+snc+%22Termoidraulica+e+condizionamento%22/data=!4m7!3m6!1s0x132ce181a830b3af:0x4e163b22ac310f04!8m2!3d43.9642763!4d12.7260622!16s%2Fg%2F11jznvj247!19sChIJr7MwqIHhLBMRBA8xrCI7Fk4?authuser=0&hl=tr&rclk=1",
    "website_url": "",
    "rating_text": "",
    "stars": null,
    "number_of_reviews": null,
    "price_level": "",
    "open_hours": "",
    "extraction_timestamp": "2025-06-07T15:58:55.416Z",
    "source_name": "google",
    "source_query": "Irrigation Equipment",
    "source_country": "IT",
    "country": "Italy",
    "state": "Emilia-Romagna",
    "city": "Cattolica"
  },
  {
    "source_id": "ChIJNTOd4cLgLBMR9tmqqlRPnCI",
    "name": "Benzi Big Game Fishing Di Benzi Enrico",
    "category": "Benzi Big Game Fishing Di Benzi Enrico",
    "formatted_address": "4,6(88)",
    "phone_number": "+390541952293",
    "source_url": "https://www.google.com/maps/place/Benzi+Big+Game+Fishing+Di+Benzi+Enrico/data=!4m7!3m6!1s0x132ce0c2e19d3335:0x229c4f54aaaad9f6!8m2!3d43.9605365!4d12.7335946!16s%2Fg%2F1thlqhv0!19sChIJNTOd4cLgLBMR9tmqqlRPnCI?authuser=0&hl=tr&rclk=1",
    "website_url": "",
    "rating_text": "4,6",
    "stars": null,
    "number_of_reviews": null,
    "price_level": "",
    "open_hours": "",
    "extraction_timestamp": "2025-06-07T15:58:55.417Z",
    "source_name": "google",
    "source_query": "Irrigation Equipment",
    "source_country": "IT",
    "country": "Italy",
    "state": "Emilia-Romagna",
    "city": "Cattolica"
  },
  {
    "source_id": "ChIJ-XPWVjvqLBMRlThQNFhJ-Lc",
    "name": "Celli S.p.A.",
    "category": "Celli S.p.A.",
    "formatted_address": "3,4(13)",
    "phone_number": "+390541755211",
    "source_url": "https://www.google.com/maps/place/Celli+S.p.A./data=!4m7!3m6!1s0x132cea3b56d673f9:0xb7f8495834503895!8m2!3d43.9447435!4d12.7311753!16s%2Fg%2F1yf4rf7gf!19sChIJ-XPWVjvqLBMRlThQNFhJ-Lc?authuser=0&hl=tr&rclk=1",
    "website_url": "",
    "rating_text": "3,4",
    "stars": null,
    "number_of_reviews": null,
    "price_level": "",
    "open_hours": "",
    "extraction_timestamp": "2025-06-07T15:58:55.419Z",
    "source_name": "google",
    "source_query": "Irrigation Equipment",
    "source_country": "IT",
    "country": "Italy",
    "state": "Emilia-Romagna",
    "city": "Cattolica"
  },
  {
    "source_id": "ChIJh5IqmvfgLBMRuW45-fGkI9g",
    "name": "Bricocenter",
    "category": "Bricocenter",
    "formatted_address": "4,4(39)",
    "phone_number": "+390541960115",
    "source_url": "https://www.google.com/maps/place/Bricocenter/data=!4m7!3m6!1s0x132ce0f79a2a9287:0xd823a4f1f9396eb9!8m2!3d43.9574949!4d12.7568354!16s%2Fg%2F11b6ctbqr7!19sChIJh5IqmvfgLBMRuW45-fGkI9g?authuser=0&hl=tr&rclk=1",
    "website_url": "",
    "rating_text": "4,4",
    "stars": null,
    "number_of_reviews": null,
    "price_level": "",
    "open_hours": "",
    "extraction_timestamp": "2025-06-07T15:58:55.437Z",
    "source_name": "google",
    "source_query": "Irrigation Equipment",
    "source_country": "IT",
    "country": "Italy",
    "state": "Emilia-Romagna",
    "city": "Cattolica"
  },
  {
    "source_id": "ChIJH-eHri7hLBMRT_jsrRJxn6Q",
    "name": "Bricocenter",
    "category": "Bricocenter",
    "formatted_address": "4,1(1.084)",
    "phone_number": "+390541827273",
    "source_url": "https://www.google.com/maps/place/Bricocenter/data=!4m7!3m6!1s0x132ce12eae87e71f:0xa49f7112adecf84f!8m2!3d43.9460181!4d12.7202233!16s%2Fg%2F11b6cp583b!19sChIJH-eHri7hLBMRT_jsrRJxn6Q?authuser=0&hl=tr&rclk=1",
    "website_url": "",
    "rating_text": "4,1",
    "stars": null,
    "number_of_reviews": null,
    "price_level": "",
    "open_hours": "",
    "extraction_timestamp": "2025-06-07T15:58:55.440Z",
    "source_name": "google",
    "source_query": "Irrigation Equipment",
    "source_country": "IT",
    "country": "Italy",
    "state": "Emilia-Romagna",
    "city": "Cattolica"
  },
  {
    "source_id": "ChIJo-iRp6nhLBMRQrPEJ-8GYd8",
    "name": "Ok Clima Mastrangelo",
    "category": "Ok Clima Mastrangelo",
    "formatted_address": "5,0(1)",
    "phone_number": "+393285921198",
    "source_url": "https://www.google.com/maps/place/Ok+Clima+Mastrangelo/data=!4m7!3m6!1s0x132ce1a9a791e8a3:0xdf6106ef27c4b342!8m2!3d43.9489385!4d12.7428722!16s%2Fg%2F11ssd8bcm_!19sChIJo-iRp6nhLBMRQrPEJ-8GYd8?authuser=0&hl=tr&rclk=1",
    "website_url": "",
    "rating_text": "5,0",
    "stars": null,
    "number_of_reviews": null,
    "price_level": "",
    "open_hours": "",
    "extraction_timestamp": "2025-06-07T15:58:55.441Z",
    "source_name": "google",
    "source_query": "Irrigation Equipment",
    "source_country": "IT",
    "country": "Italy",
    "state": "Emilia-Romagna",
    "city": "Cattolica"
  }
]
