[
  {
    "source_id": "ChIJBZox8AWUf0cRl9t8zvldurw",
    "name": "B-EMME srl Oleodinamica Meccanica - Cavezzo - Modena",
    "category": "B-EMME srl Oleodinamica Meccanica - Cavezzo - Modena",
    "formatted_address": "5,0(3)",
    "phone_number": "+39053558368",
    "source_url": "https://www.google.com/maps/place/B-EMME+srl+Oleodinamica+Meccanica+-+Cavezzo+-+Modena/data=!4m7!3m6!1s0x477f9405f0319a05:0xbcba5df9ce7cdb97!8m2!3d44.8311424!4d11.0331211!16s%2Fg%2F1v299w0y!19sChIJBZox8AWUf0cRl9t8zvldurw?authuser=0&hl=tr&rclk=1",
    "website_url": "http://www.b-emmesrl.it/",
    "rating_text": "5,0",
    "stars": null,
    "number_of_reviews": null,
    "price_level": "",
    "open_hours": "",
    "extraction_timestamp": "2025-06-07T15:43:52.836Z",
    "source_name": "google",
    "source_query": "Irrigation Equipment",
    "source_country": "IT",
    "country": "Italy",
    "state": "Emilia-Romagna",
    "city": "Cavezzo"
  },
  {
    "source_id": "ChIJcQG6ul7df0cR3VxKiu5OPBs",
    "name": "Scova Impianti Srl",
    "category": "Scova Impianti Srl",
    "formatted_address": "4,5(64)",
    "phone_number": "+39059923202",
    "source_url": "https://www.google.com/maps/place/Scova+Impianti+Srl/data=!4m7!3m6!1s0x477fdd5ebaba0171:0x1b3c4eee8a4a5cdd!8m2!3d44.6018135!4d11.032294!16s%2Fg%2F1tfzwbfb!19sChIJcQG6ul7df0cR3VxKiu5OPBs?authuser=0&hl=tr&rclk=1",
    "website_url": "https://www.scovaimpianti.com/",
    "rating_text": "4,5",
    "stars": null,
    "number_of_reviews": null,
    "price_level": "",
    "open_hours": "",
    "extraction_timestamp": "2025-06-07T15:43:52.837Z",
    "source_name": "google",
    "source_query": "Irrigation Equipment",
    "source_country": "IT",
    "country": "Italy",
    "state": "Emilia-Romagna",
    "city": "Cavezzo"
  },
  {
    "source_id": "ChIJRy-YkL-Tf0cR8canewVPqOU",
    "name": "Fa. Ma. Giardinaggio di Lugli I. & C. snc - Husqvarna Professional",
    "category": "Fa. Ma. Giardinaggio di Lugli I. & C. snc - Husqvarna Professional",
    "formatted_address": "4,7(95)",
    "phone_number": "+39053558375",
    "source_url": "https://www.google.com/maps/place/Fa.+Ma.+Giardinaggio+di+Lugli+I.+%26+C.+snc+-+Husqvarna+Professional/data=!4m7!3m6!1s0x477f93bf90982f47:0xe5a84f057ba7c6f1!8m2!3d44.8234107!4d10.9973813!16s%2Fg%2F1tg5ygw2!19sChIJRy-YkL-Tf0cR8canewVPqOU?authuser=0&hl=tr&rclk=1",
    "website_url": "https://www.giardinaggiofama.it/",
    "rating_text": "4,7",
    "stars": null,
    "number_of_reviews": null,
    "price_level": "",
    "open_hours": "",
    "extraction_timestamp": "2025-06-07T15:43:52.839Z",
    "source_name": "google",
    "source_query": "Irrigation Equipment",
    "source_country": "IT",
    "country": "Italy",
    "state": "Emilia-Romagna",
    "city": "Cavezzo"
  },
  {
    "source_id": "ChIJxwExrQWUf0cRHKhr0kL7Zyc",
    "name": "Sistemi Digitali srl",
    "category": "Sistemi Digitali srl",
    "formatted_address": "4,7(9)",
    "phone_number": "+39053549389",
    "source_url": "https://www.google.com/maps/place/Sistemi+Digitali+srl/data=!4m7!3m6!1s0x477f9405ad3101c7:0x2767fb42d26ba81c!8m2!3d44.83278!4d11.0354545!16s%2Fg%2F11clsqmn2z!19sChIJxwExrQWUf0cRHKhr0kL7Zyc?authuser=0&hl=tr&rclk=1",
    "website_url": "http://www.sistemidigitali.it/",
    "rating_text": "4,7",
    "stars": null,
    "number_of_reviews": null,
    "price_level": "",
    "open_hours": "",
    "extraction_timestamp": "2025-06-07T15:43:52.840Z",
    "source_name": "google",
    "source_query": "Irrigation Equipment",
    "source_country": "IT",
    "country": "Italy",
    "state": "Emilia-Romagna",
    "city": "Cavezzo"
  },
  {
    "source_id": "ChIJNaI-bgiUf0cR7CgOK4_2Mjs",
    "name": "Agrizoo San Felice Srl",
    "category": "Agrizoo San Felice Srl",
    "formatted_address": "4,4(253)",
    "phone_number": "+39053546853",
    "source_url": "https://www.google.com/maps/place/Agrizoo+San+Felice+Srl/data=!4m7!3m6!1s0x477f94086e3ea235:0x3b32f68f2b0e28ec!8m2!3d44.8309699!4d11.0239519!16s%2Fg%2F1tdz883b!19sChIJNaI-bgiUf0cR7CgOK4_2Mjs?authuser=0&hl=tr&rclk=1",
    "website_url": "",
    "rating_text": "4,4",
    "stars": null,
    "number_of_reviews": null,
    "price_level": "",
    "open_hours": "",
    "extraction_timestamp": "2025-06-07T15:43:52.842Z",
    "source_name": "google",
    "source_query": "Irrigation Equipment",
    "source_country": "IT",
    "country": "Italy",
    "state": "Emilia-Romagna",
    "city": "Cavezzo"
  },
  {
    "source_id": "ChIJGQkuu-WOf0cRUeH0aQjIVCA",
    "name": "Andreoli Engineering Srl",
    "category": "Andreoli Engineering Srl",
    "formatted_address": "4,8(39)",
    "phone_number": "+39059670164",
    "source_url": "https://www.google.com/maps/place/Andreoli+Engineering+Srl/data=!4m7!3m6!1s0x477f8ee5bb2e0919:0x2054c80869f4e151!8m2!3d44.8900794!4d10.8964681!16s%2Fg%2F11b6hwm6m0!19sChIJGQkuu-WOf0cRUeH0aQjIVCA?authuser=0&hl=tr&rclk=1",
    "website_url": "https://www.andreoliengineering.it/",
    "rating_text": "4,8",
    "stars": null,
    "number_of_reviews": null,
    "price_level": "",
    "open_hours": "",
    "extraction_timestamp": "2025-06-07T15:43:52.843Z",
    "source_name": "google",
    "source_query": "Irrigation Equipment",
    "source_country": "IT",
    "country": "Italy",
    "state": "Emilia-Romagna",
    "city": "Cavezzo"
  },
  {
    "source_id": "ChIJJ6V6lMDgf0cR1SpFsfjDuHg",
    "name": "Ocmis Irrigazione Spa",
    "category": "Ocmis Irrigazione Spa",
    "formatted_address": "3,5(31)",
    "phone_number": "+39059702150",
    "source_url": "https://www.google.com/maps/place/Ocmis+Irrigazione+Spa/data=!4m7!3m6!1s0x477fe0c0947aa527:0x78b8c3f8b1452ad5!8m2!3d44.530494!4d10.9794578!16s%2Fg%2F1vd3tn19!19sChIJJ6V6lMDgf0cR1SpFsfjDuHg?authuser=0&hl=tr&rclk=1",
    "website_url": "http://www.ocmis-irrigazione.it/",
    "rating_text": "3,5",
    "stars": null,
    "number_of_reviews": null,
    "price_level": "",
    "open_hours": "",
    "extraction_timestamp": "2025-06-07T15:43:52.844Z",
    "source_name": "google",
    "source_query": "Irrigation Equipment",
    "source_country": "IT",
    "country": "Italy",
    "state": "Emilia-Romagna",
    "city": "Cavezzo"
  },
  {
    "source_id": "ChIJMwAKfFWRf0cR_AJeqtFJjMI",
    "name": "Rp Termoidraulica Di Roberto Parenti",
    "category": "Rp Termoidraulica Di Roberto Parenti",
    "formatted_address": "4,9(15)",
    "phone_number": "+39053559240",
    "source_url": "https://www.google.com/maps/place/Rp+Termoidraulica+Di+Roberto+Parenti/data=!4m7!3m6!1s0x477f91557c0a0033:0xc28c49d1aa5e02fc!8m2!3d44.8409906!4d11.0278853!16s%2Fg%2F1vvdt1h8!19sChIJMwAKfFWRf0cR_AJeqtFJjMI?authuser=0&hl=tr&rclk=1",
    "website_url": "",
    "rating_text": "4,9",
    "stars": null,
    "number_of_reviews": null,
    "price_level": "",
    "open_hours": "",
    "extraction_timestamp": "2025-06-07T15:43:52.845Z",
    "source_name": "google",
    "source_query": "Irrigation Equipment",
    "source_country": "IT",
    "country": "Italy",
    "state": "Emilia-Romagna",
    "city": "Cavezzo"
  },
  {
    "source_id": "ChIJtdJC5j6Zf0cRmmVcuMyNEW0",
    "name": "Tadei | Impianti irrigazione | Robot tagliaerba | Barbecue | Outdoor",
    "category": "Tadei | Impianti irrigazione | Robot tagliaerba | Barbecue | Outdoor",
    "formatted_address": "4,6(69)",
    "phone_number": "+390386733460",
    "source_url": "https://www.google.com/maps/place/Tadei+%7C+Impianti+irrigazione+%7C+Robot+tagliaerba+%7C+Barbecue+%7C+Outdoor/data=!4m7!3m6!1s0x477f993ee642d2b5:0x6d118dccb85c659a!8m2!3d44.9680645!4d11.1076526!16s%2Fg%2F113dpgnd_!19sChIJtdJC5j6Zf0cRmmVcuMyNEW0?authuser=0&hl=tr&rclk=1",
    "website_url": "https://www.irrigazionetadei.it/",
    "rating_text": "4,6",
    "stars": null,
    "number_of_reviews": null,
    "price_level": "",
    "open_hours": "",
    "extraction_timestamp": "2025-06-07T15:43:52.847Z",
    "source_name": "google",
    "source_query": "Irrigation Equipment",
    "source_country": "IT",
    "country": "Italy",
    "state": "Emilia-Romagna",
    "city": "Cavezzo"
  },
  {
    "source_id": "ChIJqdtsqMTaf0cRFSqvzNBB5Tw",
    "name": "Ricchetti Irrigazione Snc Di Alberghini Paolo E C.",
    "category": "Ricchetti Irrigazione Snc Di Alberghini Paolo E C.",
    "formatted_address": "4,9(31)",
    "phone_number": "+39051950115",
    "source_url": "https://www.google.com/maps/place/Ricchetti+Irrigazione+Snc+Di+Alberghini+Paolo+E+C./data=!4m7!3m6!1s0x477fdac4a86cdba9:0x3ce541d0ccaf2a15!8m2!3d44.5883369!4d11.1803569!16s%2Fg%2F1vfn5hgh!19sChIJqdtsqMTaf0cRFSqvzNBB5Tw?authuser=0&hl=tr&rclk=1",
    "website_url": "http://www.ricchetti-irrigatori.it/",
    "rating_text": "4,9",
    "stars": null,
    "number_of_reviews": null,
    "price_level": "",
    "open_hours": "",
    "extraction_timestamp": "2025-06-07T15:43:52.847Z",
    "source_name": "google",
    "source_query": "Irrigation Equipment",
    "source_country": "IT",
    "country": "Italy",
    "state": "Emilia-Romagna",
    "city": "Cavezzo"
  },
  {
    "source_id": "ChIJE_3jOnMtfkcRkxtTFj3Ym9E",
    "name": "Irrigation Scarabelli Srl",
    "category": "Irrigation Scarabelli Srl",
    "formatted_address": "4,5(23)",
    "phone_number": "+39051763363",
    "source_url": "https://www.google.com/maps/place/Irrigation+Scarabelli+Srl/data=!4m7!3m6!1s0x477e2d733ae3fd13:0xd19bd83d16531b93!8m2!3d44.5426053!4d11.4189136!16s%2Fg%2F11gzdz6vf!19sChIJE_3jOnMtfkcRkxtTFj3Ym9E?authuser=0&hl=tr&rclk=1",
    "website_url": "",
    "rating_text": "4,5",
    "stars": null,
    "number_of_reviews": null,
    "price_level": "",
    "open_hours": "",
    "extraction_timestamp": "2025-06-07T15:43:52.848Z",
    "source_name": "google",
    "source_query": "Irrigation Equipment",
    "source_country": "IT",
    "country": "Italy",
    "state": "Emilia-Romagna",
    "city": "Cavezzo"
  },
  {
    "source_id": "ChIJX-FQ-ROUf0cR37UjEivjIfY",
    "name": "Zavatti Erus S.R.L.",
    "category": "Zavatti Erus S.R.L.",
    "formatted_address": "4,7(3)",
    "phone_number": "+39053558371",
    "source_url": "https://www.google.com/maps/place/Zavatti+Erus+S.R.L./data=!4m7!3m6!1s0x477f9413f950e15f:0xf621e32b1223b5df!8m2!3d44.8246918!4d11.0417148!16s%2Fg%2F1vbl6f8y!19sChIJX-FQ-ROUf0cR37UjEivjIfY?authuser=0&hl=tr&rclk=1",
    "website_url": "http://www.zavattierus.it/",
    "rating_text": "4,7",
    "stars": null,
    "number_of_reviews": null,
    "price_level": "",
    "open_hours": "",
    "extraction_timestamp": "2025-06-07T15:43:52.850Z",
    "source_name": "google",
    "source_query": "Irrigation Equipment",
    "source_country": "IT",
    "country": "Italy",
    "state": "Emilia-Romagna",
    "city": "Cavezzo"
  },
  {
    "source_id": "ChIJP7UJkmyXf0cRVW34e66bU2I",
    "name": "S. I. R. I. A. Spa",
    "category": "S. I. R. I. A. Spa",
    "formatted_address": "4,7(15)",
    "phone_number": "+39053521907",
    "source_url": "https://www.google.com/maps/place/S.+I.+R.+I.+A.+Spa/data=!4m7!3m6!1s0x477f976c9209b53f:0x62539bae7bf86d55!8m2!3d44.8938563!4d11.0818842!16s%2Fg%2F1t_hxv98!19sChIJP7UJkmyXf0cRVW34e66bU2I?authuser=0&hl=tr&rclk=1",
    "website_url": "http://www.siriapiscine.it/",
    "rating_text": "4,7",
    "stars": null,
    "number_of_reviews": null,
    "price_level": "",
    "open_hours": "",
    "extraction_timestamp": "2025-06-07T15:43:52.851Z",
    "source_name": "google",
    "source_query": "Irrigation Equipment",
    "source_country": "IT",
    "country": "Italy",
    "state": "Emilia-Romagna",
    "city": "Cavezzo"
  },
  {
    "source_id": "ChIJWeZYjACUf0cRYgcNgbZKuyQ",
    "name": "Ferramenta Nardi Marcello",
    "category": "Ferramenta Nardi Marcello",
    "formatted_address": "4,6(26)",
    "phone_number": "+39053558607",
    "source_url": "https://www.google.com/maps/place/Ferramenta+Nardi+Marcello/data=!4m7!3m6!1s0x477f94008c58e659:0x24bb4ab6810d0762!8m2!3d44.8377223!4d11.0302262!16s%2Fg%2F1tgcqql_!19sChIJWeZYjACUf0cRYgcNgbZKuyQ?authuser=0&hl=tr&rclk=1",
    "website_url": "",
    "rating_text": "4,6",
    "stars": null,
    "number_of_reviews": null,
    "price_level": "",
    "open_hours": "",
    "extraction_timestamp": "2025-06-07T15:43:52.852Z",
    "source_name": "google",
    "source_query": "Irrigation Equipment",
    "source_country": "IT",
    "country": "Italy",
    "state": "Emilia-Romagna",
    "city": "Cavezzo"
  },
  {
    "source_id": "ChIJAUxJ7j3df0cRV576jjhogAg",
    "name": "Aldrovandi Srl Sistemi Irrigazione",
    "category": "Aldrovandi Srl Sistemi Irrigazione",
    "formatted_address": "Sulama Ekipmanları Tedarikçisi · Via Giuseppe Verdi, 34Kalıcı olarak kapalı · +39 059 927676",
    "phone_number": "+39059927676",
    "source_url": "https://www.google.com/maps/place/Aldrovandi+Srl+Sistemi+Irrigazione/data=!4m7!3m6!1s0x477fdd3dee494c01:0x88068388efa9e57!8m2!3d44.59442!4d11.0592496!16s%2Fg%2F12hkr2kns!19sChIJAUxJ7j3df0cRV576jjhogAg?authuser=0&hl=tr&rclk=1",
    "website_url": "",
    "rating_text": "",
    "stars": null,
    "number_of_reviews": null,
    "price_level": "",
    "open_hours": "",
    "extraction_timestamp": "2025-06-07T15:43:52.853Z",
    "source_name": "google",
    "source_query": "Irrigation Equipment",
    "source_country": "IT",
    "country": "Italy",
    "state": "Emilia-Romagna",
    "city": "Cavezzo"
  }
]
