[
  {
    "source_id": "ChIJzWyZEf8dgEcRM0sVtbJE3TI",
    "name": "Impiantistica LAVONE",
    "category": "Impiantistica LAVONE",
    "formatted_address": "5,0(3)",
    "phone_number": "+393514759408",
    "source_url": "https://www.google.com/maps/place/Impiantistica+LAVONE/data=!4m7!3m6!1s0x47801dff11996ccd:0x32dd44b2b5154b33!8m2!3d44.7120611!4d10.6241549!16s%2Fg%2F11lp1gdrnd!19sChIJzWyZEf8dgEcRM0sVtbJE3TI?authuser=0&hl=tr&rclk=1",
    "website_url": "",
    "rating_text": "5,0",
    "stars": null,
    "number_of_reviews": null,
    "price_level": "",
    "open_hours": "",
    "extraction_timestamp": "2025-06-07T16:40:46.004Z",
    "source_name": "google",
    "source_query": "Irrigation Equipment",
    "source_country": "IT",
    "country": "Italy",
    "state": "Emilia-Romagna",
    "city": "Cavriago"
  },
  {
    "source_id": "ChIJ_6tKaYwagEcRL6soZdnk11U",
    "name": "Molino Borghi Ferruccio & C. S.N.C.",
    "category": "Molino Borghi Ferruccio & C. S.N.C.",
    "formatted_address": "4,8(52)",
    "phone_number": "+390522371948",
    "source_url": "https://www.google.com/maps/place/Molino+Borghi+Ferruccio+%26+C.+S.N.C./data=!4m7!3m6!1s0x47801a8c694aabff:0x55d7e4d96528ab2f!8m2!3d44.695174!4d10.5232699!16s%2Fg%2F1td75f93!19sChIJ_6tKaYwagEcRL6soZdnk11U?authuser=0&hl=tr&rclk=1",
    "website_url": "http://pellet-reggio-emilia.it/",
    "rating_text": "4,8",
    "stars": null,
    "number_of_reviews": null,
    "price_level": "",
    "open_hours": "",
    "extraction_timestamp": "2025-06-07T16:40:46.005Z",
    "source_name": "google",
    "source_query": "Irrigation Equipment",
    "source_country": "IT",
    "country": "Italy",
    "state": "Emilia-Romagna",
    "city": "Cavriago"
  },
  {
    "source_id": "ChIJna7HjaQcgEcR2wnTD8_e_HY",
    "name": "Hydrocontrol S.R.L.",
    "category": "Hydrocontrol S.R.L.",
    "formatted_address": "4,4(7)",
    "phone_number": "+390522330315",
    "source_url": "https://www.google.com/maps/place/Hydrocontrol+S.R.L./data=!4m7!3m6!1s0x47801ca48dc7ae9d:0x76fcdecf0fd309db!8m2!3d44.669783!4d10.597142!16s%2Fg%2F12hmcfzzg!19sChIJna7HjaQcgEcR2wnTD8_e_HY?authuser=0&hl=tr&rclk=1",
    "website_url": "https://www.hydrocontrol.it/",
    "rating_text": "4,4",
    "stars": null,
    "number_of_reviews": null,
    "price_level": "",
    "open_hours": "",
    "extraction_timestamp": "2025-06-07T16:40:46.007Z",
    "source_name": "google",
    "source_query": "Irrigation Equipment",
    "source_country": "IT",
    "country": "Italy",
    "state": "Emilia-Romagna",
    "city": "Cavriago"
  },
  {
    "source_id": "ChIJX-0HrXYcgEcRPiaDZKdV6iw",
    "name": "Idromeccanica Bertolini S.p.a.",
    "category": "Idromeccanica Bertolini S.p.a.",
    "formatted_address": "3,7(20)",
    "phone_number": "+390522306641",
    "source_url": "https://www.google.com/maps/place/Idromeccanica+Bertolini+S.p.a./data=!4m7!3m6!1s0x47801c76ad07ed5f:0x2cea55a76483263e!8m2!3d44.7131562!4d10.5953009!16s%2Fg%2F11b6j1nfcw!19sChIJX-0HrXYcgEcRPiaDZKdV6iw?authuser=0&hl=tr&rclk=1",
    "website_url": "http://www.bertolinipumps.com/",
    "rating_text": "3,7",
    "stars": null,
    "number_of_reviews": null,
    "price_level": "",
    "open_hours": "",
    "extraction_timestamp": "2025-06-07T16:40:46.009Z",
    "source_name": "google",
    "source_query": "Irrigation Equipment",
    "source_country": "IT",
    "country": "Italy",
    "state": "Emilia-Romagna",
    "city": "Cavriago"
  },
  {
    "source_id": "ChIJveAeFroEgEcRZfa9xqlB6vM",
    "name": "Morelli Irrigazioni",
    "category": "Morelli Irrigazioni",
    "formatted_address": "1,0(1)",
    "phone_number": "+393480042122",
    "source_url": "https://www.google.com/maps/place/Morelli+Irrigazioni/data=!4m7!3m6!1s0x478004ba161ee0bd:0xf3ea41a9c6bdf665!8m2!3d44.649256!4d10.5636837!16s%2Fg%2F11gy01p0bd!19sChIJveAeFroEgEcRZfa9xqlB6vM?authuser=0&hl=tr&rclk=1",
    "website_url": "http://irrigazionimorelli.it/",
    "rating_text": "1,0",
    "stars": null,
    "number_of_reviews": null,
    "price_level": "",
    "open_hours": "",
    "extraction_timestamp": "2025-06-07T16:40:46.011Z",
    "source_name": "google",
    "source_query": "Irrigation Equipment",
    "source_country": "IT",
    "country": "Italy",
    "state": "Emilia-Romagna",
    "city": "Cavriago"
  },
  {
    "source_id": "ChIJ48uws30bgEcRWyHrfQ9FiZs",
    "name": "Idrosystem S.a.s.",
    "category": "Idrosystem S.a.s.",
    "formatted_address": "5,0(1)",
    "phone_number": "+393398059087",
    "source_url": "https://www.google.com/maps/place/Idrosystem+S.a.s./data=!4m7!3m6!1s0x47801b7db3b0cbe3:0x9b89450f7deb215b!8m2!3d44.6983985!4d10.5237165!16s%2Fg%2F11qm6y33xy!19sChIJ48uws30bgEcRWyHrfQ9FiZs?authuser=0&hl=tr&rclk=1",
    "website_url": "https://idrosystemsas.it/",
    "rating_text": "5,0",
    "stars": null,
    "number_of_reviews": null,
    "price_level": "",
    "open_hours": "",
    "extraction_timestamp": "2025-06-07T16:40:46.012Z",
    "source_name": "google",
    "source_query": "Irrigation Equipment",
    "source_country": "IT",
    "country": "Italy",
    "state": "Emilia-Romagna",
    "city": "Cavriago"
  },
  {
    "source_id": "ChIJfWR-pfQagEcRmciTew-BRaA",
    "name": "F.LLI Caroli Di Caroli Giorgio E Alberto Snc",
    "category": "F.LLI Caroli Di Caroli Giorgio E Alberto Snc",
    "formatted_address": "4,6(99)",
    "phone_number": "+390522372125",
    "source_url": "https://www.google.com/maps/place/F.LLI+Caroli+Di+Caroli+Giorgio+E+Alberto+Snc/data=!4m7!3m6!1s0x47801af4a57e647d:0xa045810f7b93c899!8m2!3d44.6964166!4d10.5279966!16s%2Fg%2F1tf14qtz!19sChIJfWR-pfQagEcRmciTew-BRaA?authuser=0&hl=tr&rclk=1",
    "website_url": "https://ferramentacaroli.wixsite.com/ferramenta-f-lli-car",
    "rating_text": "4,6",
    "stars": null,
    "number_of_reviews": null,
    "price_level": "",
    "open_hours": "",
    "extraction_timestamp": "2025-06-07T16:40:46.014Z",
    "source_name": "google",
    "source_query": "Irrigation Equipment",
    "source_country": "IT",
    "country": "Italy",
    "state": "Emilia-Romagna",
    "city": "Cavriago"
  },
  {
    "source_id": "ChIJyzrWkkkagEcRKqQa0yKx3_I",
    "name": "Tecnair Italy Srl",
    "category": "Tecnair Italy Srl",
    "formatted_address": "Havalı Aletler Tedarikçisi ·  · Via dell' Industria, 4/AKapalı ⋅ Açılış zamanı: Pzt 08:00 · +39 0522 942700",
    "phone_number": "+390522942700",
    "source_url": "https://www.google.com/maps/place/Tecnair+Italy+Srl/data=!4m7!3m6!1s0x47801a4992d63acb:0xf2dfb122d31aa42a!8m2!3d44.7110232!4d10.5461728!16s%2Fg%2F11fnwhg7l3!19sChIJyzrWkkkagEcRKqQa0yKx3_I?authuser=0&hl=tr&rclk=1",
    "website_url": "http://www.tecnairitaly.com/",
    "rating_text": "",
    "stars": null,
    "number_of_reviews": null,
    "price_level": "",
    "open_hours": "",
    "extraction_timestamp": "2025-06-07T16:40:46.015Z",
    "source_name": "google",
    "source_query": "Irrigation Equipment",
    "source_country": "IT",
    "country": "Italy",
    "state": "Emilia-Romagna",
    "city": "Cavriago"
  },
  {
    "source_id": "ChIJcQG6ul7df0cR3VxKiu5OPBs",
    "name": "Scova Impianti Srl",
    "category": "Scova Impianti Srl",
    "formatted_address": "4,5(64)",
    "phone_number": "+39059923202",
    "source_url": "https://www.google.com/maps/place/Scova+Impianti+Srl/data=!4m7!3m6!1s0x477fdd5ebaba0171:0x1b3c4eee8a4a5cdd!8m2!3d44.6018135!4d11.032294!16s%2Fg%2F1tfzwbfb!19sChIJcQG6ul7df0cR3VxKiu5OPBs?authuser=0&hl=tr&rclk=1",
    "website_url": "https://www.scovaimpianti.com/",
    "rating_text": "4,5",
    "stars": null,
    "number_of_reviews": null,
    "price_level": "",
    "open_hours": "",
    "extraction_timestamp": "2025-06-07T16:40:46.017Z",
    "source_name": "google",
    "source_query": "Irrigation Equipment",
    "source_country": "IT",
    "country": "Italy",
    "state": "Emilia-Romagna",
    "city": "Cavriago"
  },
  {
    "source_id": "ChIJ69PdR1EvgEcRzaszzDo7sjQ",
    "name": "Nodolini s.n.c.",
    "category": "Nodolini s.n.c.",
    "formatted_address": "5,0(8)",
    "phone_number": "+390522977491",
    "source_url": "https://www.google.com/maps/place/Nodolini+s.n.c./data=!4m7!3m6!1s0x47802f5147ddd3eb:0x34b23b3acc33abcd!8m2!3d44.9541974!4d10.6879499!16s%2Fg%2F11b6j0n4vm!19sChIJ69PdR1EvgEcRzaszzDo7sjQ?authuser=0&hl=tr&rclk=1",
    "website_url": "http://www.nodolini.com/",
    "rating_text": "5,0",
    "stars": null,
    "number_of_reviews": null,
    "price_level": "",
    "open_hours": "",
    "extraction_timestamp": "2025-06-07T16:40:46.018Z",
    "source_name": "google",
    "source_query": "Irrigation Equipment",
    "source_country": "IT",
    "country": "Italy",
    "state": "Emilia-Romagna",
    "city": "Cavriago"
  }
]
