[
  {
    "source_id": "ChIJCdemP1a3f0cRPMl4lGeSCLI",
    "name": "Pianeta Acqua",
    "category": "Pianeta Acqua",
    "formatted_address": "5,0(1)",
    "phone_number": "+390510549799",
    "source_url": "https://www.google.com/maps/place/Pianeta+Acqua/data=!4m7!3m6!1s0x477fb7563fa6d709:0xb20892679478c93c!8m2!3d44.7409448!4d11.2994357!16s%2Fg%2F11h3l0gzc4!19sChIJCdemP1a3f0cRPMl4lGeSCLI?authuser=0&hl=tr&rclk=1",
    "website_url": "http://www.pianetaacquasrl.it/",
    "rating_text": "5,0",
    "stars": null,
    "number_of_reviews": null,
    "price_level": "",
    "open_hours": "",
    "extraction_timestamp": "2025-06-07T16:55:22.326Z",
    "source_name": "google",
    "source_query": "Irrigation Equipment",
    "source_country": "IT",
    "country": "Italy",
    "state": "Emilia-Romagna",
    "city": "Cento"
  },
  {
    "source_id": "ChIJ9bCJiuC3f0cRbnHyynyDL30",
    "name": "G.T. Comis Spa - Raccorderie Emiliane",
    "category": "G.T. Comis Spa - Raccorderie Emiliane",
    "formatted_address": "4,5(35)",
    "phone_number": "+39051904583",
    "source_url": "https://www.google.com/maps/place/G.T.+Comis+Spa+-+Raccorderie+Emiliane/data=!4m7!3m6!1s0x477fb7e08a89b0f5:0x7d2f837ccaf2716e!8m2!3d44.7414436!4d11.2991085!16s%2Fg%2F1tykt6v3!19sChIJ9bCJiuC3f0cRbnHyynyDL30?authuser=0&hl=tr&rclk=1",
    "website_url": "http://www.gtcomis.it/",
    "rating_text": "4,5",
    "stars": null,
    "number_of_reviews": null,
    "price_level": "",
    "open_hours": "",
    "extraction_timestamp": "2025-06-07T16:55:22.326Z",
    "source_name": "google",
    "source_query": "Irrigation Equipment",
    "source_country": "IT",
    "country": "Italy",
    "state": "Emilia-Romagna",
    "city": "Cento"
  },
  {
    "source_id": "ChIJAdO7fW3If0cRieaOr9qTeNg",
    "name": "Ramponi S.N.C. Di Ramponi Andrea & Massimo",
    "category": "Ramponi S.N.C. Di Ramponi Andrea & Massimo",
    "formatted_address": "4,8(70)",
    "phone_number": "+390516836631",
    "source_url": "https://www.google.com/maps/place/Ramponi+S.N.C.+Di+Ramponi+Andrea+%26+Massimo/data=!4m7!3m6!1s0x477fc86d7dbbd301:0xd87893daaf8ee689!8m2!3d44.7201142!4d11.2796847!16s%2Fg%2F1w0hzg6y!19sChIJAdO7fW3If0cRieaOr9qTeNg?authuser=0&hl=tr&rclk=1",
    "website_url": "https://www.facebook.com/Ramponisnc",
    "rating_text": "4,8",
    "stars": null,
    "number_of_reviews": null,
    "price_level": "",
    "open_hours": "",
    "extraction_timestamp": "2025-06-07T16:55:22.327Z",
    "source_name": "google",
    "source_query": "Irrigation Equipment",
    "source_country": "IT",
    "country": "Italy",
    "state": "Emilia-Romagna",
    "city": "Cento"
  },
  {
    "source_id": "ChIJAQCMHxfIf0cRHEoPlCdjUsM",
    "name": "GIMA Srl - Soluzioni per produzione agricola - officina contoterzi fitosanitari",
    "category": "GIMA Srl - Soluzioni per produzione agricola - officina contoterzi fitosanitari",
    "formatted_address": "4,0(2)",
    "phone_number": "+390516836207",
    "source_url": "https://www.google.com/maps/place/GIMA+Srl+-+Soluzioni+per+produzione+agricola+-+officina+contoterzi+fitosanitari/data=!4m7!3m6!1s0x477fc8171f8c0001:0xc3526327940f4a1c!8m2!3d44.7408542!4d11.3003727!16s%2Fg%2F11j8lz87bv!19sChIJAQCMHxfIf0cRHEoPlCdjUsM?authuser=0&hl=tr&rclk=1",
    "website_url": "http://www.gimacento.it/",
    "rating_text": "4,0",
    "stars": null,
    "number_of_reviews": null,
    "price_level": "",
    "open_hours": "",
    "extraction_timestamp": "2025-06-07T16:55:22.327Z",
    "source_name": "google",
    "source_query": "Irrigation Equipment",
    "source_country": "IT",
    "country": "Italy",
    "state": "Emilia-Romagna",
    "city": "Cento"
  },
  {
    "source_id": "ChIJT9RZ1cjJf0cRrnR3zRmMGHQ",
    "name": "Tinti Giorgio",
    "category": "Tinti Giorgio",
    "formatted_address": "4,8(4)",
    "phone_number": "+39051903331",
    "source_url": "https://www.google.com/maps/place/Tinti+Giorgio/data=!4m7!3m6!1s0x477fc9c8d559d44f:0x74188c19cd7774ae!8m2!3d44.7379556!4d11.3003222!16s%2Fg%2F11gp68tqbt!19sChIJT9RZ1cjJf0cRrnR3zRmMGHQ?authuser=0&hl=tr&rclk=1",
    "website_url": "",
    "rating_text": "4,8",
    "stars": null,
    "number_of_reviews": null,
    "price_level": "",
    "open_hours": "",
    "extraction_timestamp": "2025-06-07T16:55:22.327Z",
    "source_name": "google",
    "source_query": "Irrigation Equipment",
    "source_country": "IT",
    "country": "Italy",
    "state": "Emilia-Romagna",
    "city": "Cento"
  },
  {
    "source_id": "ChIJh3Nd8G0sfkcR_m7VewEmxXM",
    "name": "Irrigarden",
    "category": "Irrigarden",
    "formatted_address": "4,7(158)",
    "phone_number": "+39051782013",
    "source_url": "https://www.google.com/maps/place/Irrigarden/data=!4m7!3m6!1s0x477e2c6df05d7387:0x73c526017bd56efe!8m2!3d44.5096266!4d11.4390897!16s%2Fg%2F1vgw_l7w!19sChIJh3Nd8G0sfkcR_m7VewEmxXM?authuser=0&hl=tr&rclk=1",
    "website_url": "https://www.irrigarden-bo.it/",
    "rating_text": "4,7",
    "stars": null,
    "number_of_reviews": null,
    "price_level": "",
    "open_hours": "",
    "extraction_timestamp": "2025-06-07T16:55:22.328Z",
    "source_name": "google",
    "source_query": "Irrigation Equipment",
    "source_country": "IT",
    "country": "Italy",
    "state": "Emilia-Romagna",
    "city": "Cento"
  },
  {
    "source_id": "ChIJcQG6ul7df0cR3VxKiu5OPBs",
    "name": "Scova Impianti Srl",
    "category": "Scova Impianti Srl",
    "formatted_address": "4,5(64)",
    "phone_number": "+39059923202",
    "source_url": "https://www.google.com/maps/place/Scova+Impianti+Srl/data=!4m7!3m6!1s0x477fdd5ebaba0171:0x1b3c4eee8a4a5cdd!8m2!3d44.6018135!4d11.032294!16s%2Fg%2F1tfzwbfb!19sChIJcQG6ul7df0cR3VxKiu5OPBs?authuser=0&hl=tr&rclk=1",
    "website_url": "https://www.scovaimpianti.com/",
    "rating_text": "4,5",
    "stars": null,
    "number_of_reviews": null,
    "price_level": "",
    "open_hours": "",
    "extraction_timestamp": "2025-06-07T16:55:22.328Z",
    "source_name": "google",
    "source_query": "Irrigation Equipment",
    "source_country": "IT",
    "country": "Italy",
    "state": "Emilia-Romagna",
    "city": "Cento"
  },
  {
    "source_id": "ChIJs39gO0a6f0cRtYEZ6I4h0sw",
    "name": "Maccaferri Utensileria srl",
    "category": "Maccaferri Utensileria srl",
    "formatted_address": "4,7(292)",
    "phone_number": "+390516836466",
    "source_url": "https://www.google.com/maps/place/Maccaferri+Utensileria+srl/data=!4m7!3m6!1s0x477fba463b607fb3:0xccd2218ee81981b5!8m2!3d44.7300285!4d11.2868817!16s%2Fg%2F119v1w4yv!19sChIJs39gO0a6f0cRtYEZ6I4h0sw?authuser=0&hl=tr&rclk=1",
    "website_url": "https://www.utensmaccaferri.it/",
    "rating_text": "4,7",
    "stars": null,
    "number_of_reviews": null,
    "price_level": "",
    "open_hours": "",
    "extraction_timestamp": "2025-06-07T16:55:22.328Z",
    "source_name": "google",
    "source_query": "Irrigation Equipment",
    "source_country": "IT",
    "country": "Italy",
    "state": "Emilia-Romagna",
    "city": "Cento"
  },
  {
    "source_id": "ChIJz7lqO-a3f0cR3Ze5S5pKgBc",
    "name": "BALTUR S.P.A.",
    "category": "BALTUR S.P.A.",
    "formatted_address": "4,2(127)",
    "phone_number": "+390516843711",
    "source_url": "https://www.google.com/maps/place/BALTUR+S.P.A./data=!4m7!3m6!1s0x477fb7e63b6ab9cf:0x17804a9a4bb997dd!8m2!3d44.734442!4d11.291658!16s%2Fg%2F1vbl6f9b!19sChIJz7lqO-a3f0cR3Ze5S5pKgBc?authuser=0&hl=tr&rclk=1",
    "website_url": "http://www.baltur.com/",
    "rating_text": "4,2",
    "stars": null,
    "number_of_reviews": null,
    "price_level": "",
    "open_hours": "",
    "extraction_timestamp": "2025-06-07T16:55:22.329Z",
    "source_name": "google",
    "source_query": "Irrigation Equipment",
    "source_country": "IT",
    "country": "Italy",
    "state": "Emilia-Romagna",
    "city": "Cento"
  }
]
