[
  {
    "source_id": "ChIJH85Zjl63LBMRg74E5WHlct4",
    "name": "Sistemi Geotermici & Co. srl",
    "category": "Sistemi Geotermici & Co. srl",
    "formatted_address": "5,0(11)",
    "phone_number": "+390547671751",
    "source_url": "https://www.google.com/maps/place/Sistemi+Geotermici+%26+Co.+srl/data=!4m7!3m6!1s0x132cb75e8e59ce1f:0xde72e561e504be83!8m2!3d44.1820517!4d12.3660223!16s%2Fg%2F1tdqwnv9!19sChIJH85Zjl63LBMRg74E5WHlct4?authuser=0&hl=tr&rclk=1",
    "website_url": "http://www.sistemigeotermici.it/",
    "rating_text": "5,0",
    "stars": null,
    "number_of_reviews": null,
    "price_level": "",
    "open_hours": "",
    "extraction_timestamp": "2025-06-07T16:19:02.067Z",
    "source_name": "google",
    "source_query": "Irrigation Equipment",
    "source_country": "IT",
    "country": "Italy",
    "state": "Emilia-Romagna",
    "city": "Cesenatico"
  },
  {
    "source_id": "ChIJ8bBOJJq3LBMRF623j9p9RQM",
    "name": "Adriaticalor",
    "category": "Adriaticalor",
    "formatted_address": "4,3(13)",
    "phone_number": "+393333206680",
    "source_url": "https://www.google.com/maps/place/Adriaticalor/data=!4m7!3m6!1s0x132cb79a244eb0f1:0x3457dda8fb7ad17!8m2!3d44.1997484!4d12.3899833!16s%2Fg%2F11l7k5m6sw!19sChIJ8bBOJJq3LBMRF623j9p9RQM?authuser=0&hl=tr&rclk=1",
    "website_url": "https://adriaticalor.com/",
    "rating_text": "4,3",
    "stars": null,
    "number_of_reviews": null,
    "price_level": "",
    "open_hours": "",
    "extraction_timestamp": "2025-06-07T16:19:02.069Z",
    "source_name": "google",
    "source_query": "Irrigation Equipment",
    "source_country": "IT",
    "country": "Italy",
    "state": "Emilia-Romagna",
    "city": "Cesenatico"
  },
  {
    "source_id": "ChIJwUGH1Yq3LBMRhYPiPU28-Gw",
    "name": "Romagna Grandi Impianti",
    "category": "Romagna Grandi Impianti",
    "formatted_address": "4,3(17)",
    "phone_number": "+39054785274",
    "source_url": "https://www.google.com/maps/place/Romagna+Grandi+Impianti/data=!4m7!3m6!1s0x132cb78ad58741c1:0x6cf8bc4d3de28385!8m2!3d44.1750946!4d12.4155952!16s%2Fg%2F11c6mcg7zr!19sChIJwUGH1Yq3LBMRhYPiPU28-Gw?authuser=0&hl=tr&rclk=1",
    "website_url": "https://www.romagnagrandiimpianti.it/",
    "rating_text": "4,3",
    "stars": null,
    "number_of_reviews": null,
    "price_level": "",
    "open_hours": "",
    "extraction_timestamp": "2025-06-07T16:19:02.071Z",
    "source_name": "google",
    "source_query": "Irrigation Equipment",
    "source_country": "IT",
    "country": "Italy",
    "state": "Emilia-Romagna",
    "city": "Cesenatico"
  },
  {
    "source_id": "ChIJEfHM_vK3LBMRDMnMBHXy3YQ",
    "name": "Sacchetti Lucio & C. Snc - Plastichino, Impianti di Scarico, Ventilazione Meccanica e Irrigazione",
    "category": "Sacchetti Lucio & C. Snc - Plastichino, Impianti di Scarico, Ventilazione Meccanica e Irrigazione",
    "formatted_address": "Sacchetti Lucio & C. Snc - Plastichino, Impianti di Scarico, Ventilazione Meccanica e Irrigazione",
    "phone_number": "+39054785489",
    "source_url": "https://www.google.com/maps/place/Sacchetti+Lucio+%26+C.+Snc+-+Plastichino,+Impianti+di+Scarico,+Ventilazione+Meccanica+e+Irrigazione/data=!4m7!3m6!1s0x132cb7f2feccf111:0x84ddf27504ccc90c!8m2!3d44.1796748!4d12.4178958!16s%2Fg%2F1tq_yrsn!19sChIJEfHM_vK3LBMRDMnMBHXy3YQ?authuser=0&hl=tr&rclk=1",
    "website_url": "http://www.sacchettilucio.it/",
    "rating_text": "4,7",
    "stars": null,
    "number_of_reviews": null,
    "price_level": "",
    "open_hours": "",
    "extraction_timestamp": "2025-06-07T16:19:02.073Z",
    "source_name": "google",
    "source_query": "Irrigation Equipment",
    "source_country": "IT",
    "country": "Italy",
    "state": "Emilia-Romagna",
    "city": "Cesenatico"
  },
  {
    "source_id": "ChIJE8cWepG3LBMRUCRXSEx1Q3A",
    "name": "Global Servizi e Assistenza",
    "category": "Global Servizi e Assistenza",
    "formatted_address": "4,6(105)",
    "phone_number": "+39054771600",
    "source_url": "https://www.google.com/maps/place/Global+Servizi+e+Assistenza/data=!4m7!3m6!1s0x132cb7917a16c713:0x7043754c48572450!8m2!3d44.1844646!4d12.3637043!16s%2Fg%2F1tgl64qs!19sChIJE8cWepG3LBMRUCRXSEx1Q3A?authuser=0&hl=tr&rclk=1",
    "website_url": "http://www.global-assistance.eu/",
    "rating_text": "4,6",
    "stars": null,
    "number_of_reviews": null,
    "price_level": "",
    "open_hours": "",
    "extraction_timestamp": "2025-06-07T16:19:02.074Z",
    "source_name": "google",
    "source_query": "Irrigation Equipment",
    "source_country": "IT",
    "country": "Italy",
    "state": "Emilia-Romagna",
    "city": "Cesenatico"
  },
  {
    "source_id": "ChIJxwyfbMW-LBMR82ivWDKLyak",
    "name": "Campedelli srl",
    "category": "Campedelli srl",
    "formatted_address": "4,3(20)",
    "phone_number": "+390541945180",
    "source_url": "https://www.google.com/maps/place/Campedelli+srl/data=!4m7!3m6!1s0x132cbec56c9f0cc7:0xa9c98b3258af68f3!8m2!3d44.0913771!4d12.3790216!16s%2Fg%2F1td55wfn!19sChIJxwyfbMW-LBMR82ivWDKLyak?authuser=0&hl=tr&rclk=1",
    "website_url": "https://www.facebook.com/pg/campedellisrl.savignanosulrubicone/community/",
    "rating_text": "4,3",
    "stars": null,
    "number_of_reviews": null,
    "price_level": "",
    "open_hours": "",
    "extraction_timestamp": "2025-06-07T16:19:02.075Z",
    "source_name": "google",
    "source_query": "Irrigation Equipment",
    "source_country": "IT",
    "country": "Italy",
    "state": "Emilia-Romagna",
    "city": "Cesenatico"
  },
  {
    "source_id": "ChIJ1dctBE66LBMRYD-M3IRBi9M",
    "name": "Venturi SAS di Venturi Piero & C.",
    "category": "Venturi SAS di Venturi Piero & C.",
    "formatted_address": "4,3(64)",
    "phone_number": "+390547311136",
    "source_url": "https://www.google.com/maps/place/Venturi+SAS+di+Venturi+Piero+%26+C./data=!4m7!3m6!1s0x132cba4e042dd7d5:0xd38b4184dc8c3f60!8m2!3d44.1516799!4d12.3126239!16s%2Fg%2F11csb23jzd!19sChIJ1dctBE66LBMRYD-M3IRBi9M?authuser=0&hl=tr&rclk=1",
    "website_url": "https://www.venturi.fc.it/",
    "rating_text": "4,3",
    "stars": null,
    "number_of_reviews": null,
    "price_level": "",
    "open_hours": "",
    "extraction_timestamp": "2025-06-07T16:19:02.076Z",
    "source_name": "google",
    "source_query": "Irrigation Equipment",
    "source_country": "IT",
    "country": "Italy",
    "state": "Emilia-Romagna",
    "city": "Cesenatico"
  },
  {
    "source_id": "ChIJy4AVn9C-LBMRn6nsnuZl82A",
    "name": "Ramilli Irrigazioni S.R.L.",
    "category": "Ramilli Irrigazioni S.R.L.",
    "formatted_address": "4,3(52)",
    "phone_number": "+390541945335",
    "source_url": "https://www.google.com/maps/place/Ramilli+Irrigazioni+S.R.L./data=!4m7!3m6!1s0x132cbed09f1580cb:0x60f365e69eeca99f!8m2!3d44.0923156!4d12.3843691!16s%2Fg%2F1ts2ls1r!19sChIJy4AVn9C-LBMRn6nsnuZl82A?authuser=0&hl=tr&rclk=1",
    "website_url": "https://www.ramilli.it/",
    "rating_text": "4,3",
    "stars": null,
    "number_of_reviews": null,
    "price_level": "",
    "open_hours": "",
    "extraction_timestamp": "2025-06-07T16:19:02.077Z",
    "source_name": "google",
    "source_query": "Irrigation Equipment",
    "source_country": "IT",
    "country": "Italy",
    "state": "Emilia-Romagna",
    "city": "Cesenatico"
  },
  {
    "source_id": "ChIJx7wV_Za5LBMRxiBojMDlvGk",
    "name": "Tecnosonda Romagna",
    "category": "Tecnosonda Romagna",
    "formatted_address": "2,8(6)",
    "phone_number": "+39054788522",
    "source_url": "https://www.google.com/maps/place/Tecnosonda+Romagna/data=!4m7!3m6!1s0x132cb996fd15bcc7:0x69bce5c08c6820c6!8m2!3d44.154304!4d12.3643532!16s%2Fg%2F1td2pm03!19sChIJx7wV_Za5LBMRxiBojMDlvGk?authuser=0&hl=tr&rclk=1",
    "website_url": "https://www.tecnosondaromagna.it/",
    "rating_text": "2,8",
    "stars": null,
    "number_of_reviews": null,
    "price_level": "",
    "open_hours": "",
    "extraction_timestamp": "2025-06-07T16:19:02.078Z",
    "source_name": "google",
    "source_query": "Irrigation Equipment",
    "source_country": "IT",
    "country": "Italy",
    "state": "Emilia-Romagna",
    "city": "Cesenatico"
  },
  {
    "source_id": "ChIJDUg-8fa5LBMReeQ9ydeeco8",
    "name": "Tabaku A. Impianti d'irrigazione",
    "category": "Tabaku A. Impianti d'irrigazione",
    "formatted_address": "5,0(15)",
    "phone_number": "+393487828399",
    "source_url": "https://www.google.com/maps/place/Tabaku+A.+Impianti+d%27irrigazione/data=!4m7!3m6!1s0x132cb9f6f13e480d:0x8f729ed7c93de479!8m2!3d44.1057266!4d12.3865066!16s%2Fg%2F11y5f01cdv!19sChIJDUg-8fa5LBMReeQ9ydeeco8?authuser=0&hl=tr&rclk=1",
    "website_url": "https://www.tabakua.online/",
    "rating_text": "5,0",
    "stars": null,
    "number_of_reviews": null,
    "price_level": "",
    "open_hours": "",
    "extraction_timestamp": "2025-06-07T16:19:02.079Z",
    "source_name": "google",
    "source_query": "Irrigation Equipment",
    "source_country": "IT",
    "country": "Italy",
    "state": "Emilia-Romagna",
    "city": "Cesenatico"
  },
  {
    "source_id": "ChIJAbwfMgi8LBMRioiar71f0bM",
    "name": "Calandrini Irrigazioni",
    "category": "Calandrini Irrigazioni",
    "formatted_address": "4,4(18)",
    "phone_number": "+39054756150",
    "source_url": "https://www.google.com/maps/place/Calandrini+Irrigazioni/data=!4m7!3m6!1s0x132cbc08321fbc01:0xb3d15fbdaf9a888a!8m2!3d44.1072556!4d12.3324437!16s%2Fg%2F1td0k7ly!19sChIJAbwfMgi8LBMRioiar71f0bM?authuser=0&hl=tr&rclk=1",
    "website_url": "https://www.irrigazionicalandrini.it/",
    "rating_text": "4,4",
    "stars": null,
    "number_of_reviews": null,
    "price_level": "",
    "open_hours": "",
    "extraction_timestamp": "2025-06-07T16:19:02.080Z",
    "source_name": "google",
    "source_query": "Irrigation Equipment",
    "source_country": "IT",
    "country": "Italy",
    "state": "Emilia-Romagna",
    "city": "Cesenatico"
  },
  {
    "source_id": "ChIJM4rKf7a5LBMRAf7AVm6owOU",
    "name": "Moretti Renzo SAS",
    "category": "Moretti Renzo SAS",
    "formatted_address": "4,6(66)",
    "phone_number": "+39054788213",
    "source_url": "https://www.google.com/maps/place/Moretti+Renzo+SAS/data=!4m7!3m6!1s0x132cb9b67fca8a33:0xe5c0a86e56c0fe01!8m2!3d44.1551017!4d12.3861131!16s%2Fg%2F11c5sy6_bp!19sChIJM4rKf7a5LBMRAf7AVm6owOU?authuser=0&hl=tr&rclk=1",
    "website_url": "",
    "rating_text": "4,6",
    "stars": null,
    "number_of_reviews": null,
    "price_level": "",
    "open_hours": "",
    "extraction_timestamp": "2025-06-07T16:19:02.081Z",
    "source_name": "google",
    "source_query": "Irrigation Equipment",
    "source_country": "IT",
    "country": "Italy",
    "state": "Emilia-Romagna",
    "city": "Cesenatico"
  },
  {
    "source_id": "ChIJ68i18nq6LBMRHr0Y1_62DLE",
    "name": "Lineaverde s.a.s. di Fantini Marina",
    "category": "Lineaverde s.a.s. di Fantini Marina",
    "formatted_address": "4,8(24)",
    "phone_number": "+390547322071",
    "source_url": "https://www.google.com/maps/place/Lineaverde+s.a.s.+di+Fantini+Marina/data=!4m7!3m6!1s0x132cba7af2b5c8eb:0xb10cb6fed718bd1e!8m2!3d44.176567!4d12.3105783!16s%2Fg%2F11d_25mn6t!19sChIJ68i18nq6LBMRHr0Y1_62DLE?authuser=0&hl=tr&rclk=1",
    "website_url": "http://www.lineaverdecesena.it/",
    "rating_text": "4,8",
    "stars": null,
    "number_of_reviews": null,
    "price_level": "",
    "open_hours": "",
    "extraction_timestamp": "2025-06-07T16:19:02.082Z",
    "source_name": "google",
    "source_query": "Irrigation Equipment",
    "source_country": "IT",
    "country": "Italy",
    "state": "Emilia-Romagna",
    "city": "Cesenatico"
  },
  {
    "source_id": "ChIJ3yR-dAi3LBMReA8mFF2qTBU",
    "name": "M.P. Elettroservizi S.R.L.",
    "category": "M.P. Elettroservizi S.R.L.",
    "formatted_address": "4,6(199)",
    "phone_number": "+390547675690",
    "source_url": "https://www.google.com/maps/place/M.P.+Elettroservizi+S.R.L./data=!4m7!3m6!1s0x132cb708747e24df:0x154caa5d14260f78!8m2!3d44.2092484!4d12.385005!16s%2Fg%2F1td1xw_g!19sChIJ3yR-dAi3LBMReA8mFF2qTBU?authuser=0&hl=tr&rclk=1",
    "website_url": "http://www.mpelettroservizi.it/",
    "rating_text": "4,6",
    "stars": null,
    "number_of_reviews": null,
    "price_level": "",
    "open_hours": "",
    "extraction_timestamp": "2025-06-07T16:19:02.083Z",
    "source_name": "google",
    "source_query": "Irrigation Equipment",
    "source_country": "IT",
    "country": "Italy",
    "state": "Emilia-Romagna",
    "city": "Cesenatico"
  },
  {
    "source_id": "ChIJvyRirIy3LBMRBMkrR2LAMdY",
    "name": "Adriajet",
    "category": "Adriajet",
    "formatted_address": "4,1(20)",
    "phone_number": "+390547680180",
    "source_url": "https://www.google.com/maps/place/Adriajet/data=!4m7!3m6!1s0x132cb78cac6224bf:0xd631c062472bc904!8m2!3d44.1769958!4d12.4160724!16s%2Fg%2F1tdtxq8z!19sChIJvyRirIy3LBMRBMkrR2LAMdY?authuser=0&hl=tr&rclk=1",
    "website_url": "http://www.adriajet.it/",
    "rating_text": "4,1",
    "stars": null,
    "number_of_reviews": null,
    "price_level": "",
    "open_hours": "",
    "extraction_timestamp": "2025-06-07T16:19:02.084Z",
    "source_name": "google",
    "source_query": "Irrigation Equipment",
    "source_country": "IT",
    "country": "Italy",
    "state": "Emilia-Romagna",
    "city": "Cesenatico"
  },
  {
    "source_id": "ChIJ1xYfYTK7LBMRH8fF3soqxIc",
    "name": "Caselli Mirco",
    "category": "Caselli Mirco",
    "formatted_address": "4,7(75)",
    "phone_number": "+390547645010",
    "source_url": "https://www.google.com/maps/place/Caselli+Mirco/data=!4m7!3m6!1s0x132cbb32611f16d7:0x87c42acadec5c71f!8m2!3d44.1180337!4d12.306261!16s%2Fg%2F1hc61vjd1!19sChIJ1xYfYTK7LBMRH8fF3soqxIc?authuser=0&hl=tr&rclk=1",
    "website_url": "",
    "rating_text": "4,7",
    "stars": null,
    "number_of_reviews": null,
    "price_level": "",
    "open_hours": "",
    "extraction_timestamp": "2025-06-07T16:19:02.085Z",
    "source_name": "google",
    "source_query": "Irrigation Equipment",
    "source_country": "IT",
    "country": "Italy",
    "state": "Emilia-Romagna",
    "city": "Cesenatico"
  },
  {
    "source_id": "ChIJ85cgpku6LBMRfX081ZX-wQQ",
    "name": "Idroget Atomizzatori Di Bianchi Carlo E C. (S.N.C.)",
    "category": "Idroget Atomizzatori Di Bianchi Carlo E C. (S.N.C.)",
    "formatted_address": "4,7(10)",
    "phone_number": "+390547300163",
    "source_url": "https://www.google.com/maps/place/Idroget+Atomizzatori+Di+Bianchi+Carlo+E+C.+%28S.N.C.%29/data=!4m7!3m6!1s0x132cba4ba62097f3:0x4c1fe95d53c7d7d!8m2!3d44.1418046!4d12.3078685!16s%2Fg%2F11b6j8p8p3!19sChIJ85cgpku6LBMRfX081ZX-wQQ?authuser=0&hl=tr&rclk=1",
    "website_url": "http://www.idroget.it/",
    "rating_text": "4,7",
    "stars": null,
    "number_of_reviews": null,
    "price_level": "",
    "open_hours": "",
    "extraction_timestamp": "2025-06-07T16:19:02.086Z",
    "source_name": "google",
    "source_query": "Irrigation Equipment",
    "source_country": "IT",
    "country": "Italy",
    "state": "Emilia-Romagna",
    "city": "Cesenatico"
  },
  {
    "source_id": "ChIJ9Z2O0aW3LBMRzOyTIm--96o",
    "name": "Cortesi Emanuele",
    "category": "Cortesi Emanuele",
    "formatted_address": "4,6(31)",
    "phone_number": "+39054780102",
    "source_url": "https://www.google.com/maps/place/Cortesi+Emanuele/data=!4m7!3m6!1s0x132cb7a5d18e9df5:0xaaf7be6f2293eccc!8m2!3d44.2006462!4d12.3986102!16s%2Fg%2F1hc28chnq!19sChIJ9Z2O0aW3LBMRzOyTIm--96o?authuser=0&hl=tr&rclk=1",
    "website_url": "",
    "rating_text": "4,6",
    "stars": null,
    "number_of_reviews": null,
    "price_level": "",
    "open_hours": "",
    "extraction_timestamp": "2025-06-07T16:19:02.087Z",
    "source_name": "google",
    "source_query": "Irrigation Equipment",
    "source_country": "IT",
    "country": "Italy",
    "state": "Emilia-Romagna",
    "city": "Cesenatico"
  },
  {
    "source_id": "ChIJj-JRw-C5LBMRJEax5UfBn1U",
    "name": "Natura Center Di Giuseppe Angelini &C S.N.C.",
    "category": "Natura Center Di Giuseppe Angelini &C S.N.C.",
    "formatted_address": "4,7(64)",
    "phone_number": "+39054771369",
    "source_url": "https://www.google.com/maps/place/Natura+Center+Di+Giuseppe+Angelini+%26C+S.N.C./data=!4m7!3m6!1s0x132cb9e0c351e28f:0x559fc147e5b14624!8m2!3d44.1740293!4d12.3671241!16s%2Fg%2F1tfdhhg_!19sChIJj-JRw-C5LBMRJEax5UfBn1U?authuser=0&hl=tr&rclk=1",
    "website_url": "",
    "rating_text": "4,7",
    "stars": null,
    "number_of_reviews": null,
    "price_level": "",
    "open_hours": "",
    "extraction_timestamp": "2025-06-07T16:19:02.088Z",
    "source_name": "google",
    "source_query": "Irrigation Equipment",
    "source_country": "IT",
    "country": "Italy",
    "state": "Emilia-Romagna",
    "city": "Cesenatico"
  },
  {
    "source_id": "ChIJv8iX1Dy6LBMRPkYlIF_wkys",
    "name": "Plastic System di Paganelli Gianluca e C.",
    "category": "Plastic System di Paganelli Gianluca e C.",
    "formatted_address": "5,0(1)",
    "phone_number": "+390547311009",
    "source_url": "https://www.google.com/maps/place/Plastic+System+di+Paganelli+Gianluca+e+C./data=!4m7!3m6!1s0x132cba3cd497c8bf:0x2b93f05f2025463e!8m2!3d44.1580262!4d12.3355156!16s%2Fg%2F11cn3ph14y!19sChIJv8iX1Dy6LBMRPkYlIF_wkys?authuser=0&hl=tr&rclk=1",
    "website_url": "",
    "rating_text": "5,0",
    "stars": null,
    "number_of_reviews": null,
    "price_level": "",
    "open_hours": "",
    "extraction_timestamp": "2025-06-07T16:19:02.089Z",
    "source_name": "google",
    "source_query": "Irrigation Equipment",
    "source_country": "IT",
    "country": "Italy",
    "state": "Emilia-Romagna",
    "city": "Cesenatico"
  },
  {
    "source_id": "ChIJvcDem-ikLBMRGr--H_X5Hms",
    "name": "Water Team S.r.l.",
    "category": "Water Team S.r.l.",
    "formatted_address": "5,0(3)",
    "phone_number": "+390547601040",
    "source_url": "https://www.google.com/maps/place/Water+Team+S.r.l./data=!4m7!3m6!1s0x132ca4e89bdec0bd:0x6b1ef9f51fbebf1a!8m2!3d44.1552421!4d12.2123603!16s%2Fg%2F1tfdvh1_!19sChIJvcDem-ikLBMRGr--H_X5Hms?authuser=0&hl=tr&rclk=1",
    "website_url": "https://www.waterteam.it/",
    "rating_text": "5,0",
    "stars": null,
    "number_of_reviews": null,
    "price_level": "",
    "open_hours": "",
    "extraction_timestamp": "2025-06-07T16:19:02.090Z",
    "source_name": "google",
    "source_query": "Irrigation Equipment",
    "source_country": "IT",
    "country": "Italy",
    "state": "Emilia-Romagna",
    "city": "Cesenatico"
  },
  {
    "source_id": "ChIJL6a0_CuxLBMR-IBigzDjghs",
    "name": "Idros.art & Bozzola Group S.p.A.",
    "category": "Idros.art & Bozzola Group S.p.A.",
    "formatted_address": "4,1(27)",
    "phone_number": "+390544964596",
    "source_url": "https://www.google.com/maps/place/Idros.art+%26+Bozzola+Group+S.p.A./data=!4m7!3m6!1s0x132cb12bfcb4a62f:0x1b82e330836280f8!8m2!3d44.2219734!4d12.3413686!16s%2Fg%2F1hc68233n!19sChIJL6a0_CuxLBMR-IBigzDjghs?authuser=0&hl=tr&rclk=1",
    "website_url": "http://www.idrosart-bozzola.it/",
    "rating_text": "4,1",
    "stars": null,
    "number_of_reviews": null,
    "price_level": "",
    "open_hours": "",
    "extraction_timestamp": "2025-06-07T16:19:02.091Z",
    "source_name": "google",
    "source_query": "Irrigation Equipment",
    "source_country": "IT",
    "country": "Italy",
    "state": "Emilia-Romagna",
    "city": "Cesenatico"
  },
  {
    "source_id": "ChIJI4619763LBMRj-njuwog9HQ",
    "name": "Punto Sport Srl",
    "category": "Punto Sport Srl",
    "formatted_address": "4,4(53)",
    "phone_number": "+39054782683",
    "source_url": "https://www.google.com/maps/place/Punto+Sport+Srl/data=!4m7!3m6!1s0x132cb7bef7b58e23:0x74f4200abbe3e98f!8m2!3d44.1944125!4d12.4113957!16s%2Fg%2F1tp1ddt6!19sChIJI4619763LBMRj-njuwog9HQ?authuser=0&hl=tr&rclk=1",
    "website_url": "http://www.puntosportcesenatico.it/",
    "rating_text": "4,4",
    "stars": null,
    "number_of_reviews": null,
    "price_level": "",
    "open_hours": "",
    "extraction_timestamp": "2025-06-07T16:19:02.092Z",
    "source_name": "google",
    "source_query": "Irrigation Equipment",
    "source_country": "IT",
    "country": "Italy",
    "state": "Emilia-Romagna",
    "city": "Cesenatico"
  },
  {
    "source_id": "ChIJXSqKoKG3LBMRFydCyNLnxBA",
    "name": "Brico&Co",
    "category": "Brico&Co",
    "formatted_address": "4,5(109)",
    "phone_number": "+390547673309",
    "source_url": "https://www.google.com/maps/place/Brico%26Co/data=!4m7!3m6!1s0x132cb7a1a08a2a5d:0x10c4e7d2c8422717!8m2!3d44.1959806!4d12.3964393!16s%2Fg%2F12hx_mrz4!19sChIJXSqKoKG3LBMRFydCyNLnxBA?authuser=0&hl=tr&rclk=1",
    "website_url": "",
    "rating_text": "4,5",
    "stars": null,
    "number_of_reviews": null,
    "price_level": "",
    "open_hours": "",
    "extraction_timestamp": "2025-06-07T16:19:02.093Z",
    "source_name": "google",
    "source_query": "Irrigation Equipment",
    "source_country": "IT",
    "country": "Italy",
    "state": "Emilia-Romagna",
    "city": "Cesenatico"
  },
  {
    "source_id": "ChIJMaG-OgWlLBMR9aqq4v8hhz4",
    "name": "Idraulica Placucci Srl Cesena forniture termoidrauliche",
    "category": "Idraulica Placucci Srl Cesena forniture termoidrauliche",
    "formatted_address": "4,6(63)",
    "phone_number": "+390547312089",
    "source_url": "https://www.google.com/maps/place/Idraulica+Placucci+Srl+Cesena+forniture+termoidrauliche/data=!4m7!3m6!1s0x132ca5053abea131:0x3e8721ffe2aaaaf5!8m2!3d44.1652927!4d12.2199399!16s%2Fg%2F1tf91ylz!19sChIJMaG-OgWlLBMR9aqq4v8hhz4?authuser=0&hl=tr&rclk=1",
    "website_url": "https://www.idroplacucci.it/it",
    "rating_text": "4,6",
    "stars": null,
    "number_of_reviews": null,
    "price_level": "",
    "open_hours": "",
    "extraction_timestamp": "2025-06-07T16:19:02.095Z",
    "source_name": "google",
    "source_query": "Irrigation Equipment",
    "source_country": "IT",
    "country": "Italy",
    "state": "Emilia-Romagna",
    "city": "Cesenatico"
  },
  {
    "source_id": "ChIJtRiATny5LBMRg7dg9SqvjDg",
    "name": "Brico io SAN MAURO PASCOLI",
    "category": "Brico io SAN MAURO PASCOLI",
    "formatted_address": "3,8(30)",
    "phone_number": "+3905411781445",
    "source_url": "https://www.google.com/maps/place/Brico+io+SAN+MAURO+PASCOLI/data=!4m7!3m6!1s0x132cb97c4e8018b5:0x388caf2af560b783!8m2!3d44.1005488!4d12.4211328!16s%2Fg%2F11vkhnyc16!19sChIJtRiATny5LBMRg7dg9SqvjDg?authuser=0&hl=tr&rclk=1",
    "website_url": "https://www.bricoio.it/it/it/brit/",
    "rating_text": "3,8",
    "stars": null,
    "number_of_reviews": null,
    "price_level": "",
    "open_hours": "",
    "extraction_timestamp": "2025-06-07T16:19:02.096Z",
    "source_name": "google",
    "source_query": "Irrigation Equipment",
    "source_country": "IT",
    "country": "Italy",
    "state": "Emilia-Romagna",
    "city": "Cesenatico"
  },
  {
    "source_id": "ChIJvck6rjOlLBMRjz5KZMmLUq4",
    "name": "Italian Sprout Srl",
    "category": "Italian Sprout Srl",
    "formatted_address": "5,0(16)",
    "phone_number": "+390547030094",
    "source_url": "https://www.google.com/maps/place/Italian+Sprout+Srl/data=!4m7!3m6!1s0x132ca533ae3ac9bd:0xae528bc9644a3e8f!8m2!3d44.1597091!4d12.2446711!16s%2Fg%2F11q8vntllf!19sChIJvck6rjOlLBMRjz5KZMmLUq4?authuser=0&hl=tr&rclk=1",
    "website_url": "https://www.italiansprout.com/",
    "rating_text": "5,0",
    "stars": null,
    "number_of_reviews": null,
    "price_level": "",
    "open_hours": "",
    "extraction_timestamp": "2025-06-07T16:19:02.097Z",
    "source_name": "google",
    "source_query": "Irrigation Equipment",
    "source_country": "IT",
    "country": "Italy",
    "state": "Emilia-Romagna",
    "city": "Cesenatico"
  },
  {
    "source_id": "ChIJ_6V63QO8LBMRWhnNjhv4AF0",
    "name": "Ricci Giorgio Srl ricambi industriali",
    "category": "Ricci Giorgio Srl ricambi industriali",
    "formatted_address": "4,9(47)",
    "phone_number": "+39054756063",
    "source_url": "https://www.google.com/maps/place/Ricci+Giorgio+Srl+ricambi+industriali/data=!4m7!3m6!1s0x132cbc03dd7aa5ff:0x5d00f81b8ecd195a!8m2!3d44.1000251!4d12.3415346!16s%2Fg%2F1tdg04mt!19sChIJ_6V63QO8LBMRWhnNjhv4AF0?authuser=0&hl=tr&rclk=1",
    "website_url": "http://www.riccigiorgio.com/",
    "rating_text": "4,9",
    "stars": null,
    "number_of_reviews": null,
    "price_level": "",
    "open_hours": "",
    "extraction_timestamp": "2025-06-07T16:19:02.098Z",
    "source_name": "google",
    "source_query": "Irrigation Equipment",
    "source_country": "IT",
    "country": "Italy",
    "state": "Emilia-Romagna",
    "city": "Cesenatico"
  },
  {
    "source_id": "ChIJa4lY-CuxLBMRjezCKwPD4fo",
    "name": "Idroexpert S.P.a.",
    "category": "Idroexpert S.P.a.",
    "formatted_address": "4,7(17)",
    "phone_number": "+390544964311",
    "source_url": "https://www.google.com/maps/place/Idroexpert+S.P.a./data=!4m7!3m6!1s0x132cb12bf858896b:0xfae1c3032bc2ec8d!8m2!3d44.2221441!4d12.3413471!16s%2Fg%2F1tcy_s3c!19sChIJa4lY-CuxLBMRjezCKwPD4fo?authuser=0&hl=tr&rclk=1",
    "website_url": "https://www.idroexpert.com/",
    "rating_text": "4,7",
    "stars": null,
    "number_of_reviews": null,
    "price_level": "",
    "open_hours": "",
    "extraction_timestamp": "2025-06-07T16:19:02.100Z",
    "source_name": "google",
    "source_query": "Irrigation Equipment",
    "source_country": "IT",
    "country": "Italy",
    "state": "Emilia-Romagna",
    "city": "Cesenatico"
  },
  {
    "source_id": "ChIJ26uxlTulLBMRvXITxnpci0A",
    "name": "Idro Zeta - Sala Esposizione - Cesena",
    "category": "Idro Zeta - Sala Esposizione - Cesena",
    "formatted_address": "4,5(11)",
    "phone_number": "+390547380422",
    "source_url": "https://www.google.com/maps/place/Idro+Zeta+-+Sala+Esposizione+-+Cesena/data=!4m7!3m6!1s0x132ca53b95b1abdb:0x408b5c7ac61372bd!8m2!3d44.1514326!4d12.2444249!16s%2Fg%2F11j61g3cxk!19sChIJ26uxlTulLBMRvXITxnpci0A?authuser=0&hl=tr&rclk=1",
    "website_url": "http://www.idrozetashop.it/",
    "rating_text": "4,5",
    "stars": null,
    "number_of_reviews": null,
    "price_level": "",
    "open_hours": "",
    "extraction_timestamp": "2025-06-07T16:19:02.101Z",
    "source_name": "google",
    "source_query": "Irrigation Equipment",
    "source_country": "IT",
    "country": "Italy",
    "state": "Emilia-Romagna",
    "city": "Cesenatico"
  },
  {
    "source_id": "ChIJKb3qwAq9LBMRUcJUgWGEt0U",
    "name": "Casali Irrigazione",
    "category": "Casali Irrigazione",
    "formatted_address": "3,0(1)",
    "phone_number": "+393346424587",
    "source_url": "https://www.google.com/maps/place/Casali+Irrigazione/data=!4m7!3m6!1s0x132cbd0ac0eabd29:0x45b784618154c251!8m2!3d44.08289!4d12.27084!16s%2Fg%2F1tdr5fdj!19sChIJKb3qwAq9LBMRUcJUgWGEt0U?authuser=0&hl=tr&rclk=1",
    "website_url": "",
    "rating_text": "3,0",
    "stars": null,
    "number_of_reviews": null,
    "price_level": "",
    "open_hours": "",
    "extraction_timestamp": "2025-06-07T16:19:02.102Z",
    "source_name": "google",
    "source_query": "Irrigation Equipment",
    "source_country": "IT",
    "country": "Italy",
    "state": "Emilia-Romagna",
    "city": "Cesenatico"
  },
  {
    "source_id": "ChIJC0yrmXClLBMRAfJvTE5LdDE",
    "name": "TECNOWORK di Borghetti Andrea",
    "category": "TECNOWORK di Borghetti Andrea",
    "formatted_address": "5,0(1)",
    "phone_number": "+390547317550",
    "source_url": "https://www.google.com/maps/place/TECNOWORK+di+Borghetti+Andrea/data=!4m7!3m6!1s0x132ca57099ab4c0b:0x31744b4e4c6ff201!8m2!3d44.2222553!4d12.2659255!16s%2Fg%2F1tdhj1kw!19sChIJC0yrmXClLBMRAfJvTE5LdDE?authuser=0&hl=tr&rclk=1",
    "website_url": "http://tecnowork.org/",
    "rating_text": "5,0",
    "stars": null,
    "number_of_reviews": null,
    "price_level": "",
    "open_hours": "",
    "extraction_timestamp": "2025-06-07T16:19:02.102Z",
    "source_name": "google",
    "source_query": "Irrigation Equipment",
    "source_country": "IT",
    "country": "Italy",
    "state": "Emilia-Romagna",
    "city": "Cesenatico"
  },
  {
    "source_id": "ChIJ6ZeBsBqlLBMRxPyH3uXxToA",
    "name": "Pieri Group Srl - Igiene & Comfort",
    "category": "Pieri Group Srl - Igiene & Comfort",
    "formatted_address": "4,5(28)",
    "phone_number": "+390547318754",
    "source_url": "https://www.google.com/maps/place/Pieri+Group+Srl+-+Igiene+%26+Comfort/data=!4m7!3m6!1s0x132ca51ab08197e9:0x804ef1e5de87fcc4!8m2!3d44.1672328!4d12.2036195!16s%2Fg%2F1tf4_04v!19sChIJ6ZeBsBqlLBMRxPyH3uXxToA?authuser=0&hl=tr&rclk=1",
    "website_url": "https://pieri-group.it/",
    "rating_text": "4,5",
    "stars": null,
    "number_of_reviews": null,
    "price_level": "",
    "open_hours": "",
    "extraction_timestamp": "2025-06-07T16:19:02.103Z",
    "source_name": "google",
    "source_query": "Irrigation Equipment",
    "source_country": "IT",
    "country": "Italy",
    "state": "Emilia-Romagna",
    "city": "Cesenatico"
  }
]
